{"data": {"bikes": [{"is_disabled": 0, "is_reserved": 0, "fusion_lat": 0.0, "lat": 38.88582066666667, "fusion_lon": 0.0, "rental_uris": {"ios": "https://dc.lft.to/lastmile_qr_scan", "android": "https://dc.lft.to/lastmile_qr_scan"}, "lon": -77.01227966666667, "bike_id": "933ff11c57889ca8fccc6025a0054359", "type": "electric_scooter", "name": "933ff11c57889ca8fccc6025a0054359"}, {"is_disabled": 0, "is_reserved": 0, "fusion_lat": 0.0, "lat": 38.90684133333333, "fusion_lon": 0.0, "rental_uris": {"ios": "https://dc.lft.to/lastmile_qr_scan", "android": "https://dc.lft.to/lastmile_qr_scan"}, "lon": -77.06290933333334, "bike_id": "23a8a2886a3cad364208bd3f1e18bb90", "type": "electric_scooter", "name": "23a8a2886a3cad364208bd3f1e18bb90"}, {"is_disabled": 0, "is_reserved": 0, "fusion_lat": 0.0, "lat": 38.953692, "fusion_lon": 0.0, "rental_uris": {"ios": "https://dc.lft.to/lastmile_qr_scan", "android": "https://dc.lft.to/lastmile_qr_scan"}, "lon": -76.99844983333334, "bike_id": "88be3223f29c2c45249d9c8273725246", "type": "electric_scooter", "name": "88be3223f29c2c45249d9c8273725246"}, {"is_disabled": 0, "is_reserved": 0, "fusion_lat": 0.0, "lat": 38.92076216666667, "fusion_lon": 0.0, "rental_uris": {"ios": "https://dc.lft.to/lastmile_qr_scan", "android": "https://dc.lft.to/lastmile_qr_scan"}, "lon": -77.0237165, "bike_id": "1f5ed02701fc818fb7a2916ea1146f63", "type": "electric_scooter", "name": "1f5ed02701fc818fb7a2916ea1146f63"}, {"is_disabled": 0, "is_reserved": 0, "fusion_lat": 0.0, "lat": 38.9001895, "fusion_lon": 0.0, "rental_uris": {"ios": "https://dc.lft.to/lastmile_qr_scan", "android": "https://dc.lft.to/lastmile_qr_scan"}, "lon": -77.00345866666666, "bike_id": "058d52711bbfb9abfc3dd6e12cfea59d", "type": "electric_scooter", "name": "058d52711bbfb9abfc3dd6e12cfea59d"}, {"is_disabled": 0, "is_reserved": 0, "fusion_lat": 0.0, "lat": 38.924659, "fusion_lon": 0.0, "rental_uris": {"ios": "https://dc.lft.to/lastmile_qr_scan", "android": "https://dc.lft.to/lastmile_qr_scan"}, "lon": -77.03775533333334, "bike_id": "87b786486aaa91c575028752c4339272", "type": "electric_scooter", "name": "87b786486aaa91c575028752c4339272"}, {"is_disabled": 0, "is_reserved": 0, "fusion_lat": 0.0, "lat": 38.902324, "fusion_lon": 0.0, "rental_uris": {"ios": "https://dc.lft.to/lastmile_qr_scan", "android": "https://dc.lft.to/lastmile_qr_scan"}, "lon": -77.0006585, "bike_id": "e68dbcc1943199f131c12e493f3ab817", "type": "electric_scooter", "name": "e68dbcc1943199f131c12e493f3ab817"}, {"is_disabled": 0, "is_reserved": 0, "fusion_lat": 0.0, "lat": 38.917112333333336, "fusion_lon": 0.0, "rental_uris": {"ios": "https://dc.lft.to/lastmile_qr_scan", "android": "https://dc.lft.to/lastmile_qr_scan"}, "lon": -77.03854133333333, "bike_id": "5d8e6343ebe1ded17b65aa4b9db9da66", "type": "electric_scooter", "name": "5d8e6343ebe1ded17b65aa4b9db9da66"}, {"is_disabled": 0, "is_reserved": 0, "fusion_lat": 0.0, "lat": 38.93697383333333, "fusion_lon": 0.0, "rental_uris": {"ios": "https://dc.lft.to/lastmile_qr_scan", "android": "https://dc.lft.to/lastmile_qr_scan"}, "lon": -77.05599283333333, "bike_id": "5791dcdc9d9315f24cf49efc1606c34d", "type": "electric_scooter", "name": "5791dcdc9d9315f24cf49efc1606c34d"}, {"is_disabled": 0, "is_reserved": 0, "fusion_lat": 0.0, "lat": 38.89970316666667, "fusion_lon": 0.0, "rental_uris": {"ios": "https://dc.lft.to/lastmile_qr_scan", "android": "https://dc.lft.to/lastmile_qr_scan"}, "lon": -76.98353883333333, "bike_id": "8677c946df757553992292633339b41a", "type": "electric_scooter", "name": "8677c946df757553992292633339b41a"}, {"is_disabled": 0, "is_reserved": 0, "fusion_lat": 0.0, "lat": 38.8998885, "fusion_lon": 0.0, "rental_uris": {"ios": "https://dc.lft.to/lastmile_qr_scan", "android": "https://dc.lft.to/lastmile_qr_scan"}, "lon": -76.9949255, "bike_id": "23f953a37f7d4e4d3c5ed214db1927d9", "type": "electric_bike", "name": "23f953a37f7d4e4d3c5ed214db1927d9"}, {"is_disabled": 0, "is_reserved": 0, "fusion_lat": 0.0, "lat": 38.952604, "fusion_lon": 0.0, "rental_uris": {"ios": "https://dc.lft.to/lastmile_qr_scan", "android": "https://dc.lft.to/lastmile_qr_scan"}, "lon": -77.02072816666667, "bike_id": "503835de512b1e4b3b363375a1419715", "type": "electric_scooter", "name": "503835de512b1e4b3b363375a1419715"}, {"is_disabled": 0, "is_reserved": 0, "fusion_lat": 0.0, "lat": 38.914582, "fusion_lon": 0.0, "rental_uris": {"ios": "https://dc.lft.to/lastmile_qr_scan", "android": "https://dc.lft.to/lastmile_qr_scan"}, "lon": -77.04163166666666, "bike_id": "724a35c6761e6f4a8d661c854296eba6", "type": "electric_scooter", "name": "724a35c6761e6f4a8d661c854296eba6"}, {"is_disabled": 0, "is_reserved": 0, "fusion_lat": 0.0, "lat": 38.874714, "fusion_lon": 0.0, "rental_uris": {"ios": "https://dc.lft.to/lastmile_qr_scan", "android": "https://dc.lft.to/lastmile_qr_scan"}, "lon": -77.00515633333333, "bike_id": "21507d251469fb4a3f6a4e25943cd040", "type": "electric_scooter", "name": "21507d251469fb4a3f6a4e25943cd040"}, {"is_disabled": 0, "is_reserved": 0, "fusion_lat": 0.0, "lat": 38.91058533333333, "fusion_lon": 0.0, "rental_uris": {"ios": "https://dc.lft.to/lastmile_qr_scan", "android": "https://dc.lft.to/lastmile_qr_scan"}, "lon": -77.04405166666666, "bike_id": "ddbd617a28e569c04ec18bda1547ca82", "type": "electric_scooter", "name": "ddbd617a28e569c04ec18bda1547ca82"}, {"is_disabled": 0, "is_reserved": 0, "fusion_lat": 0.0, "lat": 38.936074166666664, "fusion_lon": 0.0, "rental_uris": {"ios": "https://dc.lft.to/lastmile_qr_scan", "android": "https://dc.lft.to/lastmile_qr_scan"}, "lon": -77.0387615, "bike_id": "cd2d877ba14f4d8a61d30d9290c48c66", "type": "electric_scooter", "name": "cd2d877ba14f4d8a61d30d9290c48c66"}, {"is_disabled": 0, "is_reserved": 0, "fusion_lat": 0.0, "lat": 38.89618316666667, "fusion_lon": 0.0, "rental_uris": {"ios": "https://dc.lft.to/lastmile_qr_scan", "android": "https://dc.lft.to/lastmile_qr_scan"}, "lon": -77.04117466666666, "bike_id": "e8805422b2f4c1142ee464737571c20a", "type": "electric_scooter", "name": "e8805422b2f4c1142ee464737571c20a"}, {"is_disabled": 0, "is_reserved": 0, "fusion_lat": 0.0, "lat": 38.92990983333333, "fusion_lon": 0.0, "rental_uris": {"ios": "https://dc.lft.to/lastmile_qr_scan", "android": "https://dc.lft.to/lastmile_qr_scan"}, "lon": -77.03470366666667, "bike_id": "016b67ccc7758c30ca162b8a0d5ac33c", "type": "electric_scooter", "name": "016b67ccc7758c30ca162b8a0d5ac33c"}, {"is_disabled": 0, "is_reserved": 0, "fusion_lat": 0.0, "lat": 38.89537716666667, "fusion_lon": 0.0, "rental_uris": {"ios": "https://dc.lft.to/lastmile_qr_scan", "android": "https://dc.lft.to/lastmile_qr_scan"}, "lon": -77.02687666666667, "bike_id": "3e9f1f0a29b36f4548177869a69093e9", "type": "electric_scooter", "name": "3e9f1f0a29b36f4548177869a69093e9"}, {"is_disabled": 0, "is_reserved": 0, "fusion_lat": 0.0, "lat": 38.89506883333333, "fusion_lon": 0.0, "rental_uris": {"ios": "https://dc.lft.to/lastmile_qr_scan", "android": "https://dc.lft.to/lastmile_qr_scan"}, "lon": -77.02583183333333, "bike_id": "4627660922ecc2d17dd0816b8a96cf50", "type": "electric_scooter", "name": "4627660922ecc2d17dd0816b8a96cf50"}, {"is_disabled": 0, "is_reserved": 0, "fusion_lat": 0.0, "lat": 38.88763516666667, "fusion_lon": 0.0, "rental_uris": {"ios": "https://dc.lft.to/lastmile_qr_scan", "android": "https://dc.lft.to/lastmile_qr_scan"}, "lon": -77.15657083333333, "bike_id": "f9de7eb5765eac97f1b89807365b4c6c", "type": "electric_bike", "name": "f9de7eb5765eac97f1b89807365b4c6c"}, {"is_disabled": 0, "is_reserved": 0, "fusion_lat": 0.0, "lat": 38.9090985, "fusion_lon": 0.0, "rental_uris": {"ios": "https://dc.lft.to/lastmile_qr_scan", "android": "https://dc.lft.to/lastmile_qr_scan"}, "lon": -76.9976855, "bike_id": "8fa9502464f2e492dab57f7061a2d307", "type": "electric_scooter", "name": "8fa9502464f2e492dab57f7061a2d307"}, {"is_disabled": 0, "is_reserved": 0, "fusion_lat": 0.0, "lat": 38.84687183333333, "fusion_lon": 0.0, "rental_uris": {"ios": "https://dc.lft.to/lastmile_qr_scan", "android": "https://dc.lft.to/lastmile_qr_scan"}, "lon": -76.9806135, "bike_id": "f540ac2f56fc0d1bc910c441781730ca", "type": "electric_bike", "name": "f540ac2f56fc0d1bc910c441781730ca"}, {"is_disabled": 0, "is_reserved": 0, "fusion_lat": 0.0, "lat": 38.92797483333333, "fusion_lon": 0.0, "rental_uris": {"ios": "https://dc.lft.to/lastmile_qr_scan", "android": "https://dc.lft.to/lastmile_qr_scan"}, "lon": -77.02130033333333, "bike_id": "5e06f9731eab3b97b1f994b5e91a97b9", "type": "electric_scooter", "name": "5e06f9731eab3b97b1f994b5e91a97b9"}, {"is_disabled": 0, "is_reserved": 0, "fusion_lat": 0.0, "lat": 38.9280865, "fusion_lon": 0.0, "rental_uris": {"ios": "https://dc.lft.to/lastmile_qr_scan", "android": "https://dc.lft.to/lastmile_qr_scan"}, "lon": -77.04344333333333, "bike_id": "e36987c281fddbda8db22a704b664548", "type": "electric_scooter", "name": "e36987c281fddbda8db22a704b664548"}, {"is_disabled": 0, "is_reserved": 0, "fusion_lat": 0.0, "lat": 38.9658175, "fusion_lon": 0.0, "rental_uris": {"ios": "https://dc.lft.to/lastmile_qr_scan", "android": "https://dc.lft.to/lastmile_qr_scan"}, "lon": -76.9796775, "bike_id": "e762bc254a0e4ba2f1bae77409d40652", "type": "electric_bike", "name": "e762bc254a0e4ba2f1bae77409d40652"}, {"is_disabled": 0, "is_reserved": 0, "fusion_lat": 0.0, "lat": 38.906515166666665, "fusion_lon": 0.0, "rental_uris": {"ios": "https://dc.lft.to/lastmile_qr_scan", "android": "https://dc.lft.to/lastmile_qr_scan"}, "lon": -77.02481816666666, "bike_id": "17eb7b47871b6b31892121dfbad53b47", "type": "electric_scooter", "name": "17eb7b47871b6b31892121dfbad53b47"}, {"is_disabled": 0, "is_reserved": 0, "fusion_lat": 0.0, "lat": 38.9196045, "fusion_lon": 0.0, "rental_uris": {"ios": "https://dc.lft.to/lastmile_qr_scan", "android": "https://dc.lft.to/lastmile_qr_scan"}, "lon": -77.02388766666667, "bike_id": "9390cfc089cb7344a6183ae1f7ed3dc3", "type": "electric_scooter", "name": "9390cfc089cb7344a6183ae1f7ed3dc3"}, {"is_disabled": 0, "is_reserved": 0, "fusion_lat": 0.0, "lat": 38.901824166666664, "fusion_lon": 0.0, "rental_uris": {"ios": "https://dc.lft.to/lastmile_qr_scan", "android": "https://dc.lft.to/lastmile_qr_scan"}, "lon": -77.0590745, "bike_id": "0c236402c333f9718501a2561431fe72", "type": "electric_scooter", "name": "0c236402c333f9718501a2561431fe72"}, {"is_disabled": 0, "is_reserved": 0, "fusion_lat": 0.0, "lat": 38.90211716666666, "fusion_lon": 0.0, "rental_uris": {"ios": "https://dc.lft.to/lastmile_qr_scan", "android": "https://dc.lft.to/lastmile_qr_scan"}, "lon": -76.99497716666667, "bike_id": "1829e09549c3aa5c4e110cccee7123bf", "type": "electric_scooter", "name": "1829e09549c3aa5c4e110cccee7123bf"}, {"is_disabled": 0, "is_reserved": 0, "fusion_lat": 0.0, "lat": 38.921344166666664, "fusion_lon": 0.0, "rental_uris": {"ios": "https://dc.lft.to/lastmile_qr_scan", "android": "https://dc.lft.to/lastmile_qr_scan"}, "lon": -77.0040105, "bike_id": "26c8d45f5875bb94bfd27f1ef37c57da", "type": "electric_scooter", "name": "26c8d45f5875bb94bfd27f1ef37c57da"}, {"is_disabled": 0, "is_reserved": 0, "fusion_lat": 0.0, "lat": 38.9250455, "fusion_lon": 0.0, "rental_uris": {"ios": "https://dc.lft.to/lastmile_qr_scan", "android": "https://dc.lft.to/lastmile_qr_scan"}, "lon": -77.02443216666667, "bike_id": "a8d01ab5c28eb46a2ac506a5e619271e", "type": "electric_scooter", "name": "a8d01ab5c28eb46a2ac506a5e619271e"}, {"is_disabled": 0, "is_reserved": 0, "fusion_lat": 0.0, "lat": 38.91156766666667, "fusion_lon": 0.0, "rental_uris": {"ios": "https://dc.lft.to/lastmile_qr_scan", "android": "https://dc.lft.to/lastmile_qr_scan"}, "lon": -77.0199725, "bike_id": "2f777bc151bc24aeee079136e8e79198", "type": "electric_scooter", "name": "2f777bc151bc24aeee079136e8e79198"}, {"is_disabled": 0, "is_reserved": 0, "fusion_lat": 0.0, "lat": 38.901480666666664, "fusion_lon": 0.0, "rental_uris": {"ios": "https://dc.lft.to/lastmile_qr_scan", "android": "https://dc.lft.to/lastmile_qr_scan"}, "lon": -77.01511533333333, "bike_id": "be82b517fc65c37fa4f0757f30c9d726", "type": "electric_scooter", "name": "be82b517fc65c37fa4f0757f30c9d726"}, {"is_disabled": 0, "is_reserved": 0, "fusion_lat": 0.0, "lat": 38.9279165, "fusion_lon": 0.0, "rental_uris": {"ios": "https://dc.lft.to/lastmile_qr_scan", "android": "https://dc.lft.to/lastmile_qr_scan"}, "lon": -77.0315385, "bike_id": "5294c38056506efae027817864f58376", "type": "electric_scooter", "name": "5294c38056506efae027817864f58376"}, {"is_disabled": 0, "is_reserved": 0, "fusion_lat": 0.0, "lat": 38.918117333333335, "fusion_lon": 0.0, "rental_uris": {"ios": "https://dc.lft.to/lastmile_qr_scan", "android": "https://dc.lft.to/lastmile_qr_scan"}, "lon": -77.03441166666667, "bike_id": "ba99cd930aa85f4b8fbb3dafbbba32a9", "type": "electric_bike", "name": "ba99cd930aa85f4b8fbb3dafbbba32a9"}, {"is_disabled": 0, "is_reserved": 0, "fusion_lat": 0.0, "lat": 38.9375775, "fusion_lon": 0.0, "rental_uris": {"ios": "https://dc.lft.to/lastmile_qr_scan", "android": "https://dc.lft.to/lastmile_qr_scan"}, "lon": -77.02454766666666, "bike_id": "49296c87fe7f4d65a23bb4899ed4cd9b", "type": "electric_scooter", "name": "49296c87fe7f4d65a23bb4899ed4cd9b"}, {"is_disabled": 0, "is_reserved": 0, "fusion_lat": 0.0, "lat": 38.88098566666667, "fusion_lon": 0.0, "rental_uris": {"ios": "https://dc.lft.to/lastmile_qr_scan", "android": "https://dc.lft.to/lastmile_qr_scan"}, "lon": -77.026325, "bike_id": "7daca7969a6feee7b961bd8aff3c6b39", "type": "electric_scooter", "name": "7daca7969a6feee7b961bd8aff3c6b39"}, {"is_disabled": 0, "is_reserved": 0, "fusion_lat": 0.0, "lat": 38.898407166666665, "fusion_lon": 0.0, "rental_uris": {"ios": "https://dc.lft.to/lastmile_qr_scan", "android": "https://dc.lft.to/lastmile_qr_scan"}, "lon": -76.98820833333333, "bike_id": "6be4c8653d97919b918b2b580fda2b8a", "type": "electric_scooter", "name": "6be4c8653d97919b918b2b580fda2b8a"}, {"is_disabled": 0, "is_reserved": 0, "fusion_lat": 0.0, "lat": 38.876904, "fusion_lon": 0.0, "rental_uris": {"ios": "https://dc.lft.to/lastmile_qr_scan", "android": "https://dc.lft.to/lastmile_qr_scan"}, "lon": -77.00334566666666, "bike_id": "e663c893be18bc137b99b20814bdae50", "type": "electric_scooter", "name": "e663c893be18bc137b99b20814bdae50"}, {"is_disabled": 0, "is_reserved": 0, "fusion_lat": 0.0, "lat": 38.92766816666666, "fusion_lon": 0.0, "rental_uris": {"ios": "https://dc.lft.to/lastmile_qr_scan", "android": "https://dc.lft.to/lastmile_qr_scan"}, "lon": -77.0324065, "bike_id": "68f5f80893183acf51c14929acd665d1", "type": "electric_scooter", "name": "68f5f80893183acf51c14929acd665d1"}, {"is_disabled": 0, "is_reserved": 0, "fusion_lat": 0.0, "lat": 38.89510833333333, "fusion_lon": 0.0, "rental_uris": {"ios": "https://dc.lft.to/lastmile_qr_scan", "android": "https://dc.lft.to/lastmile_qr_scan"}, "lon": -77.022821, "bike_id": "f563b8479ab30ea40696b4e82c95e1e3", "type": "electric_scooter", "name": "f563b8479ab30ea40696b4e82c95e1e3"}, {"is_disabled": 0, "is_reserved": 0, "fusion_lat": 0.0, "lat": 38.8986205, "fusion_lon": 0.0, "rental_uris": {"ios": "https://dc.lft.to/lastmile_qr_scan", "android": "https://dc.lft.to/lastmile_qr_scan"}, "lon": -77.01893183333334, "bike_id": "c58e381af67d808a760fc8692b3cb5f6", "type": "electric_scooter", "name": "c58e381af67d808a760fc8692b3cb5f6"}, {"is_disabled": 0, "is_reserved": 0, "fusion_lat": 0.0, "lat": 38.918253, "fusion_lon": 0.0, "rental_uris": {"ios": "https://dc.lft.to/lastmile_qr_scan", "android": "https://dc.lft.to/lastmile_qr_scan"}, "lon": -77.031731, "bike_id": "51a82bdf9cd4667f574e29ce40d19865", "type": "electric_scooter", "name": "51a82bdf9cd4667f574e29ce40d19865"}, {"is_disabled": 0, "is_reserved": 0, "fusion_lat": 0.0, "lat": 38.9064795, "fusion_lon": 0.0, "rental_uris": {"ios": "https://dc.lft.to/lastmile_qr_scan", "android": "https://dc.lft.to/lastmile_qr_scan"}, "lon": -77.0487775, "bike_id": "093ebf734996b92be413c4badbc01b56", "type": "electric_scooter", "name": "093ebf734996b92be413c4badbc01b56"}, {"is_disabled": 0, "is_reserved": 0, "fusion_lat": 0.0, "lat": 38.9909965, "fusion_lon": 0.0, "rental_uris": {"ios": "https://dc.lft.to/lastmile_qr_scan", "android": "https://dc.lft.to/lastmile_qr_scan"}, "lon": -76.99370366666666, "bike_id": "d2c7d1d53af3051a3e9294538f3e009c", "type": "electric_bike", "name": "d2c7d1d53af3051a3e9294538f3e009c"}, {"is_disabled": 0, "is_reserved": 0, "fusion_lat": 0.0, "lat": 38.905077166666665, "fusion_lon": 0.0, "rental_uris": {"ios": "https://dc.lft.to/lastmile_qr_scan", "android": "https://dc.lft.to/lastmile_qr_scan"}, "lon": -77.04083, "bike_id": "9c6d19cc98d747874a0470ee5f14b1e7", "type": "electric_scooter", "name": "9c6d19cc98d747874a0470ee5f14b1e7"}, {"is_disabled": 0, "is_reserved": 0, "fusion_lat": 0.0, "lat": 38.9023105, "fusion_lon": 0.0, "rental_uris": {"ios": "https://dc.lft.to/lastmile_qr_scan", "android": "https://dc.lft.to/lastmile_qr_scan"}, "lon": -77.00061833333334, "bike_id": "d1b56acd6b7806b51e491df03db13029", "type": "electric_scooter", "name": "d1b56acd6b7806b51e491df03db13029"}, {"is_disabled": 0, "is_reserved": 0, "fusion_lat": 0.0, "lat": 38.9084805, "fusion_lon": 0.0, "rental_uris": {"ios": "https://dc.lft.to/lastmile_qr_scan", "android": "https://dc.lft.to/lastmile_qr_scan"}, "lon": -77.05809266666667, "bike_id": "fe57b0c047588a0f12ffb6fcb09f1b2f", "type": "electric_scooter", "name": "fe57b0c047588a0f12ffb6fcb09f1b2f"}, {"is_disabled": 0, "is_reserved": 0, "fusion_lat": 0.0, "lat": 38.88747016666667, "fusion_lon": 0.0, "rental_uris": {"ios": "https://dc.lft.to/lastmile_qr_scan", "android": "https://dc.lft.to/lastmile_qr_scan"}, "lon": -77.01411916666666, "bike_id": "8e456f2d9323b1d5e95e5a637e2e3078", "type": "electric_scooter", "name": "8e456f2d9323b1d5e95e5a637e2e3078"}, {"is_disabled": 0, "is_reserved": 0, "fusion_lat": 0.0, "lat": 38.901842333333335, "fusion_lon": 0.0, "rental_uris": {"ios": "https://dc.lft.to/lastmile_qr_scan", "android": "https://dc.lft.to/lastmile_qr_scan"}, "lon": -76.98702733333333, "bike_id": "2fbba2a7dd9d26b242766467e33d575b", "type": "electric_scooter", "name": "2fbba2a7dd9d26b242766467e33d575b"}, {"is_disabled": 0, "is_reserved": 0, "fusion_lat": 0.0, "lat": 38.91543583333333, "fusion_lon": 0.0, "rental_uris": {"ios": "https://dc.lft.to/lastmile_qr_scan", "android": "https://dc.lft.to/lastmile_qr_scan"}, "lon": -77.02639766666667, "bike_id": "9a82fd3dcb319bb12c9074f5cc8bda59", "type": "electric_scooter", "name": "9a82fd3dcb319bb12c9074f5cc8bda59"}, {"is_disabled": 0, "is_reserved": 0, "fusion_lat": 0.0, "lat": 38.924590333333335, "fusion_lon": 0.0, "rental_uris": {"ios": "https://dc.lft.to/lastmile_qr_scan", "android": "https://dc.lft.to/lastmile_qr_scan"}, "lon": -77.03793016666667, "bike_id": "55d52fabcdd8889656c716e587f60385", "type": "electric_scooter", "name": "55d52fabcdd8889656c716e587f60385"}, {"is_disabled": 0, "is_reserved": 0, "fusion_lat": 0.0, "lat": 38.895459, "fusion_lon": 0.0, "rental_uris": {"ios": "https://dc.lft.to/lastmile_qr_scan", "android": "https://dc.lft.to/lastmile_qr_scan"}, "lon": -77.02175266666667, "bike_id": "40ca0b3e169eec336eb6b4883fcbf975", "type": "electric_scooter", "name": "40ca0b3e169eec336eb6b4883fcbf975"}, {"is_disabled": 0, "is_reserved": 0, "fusion_lat": 0.0, "lat": 38.897376333333334, "fusion_lon": 0.0, "rental_uris": {"ios": "https://dc.lft.to/lastmile_qr_scan", "android": "https://dc.lft.to/lastmile_qr_scan"}, "lon": -77.0333675, "bike_id": "8de5fd7e8d504d8c65c7d9ca8b811c7a", "type": "electric_scooter", "name": "8de5fd7e8d504d8c65c7d9ca8b811c7a"}, {"is_disabled": 0, "is_reserved": 0, "fusion_lat": 0.0, "lat": 38.8717975, "fusion_lon": 0.0, "rental_uris": {"ios": "https://dc.lft.to/lastmile_qr_scan", "android": "https://dc.lft.to/lastmile_qr_scan"}, "lon": -77.00614416666667, "bike_id": "47669fdb2817e2e70c5d6d2367a96157", "type": "electric_scooter", "name": "47669fdb2817e2e70c5d6d2367a96157"}, {"is_disabled": 0, "is_reserved": 0, "fusion_lat": 0.0, "lat": 38.848581833333334, "fusion_lon": 0.0, "rental_uris": {"ios": "https://dc.lft.to/lastmile_qr_scan", "android": "https://dc.lft.to/lastmile_qr_scan"}, "lon": -77.06830533333333, "bike_id": "1382ad16bae6811b7906648a309d1758", "type": "electric_bike", "name": "1382ad16bae6811b7906648a309d1758"}, {"is_disabled": 0, "is_reserved": 0, "fusion_lat": 0.0, "lat": 38.920426666666664, "fusion_lon": 0.0, "rental_uris": {"ios": "https://dc.lft.to/lastmile_qr_scan", "android": "https://dc.lft.to/lastmile_qr_scan"}, "lon": -77.016786, "bike_id": "3c2ef8a8474d7ab34c4885d068812a51", "type": "electric_scooter", "name": "3c2ef8a8474d7ab34c4885d068812a51"}, {"is_disabled": 0, "is_reserved": 0, "fusion_lat": 0.0, "lat": 38.885818666666665, "fusion_lon": 0.0, "rental_uris": {"ios": "https://dc.lft.to/lastmile_qr_scan", "android": "https://dc.lft.to/lastmile_qr_scan"}, "lon": -77.0122625, "bike_id": "aea6dd23460a7f136ae68e01caf7ab1b", "type": "electric_scooter", "name": "aea6dd23460a7f136ae68e01caf7ab1b"}, {"is_disabled": 0, "is_reserved": 0, "fusion_lat": 0.0, "lat": 38.8040595, "fusion_lon": 0.0, "rental_uris": {"ios": "https://dc.lft.to/lastmile_qr_scan", "android": "https://dc.lft.to/lastmile_qr_scan"}, "lon": -77.11326833333334, "bike_id": "846c243866943fa638b90997fe127463", "type": "electric_bike", "name": "846c243866943fa638b90997fe127463"}, {"is_disabled": 0, "is_reserved": 0, "fusion_lat": 0.0, "lat": 38.932707, "fusion_lon": 0.0, "rental_uris": {"ios": "https://dc.lft.to/lastmile_qr_scan", "android": "https://dc.lft.to/lastmile_qr_scan"}, "lon": -77.02094916666667, "bike_id": "d5f9a684bf75d41a569657f7204beeeb", "type": "electric_scooter", "name": "d5f9a684bf75d41a569657f7204beeeb"}, {"is_disabled": 0, "is_reserved": 0, "fusion_lat": 0.0, "lat": 38.855913, "fusion_lon": 0.0, "rental_uris": {"ios": "https://dc.lft.to/lastmile_qr_scan", "android": "https://dc.lft.to/lastmile_qr_scan"}, "lon": -76.97274133333333, "bike_id": "d190f77a3a11c5d7d549b06f41ddf3a4", "type": "electric_bike", "name": "d190f77a3a11c5d7d549b06f41ddf3a4"}, {"is_disabled": 0, "is_reserved": 0, "fusion_lat": 0.0, "lat": 39.07443966666666, "fusion_lon": 0.0, "rental_uris": {"ios": "https://dc.lft.to/lastmile_qr_scan", "android": "https://dc.lft.to/lastmile_qr_scan"}, "lon": -77.11526966666666, "bike_id": "ad9f7cb9a6ab17887ee0482b6e3d6bdb", "type": "electric_bike", "name": "ad9f7cb9a6ab17887ee0482b6e3d6bdb"}, {"is_disabled": 0, "is_reserved": 0, "fusion_lat": 0.0, "lat": 38.91121866666667, "fusion_lon": 0.0, "rental_uris": {"ios": "https://dc.lft.to/lastmile_qr_scan", "android": "https://dc.lft.to/lastmile_qr_scan"}, "lon": -77.043671, "bike_id": "ec128da1c6463d6513634abe7885ed82", "type": "electric_scooter", "name": "ec128da1c6463d6513634abe7885ed82"}, {"is_disabled": 0, "is_reserved": 0, "fusion_lat": 0.0, "lat": 38.8997485, "fusion_lon": 0.0, "rental_uris": {"ios": "https://dc.lft.to/lastmile_qr_scan", "android": "https://dc.lft.to/lastmile_qr_scan"}, "lon": -77.02378966666667, "bike_id": "2bea283d0b9ffb6e85a01ea925753f38", "type": "electric_scooter", "name": "2bea283d0b9ffb6e85a01ea925753f38"}, {"is_disabled": 0, "is_reserved": 0, "fusion_lat": 0.0, "lat": 38.900024333333334, "fusion_lon": 0.0, "rental_uris": {"ios": "https://dc.lft.to/lastmile_qr_scan", "android": "https://dc.lft.to/lastmile_qr_scan"}, "lon": -77.052549, "bike_id": "f4b3ada333a673d4cf002b403a854f21", "type": "electric_scooter", "name": "f4b3ada333a673d4cf002b403a854f21"}, {"is_disabled": 0, "is_reserved": 0, "fusion_lat": 0.0, "lat": 38.917077666666664, "fusion_lon": 0.0, "rental_uris": {"ios": "https://dc.lft.to/lastmile_qr_scan", "android": "https://dc.lft.to/lastmile_qr_scan"}, "lon": -77.02409866666666, "bike_id": "486238f7540a108ef0e9810db1accacc", "type": "electric_scooter", "name": "486238f7540a108ef0e9810db1accacc"}, {"is_disabled": 0, "is_reserved": 0, "fusion_lat": 0.0, "lat": 38.914979833333334, "fusion_lon": 0.0, "rental_uris": {"ios": "https://dc.lft.to/lastmile_qr_scan", "android": "https://dc.lft.to/lastmile_qr_scan"}, "lon": -76.98367383333333, "bike_id": "bec3d6be9f0dbf8a31b0eb3484cfbd68", "type": "electric_scooter", "name": "bec3d6be9f0dbf8a31b0eb3484cfbd68"}, {"is_disabled": 0, "is_reserved": 0, "fusion_lat": 0.0, "lat": 38.91685183333333, "fusion_lon": 0.0, "rental_uris": {"ios": "https://dc.lft.to/lastmile_qr_scan", "android": "https://dc.lft.to/lastmile_qr_scan"}, "lon": -77.03433283333334, "bike_id": "eb6b8a5e8ed437de312492326ede952e", "type": "electric_scooter", "name": "eb6b8a5e8ed437de312492326ede952e"}, {"is_disabled": 0, "is_reserved": 0, "fusion_lat": 0.0, "lat": 38.916942666666664, "fusion_lon": 0.0, "rental_uris": {"ios": "https://dc.lft.to/lastmile_qr_scan", "android": "https://dc.lft.to/lastmile_qr_scan"}, "lon": -77.0372155, "bike_id": "f273a72b5d3b2aab6df9af0043035175", "type": "electric_scooter", "name": "f273a72b5d3b2aab6df9af0043035175"}, {"is_disabled": 0, "is_reserved": 0, "fusion_lat": 0.0, "lat": 38.94449633333333, "fusion_lon": 0.0, "rental_uris": {"ios": "https://dc.lft.to/lastmile_qr_scan", "android": "https://dc.lft.to/lastmile_qr_scan"}, "lon": -77.03278916666666, "bike_id": "67b3f4a0aee7fbef28cccd22ce27bbb7", "type": "electric_scooter", "name": "67b3f4a0aee7fbef28cccd22ce27bbb7"}, {"is_disabled": 0, "is_reserved": 0, "fusion_lat": 0.0, "lat": 38.92873733333333, "fusion_lon": 0.0, "rental_uris": {"ios": "https://dc.lft.to/lastmile_qr_scan", "android": "https://dc.lft.to/lastmile_qr_scan"}, "lon": -77.0399205, "bike_id": "6e85a291e1877e15b5a25fb0e6057cff", "type": "electric_scooter", "name": "6e85a291e1877e15b5a25fb0e6057cff"}, {"is_disabled": 0, "is_reserved": 0, "fusion_lat": 0.0, "lat": 38.9195175, "fusion_lon": 0.0, "rental_uris": {"ios": "https://dc.lft.to/lastmile_qr_scan", "android": "https://dc.lft.to/lastmile_qr_scan"}, "lon": -77.0230655, "bike_id": "af0a17499d33b16804f4476500fe2c92", "type": "electric_scooter", "name": "af0a17499d33b16804f4476500fe2c92"}, {"is_disabled": 0, "is_reserved": 0, "fusion_lat": 0.0, "lat": 38.926973333333336, "fusion_lon": 0.0, "rental_uris": {"ios": "https://dc.lft.to/lastmile_qr_scan", "android": "https://dc.lft.to/lastmile_qr_scan"}, "lon": -77.0249135, "bike_id": "96c759d8f508d2e6b2add96a370c5ad9", "type": "electric_scooter", "name": "96c759d8f508d2e6b2add96a370c5ad9"}, {"is_disabled": 0, "is_reserved": 0, "fusion_lat": 0.0, "lat": 38.898425833333334, "fusion_lon": 0.0, "rental_uris": {"ios": "https://dc.lft.to/lastmile_qr_scan", "android": "https://dc.lft.to/lastmile_qr_scan"}, "lon": -77.049088, "bike_id": "19591f6fbd8dfe382c1ebdacf2d12d33", "type": "electric_scooter", "name": "19591f6fbd8dfe382c1ebdacf2d12d33"}, {"is_disabled": 0, "is_reserved": 0, "fusion_lat": 0.0, "lat": 38.91693566666667, "fusion_lon": 0.0, "rental_uris": {"ios": "https://dc.lft.to/lastmile_qr_scan", "android": "https://dc.lft.to/lastmile_qr_scan"}, "lon": -77.02596233333334, "bike_id": "34424d6f83b0ba0b56675375a7100c25", "type": "electric_scooter", "name": "34424d6f83b0ba0b56675375a7100c25"}, {"is_disabled": 0, "is_reserved": 0, "fusion_lat": 0.0, "lat": 38.86821616666667, "fusion_lon": 0.0, "rental_uris": {"ios": "https://dc.lft.to/lastmile_qr_scan", "android": "https://dc.lft.to/lastmile_qr_scan"}, "lon": -76.98022483333334, "bike_id": "90b319fb26e11a816b7794369d489c79", "type": "electric_bike", "name": "90b319fb26e11a816b7794369d489c79"}, {"is_disabled": 0, "is_reserved": 0, "fusion_lat": 0.0, "lat": 38.90597566666667, "fusion_lon": 0.0, "rental_uris": {"ios": "https://dc.lft.to/lastmile_qr_scan", "android": "https://dc.lft.to/lastmile_qr_scan"}, "lon": -77.04339, "bike_id": "b267b87c56c9081bb4b9de2d89302d17", "type": "electric_scooter", "name": "b267b87c56c9081bb4b9de2d89302d17"}, {"is_disabled": 0, "is_reserved": 0, "fusion_lat": 0.0, "lat": 38.9072335, "fusion_lon": 0.0, "rental_uris": {"ios": "https://dc.lft.to/lastmile_qr_scan", "android": "https://dc.lft.to/lastmile_qr_scan"}, "lon": -77.02503916666667, "bike_id": "d95bf255466b437c6407a3907e140274", "type": "electric_scooter", "name": "d95bf255466b437c6407a3907e140274"}, {"is_disabled": 0, "is_reserved": 0, "fusion_lat": 0.0, "lat": 38.911243999999996, "fusion_lon": 0.0, "rental_uris": {"ios": "https://dc.lft.to/lastmile_qr_scan", "android": "https://dc.lft.to/lastmile_qr_scan"}, "lon": -77.00433866666667, "bike_id": "317c35d4d70442ff47c087a5d1fcad1f", "type": "electric_scooter", "name": "317c35d4d70442ff47c087a5d1fcad1f"}, {"is_disabled": 0, "is_reserved": 0, "fusion_lat": 0.0, "lat": 38.9012695, "fusion_lon": 0.0, "rental_uris": {"ios": "https://dc.lft.to/lastmile_qr_scan", "android": "https://dc.lft.to/lastmile_qr_scan"}, "lon": -76.994853, "bike_id": "d046dd7dca6e7f768873d78a1a09f48c", "type": "electric_bike", "name": "d046dd7dca6e7f768873d78a1a09f48c"}, {"is_disabled": 0, "is_reserved": 0, "fusion_lat": 0.0, "lat": 38.90844583333333, "fusion_lon": 0.0, "rental_uris": {"ios": "https://dc.lft.to/lastmile_qr_scan", "android": "https://dc.lft.to/lastmile_qr_scan"}, "lon": -77.0437375, "bike_id": "4a3c930b58aa85387ddb3a20d496eeac", "type": "electric_scooter", "name": "4a3c930b58aa85387ddb3a20d496eeac"}, {"is_disabled": 0, "is_reserved": 0, "fusion_lat": 0.0, "lat": 38.91918416666667, "fusion_lon": 0.0, "rental_uris": {"ios": "https://dc.lft.to/lastmile_qr_scan", "android": "https://dc.lft.to/lastmile_qr_scan"}, "lon": -77.03107233333333, "bike_id": "515c0de74b35ce90f96fd6eca7371a86", "type": "electric_scooter", "name": "515c0de74b35ce90f96fd6eca7371a86"}, {"is_disabled": 0, "is_reserved": 0, "fusion_lat": 0.0, "lat": 38.9281655, "fusion_lon": 0.0, "rental_uris": {"ios": "https://dc.lft.to/lastmile_qr_scan", "android": "https://dc.lft.to/lastmile_qr_scan"}, "lon": -77.04352933333334, "bike_id": "31778ee4f92f4ed6bd6937e997892ed2", "type": "electric_scooter", "name": "31778ee4f92f4ed6bd6937e997892ed2"}, {"is_disabled": 0, "is_reserved": 0, "fusion_lat": 0.0, "lat": 38.85057833333333, "fusion_lon": 0.0, "rental_uris": {"ios": "https://dc.lft.to/lastmile_qr_scan", "android": "https://dc.lft.to/lastmile_qr_scan"}, "lon": -76.958224, "bike_id": "ce9e9a2d37311c92fcf95b0a204761ff", "type": "electric_bike", "name": "ce9e9a2d37311c92fcf95b0a204761ff"}, {"is_disabled": 0, "is_reserved": 0, "fusion_lat": 0.0, "lat": 38.90249516666667, "fusion_lon": 0.0, "rental_uris": {"ios": "https://dc.lft.to/lastmile_qr_scan", "android": "https://dc.lft.to/lastmile_qr_scan"}, "lon": -77.00002033333334, "bike_id": "f14b06cc347e7241145c42f37aee138a", "type": "electric_scooter", "name": "f14b06cc347e7241145c42f37aee138a"}, {"is_disabled": 0, "is_reserved": 0, "fusion_lat": 0.0, "lat": 38.9169715, "fusion_lon": 0.0, "rental_uris": {"ios": "https://dc.lft.to/lastmile_qr_scan", "android": "https://dc.lft.to/lastmile_qr_scan"}, "lon": -77.02895533333333, "bike_id": "604312a11a7c8cc453f6db8b37e3e61f", "type": "electric_scooter", "name": "604312a11a7c8cc453f6db8b37e3e61f"}, {"is_disabled": 0, "is_reserved": 0, "fusion_lat": 0.0, "lat": 38.920920333333335, "fusion_lon": 0.0, "rental_uris": {"ios": "https://dc.lft.to/lastmile_qr_scan", "android": "https://dc.lft.to/lastmile_qr_scan"}, "lon": -77.02515916666667, "bike_id": "667ed7dac39c80d034d379ac385425e9", "type": "electric_scooter", "name": "667ed7dac39c80d034d379ac385425e9"}, {"is_disabled": 0, "is_reserved": 0, "fusion_lat": 0.0, "lat": 38.885788, "fusion_lon": 0.0, "rental_uris": {"ios": "https://dc.lft.to/lastmile_qr_scan", "android": "https://dc.lft.to/lastmile_qr_scan"}, "lon": -77.01214716666667, "bike_id": "b65a2a5b6d4853c1d8ef2a9ccaa16f84", "type": "electric_scooter", "name": "b65a2a5b6d4853c1d8ef2a9ccaa16f84"}, {"is_disabled": 0, "is_reserved": 0, "fusion_lat": 0.0, "lat": 38.916934166666664, "fusion_lon": 0.0, "rental_uris": {"ios": "https://dc.lft.to/lastmile_qr_scan", "android": "https://dc.lft.to/lastmile_qr_scan"}, "lon": -77.02599133333334, "bike_id": "03ba00d823ffb98b21722d97184980cd", "type": "electric_scooter", "name": "03ba00d823ffb98b21722d97184980cd"}, {"is_disabled": 0, "is_reserved": 0, "fusion_lat": 0.0, "lat": 38.9094435, "fusion_lon": 0.0, "rental_uris": {"ios": "https://dc.lft.to/lastmile_qr_scan", "android": "https://dc.lft.to/lastmile_qr_scan"}, "lon": -76.99586633333334, "bike_id": "947c3a6e2b5e65130579fa9213716fdb", "type": "electric_scooter", "name": "947c3a6e2b5e65130579fa9213716fdb"}, {"is_disabled": 0, "is_reserved": 0, "fusion_lat": 0.0, "lat": 38.932404166666664, "fusion_lon": 0.0, "rental_uris": {"ios": "https://dc.lft.to/lastmile_qr_scan", "android": "https://dc.lft.to/lastmile_qr_scan"}, "lon": -76.9971365, "bike_id": "98c2dcb26301810255b1be37fc125833", "type": "electric_scooter", "name": "98c2dcb26301810255b1be37fc125833"}, {"is_disabled": 0, "is_reserved": 0, "fusion_lat": 0.0, "lat": 38.86083383333333, "fusion_lon": 0.0, "rental_uris": {"ios": "https://dc.lft.to/lastmile_qr_scan", "android": "https://dc.lft.to/lastmile_qr_scan"}, "lon": -76.98374283333334, "bike_id": "4aaedde0cf904e7c41d4428d65f89eae", "type": "electric_scooter", "name": "4aaedde0cf904e7c41d4428d65f89eae"}, {"is_disabled": 0, "is_reserved": 0, "fusion_lat": 0.0, "lat": 38.925252, "fusion_lon": 0.0, "rental_uris": {"ios": "https://dc.lft.to/lastmile_qr_scan", "android": "https://dc.lft.to/lastmile_qr_scan"}, "lon": -77.035282, "bike_id": "798fb875cf266d7e375ed503560acbae", "type": "electric_scooter", "name": "798fb875cf266d7e375ed503560acbae"}, {"is_disabled": 0, "is_reserved": 0, "fusion_lat": 0.0, "lat": 38.903205666666665, "fusion_lon": 0.0, "rental_uris": {"ios": "https://dc.lft.to/lastmile_qr_scan", "android": "https://dc.lft.to/lastmile_qr_scan"}, "lon": -77.03342633333334, "bike_id": "da3c27f2e3fa5a7d17444803415892da", "type": "electric_scooter", "name": "da3c27f2e3fa5a7d17444803415892da"}, {"is_disabled": 0, "is_reserved": 0, "fusion_lat": 0.0, "lat": 38.89239633333333, "fusion_lon": 0.0, "rental_uris": {"ios": "https://dc.lft.to/lastmile_qr_scan", "android": "https://dc.lft.to/lastmile_qr_scan"}, "lon": -77.01788416666666, "bike_id": "fa433345d1e743ae14dbb8c6c15b6dd7", "type": "electric_scooter", "name": "fa433345d1e743ae14dbb8c6c15b6dd7"}, {"is_disabled": 0, "is_reserved": 0, "fusion_lat": 0.0, "lat": 38.95635383333333, "fusion_lon": 0.0, "rental_uris": {"ios": "https://dc.lft.to/lastmile_qr_scan", "android": "https://dc.lft.to/lastmile_qr_scan"}, "lon": -77.03632133333333, "bike_id": "079f1153baf4ac19f324a21665004660", "type": "electric_scooter", "name": "079f1153baf4ac19f324a21665004660"}, {"is_disabled": 0, "is_reserved": 0, "fusion_lat": 0.0, "lat": 38.900235, "fusion_lon": 0.0, "rental_uris": {"ios": "https://dc.lft.to/lastmile_qr_scan", "android": "https://dc.lft.to/lastmile_qr_scan"}, "lon": -77.02001966666667, "bike_id": "a6468c4fd2ef918aa7056e638764b100", "type": "electric_scooter", "name": "a6468c4fd2ef918aa7056e638764b100"}, {"is_disabled": 0, "is_reserved": 0, "fusion_lat": 0.0, "lat": 38.9300065, "fusion_lon": 0.0, "rental_uris": {"ios": "https://dc.lft.to/lastmile_qr_scan", "android": "https://dc.lft.to/lastmile_qr_scan"}, "lon": -77.03798133333333, "bike_id": "be00d59e2c91d8a1fbbc7127583e9638", "type": "electric_scooter", "name": "be00d59e2c91d8a1fbbc7127583e9638"}, {"is_disabled": 0, "is_reserved": 0, "fusion_lat": 0.0, "lat": 38.948313, "fusion_lon": 0.0, "rental_uris": {"ios": "https://dc.lft.to/lastmile_qr_scan", "android": "https://dc.lft.to/lastmile_qr_scan"}, "lon": -77.080066, "bike_id": "603ab471e1706cdbc25b4f1c5fe6275d", "type": "electric_scooter", "name": "603ab471e1706cdbc25b4f1c5fe6275d"}, {"is_disabled": 0, "is_reserved": 0, "fusion_lat": 0.0, "lat": 38.901250166666664, "fusion_lon": 0.0, "rental_uris": {"ios": "https://dc.lft.to/lastmile_qr_scan", "android": "https://dc.lft.to/lastmile_qr_scan"}, "lon": -77.04106883333333, "bike_id": "2728153d8335c83f7339d33fb55972d2", "type": "electric_scooter", "name": "2728153d8335c83f7339d33fb55972d2"}, {"is_disabled": 0, "is_reserved": 0, "fusion_lat": 0.0, "lat": 38.92659, "fusion_lon": 0.0, "rental_uris": {"ios": "https://dc.lft.to/lastmile_qr_scan", "android": "https://dc.lft.to/lastmile_qr_scan"}, "lon": -76.992987, "bike_id": "7650c001d5d753e6b4e1853155a42b14", "type": "electric_scooter", "name": "7650c001d5d753e6b4e1853155a42b14"}, {"is_disabled": 0, "is_reserved": 0, "fusion_lat": 0.0, "lat": 38.89335483333333, "fusion_lon": 0.0, "rental_uris": {"ios": "https://dc.lft.to/lastmile_qr_scan", "android": "https://dc.lft.to/lastmile_qr_scan"}, "lon": -76.9288815, "bike_id": "e9185ca346a6f270c35a08904acdef6f", "type": "electric_scooter", "name": "e9185ca346a6f270c35a08904acdef6f"}, {"is_disabled": 0, "is_reserved": 0, "fusion_lat": 0.0, "lat": 38.900404333333334, "fusion_lon": 0.0, "rental_uris": {"ios": "https://dc.lft.to/lastmile_qr_scan", "android": "https://dc.lft.to/lastmile_qr_scan"}, "lon": -76.99145533333333, "bike_id": "d321f362b086f7aa1624bc57a99e08ef", "type": "electric_bike", "name": "d321f362b086f7aa1624bc57a99e08ef"}, {"is_disabled": 0, "is_reserved": 0, "fusion_lat": 0.0, "lat": 38.89210383333333, "fusion_lon": 0.0, "rental_uris": {"ios": "https://dc.lft.to/lastmile_qr_scan", "android": "https://dc.lft.to/lastmile_qr_scan"}, "lon": -76.9292125, "bike_id": "79bef7f612ff9790bed75f94888f45e3", "type": "electric_scooter", "name": "79bef7f612ff9790bed75f94888f45e3"}, {"is_disabled": 0, "is_reserved": 0, "fusion_lat": 0.0, "lat": 38.9483925, "fusion_lon": 0.0, "rental_uris": {"ios": "https://dc.lft.to/lastmile_qr_scan", "android": "https://dc.lft.to/lastmile_qr_scan"}, "lon": -77.05431183333333, "bike_id": "dc708e247d85fac4f3d632c0869a1896", "type": "electric_bike", "name": "dc708e247d85fac4f3d632c0869a1896"}, {"is_disabled": 0, "is_reserved": 0, "fusion_lat": 0.0, "lat": 38.9260695, "fusion_lon": 0.0, "rental_uris": {"ios": "https://dc.lft.to/lastmile_qr_scan", "android": "https://dc.lft.to/lastmile_qr_scan"}, "lon": -77.0215765, "bike_id": "d0b319b386dde92fcd8959fca55a128a", "type": "electric_scooter", "name": "d0b319b386dde92fcd8959fca55a128a"}, {"is_disabled": 0, "is_reserved": 0, "fusion_lat": 0.0, "lat": 38.9167605, "fusion_lon": 0.0, "rental_uris": {"ios": "https://dc.lft.to/lastmile_qr_scan", "android": "https://dc.lft.to/lastmile_qr_scan"}, "lon": -77.03690216666666, "bike_id": "ceb4db62a208f2b89b3fb0995c833d52", "type": "electric_scooter", "name": "ceb4db62a208f2b89b3fb0995c833d52"}, {"is_disabled": 0, "is_reserved": 0, "fusion_lat": 0.0, "lat": 38.893981333333336, "fusion_lon": 0.0, "rental_uris": {"ios": "https://dc.lft.to/lastmile_qr_scan", "android": "https://dc.lft.to/lastmile_qr_scan"}, "lon": -77.023723, "bike_id": "c033bb93b44eba555a242ac196946f19", "type": "electric_scooter", "name": "c033bb93b44eba555a242ac196946f19"}, {"is_disabled": 0, "is_reserved": 0, "fusion_lat": 0.0, "lat": 38.8898725, "fusion_lon": 0.0, "rental_uris": {"ios": "https://dc.lft.to/lastmile_qr_scan", "android": "https://dc.lft.to/lastmile_qr_scan"}, "lon": -76.988118, "bike_id": "67c053f0f6ab8e945b2805f34c4bcbd2", "type": "electric_scooter", "name": "67c053f0f6ab8e945b2805f34c4bcbd2"}, {"is_disabled": 0, "is_reserved": 0, "fusion_lat": 0.0, "lat": 38.9138595, "fusion_lon": 0.0, "rental_uris": {"ios": "https://dc.lft.to/lastmile_qr_scan", "android": "https://dc.lft.to/lastmile_qr_scan"}, "lon": -77.0321025, "bike_id": "22e0739a59be542f03417518e7cce534", "type": "electric_scooter", "name": "22e0739a59be542f03417518e7cce534"}, {"is_disabled": 0, "is_reserved": 0, "fusion_lat": 0.0, "lat": 38.90811816666667, "fusion_lon": 0.0, "rental_uris": {"ios": "https://dc.lft.to/lastmile_qr_scan", "android": "https://dc.lft.to/lastmile_qr_scan"}, "lon": -77.03435983333334, "bike_id": "f9d4318bd7c18eb3c969b23555bbf918", "type": "electric_scooter", "name": "f9d4318bd7c18eb3c969b23555bbf918"}, {"is_disabled": 0, "is_reserved": 0, "fusion_lat": 0.0, "lat": 38.941952666666666, "fusion_lon": 0.0, "rental_uris": {"ios": "https://dc.lft.to/lastmile_qr_scan", "android": "https://dc.lft.to/lastmile_qr_scan"}, "lon": -77.0882845, "bike_id": "f5ace505eeba5b7d6c948a90adc874e0", "type": "electric_scooter", "name": "f5ace505eeba5b7d6c948a90adc874e0"}, {"is_disabled": 0, "is_reserved": 0, "fusion_lat": 0.0, "lat": 38.90545933333333, "fusion_lon": 0.0, "rental_uris": {"ios": "https://dc.lft.to/lastmile_qr_scan", "android": "https://dc.lft.to/lastmile_qr_scan"}, "lon": -77.04857933333334, "bike_id": "f5d7e200a0989dd71443c3c164606533", "type": "electric_scooter", "name": "f5d7e200a0989dd71443c3c164606533"}, {"is_disabled": 0, "is_reserved": 0, "fusion_lat": 0.0, "lat": 38.9211565, "fusion_lon": 0.0, "rental_uris": {"ios": "https://dc.lft.to/lastmile_qr_scan", "android": "https://dc.lft.to/lastmile_qr_scan"}, "lon": -77.0438105, "bike_id": "8e41a2569bc66bb8966225107a3c6049", "type": "electric_scooter", "name": "8e41a2569bc66bb8966225107a3c6049"}, {"is_disabled": 0, "is_reserved": 0, "fusion_lat": 0.0, "lat": 38.92562133333333, "fusion_lon": 0.0, "rental_uris": {"ios": "https://dc.lft.to/lastmile_qr_scan", "android": "https://dc.lft.to/lastmile_qr_scan"}, "lon": -77.0228325, "bike_id": "ae299aec2db1b91b9d8f1738bb79ad62", "type": "electric_scooter", "name": "ae299aec2db1b91b9d8f1738bb79ad62"}, {"is_disabled": 0, "is_reserved": 0, "fusion_lat": 0.0, "lat": 38.88624466666667, "fusion_lon": 0.0, "rental_uris": {"ios": "https://dc.lft.to/lastmile_qr_scan", "android": "https://dc.lft.to/lastmile_qr_scan"}, "lon": -76.98708516666667, "bike_id": "7f5c3bce23f5001d498fb77fe5e88ae4", "type": "electric_scooter", "name": "7f5c3bce23f5001d498fb77fe5e88ae4"}, {"is_disabled": 0, "is_reserved": 0, "fusion_lat": 0.0, "lat": 38.917264, "fusion_lon": 0.0, "rental_uris": {"ios": "https://dc.lft.to/lastmile_qr_scan", "android": "https://dc.lft.to/lastmile_qr_scan"}, "lon": -77.02502983333333, "bike_id": "675d3466376cff4e68467b6570089440", "type": "electric_scooter", "name": "675d3466376cff4e68467b6570089440"}, {"is_disabled": 0, "is_reserved": 0, "fusion_lat": 0.0, "lat": 38.907345, "fusion_lon": 0.0, "rental_uris": {"ios": "https://dc.lft.to/lastmile_qr_scan", "android": "https://dc.lft.to/lastmile_qr_scan"}, "lon": -77.0398105, "bike_id": "67417353a9a0c8ac7d95c2114ab7401a", "type": "electric_scooter", "name": "67417353a9a0c8ac7d95c2114ab7401a"}, {"is_disabled": 0, "is_reserved": 0, "fusion_lat": 0.0, "lat": 38.90251416666667, "fusion_lon": 0.0, "rental_uris": {"ios": "https://dc.lft.to/lastmile_qr_scan", "android": "https://dc.lft.to/lastmile_qr_scan"}, "lon": -77.046933, "bike_id": "76572f1424dae5425e7c4268c69a22be", "type": "electric_scooter", "name": "76572f1424dae5425e7c4268c69a22be"}, {"is_disabled": 0, "is_reserved": 0, "fusion_lat": 0.0, "lat": 38.8838535, "fusion_lon": 0.0, "rental_uris": {"ios": "https://dc.lft.to/lastmile_qr_scan", "android": "https://dc.lft.to/lastmile_qr_scan"}, "lon": -77.0460605, "bike_id": "7c87da1ebff28053420f066213147952", "type": "electric_scooter", "name": "7c87da1ebff28053420f066213147952"}, {"is_disabled": 0, "is_reserved": 0, "fusion_lat": 0.0, "lat": 38.907197, "fusion_lon": 0.0, "rental_uris": {"ios": "https://dc.lft.to/lastmile_qr_scan", "android": "https://dc.lft.to/lastmile_qr_scan"}, "lon": -77.0335365, "bike_id": "936f290322a251b771c1d36bf7940963", "type": "electric_scooter", "name": "936f290322a251b771c1d36bf7940963"}, {"is_disabled": 0, "is_reserved": 0, "fusion_lat": 0.0, "lat": 38.892293, "fusion_lon": 0.0, "rental_uris": {"ios": "https://dc.lft.to/lastmile_qr_scan", "android": "https://dc.lft.to/lastmile_qr_scan"}, "lon": -77.0238365, "bike_id": "51c364da82ac388696f7f1161bcb47ef", "type": "electric_scooter", "name": "51c364da82ac388696f7f1161bcb47ef"}, {"is_disabled": 0, "is_reserved": 0, "fusion_lat": 0.0, "lat": 38.902778166666664, "fusion_lon": 0.0, "rental_uris": {"ios": "https://dc.lft.to/lastmile_qr_scan", "android": "https://dc.lft.to/lastmile_qr_scan"}, "lon": -77.062545, "bike_id": "629088ff2c7680b5c1ad1cd0909977f6", "type": "electric_scooter", "name": "629088ff2c7680b5c1ad1cd0909977f6"}, {"is_disabled": 0, "is_reserved": 0, "fusion_lat": 0.0, "lat": 38.917475833333334, "fusion_lon": 0.0, "rental_uris": {"ios": "https://dc.lft.to/lastmile_qr_scan", "android": "https://dc.lft.to/lastmile_qr_scan"}, "lon": -77.010887, "bike_id": "d49fb3ed6ad59facdf0bbc9922a3fa1b", "type": "electric_scooter", "name": "d49fb3ed6ad59facdf0bbc9922a3fa1b"}, {"is_disabled": 0, "is_reserved": 0, "fusion_lat": 0.0, "lat": 38.88975883333333, "fusion_lon": 0.0, "rental_uris": {"ios": "https://dc.lft.to/lastmile_qr_scan", "android": "https://dc.lft.to/lastmile_qr_scan"}, "lon": -76.98176666666667, "bike_id": "38c32574c479c202b3a669fd833ff830", "type": "electric_scooter", "name": "38c32574c479c202b3a669fd833ff830"}, {"is_disabled": 0, "is_reserved": 0, "fusion_lat": 0.0, "lat": 38.87630883333333, "fusion_lon": 0.0, "rental_uris": {"ios": "https://dc.lft.to/lastmile_qr_scan", "android": "https://dc.lft.to/lastmile_qr_scan"}, "lon": -77.00216233333333, "bike_id": "effd183431d133dcd10810469ac5edc4", "type": "electric_scooter", "name": "effd183431d133dcd10810469ac5edc4"}, {"is_disabled": 0, "is_reserved": 0, "fusion_lat": 0.0, "lat": 38.87088633333333, "fusion_lon": 0.0, "rental_uris": {"ios": "https://dc.lft.to/lastmile_qr_scan", "android": "https://dc.lft.to/lastmile_qr_scan"}, "lon": -77.01076433333333, "bike_id": "04d10eada8601e7401c0e570e956a245", "type": "electric_scooter", "name": "04d10eada8601e7401c0e570e956a245"}, {"is_disabled": 0, "is_reserved": 0, "fusion_lat": 0.0, "lat": 38.924529666666665, "fusion_lon": 0.0, "rental_uris": {"ios": "https://dc.lft.to/lastmile_qr_scan", "android": "https://dc.lft.to/lastmile_qr_scan"}, "lon": -77.03244166666667, "bike_id": "59649b61c0398e641a164dade555f63b", "type": "electric_scooter", "name": "59649b61c0398e641a164dade555f63b"}, {"is_disabled": 0, "is_reserved": 0, "fusion_lat": 0.0, "lat": 38.92432433333333, "fusion_lon": 0.0, "rental_uris": {"ios": "https://dc.lft.to/lastmile_qr_scan", "android": "https://dc.lft.to/lastmile_qr_scan"}, "lon": -77.01949683333333, "bike_id": "964462dbfcf22f8f852d4a69fdd5ced9", "type": "electric_scooter", "name": "964462dbfcf22f8f852d4a69fdd5ced9"}, {"is_disabled": 0, "is_reserved": 0, "fusion_lat": 0.0, "lat": 38.8993665, "fusion_lon": 0.0, "rental_uris": {"ios": "https://dc.lft.to/lastmile_qr_scan", "android": "https://dc.lft.to/lastmile_qr_scan"}, "lon": -76.93759283333333, "bike_id": "e501bcf7376ee1d6840b1e206c007218", "type": "electric_scooter", "name": "e501bcf7376ee1d6840b1e206c007218"}, {"is_disabled": 0, "is_reserved": 0, "fusion_lat": 0.0, "lat": 38.90427183333333, "fusion_lon": 0.0, "rental_uris": {"ios": "https://dc.lft.to/lastmile_qr_scan", "android": "https://dc.lft.to/lastmile_qr_scan"}, "lon": -77.0343095, "bike_id": "c53f4f79605d74dd9eb23ea852d96187", "type": "electric_scooter", "name": "c53f4f79605d74dd9eb23ea852d96187"}, {"is_disabled": 0, "is_reserved": 0, "fusion_lat": 0.0, "lat": 38.8876975, "fusion_lon": 0.0, "rental_uris": {"ios": "https://dc.lft.to/lastmile_qr_scan", "android": "https://dc.lft.to/lastmile_qr_scan"}, "lon": -76.97733733333334, "bike_id": "5559319a73d8f7c3905cf2981f36ec85", "type": "electric_scooter", "name": "5559319a73d8f7c3905cf2981f36ec85"}, {"is_disabled": 0, "is_reserved": 0, "fusion_lat": 0.0, "lat": 38.873504833333335, "fusion_lon": 0.0, "rental_uris": {"ios": "https://dc.lft.to/lastmile_qr_scan", "android": "https://dc.lft.to/lastmile_qr_scan"}, "lon": -77.00194683333334, "bike_id": "ac9ecda6c8ff725e4d4d0dfffe210cec", "type": "electric_scooter", "name": "ac9ecda6c8ff725e4d4d0dfffe210cec"}, {"is_disabled": 0, "is_reserved": 0, "fusion_lat": 0.0, "lat": 38.93867516666667, "fusion_lon": 0.0, "rental_uris": {"ios": "https://dc.lft.to/lastmile_qr_scan", "android": "https://dc.lft.to/lastmile_qr_scan"}, "lon": -77.078259, "bike_id": "51240d6998637e416cf962eb8c9114b0", "type": "electric_scooter", "name": "51240d6998637e416cf962eb8c9114b0"}, {"is_disabled": 0, "is_reserved": 0, "fusion_lat": 0.0, "lat": 38.92499933333333, "fusion_lon": 0.0, "rental_uris": {"ios": "https://dc.lft.to/lastmile_qr_scan", "android": "https://dc.lft.to/lastmile_qr_scan"}, "lon": -77.02258016666667, "bike_id": "098c3c7c2895a9c4c7b96cbcfba7e1e6", "type": "electric_scooter", "name": "098c3c7c2895a9c4c7b96cbcfba7e1e6"}, {"is_disabled": 0, "is_reserved": 0, "fusion_lat": 0.0, "lat": 38.943102, "fusion_lon": 0.0, "rental_uris": {"ios": "https://dc.lft.to/lastmile_qr_scan", "android": "https://dc.lft.to/lastmile_qr_scan"}, "lon": -77.07721116666667, "bike_id": "286342fb3ed72930cde28ff5cbc0a569", "type": "electric_scooter", "name": "286342fb3ed72930cde28ff5cbc0a569"}, {"is_disabled": 0, "is_reserved": 0, "fusion_lat": 0.0, "lat": 38.9007275, "fusion_lon": 0.0, "rental_uris": {"ios": "https://dc.lft.to/lastmile_qr_scan", "android": "https://dc.lft.to/lastmile_qr_scan"}, "lon": -77.04344616666667, "bike_id": "d895736102204a030bdc8c055a5f84e3", "type": "electric_scooter", "name": "d895736102204a030bdc8c055a5f84e3"}, {"is_disabled": 0, "is_reserved": 0, "fusion_lat": 0.0, "lat": 38.914151, "fusion_lon": 0.0, "rental_uris": {"ios": "https://dc.lft.to/lastmile_qr_scan", "android": "https://dc.lft.to/lastmile_qr_scan"}, "lon": -77.03170316666667, "bike_id": "7533e85e3d645622c61501f45fdfabe2", "type": "electric_scooter", "name": "7533e85e3d645622c61501f45fdfabe2"}, {"is_disabled": 0, "is_reserved": 0, "fusion_lat": 0.0, "lat": 38.92692683333333, "fusion_lon": 0.0, "rental_uris": {"ios": "https://dc.lft.to/lastmile_qr_scan", "android": "https://dc.lft.to/lastmile_qr_scan"}, "lon": -77.0230545, "bike_id": "f72d695e6c30a619043a6bc4842131b9", "type": "electric_scooter", "name": "f72d695e6c30a619043a6bc4842131b9"}, {"is_disabled": 0, "is_reserved": 0, "fusion_lat": 0.0, "lat": 38.91615983333333, "fusion_lon": 0.0, "rental_uris": {"ios": "https://dc.lft.to/lastmile_qr_scan", "android": "https://dc.lft.to/lastmile_qr_scan"}, "lon": -77.02293583333334, "bike_id": "a362ac3d0bc18bf491d35a12e5abfd39", "type": "electric_scooter", "name": "a362ac3d0bc18bf491d35a12e5abfd39"}, {"is_disabled": 0, "is_reserved": 0, "fusion_lat": 0.0, "lat": 38.89753183333333, "fusion_lon": 0.0, "rental_uris": {"ios": "https://dc.lft.to/lastmile_qr_scan", "android": "https://dc.lft.to/lastmile_qr_scan"}, "lon": -77.02165783333334, "bike_id": "ff514267ec67c48712399f0741d2e4f0", "type": "electric_scooter", "name": "ff514267ec67c48712399f0741d2e4f0"}, {"is_disabled": 0, "is_reserved": 0, "fusion_lat": 0.0, "lat": 38.90364, "fusion_lon": 0.0, "rental_uris": {"ios": "https://dc.lft.to/lastmile_qr_scan", "android": "https://dc.lft.to/lastmile_qr_scan"}, "lon": -77.03167966666666, "bike_id": "d59102216e072bda57583ac1b1b3a75c", "type": "electric_scooter", "name": "d59102216e072bda57583ac1b1b3a75c"}, {"is_disabled": 0, "is_reserved": 0, "fusion_lat": 0.0, "lat": 38.922309166666665, "fusion_lon": 0.0, "rental_uris": {"ios": "https://dc.lft.to/lastmile_qr_scan", "android": "https://dc.lft.to/lastmile_qr_scan"}, "lon": -76.97532533333333, "bike_id": "41a3782d4384b83df8877a503efe8da8", "type": "electric_scooter", "name": "41a3782d4384b83df8877a503efe8da8"}, {"is_disabled": 0, "is_reserved": 0, "fusion_lat": 0.0, "lat": 38.92818483333333, "fusion_lon": 0.0, "rental_uris": {"ios": "https://dc.lft.to/lastmile_qr_scan", "android": "https://dc.lft.to/lastmile_qr_scan"}, "lon": -77.04359183333334, "bike_id": "6a8b308efa0db1cf8f83aacdabac70c8", "type": "electric_scooter", "name": "6a8b308efa0db1cf8f83aacdabac70c8"}, {"is_disabled": 0, "is_reserved": 0, "fusion_lat": 0.0, "lat": 38.903555833333336, "fusion_lon": 0.0, "rental_uris": {"ios": "https://dc.lft.to/lastmile_qr_scan", "android": "https://dc.lft.to/lastmile_qr_scan"}, "lon": -77.04006083333333, "bike_id": "0afe431698fb8c3c13375ab8e310fd46", "type": "electric_scooter", "name": "0afe431698fb8c3c13375ab8e310fd46"}, {"is_disabled": 0, "is_reserved": 0, "fusion_lat": 0.0, "lat": 38.91362016666667, "fusion_lon": 0.0, "rental_uris": {"ios": "https://dc.lft.to/lastmile_qr_scan", "android": "https://dc.lft.to/lastmile_qr_scan"}, "lon": -77.04657583333334, "bike_id": "dbb3aaf2c6a1734586258f2d1b9b029f", "type": "electric_scooter", "name": "dbb3aaf2c6a1734586258f2d1b9b029f"}, {"is_disabled": 0, "is_reserved": 0, "fusion_lat": 0.0, "lat": 38.894823333333335, "fusion_lon": 0.0, "rental_uris": {"ios": "https://dc.lft.to/lastmile_qr_scan", "android": "https://dc.lft.to/lastmile_qr_scan"}, "lon": -77.01094366666666, "bike_id": "035f704e9bf4763a31ac113fee6e3695", "type": "electric_scooter", "name": "035f704e9bf4763a31ac113fee6e3695"}, {"is_disabled": 0, "is_reserved": 0, "fusion_lat": 0.0, "lat": 38.935228, "fusion_lon": 0.0, "rental_uris": {"ios": "https://dc.lft.to/lastmile_qr_scan", "android": "https://dc.lft.to/lastmile_qr_scan"}, "lon": -77.05448466666667, "bike_id": "aced804cd6ab968ad49efc953ab18f69", "type": "electric_scooter", "name": "aced804cd6ab968ad49efc953ab18f69"}, {"is_disabled": 0, "is_reserved": 0, "fusion_lat": 0.0, "lat": 38.929240166666666, "fusion_lon": 0.0, "rental_uris": {"ios": "https://dc.lft.to/lastmile_qr_scan", "android": "https://dc.lft.to/lastmile_qr_scan"}, "lon": -77.032658, "bike_id": "8564e5d5772f5d432cd2069d6bbdf9ad", "type": "electric_scooter", "name": "8564e5d5772f5d432cd2069d6bbdf9ad"}, {"is_disabled": 0, "is_reserved": 0, "fusion_lat": 0.0, "lat": 38.8982895, "fusion_lon": 0.0, "rental_uris": {"ios": "https://dc.lft.to/lastmile_qr_scan", "android": "https://dc.lft.to/lastmile_qr_scan"}, "lon": -77.04652333333334, "bike_id": "49223219ea62c251d274cf5ecd5d1f7d", "type": "electric_scooter", "name": "49223219ea62c251d274cf5ecd5d1f7d"}, {"is_disabled": 0, "is_reserved": 0, "fusion_lat": 0.0, "lat": 38.89472833333333, "fusion_lon": 0.0, "rental_uris": {"ios": "https://dc.lft.to/lastmile_qr_scan", "android": "https://dc.lft.to/lastmile_qr_scan"}, "lon": -77.02261133333333, "bike_id": "6eabfe95152319df02e5a6793fad8983", "type": "electric_scooter", "name": "6eabfe95152319df02e5a6793fad8983"}, {"is_disabled": 0, "is_reserved": 0, "fusion_lat": 0.0, "lat": 38.902068, "fusion_lon": 0.0, "rental_uris": {"ios": "https://dc.lft.to/lastmile_qr_scan", "android": "https://dc.lft.to/lastmile_qr_scan"}, "lon": -76.99256366666667, "bike_id": "82e887b90dc64bb71dbc0745e8342764", "type": "electric_scooter", "name": "82e887b90dc64bb71dbc0745e8342764"}, {"is_disabled": 0, "is_reserved": 0, "fusion_lat": 0.0, "lat": 38.90179633333333, "fusion_lon": 0.0, "rental_uris": {"ios": "https://dc.lft.to/lastmile_qr_scan", "android": "https://dc.lft.to/lastmile_qr_scan"}, "lon": -77.00211466666667, "bike_id": "166dbdf53f2c3f1a17223d611f5e2cae", "type": "electric_scooter", "name": "166dbdf53f2c3f1a17223d611f5e2cae"}, {"is_disabled": 0, "is_reserved": 0, "fusion_lat": 0.0, "lat": 38.90476533333333, "fusion_lon": 0.0, "rental_uris": {"ios": "https://dc.lft.to/lastmile_qr_scan", "android": "https://dc.lft.to/lastmile_qr_scan"}, "lon": -76.95054266666666, "bike_id": "33abacb6c975a0498190477736e0e2f8", "type": "electric_scooter", "name": "33abacb6c975a0498190477736e0e2f8"}, {"is_disabled": 0, "is_reserved": 0, "fusion_lat": 0.0, "lat": 38.90607283333333, "fusion_lon": 0.0, "rental_uris": {"ios": "https://dc.lft.to/lastmile_qr_scan", "android": "https://dc.lft.to/lastmile_qr_scan"}, "lon": -77.02105833333333, "bike_id": "50554d874a735555f6485f4b908a753d", "type": "electric_scooter", "name": "50554d874a735555f6485f4b908a753d"}, {"is_disabled": 0, "is_reserved": 0, "fusion_lat": 0.0, "lat": 38.85525766666667, "fusion_lon": 0.0, "rental_uris": {"ios": "https://dc.lft.to/lastmile_qr_scan", "android": "https://dc.lft.to/lastmile_qr_scan"}, "lon": -76.99139783333334, "bike_id": "ea46659742d174e1cf8aa2576eed810e", "type": "electric_scooter", "name": "ea46659742d174e1cf8aa2576eed810e"}, {"is_disabled": 0, "is_reserved": 0, "fusion_lat": 0.0, "lat": 38.922109, "fusion_lon": 0.0, "rental_uris": {"ios": "https://dc.lft.to/lastmile_qr_scan", "android": "https://dc.lft.to/lastmile_qr_scan"}, "lon": -77.0329205, "bike_id": "20bcfd40262d6293c873e9ec5e4169e4", "type": "electric_scooter", "name": "20bcfd40262d6293c873e9ec5e4169e4"}, {"is_disabled": 0, "is_reserved": 0, "fusion_lat": 0.0, "lat": 38.902738666666664, "fusion_lon": 0.0, "rental_uris": {"ios": "https://dc.lft.to/lastmile_qr_scan", "android": "https://dc.lft.to/lastmile_qr_scan"}, "lon": -77.0453635, "bike_id": "a1fd071894ef816fe32f0221746a8f46", "type": "electric_scooter", "name": "a1fd071894ef816fe32f0221746a8f46"}, {"is_disabled": 0, "is_reserved": 0, "fusion_lat": 0.0, "lat": 38.92253633333333, "fusion_lon": 0.0, "rental_uris": {"ios": "https://dc.lft.to/lastmile_qr_scan", "android": "https://dc.lft.to/lastmile_qr_scan"}, "lon": -77.0297805, "bike_id": "c3b4187241be5919d353955d5716765e", "type": "electric_scooter", "name": "c3b4187241be5919d353955d5716765e"}, {"is_disabled": 0, "is_reserved": 0, "fusion_lat": 0.0, "lat": 38.8429975, "fusion_lon": 0.0, "rental_uris": {"ios": "https://dc.lft.to/lastmile_qr_scan", "android": "https://dc.lft.to/lastmile_qr_scan"}, "lon": -77.06381183333333, "bike_id": "1ec53d24a6252013a9410a864c135eab", "type": "electric_bike", "name": "1ec53d24a6252013a9410a864c135eab"}, {"is_disabled": 0, "is_reserved": 0, "fusion_lat": 0.0, "lat": 38.918096166666665, "fusion_lon": 0.0, "rental_uris": {"ios": "https://dc.lft.to/lastmile_qr_scan", "android": "https://dc.lft.to/lastmile_qr_scan"}, "lon": -77.04001833333334, "bike_id": "c36c87d23a0bc7970f3b36f3c309cc92", "type": "electric_scooter", "name": "c36c87d23a0bc7970f3b36f3c309cc92"}, {"is_disabled": 0, "is_reserved": 0, "fusion_lat": 0.0, "lat": 38.9728445, "fusion_lon": 0.0, "rental_uris": {"ios": "https://dc.lft.to/lastmile_qr_scan", "android": "https://dc.lft.to/lastmile_qr_scan"}, "lon": -77.03625033333333, "bike_id": "5b48d8de917dca252097ab7377dbf287", "type": "electric_bike", "name": "5b48d8de917dca252097ab7377dbf287"}, {"is_disabled": 0, "is_reserved": 0, "fusion_lat": 0.0, "lat": 38.926607, "fusion_lon": 0.0, "rental_uris": {"ios": "https://dc.lft.to/lastmile_qr_scan", "android": "https://dc.lft.to/lastmile_qr_scan"}, "lon": -76.99299116666667, "bike_id": "2c1f313cb4a7434ccce1f7e71c4b0b74", "type": "electric_scooter", "name": "2c1f313cb4a7434ccce1f7e71c4b0b74"}, {"is_disabled": 0, "is_reserved": 0, "fusion_lat": 0.0, "lat": 38.9007575, "fusion_lon": 0.0, "rental_uris": {"ios": "https://dc.lft.to/lastmile_qr_scan", "android": "https://dc.lft.to/lastmile_qr_scan"}, "lon": -77.02600816666667, "bike_id": "28144f944443e4230aed1d2191aecfa7", "type": "electric_scooter", "name": "28144f944443e4230aed1d2191aecfa7"}, {"is_disabled": 0, "is_reserved": 0, "fusion_lat": 0.0, "lat": 38.915629, "fusion_lon": 0.0, "rental_uris": {"ios": "https://dc.lft.to/lastmile_qr_scan", "android": "https://dc.lft.to/lastmile_qr_scan"}, "lon": -77.042844, "bike_id": "6111d7b5be1643aeac990bffcdce27a8", "type": "electric_scooter", "name": "6111d7b5be1643aeac990bffcdce27a8"}, {"is_disabled": 0, "is_reserved": 0, "fusion_lat": 0.0, "lat": 38.901801666666664, "fusion_lon": 0.0, "rental_uris": {"ios": "https://dc.lft.to/lastmile_qr_scan", "android": "https://dc.lft.to/lastmile_qr_scan"}, "lon": -77.00209183333334, "bike_id": "ce57b201de17c37841f20ab6f00db5bb", "type": "electric_scooter", "name": "ce57b201de17c37841f20ab6f00db5bb"}, {"is_disabled": 0, "is_reserved": 0, "fusion_lat": 0.0, "lat": 38.87653733333333, "fusion_lon": 0.0, "rental_uris": {"ios": "https://dc.lft.to/lastmile_qr_scan", "android": "https://dc.lft.to/lastmile_qr_scan"}, "lon": -77.005712, "bike_id": "3763d1c07504b0761553cedaaca74edf", "type": "electric_scooter", "name": "3763d1c07504b0761553cedaaca74edf"}, {"is_disabled": 0, "is_reserved": 0, "fusion_lat": 0.0, "lat": 38.95249233333333, "fusion_lon": 0.0, "rental_uris": {"ios": "https://dc.lft.to/lastmile_qr_scan", "android": "https://dc.lft.to/lastmile_qr_scan"}, "lon": -77.09624816666667, "bike_id": "86892fe27b9ed6a723d089f15a8b883d", "type": "electric_bike", "name": "86892fe27b9ed6a723d089f15a8b883d"}, {"is_disabled": 0, "is_reserved": 0, "fusion_lat": 0.0, "lat": 38.951853166666666, "fusion_lon": 0.0, "rental_uris": {"ios": "https://dc.lft.to/lastmile_qr_scan", "android": "https://dc.lft.to/lastmile_qr_scan"}, "lon": -76.93543666666666, "bike_id": "6ddb803f94d9934ec5165ec7812cee56", "type": "electric_bike", "name": "6ddb803f94d9934ec5165ec7812cee56"}, {"is_disabled": 0, "is_reserved": 0, "fusion_lat": 0.0, "lat": 38.963836666666666, "fusion_lon": 0.0, "rental_uris": {"ios": "https://dc.lft.to/lastmile_qr_scan", "android": "https://dc.lft.to/lastmile_qr_scan"}, "lon": -77.01977916666667, "bike_id": "2a243e6fb8d939bbf1d9cc691d516156", "type": "electric_bike", "name": "2a243e6fb8d939bbf1d9cc691d516156"}, {"is_disabled": 0, "is_reserved": 0, "fusion_lat": 0.0, "lat": 38.923639, "fusion_lon": 0.0, "rental_uris": {"ios": "https://dc.lft.to/lastmile_qr_scan", "android": "https://dc.lft.to/lastmile_qr_scan"}, "lon": -77.02059183333333, "bike_id": "9513d2d942c0ddfa501e263bcf68c01f", "type": "electric_scooter", "name": "9513d2d942c0ddfa501e263bcf68c01f"}, {"is_disabled": 0, "is_reserved": 0, "fusion_lat": 0.0, "lat": 38.9181395, "fusion_lon": 0.0, "rental_uris": {"ios": "https://dc.lft.to/lastmile_qr_scan", "android": "https://dc.lft.to/lastmile_qr_scan"}, "lon": -77.04002183333333, "bike_id": "81ece8ce5acf1aaa18d71bda103185b6", "type": "electric_scooter", "name": "81ece8ce5acf1aaa18d71bda103185b6"}, {"is_disabled": 0, "is_reserved": 0, "fusion_lat": 0.0, "lat": 38.926023666666666, "fusion_lon": 0.0, "rental_uris": {"ios": "https://dc.lft.to/lastmile_qr_scan", "android": "https://dc.lft.to/lastmile_qr_scan"}, "lon": -77.02292766666666, "bike_id": "17decee6e4d369b317cab0f4e697b858", "type": "electric_scooter", "name": "17decee6e4d369b317cab0f4e697b858"}, {"is_disabled": 0, "is_reserved": 0, "fusion_lat": 0.0, "lat": 38.933435833333334, "fusion_lon": 0.0, "rental_uris": {"ios": "https://dc.lft.to/lastmile_qr_scan", "android": "https://dc.lft.to/lastmile_qr_scan"}, "lon": -77.019426, "bike_id": "0d8bd16cbc76b30a249503c1d518204d", "type": "electric_scooter", "name": "0d8bd16cbc76b30a249503c1d518204d"}, {"is_disabled": 0, "is_reserved": 0, "fusion_lat": 0.0, "lat": 38.930586166666664, "fusion_lon": 0.0, "rental_uris": {"ios": "https://dc.lft.to/lastmile_qr_scan", "android": "https://dc.lft.to/lastmile_qr_scan"}, "lon": -77.0336715, "bike_id": "111d2287960f1a388dc53020498811f1", "type": "electric_scooter", "name": "111d2287960f1a388dc53020498811f1"}, {"is_disabled": 0, "is_reserved": 0, "fusion_lat": 0.0, "lat": 38.886337, "fusion_lon": 0.0, "rental_uris": {"ios": "https://dc.lft.to/lastmile_qr_scan", "android": "https://dc.lft.to/lastmile_qr_scan"}, "lon": -77.05795883333333, "bike_id": "7bc8e66cb9400ac96dc5ad6cc323a241", "type": "electric_bike", "name": "7bc8e66cb9400ac96dc5ad6cc323a241"}, {"is_disabled": 0, "is_reserved": 0, "fusion_lat": 0.0, "lat": 38.892361333333334, "fusion_lon": 0.0, "rental_uris": {"ios": "https://dc.lft.to/lastmile_qr_scan", "android": "https://dc.lft.to/lastmile_qr_scan"}, "lon": -76.99941183333334, "bike_id": "2c43535dc5e9bb0d8599c89354741c38", "type": "electric_scooter", "name": "2c43535dc5e9bb0d8599c89354741c38"}, {"is_disabled": 0, "is_reserved": 0, "fusion_lat": 0.0, "lat": 38.90167233333333, "fusion_lon": 0.0, "rental_uris": {"ios": "https://dc.lft.to/lastmile_qr_scan", "android": "https://dc.lft.to/lastmile_qr_scan"}, "lon": -76.98785466666666, "bike_id": "8f0cad318268d162a6634a41c5963ddf", "type": "electric_scooter", "name": "8f0cad318268d162a6634a41c5963ddf"}, {"is_disabled": 0, "is_reserved": 0, "fusion_lat": 0.0, "lat": 38.93184516666667, "fusion_lon": 0.0, "rental_uris": {"ios": "https://dc.lft.to/lastmile_qr_scan", "android": "https://dc.lft.to/lastmile_qr_scan"}, "lon": -77.02346916666667, "bike_id": "1361933247d2cca0b78e90b85422a0f4", "type": "electric_scooter", "name": "1361933247d2cca0b78e90b85422a0f4"}, {"is_disabled": 0, "is_reserved": 0, "fusion_lat": 0.0, "lat": 38.9814285, "fusion_lon": 0.0, "rental_uris": {"ios": "https://dc.lft.to/lastmile_qr_scan", "android": "https://dc.lft.to/lastmile_qr_scan"}, "lon": -77.00775116666667, "bike_id": "cf6283fcca9d9f025d4db585ab5549a0", "type": "electric_bike", "name": "cf6283fcca9d9f025d4db585ab5549a0"}, {"is_disabled": 0, "is_reserved": 0, "fusion_lat": 0.0, "lat": 38.90129266666667, "fusion_lon": 0.0, "rental_uris": {"ios": "https://dc.lft.to/lastmile_qr_scan", "android": "https://dc.lft.to/lastmile_qr_scan"}, "lon": -77.0035335, "bike_id": "4257527ee0f8d11151c07b8a2b871224", "type": "electric_scooter", "name": "4257527ee0f8d11151c07b8a2b871224"}, {"is_disabled": 0, "is_reserved": 0, "fusion_lat": 0.0, "lat": 39.01069, "fusion_lon": 0.0, "rental_uris": {"ios": "https://dc.lft.to/lastmile_qr_scan", "android": "https://dc.lft.to/lastmile_qr_scan"}, "lon": -76.92244383333333, "bike_id": "646f002b0447a7bdde0e3a4555649644", "type": "electric_bike", "name": "646f002b0447a7bdde0e3a4555649644"}, {"is_disabled": 0, "is_reserved": 0, "fusion_lat": 0.0, "lat": 38.90035616666667, "fusion_lon": 0.0, "rental_uris": {"ios": "https://dc.lft.to/lastmile_qr_scan", "android": "https://dc.lft.to/lastmile_qr_scan"}, "lon": -77.01185433333333, "bike_id": "4de9b2d106d9855822d10f7ed306fb11", "type": "electric_scooter", "name": "4de9b2d106d9855822d10f7ed306fb11"}, {"is_disabled": 0, "is_reserved": 0, "fusion_lat": 0.0, "lat": 38.91689516666667, "fusion_lon": 0.0, "rental_uris": {"ios": "https://dc.lft.to/lastmile_qr_scan", "android": "https://dc.lft.to/lastmile_qr_scan"}, "lon": -77.04171716666667, "bike_id": "7e5e56354e325cd335aed5b9797126c3", "type": "electric_scooter", "name": "7e5e56354e325cd335aed5b9797126c3"}, {"is_disabled": 0, "is_reserved": 0, "fusion_lat": 0.0, "lat": 38.901494666666665, "fusion_lon": 0.0, "rental_uris": {"ios": "https://dc.lft.to/lastmile_qr_scan", "android": "https://dc.lft.to/lastmile_qr_scan"}, "lon": -76.985604, "bike_id": "ea5cfe863d09e0aa8a80cd375022af26", "type": "electric_scooter", "name": "ea5cfe863d09e0aa8a80cd375022af26"}, {"is_disabled": 0, "is_reserved": 0, "fusion_lat": 0.0, "lat": 38.919269, "fusion_lon": 0.0, "rental_uris": {"ios": "https://dc.lft.to/lastmile_qr_scan", "android": "https://dc.lft.to/lastmile_qr_scan"}, "lon": -77.034416, "bike_id": "8d2959880eab5687567ac28c48211501", "type": "electric_scooter", "name": "8d2959880eab5687567ac28c48211501"}, {"is_disabled": 0, "is_reserved": 0, "fusion_lat": 0.0, "lat": 38.91805316666667, "fusion_lon": 0.0, "rental_uris": {"ios": "https://dc.lft.to/lastmile_qr_scan", "android": "https://dc.lft.to/lastmile_qr_scan"}, "lon": -77.02494033333333, "bike_id": "c0e17206a416e7670d7342707ddc8edc", "type": "electric_scooter", "name": "c0e17206a416e7670d7342707ddc8edc"}, {"is_disabled": 0, "is_reserved": 0, "fusion_lat": 0.0, "lat": 38.874454166666666, "fusion_lon": 0.0, "rental_uris": {"ios": "https://dc.lft.to/lastmile_qr_scan", "android": "https://dc.lft.to/lastmile_qr_scan"}, "lon": -77.009215, "bike_id": "287f6299615c865e43d4829272306e11", "type": "electric_scooter", "name": "287f6299615c865e43d4829272306e11"}, {"is_disabled": 0, "is_reserved": 0, "fusion_lat": 0.0, "lat": 38.87845, "fusion_lon": 0.0, "rental_uris": {"ios": "https://dc.lft.to/lastmile_qr_scan", "android": "https://dc.lft.to/lastmile_qr_scan"}, "lon": -76.93124783333333, "bike_id": "42a9028e07d13856b5c5d11383439ca4", "type": "electric_scooter", "name": "42a9028e07d13856b5c5d11383439ca4"}, {"is_disabled": 0, "is_reserved": 0, "fusion_lat": 0.0, "lat": 38.883576833333336, "fusion_lon": 0.0, "rental_uris": {"ios": "https://dc.lft.to/lastmile_qr_scan", "android": "https://dc.lft.to/lastmile_qr_scan"}, "lon": -76.99501, "bike_id": "61a1a03ee60afc3ceb2f01b5e82b28a9", "type": "electric_scooter", "name": "61a1a03ee60afc3ceb2f01b5e82b28a9"}, {"is_disabled": 0, "is_reserved": 0, "fusion_lat": 0.0, "lat": 38.918933333333335, "fusion_lon": 0.0, "rental_uris": {"ios": "https://dc.lft.to/lastmile_qr_scan", "android": "https://dc.lft.to/lastmile_qr_scan"}, "lon": -77.02302216666666, "bike_id": "02d73472acbc96a9325ad7694236cf52", "type": "electric_scooter", "name": "02d73472acbc96a9325ad7694236cf52"}, {"is_disabled": 0, "is_reserved": 0, "fusion_lat": 0.0, "lat": 38.903851833333334, "fusion_lon": 0.0, "rental_uris": {"ios": "https://dc.lft.to/lastmile_qr_scan", "android": "https://dc.lft.to/lastmile_qr_scan"}, "lon": -77.05075366666667, "bike_id": "18fcadd5c57b64c0d390748ed1a04190", "type": "electric_scooter", "name": "18fcadd5c57b64c0d390748ed1a04190"}, {"is_disabled": 0, "is_reserved": 0, "fusion_lat": 0.0, "lat": 38.900347333333336, "fusion_lon": 0.0, "rental_uris": {"ios": "https://dc.lft.to/lastmile_qr_scan", "android": "https://dc.lft.to/lastmile_qr_scan"}, "lon": -77.0037095, "bike_id": "52210f0356a724d47ddd7a21d0a1e43f", "type": "electric_scooter", "name": "52210f0356a724d47ddd7a21d0a1e43f"}, {"is_disabled": 0, "is_reserved": 0, "fusion_lat": 0.0, "lat": 38.937197833333336, "fusion_lon": 0.0, "rental_uris": {"ios": "https://dc.lft.to/lastmile_qr_scan", "android": "https://dc.lft.to/lastmile_qr_scan"}, "lon": -77.02445583333333, "bike_id": "fd00045a588c29dcc751b6275974be62", "type": "electric_scooter", "name": "fd00045a588c29dcc751b6275974be62"}, {"is_disabled": 0, "is_reserved": 0, "fusion_lat": 0.0, "lat": 38.901058666666664, "fusion_lon": 0.0, "rental_uris": {"ios": "https://dc.lft.to/lastmile_qr_scan", "android": "https://dc.lft.to/lastmile_qr_scan"}, "lon": -77.05901466666667, "bike_id": "8b0b38d93ecf5a11ee0ad52e3b3f0c4f", "type": "electric_scooter", "name": "8b0b38d93ecf5a11ee0ad52e3b3f0c4f"}, {"is_disabled": 0, "is_reserved": 0, "fusion_lat": 0.0, "lat": 38.881094, "fusion_lon": 0.0, "rental_uris": {"ios": "https://dc.lft.to/lastmile_qr_scan", "android": "https://dc.lft.to/lastmile_qr_scan"}, "lon": -77.026535, "bike_id": "3696b7b8cd1b91f7d449949373c04c0a", "type": "electric_scooter", "name": "3696b7b8cd1b91f7d449949373c04c0a"}, {"is_disabled": 0, "is_reserved": 0, "fusion_lat": 0.0, "lat": 38.903924333333336, "fusion_lon": 0.0, "rental_uris": {"ios": "https://dc.lft.to/lastmile_qr_scan", "android": "https://dc.lft.to/lastmile_qr_scan"}, "lon": -77.02410133333333, "bike_id": "d6885635a43dbea5717e3f7e6ce0986b", "type": "electric_scooter", "name": "d6885635a43dbea5717e3f7e6ce0986b"}, {"is_disabled": 0, "is_reserved": 0, "fusion_lat": 0.0, "lat": 38.87661883333333, "fusion_lon": 0.0, "rental_uris": {"ios": "https://dc.lft.to/lastmile_qr_scan", "android": "https://dc.lft.to/lastmile_qr_scan"}, "lon": -77.00567916666667, "bike_id": "795eeeda017e9aa5d981f3c828eaea0f", "type": "electric_scooter", "name": "795eeeda017e9aa5d981f3c828eaea0f"}, {"is_disabled": 0, "is_reserved": 0, "fusion_lat": 0.0, "lat": 38.918164833333336, "fusion_lon": 0.0, "rental_uris": {"ios": "https://dc.lft.to/lastmile_qr_scan", "android": "https://dc.lft.to/lastmile_qr_scan"}, "lon": -77.03997983333333, "bike_id": "5530c53bfece0db795a88a46ab718655", "type": "electric_scooter", "name": "5530c53bfece0db795a88a46ab718655"}, {"is_disabled": 0, "is_reserved": 0, "fusion_lat": 0.0, "lat": 38.93601, "fusion_lon": 0.0, "rental_uris": {"ios": "https://dc.lft.to/lastmile_qr_scan", "android": "https://dc.lft.to/lastmile_qr_scan"}, "lon": -77.02419883333333, "bike_id": "b864e934f03133963492b5b389338406", "type": "electric_scooter", "name": "b864e934f03133963492b5b389338406"}, {"is_disabled": 0, "is_reserved": 0, "fusion_lat": 0.0, "lat": 38.8838475, "fusion_lon": 0.0, "rental_uris": {"ios": "https://dc.lft.to/lastmile_qr_scan", "android": "https://dc.lft.to/lastmile_qr_scan"}, "lon": -77.04602683333333, "bike_id": "dfd86b9659eae6b66645ff41f627934e", "type": "electric_scooter", "name": "dfd86b9659eae6b66645ff41f627934e"}, {"is_disabled": 0, "is_reserved": 0, "fusion_lat": 0.0, "lat": 38.9120085, "fusion_lon": 0.0, "rental_uris": {"ios": "https://dc.lft.to/lastmile_qr_scan", "android": "https://dc.lft.to/lastmile_qr_scan"}, "lon": -77.00215733333333, "bike_id": "f92da9285333f9c9a6d9c23c6877575b", "type": "electric_scooter", "name": "f92da9285333f9c9a6d9c23c6877575b"}, {"is_disabled": 0, "is_reserved": 0, "fusion_lat": 0.0, "lat": 38.92911383333333, "fusion_lon": 0.0, "rental_uris": {"ios": "https://dc.lft.to/lastmile_qr_scan", "android": "https://dc.lft.to/lastmile_qr_scan"}, "lon": -77.02089, "bike_id": "7254a37608329df0ab97875620e52f7e", "type": "electric_scooter", "name": "7254a37608329df0ab97875620e52f7e"}, {"is_disabled": 0, "is_reserved": 0, "fusion_lat": 0.0, "lat": 38.914153166666665, "fusion_lon": 0.0, "rental_uris": {"ios": "https://dc.lft.to/lastmile_qr_scan", "android": "https://dc.lft.to/lastmile_qr_scan"}, "lon": -77.031658, "bike_id": "a57cba1819097b9958e98ca9906e8235", "type": "electric_scooter", "name": "a57cba1819097b9958e98ca9906e8235"}, {"is_disabled": 0, "is_reserved": 0, "fusion_lat": 0.0, "lat": 38.9015225, "fusion_lon": 0.0, "rental_uris": {"ios": "https://dc.lft.to/lastmile_qr_scan", "android": "https://dc.lft.to/lastmile_qr_scan"}, "lon": -77.03232533333333, "bike_id": "e2d3eaf5df3dd75367fa7024dc6829bb", "type": "electric_scooter", "name": "e2d3eaf5df3dd75367fa7024dc6829bb"}, {"is_disabled": 0, "is_reserved": 0, "fusion_lat": 0.0, "lat": 38.929063, "fusion_lon": 0.0, "rental_uris": {"ios": "https://dc.lft.to/lastmile_qr_scan", "android": "https://dc.lft.to/lastmile_qr_scan"}, "lon": -77.03254016666666, "bike_id": "b50c101e5d7793f80ee8d7eacc1ea605", "type": "electric_scooter", "name": "b50c101e5d7793f80ee8d7eacc1ea605"}, {"is_disabled": 0, "is_reserved": 0, "fusion_lat": 0.0, "lat": 38.9218415, "fusion_lon": 0.0, "rental_uris": {"ios": "https://dc.lft.to/lastmile_qr_scan", "android": "https://dc.lft.to/lastmile_qr_scan"}, "lon": -77.03842133333333, "bike_id": "bf79213310892dcc5c174c30b9819ded", "type": "electric_scooter", "name": "bf79213310892dcc5c174c30b9819ded"}, {"is_disabled": 0, "is_reserved": 0, "fusion_lat": 0.0, "lat": 38.9023065, "fusion_lon": 0.0, "rental_uris": {"ios": "https://dc.lft.to/lastmile_qr_scan", "android": "https://dc.lft.to/lastmile_qr_scan"}, "lon": -77.02972866666667, "bike_id": "2904c106d2d33f95fb50ef8a4f6876e1", "type": "electric_scooter", "name": "2904c106d2d33f95fb50ef8a4f6876e1"}, {"is_disabled": 0, "is_reserved": 0, "fusion_lat": 0.0, "lat": 38.80521366666667, "fusion_lon": 0.0, "rental_uris": {"ios": "https://dc.lft.to/lastmile_qr_scan", "android": "https://dc.lft.to/lastmile_qr_scan"}, "lon": -77.04340083333334, "bike_id": "29728768d55d1532033211bd0e609de9", "type": "electric_bike", "name": "29728768d55d1532033211bd0e609de9"}, {"is_disabled": 0, "is_reserved": 0, "fusion_lat": 0.0, "lat": 38.8984595, "fusion_lon": 0.0, "rental_uris": {"ios": "https://dc.lft.to/lastmile_qr_scan", "android": "https://dc.lft.to/lastmile_qr_scan"}, "lon": -76.99151216666667, "bike_id": "fb2fef7ec8a27dc8a4750b9ec6658b96", "type": "electric_scooter", "name": "fb2fef7ec8a27dc8a4750b9ec6658b96"}, {"is_disabled": 0, "is_reserved": 0, "fusion_lat": 0.0, "lat": 38.908455000000004, "fusion_lon": 0.0, "rental_uris": {"ios": "https://dc.lft.to/lastmile_qr_scan", "android": "https://dc.lft.to/lastmile_qr_scan"}, "lon": -76.93448116666667, "bike_id": "f2be8d5b55828e9416cc19b0f504805b", "type": "electric_scooter", "name": "f2be8d5b55828e9416cc19b0f504805b"}, {"is_disabled": 0, "is_reserved": 0, "fusion_lat": 0.0, "lat": 38.909695166666666, "fusion_lon": 0.0, "rental_uris": {"ios": "https://dc.lft.to/lastmile_qr_scan", "android": "https://dc.lft.to/lastmile_qr_scan"}, "lon": -77.032463, "bike_id": "c28ae75b9954e65b1f94524148876ac7", "type": "electric_bike", "name": "c28ae75b9954e65b1f94524148876ac7"}, {"is_disabled": 0, "is_reserved": 0, "fusion_lat": 0.0, "lat": 38.89778, "fusion_lon": 0.0, "rental_uris": {"ios": "https://dc.lft.to/lastmile_qr_scan", "android": "https://dc.lft.to/lastmile_qr_scan"}, "lon": -77.047923, "bike_id": "4280076de1d243f454ac4a891f9d1fda", "type": "electric_scooter", "name": "4280076de1d243f454ac4a891f9d1fda"}, {"is_disabled": 0, "is_reserved": 0, "fusion_lat": 0.0, "lat": 38.874423166666666, "fusion_lon": 0.0, "rental_uris": {"ios": "https://dc.lft.to/lastmile_qr_scan", "android": "https://dc.lft.to/lastmile_qr_scan"}, "lon": -77.0091855, "bike_id": "8abb09add07ccf46242d01f12b56a5c5", "type": "electric_scooter", "name": "8abb09add07ccf46242d01f12b56a5c5"}, {"is_disabled": 0, "is_reserved": 0, "fusion_lat": 0.0, "lat": 38.96795616666667, "fusion_lon": 0.0, "rental_uris": {"ios": "https://dc.lft.to/lastmile_qr_scan", "android": "https://dc.lft.to/lastmile_qr_scan"}, "lon": -77.0243025, "bike_id": "3841df7980a4fc4f8ddd796358aca114", "type": "electric_scooter", "name": "3841df7980a4fc4f8ddd796358aca114"}, {"is_disabled": 0, "is_reserved": 0, "fusion_lat": 0.0, "lat": 38.922671333333334, "fusion_lon": 0.0, "rental_uris": {"ios": "https://dc.lft.to/lastmile_qr_scan", "android": "https://dc.lft.to/lastmile_qr_scan"}, "lon": -77.0422885, "bike_id": "2abee2db5c3a3749f2ca7c8f17e24570", "type": "electric_scooter", "name": "2abee2db5c3a3749f2ca7c8f17e24570"}, {"is_disabled": 0, "is_reserved": 0, "fusion_lat": 0.0, "lat": 38.90271, "fusion_lon": 0.0, "rental_uris": {"ios": "https://dc.lft.to/lastmile_qr_scan", "android": "https://dc.lft.to/lastmile_qr_scan"}, "lon": -77.02768883333333, "bike_id": "509f1d573a55812432bd035396a2e759", "type": "electric_scooter", "name": "509f1d573a55812432bd035396a2e759"}, {"is_disabled": 0, "is_reserved": 0, "fusion_lat": 0.0, "lat": 38.95630166666667, "fusion_lon": 0.0, "rental_uris": {"ios": "https://dc.lft.to/lastmile_qr_scan", "android": "https://dc.lft.to/lastmile_qr_scan"}, "lon": -77.02208516666667, "bike_id": "48f749fd1787ff9641e1d008279209b0", "type": "electric_scooter", "name": "48f749fd1787ff9641e1d008279209b0"}, {"is_disabled": 0, "is_reserved": 0, "fusion_lat": 0.0, "lat": 38.83270866666667, "fusion_lon": 0.0, "rental_uris": {"ios": "https://dc.lft.to/lastmile_qr_scan", "android": "https://dc.lft.to/lastmile_qr_scan"}, "lon": -77.0836665, "bike_id": "f2de9068e16f4cc1be33d1fd9005f404", "type": "electric_bike", "name": "f2de9068e16f4cc1be33d1fd9005f404"}, {"is_disabled": 0, "is_reserved": 0, "fusion_lat": 0.0, "lat": 38.922621166666666, "fusion_lon": 0.0, "rental_uris": {"ios": "https://dc.lft.to/lastmile_qr_scan", "android": "https://dc.lft.to/lastmile_qr_scan"}, "lon": -77.03668616666667, "bike_id": "b591df999d83c10f0e55720cd2785b09", "type": "electric_scooter", "name": "b591df999d83c10f0e55720cd2785b09"}, {"is_disabled": 0, "is_reserved": 0, "fusion_lat": 0.0, "lat": 38.898991, "fusion_lon": 0.0, "rental_uris": {"ios": "https://dc.lft.to/lastmile_qr_scan", "android": "https://dc.lft.to/lastmile_qr_scan"}, "lon": -77.04996633333333, "bike_id": "777cdd3b95a79aac73a0af49a07c41ca", "type": "electric_scooter", "name": "777cdd3b95a79aac73a0af49a07c41ca"}, {"is_disabled": 0, "is_reserved": 0, "fusion_lat": 0.0, "lat": 38.920472833333335, "fusion_lon": 0.0, "rental_uris": {"ios": "https://dc.lft.to/lastmile_qr_scan", "android": "https://dc.lft.to/lastmile_qr_scan"}, "lon": -77.0167055, "bike_id": "66faab130d2cf6c1656f433e01e633fd", "type": "electric_scooter", "name": "66faab130d2cf6c1656f433e01e633fd"}, {"is_disabled": 0, "is_reserved": 0, "fusion_lat": 0.0, "lat": 38.920228333333334, "fusion_lon": 0.0, "rental_uris": {"ios": "https://dc.lft.to/lastmile_qr_scan", "android": "https://dc.lft.to/lastmile_qr_scan"}, "lon": -77.01709816666667, "bike_id": "a0bc70f3f365f7d97bd021e7fb4b9611", "type": "electric_scooter", "name": "a0bc70f3f365f7d97bd021e7fb4b9611"}, {"is_disabled": 0, "is_reserved": 0, "fusion_lat": 0.0, "lat": 38.9386445, "fusion_lon": 0.0, "rental_uris": {"ios": "https://dc.lft.to/lastmile_qr_scan", "android": "https://dc.lft.to/lastmile_qr_scan"}, "lon": -77.07231133333333, "bike_id": "966c7b5f187792ac9fc2ad88e7ccd0b3", "type": "electric_scooter", "name": "966c7b5f187792ac9fc2ad88e7ccd0b3"}, {"is_disabled": 0, "is_reserved": 0, "fusion_lat": 0.0, "lat": 38.939304, "fusion_lon": 0.0, "rental_uris": {"ios": "https://dc.lft.to/lastmile_qr_scan", "android": "https://dc.lft.to/lastmile_qr_scan"}, "lon": -77.07250983333333, "bike_id": "a59698fe3af530dd20266eb402abf887", "type": "electric_scooter", "name": "a59698fe3af530dd20266eb402abf887"}, {"is_disabled": 0, "is_reserved": 0, "fusion_lat": 0.0, "lat": 38.90099216666667, "fusion_lon": 0.0, "rental_uris": {"ios": "https://dc.lft.to/lastmile_qr_scan", "android": "https://dc.lft.to/lastmile_qr_scan"}, "lon": -77.04983, "bike_id": "76529b07f867b951c0415a46664ee5e7", "type": "electric_scooter", "name": "76529b07f867b951c0415a46664ee5e7"}, {"is_disabled": 0, "is_reserved": 0, "fusion_lat": 0.0, "lat": 38.9073335, "fusion_lon": 0.0, "rental_uris": {"ios": "https://dc.lft.to/lastmile_qr_scan", "android": "https://dc.lft.to/lastmile_qr_scan"}, "lon": -77.03960216666667, "bike_id": "716d9e3a4c6b5d2bfad6ce32f3bc87a9", "type": "electric_scooter", "name": "716d9e3a4c6b5d2bfad6ce32f3bc87a9"}, {"is_disabled": 0, "is_reserved": 0, "fusion_lat": 0.0, "lat": 38.90957083333333, "fusion_lon": 0.0, "rental_uris": {"ios": "https://dc.lft.to/lastmile_qr_scan", "android": "https://dc.lft.to/lastmile_qr_scan"}, "lon": -77.04707583333334, "bike_id": "587eff4e8bd798e0f888a656b92a6f85", "type": "electric_scooter", "name": "587eff4e8bd798e0f888a656b92a6f85"}, {"is_disabled": 0, "is_reserved": 0, "fusion_lat": 0.0, "lat": 38.90239416666667, "fusion_lon": 0.0, "rental_uris": {"ios": "https://dc.lft.to/lastmile_qr_scan", "android": "https://dc.lft.to/lastmile_qr_scan"}, "lon": -77.00202166666666, "bike_id": "0cf3cc5ee583b22f3b92e5ffebe5b292", "type": "electric_scooter", "name": "0cf3cc5ee583b22f3b92e5ffebe5b292"}, {"is_disabled": 0, "is_reserved": 0, "fusion_lat": 0.0, "lat": 38.899526333333334, "fusion_lon": 0.0, "rental_uris": {"ios": "https://dc.lft.to/lastmile_qr_scan", "android": "https://dc.lft.to/lastmile_qr_scan"}, "lon": -77.04753966666667, "bike_id": "ab6b2013152fa152025f489150130a4b", "type": "electric_scooter", "name": "ab6b2013152fa152025f489150130a4b"}, {"is_disabled": 0, "is_reserved": 0, "fusion_lat": 0.0, "lat": 38.8871245, "fusion_lon": 0.0, "rental_uris": {"ios": "https://dc.lft.to/lastmile_qr_scan", "android": "https://dc.lft.to/lastmile_qr_scan"}, "lon": -76.98378833333334, "bike_id": "4d8522890f052ee62e1ff901a6980a06", "type": "electric_scooter", "name": "4d8522890f052ee62e1ff901a6980a06"}, {"is_disabled": 0, "is_reserved": 0, "fusion_lat": 0.0, "lat": 38.95734683333333, "fusion_lon": 0.0, "rental_uris": {"ios": "https://dc.lft.to/lastmile_qr_scan", "android": "https://dc.lft.to/lastmile_qr_scan"}, "lon": -77.02420433333333, "bike_id": "e061471ac18193ce7411587de0b2bf62", "type": "electric_scooter", "name": "e061471ac18193ce7411587de0b2bf62"}, {"is_disabled": 0, "is_reserved": 0, "fusion_lat": 0.0, "lat": 38.896603166666665, "fusion_lon": 0.0, "rental_uris": {"ios": "https://dc.lft.to/lastmile_qr_scan", "android": "https://dc.lft.to/lastmile_qr_scan"}, "lon": -77.043393, "bike_id": "00a2e60045855c1ad357510f3a377faf", "type": "electric_scooter", "name": "00a2e60045855c1ad357510f3a377faf"}, {"is_disabled": 0, "is_reserved": 0, "fusion_lat": 0.0, "lat": 38.9021635, "fusion_lon": 0.0, "rental_uris": {"ios": "https://dc.lft.to/lastmile_qr_scan", "android": "https://dc.lft.to/lastmile_qr_scan"}, "lon": -77.023677, "bike_id": "2d44ca158d43a5f6a0f0f24e8fbc0c58", "type": "electric_scooter", "name": "2d44ca158d43a5f6a0f0f24e8fbc0c58"}, {"is_disabled": 0, "is_reserved": 0, "fusion_lat": 0.0, "lat": 38.920230833333335, "fusion_lon": 0.0, "rental_uris": {"ios": "https://dc.lft.to/lastmile_qr_scan", "android": "https://dc.lft.to/lastmile_qr_scan"}, "lon": -76.99981733333334, "bike_id": "a6b5581effe3c2f622dd12e7b5807770", "type": "electric_scooter", "name": "a6b5581effe3c2f622dd12e7b5807770"}, {"is_disabled": 0, "is_reserved": 0, "fusion_lat": 0.0, "lat": 38.9169045, "fusion_lon": 0.0, "rental_uris": {"ios": "https://dc.lft.to/lastmile_qr_scan", "android": "https://dc.lft.to/lastmile_qr_scan"}, "lon": -77.03013166666666, "bike_id": "a48e20b59e7c58aba85246d8b351be9a", "type": "electric_scooter", "name": "a48e20b59e7c58aba85246d8b351be9a"}, {"is_disabled": 0, "is_reserved": 0, "fusion_lat": 0.0, "lat": 38.938699166666666, "fusion_lon": 0.0, "rental_uris": {"ios": "https://dc.lft.to/lastmile_qr_scan", "android": "https://dc.lft.to/lastmile_qr_scan"}, "lon": -77.03216116666667, "bike_id": "ac8cfe101c8771b746c8848168ea58d5", "type": "electric_scooter", "name": "ac8cfe101c8771b746c8848168ea58d5"}, {"is_disabled": 0, "is_reserved": 0, "fusion_lat": 0.0, "lat": 38.92378016666667, "fusion_lon": 0.0, "rental_uris": {"ios": "https://dc.lft.to/lastmile_qr_scan", "android": "https://dc.lft.to/lastmile_qr_scan"}, "lon": -77.02848233333333, "bike_id": "4b9f168eba2066fddfd09d16d7a7a383", "type": "electric_scooter", "name": "4b9f168eba2066fddfd09d16d7a7a383"}, {"is_disabled": 0, "is_reserved": 0, "fusion_lat": 0.0, "lat": 38.9224605, "fusion_lon": 0.0, "rental_uris": {"ios": "https://dc.lft.to/lastmile_qr_scan", "android": "https://dc.lft.to/lastmile_qr_scan"}, "lon": -77.018493, "bike_id": "c3e8a3daf80561b6e1a5cf459ed4f318", "type": "electric_scooter", "name": "c3e8a3daf80561b6e1a5cf459ed4f318"}, {"is_disabled": 0, "is_reserved": 0, "fusion_lat": 0.0, "lat": 38.900729166666665, "fusion_lon": 0.0, "rental_uris": {"ios": "https://dc.lft.to/lastmile_qr_scan", "android": "https://dc.lft.to/lastmile_qr_scan"}, "lon": -77.00654133333333, "bike_id": "a59bde29f3a408f2de60d1e075c2cfd8", "type": "electric_scooter", "name": "a59bde29f3a408f2de60d1e075c2cfd8"}, {"is_disabled": 0, "is_reserved": 0, "fusion_lat": 0.0, "lat": 38.92058333333333, "fusion_lon": 0.0, "rental_uris": {"ios": "https://dc.lft.to/lastmile_qr_scan", "android": "https://dc.lft.to/lastmile_qr_scan"}, "lon": -77.02300016666666, "bike_id": "f654f1a72758f85206e40af714b25706", "type": "electric_scooter", "name": "f654f1a72758f85206e40af714b25706"}, {"is_disabled": 0, "is_reserved": 0, "fusion_lat": 0.0, "lat": 38.916372333333335, "fusion_lon": 0.0, "rental_uris": {"ios": "https://dc.lft.to/lastmile_qr_scan", "android": "https://dc.lft.to/lastmile_qr_scan"}, "lon": -77.0269485, "bike_id": "83ef8939d64b4f6ef5f86f1e7afe9fbc", "type": "electric_scooter", "name": "83ef8939d64b4f6ef5f86f1e7afe9fbc"}, {"is_disabled": 0, "is_reserved": 0, "fusion_lat": 0.0, "lat": 38.9033525, "fusion_lon": 0.0, "rental_uris": {"ios": "https://dc.lft.to/lastmile_qr_scan", "android": "https://dc.lft.to/lastmile_qr_scan"}, "lon": -76.97590633333333, "bike_id": "97964c91fc422281fc6290ebc9cc61f9", "type": "electric_scooter", "name": "97964c91fc422281fc6290ebc9cc61f9"}, {"is_disabled": 0, "is_reserved": 0, "fusion_lat": 0.0, "lat": 38.870884833333335, "fusion_lon": 0.0, "rental_uris": {"ios": "https://dc.lft.to/lastmile_qr_scan", "android": "https://dc.lft.to/lastmile_qr_scan"}, "lon": -77.012109, "bike_id": "3db744a79226b96413bc20ceb80d2257", "type": "electric_scooter", "name": "3db744a79226b96413bc20ceb80d2257"}, {"is_disabled": 0, "is_reserved": 0, "fusion_lat": 0.0, "lat": 38.92074366666667, "fusion_lon": 0.0, "rental_uris": {"ios": "https://dc.lft.to/lastmile_qr_scan", "android": "https://dc.lft.to/lastmile_qr_scan"}, "lon": -77.025139, "bike_id": "8bc837fe838a4bd02caa3958762972eb", "type": "electric_scooter", "name": "8bc837fe838a4bd02caa3958762972eb"}, {"is_disabled": 0, "is_reserved": 0, "fusion_lat": 0.0, "lat": 38.89918866666667, "fusion_lon": 0.0, "rental_uris": {"ios": "https://dc.lft.to/lastmile_qr_scan", "android": "https://dc.lft.to/lastmile_qr_scan"}, "lon": -77.0401, "bike_id": "18e3a53374dab41fdbd73edd406c568e", "type": "electric_scooter", "name": "18e3a53374dab41fdbd73edd406c568e"}, {"is_disabled": 0, "is_reserved": 0, "fusion_lat": 0.0, "lat": 38.90006433333333, "fusion_lon": 0.0, "rental_uris": {"ios": "https://dc.lft.to/lastmile_qr_scan", "android": "https://dc.lft.to/lastmile_qr_scan"}, "lon": -76.97991, "bike_id": "2cfd862324dfc20f678e061f779a9280", "type": "electric_scooter", "name": "2cfd862324dfc20f678e061f779a9280"}, {"is_disabled": 0, "is_reserved": 0, "fusion_lat": 0.0, "lat": 38.89670733333333, "fusion_lon": 0.0, "rental_uris": {"ios": "https://dc.lft.to/lastmile_qr_scan", "android": "https://dc.lft.to/lastmile_qr_scan"}, "lon": -76.93207933333333, "bike_id": "f899e7ce6eb7b153aacc25b9b292d01d", "type": "electric_scooter", "name": "f899e7ce6eb7b153aacc25b9b292d01d"}, {"is_disabled": 0, "is_reserved": 0, "fusion_lat": 0.0, "lat": 38.916186, "fusion_lon": 0.0, "rental_uris": {"ios": "https://dc.lft.to/lastmile_qr_scan", "android": "https://dc.lft.to/lastmile_qr_scan"}, "lon": -77.03228333333334, "bike_id": "2269ea4f0e95da1497a10c1a128f7ccd", "type": "electric_scooter", "name": "2269ea4f0e95da1497a10c1a128f7ccd"}, {"is_disabled": 0, "is_reserved": 0, "fusion_lat": 0.0, "lat": 38.94306266666667, "fusion_lon": 0.0, "rental_uris": {"ios": "https://dc.lft.to/lastmile_qr_scan", "android": "https://dc.lft.to/lastmile_qr_scan"}, "lon": -77.02528733333334, "bike_id": "9dccf54bfcd0c33dc853bee4e25499be", "type": "electric_scooter", "name": "9dccf54bfcd0c33dc853bee4e25499be"}, {"is_disabled": 0, "is_reserved": 0, "fusion_lat": 0.0, "lat": 38.90424383333333, "fusion_lon": 0.0, "rental_uris": {"ios": "https://dc.lft.to/lastmile_qr_scan", "android": "https://dc.lft.to/lastmile_qr_scan"}, "lon": -77.02386483333333, "bike_id": "da70dbcd76c9bfb12dec7b25d752a5d0", "type": "electric_scooter", "name": "da70dbcd76c9bfb12dec7b25d752a5d0"}, {"is_disabled": 0, "is_reserved": 0, "fusion_lat": 0.0, "lat": 38.9233865, "fusion_lon": 0.0, "rental_uris": {"ios": "https://dc.lft.to/lastmile_qr_scan", "android": "https://dc.lft.to/lastmile_qr_scan"}, "lon": -76.98488816666666, "bike_id": "9af038d7b6fae8d0abffdd24c7ae9426", "type": "electric_scooter", "name": "9af038d7b6fae8d0abffdd24c7ae9426"}, {"is_disabled": 0, "is_reserved": 0, "fusion_lat": 0.0, "lat": 38.868096666666666, "fusion_lon": 0.0, "rental_uris": {"ios": "https://dc.lft.to/lastmile_qr_scan", "android": "https://dc.lft.to/lastmile_qr_scan"}, "lon": -76.980225, "bike_id": "81de668e9554174f1309058556cc7572", "type": "electric_bike", "name": "81de668e9554174f1309058556cc7572"}, {"is_disabled": 0, "is_reserved": 0, "fusion_lat": 0.0, "lat": 38.931438, "fusion_lon": 0.0, "rental_uris": {"ios": "https://dc.lft.to/lastmile_qr_scan", "android": "https://dc.lft.to/lastmile_qr_scan"}, "lon": -77.02986, "bike_id": "9299f51a12b15b93a4591adf85a2c33e", "type": "electric_scooter", "name": "9299f51a12b15b93a4591adf85a2c33e"}, {"is_disabled": 0, "is_reserved": 0, "fusion_lat": 0.0, "lat": 38.892204, "fusion_lon": 0.0, "rental_uris": {"ios": "https://dc.lft.to/lastmile_qr_scan", "android": "https://dc.lft.to/lastmile_qr_scan"}, "lon": -77.046399, "bike_id": "dd6e84f60a915c7904cb6ab9eded9801", "type": "electric_scooter", "name": "dd6e84f60a915c7904cb6ab9eded9801"}, {"is_disabled": 0, "is_reserved": 0, "fusion_lat": 0.0, "lat": 38.916670333333336, "fusion_lon": 0.0, "rental_uris": {"ios": "https://dc.lft.to/lastmile_qr_scan", "android": "https://dc.lft.to/lastmile_qr_scan"}, "lon": -77.02689483333333, "bike_id": "ffb52511b1b839cd252479a22fab5068", "type": "electric_scooter", "name": "ffb52511b1b839cd252479a22fab5068"}, {"is_disabled": 0, "is_reserved": 0, "fusion_lat": 0.0, "lat": 38.8736925, "fusion_lon": 0.0, "rental_uris": {"ios": "https://dc.lft.to/lastmile_qr_scan", "android": "https://dc.lft.to/lastmile_qr_scan"}, "lon": -77.00927766666666, "bike_id": "f75c9887b9542bce0ed461fb0d3f7e8f", "type": "electric_scooter", "name": "f75c9887b9542bce0ed461fb0d3f7e8f"}, {"is_disabled": 0, "is_reserved": 0, "fusion_lat": 0.0, "lat": 38.916558333333334, "fusion_lon": 0.0, "rental_uris": {"ios": "https://dc.lft.to/lastmile_qr_scan", "android": "https://dc.lft.to/lastmile_qr_scan"}, "lon": -77.01028333333333, "bike_id": "04a3748e0f149b26d00b6b105e8a0aa3", "type": "electric_scooter", "name": "04a3748e0f149b26d00b6b105e8a0aa3"}, {"is_disabled": 0, "is_reserved": 0, "fusion_lat": 0.0, "lat": 38.89823116666667, "fusion_lon": 0.0, "rental_uris": {"ios": "https://dc.lft.to/lastmile_qr_scan", "android": "https://dc.lft.to/lastmile_qr_scan"}, "lon": -76.93003516666667, "bike_id": "23e853000b366e9a104646df30482b21", "type": "electric_scooter", "name": "23e853000b366e9a104646df30482b21"}, {"is_disabled": 0, "is_reserved": 0, "fusion_lat": 0.0, "lat": 38.90668816666667, "fusion_lon": 0.0, "rental_uris": {"ios": "https://dc.lft.to/lastmile_qr_scan", "android": "https://dc.lft.to/lastmile_qr_scan"}, "lon": -77.07147183333333, "bike_id": "c82480a3495e18e71f23f8531250f774", "type": "electric_scooter", "name": "c82480a3495e18e71f23f8531250f774"}, {"is_disabled": 0, "is_reserved": 0, "fusion_lat": 0.0, "lat": 38.920083, "fusion_lon": 0.0, "rental_uris": {"ios": "https://dc.lft.to/lastmile_qr_scan", "android": "https://dc.lft.to/lastmile_qr_scan"}, "lon": -77.04173066666667, "bike_id": "7f573c681bda290b4b9161db5623c0c3", "type": "electric_scooter", "name": "7f573c681bda290b4b9161db5623c0c3"}, {"is_disabled": 0, "is_reserved": 0, "fusion_lat": 0.0, "lat": 38.8977945, "fusion_lon": 0.0, "rental_uris": {"ios": "https://dc.lft.to/lastmile_qr_scan", "android": "https://dc.lft.to/lastmile_qr_scan"}, "lon": -77.04792183333333, "bike_id": "d223cd4cd1cc89a178ec81b8309c43b1", "type": "electric_scooter", "name": "d223cd4cd1cc89a178ec81b8309c43b1"}, {"is_disabled": 0, "is_reserved": 0, "fusion_lat": 0.0, "lat": 38.926677166666664, "fusion_lon": 0.0, "rental_uris": {"ios": "https://dc.lft.to/lastmile_qr_scan", "android": "https://dc.lft.to/lastmile_qr_scan"}, "lon": -76.99553366666666, "bike_id": "079d24bd43ed7cb81df6752ba8c3c6a5", "type": "electric_scooter", "name": "079d24bd43ed7cb81df6752ba8c3c6a5"}, {"is_disabled": 0, "is_reserved": 0, "fusion_lat": 0.0, "lat": 38.90182516666667, "fusion_lon": 0.0, "rental_uris": {"ios": "https://dc.lft.to/lastmile_qr_scan", "android": "https://dc.lft.to/lastmile_qr_scan"}, "lon": -76.999588, "bike_id": "7aba3066b9a84b75013c74813d85f945", "type": "electric_scooter", "name": "7aba3066b9a84b75013c74813d85f945"}, {"is_disabled": 0, "is_reserved": 0, "fusion_lat": 0.0, "lat": 38.809788166666664, "fusion_lon": 0.0, "rental_uris": {"ios": "https://dc.lft.to/lastmile_qr_scan", "android": "https://dc.lft.to/lastmile_qr_scan"}, "lon": -77.07656666666666, "bike_id": "8cb7b894f496e2833ab3bcd2e07b8c72", "type": "electric_bike", "name": "8cb7b894f496e2833ab3bcd2e07b8c72"}, {"is_disabled": 0, "is_reserved": 0, "fusion_lat": 0.0, "lat": 38.89635166666667, "fusion_lon": 0.0, "rental_uris": {"ios": "https://dc.lft.to/lastmile_qr_scan", "android": "https://dc.lft.to/lastmile_qr_scan"}, "lon": -77.02856466666667, "bike_id": "6f7586d6d93fa58bfe0f78a965f206f9", "type": "electric_scooter", "name": "6f7586d6d93fa58bfe0f78a965f206f9"}, {"is_disabled": 0, "is_reserved": 0, "fusion_lat": 0.0, "lat": 38.92758933333333, "fusion_lon": 0.0, "rental_uris": {"ios": "https://dc.lft.to/lastmile_qr_scan", "android": "https://dc.lft.to/lastmile_qr_scan"}, "lon": -77.07051466666667, "bike_id": "76356b4a629a479463048a7083028cee", "type": "electric_scooter", "name": "76356b4a629a479463048a7083028cee"}, {"is_disabled": 0, "is_reserved": 0, "fusion_lat": 0.0, "lat": 38.91413583333333, "fusion_lon": 0.0, "rental_uris": {"ios": "https://dc.lft.to/lastmile_qr_scan", "android": "https://dc.lft.to/lastmile_qr_scan"}, "lon": -77.03170416666667, "bike_id": "1a2538ff80f8d4a311130cc6106e767f", "type": "electric_scooter", "name": "1a2538ff80f8d4a311130cc6106e767f"}, {"is_disabled": 0, "is_reserved": 0, "fusion_lat": 0.0, "lat": 38.924179333333335, "fusion_lon": 0.0, "rental_uris": {"ios": "https://dc.lft.to/lastmile_qr_scan", "android": "https://dc.lft.to/lastmile_qr_scan"}, "lon": -77.0203545, "bike_id": "5c12bfaf1fa7372f47de699626bbdeef", "type": "electric_scooter", "name": "5c12bfaf1fa7372f47de699626bbdeef"}, {"is_disabled": 0, "is_reserved": 0, "fusion_lat": 0.0, "lat": 38.942164, "fusion_lon": 0.0, "rental_uris": {"ios": "https://dc.lft.to/lastmile_qr_scan", "android": "https://dc.lft.to/lastmile_qr_scan"}, "lon": -76.96129583333334, "bike_id": "0b6dee6ae3340e13af1669cfa6836d70", "type": "electric_bike", "name": "0b6dee6ae3340e13af1669cfa6836d70"}, {"is_disabled": 0, "is_reserved": 0, "fusion_lat": 0.0, "lat": 38.84270383333333, "fusion_lon": 0.0, "rental_uris": {"ios": "https://dc.lft.to/lastmile_qr_scan", "android": "https://dc.lft.to/lastmile_qr_scan"}, "lon": -76.98846033333334, "bike_id": "7a900b20100cefb5d372e70aa7e95a6a", "type": "electric_scooter", "name": "7a900b20100cefb5d372e70aa7e95a6a"}, {"is_disabled": 0, "is_reserved": 0, "fusion_lat": 0.0, "lat": 38.922837, "fusion_lon": 0.0, "rental_uris": {"ios": "https://dc.lft.to/lastmile_qr_scan", "android": "https://dc.lft.to/lastmile_qr_scan"}, "lon": -77.02966183333334, "bike_id": "0cfeda82c13fcc2efc6c312ada5f6998", "type": "electric_scooter", "name": "0cfeda82c13fcc2efc6c312ada5f6998"}, {"is_disabled": 0, "is_reserved": 0, "fusion_lat": 0.0, "lat": 38.95646216666667, "fusion_lon": 0.0, "rental_uris": {"ios": "https://dc.lft.to/lastmile_qr_scan", "android": "https://dc.lft.to/lastmile_qr_scan"}, "lon": -77.0281855, "bike_id": "ba632d06ef75889703c5eb1391d059ac", "type": "electric_scooter", "name": "ba632d06ef75889703c5eb1391d059ac"}, {"is_disabled": 0, "is_reserved": 0, "fusion_lat": 0.0, "lat": 38.90312983333333, "fusion_lon": 0.0, "rental_uris": {"ios": "https://dc.lft.to/lastmile_qr_scan", "android": "https://dc.lft.to/lastmile_qr_scan"}, "lon": -76.9780295, "bike_id": "82a184c99e188aee59318feb10403605", "type": "electric_scooter", "name": "82a184c99e188aee59318feb10403605"}, {"is_disabled": 0, "is_reserved": 0, "fusion_lat": 0.0, "lat": 38.883963666666666, "fusion_lon": 0.0, "rental_uris": {"ios": "https://dc.lft.to/lastmile_qr_scan", "android": "https://dc.lft.to/lastmile_qr_scan"}, "lon": -76.995111, "bike_id": "42daac50464a1fce4d09fae1040770f0", "type": "electric_scooter", "name": "42daac50464a1fce4d09fae1040770f0"}, {"is_disabled": 0, "is_reserved": 0, "fusion_lat": 0.0, "lat": 38.87668933333333, "fusion_lon": 0.0, "rental_uris": {"ios": "https://dc.lft.to/lastmile_qr_scan", "android": "https://dc.lft.to/lastmile_qr_scan"}, "lon": -77.00827916666667, "bike_id": "7ec2efb727a26a29143b0e04276e7524", "type": "electric_scooter", "name": "7ec2efb727a26a29143b0e04276e7524"}, {"is_disabled": 0, "is_reserved": 0, "fusion_lat": 0.0, "lat": 38.900553, "fusion_lon": 0.0, "rental_uris": {"ios": "https://dc.lft.to/lastmile_qr_scan", "android": "https://dc.lft.to/lastmile_qr_scan"}, "lon": -76.99337616666666, "bike_id": "4f5a15005b1f3fce834f581be0f64973", "type": "electric_scooter", "name": "4f5a15005b1f3fce834f581be0f64973"}, {"is_disabled": 0, "is_reserved": 0, "fusion_lat": 0.0, "lat": 38.89847366666667, "fusion_lon": 0.0, "rental_uris": {"ios": "https://dc.lft.to/lastmile_qr_scan", "android": "https://dc.lft.to/lastmile_qr_scan"}, "lon": -77.0227865, "bike_id": "a3dd383fb1ed55404147d5e81e15faae", "type": "electric_scooter", "name": "a3dd383fb1ed55404147d5e81e15faae"}, {"is_disabled": 0, "is_reserved": 0, "fusion_lat": 0.0, "lat": 38.9125615, "fusion_lon": 0.0, "rental_uris": {"ios": "https://dc.lft.to/lastmile_qr_scan", "android": "https://dc.lft.to/lastmile_qr_scan"}, "lon": -76.98352466666667, "bike_id": "5797f8463324fc043122d613ce716d53", "type": "electric_scooter", "name": "5797f8463324fc043122d613ce716d53"}, {"is_disabled": 0, "is_reserved": 0, "fusion_lat": 0.0, "lat": 38.917034, "fusion_lon": 0.0, "rental_uris": {"ios": "https://dc.lft.to/lastmile_qr_scan", "android": "https://dc.lft.to/lastmile_qr_scan"}, "lon": -77.024067, "bike_id": "836a86fcde8b2c5395355f239d7b0ad8", "type": "electric_scooter", "name": "836a86fcde8b2c5395355f239d7b0ad8"}, {"is_disabled": 0, "is_reserved": 0, "fusion_lat": 0.0, "lat": 38.846752333333335, "fusion_lon": 0.0, "rental_uris": {"ios": "https://dc.lft.to/lastmile_qr_scan", "android": "https://dc.lft.to/lastmile_qr_scan"}, "lon": -77.1393595, "bike_id": "83778ff9099540d3040e47319e084bda", "type": "electric_bike", "name": "83778ff9099540d3040e47319e084bda"}, {"is_disabled": 0, "is_reserved": 0, "fusion_lat": 0.0, "lat": 38.87613316666667, "fusion_lon": 0.0, "rental_uris": {"ios": "https://dc.lft.to/lastmile_qr_scan", "android": "https://dc.lft.to/lastmile_qr_scan"},