{"data": {"bikes": [{"rental_uris": {"android": "https://dc.lft.to/lastmile_qr_scan", "ios": "https://dc.lft.to/lastmile_qr_scan"}, "lon": -77.00348883333334, "name": "b3c0325a72478cc476a927d9a89ef045", "lat": 38.899282166666666, "is_reserved": 0, "fusion_lat": 0.0, "bike_id": "b3c0325a72478cc476a927d9a89ef045", "type": "electric_scooter", "is_disabled": 0, "fusion_lon": 0.0}, {"rental_uris": {"android": "https://dc.lft.to/lastmile_qr_scan", "ios": "https://dc.lft.to/lastmile_qr_scan"}, "lon": -77.03652183333334, "name": "f3309d57ca4ef7c5c1a3383105df1305", "lat": 38.929810833333335, "is_reserved": 0, "fusion_lat": 0.0, "bike_id": "f3309d57ca4ef7c5c1a3383105df1305", "type": "electric_scooter", "is_disabled": 0, "fusion_lon": 0.0}, {"rental_uris": {"android": "https://dc.lft.to/lastmile_qr_scan", "ios": "https://dc.lft.to/lastmile_qr_scan"}, "lon": -77.04383133333333, "name": "9dc3d6b1d624e6e6247496748bf7c3d7", "lat": 38.923604833333336, "is_reserved": 0, "fusion_lat": 0.0, "bike_id": "9dc3d6b1d624e6e6247496748bf7c3d7", "type": "electric_scooter", "is_disabled": 0, "fusion_lon": 0.0}, {"rental_uris": {"android": "https://dc.lft.to/lastmile_qr_scan", "ios": "https://dc.lft.to/lastmile_qr_scan"}, "lon": -76.9861075, "name": "d2b36c7e8a1de1d9acfc55f4aeb3aae5", "lat": 38.882848, "is_reserved": 0, "fusion_lat": 0.0, "bike_id": "d2b36c7e8a1de1d9acfc55f4aeb3aae5", "type": "electric_scooter", "is_disabled": 0, "fusion_lon": 0.0}, {"rental_uris": {"android": "https://dc.lft.to/lastmile_qr_scan", "ios": "https://dc.lft.to/lastmile_qr_scan"}, "lon": -76.98565816666667, "name": "56f96349c983295fee4f364a5f0dda9a", "lat": 38.866831, "is_reserved": 0, "fusion_lat": 0.0, "bike_id": "56f96349c983295fee4f364a5f0dda9a", "type": "electric_scooter", "is_disabled": 0, "fusion_lon": 0.0}, {"rental_uris": {"android": "https://dc.lft.to/lastmile_qr_scan", "ios": "https://dc.lft.to/lastmile_qr_scan"}, "lon": -77.0266665, "name": "66b9870c612b732e2cfcd728f426386f", "lat": 38.92481566666667, "is_reserved": 0, "fusion_lat": 0.0, "bike_id": "66b9870c612b732e2cfcd728f426386f", "type": "electric_scooter", "is_disabled": 0, "fusion_lon": 0.0}, {"rental_uris": {"android": "https://dc.lft.to/lastmile_qr_scan", "ios": "https://dc.lft.to/lastmile_qr_scan"}, "lon": -77.04042966666667, "name": "11094b4fe4b39f92c178e2b4ac997354", "lat": 38.9179365, "is_reserved": 0, "fusion_lat": 0.0, "bike_id": "11094b4fe4b39f92c178e2b4ac997354", "type": "electric_scooter", "is_disabled": 0, "fusion_lon": 0.0}, {"rental_uris": {"android": "https://dc.lft.to/lastmile_qr_scan", "ios": "https://dc.lft.to/lastmile_qr_scan"}, "lon": -77.02210516666666, "name": "d93a97b63109f61495bf7b6da44c56b3", "lat": 38.89533, "is_reserved": 0, "fusion_lat": 0.0, "bike_id": "d93a97b63109f61495bf7b6da44c56b3", "type": "electric_scooter", "is_disabled": 0, "fusion_lon": 0.0}, {"rental_uris": {"android": "https://dc.lft.to/lastmile_qr_scan", "ios": "https://dc.lft.to/lastmile_qr_scan"}, "lon": -76.94639666666667, "name": "24f5280f493e7f28adea14601c77b6b9", "lat": 38.89860733333333, "is_reserved": 0, "fusion_lat": 0.0, "bike_id": "24f5280f493e7f28adea14601c77b6b9", "type": "electric_scooter", "is_disabled": 0, "fusion_lon": 0.0}, {"rental_uris": {"android": "https://dc.lft.to/lastmile_qr_scan", "ios": "https://dc.lft.to/lastmile_qr_scan"}, "lon": -77.01350666666667, "name": "bdaa68783bf57ac136539ef3ad88a12f", "lat": 38.900809833333334, "is_reserved": 0, "fusion_lat": 0.0, "bike_id": "bdaa68783bf57ac136539ef3ad88a12f", "type": "electric_bike", "is_disabled": 0, "fusion_lon": 0.0}, {"rental_uris": {"android": "https://dc.lft.to/lastmile_qr_scan", "ios": "https://dc.lft.to/lastmile_qr_scan"}, "lon": -76.97544983333333, "name": "337e2b29fdd32af22ee7f0729fd01e69", "lat": 38.9032355, "is_reserved": 0, "fusion_lat": 0.0, "bike_id": "337e2b29fdd32af22ee7f0729fd01e69", "type": "electric_scooter", "is_disabled": 0, "fusion_lon": 0.0}, {"rental_uris": {"android": "https://dc.lft.to/lastmile_qr_scan", "ios": "https://dc.lft.to/lastmile_qr_scan"}, "lon": -76.94960683333333, "name": "337dfe3e71b534c8c26f9ac30bee9bb5", "lat": 38.8946585, "is_reserved": 0, "fusion_lat": 0.0, "bike_id": "337dfe3e71b534c8c26f9ac30bee9bb5", "type": "electric_scooter", "is_disabled": 0, "fusion_lon": 0.0}, {"rental_uris": {"android": "https://dc.lft.to/lastmile_qr_scan", "ios": "https://dc.lft.to/lastmile_qr_scan"}, "lon": -77.0365875, "name": "c6820b45d4432620d9bf7343957b2298", "lat": 38.93168716666667, "is_reserved": 0, "fusion_lat": 0.0, "bike_id": "c6820b45d4432620d9bf7343957b2298", "type": "electric_scooter", "is_disabled": 0, "fusion_lon": 0.0}, {"rental_uris": {"android": "https://dc.lft.to/lastmile_qr_scan", "ios": "https://dc.lft.to/lastmile_qr_scan"}, "lon": -76.99814316666667, "name": "85028bd31ffdb161ba7cf520e6ab264b", "lat": 38.819934, "is_reserved": 0, "fusion_lat": 0.0, "bike_id": "85028bd31ffdb161ba7cf520e6ab264b", "type": "electric_bike", "is_disabled": 0, "fusion_lon": 0.0}, {"rental_uris": {"android": "https://dc.lft.to/lastmile_qr_scan", "ios": "https://dc.lft.to/lastmile_qr_scan"}, "lon": -77.0379945, "name": "292e4897d88800c96553fba282c07e63", "lat": 38.92504483333333, "is_reserved": 0, "fusion_lat": 0.0, "bike_id": "292e4897d88800c96553fba282c07e63", "type": "electric_scooter", "is_disabled": 0, "fusion_lon": 0.0}, {"rental_uris": {"android": "https://dc.lft.to/lastmile_qr_scan", "ios": "https://dc.lft.to/lastmile_qr_scan"}, "lon": -76.98721683333333, "name": "0d278a5bc56468416cf139d77fb65894", "lat": 38.866247666666666, "is_reserved": 0, "fusion_lat": 0.0, "bike_id": "0d278a5bc56468416cf139d77fb65894", "type": "electric_scooter", "is_disabled": 0, "fusion_lon": 0.0}, {"rental_uris": {"android": "https://dc.lft.to/lastmile_qr_scan", "ios": "https://dc.lft.to/lastmile_qr_scan"}, "lon": -77.00000416666667, "name": "d57e6900e15a77e692c7a1f6157c9cdc", "lat": 38.83333016666667, "is_reserved": 0, "fusion_lat": 0.0, "bike_id": "d57e6900e15a77e692c7a1f6157c9cdc", "type": "electric_bike", "is_disabled": 0, "fusion_lon": 0.0}, {"rental_uris": {"android": "https://dc.lft.to/lastmile_qr_scan", "ios": "https://dc.lft.to/lastmile_qr_scan"}, "lon": -77.002116, "name": "041242069d74a36cb6f137852890f7aa", "lat": 38.902453666666666, "is_reserved": 0, "fusion_lat": 0.0, "bike_id": "041242069d74a36cb6f137852890f7aa", "type": "electric_scooter", "is_disabled": 0, "fusion_lon": 0.0}, {"rental_uris": {"android": "https://dc.lft.to/lastmile_qr_scan", "ios": "https://dc.lft.to/lastmile_qr_scan"}, "lon": -77.02030333333333, "name": "5021b93380a779cfb563079ef65a6b2d", "lat": 38.913097, "is_reserved": 0, "fusion_lat": 0.0, "bike_id": "5021b93380a779cfb563079ef65a6b2d", "type": "electric_scooter", "is_disabled": 0, "fusion_lon": 0.0}, {"rental_uris": {"android": "https://dc.lft.to/lastmile_qr_scan", "ios": "https://dc.lft.to/lastmile_qr_scan"}, "lon": -77.039964, "name": "1f94c3b772d076877131d4a21fe52018", "lat": 38.934322333333334, "is_reserved": 0, "fusion_lat": 0.0, "bike_id": "1f94c3b772d076877131d4a21fe52018", "type": "electric_scooter", "is_disabled": 0, "fusion_lon": 0.0}, {"rental_uris": {"android": "https://dc.lft.to/lastmile_qr_scan", "ios": "https://dc.lft.to/lastmile_qr_scan"}, "lon": -77.184361, "name": "3253af5253477ae1b4740b6088ca20bb", "lat": 38.8907205, "is_reserved": 0, "fusion_lat": 0.0, "bike_id": "3253af5253477ae1b4740b6088ca20bb", "type": "electric_bike", "is_disabled": 0, "fusion_lon": 0.0}, {"rental_uris": {"android": "https://dc.lft.to/lastmile_qr_scan", "ios": "https://dc.lft.to/lastmile_qr_scan"}, "lon": -76.97457216666666, "name": "f5353c8db70ed7b472f01494d8928a00", "lat": 38.86416116666667, "is_reserved": 0, "fusion_lat": 0.0, "bike_id": "f5353c8db70ed7b472f01494d8928a00", "type": "electric_scooter", "is_disabled": 0, "fusion_lon": 0.0}, {"rental_uris": {"android": "https://dc.lft.to/lastmile_qr_scan", "ios": "https://dc.lft.to/lastmile_qr_scan"}, "lon": -77.02153016666666, "name": "70c9aadcbdcddbc7208c3031af7b016f", "lat": 38.924663, "is_reserved": 0, "fusion_lat": 0.0, "bike_id": "70c9aadcbdcddbc7208c3031af7b016f", "type": "electric_scooter", "is_disabled": 0, "fusion_lon": 0.0}, {"rental_uris": {"android": "https://dc.lft.to/lastmile_qr_scan", "ios": "https://dc.lft.to/lastmile_qr_scan"}, "lon": -77.02897316666666, "name": "aa801db6adeff601cd87a281bd79ad4e", "lat": 38.89835133333333, "is_reserved": 0, "fusion_lat": 0.0, "bike_id": "aa801db6adeff601cd87a281bd79ad4e", "type": "electric_scooter", "is_disabled": 0, "fusion_lon": 0.0}, {"rental_uris": {"android": "https://dc.lft.to/lastmile_qr_scan", "ios": "https://dc.lft.to/lastmile_qr_scan"}, "lon": -77.039318, "name": "99a47f5c8aeda4b3ae673a116853cfdc", "lat": 38.91260716666667, "is_reserved": 0, "fusion_lat": 0.0, "bike_id": "99a47f5c8aeda4b3ae673a116853cfdc", "type": "electric_scooter", "is_disabled": 0, "fusion_lon": 0.0}, {"rental_uris": {"android": "https://dc.lft.to/lastmile_qr_scan", "ios": "https://dc.lft.to/lastmile_qr_scan"}, "lon": -77.046214, "name": "12ab0f85a17e27f48ed918cbddb29eeb", "lat": 38.90670183333334, "is_reserved": 0, "fusion_lat": 0.0, "bike_id": "12ab0f85a17e27f48ed918cbddb29eeb", "type": "electric_scooter", "is_disabled": 0, "fusion_lon": 0.0}, {"rental_uris": {"android": "https://dc.lft.to/lastmile_qr_scan", "ios": "https://dc.lft.to/lastmile_qr_scan"}, "lon": -77.02409183333333, "name": "711a9435384cf17d1cab5e4836306cf5", "lat": 38.93517533333333, "is_reserved": 0, "fusion_lat": 0.0, "bike_id": "711a9435384cf17d1cab5e4836306cf5", "type": "electric_scooter", "is_disabled": 0, "fusion_lon": 0.0}, {"rental_uris": {"android": "https://dc.lft.to/lastmile_qr_scan", "ios": "https://dc.lft.to/lastmile_qr_scan"}, "lon": -76.98000466666667, "name": "b48c11aab2f0d0961b1d2dde6ba7648b", "lat": 38.906817333333336, "is_reserved": 0, "fusion_lat": 0.0, "bike_id": "b48c11aab2f0d0961b1d2dde6ba7648b", "type": "electric_scooter", "is_disabled": 0, "fusion_lon": 0.0}, {"rental_uris": {"android": "https://dc.lft.to/lastmile_qr_scan", "ios": "https://dc.lft.to/lastmile_qr_scan"}, "lon": -77.00197466666667, "name": "905708a9adf349fa2c41581064779fab", "lat": 38.966154, "is_reserved": 0, "fusion_lat": 0.0, "bike_id": "905708a9adf349fa2c41581064779fab", "type": "electric_scooter", "is_disabled": 0, "fusion_lon": 0.0}, {"rental_uris": {"android": "https://dc.lft.to/lastmile_qr_scan", "ios": "https://dc.lft.to/lastmile_qr_scan"}, "lon": -76.98377566666667, "name": "49c01082172a9fda147a9d07bac673b7", "lat": 38.914997666666665, "is_reserved": 0, "fusion_lat": 0.0, "bike_id": "49c01082172a9fda147a9d07bac673b7", "type": "electric_scooter", "is_disabled": 0, "fusion_lon": 0.0}, {"rental_uris": {"android": "https://dc.lft.to/lastmile_qr_scan", "ios": "https://dc.lft.to/lastmile_qr_scan"}, "lon": -77.01748833333333, "name": "b899fce9e8b13e22c48f6dcf7028528e", "lat": 38.883041166666665, "is_reserved": 0, "fusion_lat": 0.0, "bike_id": "b899fce9e8b13e22c48f6dcf7028528e", "type": "electric_scooter", "is_disabled": 0, "fusion_lon": 0.0}, {"rental_uris": {"android": "https://dc.lft.to/lastmile_qr_scan", "ios": "https://dc.lft.to/lastmile_qr_scan"}, "lon": -77.0200295, "name": "62a795b98d755a165d30a9aaf3cdb977", "lat": 38.892513, "is_reserved": 0, "fusion_lat": 0.0, "bike_id": "62a795b98d755a165d30a9aaf3cdb977", "type": "electric_scooter", "is_disabled": 0, "fusion_lon": 0.0}, {"rental_uris": {"android": "https://dc.lft.to/lastmile_qr_scan", "ios": "https://dc.lft.to/lastmile_qr_scan"}, "lon": -77.01735116666667, "name": "e2e491176186c10db728d70d612f2faa", "lat": 38.939948333333334, "is_reserved": 0, "fusion_lat": 0.0, "bike_id": "e2e491176186c10db728d70d612f2faa", "type": "electric_scooter", "is_disabled": 0, "fusion_lon": 0.0}, {"rental_uris": {"android": "https://dc.lft.to/lastmile_qr_scan", "ios": "https://dc.lft.to/lastmile_qr_scan"}, "lon": -77.02241533333333, "name": "e8f7bd197268ab8e61e1902a334fdc7c", "lat": 38.92216233333333, "is_reserved": 0, "fusion_lat": 0.0, "bike_id": "e8f7bd197268ab8e61e1902a334fdc7c", "type": "electric_scooter", "is_disabled": 0, "fusion_lon": 0.0}, {"rental_uris": {"android": "https://dc.lft.to/lastmile_qr_scan", "ios": "https://dc.lft.to/lastmile_qr_scan"}, "lon": -76.99031083333334, "name": "e45e0d9ba03ff9c481245981d05359f7", "lat": 38.898559, "is_reserved": 0, "fusion_lat": 0.0, "bike_id": "e45e0d9ba03ff9c481245981d05359f7", "type": "electric_scooter", "is_disabled": 0, "fusion_lon": 0.0}, {"rental_uris": {"android": "https://dc.lft.to/lastmile_qr_scan", "ios": "https://dc.lft.to/lastmile_qr_scan"}, "lon": -77.04419816666666, "name": "deec7c63db1e21c169c584ea04cd2615", "lat": 38.89406066666667, "is_reserved": 0, "fusion_lat": 0.0, "bike_id": "deec7c63db1e21c169c584ea04cd2615", "type": "electric_scooter", "is_disabled": 0, "fusion_lon": 0.0}, {"rental_uris": {"android": "https://dc.lft.to/lastmile_qr_scan", "ios": "https://dc.lft.to/lastmile_qr_scan"}, "lon": -77.014173, "name": "6197a2311e3d278df8a36b36bd80de5c", "lat": 38.91405916666667, "is_reserved": 0, "fusion_lat": 0.0, "bike_id": "6197a2311e3d278df8a36b36bd80de5c", "type": "electric_scooter", "is_disabled": 0, "fusion_lon": 0.0}, {"rental_uris": {"android": "https://dc.lft.to/lastmile_qr_scan", "ios": "https://dc.lft.to/lastmile_qr_scan"}, "lon": -77.03214883333334, "name": "1bfaae3468bf266448e1d6db35e346d8", "lat": 38.93618983333333, "is_reserved": 0, "fusion_lat": 0.0, "bike_id": "1bfaae3468bf266448e1d6db35e346d8", "type": "electric_scooter", "is_disabled": 0, "fusion_lon": 0.0}, {"rental_uris": {"android": "https://dc.lft.to/lastmile_qr_scan", "ios": "https://dc.lft.to/lastmile_qr_scan"}, "lon": -77.0251735, "name": "0af9eba2d87d7e1e3a1f5a771213807b", "lat": 38.921394666666664, "is_reserved": 0, "fusion_lat": 0.0, "bike_id": "0af9eba2d87d7e1e3a1f5a771213807b", "type": "electric_scooter", "is_disabled": 0, "fusion_lon": 0.0}, {"rental_uris": {"android": "https://dc.lft.to/lastmile_qr_scan", "ios": "https://dc.lft.to/lastmile_qr_scan"}, "lon": -76.956665, "name": "2fd76dd5cfe3d387500c53d48a930828", "lat": 38.88495483333333, "is_reserved": 0, "fusion_lat": 0.0, "bike_id": "2fd76dd5cfe3d387500c53d48a930828", "type": "electric_bike", "is_disabled": 0, "fusion_lon": 0.0}, {"rental_uris": {"android": "https://dc.lft.to/lastmile_qr_scan", "ios": "https://dc.lft.to/lastmile_qr_scan"}, "lon": -77.00764716666667, "name": "5d09872a4e9171f283ad526f1a3a355b", "lat": 38.926952666666665, "is_reserved": 0, "fusion_lat": 0.0, "bike_id": "5d09872a4e9171f283ad526f1a3a355b", "type": "electric_scooter", "is_disabled": 0, "fusion_lon": 0.0}, {"rental_uris": {"android": "https://dc.lft.to/lastmile_qr_scan", "ios": "https://dc.lft.to/lastmile_qr_scan"}, "lon": -76.9453625, "name": "71595da01187188af6a85b6929326565", "lat": 38.867584666666666, "is_reserved": 0, "fusion_lat": 0.0, "bike_id": "71595da01187188af6a85b6929326565", "type": "electric_bike", "is_disabled": 0, "fusion_lon": 0.0}, {"rental_uris": {"android": "https://dc.lft.to/lastmile_qr_scan", "ios": "https://dc.lft.to/lastmile_qr_scan"}, "lon": -77.02082166666666, "name": "fb07a15d97b4db897c2610c0f7bea7ce", "lat": 38.93018083333333, "is_reserved": 0, "fusion_lat": 0.0, "bike_id": "fb07a15d97b4db897c2610c0f7bea7ce", "type": "electric_scooter", "is_disabled": 0, "fusion_lon": 0.0}, {"rental_uris": {"android": "https://dc.lft.to/lastmile_qr_scan", "ios": "https://dc.lft.to/lastmile_qr_scan"}, "lon": -77.03639166666666, "name": "ff27ea2302b2269bfad001cf9c85744d", "lat": 38.92305433333333, "is_reserved": 0, "fusion_lat": 0.0, "bike_id": "ff27ea2302b2269bfad001cf9c85744d", "type": "electric_scooter", "is_disabled": 0, "fusion_lon": 0.0}, {"rental_uris": {"android": "https://dc.lft.to/lastmile_qr_scan", "ios": "https://dc.lft.to/lastmile_qr_scan"}, "lon": -77.02705966666667, "name": "30705f2ae0a91928fc2332ed05abfb4f", "lat": 38.90787366666667, "is_reserved": 0, "fusion_lat": 0.0, "bike_id": "30705f2ae0a91928fc2332ed05abfb4f", "type": "electric_scooter", "is_disabled": 0, "fusion_lon": 0.0}, {"rental_uris": {"android": "https://dc.lft.to/lastmile_qr_scan", "ios": "https://dc.lft.to/lastmile_qr_scan"}, "lon": -77.02211433333333, "name": "1438fdb65d1eed1dc2d7964b0cc14fdd", "lat": 38.903077333333336, "is_reserved": 0, "fusion_lat": 0.0, "bike_id": "1438fdb65d1eed1dc2d7964b0cc14fdd", "type": "electric_scooter", "is_disabled": 0, "fusion_lon": 0.0}, {"rental_uris": {"android": "https://dc.lft.to/lastmile_qr_scan", "ios": "https://dc.lft.to/lastmile_qr_scan"}, "lon": -76.95245033333333, "name": "412d7bb6fe6bd989b5f973b6a1d089d9", "lat": 38.890435, "is_reserved": 0, "fusion_lat": 0.0, "bike_id": "412d7bb6fe6bd989b5f973b6a1d089d9", "type": "electric_scooter", "is_disabled": 0, "fusion_lon": 0.0}, {"rental_uris": {"android": "https://dc.lft.to/lastmile_qr_scan", "ios": "https://dc.lft.to/lastmile_qr_scan"}, "lon": -76.92655666666667, "name": "aba03870ffa5cf8f1f9261637496160f", "lat": 38.901718333333335, "is_reserved": 0, "fusion_lat": 0.0, "bike_id": "aba03870ffa5cf8f1f9261637496160f", "type": "electric_scooter", "is_disabled": 0, "fusion_lon": 0.0}, {"rental_uris": {"android": "https://dc.lft.to/lastmile_qr_scan", "ios": "https://dc.lft.to/lastmile_qr_scan"}, "lon": -77.02392366666666, "name": "0734e29d5011609f0f0513d461bb2da9", "lat": 38.91963833333333, "is_reserved": 0, "fusion_lat": 0.0, "bike_id": "0734e29d5011609f0f0513d461bb2da9", "type": "electric_scooter", "is_disabled": 0, "fusion_lon": 0.0}, {"rental_uris": {"android": "https://dc.lft.to/lastmile_qr_scan", "ios": "https://dc.lft.to/lastmile_qr_scan"}, "lon": -77.03528616666667, "name": "4340f1bdabff1b5a9862ca7478d718e5", "lat": 38.92242683333333, "is_reserved": 0, "fusion_lat": 0.0, "bike_id": "4340f1bdabff1b5a9862ca7478d718e5", "type": "electric_scooter", "is_disabled": 0, "fusion_lon": 0.0}, {"rental_uris": {"android": "https://dc.lft.to/lastmile_qr_scan", "ios": "https://dc.lft.to/lastmile_qr_scan"}, "lon": -77.0363595, "name": "c00cc87c836ede3b608987e32db399c0", "lat": 38.914662, "is_reserved": 0, "fusion_lat": 0.0, "bike_id": "c00cc87c836ede3b608987e32db399c0", "type": "electric_scooter", "is_disabled": 0, "fusion_lon": 0.0}, {"rental_uris": {"android": "https://dc.lft.to/lastmile_qr_scan", "ios": "https://dc.lft.to/lastmile_qr_scan"}, "lon": -77.01359916666667, "name": "70b6341f9683aece17b3e410487ea636", "lat": 38.897839, "is_reserved": 0, "fusion_lat": 0.0, "bike_id": "70b6341f9683aece17b3e410487ea636", "type": "electric_scooter", "is_disabled": 0, "fusion_lon": 0.0}, {"rental_uris": {"android": "https://dc.lft.to/lastmile_qr_scan", "ios": "https://dc.lft.to/lastmile_qr_scan"}, "lon": -77.03177866666667, "name": "41e68893b55f5e0b4102db9a16f02634", "lat": 38.9072505, "is_reserved": 0, "fusion_lat": 0.0, "bike_id": "41e68893b55f5e0b4102db9a16f02634", "type": "electric_scooter", "is_disabled": 0, "fusion_lon": 0.0}, {"rental_uris": {"android": "https://dc.lft.to/lastmile_qr_scan", "ios": "https://dc.lft.to/lastmile_qr_scan"}, "lon": -77.02632483333333, "name": "514049fb412555022a6104287cf213c1", "lat": 38.9042775, "is_reserved": 0, "fusion_lat": 0.0, "bike_id": "514049fb412555022a6104287cf213c1", "type": "electric_scooter", "is_disabled": 0, "fusion_lon": 0.0}, {"rental_uris": {"android": "https://dc.lft.to/lastmile_qr_scan", "ios": "https://dc.lft.to/lastmile_qr_scan"}, "lon": -77.02733833333333, "name": "1b31ce3ed5a04b0ae30bfcbb74aa60f9", "lat": 38.928755333333335, "is_reserved": 0, "fusion_lat": 0.0, "bike_id": "1b31ce3ed5a04b0ae30bfcbb74aa60f9", "type": "electric_scooter", "is_disabled": 0, "fusion_lon": 0.0}, {"rental_uris": {"android": "https://dc.lft.to/lastmile_qr_scan", "ios": "https://dc.lft.to/lastmile_qr_scan"}, "lon": -77.03407033333333, "name": "d9c37a330a36a2eda43a8bfb4c6df820", "lat": 38.9244365, "is_reserved": 0, "fusion_lat": 0.0, "bike_id": "d9c37a330a36a2eda43a8bfb4c6df820", "type": "electric_scooter", "is_disabled": 0, "fusion_lon": 0.0}, {"rental_uris": {"android": "https://dc.lft.to/lastmile_qr_scan", "ios": "https://dc.lft.to/lastmile_qr_scan"}, "lon": -77.0252335, "name": "57554141e51b39d0cc38b702484b17d3", "lat": 38.937562666666665, "is_reserved": 0, "fusion_lat": 0.0, "bike_id": "57554141e51b39d0cc38b702484b17d3", "type": "electric_scooter", "is_disabled": 0, "fusion_lon": 0.0}, {"rental_uris": {"android": "https://dc.lft.to/lastmile_qr_scan", "ios": "https://dc.lft.to/lastmile_qr_scan"}, "lon": -76.988868, "name": "a663044af1cfc4e7dee40143745393ba", "lat": 38.8666175, "is_reserved": 0, "fusion_lat": 0.0, "bike_id": "a663044af1cfc4e7dee40143745393ba", "type": "electric_scooter", "is_disabled": 0, "fusion_lon": 0.0}, {"rental_uris": {"android": "https://dc.lft.to/lastmile_qr_scan", "ios": "https://dc.lft.to/lastmile_qr_scan"}, "lon": -77.01028166666667, "name": "7f1a583026fc7f3ebe17e824fb2cff48", "lat": 38.920314166666664, "is_reserved": 0, "fusion_lat": 0.0, "bike_id": "7f1a583026fc7f3ebe17e824fb2cff48", "type": "electric_scooter", "is_disabled": 0, "fusion_lon": 0.0}, {"rental_uris": {"android": "https://dc.lft.to/lastmile_qr_scan", "ios": "https://dc.lft.to/lastmile_qr_scan"}, "lon": -77.021374, "name": "572437606f2592b94058fa17ad28d4a2", "lat": 38.924882833333335, "is_reserved": 0, "fusion_lat": 0.0, "bike_id": "572437606f2592b94058fa17ad28d4a2", "type": "electric_scooter", "is_disabled": 0, "fusion_lon": 0.0}, {"rental_uris": {"android": "https://dc.lft.to/lastmile_qr_scan", "ios": "https://dc.lft.to/lastmile_qr_scan"}, "lon": -76.98159616666666, "name": "5e181437add323dd5cc44187cf05fa0c", "lat": 38.899527166666665, "is_reserved": 0, "fusion_lat": 0.0, "bike_id": "5e181437add323dd5cc44187cf05fa0c", "type": "electric_scooter", "is_disabled": 0, "fusion_lon": 0.0}, {"rental_uris": {"android": "https://dc.lft.to/lastmile_qr_scan", "ios": "https://dc.lft.to/lastmile_qr_scan"}, "lon": -77.032663, "name": "57ad04c03c5b88a2265fcf9a8c17d565", "lat": 38.932574, "is_reserved": 0, "fusion_lat": 0.0, "bike_id": "57ad04c03c5b88a2265fcf9a8c17d565", "type": "electric_scooter", "is_disabled": 0, "fusion_lon": 0.0}, {"rental_uris": {"android": "https://dc.lft.to/lastmile_qr_scan", "ios": "https://dc.lft.to/lastmile_qr_scan"}, "lon": -76.98835083333333, "name": "1f3f6846e5724843b496a408319feaf2", "lat": 38.89260183333333, "is_reserved": 0, "fusion_lat": 0.0, "bike_id": "1f3f6846e5724843b496a408319feaf2", "type": "electric_scooter", "is_disabled": 0, "fusion_lon": 0.0}, {"rental_uris": {"android": "https://dc.lft.to/lastmile_qr_scan", "ios": "https://dc.lft.to/lastmile_qr_scan"}, "lon": -77.01171633333334, "name": "950e6af567ca2ba2dc1a255b6ff60259", "lat": 38.915837333333336, "is_reserved": 0, "fusion_lat": 0.0, "bike_id": "950e6af567ca2ba2dc1a255b6ff60259", "type": "electric_scooter", "is_disabled": 0, "fusion_lon": 0.0}, {"rental_uris": {"android": "https://dc.lft.to/lastmile_qr_scan", "ios": "https://dc.lft.to/lastmile_qr_scan"}, "lon": -77.06093433333334, "name": "5c5bc2108f10fdee4fa5fd9a2838efba", "lat": 38.911914333333335, "is_reserved": 0, "fusion_lat": 0.0, "bike_id": "5c5bc2108f10fdee4fa5fd9a2838efba", "type": "electric_scooter", "is_disabled": 0, "fusion_lon": 0.0}, {"rental_uris": {"android": "https://dc.lft.to/lastmile_qr_scan", "ios": "https://dc.lft.to/lastmile_qr_scan"}, "lon": -77.02101466666667, "name": "cd527a91d6cecd4bc438818fedb01756", "lat": 38.91014033333333, "is_reserved": 0, "fusion_lat": 0.0, "bike_id": "cd527a91d6cecd4bc438818fedb01756", "type": "electric_scooter", "is_disabled": 0, "fusion_lon": 0.0}, {"rental_uris": {"android": "https://dc.lft.to/lastmile_qr_scan", "ios": "https://dc.lft.to/lastmile_qr_scan"}, "lon": -76.9995465, "name": "a56dc3e1eae4cfda85266acea612b813", "lat": 38.874170666666664, "is_reserved": 0, "fusion_lat": 0.0, "bike_id": "a56dc3e1eae4cfda85266acea612b813", "type": "electric_scooter", "is_disabled": 0, "fusion_lon": 0.0}, {"rental_uris": {"android": "https://dc.lft.to/lastmile_qr_scan", "ios": "https://dc.lft.to/lastmile_qr_scan"}, "lon": -77.00136483333333, "name": "3cd8560f8bbb56b7dfe841fff1de9723", "lat": 38.8788495, "is_reserved": 0, "fusion_lat": 0.0, "bike_id": "3cd8560f8bbb56b7dfe841fff1de9723", "type": "electric_scooter", "is_disabled": 0, "fusion_lon": 0.0}, {"rental_uris": {"android": "https://dc.lft.to/lastmile_qr_scan", "ios": "https://dc.lft.to/lastmile_qr_scan"}, "lon": -77.00776883333333, "name": "9d7f135d3d6f575bb751a9379ad5e52d", "lat": 38.907446666666665, "is_reserved": 0, "fusion_lat": 0.0, "bike_id": "9d7f135d3d6f575bb751a9379ad5e52d", "type": "electric_scooter", "is_disabled": 0, "fusion_lon": 0.0}, {"rental_uris": {"android": "https://dc.lft.to/lastmile_qr_scan", "ios": "https://dc.lft.to/lastmile_qr_scan"}, "lon": -77.03227433333333, "name": "5d03fab8a58629944c01d9f32c524570", "lat": 38.922775333333334, "is_reserved": 0, "fusion_lat": 0.0, "bike_id": "5d03fab8a58629944c01d9f32c524570", "type": "electric_scooter", "is_disabled": 0, "fusion_lon": 0.0}, {"rental_uris": {"android": "https://dc.lft.to/lastmile_qr_scan", "ios": "https://dc.lft.to/lastmile_qr_scan"}, "lon": -77.04509466666667, "name": "9ee3fccf038f5cd2dbc57426d3bdad59", "lat": 38.907846, "is_reserved": 0, "fusion_lat": 0.0, "bike_id": "9ee3fccf038f5cd2dbc57426d3bdad59", "type": "electric_scooter", "is_disabled": 0, "fusion_lon": 0.0}, {"rental_uris": {"android": "https://dc.lft.to/lastmile_qr_scan", "ios": "https://dc.lft.to/lastmile_qr_scan"}, "lon": -76.98601333333333, "name": "a81ae01624d2add38bdd8eb2e4c2171b", "lat": 38.86014133333333, "is_reserved": 0, "fusion_lat": 0.0, "bike_id": "a81ae01624d2add38bdd8eb2e4c2171b", "type": "electric_scooter", "is_disabled": 0, "fusion_lon": 0.0}, {"rental_uris": {"android": "https://dc.lft.to/lastmile_qr_scan", "ios": "https://dc.lft.to/lastmile_qr_scan"}, "lon": -76.93342083333333, "name": "c6f0d594be5f837c248c20e8be207d07", "lat": 38.908679166666666, "is_reserved": 0, "fusion_lat": 0.0, "bike_id": "c6f0d594be5f837c248c20e8be207d07", "type": "electric_scooter", "is_disabled": 0, "fusion_lon": 0.0}, {"rental_uris": {"android": "https://dc.lft.to/lastmile_qr_scan", "ios": "https://dc.lft.to/lastmile_qr_scan"}, "lon": -77.085954, "name": "6b38a4515b68e33d606410e65feaa704", "lat": 38.90870283333334, "is_reserved": 0, "fusion_lat": 0.0, "bike_id": "6b38a4515b68e33d606410e65feaa704", "type": "electric_scooter", "is_disabled": 0, "fusion_lon": 0.0}, {"rental_uris": {"android": "https://dc.lft.to/lastmile_qr_scan", "ios": "https://dc.lft.to/lastmile_qr_scan"}, "lon": -77.0718135, "name": "eb45b8752e435641bb5e3b2e60e4e8e0", "lat": 38.906886166666666, "is_reserved": 0, "fusion_lat": 0.0, "bike_id": "eb45b8752e435641bb5e3b2e60e4e8e0", "type": "electric_scooter", "is_disabled": 0, "fusion_lon": 0.0}, {"rental_uris": {"android": "https://dc.lft.to/lastmile_qr_scan", "ios": "https://dc.lft.to/lastmile_qr_scan"}, "lon": -77.0238555, "name": "95b03c7102d210269c036f671af08a71", "lat": 38.8922845, "is_reserved": 0, "fusion_lat": 0.0, "bike_id": "95b03c7102d210269c036f671af08a71", "type": "electric_scooter", "is_disabled": 0, "fusion_lon": 0.0}, {"rental_uris": {"android": "https://dc.lft.to/lastmile_qr_scan", "ios": "https://dc.lft.to/lastmile_qr_scan"}, "lon": -76.99900783333334, "name": "112e3ce9bd7ce2ee02f0465423db95fa", "lat": 38.94277433333333, "is_reserved": 0, "fusion_lat": 0.0, "bike_id": "112e3ce9bd7ce2ee02f0465423db95fa", "type": "electric_bike", "is_disabled": 0, "fusion_lon": 0.0}, {"rental_uris": {"android": "https://dc.lft.to/lastmile_qr_scan", "ios": "https://dc.lft.to/lastmile_qr_scan"}, "lon": -77.03187066666666, "name": "05e8cc50c332196c3afa3e344bff37d0", "lat": 38.930707166666664, "is_reserved": 0, "fusion_lat": 0.0, "bike_id": "05e8cc50c332196c3afa3e344bff37d0", "type": "electric_scooter", "is_disabled": 0, "fusion_lon": 0.0}, {"rental_uris": {"android": "https://dc.lft.to/lastmile_qr_scan", "ios": "https://dc.lft.to/lastmile_qr_scan"}, "lon": -77.0539725, "name": "e64babea9aaf977c280f565095cede70", "lat": 38.901301833333335, "is_reserved": 0, "fusion_lat": 0.0, "bike_id": "e64babea9aaf977c280f565095cede70", "type": "electric_scooter", "is_disabled": 0, "fusion_lon": 0.0}, {"rental_uris": {"android": "https://dc.lft.to/lastmile_qr_scan", "ios": "https://dc.lft.to/lastmile_qr_scan"}, "lon": -77.05103866666667, "name": "e8db63620b9e24ca28114cbaef1fe73b", "lat": 38.92495733333333, "is_reserved": 0, "fusion_lat": 0.0, "bike_id": "e8db63620b9e24ca28114cbaef1fe73b", "type": "electric_scooter", "is_disabled": 0, "fusion_lon": 0.0}, {"rental_uris": {"android": "https://dc.lft.to/lastmile_qr_scan", "ios": "https://dc.lft.to/lastmile_qr_scan"}, "lon": -77.03131, "name": "df0ebe64c17061c57e647b086735f2f5", "lat": 38.90527516666667, "is_reserved": 0, "fusion_lat": 0.0, "bike_id": "df0ebe64c17061c57e647b086735f2f5", "type": "electric_scooter", "is_disabled": 0, "fusion_lon": 0.0}, {"rental_uris": {"android": "https://dc.lft.to/lastmile_qr_scan", "ios": "https://dc.lft.to/lastmile_qr_scan"}, "lon": -77.00199666666667, "name": "c2d4311b750928c6d3bda322a65b1ae0", "lat": 38.8738525, "is_reserved": 0, "fusion_lat": 0.0, "bike_id": "c2d4311b750928c6d3bda322a65b1ae0", "type": "electric_scooter", "is_disabled": 0, "fusion_lon": 0.0}, {"rental_uris": {"android": "https://dc.lft.to/lastmile_qr_scan", "ios": "https://dc.lft.to/lastmile_qr_scan"}, "lon": -76.97345283333334, "name": "12d8ee088793ef956c870b7f77866f19", "lat": 38.86516116666667, "is_reserved": 0, "fusion_lat": 0.0, "bike_id": "12d8ee088793ef956c870b7f77866f19", "type": "electric_scooter", "is_disabled": 0, "fusion_lon": 0.0}, {"rental_uris": {"android": "https://dc.lft.to/lastmile_qr_scan", "ios": "https://dc.lft.to/lastmile_qr_scan"}, "lon": -77.04249666666666, "name": "53f5d64c0b3f69d5792f6b5484a1c20e", "lat": 38.924322833333335, "is_reserved": 0, "fusion_lat": 0.0, "bike_id": "53f5d64c0b3f69d5792f6b5484a1c20e", "type": "electric_scooter", "is_disabled": 0, "fusion_lon": 0.0}, {"rental_uris": {"android": "https://dc.lft.to/lastmile_qr_scan", "ios": "https://dc.lft.to/lastmile_qr_scan"}, "lon": -77.00063916666667, "name": "40a3db231d405e90572dab08646eefd7", "lat": 38.874536166666665, "is_reserved": 0, "fusion_lat": 0.0, "bike_id": "40a3db231d405e90572dab08646eefd7", "type": "electric_scooter", "is_disabled": 0, "fusion_lon": 0.0}, {"rental_uris": {"android": "https://dc.lft.to/lastmile_qr_scan", "ios": "https://dc.lft.to/lastmile_qr_scan"}, "lon": -76.99738483333333, "name": "74756d5001ae86fd2cb62e5bc4556df1", "lat": 39.042376, "is_reserved": 0, "fusion_lat": 0.0, "bike_id": "74756d5001ae86fd2cb62e5bc4556df1", "type": "electric_bike", "is_disabled": 0, "fusion_lon": 0.0}, {"rental_uris": {"android": "https://dc.lft.to/lastmile_qr_scan", "ios": "https://dc.lft.to/lastmile_qr_scan"}, "lon": -77.01357133333333, "name": "8481dc82961d611e0cae94f7c0f2f774", "lat": 38.91955433333333, "is_reserved": 0, "fusion_lat": 0.0, "bike_id": "8481dc82961d611e0cae94f7c0f2f774", "type": "electric_scooter", "is_disabled": 0, "fusion_lon": 0.0}, {"rental_uris": {"android": "https://dc.lft.to/lastmile_qr_scan", "ios": "https://dc.lft.to/lastmile_qr_scan"}, "lon": -76.98430316666666, "name": "f7b7dafc603c0cfc98e927f4cbb85cc2", "lat": 38.9058015, "is_reserved": 0, "fusion_lat": 0.0, "bike_id": "f7b7dafc603c0cfc98e927f4cbb85cc2", "type": "electric_scooter", "is_disabled": 0, "fusion_lon": 0.0}, {"rental_uris": {"android": "https://dc.lft.to/lastmile_qr_scan", "ios": "https://dc.lft.to/lastmile_qr_scan"}, "lon": -77.056727, "name": "3fc5b1efa7ef03b29e777cbc479fa8f5", "lat": 38.9049335, "is_reserved": 0, "fusion_lat": 0.0, "bike_id": "3fc5b1efa7ef03b29e777cbc479fa8f5", "type": "electric_scooter", "is_disabled": 0, "fusion_lon": 0.0}, {"rental_uris": {"android": "https://dc.lft.to/lastmile_qr_scan", "ios": "https://dc.lft.to/lastmile_qr_scan"}, "lon": -77.03801933333334, "name": "5387c171d17c4e6c7bc749a9085df7bf", "lat": 38.925005166666665, "is_reserved": 0, "fusion_lat": 0.0, "bike_id": "5387c171d17c4e6c7bc749a9085df7bf", "type": "electric_scooter", "is_disabled": 0, "fusion_lon": 0.0}, {"rental_uris": {"android": "https://dc.lft.to/lastmile_qr_scan", "ios": "https://dc.lft.to/lastmile_qr_scan"}, "lon": -77.017655, "name": "c69c6f59c9f42302a370a44783654187", "lat": 38.902703833333334, "is_reserved": 0, "fusion_lat": 0.0, "bike_id": "c69c6f59c9f42302a370a44783654187", "type": "electric_scooter", "is_disabled": 0, "fusion_lon": 0.0}, {"rental_uris": {"android": "https://dc.lft.to/lastmile_qr_scan", "ios": "https://dc.lft.to/lastmile_qr_scan"}, "lon": -77.00598516666666, "name": "569347f718d9a655faf4a9c32b5062d9", "lat": 38.877995166666665, "is_reserved": 0, "fusion_lat": 0.0, "bike_id": "569347f718d9a655faf4a9c32b5062d9", "type": "electric_scooter", "is_disabled": 0, "fusion_lon": 0.0}, {"rental_uris": {"android": "https://dc.lft.to/lastmile_qr_scan", "ios": "https://dc.lft.to/lastmile_qr_scan"}, "lon": -77.04691516666666, "name": "cfc6d8f38728569f1f20bbb0af82303b", "lat": 38.90240083333333, "is_reserved": 0, "fusion_lat": 0.0, "bike_id": "cfc6d8f38728569f1f20bbb0af82303b", "type": "electric_scooter", "is_disabled": 0, "fusion_lon": 0.0}, {"rental_uris": {"android": "https://dc.lft.to/lastmile_qr_scan", "ios": "https://dc.lft.to/lastmile_qr_scan"}, "lon": -76.99844583333334, "name": "94ae5828a22fe90844d845c77a5fad39", "lat": 38.900362333333334, "is_reserved": 0, "fusion_lat": 0.0, "bike_id": "94ae5828a22fe90844d845c77a5fad39", "type": "electric_scooter", "is_disabled": 0, "fusion_lon": 0.0}, {"rental_uris": {"android": "https://dc.lft.to/lastmile_qr_scan", "ios": "https://dc.lft.to/lastmile_qr_scan"}, "lon": -77.01771366666667, "name": "415c6a9c01c78f447015214fc2dd9fde", "lat": 38.920601833333336, "is_reserved": 0, "fusion_lat": 0.0, "bike_id": "415c6a9c01c78f447015214fc2dd9fde", "type": "electric_scooter", "is_disabled": 0, "fusion_lon": 0.0}, {"rental_uris": {"android": "https://dc.lft.to/lastmile_qr_scan", "ios": "https://dc.lft.to/lastmile_qr_scan"}, "lon": -76.99543983333334, "name": "3ce2fa83a7802628b25f070d15ed01b7", "lat": 38.83158816666667, "is_reserved": 0, "fusion_lat": 0.0, "bike_id": "3ce2fa83a7802628b25f070d15ed01b7", "type": "electric_bike", "is_disabled": 0, "fusion_lon": 0.0}, {"rental_uris": {"android": "https://dc.lft.to/lastmile_qr_scan", "ios": "https://dc.lft.to/lastmile_qr_scan"}, "lon": -77.03283033333334, "name": "92f8a532ce643c6bf9be9ec8b8edae22", "lat": 38.93254666666667, "is_reserved": 0, "fusion_lat": 0.0, "bike_id": "92f8a532ce643c6bf9be9ec8b8edae22", "type": "electric_scooter", "is_disabled": 0, "fusion_lon": 0.0}, {"rental_uris": {"android": "https://dc.lft.to/lastmile_qr_scan", "ios": "https://dc.lft.to/lastmile_qr_scan"}, "lon": -77.03191783333334, "name": "c0ca13dd80e75851a212ba3f5742dda0", "lat": 38.901107333333336, "is_reserved": 0, "fusion_lat": 0.0, "bike_id": "c0ca13dd80e75851a212ba3f5742dda0", "type": "electric_scooter", "is_disabled": 0, "fusion_lon": 0.0}, {"rental_uris": {"android": "https://dc.lft.to/lastmile_qr_scan", "ios": "https://dc.lft.to/lastmile_qr_scan"}, "lon": -77.0198205, "name": "5f922737d7aeb809098d701c99ef7f22", "lat": 38.911681, "is_reserved": 0, "fusion_lat": 0.0, "bike_id": "5f922737d7aeb809098d701c99ef7f22", "type": "electric_scooter", "is_disabled": 0, "fusion_lon": 0.0}, {"rental_uris": {"android": "https://dc.lft.to/lastmile_qr_scan", "ios": "https://dc.lft.to/lastmile_qr_scan"}, "lon": -77.02360633333333, "name": "22728ca7a9ff6510074a9e9f35fd0931", "lat": 38.90203316666667, "is_reserved": 0, "fusion_lat": 0.0, "bike_id": "22728ca7a9ff6510074a9e9f35fd0931", "type": "electric_scooter", "is_disabled": 0, "fusion_lon": 0.0}, {"rental_uris": {"android": "https://dc.lft.to/lastmile_qr_scan", "ios": "https://dc.lft.to/lastmile_qr_scan"}, "lon": -77.03516216666667, "name": "42545793190803c9423eac1248a3cf15", "lat": 38.900379666666666, "is_reserved": 0, "fusion_lat": 0.0, "bike_id": "42545793190803c9423eac1248a3cf15", "type": "electric_scooter", "is_disabled": 0, "fusion_lon": 0.0}, {"rental_uris": {"android": "https://dc.lft.to/lastmile_qr_scan", "ios": "https://dc.lft.to/lastmile_qr_scan"}, "lon": -77.00426233333333, "name": "a81defd293b904cea5a2297a5ba85c57", "lat": 38.87708933333333, "is_reserved": 0, "fusion_lat": 0.0, "bike_id": "a81defd293b904cea5a2297a5ba85c57", "type": "electric_scooter", "is_disabled": 0, "fusion_lon": 0.0}, {"rental_uris": {"android": "https://dc.lft.to/lastmile_qr_scan", "ios": "https://dc.lft.to/lastmile_qr_scan"}, "lon": -76.9722295, "name": "bd34b0ef77430572ab0105c6cbf43a8a", "lat": 38.90036166666667, "is_reserved": 0, "fusion_lat": 0.0, "bike_id": "bd34b0ef77430572ab0105c6cbf43a8a", "type": "electric_bike", "is_disabled": 0, "fusion_lon": 0.0}, {"rental_uris": {"android": "https://dc.lft.to/lastmile_qr_scan", "ios": "https://dc.lft.to/lastmile_qr_scan"}, "lon": -77.02375016666667, "name": "023860c48e6b68d63ac32a7f8b8ff70a", "lat": 38.953064166666664, "is_reserved": 0, "fusion_lat": 0.0, "bike_id": "023860c48e6b68d63ac32a7f8b8ff70a", "type": "electric_scooter", "is_disabled": 0, "fusion_lon": 0.0}, {"rental_uris": {"android": "https://dc.lft.to/lastmile_qr_scan", "ios": "https://dc.lft.to/lastmile_qr_scan"}, "lon": -77.02836266666667, "name": "ee7227699cab598e19e625b1ee8b2a96", "lat": 38.9247455, "is_reserved": 0, "fusion_lat": 0.0, "bike_id": "ee7227699cab598e19e625b1ee8b2a96", "type": "electric_scooter", "is_disabled": 0, "fusion_lon": 0.0}, {"rental_uris": {"android": "https://dc.lft.to/lastmile_qr_scan", "ios": "https://dc.lft.to/lastmile_qr_scan"}, "lon": -76.99973266666667, "name": "0bc289ac1999f7f16c2113832a72b9b8", "lat": 38.9083795, "is_reserved": 0, "fusion_lat": 0.0, "bike_id": "0bc289ac1999f7f16c2113832a72b9b8", "type": "electric_scooter", "is_disabled": 0, "fusion_lon": 0.0}, {"rental_uris": {"android": "https://dc.lft.to/lastmile_qr_scan", "ios": "https://dc.lft.to/lastmile_qr_scan"}, "lon": -76.94655483333334, "name": "ec32e7e7e4537b018c6d541994f3ca85", "lat": 38.898292166666664, "is_reserved": 0, "fusion_lat": 0.0, "bike_id": "ec32e7e7e4537b018c6d541994f3ca85", "type": "electric_scooter", "is_disabled": 0, "fusion_lon": 0.0}, {"rental_uris": {"android": "https://dc.lft.to/lastmile_qr_scan", "ios": "https://dc.lft.to/lastmile_qr_scan"}, "lon": -76.98336966666666, "name": "dca18feb58b1f720fdf4d86ecb5f371f", "lat": 38.86564466666667, "is_reserved": 0, "fusion_lat": 0.0, "bike_id": "dca18feb58b1f720fdf4d86ecb5f371f", "type": "electric_scooter", "is_disabled": 0, "fusion_lon": 0.0}, {"rental_uris": {"android": "https://dc.lft.to/lastmile_qr_scan", "ios": "https://dc.lft.to/lastmile_qr_scan"}, "lon": -77.038604, "name": "d7e0ea81b6122c9dd9676bb9be673330", "lat": 38.90787016666667, "is_reserved": 0, "fusion_lat": 0.0, "bike_id": "d7e0ea81b6122c9dd9676bb9be673330", "type": "electric_scooter", "is_disabled": 0, "fusion_lon": 0.0}, {"rental_uris": {"android": "https://dc.lft.to/lastmile_qr_scan", "ios": "https://dc.lft.to/lastmile_qr_scan"}, "lon": -77.02634466666666, "name": "535e32df7f67540893f49987fb2475b2", "lat": 38.892176666666664, "is_reserved": 0, "fusion_lat": 0.0, "bike_id": "535e32df7f67540893f49987fb2475b2", "type": "electric_scooter", "is_disabled": 0, "fusion_lon": 0.0}, {"rental_uris": {"android": "https://dc.lft.to/lastmile_qr_scan", "ios": "https://dc.lft.to/lastmile_qr_scan"}, "lon": -77.0385115, "name": "c44664773495ff26cd8c3b69a3dc2544", "lat": 38.90289033333333, "is_reserved": 0, "fusion_lat": 0.0, "bike_id": "c44664773495ff26cd8c3b69a3dc2544", "type": "electric_scooter", "is_disabled": 0, "fusion_lon": 0.0}, {"rental_uris": {"android": "https://dc.lft.to/lastmile_qr_scan", "ios": "https://dc.lft.to/lastmile_qr_scan"}, "lon": -77.04662166666667, "name": "93110db96f98a4aa4237970e5e477f9e", "lat": 38.90095, "is_reserved": 0, "fusion_lat": 0.0, "bike_id": "93110db96f98a4aa4237970e5e477f9e", "type": "electric_scooter", "is_disabled": 0, "fusion_lon": 0.0}, {"rental_uris": {"android": "https://dc.lft.to/lastmile_qr_scan", "ios": "https://dc.lft.to/lastmile_qr_scan"}, "lon": -77.04065616666666, "name": "7804a03944bb526a3966894b4fb175d0", "lat": 38.9314585, "is_reserved": 0, "fusion_lat": 0.0, "bike_id": "7804a03944bb526a3966894b4fb175d0", "type": "electric_scooter", "is_disabled": 0, "fusion_lon": 0.0}, {"rental_uris": {"android": "https://dc.lft.to/lastmile_qr_scan", "ios": "https://dc.lft.to/lastmile_qr_scan"}, "lon": -77.022433, "name": "044a1211712051fe9c04e3f86a49e149", "lat": 38.92468066666667, "is_reserved": 0, "fusion_lat": 0.0, "bike_id": "044a1211712051fe9c04e3f86a49e149", "type": "electric_scooter", "is_disabled": 0, "fusion_lon": 0.0}, {"rental_uris": {"android": "https://dc.lft.to/lastmile_qr_scan", "ios": "https://dc.lft.to/lastmile_qr_scan"}, "lon": -77.02201333333333, "name": "754cc8c0310d2dcbda37c21e271a46c5", "lat": 38.915948, "is_reserved": 0, "fusion_lat": 0.0, "bike_id": "754cc8c0310d2dcbda37c21e271a46c5", "type": "electric_scooter", "is_disabled": 0, "fusion_lon": 0.0}, {"rental_uris": {"android": "https://dc.lft.to/lastmile_qr_scan", "ios": "https://dc.lft.to/lastmile_qr_scan"}, "lon": -77.02172083333333, "name": "a8426a703b9819bcde0876f170427b55", "lat": 38.94292883333333, "is_reserved": 0, "fusion_lat": 0.0, "bike_id": "a8426a703b9819bcde0876f170427b55", "type": "electric_scooter", "is_disabled": 0, "fusion_lon": 0.0}, {"rental_uris": {"android": "https://dc.lft.to/lastmile_qr_scan", "ios": "https://dc.lft.to/lastmile_qr_scan"}, "lon": -77.01751433333334, "name": "056af95422e41ad6ddea0b12b7a38676", "lat": 38.914482666666665, "is_reserved": 0, "fusion_lat": 0.0, "bike_id": "056af95422e41ad6ddea0b12b7a38676", "type": "electric_scooter", "is_disabled": 0, "fusion_lon": 0.0}, {"rental_uris": {"android": "https://dc.lft.to/lastmile_qr_scan", "ios": "https://dc.lft.to/lastmile_qr_scan"}, "lon": -77.02568966666666, "name": "8c31b366e4240355c351c2e6a1bd80b6", "lat": 38.925794, "is_reserved": 0, "fusion_lat": 0.0, "bike_id": "8c31b366e4240355c351c2e6a1bd80b6", "type": "electric_scooter", "is_disabled": 0, "fusion_lon": 0.0}, {"rental_uris": {"android": "https://dc.lft.to/lastmile_qr_scan", "ios": "https://dc.lft.to/lastmile_qr_scan"}, "lon": -77.01439183333333, "name": "18fa4e89f6abe0d4e592bcfa15dc4f14", "lat": 38.919651333333334, "is_reserved": 0, "fusion_lat": 0.0, "bike_id": "18fa4e89f6abe0d4e592bcfa15dc4f14", "type": "electric_scooter", "is_disabled": 0, "fusion_lon": 0.0}, {"rental_uris": {"android": "https://dc.lft.to/lastmile_qr_scan", "ios": "https://dc.lft.to/lastmile_qr_scan"}, "lon": -77.04514033333334, "name": "355f8062ca927c10d34acfe229671e02", "lat": 38.89227866666667, "is_reserved": 0, "fusion_lat": 0.0, "bike_id": "355f8062ca927c10d34acfe229671e02", "type": "electric_scooter", "is_disabled": 0, "fusion_lon": 0.0}, {"rental_uris": {"android": "https://dc.lft.to/lastmile_qr_scan", "ios": "https://dc.lft.to/lastmile_qr_scan"}, "lon": -77.00568433333333, "name": "511a186cde38f27737ffe68ca1777fe0", "lat": 38.905734333333335, "is_reserved": 0, "fusion_lat": 0.0, "bike_id": "511a186cde38f27737ffe68ca1777fe0", "type": "electric_scooter", "is_disabled": 0, "fusion_lon": 0.0}, {"rental_uris": {"android": "https://dc.lft.to/lastmile_qr_scan", "ios": "https://dc.lft.to/lastmile_qr_scan"}, "lon": -77.03848183333334, "name": "15109af361f64e6d2c42176035a5bcde", "lat": 38.908675333333335, "is_reserved": 0, "fusion_lat": 0.0, "bike_id": "15109af361f64e6d2c42176035a5bcde", "type": "electric_scooter", "is_disabled": 0, "fusion_lon": 0.0}, {"rental_uris": {"android": "https://dc.lft.to/lastmile_qr_scan", "ios": "https://dc.lft.to/lastmile_qr_scan"}, "lon": -77.0240375, "name": "a07d1c087266b39db971fb04d8cc30b5", "lat": 38.91179733333333, "is_reserved": 0, "fusion_lat": 0.0, "bike_id": "a07d1c087266b39db971fb04d8cc30b5", "type": "electric_scooter", "is_disabled": 0, "fusion_lon": 0.0}, {"rental_uris": {"android": "https://dc.lft.to/lastmile_qr_scan", "ios": "https://dc.lft.to/lastmile_qr_scan"}, "lon": -77.01376716666667, "name": "41012d689b4110898c336a381b89ff5c", "lat": 38.95233483333333, "is_reserved": 0, "fusion_lat": 0.0, "bike_id": "41012d689b4110898c336a381b89ff5c", "type": "electric_scooter", "is_disabled": 0, "fusion_lon": 0.0}, {"rental_uris": {"android": "https://dc.lft.to/lastmile_qr_scan", "ios": "https://dc.lft.to/lastmile_qr_scan"}, "lon": -77.00712666666666, "name": "9b34766a5b275e4155e1f0c0f6939adf", "lat": 38.884893166666664, "is_reserved": 0, "fusion_lat": 0.0, "bike_id": "9b34766a5b275e4155e1f0c0f6939adf", "type": "electric_scooter", "is_disabled": 0, "fusion_lon": 0.0}, {"rental_uris": {"android": "https://dc.lft.to/lastmile_qr_scan", "ios": "https://dc.lft.to/lastmile_qr_scan"}, "lon": -77.04274333333333, "name": "65eaa72b1748307b823b057fc446e1fe", "lat": 38.907400333333335, "is_reserved": 0, "fusion_lat": 0.0, "bike_id": "65eaa72b1748307b823b057fc446e1fe", "type": "electric_scooter", "is_disabled": 0, "fusion_lon": 0.0}, {"rental_uris": {"android": "https://dc.lft.to/lastmile_qr_scan", "ios": "https://dc.lft.to/lastmile_qr_scan"}, "lon": -76.98275266666667, "name": "ccbbfff1b8fb0587061ca92898887627", "lat": 38.867652, "is_reserved": 0, "fusion_lat": 0.0, "bike_id": "ccbbfff1b8fb0587061ca92898887627", "type": "electric_scooter", "is_disabled": 0, "fusion_lon": 0.0}, {"rental_uris": {"android": "https://dc.lft.to/lastmile_qr_scan", "ios": "https://dc.lft.to/lastmile_qr_scan"}, "lon": -77.01222433333334, "name": "26bfa1cd8950d78372212d24f8343480", "lat": 38.92603316666667, "is_reserved": 0, "fusion_lat": 0.0, "bike_id": "26bfa1cd8950d78372212d24f8343480", "type": "electric_scooter", "is_disabled": 0, "fusion_lon": 0.0}, {"rental_uris": {"android": "https://dc.lft.to/lastmile_qr_scan", "ios": "https://dc.lft.to/lastmile_qr_scan"}, "lon": -77.0463505, "name": "02c235c9b94147bf3c50cdae0ea47df3", "lat": 38.9160965, "is_reserved": 0, "fusion_lat": 0.0, "bike_id": "02c235c9b94147bf3c50cdae0ea47df3", "type": "electric_scooter", "is_disabled": 0, "fusion_lon": 0.0}, {"rental_uris": {"android": "https://dc.lft.to/lastmile_qr_scan", "ios": "https://dc.lft.to/lastmile_qr_scan"}, "lon": -76.934744, "name": "c708657da0a32a65cfced2e4fd5a60f7", "lat": 38.89506433333333, "is_reserved": 0, "fusion_lat": 0.0, "bike_id": "c708657da0a32a65cfced2e4fd5a60f7", "type": "electric_scooter", "is_disabled": 0, "fusion_lon": 0.0}, {"rental_uris": {"android": "https://dc.lft.to/lastmile_qr_scan", "ios": "https://dc.lft.to/lastmile_qr_scan"}, "lon": -77.0300805, "name": "697988ebc96217c4fa3ca7ebfb81f694", "lat": 38.93119333333333, "is_reserved": 0, "fusion_lat": 0.0, "bike_id": "697988ebc96217c4fa3ca7ebfb81f694", "type": "electric_scooter", "is_disabled": 0, "fusion_lon": 0.0}, {"rental_uris": {"android": "https://dc.lft.to/lastmile_qr_scan", "ios": "https://dc.lft.to/lastmile_qr_scan"}, "lon": -77.03276216666667, "name": "1602a7aa78a31b932e73cf4728aad1c3", "lat": 38.94060866666667, "is_reserved": 0, "fusion_lat": 0.0, "bike_id": "1602a7aa78a31b932e73cf4728aad1c3", "type": "electric_scooter", "is_disabled": 0, "fusion_lon": 0.0}, {"rental_uris": {"android": "https://dc.lft.to/lastmile_qr_scan", "ios": "https://dc.lft.to/lastmile_qr_scan"}, "lon": -77.02478983333333, "name": "75299221ea13cdbc4d0700578f48aedb", "lat": 38.920798833333336, "is_reserved": 0, "fusion_lat": 0.0, "bike_id": "75299221ea13cdbc4d0700578f48aedb", "type": "electric_scooter", "is_disabled": 0, "fusion_lon": 0.0}, {"rental_uris": {"android": "https://dc.lft.to/lastmile_qr_scan", "ios": "https://dc.lft.to/lastmile_qr_scan"}, "lon": -76.946399, "name": "81b8c44cdb42da52c776090cb1888e0c", "lat": 38.8987, "is_reserved": 0, "fusion_lat": 0.0, "bike_id": "81b8c44cdb42da52c776090cb1888e0c", "type": "electric_scooter", "is_disabled": 0, "fusion_lon": 0.0}, {"rental_uris": {"android": "https://dc.lft.to/lastmile_qr_scan", "ios": "https://dc.lft.to/lastmile_qr_scan"}, "lon": -77.03803833333333, "name": "e85fb7196efae84a52e57e33096cc2aa", "lat": 38.92071883333333, "is_reserved": 0, "fusion_lat": 0.0, "bike_id": "e85fb7196efae84a52e57e33096cc2aa", "type": "electric_scooter", "is_disabled": 0, "fusion_lon": 0.0}, {"rental_uris": {"android": "https://dc.lft.to/lastmile_qr_scan", "ios": "https://dc.lft.to/lastmile_qr_scan"}, "lon": -77.0370885, "name": "a283bd4a1cca8dbd586c28f0e48875e5", "lat": 38.927840833333335, "is_reserved": 0, "fusion_lat": 0.0, "bike_id": "a283bd4a1cca8dbd586c28f0e48875e5", "type": "electric_scooter", "is_disabled": 0, "fusion_lon": 0.0}, {"rental_uris": {"android": "https://dc.lft.to/lastmile_qr_scan", "ios": "https://dc.lft.to/lastmile_qr_scan"}, "lon": -77.07656, "name": "952a0fd3424422a4e34ccd721a6f8b93", "lat": 38.93525666666667, "is_reserved": 0, "fusion_lat": 0.0, "bike_id": "952a0fd3424422a4e34ccd721a6f8b93", "type": "electric_scooter", "is_disabled": 0, "fusion_lon": 0.0}, {"rental_uris": {"android": "https://dc.lft.to/lastmile_qr_scan", "ios": "https://dc.lft.to/lastmile_qr_scan"}, "lon": -77.0307255, "name": "ce6d2142ad7769000e1059435cdbf1b6", "lat": 38.9267595, "is_reserved": 0, "fusion_lat": 0.0, "bike_id": "ce6d2142ad7769000e1059435cdbf1b6", "type": "electric_scooter", "is_disabled": 0, "fusion_lon": 0.0}, {"rental_uris": {"android": "https://dc.lft.to/lastmile_qr_scan", "ios": "https://dc.lft.to/lastmile_qr_scan"}, "lon": -77.033228, "name": "94c968baed20a2493dd2b87e77e971d6", "lat": 38.9140155, "is_reserved": 0, "fusion_lat": 0.0, "bike_id": "94c968baed20a2493dd2b87e77e971d6", "type": "electric_scooter", "is_disabled": 0, "fusion_lon": 0.0}, {"rental_uris": {"android": "https://dc.lft.to/lastmile_qr_scan", "ios": "https://dc.lft.to/lastmile_qr_scan"}, "lon": -77.00723516666666, "name": "e6a0c4c17d67d60746da5fe6bea58c8a", "lat": 38.89777733333333, "is_reserved": 0, "fusion_lat": 0.0, "bike_id": "e6a0c4c17d67d60746da5fe6bea58c8a", "type": "electric_scooter", "is_disabled": 0, "fusion_lon": 0.0}, {"rental_uris": {"android": "https://dc.lft.to/lastmile_qr_scan", "ios": "https://dc.lft.to/lastmile_qr_scan"}, "lon": -77.034564, "name": "3a06d28673622dc265f013f682e35c1d", "lat": 38.90724566666667, "is_reserved": 0, "fusion_lat": 0.0, "bike_id": "3a06d28673622dc265f013f682e35c1d", "type": "electric_scooter", "is_disabled": 0, "fusion_lon": 0.0}, {"rental_uris": {"android": "https://dc.lft.to/lastmile_qr_scan", "ios": "https://dc.lft.to/lastmile_qr_scan"}, "lon": -77.0503165, "name": "4e30de486ba0b820310bb516a6ccbf3a", "lat": 38.896652833333334, "is_reserved": 0, "fusion_lat": 0.0, "bike_id": "4e30de486ba0b820310bb516a6ccbf3a", "type": "electric_scooter", "is_disabled": 0, "fusion_lon": 0.0}, {"rental_uris": {"android": "https://dc.lft.to/lastmile_qr_scan", "ios": "https://dc.lft.to/lastmile_qr_scan"}, "lon": -77.0012415, "name": "640dd1706f553d2eeabd5b12aad62db6", "lat": 38.906940666666664, "is_reserved": 0, "fusion_lat": 0.0, "bike_id": "640dd1706f553d2eeabd5b12aad62db6", "type": "electric_scooter", "is_disabled": 0, "fusion_lon": 0.0}, {"rental_uris": {"android": "https://dc.lft.to/lastmile_qr_scan", "ios": "https://dc.lft.to/lastmile_qr_scan"}, "lon": -77.03511966666667, "name": "8810511450ea650d50c6179824900e63", "lat": 38.91836583333333, "is_reserved": 0, "fusion_lat": 0.0, "bike_id": "8810511450ea650d50c6179824900e63", "type": "electric_scooter", "is_disabled": 0, "fusion_lon": 0.0}, {"rental_uris": {"android": "https://dc.lft.to/lastmile_qr_scan", "ios": "https://dc.lft.to/lastmile_qr_scan"}, "lon": -76.99405766666666, "name": "af40597a3c7f5ef934095ea685368eeb", "lat": 38.877877, "is_reserved": 0, "fusion_lat": 0.0, "bike_id": "af40597a3c7f5ef934095ea685368eeb", "type": "electric_scooter", "is_disabled": 0, "fusion_lon": 0.0}, {"rental_uris": {"android": "https://dc.lft.to/lastmile_qr_scan", "ios": "https://dc.lft.to/lastmile_qr_scan"}, "lon": -77.0290395, "name": "3e90f0fc05cc6856d2ef97850a5f8def", "lat": 38.9231935, "is_reserved": 0, "fusion_lat": 0.0, "bike_id": "3e90f0fc05cc6856d2ef97850a5f8def", "type": "electric_scooter", "is_disabled": 0, "fusion_lon": 0.0}, {"rental_uris": {"android": "https://dc.lft.to/lastmile_qr_scan", "ios": "https://dc.lft.to/lastmile_qr_scan"}, "lon": -77.03355266666667, "name": "eb51d2807049a6f80adc39ca734635a8", "lat": 38.92541966666667, "is_reserved": 0, "fusion_lat": 0.0, "bike_id": "eb51d2807049a6f80adc39ca734635a8", "type": "electric_scooter", "is_disabled": 0, "fusion_lon": 0.0}, {"rental_uris": {"android": "https://dc.lft.to/lastmile_qr_scan", "ios": "https://dc.lft.to/lastmile_qr_scan"}, "lon": -76.973303, "name": "c54374b6a2df0861e13462f1c1d7801f", "lat": 38.90411433333333, "is_reserved": 0, "fusion_lat": 0.0, "bike_id": "c54374b6a2df0861e13462f1c1d7801f", "type": "electric_scooter", "is_disabled": 0, "fusion_lon": 0.0}, {"rental_uris": {"android": "https://dc.lft.to/lastmile_qr_scan", "ios": "https://dc.lft.to/lastmile_qr_scan"}, "lon": -77.03848183333334, "name": "0f351035954439695c8298c253c943f2", "lat": 38.91551883333333, "is_reserved": 0, "fusion_lat": 0.0, "bike_id": "0f351035954439695c8298c253c943f2", "type": "electric_scooter", "is_disabled": 0, "fusion_lon": 0.0}, {"rental_uris": {"android": "https://dc.lft.to/lastmile_qr_scan", "ios": "https://dc.lft.to/lastmile_qr_scan"}, "lon": -77.02822433333333, "name": "8533e57ed8865da15fcb76bf1f600eec", "lat": 38.899317833333335, "is_reserved": 0, "fusion_lat": 0.0, "bike_id": "8533e57ed8865da15fcb76bf1f600eec", "type": "electric_scooter", "is_disabled": 0, "fusion_lon": 0.0}, {"rental_uris": {"android": "https://dc.lft.to/lastmile_qr_scan", "ios": "https://dc.lft.to/lastmile_qr_scan"}, "lon": -77.06029666666667, "name": "c00c046aa377af9e652d27ee06270fc2", "lat": 38.978860166666664, "is_reserved": 0, "fusion_lat": 0.0, "bike_id": "c00c046aa377af9e652d27ee06270fc2", "type": "electric_bike", "is_disabled": 0, "fusion_lon": 0.0}, {"rental_uris": {"android": "https://dc.lft.to/lastmile_qr_scan", "ios": "https://dc.lft.to/lastmile_qr_scan"}, "lon": -77.03441383333333, "name": "902ad41fa1347e6d776cee1ed8ef9580", "lat": 38.92052, "is_reserved": 0, "fusion_lat": 0.0, "bike_id": "902ad41fa1347e6d776cee1ed8ef9580", "type": "electric_scooter", "is_disabled": 0, "fusion_lon": 0.0}, {"rental_uris": {"android": "https://dc.lft.to/lastmile_qr_scan", "ios": "https://dc.lft.to/lastmile_qr_scan"}, "lon": -77.0180055, "name": "a66fcd8536be5fac41f59ec5c5b411bf", "lat": 38.9204345, "is_reserved": 0, "fusion_lat": 0.0, "bike_id": "a66fcd8536be5fac41f59ec5c5b411bf", "type": "electric_scooter", "is_disabled": 0, "fusion_lon": 0.0}, {"rental_uris": {"android": "https://dc.lft.to/lastmile_qr_scan", "ios": "https://dc.lft.to/lastmile_qr_scan"}, "lon": -77.03243416666666, "name": "b4644ff419cb96e037d133c2d43ee6f3", "lat": 38.9280065, "is_reserved": 0, "fusion_lat": 0.0, "bike_id": "b4644ff419cb96e037d133c2d43ee6f3", "type": "electric_bike", "is_disabled": 0, "fusion_lon": 0.0}, {"rental_uris": {"android": "https://dc.lft.to/lastmile_qr_scan", "ios": "https://dc.lft.to/lastmile_qr_scan"}, "lon": -77.02724066666667, "name": "342f3bcd2014bd153824651279a7521d", "lat": 38.92574233333333, "is_reserved": 0, "fusion_lat": 0.0, "bike_id": "342f3bcd2014bd153824651279a7521d", "type": "electric_scooter", "is_disabled": 0, "fusion_lon": 0.0}, {"rental_uris": {"android": "https://dc.lft.to/lastmile_qr_scan", "ios": "https://dc.lft.to/lastmile_qr_scan"}, "lon": -77.01758266666667, "name": "ae4961f3753882ffcfeb47ab3597b71f", "lat": 38.90256, "is_reserved": 0, "fusion_lat": 0.0, "bike_id": "ae4961f3753882ffcfeb47ab3597b71f", "type": "electric_scooter", "is_disabled": 0, "fusion_lon": 0.0}, {"rental_uris": {"android": "https://dc.lft.to/lastmile_qr_scan", "ios": "https://dc.lft.to/lastmile_qr_scan"}, "lon": -76.99971116666667, "name": "d772525e5268fa9c8114e7962da75975", "lat": 38.9085035, "is_reserved": 0, "fusion_lat": 0.0, "bike_id": "d772525e5268fa9c8114e7962da75975", "type": "electric_scooter", "is_disabled": 0, "fusion_lon": 0.0}, {"rental_uris": {"android": "https://dc.lft.to/lastmile_qr_scan", "ios": "https://dc.lft.to/lastmile_qr_scan"}, "lon": -76.97857266666666, "name": "6717d14575978a85366a5d5108ad7740", "lat": 38.844742333333336, "is_reserved": 0, "fusion_lat": 0.0, "bike_id": "6717d14575978a85366a5d5108ad7740", "type": "electric_bike", "is_disabled": 0, "fusion_lon": 0.0}, {"rental_uris": {"android": "https://dc.lft.to/lastmile_qr_scan", "ios": "https://dc.lft.to/lastmile_qr_scan"}, "lon": -77.0110335, "name": "adea7ae9e778271e45a731793c3d4e1f", "lat": 38.9072715, "is_reserved": 0, "fusion_lat": 0.0, "bike_id": "adea7ae9e778271e45a731793c3d4e1f", "type": "electric_scooter", "is_disabled": 0, "fusion_lon": 0.0}, {"rental_uris": {"android": "https://dc.lft.to/lastmile_qr_scan", "ios": "https://dc.lft.to/lastmile_qr_scan"}, "lon": -77.04472933333334, "name": "829b14148cda38a71a3cc22b87f693b2", "lat": 38.90243016666667, "is_reserved": 0, "fusion_lat": 0.0, "bike_id": "829b14148cda38a71a3cc22b87f693b2", "type": "electric_scooter", "is_disabled": 0, "fusion_lon": 0.0}, {"rental_uris": {"android": "https://dc.lft.to/lastmile_qr_scan", "ios": "https://dc.lft.to/lastmile_qr_scan"}, "lon": -77.03154116666667, "name": "c04cfe8411124f03b3d45bc7c5c7c1e4", "lat": 38.895486, "is_reserved": 0, "fusion_lat": 0.0, "bike_id": "c04cfe8411124f03b3d45bc7c5c7c1e4", "type": "electric_scooter", "is_disabled": 0, "fusion_lon": 0.0}, {"rental_uris": {"android": "https://dc.lft.to/lastmile_qr_scan", "ios": "https://dc.lft.to/lastmile_qr_scan"}, "lon": -76.9667975, "name": "a89ca384c0316557693e278ec152e966", "lat": 38.85601616666667, "is_reserved": 0, "fusion_lat": 0.0, "bike_id": "a89ca384c0316557693e278ec152e966", "type": "electric_scooter", "is_disabled": 0, "fusion_lon": 0.0}, {"rental_uris": {"android": "https://dc.lft.to/lastmile_qr_scan", "ios": "https://dc.lft.to/lastmile_qr_scan"}, "lon": -77.02291583333333, "name": "a5a020cb098f9d931e3c04d22192816c", "lat": 38.89712883333333, "is_reserved": 0, "fusion_lat": 0.0, "bike_id": "a5a020cb098f9d931e3c04d22192816c", "type": "electric_scooter", "is_disabled": 0, "fusion_lon": 0.0}, {"rental_uris": {"android": "https://dc.lft.to/lastmile_qr_scan", "ios": "https://dc.lft.to/lastmile_qr_scan"}, "lon": -77.05023016666667, "name": "7a8379595e46922074497294959de472", "lat": 38.92371133333333, "is_reserved": 0, "fusion_lat": 0.0, "bike_id": "7a8379595e46922074497294959de472", "type": "electric_scooter", "is_disabled": 0, "fusion_lon": 0.0}, {"rental_uris": {"android": "https://dc.lft.to/lastmile_qr_scan", "ios": "https://dc.lft.to/lastmile_qr_scan"}, "lon": -77.02158566666667, "name": "3152be5f2c521c0c9ac869287fae61a8", "lat": 38.914219, "is_reserved": 0, "fusion_lat": 0.0, "bike_id": "3152be5f2c521c0c9ac869287fae61a8", "type": "electric_scooter", "is_disabled": 0, "fusion_lon": 0.0}, {"rental_uris": {"android": "https://dc.lft.to/lastmile_qr_scan", "ios": "https://dc.lft.to/lastmile_qr_scan"}, "lon": -77.02653533333333, "name": "51fa55c4edde6586a6ba94a69a924515", "lat": 38.9258755, "is_reserved": 0, "fusion_lat": 0.0, "bike_id": "51fa55c4edde6586a6ba94a69a924515", "type": "electric_scooter", "is_disabled": 0, "fusion_lon": 0.0}, {"rental_uris": {"android": "https://dc.lft.to/lastmile_qr_scan", "ios": "https://dc.lft.to/lastmile_qr_scan"}, "lon": -76.988397, "name": "0ba6b7463dc02f7ae795b8711b2b66c7", "lat": 38.84277066666667, "is_reserved": 0, "fusion_lat": 0.0, "bike_id": "0ba6b7463dc02f7ae795b8711b2b66c7", "type": "electric_bike", "is_disabled": 0, "fusion_lon": 0.0}, {"rental_uris": {"android": "https://dc.lft.to/lastmile_qr_scan", "ios": "https://dc.lft.to/lastmile_qr_scan"}, "lon": -77.0311985, "name": "8c835fdaefba80b505001b4bc37441b0", "lat": 38.95935583333333, "is_reserved": 0, "fusion_lat": 0.0, "bike_id": "8c835fdaefba80b505001b4bc37441b0", "type": "electric_scooter", "is_disabled": 0, "fusion_lon": 0.0}, {"rental_uris": {"android": "https://dc.lft.to/lastmile_qr_scan", "ios": "https://dc.lft.to/lastmile_qr_scan"}, "lon": -76.99008916666666, "name": "a191ff7af7a2aee295fd599ba491f452", "lat": 38.88606766666667, "is_reserved": 0, "fusion_lat": 0.0, "bike_id": "a191ff7af7a2aee295fd599ba491f452", "type": "electric_scooter", "is_disabled": 0, "fusion_lon": 0.0}, {"rental_uris": {"android": "https://dc.lft.to/lastmile_qr_scan", "ios": "https://dc.lft.to/lastmile_qr_scan"}, "lon": -77.046604, "name": "5cdb2e8560c94b6ed68802a1fbb172b0", "lat": 38.91008, "is_reserved": 0, "fusion_lat": 0.0, "bike_id": "5cdb2e8560c94b6ed68802a1fbb172b0", "type": "electric_scooter", "is_disabled": 0, "fusion_lon": 0.0}, {"rental_uris": {"android": "https://dc.lft.to/lastmile_qr_scan", "ios": "https://dc.lft.to/lastmile_qr_scan"}, "lon": -77.04833716666667, "name": "2608c1e8ef8c0e08ff1d6e169b393e54", "lat": 38.9185615, "is_reserved": 0, "fusion_lat": 0.0, "bike_id": "2608c1e8ef8c0e08ff1d6e169b393e54", "type": "electric_scooter", "is_disabled": 0, "fusion_lon": 0.0}, {"rental_uris": {"android": "https://dc.lft.to/lastmile_qr_scan", "ios": "https://dc.lft.to/lastmile_qr_scan"}, "lon": -77.032335, "name": "f7abed9cc5b29ae23c5b6d7e2bcbc7d4", "lat": 38.901331166666665, "is_reserved": 0, "fusion_lat": 0.0, "bike_id": "f7abed9cc5b29ae23c5b6d7e2bcbc7d4", "type": "electric_scooter", "is_disabled": 0, "fusion_lon": 0.0}, {"rental_uris": {"android": "https://dc.lft.to/lastmile_qr_scan", "ios": "https://dc.lft.to/lastmile_qr_scan"}, "lon": -77.07757533333333, "name": "50b06af34c1b40586fcf02932377eaab", "lat": 38.91170233333333, "is_reserved": 0, "fusion_lat": 0.0, "bike_id": "50b06af34c1b40586fcf02932377eaab", "type": "electric_scooter", "is_disabled": 0, "fusion_lon": 0.0}, {"rental_uris": {"android": "https://dc.lft.to/lastmile_qr_scan", "ios": "https://dc.lft.to/lastmile_qr_scan"}, "lon": -77.02174383333333, "name": "95fc97dd83bc3037aea9268dbbd5b474", "lat": 38.916068, "is_reserved": 0, "fusion_lat": 0.0, "bike_id": "95fc97dd83bc3037aea9268dbbd5b474", "type": "electric_scooter", "is_disabled": 0, "fusion_lon": 0.0}, {"rental_uris": {"android": "https://dc.lft.to/lastmile_qr_scan", "ios": "https://dc.lft.to/lastmile_qr_scan"}, "lon": -77.00705883333333, "name": "f687528ccb6277838c3c2c8598884a0b", "lat": 38.876865, "is_reserved": 0, "fusion_lat": 0.0, "bike_id": "f687528ccb6277838c3c2c8598884a0b", "type": "electric_scooter", "is_disabled": 0, "fusion_lon": 0.0}, {"rental_uris": {"android": "https://dc.lft.to/lastmile_qr_scan", "ios": "https://dc.lft.to/lastmile_qr_scan"}, "lon": -76.9791505, "name": "7c5ca45693a315dc1c3a19ea5064aca2", "lat": 38.92461183333333, "is_reserved": 0, "fusion_lat": 0.0, "bike_id": "7c5ca45693a315dc1c3a19ea5064aca2", "type": "electric_scooter", "is_disabled": 0, "fusion_lon": 0.0}, {"rental_uris": {"android": "https://dc.lft.to/lastmile_qr_scan", "ios": "https://dc.lft.to/lastmile_qr_scan"}, "lon": -77.02794833333333, "name": "5a5bd6581e88662926126b91eee5fd72", "lat": 38.93061333333333, "is_reserved": 0, "fusion_lat": 0.0, "bike_id": "5a5bd6581e88662926126b91eee5fd72", "type": "electric_scooter", "is_disabled": 0, "fusion_lon": 0.0}, {"rental_uris": {"android": "https://dc.lft.to/lastmile_qr_scan", "ios": "https://dc.lft.to/lastmile_qr_scan"}, "lon": -77.07330716666667, "name": "8842c60a9fb33216b4a7ba8b1aff08af", "lat": 38.927270166666666, "is_reserved": 0, "fusion_lat": 0.0, "bike_id": "8842c60a9fb33216b4a7ba8b1aff08af", "type": "electric_bike", "is_disabled": 0, "fusion_lon": 0.0}, {"rental_uris": {"android": "https://dc.lft.to/lastmile_qr_scan", "ios": "https://dc.lft.to/lastmile_qr_scan"}, "lon": -76.985672, "name": "23d1431cce56a70baf281788234ad26e", "lat": 38.866825666666664, "is_reserved": 0, "fusion_lat": 0.0, "bike_id": "23d1431cce56a70baf281788234ad26e", "type": "electric_scooter", "is_disabled": 0, "fusion_lon": 0.0}, {"rental_uris": {"android": "https://dc.lft.to/lastmile_qr_scan", "ios": "https://dc.lft.to/lastmile_qr_scan"}, "lon": -77.02844833333333, "name": "a4de7b9a32e72a95f353af1ea1f5daf0", "lat": 38.927695166666666, "is_reserved": 0, "fusion_lat": 0.0, "bike_id": "a4de7b9a32e72a95f353af1ea1f5daf0", "type": "electric_scooter", "is_disabled": 0, "fusion_lon": 0.0}, {"rental_uris": {"android": "https://dc.lft.to/lastmile_qr_scan", "ios": "https://dc.lft.to/lastmile_qr_scan"}, "lon": -76.97442716666667, "name": "eb0117ea8e67d77c1ca3e15ae4964a9b", "lat": 38.9023985, "is_reserved": 0, "fusion_lat": 0.0, "bike_id": "eb0117ea8e67d77c1ca3e15ae4964a9b", "type": "electric_scooter", "is_disabled": 0, "fusion_lon": 0.0}, {"rental_uris": {"android": "https://dc.lft.to/lastmile_qr_scan", "ios": "https://dc.lft.to/lastmile_qr_scan"}, "lon": -77.01692216666666, "name": "7ffec166fe10407bac92285794e79d97", "lat": 38.902774666666666, "is_reserved": 0, "fusion_lat": 0.0, "bike_id": "7ffec166fe10407bac92285794e79d97", "type": "electric_scooter", "is_disabled": 0, "fusion_lon": 0.0}, {"rental_uris": {"android": "https://dc.lft.to/lastmile_qr_scan", "ios": "https://dc.lft.to/lastmile_qr_scan"}, "lon": -76.96014316666667, "name": "bf2af718660c998ac8dfb584cca157d0", "lat": 38.86934433333333, "is_reserved": 0, "fusion_lat": 0.0, "bike_id": "bf2af718660c998ac8dfb584cca157d0", "type": "electric_scooter", "is_disabled": 0, "fusion_lon": 0.0}, {"rental_uris": {"android": "https://dc.lft.to/lastmile_qr_scan", "ios": "https://dc.lft.to/lastmile_qr_scan"}, "lon": -77.03633416666666, "name": "d4526185a2a8cdc3b453695641990a7b", "lat": 38.91656183333333, "is_reserved": 0, "fusion_lat": 0.0, "bike_id": "d4526185a2a8cdc3b453695641990a7b", "type": "electric_scooter", "is_disabled": 0, "fusion_lon": 0.0}, {"rental_uris": {"android": "https://dc.lft.to/lastmile_qr_scan", "ios": "https://dc.lft.to/lastmile_qr_scan"}, "lon": -77.01022166666667, "name": "02da52f78dd2a19fe37816e3d26b26f5", "lat": 38.908576, "is_reserved": 0, "fusion_lat": 0.0, "bike_id": "02da52f78dd2a19fe37816e3d26b26f5", "type": "electric_scooter", "is_disabled": 0, "fusion_lon": 0.0}, {"rental_uris": {"android": "https://dc.lft.to/lastmile_qr_scan", "ios": "https://dc.lft.to/lastmile_qr_scan"}, "lon": -77.025091, "name": "f4523f654ce1847df35fae6590cec2c5", "lat": 38.9180865, "is_reserved": 0, "fusion_lat": 0.0, "bike_id": "f4523f654ce1847df35fae6590cec2c5", "type": "electric_scooter", "is_disabled": 0, "fusion_lon": 0.0}, {"rental_uris": {"android": "https://dc.lft.to/lastmile_qr_scan", "ios": "https://dc.lft.to/lastmile_qr_scan"}, "lon": -76.9041985, "name": "29c32a2fb4cec1ca68f5c0812d247a54", "lat": 38.94055066666667, "is_reserved": 0, "fusion_lat": 0.0, "bike_id": "29c32a2fb4cec1ca68f5c0812d247a54", "type": "electric_bike", "is_disabled": 0, "fusion_lon": 0.0}, {"rental_uris": {"android": "https://dc.lft.to/lastmile_qr_scan", "ios": "https://dc.lft.to/lastmile_qr_scan"}, "lon": -77.02431483333334, "name": "9a31a1c64a1233355974fcf16460ab6e", "lat": 38.920521, "is_reserved": 0, "fusion_lat": 0.0, "bike_id": "9a31a1c64a1233355974fcf16460ab6e", "type": "electric_scooter", "is_disabled": 0, "fusion_lon": 0.0}, {"rental_uris": {"android": "https://dc.lft.to/lastmile_qr_scan", "ios": "https://dc.lft.to/lastmile_qr_scan"}, "lon": -77.01614416666666, "name": "81137f106315f48edfb533f3881f2752", "lat": 38.90356466666667, "is_reserved": 0, "fusion_lat": 0.0, "bike_id": "81137f106315f48edfb533f3881f2752", "type": "electric_scooter", "is_disabled": 0, "fusion_lon": 0.0}, {"rental_uris": {"android": "https://dc.lft.to/lastmile_qr_scan", "ios": "https://dc.lft.to/lastmile_qr_scan"}, "lon": -77.03957333333334, "name": "28c80828bdae61940f0779715f001d5d", "lat": 38.892438, "is_reserved": 0, "fusion_lat": 0.0, "bike_id": "28c80828bdae61940f0779715f001d5d", "type": "electric_scooter", "is_disabled": 0, "fusion_lon": 0.0}, {"rental_uris": {"android": "https://dc.lft.to/lastmile_qr_scan", "ios": "https://dc.lft.to/lastmile_qr_scan"}, "lon": -77.03841316666667, "name": "83ab9ca33425c0a107b061177268f75a", "lat": 38.903347, "is_reserved": 0, "fusion_lat": 0.0, "bike_id": "83ab9ca33425c0a107b061177268f75a", "type": "electric_scooter", "is_disabled": 0, "fusion_lon": 0.0}, {"rental_uris": {"android": "https://dc.lft.to/lastmile_qr_scan", "ios": "https://dc.lft.to/lastmile_qr_scan"}, "lon": -77.04529516666666, "name": "d1778176798ffe7cde1aacd915bbfd5d", "lat": 38.89473816666667, "is_reserved": 0, "fusion_lat": 0.0, "bike_id": "d1778176798ffe7cde1aacd915bbfd5d", "type": "electric_scooter", "is_disabled": 0, "fusion_lon": 0.0}, {"rental_uris": {"android": "https://dc.lft.to/lastmile_qr_scan", "ios": "https://dc.lft.to/lastmile_qr_scan"}, "lon": -77.0240055, "name": "6eb9cdf30e506e8b8f9f1ec44426b5f5", "lat": 38.8970235, "is_reserved": 0, "fusion_lat": 0.0, "bike_id": "6eb9cdf30e506e8b8f9f1ec44426b5f5", "type": "electric_bike", "is_disabled": 0, "fusion_lon": 0.0}, {"rental_uris": {"android": "https://dc.lft.to/lastmile_qr_scan", "ios": "https://dc.lft.to/lastmile_qr_scan"}, "lon": -77.04089533333334, "name": "074a42f4a681dcb2330347bf8b5f35d1", "lat": 38.91489166666667, "is_reserved": 0, "fusion_lat": 0.0, "bike_id": "074a42f4a681dcb2330347bf8b5f35d1", "type": "electric_scooter", "is_disabled": 0, "fusion_lon": 0.0}, {"rental_uris": {"android": "https://dc.lft.to/lastmile_qr_scan", "ios": "https://dc.lft.to/lastmile_qr_scan"}, "lon": -77.02410133333333, "name": "8979a4969e1b29bfe15eaf0fed767dd3", "lat": 38.892255666666664, "is_reserved": 0, "fusion_lat": 0.0, "bike_id": "8979a4969e1b29bfe15eaf0fed767dd3", "type": "electric_scooter", "is_disabled": 0, "fusion_lon": 0.0}, {"rental_uris": {"android": "https://dc.lft.to/lastmile_qr_scan", "ios": "https://dc.lft.to/lastmile_qr_scan"}, "lon": -77.03673416666666, "name": "de27988946832a94a7ef4eedd60be2d9", "lat": 38.93925933333333, "is_reserved": 0, "fusion_lat": 0.0, "bike_id": "de27988946832a94a7ef4eedd60be2d9", "type": "electric_scooter", "is_disabled": 0, "fusion_lon": 0.0}, {"rental_uris": {"android": "https://dc.lft.to/lastmile_qr_scan", "ios": "https://dc.lft.to/lastmile_qr_scan"}, "lon": -77.0228565, "name": "7d2208068244d4a37f83eaa8aeccc502", "lat": 38.927145833333334, "is_reserved": 0, "fusion_lat": 0.0, "bike_id": "7d2208068244d4a37f83eaa8aeccc502", "type": "electric_scooter", "is_disabled": 0, "fusion_lon": 0.0}, {"rental_uris": {"android": "https://dc.lft.to/lastmile_qr_scan", "ios": "https://dc.lft.to/lastmile_qr_scan"}, "lon": -77.01718983333333, "name": "e64faed1f939d112b372406f3bf5dda4", "lat": 38.879365166666666, "is_reserved": 0, "fusion_lat": 0.0, "bike_id": "e64faed1f939d112b372406f3bf5dda4", "type": "electric_scooter", "is_disabled": 0, "fusion_lon": 0.0}, {"rental_uris": {"android": "https://dc.lft.to/lastmile_qr_scan", "ios": "https://dc.lft.to/lastmile_qr_scan"}, "lon": -77.04400533333333, "name": "276df7c9b7b058c2ffb3d696197b52a9", "lat": 38.8975315, "is_reserved": 0, "fusion_lat": 0.0, "bike_id": "276df7c9b7b058c2ffb3d696197b52a9", "type": "electric_scooter", "is_disabled": 0, "fusion_lon": 0.0}, {"rental_uris": {"android": "https://dc.lft.to/lastmile_qr_scan", "ios": "https://dc.lft.to/lastmile_qr_scan"}, "lon": -77.04585716666666, "name": "1ff52b7ba3f9ee942c22550259a94c06", "lat": 38.92150633333333, "is_reserved": 0, "fusion_lat": 0.0, "bike_id": "1ff52b7ba3f9ee942c22550259a94c06", "type": "electric_scooter", "is_disabled": 0, "fusion_lon": 0.0}, {"rental_uris": {"android": "https://dc.lft.to/lastmile_qr_scan", "ios": "https://dc.lft.to/lastmile_qr_scan"}, "lon": -77.0233655, "name": "9e2f0c4062cfd43356fac70f9d5f0217", "lat": 38.93026833333333, "is_reserved": 0, "fusion_lat": 0.0, "bike_id": "9e2f0c4062cfd43356fac70f9d5f0217", "type": "electric_scooter", "is_disabled": 0, "fusion_lon": 0.0}, {"rental_uris": {"android": "https://dc.lft.to/lastmile_qr_scan", "ios": "https://dc.lft.to/lastmile_qr_scan"}, "lon": -77.03923383333333, "name": "dcf20a166796715c4e96d281bded4d3d", "lat": 38.92181933333333, "is_reserved": 0, "fusion_lat": 0.0, "bike_id": "dcf20a166796715c4e96d281bded4d3d", "type": "electric_scooter", "is_disabled": 0, "fusion_lon": 0.0}, {"rental_uris": {"android": "https://dc.lft.to/lastmile_qr_scan", "ios": "https://dc.lft.to/lastmile_qr_scan"}, "lon": -77.0215415, "name": "1597eb37b82617da6b1c1c11c22682c9", "lat": 38.879408166666664, "is_reserved": 0, "fusion_lat": 0.0, "bike_id": "1597eb37b82617da6b1c1c11c22682c9", "type": "electric_scooter", "is_disabled": 0, "fusion_lon": 0.0}, {"rental_uris": {"android": "https://dc.lft.to/lastmile_qr_scan", "ios": "https://dc.lft.to/lastmile_qr_scan"}, "lon": -77.0337505, "name": "cff7a94493b7a47cabab8457957e6a57", "lat": 38.921653166666665, "is_reserved": 0, "fusion_lat": 0.0, "bike_id": "cff7a94493b7a47cabab8457957e6a57", "type": "electric_scooter", "is_disabled": 0, "fusion_lon": 0.0}, {"rental_uris": {"android": "https://dc.lft.to/lastmile_qr_scan", "ios": "https://dc.lft.to/lastmile_qr_scan"}, "lon": -77.02386616666666, "name": "e83cd433da10a2bbff0a81b1b6ee73b0", "lat": 38.920877, "is_reserved": 0, "fusion_lat": 0.0, "bike_id": "e83cd433da10a2bbff0a81b1b6ee73b0", "type": "electric_scooter", "is_disabled": 0, "fusion_lon": 0.0}, {"rental_uris": {"android": "https://dc.lft.to/lastmile_qr_scan", "ios": "https://dc.lft.to/lastmile_qr_scan"}, "lon": -76.93870566666666, "name": "f8010cb6fd3670ce7cafbd257e577b61", "lat": 38.956303, "is_reserved": 0, "fusion_lat": 0.0, "bike_id": "f8010cb6fd3670ce7cafbd257e577b61", "type": "electric_bike", "is_disabled": 0, "fusion_lon": 0.0}, {"rental_uris": {"android": "https://dc.lft.to/lastmile_qr_scan", "ios": "https://dc.lft.to/lastmile_qr_scan"}, "lon": -77.00406083333333, "name": "55630c80359f7e0d710dde2f6dfd797c", "lat": 38.929164666666665, "is_reserved": 0, "fusion_lat": 0.0, "bike_id": "55630c80359f7e0d710dde2f6dfd797c", "type": "electric_scooter", "is_disabled": 0, "fusion_lon": 0.0}, {"rental_uris": {"android": "https://dc.lft.to/lastmile_qr_scan", "ios": "https://dc.lft.to/lastmile_qr_scan"}, "lon": -77.01211683333334, "name": "b0e587b67be305c833126adf8e6c9b46", "lat": 38.870873333333336, "is_reserved": 0, "fusion_lat": 0.0, "bike_id": "b0e587b67be305c833126adf8e6c9b46", "type": "electric_bike", "is_disabled": 0, "fusion_lon": 0.0}, {"rental_uris": {"android": "https://dc.lft.to/lastmile_qr_scan", "ios": "https://dc.lft.to/lastmile_qr_scan"}, "lon": -76.9963165, "name": "576eff1a2deb0a4cadcd59528f395dd6", "lat": 38.9278235, "is_reserved": 0, "fusion_lat": 0.0, "bike_id": "576eff1a2deb0a4cadcd59528f395dd6", "type": "electric_scooter", "is_disabled": 0, "fusion_lon": 0.0}, {"rental_uris": {"android": "https://dc.lft.to/lastmile_qr_scan", "ios": "https://dc.lft.to/lastmile_qr_scan"}, "lon": -76.987135, "name": "5938514c463eeb1fcd9eb9716cdb2450", "lat": 38.86705716666667, "is_reserved": 0, "fusion_lat": 0.0, "bike_id": "5938514c463eeb1fcd9eb9716cdb2450", "type": "electric_scooter", "is_disabled": 0, "fusion_lon": 0.0}, {"rental_uris": {"android": "https://dc.lft.to/lastmile_qr_scan", "ios": "https://dc.lft.to/lastmile_qr_scan"}, "lon": -77.0945075, "name": "71fb66788f71e7def2cac3663fb16ae4", "lat": 38.80758733333333, "is_reserved": 0, "fusion_lat": 0.0, "bike_id": "71fb66788f71e7def2cac3663fb16ae4", "type": "electric_bike", "is_disabled": 0, "fusion_lon": 0.0}, {"rental_uris": {"android": "https://dc.lft.to/lastmile_qr_scan", "ios": "https://dc.lft.to/lastmile_qr_scan"}, "lon": -77.0316055, "name": "265fc4add66b76fb3db4ef57fcfda388", "lat": 38.90885466666667, "is_reserved": 0, "fusion_lat": 0.0, "bike_id": "265fc4add66b76fb3db4ef57fcfda388", "type": "electric_scooter", "is_disabled": 0, "fusion_lon": 0.0}, {"rental_uris": {"android": "https://dc.lft.to/lastmile_qr_scan", "ios": "https://dc.lft.to/lastmile_qr_scan"}, "lon": -77.03900916666667, "name": "f6fa669b91f7ccfec72ba098ef5d4da8", "lat": 38.92257633333333, "is_reserved": 0, "fusion_lat": 0.0, "bike_id": "f6fa669b91f7ccfec72ba098ef5d4da8", "type": "electric_scooter", "is_disabled": 0, "fusion_lon": 0.0}, {"rental_uris": {"android": "https://dc.lft.to/lastmile_qr_scan", "ios": "https://dc.lft.to/lastmile_qr_scan"}, "lon": -77.023548, "name": "c1ee1870d9580e5e3debc9ecd3012965", "lat": 38.920594, "is_reserved": 0, "fusion_lat": 0.0, "bike_id": "c1ee1870d9580e5e3debc9ecd3012965", "type": "electric_scooter", "is_disabled": 0, "fusion_lon": 0.0}, {"rental_uris": {"android": "https://dc.lft.to/lastmile_qr_scan", "ios": "https://dc.lft.to/lastmile_qr_scan"}, "lon": -77.02335316666667, "name": "fc638b1c2237cbfcc397bf9b7f968472", "lat": 38.91414816666666, "is_reserved": 0, "fusion_lat": 0.0, "bike_id": "fc638b1c2237cbfcc397bf9b7f968472", "type": "electric_scooter", "is_disabled": 0, "fusion_lon": 0.0}, {"rental_uris": {"android": "https://dc.lft.to/lastmile_qr_scan", "ios": "https://dc.lft.to/lastmile_qr_scan"}, "lon": -77.00990816666666, "name": "96d9db2cce7ff109a8b52d3fbd0094c5", "lat": 38.897287, "is_reserved": 0, "fusion_lat": 0.0, "bike_id": "96d9db2cce7ff109a8b52d3fbd0094c5", "type": "electric_scooter", "is_disabled": 0, "fusion_lon": 0.0}, {"rental_uris": {"android": "https://dc.lft.to/lastmile_qr_scan", "ios": "https://dc.lft.to/lastmile_qr_scan"}, "lon": -77.0451705, "name": "5c6562180db39bd0975f944872ac5b9f", "lat": 38.89609266666667, "is_reserved": 0, "fusion_lat": 0.0, "bike_id": "5c6562180db39bd0975f944872ac5b9f", "type": "electric_scooter", "is_disabled": 0, "fusion_lon": 0.0}, {"rental_uris": {"android": "https://dc.lft.to/lastmile_qr_scan", "ios": "https://dc.lft.to/lastmile_qr_scan"}, "lon": -76.97167033333334, "name": "b841df025223ae1926aaf13adc62dad4", "lat": 38.861412, "is_reserved": 0, "fusion_lat": 0.0, "bike_id": "b841df025223ae1926aaf13adc62dad4", "type": "electric_scooter", "is_disabled": 0, "fusion_lon": 0.0}, {"rental_uris": {"android": "https://dc.lft.to/lastmile_qr_scan", "ios": "https://dc.lft.to/lastmile_qr_scan"}, "lon": -77.04215616666667, "name": "a54cc4ab373e8edc982f7b470c87efa9", "lat": 38.9209345, "is_reserved": 0, "fusion_lat": 0.0, "bike_id": "a54cc4ab373e8edc982f7b470c87efa9", "type": "electric_scooter", "is_disabled": 0, "fusion_lon": 0.0}, {"rental_uris": {"android": "https://dc.lft.to/lastmile_qr_scan", "ios": "https://dc.lft.to/lastmile_qr_scan"}, "lon": -77.01505533333334, "name": "66c1e8d8dcb03745eb6bbefa599b9164", "lat": 38.890616333333334, "is_reserved": 0, "fusion_lat": 0.0, "bike_id": "66c1e8d8dcb03745eb6bbefa599b9164", "type": "electric_scooter", "is_disabled": 0, "fusion_lon": 0.0}, {"rental_uris": {"android": "https://dc.lft.to/lastmile_qr_scan", "ios": "https://dc.lft.to/lastmile_qr_scan"}, "lon": -77.0437695, "name": "f630aee9048fe3fdf5cb5b83f877910f", "lat": 38.89226333333333, "is_reserved": 0, "fusion_lat": 0.0, "bike_id": "f630aee9048fe3fdf5cb5b83f877910f", "type": "electric_scooter", "is_disabled": 0, "fusion_lon": 0.0}, {"rental_uris": {"android": "https://dc.lft.to/lastmile_qr_scan", "ios": "https://dc.lft.to/lastmile_qr_scan"}, "lon": -77.026208, "name": "cdf46711beaafe516467eb0019e36b9d", "lat": 38.933459, "is_reserved": 0, "fusion_lat": 0.0, "bike_id": "cdf46711beaafe516467eb0019e36b9d", "type": "electric_scooter", "is_disabled": 0, "fusion_lon": 0.0}, {"rental_uris": {"android": "https://dc.lft.to/lastmile_qr_scan", "ios": "https://dc.lft.to/lastmile_qr_scan"}, "lon": -77.02853066666667, "name": "36bf0529e382a36fdde71699fd192374", "lat": 38.935949666666666, "is_reserved": 0, "fusion_lat": 0.0, "bike_id": "36bf0529e382a36fdde71699fd192374", "type": "electric_scooter", "is_disabled": 0, "fusion_lon": 0.0}, {"rental_uris": {"android": "https://dc.lft.to/lastmile_qr_scan", "ios": "https://dc.lft.to/lastmile_qr_scan"}, "lon": -76.9463945, "name": "1a6a58a6a82124198add952df8a6eba4", "lat": 38.89860733333333, "is_reserved": 0, "fusion_lat": 0.0, "bike_id": "1a6a58a6a82124198add952df8a6eba4", "type": "electric_scooter", "is_disabled": 0, "fusion_lon": 0.0}, {"rental_uris": {"android": "https://dc.lft.to/lastmile_qr_scan", "ios": "https://dc.lft.to/lastmile_qr_scan"}, "lon": -77.04474666666667, "name": "b5517c12e0914f307d4d38d5f50d6a56", "lat": 38.9188625, "is_reserved": 0, "fusion_lat": 0.0, "bike_id": "b5517c12e0914f307d4d38d5f50d6a56", "type": "electric_scooter", "is_disabled": 0, "fusion_lon": 0.0}, {"rental_uris": {"android": "https://dc.lft.to/lastmile_qr_scan", "ios": "https://dc.lft.to/lastmile_qr_scan"}, "lon": -77.02824133333333, "name": "c3468cc457f5d852bbf439b6ffcb0a4a", "lat": 38.89860983333333, "is_reserved": 0, "fusion_lat": 0.0, "bike_id": "c3468cc457f5d852bbf439b6ffcb0a4a", "type": "electric_scooter", "is_disabled": 0, "fusion_lon": 0.0}, {"rental_uris": {"android": "https://dc.lft.to/lastmile_qr_scan", "ios": "https://dc.lft.to/lastmile_qr_scan"}, "lon": -77.031905, "name": "0a4a582c8d290b95e63fa80314f685e7", "lat": 38.921516833333335, "is_reserved": 0, "fusion_lat": 0.0, "bike_id": "0a4a582c8d290b95e63fa80314f685e7", "type": "electric_scooter", "is_disabled": 0, "fusion_lon": 0.0}, {"rental_uris": {"android": "https://dc.lft.to/lastmile_qr_scan", "ios": "https://dc.lft.to/lastmile_qr_scan"}, "lon": -77.00569116666667, "name": "50800cbe60a2390fcff801d381fdd96a", "lat": 38.90577533333333, "is_reserved": 0, "fusion_lat": 0.0, "bike_id": "50800cbe60a2390fcff801d381fdd96a", "type": "electric_scooter", "is_disabled": 0, "fusion_lon": 0.0}, {"rental_uris": {"android": "https://dc.lft.to/lastmile_qr_scan", "ios": "https://dc.lft.to/lastmile_qr_scan"}, "lon": -77.00225666666667, "name": "94791fa397c9e05f4ac8f397675b3cac", "lat": 38.92509833333333, "is_reserved": 0, "fusion_lat": 0.0, "bike_id": "94791fa397c9e05f4ac8f397675b3cac", "type": "electric_scooter", "is_disabled": 0, "fusion_lon": 0.0}, {"rental_uris": {"android": "https://dc.lft.to/lastmile_qr_scan", "ios": "https://dc.lft.to/lastmile_qr_scan"}, "lon": -77.12527383333334, "name": "fd0570edf9ae0eb53e3b3f5874efe5a2", "lat": 39.05631983333333, "is_reserved": 0, "fusion_lat": 0.0, "bike_id": "fd0570edf9ae0eb53e3b3f5874efe5a2", "type": "electric_bike", "is_disabled": 0, "fusion_lon": 0.0}, {"rental_uris": {"android": "https://dc.lft.to/lastmile_qr_scan", "ios": "https://dc.lft.to/lastmile_qr_scan"}, "lon": -77.029911, "name": "53ab62cfded88f525232b969f20f7dfb", "lat": 38.931095, "is_reserved": 0, "fusion_lat": 0.0, "bike_id": "53ab62cfded88f525232b969f20f7dfb", "type": "electric_scooter", "is_disabled": 0, "fusion_lon": 0.0}, {"rental_uris": {"android": "https://dc.lft.to/lastmile_qr_scan", "ios": "https://dc.lft.to/lastmile_qr_scan"}, "lon": -77.011414, "name": "a55101e536abd30afc2793e3f0e40f7e", "lat": 38.90019083333333, "is_reserved": 0, "fusion_lat": 0.0, "bike_id": "a55101e536abd30afc2793e3f0e40f7e", "type": "electric_scooter", "is_disabled": 0, "fusion_lon": 0.0}, {"rental_uris": {"android": "https://dc.lft.to/lastmile_qr_scan", "ios": "https://dc.lft.to/lastmile_qr_scan"}, "lon": -77.0452015, "name": "b78abddb8fa7d97a58c8e5eb0156bca2", "lat": 38.902548333333336, "is_reserved": 0, "fusion_lat": 0.0, "bike_id": "b78abddb8fa7d97a58c8e5eb0156bca2", "type": "electric_scooter", "is_disabled": 0, "fusion_lon": 0.0}, {"rental_uris": {"android": "https://dc.lft.to/lastmile_qr_scan", "ios": "https://dc.lft.to/lastmile_qr_scan"}, "lon": -77.03361466666667, "name": "bfb611e18d3b59ff014d04b893135c6d", "lat": 38.9126345, "is_reserved": 0, "fusion_lat": 0.0, "bike_id": "bfb611e18d3b59ff014d04b893135c6d", "type": "electric_scooter", "is_disabled": 0, "fusion_lon": 0.0}, {"rental_uris": {"android": "https://dc.lft.to/lastmile_qr_scan", "ios": "https://dc.lft.to/lastmile_qr_scan"}, "lon": -76.9733415, "name": "ba046a5a5538b0dbe8e717236daab7ac", "lat": 38.904109166666665, "is_reserved": 0, "fusion_lat": 0.0, "bike_id": "ba046a5a5538b0dbe8e717236daab7ac", "type": "electric_scooter", "is_disabled": 0, "fusion_lon": 0.0}, {"rental_uris": {"android": "https://dc.lft.to/lastmile_qr_scan", "ios": "https://dc.lft.to/lastmile_qr_scan"}, "lon": -77.05915633333333, "name": "f485f51c25da97b8b8790b56bcf94c32", "lat": 38.904574833333335, "is_reserved": 0, "fusion_lat": 0.0, "bike_id": "f485f51c25da97b8b8790b56bcf94c32", "type": "electric_scooter", "is_disabled": 0, "fusion_lon": 0.0}, {"rental_uris": {"android": "https://dc.lft.to/lastmile_qr_scan", "ios": "https://dc.lft.to/lastmile_qr_scan"}, "lon": -77.06124183333333, "name": "c1d8b72877da4d082600465114cd8914", "lat": 38.904865666666666, "is_reserved": 0, "fusion_lat": 0.0, "bike_id": "c1d8b72877da4d082600465114cd8914", "type": "electric_scooter", "is_disabled": 0, "fusion_lon": 0.0}, {"rental_uris": {"android": "https://dc.lft.to/lastmile_qr_scan", "ios": "https://dc.lft.to/lastmile_qr_scan"}, "lon": -77.0386215, "name": "771c2fd1c74ba5e803cb0e3fe80a9fa0", "lat": 38.90785916666667, "is_reserved": 0, "fusion_lat": 0.0, "bike_id": "771c2fd1c74ba5e803cb0e3fe80a9fa0", "type": "electric_scooter", "is_disabled": 0, "fusion_lon": 0.0}, {"rental_uris": {"android": "https://dc.lft.to/lastmile_qr_scan", "ios": "https://dc.lft.to/lastmile_qr_scan"}, "lon": -76.99484833333334, "name": "2b67dd489ea13f4a34efe276b3106698", "lat": 38.9011145, "is_reserved": 0, "fusion_lat": 0.0, "bike_id": "2b67dd489ea13f4a34efe276b3106698", "type": "electric_scooter", "is_disabled": 0, "fusion_lon": 0.0}, {"rental_uris": {"android": "https://dc.lft.to/lastmile_qr_scan", "ios": "https://dc.lft.to/lastmile_qr_scan"}, "lon": -77.016609, "name": "77e636f497a5c109bff7deb3d7d3785f", "lat": 38.9005905, "is_reserved": 0, "fusion_lat": 0.0, "bike_id": "77e636f497a5c109bff7deb3d7d3785f", "type": "electric_scooter", "is_disabled": 0, "fusion_lon": 0.0}, {"rental_uris": {"android": "https://dc.lft.to/lastmile_qr_scan", "ios": "https://dc.lft.to/lastmile_qr_scan"}, "lon": -77.034277, "name": "6d30cd4ef4544c32ad4b84a5ad3840fc", "lat": 38.93331833333333, "is_reserved": 0, "fusion_lat": 0.0, "bike_id": "6d30cd4ef4544c32ad4b84a5ad3840fc", "type": "electric_scooter", "is_disabled": 0, "fusion_lon": 0.0}, {"rental_uris": {"android": "https://dc.lft.to/lastmile_qr_scan", "ios": "https://dc.lft.to/lastmile_qr_scan"}, "lon": -77.12734966666666, "name": "e4f303151065041e24e8bfdc64c39c0f", "lat": 38.89573083333333, "is_reserved": 0, "fusion_lat": 0.0, "bike_id": "e4f303151065041e24e8bfdc64c39c0f", "type": "electric_bike", "is_disabled": 0, "fusion_lon": 0.0}, {"rental_uris": {"android": "https://dc.lft.to/lastmile_qr_scan", "ios": "https://dc.lft.to/lastmile_qr_scan"}, "lon": -76.9737365, "name": "a9b15aeaabf0fb86210cea8d4f5135dc", "lat": 38.857422166666666, "is_reserved": 0, "fusion_lat": 0.0, "bike_id": "a9b15aeaabf0fb86210cea8d4f5135dc", "type": "electric_scooter", "is_disabled": 0, "fusion_lon": 0.0}, {"rental_uris": {"android": "https://dc.lft.to/lastmile_qr_scan", "ios": "https://dc.lft.to/lastmile_qr_scan"}, "lon": -77.0484395, "name": "a43394de5db36f203d97131f7c4d6735", "lat": 38.916573166666666, "is_reserved": 0, "fusion_lat": 0.0, "bike_id": "a43394de5db36f203d97131f7c4d6735", "type": "electric_scooter", "is_disabled": 0, "fusion_lon": 0.0}, {"rental_uris": {"android": "https://dc.lft.to/lastmile_qr_scan", "ios": "https://dc.lft.to/lastmile_qr_scan"}, "lon": -77.02943533333334, "name": "558579502eecaa8d4d55647c1c6fec00", "lat": 38.905056, "is_reserved": 0, "fusion_lat": 0.0, "bike_id": "558579502eecaa8d4d55647c1c6fec00", "type": "electric_scooter", "is_disabled": 0, "fusion_lon": 0.0}, {"rental_uris": {"android": "https://dc.lft.to/lastmile_qr_scan", "ios": "https://dc.lft.to/lastmile_qr_scan"}, "lon": -77.0312725, "name": "7ad9196ed724e86621eaf3b349f41632", "lat": 38.91708083333333, "is_reserved": 0, "fusion_lat": 0.0, "bike_id": "7ad9196ed724e86621eaf3b349f41632", "type": "electric_scooter", "is_disabled": 0, "fusion_lon": 0.0}, {"rental_uris": {"android": "https://dc.lft.to/lastmile_qr_scan", "ios": "https://dc.lft.to/lastmile_qr_scan"}, "lon": -77.02199766666666, "name": "15793f858f599bd3a05e72affef46d79", "lat": 38.919833, "is_reserved": 0, "fusion_lat": 0.0, "bike_id": "15793f858f599bd3a05e72affef46d79", "type": "electric_scooter", "is_disabled": 0, "fusion_lon": 0.0}, {"rental_uris": {"android": "https://dc.lft.to/lastmile_qr_scan", "ios": "https://dc.lft.to/lastmile_qr_scan"}, "lon": -77.0241055, "name": "aa02811708190a6997bf86908eede9ef", "lat": 38.90852866666667, "is_reserved": 0, "fusion_lat": 0.0, "bike_id": "aa02811708190a6997bf86908eede9ef", "type": "electric_scooter", "is_disabled": 0, "fusion_lon": 0.0}, {"rental_uris": {"android": "https://dc.lft.to/lastmile_qr_scan", "ios": "https://dc.lft.to/lastmile_qr_scan"}, "lon": -77.01422833333334, "name": "460b35b87f3b55971477ba4628219300", "lat": 38.97227066666667, "is_reserved": 0, "fusion_lat": 0.0, "bike_id": "460b35b87f3b55971477ba4628219300", "type": "electric_bike", "is_disabled": 0, "fusion_lon": 0.0}, {"rental_uris": {"android": "https://dc.lft.to/lastmile_qr_scan", "ios": "https://dc.lft.to/lastmile_qr_scan"}, "lon": -76.98393616666667, "name": "1d67d6d5812081f33e39d05d61295bc5", "lat": 38.86670733333333, "is_reserved": 0, "fusion_lat": 0.0, "bike_id": "1d67d6d5812081f33e39d05d61295bc5", "type": "electric_scooter", "is_disabled": 0, "fusion_lon": 0.0}, {"rental_uris": {"android": "https://dc.lft.to/lastmile_qr_scan", "ios": "https://dc.lft.to/lastmile_qr_scan"}, "lon": -77.05468733333333, "name": "c93145ed6c81e4c73af40b3b05921d10", "lat": 38.89671116666667, "is_reserved": 0, "fusion_lat": 0.0, "bike_id": "c93145ed6c81e4c73af40b3b05921d10", "type": "electric_scooter", "is_disabled": 0, "fusion_lon": 0.0}, {"rental_uris": {"android": "https://dc.lft.to/lastmile_qr_scan", "ios": "https://dc.lft.to/lastmile_qr_scan"}, "lon": -77.03343083333333, "name": "23001b854cf9cb8730ab4188cd78708a", "lat": 38.93516066666667, "is_reserved": 0, "fusion_lat": 0.0, "bike_id": "23001b854cf9cb8730ab4188cd78708a", "type": "electric_scooter", "is_disabled": 0, "fusion_lon": 0.0}, {"rental_uris": {"android": "https://dc.lft.to/lastmile_qr_scan", "ios": "https://dc.lft.to/lastmile_qr_scan"}, "lon": -76.985447, "name": "bfc1da5c8b7ba551c9c59afe2728b01c", "lat": 38.866900666666666, "is_reserved": 0, "fusion_lat": 0.0, "bike_id": "bfc1da5c8b7ba551c9c59afe2728b01c", "type": "electric_scooter", "is_disabled": 0, "fusion_lon": 0.0}, {"rental_uris": {"android": "https://dc.lft.to/lastmile_qr_scan", "ios": "https://dc.lft.to/lastmile_qr_scan"}, "lon": -77.02175783333334, "name": "10b8e1384fd61664d24c361a8483a292", "lat": 38.91042483333333, "is_reserved": 0, "fusion_lat": 0.0, "bike_id": "10b8e1384fd61664d24c361a8483a292", "type": "electric_scooter", "is_disabled": 0, "fusion_lon": 0.0}, {"rental_uris": {"android": "https://dc.lft.to/lastmile_qr_scan", "ios": "https://dc.lft.to/lastmile_qr_scan"}, "lon": -76.9924765, "name": "83e2f89f0505804bddd28f34b9f18d66", "lat": 38.794694166666666, "is_reserved": 0, "fusion_lat": 0.0, "bike_id": "83e2f89f0505804bddd28f34b9f18d66", "type": "electric_bike", "is_disabled": 0, "fusion_lon": 0.0}, {"rental_uris": {"android": "https://dc.lft.to/lastmile_qr_scan", "ios": "https://dc.lft.to/lastmile_qr_scan"}, "lon": -77.00933183333333, "name": "83a933c376fdeb3b44081f0731fc74a0", "lat": 38.896035, "is_reserved": 0, "fusion_lat": 0.0, "bike_id": "83a933c376fdeb3b44081f0731fc74a0", "type": "electric_scooter", "is_disabled": 0, "fusion_lon": 0.0}, {"rental_uris": {"android": "https://dc.lft.to/lastmile_qr_scan", "ios": "https://dc.lft.to/lastmile_qr_scan"}, "lon": -77.03462916666666, "name": "616d9202e328ed1cbae968608a696175", "lat": 38.90639616666667, "is_reserved": 0, "fusion_lat": 0.0, "bike_id": "616d9202e328ed1cbae968608a696175", "type": "electric_scooter", "is_disabled": 0, "fusion_lon": 0.0}, {"rental_uris": {"android": "https://dc.lft.to/lastmile_qr_scan", "ios": "https://dc.lft.to/lastmile_qr_scan"}, "lon": -77.07702183333333, "name": "d65ed15819496d8e258853b947d03830", "lat": 38.943842833333335, "is_reserved": 0, "fusion_lat": 0.0, "bike_id": "d65ed15819496d8e258853b947d03830", "type": "electric_scooter", "is_disabled": 0, "fusion_lon": 0.0}, {"rental_uris": {"android": "https://dc.lft.to/lastmile_qr_scan", "ios": "https://dc.lft.to/lastmile_qr_scan"}, "lon": -77.01598766666666, "name": "752af3a4986ea6ce3645f270b895f5ed", "lat": 38.899952666666664, "is_reserved": 0, "fusion_lat": 0.0, "bike_id": "752af3a4986ea6ce3645f270b895f5ed", "type": "electric_scooter", "is_disabled": 0, "fusion_lon": 0.0}, {"rental_uris": {"android": "https://dc.lft.to/lastmile_qr_scan", "ios": "https://dc.lft.to/lastmile_qr_scan"}, "lon": -77.03569283333333, "name": "7fe09eb5de05ef994c50cd32047114e7", "lat": 38.901426666666666, "is_reserved": 0, "fusion_lat": 0.0, "bike_id": "7fe09eb5de05ef994c50cd32047114e7", "type": "electric_scooter", "is_disabled": 0, "fusion_lon": 0.0}, {"rental_uris": {"android": "https://dc.lft.to/lastmile_qr_scan", "ios": "https://dc.lft.to/lastmile_qr_scan"}, "lon": -77.02092983333333, "name": "3d560f23abfbd93b81cfb45d5d3b33ae", "lat": 38.901975166666666, "is_reserved": 0, "fusion_lat": 0.0, "bike_id": "3d560f23abfbd93b81cfb45d5d3b33ae", "type": "electric_scooter", "is_disabled": 0, "fusion_lon": 0.0}, {"rental_uris": {"android": "https://dc.lft.to/lastmile_qr_scan", "ios": "https://dc.lft.to/lastmile_qr_scan"}, "lon": -77.03623583333334, "name": "21040145f84366043b59519b1cabc3fb", "lat": 38.93679483333333, "is_reserved": 0, "fusion_lat": 0.0, "bike_id": "21040145f84366043b59519b1cabc3fb", "type": "electric_scooter", "is_disabled": 0, "fusion_lon": 0.0}, {"rental_uris": {"android": "https://dc.lft.to/lastmile_qr_scan", "ios": "https://dc.lft.to/lastmile_qr_scan"}, "lon": -77.05467916666667, "name": "57b44f5e4d82ae8e90484263093fe645", "lat": 38.90868616666667, "is_reserved": 0, "fusion_lat": 0.0, "bike_id": "57b44f5e4d82ae8e90484263093fe645", "type": "electric_scooter", "is_disabled": 0, "fusion_lon": 0.0}, {"rental_uris": {"android": "https://dc.lft.to/lastmile_qr_scan", "ios": "https://dc.lft.to/lastmile_qr_scan"}, "lon": -77.004237, "name": "da51d5a584b0c9aaa9ce8918646ccf50", "lat": 38.877194, "is_reserved": 0, "fusion_lat": 0.0, "bike_id": "da51d5a584b0c9aaa9ce8918646ccf50", "type": "electric_scooter", "is_disabled": 0, "fusion_lon": 0.0}, {"rental_uris": {"android": "https://dc.lft.to/lastmile_qr_scan", "ios": "https://dc.lft.to/lastmile_qr_scan"}, "lon": -77.03575016666667, "name": "bcd168780fc7a87c8eb4f9672f0d81f0", "lat": 38.909634, "is_reserved": 0, "fusion_lat": 0.0, "bike_id": "bcd168780fc7a87c8eb4f9672f0d81f0", "type": "electric_scooter", "is_disabled": 0, "fusion_lon": 0.0}, {"rental_uris": {"android": "https://dc.lft.to/lastmile_qr_scan", "ios": "https://dc.lft.to/lastmile_qr_scan"}, "lon": -77.09162316666666, "name": "bf56a77ed6ce8c8794bdfe5e8e3ed728", "lat": 38.93965383333333, "is_reserved": 0, "fusion_lat": 0.0, "bike_id": "bf56a77ed6ce8c8794bdfe5e8e3ed728", "type": "electric_scooter", "is_disabled": 0, "fusion_lon": 0.0}, {"rental_uris": {"android": "https://dc.lft.to/lastmile_qr_scan", "ios": "https://dc.lft.to/lastmile_qr_scan"}, "lon": -77.00536733333334, "name": "e5bf5d06ff5459b73164e14b04a3ee2f", "lat": 38.912675166666666, "is_reserved": 0, "fusion_lat": 0.0, "bike_id": "e5bf5d06ff5459b73164e14b04a3ee2f", "type": "electric_scooter", "is_disabled": 0, "fusion_lon": 0.0}, {"rental_uris": {"android": "https://dc.lft.to/lastmile_qr_scan", "ios": "https://dc.lft.to/lastmile_qr_scan"}, "lon": -77.05158566666667, "name": "afc68c8a12ea5731e3049fbc235288fc", "lat": 38.8975565, "is_reserved": 0, "fusion_lat": 0.0, "bike_id": "afc68c8a12ea5731e3049fbc235288fc", "type": "electric_scooter", "is_disabled": 0, "fusion_lon": 0.0}, {"rental_uris": {"android": "https://dc.lft.to/lastmile_qr_scan", "ios": "https://dc.lft.to/lastmile_qr_scan"}, "lon": -77.00925466666666, "name": "fc6af3d619ba478b58542fafd94bd0fd", "lat": 38.8964865, "is_reserved": 0, "fusion_lat": 0.0, "bike_id": "fc6af3d619ba478b58542fafd94bd0fd", "type": "electric_scooter", "is_disabled": 0, "fusion_lon": 0.0}, {"rental_uris": {"android": "https://dc.lft.to/lastmile_qr_scan", "ios": "https://dc.lft.to/lastmile_qr_scan"}, "lon": -76.985733, "name": "0913ae5f052a5ac75fc0a5b83688f867", "lat": 38.866832333333335, "is_reserved": 0, "fusion_lat": 0.0, "bike_id": "0913ae5f052a5ac75fc0a5b83688f867", "type": "electric_scooter", "is_disabled": 0, "fusion_lon": 0.0}, {"rental_uris": {"android": "https://dc.lft.to/lastmile_qr_scan", "ios": "https://dc.lft.to/lastmile_qr_scan"}, "lon": -76.9797865, "name": "f65f9f837de6aaae6f46d5f97bdeb059", "lat": 38.89749166666667, "is_reserved": 0, "fusion_lat": 0.0, "bike_id": "f65f9f837de6aaae6f46d5f97bdeb059", "type": "electric_scooter", "is_disabled": 0, "fusion_lon": 0.0}, {"rental_uris": {"android": "https://dc.lft.to/lastmile_qr_scan", "ios": "https://dc.lft.to/lastmile_qr_scan"}, "lon": -77.0451215, "name": "a2ad6fdbb1ea79aee54cae0f81b796fb", "lat": 38.89224083333333, "is_reserved": 0, "fusion_lat": 0.0, "bike_id": "a2ad6fdbb1ea79aee54cae0f81b796fb", "type": "electric_scooter", "is_disabled": 0, "fusion_lon": 0.0}, {"rental_uris": {"android": "https://dc.lft.to/lastmile_qr_scan", "ios": "https://dc.lft.to/lastmile_qr_scan"}, "lon": -77.03278683333333, "name": "178ab0ff245acef5edd7290725b59b65", "lat": 38.940974833333335, "is_reserved": 0, "fusion_lat": 0.0, "bike_id": "178ab0ff245acef5edd7290725b59b65", "type": "electric_scooter", "is_disabled": 0, "fusion_lon": 0.0}, {"rental_uris": {"android": "https://dc.lft.to/lastmile_qr_scan", "ios": "https://dc.lft.to/lastmile_qr_scan"}, "lon": -77.03777066666666, "name": "f0d5e4c1085a33f5f9d4a2f1ae2941aa", "lat": 38.93607316666667, "is_reserved": 0, "fusion_lat": 0.0, "bike_id": "f0d5e4c1085a33f5f9d4a2f1ae2941aa", "type": "electric_scooter", "is_disabled": 0, "fusion_lon": 0.0}, {"rental_uris": {"android": "https://dc.lft.to/lastmile_qr_scan", "ios": "https://dc.lft.to/lastmile_qr_scan"}, "lon": -77.03633566666667, "name": "3efd736ed40e234891f6b14bc1c0b8f8", "lat": 38.930717, "is_reserved": 0, "fusion_lat": 0.0, "bike_id": "3efd736ed40e234891f6b14bc1c0b8f8", "type": "electric_scooter", "is_disabled": 0, "fusion_lon": 0.0}, {"rental_uris": {"android": "https://dc.lft.to/lastmile_qr_scan", "ios": "https://dc.lft.to/lastmile_qr_scan"}, "lon": -76.98724366666667, "name": "6c6d6ed55c7a8c6317efc98e01c0663a", "lat": 38.8559965, "is_reserved": 0, "fusion_lat": 0.0, "bike_id": "6c6d6ed55c7a8c6317efc98e01c0663a", "type": "electric_scooter", "is_disabled": 0, "fusion_lon": 0.0}, {"rental_uris": {"android": "https://dc.lft.to/lastmile_qr_scan", "ios": "https://dc.lft.to/lastmile_qr_scan"}, "lon": -77.034951, "name": "5e9831d624568cdb5a67d8f392e45b1b", "lat": 38.921514, "is_reserved": 0, "fusion_lat": 0.0, "bike_id": "5e9831d624568cdb5a67d8f392e45b1b", "type": "electric_scooter", "is_disabled": 0, "fusion_lon": 0.0}, {"rental_uris": {"android": "https://dc.lft.to/lastmile_qr_scan", "ios": "https://dc.lft.to/lastmile_qr_scan"}, "lon": -77.0057615, "name": "804ad312a1ba52ffe1a2679938761816", "lat": 38.87561566666667, "is_reserved": 0, "fusion_lat": 0.0, "bike_id": "804ad312a1ba52ffe1a2679938761816", "type": "electric_scooter", "is_disabled": 0, "fusion_lon": 0.0}, {"rental_uris": {"android": "https://dc.lft.to/lastmile_qr_scan", "ios": "https://dc.lft.to/lastmile_qr_scan"}, "lon": -77.017616, "name": "a4c7412df145c20b8b8282465642db9d", "lat": 38.90259783333333, "is_reserved": 0, "fusion_lat": 0.0, "bike_id": "a4c7412df145c20b8b8282465642db9d", "type": "electric_scooter", "is_disabled": 0, "fusion_lon": 0.0}, {"rental_uris": {"android": "https://dc.lft.to/lastmile_qr_scan", "ios": "https://dc.lft.to/lastmile_qr_scan"}, "lon": -77.032836, "name": "e0354c66e040a285f4045371804b27ec", "lat": 38.920584833333336, "is_reserved": 0, "fusion_lat": 0.0, "bike_id": "e0354c66e040a285f4045371804b27ec", "type": "electric_scooter", "is_disabled": 0, "fusion_lon": 0.0}, {"rental_uris": {"android": "https://dc.lft.to/lastmile_qr_scan", "ios": "https://dc.lft.to/lastmile_qr_scan"}, "lon": -77.02677216666666, "name": "33ccc49306fc88c6054c9ce9f25d1d09", "lat": 38.897538833333336, "is_reserved": 0, "fusion_lat": 0.0, "bike_id": "33ccc49306fc88c6054c9ce9f25d1d09", "type": "electric_scooter", "is_disabled": 0, "fusion_lon": 0.0}, {"rental_uris": {"android": "https://dc.lft.to/lastmile_qr_scan", "ios": "https://dc.lft.to/lastmile_qr_scan"}, "lon": -77.02958033333333, "name": "10bc83bde49144c1444b8b5eda9215e0", "lat": 38.90873033333333, "is_reserved": 0, "fusion_lat": 0.0, "bike_id": "10bc83bde49144c1444b8b5eda9215e0", "type": "electric_scooter", "is_disabled": 0, "fusion_lon": 0.0},