{"data": {"bikes": [{"is_disabled": 0, "is_reserved": 0, "fusion_lat": 0.0, "lat": 38.92787233333333, "fusion_lon": 0.0, "rental_uris": {"ios": "https://dc.lft.to/lastmile_qr_scan", "android": "https://dc.lft.to/lastmile_qr_scan"}, "lon": -77.05264733333334, "bike_id": "049bbb2316eab1683d70d1a6e7b71fab", "type": "electric_scooter", "name": "049bbb2316eab1683d70d1a6e7b71fab"}, {"is_disabled": 0, "is_reserved": 0, "fusion_lat": 0.0, "lat": 38.906776, "fusion_lon": 0.0, "rental_uris": {"ios": "https://dc.lft.to/lastmile_qr_scan", "android": "https://dc.lft.to/lastmile_qr_scan"}, "lon": -77.02705116666667, "bike_id": "e4e241a0859758ce92f6fb471e39b00e", "type": "electric_scooter", "name": "e4e241a0859758ce92f6fb471e39b00e"}, {"is_disabled": 0, "is_reserved": 0, "fusion_lat": 0.0, "lat": 38.936912166666666, "fusion_lon": 0.0, "rental_uris": {"ios": "https://dc.lft.to/lastmile_qr_scan", "android": "https://dc.lft.to/lastmile_qr_scan"}, "lon": -77.0328095, "bike_id": "5bc029b2bf09fdfd93729f1658d96706", "type": "electric_scooter", "name": "5bc029b2bf09fdfd93729f1658d96706"}, {"is_disabled": 0, "is_reserved": 0, "fusion_lat": 0.0, "lat": 38.926156666666664, "fusion_lon": 0.0, "rental_uris": {"ios": "https://dc.lft.to/lastmile_qr_scan", "android": "https://dc.lft.to/lastmile_qr_scan"}, "lon": -77.02266416666667, "bike_id": "db9426cc17c2ccf70ab5fba0001d1de2", "type": "electric_scooter", "name": "db9426cc17c2ccf70ab5fba0001d1de2"}, {"is_disabled": 0, "is_reserved": 0, "fusion_lat": 0.0, "lat": 38.942913, "fusion_lon": 0.0, "rental_uris": {"ios": "https://dc.lft.to/lastmile_qr_scan", "android": "https://dc.lft.to/lastmile_qr_scan"}, "lon": -77.07703183333334, "bike_id": "492b97a1727322817db7fef2136a67b5", "type": "electric_scooter", "name": "492b97a1727322817db7fef2136a67b5"}, {"is_disabled": 0, "is_reserved": 0, "fusion_lat": 0.0, "lat": 38.96773, "fusion_lon": 0.0, "rental_uris": {"ios": "https://dc.lft.to/lastmile_qr_scan", "android": "https://dc.lft.to/lastmile_qr_scan"}, "lon": -77.03335866666667, "bike_id": "cb06d953d89757018f6159046aaa4081", "type": "electric_scooter", "name": "cb06d953d89757018f6159046aaa4081"}, {"is_disabled": 0, "is_reserved": 0, "fusion_lat": 0.0, "lat": 38.916214333333336, "fusion_lon": 0.0, "rental_uris": {"ios": "https://dc.lft.to/lastmile_qr_scan", "android": "https://dc.lft.to/lastmile_qr_scan"}, "lon": -77.05067716666667, "bike_id": "5422d8ac525b06a5c0606c6112034c70", "type": "electric_scooter", "name": "5422d8ac525b06a5c0606c6112034c70"}, {"is_disabled": 0, "is_reserved": 0, "fusion_lat": 0.0, "lat": 38.92515316666667, "fusion_lon": 0.0, "rental_uris": {"ios": "https://dc.lft.to/lastmile_qr_scan", "android": "https://dc.lft.to/lastmile_qr_scan"}, "lon": -77.02127416666667, "bike_id": "3e0a50b6fbba08aa4cde91b3c43a900b", "type": "electric_scooter", "name": "3e0a50b6fbba08aa4cde91b3c43a900b"}, {"is_disabled": 0, "is_reserved": 0, "fusion_lat": 0.0, "lat": 38.93641733333333, "fusion_lon": 0.0, "rental_uris": {"ios": "https://dc.lft.to/lastmile_qr_scan", "android": "https://dc.lft.to/lastmile_qr_scan"}, "lon": -77.03695116666667, "bike_id": "163058c67bcf8ec27f9809037ace6a37", "type": "electric_scooter", "name": "163058c67bcf8ec27f9809037ace6a37"}, {"is_disabled": 0, "is_reserved": 0, "fusion_lat": 0.0, "lat": 38.891990166666666, "fusion_lon": 0.0, "rental_uris": {"ios": "https://dc.lft.to/lastmile_qr_scan", "android": "https://dc.lft.to/lastmile_qr_scan"}, "lon": -77.0438805, "bike_id": "69407cc1c4708d728168c889a91b2651", "type": "electric_scooter", "name": "69407cc1c4708d728168c889a91b2651"}, {"is_disabled": 0, "is_reserved": 0, "fusion_lat": 0.0, "lat": 38.9215925, "fusion_lon": 0.0, "rental_uris": {"ios": "https://dc.lft.to/lastmile_qr_scan", "android": "https://dc.lft.to/lastmile_qr_scan"}, "lon": -77.03387433333333, "bike_id": "abaf7bdc3c28b0a21ca45d08e7ad1756", "type": "electric_scooter", "name": "abaf7bdc3c28b0a21ca45d08e7ad1756"}, {"is_disabled": 0, "is_reserved": 0, "fusion_lat": 0.0, "lat": 38.9008285, "fusion_lon": 0.0, "rental_uris": {"ios": "https://dc.lft.to/lastmile_qr_scan", "android": "https://dc.lft.to/lastmile_qr_scan"}, "lon": -77.047675, "bike_id": "fecba7566b98791f0b773b29e513effb", "type": "electric_scooter", "name": "fecba7566b98791f0b773b29e513effb"}, {"is_disabled": 0, "is_reserved": 0, "fusion_lat": 0.0, "lat": 38.900169166666664, "fusion_lon": 0.0, "rental_uris": {"ios": "https://dc.lft.to/lastmile_qr_scan", "android": "https://dc.lft.to/lastmile_qr_scan"}, "lon": -77.00213516666666, "bike_id": "119aac46568cf9a300fbddabcd727c77", "type": "electric_scooter", "name": "119aac46568cf9a300fbddabcd727c77"}, {"is_disabled": 0, "is_reserved": 0, "fusion_lat": 0.0, "lat": 38.91774766666666, "fusion_lon": 0.0, "rental_uris": {"ios": "https://dc.lft.to/lastmile_qr_scan", "android": "https://dc.lft.to/lastmile_qr_scan"}, "lon": -77.0295605, "bike_id": "643319ed71619b099b16da06064c0467", "type": "electric_scooter", "name": "643319ed71619b099b16da06064c0467"}, {"is_disabled": 0, "is_reserved": 0, "fusion_lat": 0.0, "lat": 38.91806316666667, "fusion_lon": 0.0, "rental_uris": {"ios": "https://dc.lft.to/lastmile_qr_scan", "android": "https://dc.lft.to/lastmile_qr_scan"}, "lon": -77.0249325, "bike_id": "0d9749412c3e3d4fe3d82e7d57358a21", "type": "electric_scooter", "name": "0d9749412c3e3d4fe3d82e7d57358a21"}, {"is_disabled": 0, "is_reserved": 0, "fusion_lat": 0.0, "lat": 38.912564333333336, "fusion_lon": 0.0, "rental_uris": {"ios": "https://dc.lft.to/lastmile_qr_scan", "android": "https://dc.lft.to/lastmile_qr_scan"}, "lon": -77.0382725, "bike_id": "6f4c9ff972a373ffde20081d8d0ed77a", "type": "electric_scooter", "name": "6f4c9ff972a373ffde20081d8d0ed77a"}, {"is_disabled": 0, "is_reserved": 0, "fusion_lat": 0.0, "lat": 38.896107, "fusion_lon": 0.0, "rental_uris": {"ios": "https://dc.lft.to/lastmile_qr_scan", "android": "https://dc.lft.to/lastmile_qr_scan"}, "lon": -77.044977, "bike_id": "f6d0e60789470fb3918e8ac47ecc3c65", "type": "electric_scooter", "name": "f6d0e60789470fb3918e8ac47ecc3c65"}, {"is_disabled": 0, "is_reserved": 0, "fusion_lat": 0.0, "lat": 38.90004066666667, "fusion_lon": 0.0, "rental_uris": {"ios": "https://dc.lft.to/lastmile_qr_scan", "android": "https://dc.lft.to/lastmile_qr_scan"}, "lon": -77.02716283333334, "bike_id": "bedea1b1fc53ebc4d8ea53f240db1390", "type": "electric_scooter", "name": "bedea1b1fc53ebc4d8ea53f240db1390"}, {"is_disabled": 0, "is_reserved": 0, "fusion_lat": 0.0, "lat": 38.90523566666667, "fusion_lon": 0.0, "rental_uris": {"ios": "https://dc.lft.to/lastmile_qr_scan", "android": "https://dc.lft.to/lastmile_qr_scan"}, "lon": -77.048536, "bike_id": "9c62ea0eb9098176d59b84abe55d7702", "type": "electric_scooter", "name": "9c62ea0eb9098176d59b84abe55d7702"}, {"is_disabled": 0, "is_reserved": 0, "fusion_lat": 0.0, "lat": 38.912107166666665, "fusion_lon": 0.0, "rental_uris": {"ios": "https://dc.lft.to/lastmile_qr_scan", "android": "https://dc.lft.to/lastmile_qr_scan"}, "lon": -77.07591133333334, "bike_id": "787b58457370bb1c0820a56d12835cf2", "type": "electric_scooter", "name": "787b58457370bb1c0820a56d12835cf2"}, {"is_disabled": 0, "is_reserved": 0, "fusion_lat": 0.0, "lat": 38.9210545, "fusion_lon": 0.0, "rental_uris": {"ios": "https://dc.lft.to/lastmile_qr_scan", "android": "https://dc.lft.to/lastmile_qr_scan"}, "lon": -77.021927, "bike_id": "08f26bb40a3f074b731cc34163e8a93a", "type": "electric_scooter", "name": "08f26bb40a3f074b731cc34163e8a93a"}, {"is_disabled": 0, "is_reserved": 0, "fusion_lat": 0.0, "lat": 38.90510066666667, "fusion_lon": 0.0, "rental_uris": {"ios": "https://dc.lft.to/lastmile_qr_scan", "android": "https://dc.lft.to/lastmile_qr_scan"}, "lon": -76.9519585, "bike_id": "244294361ace46053bd6781d935618fb", "type": "electric_scooter", "name": "244294361ace46053bd6781d935618fb"}, {"is_disabled": 0, "is_reserved": 0, "fusion_lat": 0.0, "lat": 38.924216666666666, "fusion_lon": 0.0, "rental_uris": {"ios": "https://dc.lft.to/lastmile_qr_scan", "android": "https://dc.lft.to/lastmile_qr_scan"}, "lon": -77.020156, "bike_id": "39307a3acf31784be4689c3963b7f2d5", "type": "electric_scooter", "name": "39307a3acf31784be4689c3963b7f2d5"}, {"is_disabled": 0, "is_reserved": 0, "fusion_lat": 0.0, "lat": 38.892511166666665, "fusion_lon": 0.0, "rental_uris": {"ios": "https://dc.lft.to/lastmile_qr_scan", "android": "https://dc.lft.to/lastmile_qr_scan"}, "lon": -77.046543, "bike_id": "3902c967a5096ec6de6768f8389846f6", "type": "electric_scooter", "name": "3902c967a5096ec6de6768f8389846f6"}, {"is_disabled": 0, "is_reserved": 0, "fusion_lat": 0.0, "lat": 38.882998, "fusion_lon": 0.0, "rental_uris": {"ios": "https://dc.lft.to/lastmile_qr_scan", "android": "https://dc.lft.to/lastmile_qr_scan"}, "lon": -76.93495216666666, "bike_id": "b37f55c390a2b0a2880a899dd7a31aa0", "type": "electric_scooter", "name": "b37f55c390a2b0a2880a899dd7a31aa0"}, {"is_disabled": 0, "is_reserved": 0, "fusion_lat": 0.0, "lat": 38.90169733333333, "fusion_lon": 0.0, "rental_uris": {"ios": "https://dc.lft.to/lastmile_qr_scan", "android": "https://dc.lft.to/lastmile_qr_scan"}, "lon": -76.98059433333333, "bike_id": "ceb2e9f7126b93f0af05839a6e3bce71", "type": "electric_scooter", "name": "ceb2e9f7126b93f0af05839a6e3bce71"}, {"is_disabled": 0, "is_reserved": 0, "fusion_lat": 0.0, "lat": 38.91355316666667, "fusion_lon": 0.0, "rental_uris": {"ios": "https://dc.lft.to/lastmile_qr_scan", "android": "https://dc.lft.to/lastmile_qr_scan"}, "lon": -77.06403283333333, "bike_id": "3463e6f3e545639d219f7edf0f23839a", "type": "electric_scooter", "name": "3463e6f3e545639d219f7edf0f23839a"}, {"is_disabled": 0, "is_reserved": 0, "fusion_lat": 0.0, "lat": 38.88606083333333, "fusion_lon": 0.0, "rental_uris": {"ios": "https://dc.lft.to/lastmile_qr_scan", "android": "https://dc.lft.to/lastmile_qr_scan"}, "lon": -77.00076433333334, "bike_id": "4947a08f88748ef15564e7a246b3ae74", "type": "electric_bike", "name": "4947a08f88748ef15564e7a246b3ae74"}, {"is_disabled": 0, "is_reserved": 0, "fusion_lat": 0.0, "lat": 38.9145415, "fusion_lon": 0.0, "rental_uris": {"ios": "https://dc.lft.to/lastmile_qr_scan", "android": "https://dc.lft.to/lastmile_qr_scan"}, "lon": -76.97280683333334, "bike_id": "a9be08c28edda12e3fe2efb459cb73be", "type": "electric_bike", "name": "a9be08c28edda12e3fe2efb459cb73be"}, {"is_disabled": 0, "is_reserved": 0, "fusion_lat": 0.0, "lat": 38.92666916666667, "fusion_lon": 0.0, "rental_uris": {"ios": "https://dc.lft.to/lastmile_qr_scan", "android": "https://dc.lft.to/lastmile_qr_scan"}, "lon": -77.03085283333333, "bike_id": "cef114e72aa9017bccbde373dbeea4a6", "type": "electric_scooter", "name": "cef114e72aa9017bccbde373dbeea4a6"}, {"is_disabled": 0, "is_reserved": 0, "fusion_lat": 0.0, "lat": 38.9183975, "fusion_lon": 0.0, "rental_uris": {"ios": "https://dc.lft.to/lastmile_qr_scan", "android": "https://dc.lft.to/lastmile_qr_scan"}, "lon": -77.03909233333333, "bike_id": "a37d5df90413f7ee03647a4a1615e7af", "type": "electric_scooter", "name": "a37d5df90413f7ee03647a4a1615e7af"}, {"is_disabled": 0, "is_reserved": 0, "fusion_lat": 0.0, "lat": 38.9181785, "fusion_lon": 0.0, "rental_uris": {"ios": "https://dc.lft.to/lastmile_qr_scan", "android": "https://dc.lft.to/lastmile_qr_scan"}, "lon": -77.03791266666667, "bike_id": "03c3e4c1b3682e59ff792a5cec9e0965", "type": "electric_scooter", "name": "03c3e4c1b3682e59ff792a5cec9e0965"}, {"is_disabled": 0, "is_reserved": 0, "fusion_lat": 0.0, "lat": 38.904376166666665, "fusion_lon": 0.0, "rental_uris": {"ios": "https://dc.lft.to/lastmile_qr_scan", "android": "https://dc.lft.to/lastmile_qr_scan"}, "lon": -76.97231683333334, "bike_id": "234cf3a11cd915a32da9e61fa335c593", "type": "electric_bike", "name": "234cf3a11cd915a32da9e61fa335c593"}, {"is_disabled": 0, "is_reserved": 0, "fusion_lat": 0.0, "lat": 38.90329466666667, "fusion_lon": 0.0, "rental_uris": {"ios": "https://dc.lft.to/lastmile_qr_scan", "android": "https://dc.lft.to/lastmile_qr_scan"}, "lon": -77.0363555, "bike_id": "6cf4bd752319ea9338f584141f82c7fc", "type": "electric_scooter", "name": "6cf4bd752319ea9338f584141f82c7fc"}, {"is_disabled": 0, "is_reserved": 0, "fusion_lat": 0.0, "lat": 38.929733166666665, "fusion_lon": 0.0, "rental_uris": {"ios": "https://dc.lft.to/lastmile_qr_scan", "android": "https://dc.lft.to/lastmile_qr_scan"}, "lon": -77.03218016666666, "bike_id": "f1fafaa2e8714ceaef82e21bf909d2f9", "type": "electric_scooter", "name": "f1fafaa2e8714ceaef82e21bf909d2f9"}, {"is_disabled": 0, "is_reserved": 0, "fusion_lat": 0.0, "lat": 38.932745, "fusion_lon": 0.0, "rental_uris": {"ios": "https://dc.lft.to/lastmile_qr_scan", "android": "https://dc.lft.to/lastmile_qr_scan"}, "lon": -77.03521166666667, "bike_id": "98678ed0baf77fba6f29e66ba11cf5e8", "type": "electric_scooter", "name": "98678ed0baf77fba6f29e66ba11cf5e8"}, {"is_disabled": 0, "is_reserved": 0, "fusion_lat": 0.0, "lat": 38.9226275, "fusion_lon": 0.0, "rental_uris": {"ios": "https://dc.lft.to/lastmile_qr_scan", "android": "https://dc.lft.to/lastmile_qr_scan"}, "lon": -77.04313816666667, "bike_id": "6deadd1d35c3cd98ae1e4a5cfa3f9c25", "type": "electric_scooter", "name": "6deadd1d35c3cd98ae1e4a5cfa3f9c25"}, {"is_disabled": 0, "is_reserved": 0, "fusion_lat": 0.0, "lat": 38.9228285, "fusion_lon": 0.0, "rental_uris": {"ios": "https://dc.lft.to/lastmile_qr_scan", "android": "https://dc.lft.to/lastmile_qr_scan"}, "lon": -77.036605, "bike_id": "d5a12379d74785ce59a1782ae6f4f182", "type": "electric_scooter", "name": "d5a12379d74785ce59a1782ae6f4f182"}, {"is_disabled": 0, "is_reserved": 0, "fusion_lat": 0.0, "lat": 38.92661483333333, "fusion_lon": 0.0, "rental_uris": {"ios": "https://dc.lft.to/lastmile_qr_scan", "android": "https://dc.lft.to/lastmile_qr_scan"}, "lon": -77.0372455, "bike_id": "ee8ed63bd95914186b2387e10481fff8", "type": "electric_scooter", "name": "ee8ed63bd95914186b2387e10481fff8"}, {"is_disabled": 0, "is_reserved": 0, "fusion_lat": 0.0, "lat": 38.829101333333334, "fusion_lon": 0.0, "rental_uris": {"ios": "https://dc.lft.to/lastmile_qr_scan", "android": "https://dc.lft.to/lastmile_qr_scan"}, "lon": -77.07276516666667, "bike_id": "30cdb86cb20bfe18aefac6637e1eb6ec", "type": "electric_bike", "name": "30cdb86cb20bfe18aefac6637e1eb6ec"}, {"is_disabled": 0, "is_reserved": 0, "fusion_lat": 0.0, "lat": 38.88743083333333, "fusion_lon": 0.0, "rental_uris": {"ios": "https://dc.lft.to/lastmile_qr_scan", "android": "https://dc.lft.to/lastmile_qr_scan"}, "lon": -76.98356283333334, "bike_id": "aac9bee7a1e8e61e043e6747b8c1baad", "type": "electric_scooter", "name": "aac9bee7a1e8e61e043e6747b8c1baad"}, {"is_disabled": 0, "is_reserved": 0, "fusion_lat": 0.0, "lat": 38.91561033333333, "fusion_lon": 0.0, "rental_uris": {"ios": "https://dc.lft.to/lastmile_qr_scan", "android": "https://dc.lft.to/lastmile_qr_scan"}, "lon": -77.05095916666667, "bike_id": "161f83b1aa07d03c0c76fcde36fe29ed", "type": "electric_scooter", "name": "161f83b1aa07d03c0c76fcde36fe29ed"}, {"is_disabled": 0, "is_reserved": 0, "fusion_lat": 0.0, "lat": 38.889674166666666, "fusion_lon": 0.0, "rental_uris": {"ios": "https://dc.lft.to/lastmile_qr_scan", "android": "https://dc.lft.to/lastmile_qr_scan"}, "lon": -76.98031066666667, "bike_id": "39f39c741739d7331a0fa697ca58b4d2", "type": "electric_scooter", "name": "39f39c741739d7331a0fa697ca58b4d2"}, {"is_disabled": 0, "is_reserved": 0, "fusion_lat": 0.0, "lat": 38.914215166666665, "fusion_lon": 0.0, "rental_uris": {"ios": "https://dc.lft.to/lastmile_qr_scan", "android": "https://dc.lft.to/lastmile_qr_scan"}, "lon": -77.02224866666667, "bike_id": "44998b809e7abdd6f4bec91333d75711", "type": "electric_scooter", "name": "44998b809e7abdd6f4bec91333d75711"}, {"is_disabled": 0, "is_reserved": 0, "fusion_lat": 0.0, "lat": 38.932699, "fusion_lon": 0.0, "rental_uris": {"ios": "https://dc.lft.to/lastmile_qr_scan", "android": "https://dc.lft.to/lastmile_qr_scan"}, "lon": -77.02101516666667, "bike_id": "43212c6e11492c0d6b874507ebf830c9", "type": "electric_scooter", "name": "43212c6e11492c0d6b874507ebf830c9"}, {"is_disabled": 0, "is_reserved": 0, "fusion_lat": 0.0, "lat": 38.92241083333333, "fusion_lon": 0.0, "rental_uris": {"ios": "https://dc.lft.to/lastmile_qr_scan", "android": "https://dc.lft.to/lastmile_qr_scan"}, "lon": -77.03898716666667, "bike_id": "c8c5e594d6a44fd3be4ab6ac4135e707", "type": "electric_scooter", "name": "c8c5e594d6a44fd3be4ab6ac4135e707"}, {"is_disabled": 0, "is_reserved": 0, "fusion_lat": 0.0, "lat": 38.92002, "fusion_lon": 0.0, "rental_uris": {"ios": "https://dc.lft.to/lastmile_qr_scan", "android": "https://dc.lft.to/lastmile_qr_scan"}, "lon": -77.02161533333333, "bike_id": "a8db6e73d984d89e2e351750bd20c97a", "type": "electric_scooter", "name": "a8db6e73d984d89e2e351750bd20c97a"}, {"is_disabled": 0, "is_reserved": 0, "fusion_lat": 0.0, "lat": 38.846712833333335, "fusion_lon": 0.0, "rental_uris": {"ios": "https://dc.lft.to/lastmile_qr_scan", "android": "https://dc.lft.to/lastmile_qr_scan"}, "lon": -77.13932416666667, "bike_id": "6e20489cb242f5ec15f9bbd51c13d3db", "type": "electric_bike", "name": "6e20489cb242f5ec15f9bbd51c13d3db"}, {"is_disabled": 0, "is_reserved": 0, "fusion_lat": 0.0, "lat": 38.88488266666667, "fusion_lon": 0.0, "rental_uris": {"ios": "https://dc.lft.to/lastmile_qr_scan", "android": "https://dc.lft.to/lastmile_qr_scan"}, "lon": -77.03473333333334, "bike_id": "af9db0795b80b200cb2e75e9fb3576ed", "type": "electric_scooter", "name": "af9db0795b80b200cb2e75e9fb3576ed"}, {"is_disabled": 0, "is_reserved": 0, "fusion_lat": 0.0, "lat": 38.91465783333334, "fusion_lon": 0.0, "rental_uris": {"ios": "https://dc.lft.to/lastmile_qr_scan", "android": "https://dc.lft.to/lastmile_qr_scan"}, "lon": -77.01792366666666, "bike_id": "ada3a120ff1cff0cd943d3ebe031910b", "type": "electric_scooter", "name": "ada3a120ff1cff0cd943d3ebe031910b"}, {"is_disabled": 0, "is_reserved": 0, "fusion_lat": 0.0, "lat": 38.899873666666664, "fusion_lon": 0.0, "rental_uris": {"ios": "https://dc.lft.to/lastmile_qr_scan", "android": "https://dc.lft.to/lastmile_qr_scan"}, "lon": -77.02369566666667, "bike_id": "e5fd21d749e1ee1c1de0029f5a3ce9d6", "type": "electric_scooter", "name": "e5fd21d749e1ee1c1de0029f5a3ce9d6"}, {"is_disabled": 0, "is_reserved": 0, "fusion_lat": 0.0, "lat": 38.8973465, "fusion_lon": 0.0, "rental_uris": {"ios": "https://dc.lft.to/lastmile_qr_scan", "android": "https://dc.lft.to/lastmile_qr_scan"}, "lon": -77.03354366666667, "bike_id": "013f8c18f6fb641a31137f70866aa4fd", "type": "electric_scooter", "name": "013f8c18f6fb641a31137f70866aa4fd"}, {"is_disabled": 0, "is_reserved": 0, "fusion_lat": 0.0, "lat": 38.896165, "fusion_lon": 0.0, "rental_uris": {"ios": "https://dc.lft.to/lastmile_qr_scan", "android": "https://dc.lft.to/lastmile_qr_scan"}, "lon": -77.0431855, "bike_id": "df611412a2ad052c577bb248a2d5e557", "type": "electric_scooter", "name": "df611412a2ad052c577bb248a2d5e557"}, {"is_disabled": 0, "is_reserved": 0, "fusion_lat": 0.0, "lat": 38.912910333333336, "fusion_lon": 0.0, "rental_uris": {"ios": "https://dc.lft.to/lastmile_qr_scan", "android": "https://dc.lft.to/lastmile_qr_scan"}, "lon": -76.93737216666666, "bike_id": "fc9175d50349bdc95fd0b3873e419f79", "type": "electric_scooter", "name": "fc9175d50349bdc95fd0b3873e419f79"}, {"is_disabled": 0, "is_reserved": 0, "fusion_lat": 0.0, "lat": 38.90929366666667, "fusion_lon": 0.0, "rental_uris": {"ios": "https://dc.lft.to/lastmile_qr_scan", "android": "https://dc.lft.to/lastmile_qr_scan"}, "lon": -77.0233405, "bike_id": "23ffd46cc8bda0dc2ae7d3e1a277dca4", "type": "electric_scooter", "name": "23ffd46cc8bda0dc2ae7d3e1a277dca4"}, {"is_disabled": 0, "is_reserved": 0, "fusion_lat": 0.0, "lat": 38.8984175, "fusion_lon": 0.0, "rental_uris": {"ios": "https://dc.lft.to/lastmile_qr_scan", "android": "https://dc.lft.to/lastmile_qr_scan"}, "lon": -76.98106833333334, "bike_id": "d5b1438c5368a90c845703ed60a1161f", "type": "electric_scooter", "name": "d5b1438c5368a90c845703ed60a1161f"}, {"is_disabled": 0, "is_reserved": 0, "fusion_lat": 0.0, "lat": 38.89941566666667, "fusion_lon": 0.0, "rental_uris": {"ios": "https://dc.lft.to/lastmile_qr_scan", "android": "https://dc.lft.to/lastmile_qr_scan"}, "lon": -76.93767033333333, "bike_id": "9b9dbbc87437b4ee715e41ef99961623", "type": "electric_scooter", "name": "9b9dbbc87437b4ee715e41ef99961623"}, {"is_disabled": 0, "is_reserved": 0, "fusion_lat": 0.0, "lat": 38.9451195, "fusion_lon": 0.0, "rental_uris": {"ios": "https://dc.lft.to/lastmile_qr_scan", "android": "https://dc.lft.to/lastmile_qr_scan"}, "lon": -77.00667383333334, "bike_id": "95ff8f30b246fb33328d6785ee7eafc9", "type": "electric_bike", "name": "95ff8f30b246fb33328d6785ee7eafc9"}, {"is_disabled": 0, "is_reserved": 0, "fusion_lat": 0.0, "lat": 38.892431333333334, "fusion_lon": 0.0, "rental_uris": {"ios": "https://dc.lft.to/lastmile_qr_scan", "android": "https://dc.lft.to/lastmile_qr_scan"}, "lon": -77.027949, "bike_id": "0de60642796b71f85012214eef4cd4f6", "type": "electric_scooter", "name": "0de60642796b71f85012214eef4cd4f6"}, {"is_disabled": 0, "is_reserved": 0, "fusion_lat": 0.0, "lat": 38.900181, "fusion_lon": 0.0, "rental_uris": {"ios": "https://dc.lft.to/lastmile_qr_scan", "android": "https://dc.lft.to/lastmile_qr_scan"}, "lon": -76.9980915, "bike_id": "e2a500862744f1a8a95bc880c9374631", "type": "electric_scooter", "name": "e2a500862744f1a8a95bc880c9374631"}, {"is_disabled": 0, "is_reserved": 0, "fusion_lat": 0.0, "lat": 38.911863833333335, "fusion_lon": 0.0, "rental_uris": {"ios": "https://dc.lft.to/lastmile_qr_scan", "android": "https://dc.lft.to/lastmile_qr_scan"}, "lon": -77.002481, "bike_id": "65754dcf2aaebceffc0139c1d6bde1ae", "type": "electric_scooter", "name": "65754dcf2aaebceffc0139c1d6bde1ae"}, {"is_disabled": 0, "is_reserved": 0, "fusion_lat": 0.0, "lat": 38.883895, "fusion_lon": 0.0, "rental_uris": {"ios": "https://dc.lft.to/lastmile_qr_scan", "android": "https://dc.lft.to/lastmile_qr_scan"}, "lon": -77.031693, "bike_id": "7412e58807b8a1fb419871d53b858728", "type": "electric_scooter", "name": "7412e58807b8a1fb419871d53b858728"}, {"is_disabled": 0, "is_reserved": 0, "fusion_lat": 0.0, "lat": 38.95599566666667, "fusion_lon": 0.0, "rental_uris": {"ios": "https://dc.lft.to/lastmile_qr_scan", "android": "https://dc.lft.to/lastmile_qr_scan"}, "lon": -77.010131, "bike_id": "b022498f61820b4feabf321f8730201b", "type": "electric_bike", "name": "b022498f61820b4feabf321f8730201b"}, {"is_disabled": 0, "is_reserved": 0, "fusion_lat": 0.0, "lat": 38.915483333333334, "fusion_lon": 0.0, "rental_uris": {"ios": "https://dc.lft.to/lastmile_qr_scan", "android": "https://dc.lft.to/lastmile_qr_scan"}, "lon": -77.04178933333333, "bike_id": "8fb01474530116f586cc609e2463019c", "type": "electric_scooter", "name": "8fb01474530116f586cc609e2463019c"}, {"is_disabled": 0, "is_reserved": 0, "fusion_lat": 0.0, "lat": 38.9105225, "fusion_lon": 0.0, "rental_uris": {"ios": "https://dc.lft.to/lastmile_qr_scan", "android": "https://dc.lft.to/lastmile_qr_scan"}, "lon": -77.02298666666667, "bike_id": "074c89e2f821a2139fcf7d8d4ffbb67f", "type": "electric_scooter", "name": "074c89e2f821a2139fcf7d8d4ffbb67f"}, {"is_disabled": 0, "is_reserved": 0, "fusion_lat": 0.0, "lat": 38.8763045, "fusion_lon": 0.0, "rental_uris": {"ios": "https://dc.lft.to/lastmile_qr_scan", "android": "https://dc.lft.to/lastmile_qr_scan"}, "lon": -77.00953433333333, "bike_id": "aa8d794172d021a9a5ecb249aa1196b1", "type": "electric_scooter", "name": "aa8d794172d021a9a5ecb249aa1196b1"}, {"is_disabled": 0, "is_reserved": 0, "fusion_lat": 0.0, "lat": 38.864854, "fusion_lon": 0.0, "rental_uris": {"ios": "https://dc.lft.to/lastmile_qr_scan", "android": "https://dc.lft.to/lastmile_qr_scan"}, "lon": -76.97747933333333, "bike_id": "b398daca1c6f2fc7035def0a25560382", "type": "electric_bike", "name": "b398daca1c6f2fc7035def0a25560382"}, {"is_disabled": 0, "is_reserved": 0, "fusion_lat": 0.0, "lat": 38.909685, "fusion_lon": 0.0, "rental_uris": {"ios": "https://dc.lft.to/lastmile_qr_scan", "android": "https://dc.lft.to/lastmile_qr_scan"}, "lon": -77.01716616666667, "bike_id": "73f854215a2dd3e74c4c5d35e6bf9054", "type": "electric_scooter", "name": "73f854215a2dd3e74c4c5d35e6bf9054"}, {"is_disabled": 0, "is_reserved": 0, "fusion_lat": 0.0, "lat": 38.87671983333333, "fusion_lon": 0.0, "rental_uris": {"ios": "https://dc.lft.to/lastmile_qr_scan", "android": "https://dc.lft.to/lastmile_qr_scan"}, "lon": -77.017598, "bike_id": "f2bc9a8195d9682c3d8fe4add73efdd9", "type": "electric_scooter", "name": "f2bc9a8195d9682c3d8fe4add73efdd9"}, {"is_disabled": 0, "is_reserved": 0, "fusion_lat": 0.0, "lat": 38.921059, "fusion_lon": 0.0, "rental_uris": {"ios": "https://dc.lft.to/lastmile_qr_scan", "android": "https://dc.lft.to/lastmile_qr_scan"}, "lon": -77.041791, "bike_id": "f6e8ccae0dcb8fe7aba2543827b27339", "type": "electric_scooter", "name": "f6e8ccae0dcb8fe7aba2543827b27339"}, {"is_disabled": 0, "is_reserved": 0, "fusion_lat": 0.0, "lat": 38.89389083333333, "fusion_lon": 0.0, "rental_uris": {"ios": "https://dc.lft.to/lastmile_qr_scan", "android": "https://dc.lft.to/lastmile_qr_scan"}, "lon": -77.046539, "bike_id": "59cb01c9d187572cc861c6c4831efe49", "type": "electric_scooter", "name": "59cb01c9d187572cc861c6c4831efe49"}, {"is_disabled": 0, "is_reserved": 0, "fusion_lat": 0.0, "lat": 38.91417366666667, "fusion_lon": 0.0, "rental_uris": {"ios": "https://dc.lft.to/lastmile_qr_scan", "android": "https://dc.lft.to/lastmile_qr_scan"}, "lon": -77.020013, "bike_id": "498cc776bbf77c0c7f5b81c8420e963b", "type": "electric_bike", "name": "498cc776bbf77c0c7f5b81c8420e963b"}, {"is_disabled": 0, "is_reserved": 0, "fusion_lat": 0.0, "lat": 38.9051575, "fusion_lon": 0.0, "rental_uris": {"ios": "https://dc.lft.to/lastmile_qr_scan", "android": "https://dc.lft.to/lastmile_qr_scan"}, "lon": -77.02947216666666, "bike_id": "5ab9ff011691577cffa30463057108dd", "type": "electric_scooter", "name": "5ab9ff011691577cffa30463057108dd"}, {"is_disabled": 0, "is_reserved": 0, "fusion_lat": 0.0, "lat": 38.912205, "fusion_lon": 0.0, "rental_uris": {"ios": "https://dc.lft.to/lastmile_qr_scan", "android": "https://dc.lft.to/lastmile_qr_scan"}, "lon": -77.03186666666667, "bike_id": "d7a2df1d57f9eadbe9fb4db3e7745db9", "type": "electric_scooter", "name": "d7a2df1d57f9eadbe9fb4db3e7745db9"}, {"is_disabled": 0, "is_reserved": 0, "fusion_lat": 0.0, "lat": 38.9170145, "fusion_lon": 0.0, "rental_uris": {"ios": "https://dc.lft.to/lastmile_qr_scan", "android": "https://dc.lft.to/lastmile_qr_scan"}, "lon": -77.037304, "bike_id": "cd19799738011b38e258f64977c34bf7", "type": "electric_scooter", "name": "cd19799738011b38e258f64977c34bf7"}, {"is_disabled": 0, "is_reserved": 0, "fusion_lat": 0.0, "lat": 38.899695333333334, "fusion_lon": 0.0, "rental_uris": {"ios": "https://dc.lft.to/lastmile_qr_scan", "android": "https://dc.lft.to/lastmile_qr_scan"}, "lon": -77.02938633333333, "bike_id": "35a7a2d22f2c4497f4233a0f28de3f3b", "type": "electric_scooter", "name": "35a7a2d22f2c4497f4233a0f28de3f3b"}, {"is_disabled": 0, "is_reserved": 0, "fusion_lat": 0.0, "lat": 38.892506, "fusion_lon": 0.0, "rental_uris": {"ios": "https://dc.lft.to/lastmile_qr_scan", "android": "https://dc.lft.to/lastmile_qr_scan"}, "lon": -76.98539133333334, "bike_id": "5913f0e0e6e827b39f2d27436e1d6b9e", "type": "electric_bike", "name": "5913f0e0e6e827b39f2d27436e1d6b9e"}, {"is_disabled": 0, "is_reserved": 0, "fusion_lat": 0.0, "lat": 38.88305016666666, "fusion_lon": 0.0, "rental_uris": {"ios": "https://dc.lft.to/lastmile_qr_scan", "android": "https://dc.lft.to/lastmile_qr_scan"}, "lon": -76.9485385, "bike_id": "bdf3cc0c0a50e362bc4411277ba0c0a2", "type": "electric_scooter", "name": "bdf3cc0c0a50e362bc4411277ba0c0a2"}, {"is_disabled": 0, "is_reserved": 0, "fusion_lat": 0.0, "lat": 38.922220333333335, "fusion_lon": 0.0, "rental_uris": {"ios": "https://dc.lft.to/lastmile_qr_scan", "android": "https://dc.lft.to/lastmile_qr_scan"}, "lon": -77.0423995, "bike_id": "1a7b7089331cbe8b82d40bafeef0c83e", "type": "electric_scooter", "name": "1a7b7089331cbe8b82d40bafeef0c83e"}, {"is_disabled": 0, "is_reserved": 0, "fusion_lat": 0.0, "lat": 38.970320666666666, "fusion_lon": 0.0, "rental_uris": {"ios": "https://dc.lft.to/lastmile_qr_scan", "android": "https://dc.lft.to/lastmile_qr_scan"}, "lon": -77.02235016666667, "bike_id": "958602ba74239175ec348f33db276f7e", "type": "electric_bike", "name": "958602ba74239175ec348f33db276f7e"}, {"is_disabled": 0, "is_reserved": 0, "fusion_lat": 0.0, "lat": 38.916152, "fusion_lon": 0.0, "rental_uris": {"ios": "https://dc.lft.to/lastmile_qr_scan", "android": "https://dc.lft.to/lastmile_qr_scan"}, "lon": -77.00292333333333, "bike_id": "04b539b93e1b3a4a33379d6d7a348675", "type": "electric_bike", "name": "04b539b93e1b3a4a33379d6d7a348675"}, {"is_disabled": 0, "is_reserved": 0, "fusion_lat": 0.0, "lat": 38.912033666666666, "fusion_lon": 0.0, "rental_uris": {"ios": "https://dc.lft.to/lastmile_qr_scan", "android": "https://dc.lft.to/lastmile_qr_scan"}, "lon": -76.98777133333333, "bike_id": "75e511ad29526729abcb9c4797621ec4", "type": "electric_scooter", "name": "75e511ad29526729abcb9c4797621ec4"}, {"is_disabled": 0, "is_reserved": 0, "fusion_lat": 0.0, "lat": 38.84192916666667, "fusion_lon": 0.0, "rental_uris": {"ios": "https://dc.lft.to/lastmile_qr_scan", "android": "https://dc.lft.to/lastmile_qr_scan"}, "lon": -77.077484, "bike_id": "599dafb2e04dba108eee29aaa661fe98", "type": "electric_bike", "name": "599dafb2e04dba108eee29aaa661fe98"}, {"is_disabled": 0, "is_reserved": 0, "fusion_lat": 0.0, "lat": 38.9215275, "fusion_lon": 0.0, "rental_uris": {"ios": "https://dc.lft.to/lastmile_qr_scan", "android": "https://dc.lft.to/lastmile_qr_scan"}, "lon": -77.03867433333333, "bike_id": "1ce1290418fee1874b83fce59e19873e", "type": "electric_scooter", "name": "1ce1290418fee1874b83fce59e19873e"}, {"is_disabled": 0, "is_reserved": 0, "fusion_lat": 0.0, "lat": 38.90523816666666, "fusion_lon": 0.0, "rental_uris": {"ios": "https://dc.lft.to/lastmile_qr_scan", "android": "https://dc.lft.to/lastmile_qr_scan"}, "lon": -77.0660235, "bike_id": "fbcf1a046e5acbdf073411b42610174a", "type": "electric_scooter", "name": "fbcf1a046e5acbdf073411b42610174a"}, {"is_disabled": 0, "is_reserved": 0, "fusion_lat": 0.0, "lat": 38.9286385, "fusion_lon": 0.0, "rental_uris": {"ios": "https://dc.lft.to/lastmile_qr_scan", "android": "https://dc.lft.to/lastmile_qr_scan"}, "lon": -77.01420383333334, "bike_id": "ff76ada5b1656ab153cd544c78a4f476", "type": "electric_scooter", "name": "ff76ada5b1656ab153cd544c78a4f476"}, {"is_disabled": 0, "is_reserved": 0, "fusion_lat": 0.0, "lat": 38.932837666666664, "fusion_lon": 0.0, "rental_uris": {"ios": "https://dc.lft.to/lastmile_qr_scan", "android": "https://dc.lft.to/lastmile_qr_scan"}, "lon": -77.0362195, "bike_id": "a7ac99889f9f672210e01f1a8c0461b1", "type": "electric_scooter", "name": "a7ac99889f9f672210e01f1a8c0461b1"}, {"is_disabled": 0, "is_reserved": 0, "fusion_lat": 0.0, "lat": 38.90958883333333, "fusion_lon": 0.0, "rental_uris": {"ios": "https://dc.lft.to/lastmile_qr_scan", "android": "https://dc.lft.to/lastmile_qr_scan"}, "lon": -77.02276733333333, "bike_id": "77f821e38081f4067a5242111ca99db1", "type": "electric_scooter", "name": "77f821e38081f4067a5242111ca99db1"}, {"is_disabled": 0, "is_reserved": 0, "fusion_lat": 0.0, "lat": 38.881424, "fusion_lon": 0.0, "rental_uris": {"ios": "https://dc.lft.to/lastmile_qr_scan", "android": "https://dc.lft.to/lastmile_qr_scan"}, "lon": -77.02272633333334, "bike_id": "ed32e53f1e9a4df4c9dc5516b9bc31b0", "type": "electric_scooter", "name": "ed32e53f1e9a4df4c9dc5516b9bc31b0"}, {"is_disabled": 0, "is_reserved": 0, "fusion_lat": 0.0, "lat": 38.884003666666665, "fusion_lon": 0.0, "rental_uris": {"ios": "https://dc.lft.to/lastmile_qr_scan", "android": "https://dc.lft.to/lastmile_qr_scan"}, "lon": -77.03047633333334, "bike_id": "7258f919832d99188bdf25786ace2927", "type": "electric_scooter", "name": "7258f919832d99188bdf25786ace2927"}, {"is_disabled": 0, "is_reserved": 0, "fusion_lat": 0.0, "lat": 38.902315333333334, "fusion_lon": 0.0, "rental_uris": {"ios": "https://dc.lft.to/lastmile_qr_scan", "android": "https://dc.lft.to/lastmile_qr_scan"}, "lon": -77.05316766666667, "bike_id": "b1a42b21fb75800d55f8d4658f7e4b3e", "type": "electric_scooter", "name": "b1a42b21fb75800d55f8d4658f7e4b3e"}, {"is_disabled": 0, "is_reserved": 0, "fusion_lat": 0.0, "lat": 38.928691666666666, "fusion_lon": 0.0, "rental_uris": {"ios": "https://dc.lft.to/lastmile_qr_scan", "android": "https://dc.lft.to/lastmile_qr_scan"}, "lon": -77.0344705, "bike_id": "609db2b523337e84c97703524a37ff9b", "type": "electric_scooter", "name": "609db2b523337e84c97703524a37ff9b"}, {"is_disabled": 0, "is_reserved": 0, "fusion_lat": 0.0, "lat": 38.93617283333333, "fusion_lon": 0.0, "rental_uris": {"ios": "https://dc.lft.to/lastmile_qr_scan", "android": "https://dc.lft.to/lastmile_qr_scan"}, "lon": -77.038765, "bike_id": "bdd0fa4d10624e3556a8cd712986bf9f", "type": "electric_scooter", "name": "bdd0fa4d10624e3556a8cd712986bf9f"}, {"is_disabled": 0, "is_reserved": 0, "fusion_lat": 0.0, "lat": 38.92049266666667, "fusion_lon": 0.0, "rental_uris": {"ios": "https://dc.lft.to/lastmile_qr_scan", "android": "https://dc.lft.to/lastmile_qr_scan"}, "lon": -77.04537166666667, "bike_id": "b098edb4ab53af0eb44413bc92b98d33", "type": "electric_scooter", "name": "b098edb4ab53af0eb44413bc92b98d33"}, {"is_disabled": 0, "is_reserved": 0, "fusion_lat": 0.0, "lat": 38.90031533333333, "fusion_lon": 0.0, "rental_uris": {"ios": "https://dc.lft.to/lastmile_qr_scan", "android": "https://dc.lft.to/lastmile_qr_scan"}, "lon": -76.99839466666667, "bike_id": "c27fe6edf273ee8ce672585adf3d56b1", "type": "electric_scooter", "name": "c27fe6edf273ee8ce672585adf3d56b1"}, {"is_disabled": 0, "is_reserved": 0, "fusion_lat": 0.0, "lat": 38.902700833333334, "fusion_lon": 0.0, "rental_uris": {"ios": "https://dc.lft.to/lastmile_qr_scan", "android": "https://dc.lft.to/lastmile_qr_scan"}, "lon": -77.0019555, "bike_id": "ad22130080c392d0b5fda4e6bc35d7d7", "type": "electric_scooter", "name": "ad22130080c392d0b5fda4e6bc35d7d7"}, {"is_disabled": 0, "is_reserved": 0, "fusion_lat": 0.0, "lat": 38.919118833333336, "fusion_lon": 0.0, "rental_uris": {"ios": "https://dc.lft.to/lastmile_qr_scan", "android": "https://dc.lft.to/lastmile_qr_scan"}, "lon": -77.101795, "bike_id": "7a1b8529b84daa87c96dacb3d5956e0a", "type": "electric_bike", "name": "7a1b8529b84daa87c96dacb3d5956e0a"}, {"is_disabled": 0, "is_reserved": 0, "fusion_lat": 0.0, "lat": 38.919125666666666, "fusion_lon": 0.0, "rental_uris": {"ios": "https://dc.lft.to/lastmile_qr_scan", "android": "https://dc.lft.to/lastmile_qr_scan"}, "lon": -77.04466466666666, "bike_id": "a94db98d9885fd6d9adb2c8443459759", "type": "electric_scooter", "name": "a94db98d9885fd6d9adb2c8443459759"}, {"is_disabled": 0, "is_reserved": 0, "fusion_lat": 0.0, "lat": 38.835877833333335, "fusion_lon": 0.0, "rental_uris": {"ios": "https://dc.lft.to/lastmile_qr_scan", "android": "https://dc.lft.to/lastmile_qr_scan"}, "lon": -76.9902325, "bike_id": "6ee301e9d6738810a67fc6493f3e4cd9", "type": "electric_bike", "name": "6ee301e9d6738810a67fc6493f3e4cd9"}, {"is_disabled": 0, "is_reserved": 0, "fusion_lat": 0.0, "lat": 38.928830166666664, "fusion_lon": 0.0, "rental_uris": {"ios": "https://dc.lft.to/lastmile_qr_scan", "android": "https://dc.lft.to/lastmile_qr_scan"}, "lon": -77.02603233333333, "bike_id": "588d36da18a576c85446040d8075c620", "type": "electric_scooter", "name": "588d36da18a576c85446040d8075c620"}, {"is_disabled": 0, "is_reserved": 0, "fusion_lat": 0.0, "lat": 38.907876333333334, "fusion_lon": 0.0, "rental_uris": {"ios": "https://dc.lft.to/lastmile_qr_scan", "android": "https://dc.lft.to/lastmile_qr_scan"}, "lon": -77.04662916666666, "bike_id": "e407ff23d4c4a4c830e52c7ee4cdac8c", "type": "electric_scooter", "name": "e407ff23d4c4a4c830e52c7ee4cdac8c"}, {"is_disabled": 0, "is_reserved": 0, "fusion_lat": 0.0, "lat": 38.909029333333336, "fusion_lon": 0.0, "rental_uris": {"ios": "https://dc.lft.to/lastmile_qr_scan", "android": "https://dc.lft.to/lastmile_qr_scan"}, "lon": -76.99783466666666, "bike_id": "15b3300ce78c5bc50e3da268416d1309", "type": "electric_scooter", "name": "15b3300ce78c5bc50e3da268416d1309"}, {"is_disabled": 0, "is_reserved": 0, "fusion_lat": 0.0, "lat": 38.93247683333333, "fusion_lon": 0.0, "rental_uris": {"ios": "https://dc.lft.to/lastmile_qr_scan", "android": "https://dc.lft.to/lastmile_qr_scan"}, "lon": -77.03273566666667, "bike_id": "e2c9515416cb72e5232e8704da8ec86a", "type": "electric_scooter", "name": "e2c9515416cb72e5232e8704da8ec86a"}, {"is_disabled": 0, "is_reserved": 0, "fusion_lat": 0.0, "lat": 38.906514333333334, "fusion_lon": 0.0, "rental_uris": {"ios": "https://dc.lft.to/lastmile_qr_scan", "android": "https://dc.lft.to/lastmile_qr_scan"}, "lon": -77.0247125, "bike_id": "23d75b2ac759dd84900f71fcfd23307d", "type": "electric_scooter", "name": "23d75b2ac759dd84900f71fcfd23307d"}, {"is_disabled": 0, "is_reserved": 0, "fusion_lat": 0.0, "lat": 38.918373833333334, "fusion_lon": 0.0, "rental_uris": {"ios": "https://dc.lft.to/lastmile_qr_scan", "android": "https://dc.lft.to/lastmile_qr_scan"}, "lon": -77.04521683333333, "bike_id": "9c13a20e514a15ee18bbf569585cf1b8", "type": "electric_scooter", "name": "9c13a20e514a15ee18bbf569585cf1b8"}, {"is_disabled": 0, "is_reserved": 0, "fusion_lat": 0.0, "lat": 38.89251733333333, "fusion_lon": 0.0, "rental_uris": {"ios": "https://dc.lft.to/lastmile_qr_scan", "android": "https://dc.lft.to/lastmile_qr_scan"}, "lon": -77.04660383333334, "bike_id": "cd5f64177fbea7e7f0beb1496f1dcd5a", "type": "electric_scooter", "name": "cd5f64177fbea7e7f0beb1496f1dcd5a"}, {"is_disabled": 0, "is_reserved": 0, "fusion_lat": 0.0, "lat": 38.9167175, "fusion_lon": 0.0, "rental_uris": {"ios": "https://dc.lft.to/lastmile_qr_scan", "android": "https://dc.lft.to/lastmile_qr_scan"}, "lon": -77.02712583333333, "bike_id": "e7b1bd17e5336f52c411a71c78723636", "type": "electric_scooter", "name": "e7b1bd17e5336f52c411a71c78723636"}, {"is_disabled": 0, "is_reserved": 0, "fusion_lat": 0.0, "lat": 38.93594683333333, "fusion_lon": 0.0, "rental_uris": {"ios": "https://dc.lft.to/lastmile_qr_scan", "android": "https://dc.lft.to/lastmile_qr_scan"}, "lon": -77.03795716666667, "bike_id": "84b5cfe5d808904b1ddce6432e43ce2d", "type": "electric_scooter", "name": "84b5cfe5d808904b1ddce6432e43ce2d"}, {"is_disabled": 0, "is_reserved": 0, "fusion_lat": 0.0, "lat": 38.933656666666664, "fusion_lon": 0.0, "rental_uris": {"ios": "https://dc.lft.to/lastmile_qr_scan", "android": "https://dc.lft.to/lastmile_qr_scan"}, "lon": -77.0241135, "bike_id": "2c30e7d8e27422e4bd422dff967852d2", "type": "electric_scooter", "name": "2c30e7d8e27422e4bd422dff967852d2"}, {"is_disabled": 0, "is_reserved": 0, "fusion_lat": 0.0, "lat": 38.905147166666666, "fusion_lon": 0.0, "rental_uris": {"ios": "https://dc.lft.to/lastmile_qr_scan", "android": "https://dc.lft.to/lastmile_qr_scan"}, "lon": -77.02946833333333, "bike_id": "7f1fa62c11d5cbf1a0c69885133fe7ee", "type": "electric_scooter", "name": "7f1fa62c11d5cbf1a0c69885133fe7ee"}, {"is_disabled": 0, "is_reserved": 0, "fusion_lat": 0.0, "lat": 38.93706866666667, "fusion_lon": 0.0, "rental_uris": {"ios": "https://dc.lft.to/lastmile_qr_scan", "android": "https://dc.lft.to/lastmile_qr_scan"}, "lon": -77.02380616666666, "bike_id": "c42f79be2648beadbbf073c32ead3c4b", "type": "electric_scooter", "name": "c42f79be2648beadbbf073c32ead3c4b"}, {"is_disabled": 0, "is_reserved": 0, "fusion_lat": 0.0, "lat": 38.875645166666665, "fusion_lon": 0.0, "rental_uris": {"ios": "https://dc.lft.to/lastmile_qr_scan", "android": "https://dc.lft.to/lastmile_qr_scan"}, "lon": -77.00607266666667, "bike_id": "b8f9037889fc368bfe3e498e5c3f3479", "type": "electric_scooter", "name": "b8f9037889fc368bfe3e498e5c3f3479"}, {"is_disabled": 0, "is_reserved": 0, "fusion_lat": 0.0, "lat": 38.9363745, "fusion_lon": 0.0, "rental_uris": {"ios": "https://dc.lft.to/lastmile_qr_scan", "android": "https://dc.lft.to/lastmile_qr_scan"}, "lon": -77.0365775, "bike_id": "8afe2b107ee5b63aa4c0b65af18592ee", "type": "electric_bike", "name": "8afe2b107ee5b63aa4c0b65af18592ee"}, {"is_disabled": 0, "is_reserved": 0, "fusion_lat": 0.0, "lat": 38.901942, "fusion_lon": 0.0, "rental_uris": {"ios": "https://dc.lft.to/lastmile_qr_scan", "android": "https://dc.lft.to/lastmile_qr_scan"}, "lon": -77.05024483333334, "bike_id": "a4bb5d525f0da57e11c881974e3b8c01", "type": "electric_scooter", "name": "a4bb5d525f0da57e11c881974e3b8c01"}, {"is_disabled": 0, "is_reserved": 0, "fusion_lat": 0.0, "lat": 38.923008333333335, "fusion_lon": 0.0, "rental_uris": {"ios": "https://dc.lft.to/lastmile_qr_scan", "android": "https://dc.lft.to/lastmile_qr_scan"}, "lon": -77.04237883333333, "bike_id": "89230be396eadd78a1722b1af4b8e58b", "type": "electric_scooter", "name": "89230be396eadd78a1722b1af4b8e58b"}, {"is_disabled": 0, "is_reserved": 0, "fusion_lat": 0.0, "lat": 38.94824716666667, "fusion_lon": 0.0, "rental_uris": {"ios": "https://dc.lft.to/lastmile_qr_scan", "android": "https://dc.lft.to/lastmile_qr_scan"}, "lon": -77.0254235, "bike_id": "78072df6a3f9ccd64be05c6ab8ecb830", "type": "electric_scooter", "name": "78072df6a3f9ccd64be05c6ab8ecb830"}, {"is_disabled": 0, "is_reserved": 0, "fusion_lat": 0.0, "lat": 38.93868616666666, "fusion_lon": 0.0, "rental_uris": {"ios": "https://dc.lft.to/lastmile_qr_scan", "android": "https://dc.lft.to/lastmile_qr_scan"}, "lon": -77.03044433333334, "bike_id": "1de7f99adc0c620096cba19a72e550af", "type": "electric_scooter", "name": "1de7f99adc0c620096cba19a72e550af"}, {"is_disabled": 0, "is_reserved": 0, "fusion_lat": 0.0, "lat": 38.90681416666666, "fusion_lon": 0.0, "rental_uris": {"ios": "https://dc.lft.to/lastmile_qr_scan", "android": "https://dc.lft.to/lastmile_qr_scan"}, "lon": -77.05325483333333, "bike_id": "d2e80514cc51ef356b140f46c1df682b", "type": "electric_scooter", "name": "d2e80514cc51ef356b140f46c1df682b"}, {"is_disabled": 0, "is_reserved": 0, "fusion_lat": 0.0, "lat": 38.85219, "fusion_lon": 0.0, "rental_uris": {"ios": "https://dc.lft.to/lastmile_qr_scan", "android": "https://dc.lft.to/lastmile_qr_scan"}, "lon": -76.99371433333333, "bike_id": "0b48b1a3a10a62a28dd2d7ce23fad76c", "type": "electric_bike", "name": "0b48b1a3a10a62a28dd2d7ce23fad76c"}, {"is_disabled": 0, "is_reserved": 0, "fusion_lat": 0.0, "lat": 38.92008933333334, "fusion_lon": 0.0, "rental_uris": {"ios": "https://dc.lft.to/lastmile_qr_scan", "android": "https://dc.lft.to/lastmile_qr_scan"}, "lon": -77.04173783333333, "bike_id": "b6790946f56cacaaacbcb6c609ce8c52", "type": "electric_scooter", "name": "b6790946f56cacaaacbcb6c609ce8c52"}, {"is_disabled": 0, "is_reserved": 0, "fusion_lat": 0.0, "lat": 38.905767, "fusion_lon": 0.0, "rental_uris": {"ios": "https://dc.lft.to/lastmile_qr_scan", "android": "https://dc.lft.to/lastmile_qr_scan"}, "lon": -77.007102, "bike_id": "53c3576772fa17fbfff7d1bc139a6193", "type": "electric_scooter", "name": "53c3576772fa17fbfff7d1bc139a6193"}, {"is_disabled": 0, "is_reserved": 0, "fusion_lat": 0.0, "lat": 38.902758666666664, "fusion_lon": 0.0, "rental_uris": {"ios": "https://dc.lft.to/lastmile_qr_scan", "android": "https://dc.lft.to/lastmile_qr_scan"}, "lon": -77.0590745, "bike_id": "0e72e6e5081a8270d889e8f4f02ae346", "type": "electric_scooter", "name": "0e72e6e5081a8270d889e8f4f02ae346"}, {"is_disabled": 0, "is_reserved": 0, "fusion_lat": 0.0, "lat": 38.882898, "fusion_lon": 0.0, "rental_uris": {"ios": "https://dc.lft.to/lastmile_qr_scan", "android": "https://dc.lft.to/lastmile_qr_scan"}, "lon": -76.932463, "bike_id": "477362c39f9492d59b04e77913a638af", "type": "electric_bike", "name": "477362c39f9492d59b04e77913a638af"}, {"is_disabled": 0, "is_reserved": 0, "fusion_lat": 0.0, "lat": 38.9246945, "fusion_lon": 0.0, "rental_uris": {"ios": "https://dc.lft.to/lastmile_qr_scan", "android": "https://dc.lft.to/lastmile_qr_scan"}, "lon": -77.03536883333334, "bike_id": "67c9438ea32c2584fd4f6210ebb76ed5", "type": "electric_scooter", "name": "67c9438ea32c2584fd4f6210ebb76ed5"}, {"is_disabled": 0, "is_reserved": 0, "fusion_lat": 0.0, "lat": 38.80481533333333, "fusion_lon": 0.0, "rental_uris": {"ios": "https://dc.lft.to/lastmile_qr_scan", "android": "https://dc.lft.to/lastmile_qr_scan"}, "lon": -76.9910095, "bike_id": "54e94596a4168c6833f2b5ee87ccc1b8", "type": "electric_bike", "name": "54e94596a4168c6833f2b5ee87ccc1b8"}, {"is_disabled": 0, "is_reserved": 0, "fusion_lat": 0.0, "lat": 38.919693333333335, "fusion_lon": 0.0, "rental_uris": {"ios": "https://dc.lft.to/lastmile_qr_scan", "android": "https://dc.lft.to/lastmile_qr_scan"}, "lon": -77.04249, "bike_id": "1de422992182f9906d4a02f7696addcf", "type": "electric_scooter", "name": "1de422992182f9906d4a02f7696addcf"}, {"is_disabled": 0, "is_reserved": 0, "fusion_lat": 0.0, "lat": 38.91117583333333, "fusion_lon": 0.0, "rental_uris": {"ios": "https://dc.lft.to/lastmile_qr_scan", "android": "https://dc.lft.to/lastmile_qr_scan"}, "lon": -77.03861966666666, "bike_id": "f9b8cb0b1dda9dfb3fd8fcfd252a95cb", "type": "electric_scooter", "name": "f9b8cb0b1dda9dfb3fd8fcfd252a95cb"}, {"is_disabled": 0, "is_reserved": 0, "fusion_lat": 0.0, "lat": 38.9145385, "fusion_lon": 0.0, "rental_uris": {"ios": "https://dc.lft.to/lastmile_qr_scan", "android": "https://dc.lft.to/lastmile_qr_scan"}, "lon": -77.02170933333333, "bike_id": "2f26d397e611478d607338173503e9fa", "type": "electric_scooter", "name": "2f26d397e611478d607338173503e9fa"}, {"is_disabled": 0, "is_reserved": 0, "fusion_lat": 0.0, "lat": 38.901092166666665, "fusion_lon": 0.0, "rental_uris": {"ios": "https://dc.lft.to/lastmile_qr_scan", "android": "https://dc.lft.to/lastmile_qr_scan"}, "lon": -77.05055333333334, "bike_id": "17f1bb7968c0a837756bcadf635e73a3", "type": "electric_scooter", "name": "17f1bb7968c0a837756bcadf635e73a3"}, {"is_disabled": 0, "is_reserved": 0, "fusion_lat": 0.0, "lat": 38.95884866666667, "fusion_lon": 0.0, "rental_uris": {"ios": "https://dc.lft.to/lastmile_qr_scan", "android": "https://dc.lft.to/lastmile_qr_scan"}, "lon": -76.98090233333333, "bike_id": "a3a2c1eb1a2fbc40916576b525189596", "type": "electric_bike", "name": "a3a2c1eb1a2fbc40916576b525189596"}, {"is_disabled": 0, "is_reserved": 0, "fusion_lat": 0.0, "lat": 38.913520166666665, "fusion_lon": 0.0, "rental_uris": {"ios": "https://dc.lft.to/lastmile_qr_scan", "android": "https://dc.lft.to/lastmile_qr_scan"}, "lon": -77.0320595, "bike_id": "5d26aa65869e4cdb46dd43f86d2b9e40", "type": "electric_scooter", "name": "5d26aa65869e4cdb46dd43f86d2b9e40"}, {"is_disabled": 0, "is_reserved": 0, "fusion_lat": 0.0, "lat": 38.923351833333335, "fusion_lon": 0.0, "rental_uris": {"ios": "https://dc.lft.to/lastmile_qr_scan", "android": "https://dc.lft.to/lastmile_qr_scan"}, "lon": -77.07308433333333, "bike_id": "521cc9f97f81fe4b21aeda832add8afe", "type": "electric_scooter", "name": "521cc9f97f81fe4b21aeda832add8afe"}, {"is_disabled": 0, "is_reserved": 0, "fusion_lat": 0.0, "lat": 38.918108833333335, "fusion_lon": 0.0, "rental_uris": {"ios": "https://dc.lft.to/lastmile_qr_scan", "android": "https://dc.lft.to/lastmile_qr_scan"}, "lon": -77.03441183333334, "bike_id": "79aabd003bf0a4d1369f0d63e4eaee5c", "type": "electric_scooter", "name": "79aabd003bf0a4d1369f0d63e4eaee5c"}, {"is_disabled": 0, "is_reserved": 0, "fusion_lat": 0.0, "lat": 38.90886783333333, "fusion_lon": 0.0, "rental_uris": {"ios": "https://dc.lft.to/lastmile_qr_scan", "android": "https://dc.lft.to/lastmile_qr_scan"}, "lon": -77.04345416666666, "bike_id": "d5b707f3d231aa473b2a781a8ad319dd", "type": "electric_scooter", "name": "d5b707f3d231aa473b2a781a8ad319dd"}, {"is_disabled": 0, "is_reserved": 0, "fusion_lat": 0.0, "lat": 38.91317333333333, "fusion_lon": 0.0, "rental_uris": {"ios": "https://dc.lft.to/lastmile_qr_scan", "android": "https://dc.lft.to/lastmile_qr_scan"}, "lon": -77.01437883333334, "bike_id": "76f784ae29e91fd6df8d3bc1863472d9", "type": "electric_scooter", "name": "76f784ae29e91fd6df8d3bc1863472d9"}, {"is_disabled": 0, "is_reserved": 0, "fusion_lat": 0.0, "lat": 38.800199666666664, "fusion_lon": 0.0, "rental_uris": {"ios": "https://dc.lft.to/lastmile_qr_scan", "android": "https://dc.lft.to/lastmile_qr_scan"}, "lon": -77.12999733333334, "bike_id": "8c0ff601b4a63bade5211cc7a4c8a5ee", "type": "electric_bike", "name": "8c0ff601b4a63bade5211cc7a4c8a5ee"}, {"is_disabled": 0, "is_reserved": 0, "fusion_lat": 0.0, "lat": 38.90586616666667, "fusion_lon": 0.0, "rental_uris": {"ios": "https://dc.lft.to/lastmile_qr_scan", "android": "https://dc.lft.to/lastmile_qr_scan"}, "lon": -77.00554283333334, "bike_id": "3535deb29e94328b1d7bec97858acaf0", "type": "electric_scooter", "name": "3535deb29e94328b1d7bec97858acaf0"}, {"is_disabled": 0, "is_reserved": 0, "fusion_lat": 0.0, "lat": 38.89929733333334, "fusion_lon": 0.0, "rental_uris": {"ios": "https://dc.lft.to/lastmile_qr_scan", "android": "https://dc.lft.to/lastmile_qr_scan"}, "lon": -77.03231216666667, "bike_id": "b18da461d2edfd496607f05823a5c9a0", "type": "electric_scooter", "name": "b18da461d2edfd496607f05823a5c9a0"}, {"is_disabled": 0, "is_reserved": 0, "fusion_lat": 0.0, "lat": 38.86268966666667, "fusion_lon": 0.0, "rental_uris": {"ios": "https://dc.lft.to/lastmile_qr_scan", "android": "https://dc.lft.to/lastmile_qr_scan"}, "lon": -77.08936066666666, "bike_id": "fb11427aa32ed91944e35316505baa41", "type": "electric_bike", "name": "fb11427aa32ed91944e35316505baa41"}, {"is_disabled": 0, "is_reserved": 0, "fusion_lat": 0.0, "lat": 38.9006395, "fusion_lon": 0.0, "rental_uris": {"ios": "https://dc.lft.to/lastmile_qr_scan", "android": "https://dc.lft.to/lastmile_qr_scan"}, "lon": -76.98699666666667, "bike_id": "40eac058dee186e1264f473acb69fceb", "type": "electric_scooter", "name": "40eac058dee186e1264f473acb69fceb"}, {"is_disabled": 0, "is_reserved": 0, "fusion_lat": 0.0, "lat": 38.813318, "fusion_lon": 0.0, "rental_uris": {"ios": "https://dc.lft.to/lastmile_qr_scan", "android": "https://dc.lft.to/lastmile_qr_scan"}, "lon": -77.05093916666667, "bike_id": "b1e9b43627715b070845b3bdb1f84233", "type": "electric_bike", "name": "b1e9b43627715b070845b3bdb1f84233"}, {"is_disabled": 0, "is_reserved": 0, "fusion_lat": 0.0, "lat": 38.987248666666666, "fusion_lon": 0.0, "rental_uris": {"ios": "https://dc.lft.to/lastmile_qr_scan", "android": "https://dc.lft.to/lastmile_qr_scan"}, "lon": -77.03752916666667, "bike_id": "128b8000f46f571ca7f19117fad69f3a", "type": "electric_bike", "name": "128b8000f46f571ca7f19117fad69f3a"}, {"is_disabled": 0, "is_reserved": 0, "fusion_lat": 0.0, "lat": 38.8428685, "fusion_lon": 0.0, "rental_uris": {"ios": "https://dc.lft.to/lastmile_qr_scan", "android": "https://dc.lft.to/lastmile_qr_scan"}, "lon": -77.06384566666667, "bike_id": "629c20adaf4f26c095c8a13d74f730a1", "type": "electric_bike", "name": "629c20adaf4f26c095c8a13d74f730a1"}, {"is_disabled": 0, "is_reserved": 0, "fusion_lat": 0.0, "lat": 38.898263166666666, "fusion_lon": 0.0, "rental_uris": {"ios": "https://dc.lft.to/lastmile_qr_scan", "android": "https://dc.lft.to/lastmile_qr_scan"}, "lon": -77.02196533333333, "bike_id": "bd5d3a3d685d92d1f3472cc41fe0c757", "type": "electric_scooter", "name": "bd5d3a3d685d92d1f3472cc41fe0c757"}, {"is_disabled": 0, "is_reserved": 0, "fusion_lat": 0.0, "lat": 38.9341855, "fusion_lon": 0.0, "rental_uris": {"ios": "https://dc.lft.to/lastmile_qr_scan", "android": "https://dc.lft.to/lastmile_qr_scan"}, "lon": -77.02521466666667, "bike_id": "9cd2c9474de5d72fa6e6afe5728300ce", "type": "electric_bike", "name": "9cd2c9474de5d72fa6e6afe5728300ce"}, {"is_disabled": 0, "is_reserved": 0, "fusion_lat": 0.0, "lat": 38.888868333333335, "fusion_lon": 0.0, "rental_uris": {"ios": "https://dc.lft.to/lastmile_qr_scan", "android": "https://dc.lft.to/lastmile_qr_scan"}, "lon": -77.03321933333334, "bike_id": "22f57d36b3b6c1b2b99288f8db3cce85", "type": "electric_scooter", "name": "22f57d36b3b6c1b2b99288f8db3cce85"}, {"is_disabled": 0, "is_reserved": 0, "fusion_lat": 0.0, "lat": 38.881358, "fusion_lon": 0.0, "rental_uris": {"ios": "https://dc.lft.to/lastmile_qr_scan", "android": "https://dc.lft.to/lastmile_qr_scan"}, "lon": -77.02707433333333, "bike_id": "6259adc4819b2bc0ca24a480c08dc104", "type": "electric_scooter", "name": "6259adc4819b2bc0ca24a480c08dc104"}, {"is_disabled": 0, "is_reserved": 0, "fusion_lat": 0.0, "lat": 38.97588366666667, "fusion_lon": 0.0, "rental_uris": {"ios": "https://dc.lft.to/lastmile_qr_scan", "android": "https://dc.lft.to/lastmile_qr_scan"}, "lon": -77.01875416666667, "bike_id": "11dd944577dc830779dc92a17b335451", "type": "electric_scooter", "name": "11dd944577dc830779dc92a17b335451"}, {"is_disabled": 0, "is_reserved": 0, "fusion_lat": 0.0, "lat": 38.90933416666667, "fusion_lon": 0.0, "rental_uris": {"ios": "https://dc.lft.to/lastmile_qr_scan", "android": "https://dc.lft.to/lastmile_qr_scan"}, "lon": -77.02500166666667, "bike_id": "e3f2b8278c252caaeec126fd1568e65e", "type": "electric_scooter", "name": "e3f2b8278c252caaeec126fd1568e65e"}, {"is_disabled": 0, "is_reserved": 0, "fusion_lat": 0.0, "lat": 38.89540933333333, "fusion_lon": 0.0, "rental_uris": {"ios": "https://dc.lft.to/lastmile_qr_scan", "android": "https://dc.lft.to/lastmile_qr_scan"}, "lon": -76.98374166666666, "bike_id": "09defbf908f7afa628de65bbfa76a332", "type": "electric_scooter", "name": "09defbf908f7afa628de65bbfa76a332"}, {"is_disabled": 0, "is_reserved": 0, "fusion_lat": 0.0, "lat": 38.912615333333335, "fusion_lon": 0.0, "rental_uris": {"ios": "https://dc.lft.to/lastmile_qr_scan", "android": "https://dc.lft.to/lastmile_qr_scan"}, "lon": -77.01906066666666, "bike_id": "c96b9a3cfd0f02961af8b13eb53ca3fd", "type": "electric_scooter", "name": "c96b9a3cfd0f02961af8b13eb53ca3fd"}, {"is_disabled": 0, "is_reserved": 0, "fusion_lat": 0.0, "lat": 38.9207185, "fusion_lon": 0.0, "rental_uris": {"ios": "https://dc.lft.to/lastmile_qr_scan", "android": "https://dc.lft.to/lastmile_qr_scan"}, "lon": -77.02848583333333, "bike_id": "1cc1133fe612cba77d72e851c5a81a9a", "type": "electric_scooter", "name": "1cc1133fe612cba77d72e851c5a81a9a"}, {"is_disabled": 0, "is_reserved": 0, "fusion_lat": 0.0, "lat": 38.9569675, "fusion_lon": 0.0, "rental_uris": {"ios": "https://dc.lft.to/lastmile_qr_scan", "android": "https://dc.lft.to/lastmile_qr_scan"}, "lon": -77.02226733333333, "bike_id": "7a66067249c8da9ea5713ac32198e08d", "type": "electric_bike", "name": "7a66067249c8da9ea5713ac32198e08d"}, {"is_disabled": 0, "is_reserved": 0, "fusion_lat": 0.0, "lat": 38.892261166666664, "fusion_lon": 0.0, "rental_uris": {"ios": "https://dc.lft.to/lastmile_qr_scan", "android": "https://dc.lft.to/lastmile_qr_scan"}, "lon": -77.0333905, "bike_id": "2376d538407353eeb6c824560f7574c1", "type": "electric_scooter", "name": "2376d538407353eeb6c824560f7574c1"}, {"is_disabled": 0, "is_reserved": 0, "fusion_lat": 0.0, "lat": 38.9573085, "fusion_lon": 0.0, "rental_uris": {"ios": "https://dc.lft.to/lastmile_qr_scan", "android": "https://dc.lft.to/lastmile_qr_scan"}, "lon": -77.023998, "bike_id": "f6d0def1af3c42ff7e8f323a8015a9f9", "type": "electric_scooter", "name": "f6d0def1af3c42ff7e8f323a8015a9f9"}, {"is_disabled": 0, "is_reserved": 0, "fusion_lat": 0.0, "lat": 38.94962066666667, "fusion_lon": 0.0, "rental_uris": {"ios": "https://dc.lft.to/lastmile_qr_scan", "android": "https://dc.lft.to/lastmile_qr_scan"}, "lon": -77.067484, "bike_id": "2986af9123b810c8adbf791b25a2c527", "type": "electric_scooter", "name": "2986af9123b810c8adbf791b25a2c527"}, {"is_disabled": 0, "is_reserved": 0, "fusion_lat": 0.0, "lat": 38.8277365, "fusion_lon": 0.0, "rental_uris": {"ios": "https://dc.lft.to/lastmile_qr_scan", "android": "https://dc.lft.to/lastmile_qr_scan"}, "lon": -77.0601295, "bike_id": "6eb699b96327b64170117e4d4d8275dc", "type": "electric_bike", "name": "6eb699b96327b64170117e4d4d8275dc"}, {"is_disabled": 0, "is_reserved": 0, "fusion_lat": 0.0, "lat": 38.91714116666667, "fusion_lon": 0.0, "rental_uris": {"ios": "https://dc.lft.to/lastmile_qr_scan", "android": "https://dc.lft.to/lastmile_qr_scan"}, "lon": -77.03853033333333, "bike_id": "468a0268a1a2ba077f868c4ef06bf53e", "type": "electric_scooter", "name": "468a0268a1a2ba077f868c4ef06bf53e"}, {"is_disabled": 0, "is_reserved": 0, "fusion_lat": 0.0, "lat": 38.951711333333336, "fusion_lon": 0.0, "rental_uris": {"ios": "https://dc.lft.to/lastmile_qr_scan", "android": "https://dc.lft.to/lastmile_qr_scan"}, "lon": -77.01843283333334, "bike_id": "28cf732d544b65cc1a95b6e0da9c21ef", "type": "electric_scooter", "name": "28cf732d544b65cc1a95b6e0da9c21ef"}, {"is_disabled": 0, "is_reserved": 0, "fusion_lat": 0.0, "lat": 38.90726266666667, "fusion_lon": 0.0, "rental_uris": {"ios": "https://dc.lft.to/lastmile_qr_scan", "android": "https://dc.lft.to/lastmile_qr_scan"}, "lon": -77.0320415, "bike_id": "1927bb307003d329f70bc3615e2aeab4", "type": "electric_scooter", "name": "1927bb307003d329f70bc3615e2aeab4"}, {"is_disabled": 0, "is_reserved": 0, "fusion_lat": 0.0, "lat": 38.95730483333333, "fusion_lon": 0.0, "rental_uris": {"ios": "https://dc.lft.to/lastmile_qr_scan", "android": "https://dc.lft.to/lastmile_qr_scan"}, "lon": -77.02400066666667, "bike_id": "742b2516450ffaaaeafc965e9f04330b", "type": "electric_scooter", "name": "742b2516450ffaaaeafc965e9f04330b"}, {"is_disabled": 0, "is_reserved": 0, "fusion_lat": 0.0, "lat": 38.922392333333335, "fusion_lon": 0.0, "rental_uris": {"ios": "https://dc.lft.to/lastmile_qr_scan", "android": "https://dc.lft.to/lastmile_qr_scan"}, "lon": -77.0351175, "bike_id": "0edbfafb97e9f57ccfd744b89f89f475", "type": "electric_scooter", "name": "0edbfafb97e9f57ccfd744b89f89f475"}, {"is_disabled": 0, "is_reserved": 0, "fusion_lat": 0.0, "lat": 38.9255985, "fusion_lon": 0.0, "rental_uris": {"ios": "https://dc.lft.to/lastmile_qr_scan", "android": "https://dc.lft.to/lastmile_qr_scan"}, "lon": -77.0226885, "bike_id": "47c671e583cf10907d27a1907dbd6b76", "type": "electric_scooter", "name": "47c671e583cf10907d27a1907dbd6b76"}, {"is_disabled": 0, "is_reserved": 0, "fusion_lat": 0.0, "lat": 38.86214666666667, "fusion_lon": 0.0, "rental_uris": {"ios": "https://dc.lft.to/lastmile_qr_scan", "android": "https://dc.lft.to/lastmile_qr_scan"}, "lon": -76.99478, "bike_id": "689488189495e8eceb66d31243c8fc4a", "type": "electric_scooter", "name": "689488189495e8eceb66d31243c8fc4a"}, {"is_disabled": 0, "is_reserved": 0, "fusion_lat": 0.0, "lat": 38.90263733333333, "fusion_lon": 0.0, "rental_uris": {"ios": "https://dc.lft.to/lastmile_qr_scan", "android": "https://dc.lft.to/lastmile_qr_scan"}, "lon": -77.00169716666667, "bike_id": "39339e0e1f6d22bbeaaa83cc872441b5", "type": "electric_scooter", "name": "39339e0e1f6d22bbeaaa83cc872441b5"}, {"is_disabled": 0, "is_reserved": 0, "fusion_lat": 0.0, "lat": 38.92525033333333, "fusion_lon": 0.0, "rental_uris": {"ios": "https://dc.lft.to/lastmile_qr_scan", "android": "https://dc.lft.to/lastmile_qr_scan"}, "lon": -77.03849033333333, "bike_id": "7f887fd4f697904cff71bd215217be62", "type": "electric_scooter", "name": "7f887fd4f697904cff71bd215217be62"}, {"is_disabled": 0, "is_reserved": 0, "fusion_lat": 0.0, "lat": 38.9082455, "fusion_lon": 0.0, "rental_uris": {"ios": "https://dc.lft.to/lastmile_qr_scan", "android": "https://dc.lft.to/lastmile_qr_scan"}, "lon": -76.98254216666666, "bike_id": "290c1bc94fd693ca0b2cc2c42f8e7fbe", "type": "electric_scooter", "name": "290c1bc94fd693ca0b2cc2c42f8e7fbe"}, {"is_disabled": 0, "is_reserved": 0, "fusion_lat": 0.0, "lat": 38.8708755, "fusion_lon": 0.0, "rental_uris": {"ios": "https://dc.lft.to/lastmile_qr_scan", "android": "https://dc.lft.to/lastmile_qr_scan"}, "lon": -77.1333015, "bike_id": "c0c7e5ad040501309252367542b1620f", "type": "electric_bike", "name": "c0c7e5ad040501309252367542b1620f"}, {"is_disabled": 0, "is_reserved": 0, "fusion_lat": 0.0, "lat": 38.90796183333333, "fusion_lon": 0.0, "rental_uris": {"ios": "https://dc.lft.to/lastmile_qr_scan", "android": "https://dc.lft.to/lastmile_qr_scan"}, "lon": -77.04518083333333, "bike_id": "f34ce0030c232c4dc14ff5ff4aa8a5d5", "type": "electric_scooter", "name": "f34ce0030c232c4dc14ff5ff4aa8a5d5"}, {"is_disabled": 0, "is_reserved": 0, "fusion_lat": 0.0, "lat": 38.831587999999996, "fusion_lon": 0.0, "rental_uris": {"ios": "https://dc.lft.to/lastmile_qr_scan", "android": "https://dc.lft.to/lastmile_qr_scan"}, "lon": -76.99573133333334, "bike_id": "8760403b2f140c81507eea63c4d24be7", "type": "electric_bike", "name": "8760403b2f140c81507eea63c4d24be7"}, {"is_disabled": 0, "is_reserved": 0, "fusion_lat": 0.0, "lat": 38.90204833333333, "fusion_lon": 0.0, "rental_uris": {"ios": "https://dc.lft.to/lastmile_qr_scan", "android": "https://dc.lft.to/lastmile_qr_scan"}, "lon": -77.03396516666666, "bike_id": "69a91497ad6c713f30a76822a8c9e890", "type": "electric_scooter", "name": "69a91497ad6c713f30a76822a8c9e890"}, {"is_disabled": 0, "is_reserved": 0, "fusion_lat": 0.0, "lat": 38.8465105, "fusion_lon": 0.0, "rental_uris": {"ios": "https://dc.lft.to/lastmile_qr_scan", "android": "https://dc.lft.to/lastmile_qr_scan"}, "lon": -77.00371916666667, "bike_id": "0df71e149926559e110dda5abf1aeeaa", "type": "electric_scooter", "name": "0df71e149926559e110dda5abf1aeeaa"}, {"is_disabled": 0, "is_reserved": 0, "fusion_lat": 0.0, "lat": 38.8802185, "fusion_lon": 0.0, "rental_uris": {"ios": "https://dc.lft.to/lastmile_qr_scan", "android": "https://dc.lft.to/lastmile_qr_scan"}, "lon": -76.9431805, "bike_id": "ec3571a3cfcda1d954dac94a684d0415", "type": "electric_scooter", "name": "ec3571a3cfcda1d954dac94a684d0415"}, {"is_disabled": 0, "is_reserved": 0, "fusion_lat": 0.0, "lat": 38.88711933333333, "fusion_lon": 0.0, "rental_uris": {"ios": "https://dc.lft.to/lastmile_qr_scan", "android": "https://dc.lft.to/lastmile_qr_scan"}, "lon": -76.98349066666667, "bike_id": "c1cbb2f790596ac0b80f11e53e2bf927", "type": "electric_scooter", "name": "c1cbb2f790596ac0b80f11e53e2bf927"}, {"is_disabled": 0, "is_reserved": 0, "fusion_lat": 0.0, "lat": 38.90041183333334, "fusion_lon": 0.0, "rental_uris": {"ios": "https://dc.lft.to/lastmile_qr_scan", "android": "https://dc.lft.to/lastmile_qr_scan"}, "lon": -77.017735, "bike_id": "062dd19af1c68aea988445e3b2a6afe3", "type": "electric_scooter", "name": "062dd19af1c68aea988445e3b2a6afe3"}, {"is_disabled": 0, "is_reserved": 0, "fusion_lat": 0.0, "lat": 38.919121, "fusion_lon": 0.0, "rental_uris": {"ios": "https://dc.lft.to/lastmile_qr_scan", "android": "https://dc.lft.to/lastmile_qr_scan"}, "lon": -77.03186483333333, "bike_id": "a4180f6fcfbe5bea31549f29378dae00", "type": "electric_scooter", "name": "a4180f6fcfbe5bea31549f29378dae00"}, {"is_disabled": 0, "is_reserved": 0, "fusion_lat": 0.0, "lat": 38.9136385, "fusion_lon": 0.0, "rental_uris": {"ios": "https://dc.lft.to/lastmile_qr_scan", "android": "https://dc.lft.to/lastmile_qr_scan"}, "lon": -77.02054883333334, "bike_id": "e639acc1397c47153e125e2b493b0309", "type": "electric_scooter", "name": "e639acc1397c47153e125e2b493b0309"}, {"is_disabled": 0, "is_reserved": 0, "fusion_lat": 0.0, "lat": 38.922369833333335, "fusion_lon": 0.0, "rental_uris": {"ios": "https://dc.lft.to/lastmile_qr_scan", "android": "https://dc.lft.to/lastmile_qr_scan"}, "lon": -77.03894683333333, "bike_id": "0559ca066afd8a192e81fb6662648b93", "type": "electric_scooter", "name": "0559ca066afd8a192e81fb6662648b93"}, {"is_disabled": 0, "is_reserved": 0, "fusion_lat": 0.0, "lat": 38.90957016666667, "fusion_lon": 0.0, "rental_uris": {"ios": "https://dc.lft.to/lastmile_qr_scan", "android": "https://dc.lft.to/lastmile_qr_scan"}, "lon": -77.02277033333333, "bike_id": "b18a19fbd3f6d970871523a4bbed7f7a", "type": "electric_scooter", "name": "b18a19fbd3f6d970871523a4bbed7f7a"}, {"is_disabled": 0, "is_reserved": 0, "fusion_lat": 0.0, "lat": 38.96363233333334, "fusion_lon": 0.0, "rental_uris": {"ios": "https://dc.lft.to/lastmile_qr_scan", "android": "https://dc.lft.to/lastmile_qr_scan"}, "lon": -77.03444133333333, "bike_id": "e5b0004b45760d4dacae3e9d9db666ef", "type": "electric_scooter", "name": "e5b0004b45760d4dacae3e9d9db666ef"}, {"is_disabled": 0, "is_reserved": 0, "fusion_lat": 0.0, "lat": 38.90357683333333, "fusion_lon": 0.0, "rental_uris": {"ios": "https://dc.lft.to/lastmile_qr_scan", "android": "https://dc.lft.to/lastmile_qr_scan"}, "lon": -77.05999366666667, "bike_id": "c409803a9c182a951eb62be6e456e38f", "type": "electric_scooter", "name": "c409803a9c182a951eb62be6e456e38f"}, {"is_disabled": 0, "is_reserved": 0, "fusion_lat": 0.0, "lat": 38.842599, "fusion_lon": 0.0, "rental_uris": {"ios": "https://dc.lft.to/lastmile_qr_scan", "android": "https://dc.lft.to/lastmile_qr_scan"}, "lon": -76.988368, "bike_id": "a565a85bf27e8d024c12f5fda0983010", "type": "electric_scooter", "name": "a565a85bf27e8d024c12f5fda0983010"}, {"is_disabled": 0, "is_reserved": 0, "fusion_lat": 0.0, "lat": 38.90446883333333, "fusion_lon": 0.0, "rental_uris": {"ios": "https://dc.lft.to/lastmile_qr_scan", "android": "https://dc.lft.to/lastmile_qr_scan"}, "lon": -76.9730755, "bike_id": "ce0b81afae3c5f2d211cdca96355a698", "type": "electric_scooter", "name": "ce0b81afae3c5f2d211cdca96355a698"}, {"is_disabled": 0, "is_reserved": 0, "fusion_lat": 0.0, "lat": 38.87647666666667, "fusion_lon": 0.0, "rental_uris": {"ios": "https://dc.lft.to/lastmile_qr_scan", "android": "https://dc.lft.to/lastmile_qr_scan"}, "lon": -77.01579633333333, "bike_id": "5f1b3c59c524a7b9af8c5c56eaf6aaec", "type": "electric_scooter", "name": "5f1b3c59c524a7b9af8c5c56eaf6aaec"}, {"is_disabled": 0, "is_reserved": 0, "fusion_lat": 0.0, "lat": 38.871734000000004, "fusion_lon": 0.0, "rental_uris": {"ios": "https://dc.lft.to/lastmile_qr_scan", "android": "https://dc.lft.to/lastmile_qr_scan"}, "lon": -77.00623066666667, "bike_id": "340eba1fa5478fe6525d409a24925db9", "type": "electric_scooter", "name": "340eba1fa5478fe6525d409a24925db9"}, {"is_disabled": 0, "is_reserved": 0, "fusion_lat": 0.0, "lat": 38.916857666666665, "fusion_lon": 0.0, "rental_uris": {"ios": "https://dc.lft.to/lastmile_qr_scan", "android": "https://dc.lft.to/lastmile_qr_scan"}, "lon": -77.02972716666666, "bike_id": "5c2a334e1440d941b261f60372b4cd40", "type": "electric_scooter", "name": "5c2a334e1440d941b261f60372b4cd40"}, {"is_disabled": 0, "is_reserved": 0, "fusion_lat": 0.0, "lat": 38.93856566666667, "fusion_lon": 0.0, "rental_uris": {"ios": "https://dc.lft.to/lastmile_qr_scan", "android": "https://dc.lft.to/lastmile_qr_scan"}, "lon": -76.99430266666667, "bike_id": "16c2ff18cd235917e3fe5dbe897efed0", "type": "electric_scooter", "name": "16c2ff18cd235917e3fe5dbe897efed0"}, {"is_disabled": 0, "is_reserved": 0, "fusion_lat": 0.0, "lat": 38.923323833333335, "fusion_lon": 0.0, "rental_uris": {"ios": "https://dc.lft.to/lastmile_qr_scan", "android": "https://dc.lft.to/lastmile_qr_scan"}, "lon": -77.05682, "bike_id": "85bdb2e74b52716aab5397edd7e22ffb", "type": "electric_scooter", "name": "85bdb2e74b52716aab5397edd7e22ffb"}, {"is_disabled": 0, "is_reserved": 0, "fusion_lat": 0.0, "lat": 38.93554966666667, "fusion_lon": 0.0, "rental_uris": {"ios": "https://dc.lft.to/lastmile_qr_scan", "android": "https://dc.lft.to/lastmile_qr_scan"}, "lon": -77.07708016666666, "bike_id": "e2bf1e7d583b237266dacc28f4109a04", "type": "electric_scooter", "name": "e2bf1e7d583b237266dacc28f4109a04"}, {"is_disabled": 0, "is_reserved": 0, "fusion_lat": 0.0, "lat": 38.891796166666666, "fusion_lon": 0.0, "rental_uris": {"ios": "https://dc.lft.to/lastmile_qr_scan", "android": "https://dc.lft.to/lastmile_qr_scan"}, "lon": -77.0318005, "bike_id": "5fcd1eab63efedb8e6b9359ddc3dfb71", "type": "electric_scooter", "name": "5fcd1eab63efedb8e6b9359ddc3dfb71"}, {"is_disabled": 0, "is_reserved": 0, "fusion_lat": 0.0, "lat": 38.92580683333333, "fusion_lon": 0.0, "rental_uris": {"ios": "https://dc.lft.to/lastmile_qr_scan", "android": "https://dc.lft.to/lastmile_qr_scan"}, "lon": -77.04414333333334, "bike_id": "6f4ed3a0a51743c882817bd97700c360", "type": "electric_scooter", "name": "6f4ed3a0a51743c882817bd97700c360"}, {"is_disabled": 0, "is_reserved": 0, "fusion_lat": 0.0, "lat": 38.89221766666667, "fusion_lon": 0.0, "rental_uris": {"ios": "https://dc.lft.to/lastmile_qr_scan", "android": "https://dc.lft.to/lastmile_qr_scan"}, "lon": -77.03199716666667, "bike_id": "a0d6551d160a21bd88eb9caa9d3a0088", "type": "electric_scooter", "name": "a0d6551d160a21bd88eb9caa9d3a0088"}, {"is_disabled": 0, "is_reserved": 0, "fusion_lat": 0.0, "lat": 38.9142255, "fusion_lon": 0.0, "rental_uris": {"ios": "https://dc.lft.to/lastmile_qr_scan", "android": "https://dc.lft.to/lastmile_qr_scan"}, "lon": -77.03172583333334, "bike_id": "1a462251edd5c28bded6d39503f73f33", "type": "electric_scooter", "name": "1a462251edd5c28bded6d39503f73f33"}, {"is_disabled": 0, "is_reserved": 0, "fusion_lat": 0.0, "lat": 38.924760666666664, "fusion_lon": 0.0, "rental_uris": {"ios": "https://dc.lft.to/lastmile_qr_scan", "android": "https://dc.lft.to/lastmile_qr_scan"}, "lon": -77.02829033333333, "bike_id": "89945cfa8e42df1b056d0dc6743b7323", "type": "electric_scooter", "name": "89945cfa8e42df1b056d0dc6743b7323"}, {"is_disabled": 0, "is_reserved": 0, "fusion_lat": 0.0, "lat": 38.9024435, "fusion_lon": 0.0, "rental_uris": {"ios": "https://dc.lft.to/lastmile_qr_scan", "android": "https://dc.lft.to/lastmile_qr_scan"}, "lon": -77.03276516666666, "bike_id": "5a0a5d38545311fca49fef2f0fdc04aa", "type": "electric_scooter", "name": "5a0a5d38545311fca49fef2f0fdc04aa"}, {"is_disabled": 0, "is_reserved": 0, "fusion_lat": 0.0, "lat": 38.852446666666665, "fusion_lon": 0.0, "rental_uris": {"ios": "https://dc.lft.to/lastmile_qr_scan", "android": "https://dc.lft.to/lastmile_qr_scan"}, "lon": -77.114136, "bike_id": "a16230feb43f2dafb40d4a5f3fe3cd69", "type": "electric_bike", "name": "a16230feb43f2dafb40d4a5f3fe3cd69"}, {"is_disabled": 0, "is_reserved": 0, "fusion_lat": 0.0, "lat": 38.8831785, "fusion_lon": 0.0, "rental_uris": {"ios": "https://dc.lft.to/lastmile_qr_scan", "android": "https://dc.lft.to/lastmile_qr_scan"}, "lon": -76.9349995, "bike_id": "6d83bf72aef684832a6bdf6452491d78", "type": "electric_scooter", "name": "6d83bf72aef684832a6bdf6452491d78"}, {"is_disabled": 0, "is_reserved": 0, "fusion_lat": 0.0, "lat": 38.9203165, "fusion_lon": 0.0, "rental_uris": {"ios": "https://dc.lft.to/lastmile_qr_scan", "android": "https://dc.lft.to/lastmile_qr_scan"}, "lon": -77.01723083333333, "bike_id": "024b1e6e48b14b25475d668922707e54", "type": "electric_scooter", "name": "024b1e6e48b14b25475d668922707e54"}, {"is_disabled": 0, "is_reserved": 0, "fusion_lat": 0.0, "lat": 38.94655433333333, "fusion_lon": 0.0, "rental_uris": {"ios": "https://dc.lft.to/lastmile_qr_scan", "android": "https://dc.lft.to/lastmile_qr_scan"}, "lon": -77.06455683333333, "bike_id": "b4fe0672ffe8936f109db31a353b34b7", "type": "electric_scooter", "name": "b4fe0672ffe8936f109db31a353b34b7"}, {"is_disabled": 0, "is_reserved": 0, "fusion_lat": 0.0, "lat": 38.8923425, "fusion_lon": 0.0, "rental_uris": {"ios": "https://dc.lft.to/lastmile_qr_scan", "android": "https://dc.lft.to/lastmile_qr_scan"}, "lon": -77.04873116666667, "bike_id": "65a54d246ed21716b831d5c859395fd0", "type": "electric_scooter", "name": "65a54d246ed21716b831d5c859395fd0"}, {"is_disabled": 0, "is_reserved": 0, "fusion_lat": 0.0, "lat": 38.9157535, "fusion_lon": 0.0, "rental_uris": {"ios": "https://dc.lft.to/lastmile_qr_scan", "android": "https://dc.lft.to/lastmile_qr_scan"}, "lon": -77.03659716666667, "bike_id": "dedda9c24aed3919b259ce707c97f762", "type": "electric_scooter", "name": "dedda9c24aed3919b259ce707c97f762"}, {"is_disabled": 0, "is_reserved": 0, "fusion_lat": 0.0, "lat": 38.932020333333334, "fusion_lon": 0.0, "rental_uris": {"ios": "https://dc.lft.to/lastmile_qr_scan", "android": "https://dc.lft.to/lastmile_qr_scan"}, "lon": -77.02387366666666, "bike_id": "83a530ffcb5b1dd96d0b994f54916b78", "type": "electric_scooter", "name": "83a530ffcb5b1dd96d0b994f54916b78"}, {"is_disabled": 0, "is_reserved": 0, "fusion_lat": 0.0, "lat": 38.90462516666667, "fusion_lon": 0.0, "rental_uris": {"ios": "https://dc.lft.to/lastmile_qr_scan", "android": "https://dc.lft.to/lastmile_qr_scan"}, "lon": -77.0659195, "bike_id": "9b53e09dad915dda28e84ea7698bacd3", "type": "electric_scooter", "name": "9b53e09dad915dda28e84ea7698bacd3"}, {"is_disabled": 0, "is_reserved": 0, "fusion_lat": 0.0, "lat": 38.904686833333336, "fusion_lon": 0.0, "rental_uris": {"ios": "https://dc.lft.to/lastmile_qr_scan", "android": "https://dc.lft.to/lastmile_qr_scan"}, "lon": -77.04317916666666, "bike_id": "d4ce0fe9af8c90e41b515634f086eb71", "type": "electric_scooter", "name": "d4ce0fe9af8c90e41b515634f086eb71"}, {"is_disabled": 0, "is_reserved": 0, "fusion_lat": 0.0, "lat": 38.916739166666666, "fusion_lon": 0.0, "rental_uris": {"ios": "https://dc.lft.to/lastmile_qr_scan", "android": "https://dc.lft.to/lastmile_qr_scan"}, "lon": -77.02962716666667, "bike_id": "2d157bbeceff4f13ee10f443e659b8a4", "type": "electric_scooter", "name": "2d157bbeceff4f13ee10f443e659b8a4"}, {"is_disabled": 0, "is_reserved": 0, "fusion_lat": 0.0, "lat": 38.892063, "fusion_lon": 0.0, "rental_uris": {"ios": "https://dc.lft.to/lastmile_qr_scan", "android": "https://dc.lft.to/lastmile_qr_scan"}, "lon": -76.99930416666666, "bike_id": "98236533122e0e316f9702f511aef3f9", "type": "electric_scooter", "name": "98236533122e0e316f9702f511aef3f9"}, {"is_disabled": 0, "is_reserved": 0, "fusion_lat": 0.0, "lat": 38.9232765, "fusion_lon": 0.0, "rental_uris": {"ios": "https://dc.lft.to/lastmile_qr_scan", "android": "https://dc.lft.to/lastmile_qr_scan"}, "lon": -77.05678466666667, "bike_id": "2f16323dd2db5867b5db451c5e7bee8f", "type": "electric_scooter", "name": "2f16323dd2db5867b5db451c5e7bee8f"}, {"is_disabled": 0, "is_reserved": 0, "fusion_lat": 0.0, "lat": 38.92315583333333, "fusion_lon": 0.0, "rental_uris": {"ios": "https://dc.lft.to/lastmile_qr_scan", "android": "https://dc.lft.to/lastmile_qr_scan"}, "lon": -77.02889883333333, "bike_id": "f62ad717725afc1f3123f074bd650ed1", "type": "electric_scooter", "name": "f62ad717725afc1f3123f074bd650ed1"}, {"is_disabled": 0, "is_reserved": 0, "fusion_lat": 0.0, "lat": 38.919105333333334, "fusion_lon": 0.0, "rental_uris": {"ios": "https://dc.lft.to/lastmile_qr_scan", "android": "https://dc.lft.to/lastmile_qr_scan"}, "lon": -77.03177316666667, "bike_id": "a305527cef51d279c6be577cd29a9640", "type": "electric_scooter", "name": "a305527cef51d279c6be577cd29a9640"}, {"is_disabled": 0, "is_reserved": 0, "fusion_lat": 0.0, "lat": 38.9192495, "fusion_lon": 0.0, "rental_uris": {"ios": "https://dc.lft.to/lastmile_qr_scan", "android": "https://dc.lft.to/lastmile_qr_scan"}, "lon": -77.01186433333334, "bike_id": "9f52608e0ec953b80f86a202914c0ba5", "type": "electric_scooter", "name": "9f52608e0ec953b80f86a202914c0ba5"}, {"is_disabled": 0, "is_reserved": 0, "fusion_lat": 0.0, "lat": 38.922536666666666, "fusion_lon": 0.0, "rental_uris": {"ios": "https://dc.lft.to/lastmile_qr_scan", "android": "https://dc.lft.to/lastmile_qr_scan"}, "lon": -77.03413833333333, "bike_id": "3b81b00c15a4519749a190bc381a866e", "type": "electric_scooter", "name": "3b81b00c15a4519749a190bc381a866e"}, {"is_disabled": 0, "is_reserved": 0, "fusion_lat": 0.0, "lat": 38.958778, "fusion_lon": 0.0, "rental_uris": {"ios": "https://dc.lft.to/lastmile_qr_scan", "android": "https://dc.lft.to/lastmile_qr_scan"}, "lon": -77.0140235, "bike_id": "fc7262d6ace564b801a9fc378a576606", "type": "electric_bike", "name": "fc7262d6ace564b801a9fc378a576606"}, {"is_disabled": 0, "is_reserved": 0, "fusion_lat": 0.0, "lat": 38.92328783333333, "fusion_lon": 0.0, "rental_uris": {"ios": "https://dc.lft.to/lastmile_qr_scan", "android": "https://dc.lft.to/lastmile_qr_scan"}, "lon": -77.03671316666667, "bike_id": "60032544cceb831c666dc4317b440b60", "type": "electric_scooter", "name": "60032544cceb831c666dc4317b440b60"}, {"is_disabled": 0, "is_reserved": 0, "fusion_lat": 0.0, "lat": 38.87888383333333, "fusion_lon": 0.0, "rental_uris": {"ios": "https://dc.lft.to/lastmile_qr_scan", "android": "https://dc.lft.to/lastmile_qr_scan"}, "lon": -76.96548016666667, "bike_id": "d5c2e4cf8f74fd49033503c688f6f793", "type": "electric_scooter", "name": "d5c2e4cf8f74fd49033503c688f6f793"}, {"is_disabled": 0, "is_reserved": 0, "fusion_lat": 0.0, "lat": 38.956879, "fusion_lon": 0.0, "rental_uris": {"ios": "https://dc.lft.to/lastmile_qr_scan", "android": "https://dc.lft.to/lastmile_qr_scan"}, "lon": -77.022231, "bike_id": "ff31b8b8048ca59df2fa91769d38cb06", "type": "electric_scooter", "name": "ff31b8b8048ca59df2fa91769d38cb06"}, {"is_disabled": 0, "is_reserved": 0, "fusion_lat": 0.0, "lat": 38.91983033333333, "fusion_lon": 0.0, "rental_uris": {"ios": "https://dc.lft.to/lastmile_qr_scan", "android": "https://dc.lft.to/lastmile_qr_scan"}, "lon": -77.0179065, "bike_id": "992b1a93a995861c97ec792c882145fb", "type": "electric_scooter", "name": "992b1a93a995861c97ec792c882145fb"}, {"is_disabled": 0, "is_reserved": 0, "fusion_lat": 0.0, "lat": 38.917111166666665, "fusion_lon": 0.0, "rental_uris": {"ios": "https://dc.lft.to/lastmile_qr_scan", "android": "https://dc.lft.to/lastmile_qr_scan"}, "lon": -77.034646, "bike_id": "603698a61cfc25cfc8a5de9777c6e00d", "type": "electric_scooter", "name": "603698a61cfc25cfc8a5de9777c6e00d"}, {"is_disabled": 0, "is_reserved": 0, "fusion_lat": 0.0, "lat": 38.93191216666666, "fusion_lon": 0.0, "rental_uris": {"ios": "https://dc.lft.to/lastmile_qr_scan", "android": "https://dc.lft.to/lastmile_qr_scan"}, "lon": -77.023572, "bike_id": "eeabc6d9d52ec23200ad0f93a62feeab", "type": "electric_scooter", "name": "eeabc6d9d52ec23200ad0f93a62feeab"}, {"is_disabled": 0, "is_reserved": 0, "fusion_lat": 0.0, "lat": 38.91788366666667, "fusion_lon": 0.0, "rental_uris": {"ios": "https://dc.lft.to/lastmile_qr_scan", "android": "https://dc.lft.to/lastmile_qr_scan"}, "lon": -77.02311, "bike_id": "a6ab529ab56b31a1f65d9e8cd524bcf1", "type": "electric_scooter", "name": "a6ab529ab56b31a1f65d9e8cd524bcf1"}, {"is_disabled": 0, "is_reserved": 0, "fusion_lat": 0.0, "lat": 38.90165616666667, "fusion_lon": 0.0, "rental_uris": {"ios": "https://dc.lft.to/lastmile_qr_scan", "android": "https://dc.lft.to/lastmile_qr_scan"}, "lon": -77.05335716666667, "bike_id": "b65830744b5ef07c65e2402d4f17ae82", "type": "electric_scooter", "name": "b65830744b5ef07c65e2402d4f17ae82"}, {"is_disabled": 0, "is_reserved": 0, "fusion_lat": 0.0, "lat": 38.896210833333335, "fusion_lon": 0.0, "rental_uris": {"ios": "https://dc.lft.to/lastmile_qr_scan", "android": "https://dc.lft.to/lastmile_qr_scan"}, "lon": -76.90742766666666, "bike_id": "81648cfe9ff3b12a5cb65c9423743634", "type": "electric_bike", "name": "81648cfe9ff3b12a5cb65c9423743634"}, {"is_disabled": 0, "is_reserved": 0, "fusion_lat": 0.0, "lat": 38.82206583333333, "fusion_lon": 0.0, "rental_uris": {"ios": "https://dc.lft.to/lastmile_qr_scan", "android": "https://dc.lft.to/lastmile_qr_scan"}, "lon": -76.97697883333333, "bike_id": "1d68aefbc1bb1cd84c7bb70646139f47", "type": "electric_bike", "name": "1d68aefbc1bb1cd84c7bb70646139f47"}, {"is_disabled": 0, "is_reserved": 0, "fusion_lat": 0.0, "lat": 38.90695566666667, "fusion_lon": 0.0, "rental_uris": {"ios": "https://dc.lft.to/lastmile_qr_scan", "android": "https://dc.lft.to/lastmile_qr_scan"}, "lon": -76.95253483333333, "bike_id": "6694a5ca8d58dc998c662f70bae5295f", "type": "electric_bike", "name": "6694a5ca8d58dc998c662f70bae5295f"}, {"is_disabled": 0, "is_reserved": 0, "fusion_lat": 0.0, "lat": 38.89198316666667, "fusion_lon": 0.0, "rental_uris": {"ios": "https://dc.lft.to/lastmile_qr_scan", "android": "https://dc.lft.to/lastmile_qr_scan"}, "lon": -77.04384316666666, "bike_id": "0b07f304f5dc9d47b6f87d246f933896", "type": "electric_scooter", "name": "0b07f304f5dc9d47b6f87d246f933896"}, {"is_disabled": 0, "is_reserved": 0, "fusion_lat": 0.0, "lat": 38.9111815, "fusion_lon": 0.0, "rental_uris": {"ios": "https://dc.lft.to/lastmile_qr_scan", "android": "https://dc.lft.to/lastmile_qr_scan"}, "lon": -77.03867383333333, "bike_id": "6af38c038c5e2a4a106f5c5a3bff815e", "type": "electric_scooter", "name": "6af38c038c5e2a4a106f5c5a3bff815e"}, {"is_disabled": 0, "is_reserved": 0, "fusion_lat": 0.0, "lat": 38.915644666666665, "fusion_lon": 0.0, "rental_uris": {"ios": "https://dc.lft.to/lastmile_qr_scan", "android": "https://dc.lft.to/lastmile_qr_scan"}, "lon": -77.00079616666666, "bike_id": "38e47014003756fd92058195a26883df", "type": "electric_scooter", "name": "38e47014003756fd92058195a26883df"}, {"is_disabled": 0, "is_reserved": 0, "fusion_lat": 0.0, "lat": 38.919192833333334, "fusion_lon": 0.0, "rental_uris": {"ios": "https://dc.lft.to/lastmile_qr_scan", "android": "https://dc.lft.to/lastmile_qr_scan"}, "lon": -77.02534016666667, "bike_id": "18186e5941c986d5c4dcaeaca8e4ab68", "type": "electric_scooter", "name": "18186e5941c986d5c4dcaeaca8e4ab68"}, {"is_disabled": 0, "is_reserved": 0, "fusion_lat": 0.0, "lat": 38.922983333333335, "fusion_lon": 0.0, "rental_uris": {"ios": "https://dc.lft.to/lastmile_qr_scan", "android": "https://dc.lft.to/lastmile_qr_scan"}, "lon": -77.0414515, "bike_id": "af8edfa00d6b2f54b7abd9ad44a0491e", "type": "electric_scooter", "name": "af8edfa00d6b2f54b7abd9ad44a0491e"}, {"is_disabled": 0, "is_reserved": 0, "fusion_lat": 0.0, "lat": 38.899621833333335, "fusion_lon": 0.0, "rental_uris": {"ios": "https://dc.lft.to/lastmile_qr_scan", "android": "https://dc.lft.to/lastmile_qr_scan"}, "lon": -77.01614166666667, "bike_id": "340d0a8e687ca8c42a2880ffb1432f3b", "type": "electric_scooter", "name": "340d0a8e687ca8c42a2880ffb1432f3b"}, {"is_disabled": 0, "is_reserved": 0, "fusion_lat": 0.0, "lat": 38.915589833333335, "fusion_lon": 0.0, "rental_uris": {"ios": "https://dc.lft.to/lastmile_qr_scan", "android": "https://dc.lft.to/lastmile_qr_scan"}, "lon": -77.02160833333333, "bike_id": "0b12df613504222f3fe9b231c61c566f", "type": "electric_scooter", "name": "0b12df613504222f3fe9b231c61c566f"}, {"is_disabled": 0, "is_reserved": 0, "fusion_lat": 0.0, "lat": 38.92687183333334, "fusion_lon": 0.0, "rental_uris": {"ios": "https://dc.lft.to/lastmile_qr_scan", "android": "https://dc.lft.to/lastmile_qr_scan"}, "lon": -77.02282666666666, "bike_id": "7b669bcac8e354f4f749d4c33b850876", "type": "electric_scooter", "name": "7b669bcac8e354f4f749d4c33b850876"}, {"is_disabled": 0, "is_reserved": 0, "fusion_lat": 0.0, "lat": 38.9195785, "fusion_lon": 0.0, "rental_uris": {"ios": "https://dc.lft.to/lastmile_qr_scan", "android": "https://dc.lft.to/lastmile_qr_scan"}, "lon": -77.01378316666667, "bike_id": "07ff83c85862d31c20260fb204c166ff", "type": "electric_scooter", "name": "07ff83c85862d31c20260fb204c166ff"}, {"is_disabled": 0, "is_reserved": 0, "fusion_lat": 0.0, "lat": 38.910712833333335, "fusion_lon": 0.0, "rental_uris": {"ios": "https://dc.lft.to/lastmile_qr_scan", "android": "https://dc.lft.to/lastmile_qr_scan"}, "lon": -77.019826, "bike_id": "83eea637657f061a81a24d29cd8f2a86", "type": "electric_scooter", "name": "83eea637657f061a81a24d29cd8f2a86"}, {"is_disabled": 0, "is_reserved": 0, "fusion_lat": 0.0, "lat": 38.929092833333335, "fusion_lon": 0.0, "rental_uris": {"ios": "https://dc.lft.to/lastmile_qr_scan", "android": "https://dc.lft.to/lastmile_qr_scan"}, "lon": -77.059826, "bike_id": "51c783b0d6eb608a1db9cf84df97ce5e", "type": "electric_scooter", "name": "51c783b0d6eb608a1db9cf84df97ce5e"}, {"is_disabled": 0, "is_reserved": 0, "fusion_lat": 0.0, "lat": 38.89198866666667, "fusion_lon": 0.0, "rental_uris": {"ios": "https://dc.lft.to/lastmile_qr_scan", "android": "https://dc.lft.to/lastmile_qr_scan"}, "lon": -77.02229083333333, "bike_id": "6242aa5717744c1b0476a0ba683e593a", "type": "electric_scooter", "name": "6242aa5717744c1b0476a0ba683e593a"}, {"is_disabled": 0, "is_reserved": 0, "fusion_lat": 0.0, "lat": 38.883608333333335, "fusion_lon": 0.0, "rental_uris": {"ios": "https://dc.lft.to/lastmile_qr_scan", "android": "https://dc.lft.to/lastmile_qr_scan"}, "lon": -76.927903, "bike_id": "4c2ca02bc8162119b0e791e688c7293a", "type": "electric_scooter", "name": "4c2ca02bc8162119b0e791e688c7293a"}, {"is_disabled": 0, "is_reserved": 0, "fusion_lat": 0.0, "lat": 38.918384833333334, "fusion_lon": 0.0, "rental_uris": {"ios": "https://dc.lft.to/lastmile_qr_scan", "android": "https://dc.lft.to/lastmile_qr_scan"}, "lon": -77.041636, "bike_id": "1ffcef037f570142d1f802865df98bba", "type": "electric_scooter", "name": "1ffcef037f570142d1f802865df98bba"}, {"is_disabled": 0, "is_reserved": 0, "fusion_lat": 0.0, "lat": 38.923289833333335, "fusion_lon": 0.0, "rental_uris": {"ios": "https://dc.lft.to/lastmile_qr_scan", "android": "https://dc.lft.to/lastmile_qr_scan"}, "lon": -77.0568345, "bike_id": "77172ee415be9bf9e07251e1dd066d6f", "type": "electric_scooter", "name": "77172ee415be9bf9e07251e1dd066d6f"}, {"is_disabled": 0, "is_reserved": 0, "fusion_lat": 0.0, "lat": 38.922355333333336, "fusion_lon": 0.0, "rental_uris": {"ios": "https://dc.lft.to/lastmile_qr_scan", "android": "https://dc.lft.to/lastmile_qr_scan"}, "lon": -77.02712566666666, "bike_id": "ef5506084394824d30aab49310c2c5b2", "type": "electric_scooter", "name": "ef5506084394824d30aab49310c2c5b2"}, {"is_disabled": 0, "is_reserved": 0, "fusion_lat": 0.0, "lat": 38.918368666666666, "fusion_lon": 0.0, "rental_uris": {"ios": "https://dc.lft.to/lastmile_qr_scan", "android": "https://dc.lft.to/lastmile_qr_scan"}, "lon": -77.03916666666667, "bike_id": "2263959976f9ed61823eae0910c895d0", "type": "electric_scooter", "name": "2263959976f9ed61823eae0910c895d0"}, {"is_disabled": 0, "is_reserved": 0, "fusion_lat": 0.0, "lat": 38.923913666666664, "fusion_lon": 0.0, "rental_uris": {"ios": "https://dc.lft.to/lastmile_qr_scan", "android": "https://dc.lft.to/lastmile_qr_scan"}, "lon": -77.0259455, "bike_id": "8f809fd354cf42f6a9f8823918fc8e56", "type": "electric_scooter", "name": "8f809fd354cf42f6a9f8823918fc8e56"}, {"is_disabled": 0, "is_reserved": 0, "fusion_lat": 0.0, "lat": 38.90451766666666, "fusion_lon": 0.0, "rental_uris": {"ios": "https://dc.lft.to/lastmile_qr_scan", "android": "https://dc.lft.to/lastmile_qr_scan"}, "lon": -77.0485855, "bike_id": "91df3119a8deff6e83fc256f2a7e321a", "type": "electric_scooter", "name": "91df3119a8deff6e83fc256f2a7e321a"}, {"is_disabled": 0, "is_reserved": 0, "fusion_lat": 0.0, "lat": 38.92866516666667, "fusion_lon": 0.0, "rental_uris": {"ios": "https://dc.lft.to/lastmile_qr_scan", "android": "https://dc.lft.to/lastmile_qr_scan"}, "lon": -77.07891533333333, "bike_id": "9ee5d5e68960c56318b3e96e10e21449", "type": "electric_scooter", "name": "9ee5d5e68960c56318b3e96e10e21449"}, {"is_disabled": 0, "is_reserved": 0, "fusion_lat": 0.0, "lat": 38.917103833333336, "fusion_lon": 0.0, "rental_uris": {"ios": "https://dc.lft.to/lastmile_qr_scan", "android": "https://dc.lft.to/lastmile_qr_scan"}, "lon": -77.03866483333333, "bike_id": "4b5614eacf8b71aa67948f116dd786ac", "type": "electric_scooter", "name": "4b5614eacf8b71aa67948f116dd786ac"}, {"is_disabled": 0, "is_reserved": 0, "fusion_lat": 0.0, "lat": 38.8779545, "fusion_lon": 0.0, "rental_uris": {"ios": "https://dc.lft.to/lastmile_qr_scan", "android": "https://dc.lft.to/lastmile_qr_scan"}, "lon": -77.00127416666666, "bike_id": "7e0e972aad2da1bd37c2a72e6b8ca3f4", "type": "electric_scooter", "name": "7e0e972aad2da1bd37c2a72e6b8ca3f4"}, {"is_disabled": 0, "is_reserved": 0, "fusion_lat": 0.0, "lat": 38.90546066666667, "fusion_lon": 0.0, "rental_uris": {"ios": "https://dc.lft.to/lastmile_qr_scan", "android": "https://dc.lft.to/lastmile_qr_scan"}, "lon": -77.02211366666667, "bike_id": "7073a30927247357524fb07c57d7db0b", "type": "electric_scooter", "name": "7073a30927247357524fb07c57d7db0b"}, {"is_disabled": 0, "is_reserved": 0, "fusion_lat": 0.0, "lat": 38.915851833333335, "fusion_lon": 0.0, "rental_uris": {"ios": "https://dc.lft.to/lastmile_qr_scan", "android": "https://dc.lft.to/lastmile_qr_scan"}, "lon": -77.01997166666666, "bike_id": "8d8ceaaec302b3c0d06cd5ac2ca3ceea", "type": "electric_scooter", "name": "8d8ceaaec302b3c0d06cd5ac2ca3ceea"}, {"is_disabled": 0, "is_reserved": 0, "fusion_lat": 0.0, "lat": 38.91124133333334, "fusion_lon": 0.0, "rental_uris": {"ios": "https://dc.lft.to/lastmile_qr_scan", "android": "https://dc.lft.to/lastmile_qr_scan"}, "lon": -77.03831733333334, "bike_id": "7851d0ef2ade2acf0cb242cb632bbe59", "type": "electric_scooter", "name": "7851d0ef2ade2acf0cb242cb632bbe59"}, {"is_disabled": 0, "is_reserved": 0, "fusion_lat": 0.0, "lat": 38.89895333333333, "fusion_lon": 0.0, "rental_uris": {"ios": "https://dc.lft.to/lastmile_qr_scan", "android": "https://dc.lft.to/lastmile_qr_scan"}, "lon": -77.00195883333333, "bike_id": "91e9614150845e72a344be1c3220c569", "type": "electric_bike", "name": "91e9614150845e72a344be1c3220c569"}, {"is_disabled": 0, "is_reserved": 0, "fusion_lat": 0.0, "lat": 38.9181985, "fusion_lon": 0.0, "rental_uris": {"ios": "https://dc.lft.to/lastmile_qr_scan", "android": "https://dc.lft.to/lastmile_qr_scan"}, "lon": -77.02473616666667, "bike_id": "8e08882c021a2cf279194c6f262790fa", "type": "electric_scooter", "name": "8e08882c021a2cf279194c6f262790fa"}, {"is_disabled": 0, "is_reserved": 0, "fusion_lat": 0.0, "lat": 39.010676, "fusion_lon": 0.0, "rental_uris": {"ios": "https://dc.lft.to/lastmile_qr_scan", "android": "https://dc.lft.to/lastmile_qr_scan"}, "lon": -76.92239516666666, "bike_id": "eac349d62dfdc1ca48ec9cc040326ae9", "type": "electric_bike", "name": "eac349d62dfdc1ca48ec9cc040326ae9"}, {"is_disabled": 0, "is_reserved": 0, "fusion_lat": 0.0, "lat": 38.922403, "fusion_lon": 0.0, "rental_uris": {"ios": "https://dc.lft.to/lastmile_qr_scan", "android": "https://dc.lft.to/lastmile_qr_scan"}, "lon": -77.030793, "bike_id": "dc5f9b31c7f330bb8a71406071c1f9db", "type": "electric_scooter", "name": "dc5f9b31c7f330bb8a71406071c1f9db"}, {"is_disabled": 0, "is_reserved": 0, "fusion_lat": 0.0, "lat": 38.8722775, "fusion_lon": 0.0, "rental_uris": {"ios": "https://dc.lft.to/lastmile_qr_scan", "android": "https://dc.lft.to/lastmile_qr_scan"}, "lon": -77.22833683333333, "bike_id": "9b79e1c982625d4bfe440d4c42629541", "type": "electric_bike", "name": "9b79e1c982625d4bfe440d4c42629541"}, {"is_disabled": 0, "is_reserved": 0, "fusion_lat": 0.0, "lat": 38.920406, "fusion_lon": 0.0, "rental_uris": {"ios": "https://dc.lft.to/lastmile_qr_scan", "android": "https://dc.lft.to/lastmile_qr_scan"}, "lon": -77.02611016666667, "bike_id": "47ed00d7b6fd86a331051217fe8160d0", "type": "electric_scooter", "name": "47ed00d7b6fd86a331051217fe8160d0"}, {"is_disabled": 0, "is_reserved": 0, "fusion_lat": 0.0, "lat": 38.93288616666667, "fusion_lon": 0.0, "rental_uris": {"ios": "https://dc.lft.to/lastmile_qr_scan", "android": "https://dc.lft.to/lastmile_qr_scan"}, "lon": -77.03496616666666, "bike_id": "583495dc25a4c07e142469e8f81bab84", "type": "electric_scooter", "name": "583495dc25a4c07e142469e8f81bab84"}, {"is_disabled": 0, "is_reserved": 0, "fusion_lat": 0.0, "lat": 38.9326095, "fusion_lon": 0.0, "rental_uris": {"ios": "https://dc.lft.to/lastmile_qr_scan", "android": "https://dc.lft.to/lastmile_qr_scan"}, "lon": -77.02066233333333, "bike_id": "6b888e49524466be39537961e8625237", "type": "electric_bike", "name": "6b888e49524466be39537961e8625237"}, {"is_disabled": 0, "is_reserved": 0, "fusion_lat": 0.0, "lat": 38.91693016666667, "fusion_lon": 0.0, "rental_uris": {"ios": "https://dc.lft.to/lastmile_qr_scan", "android": "https://dc.lft.to/lastmile_qr_scan"}, "lon": -77.0251665, "bike_id": "4327d654cd5cb5c83be47c447eed4270", "type": "electric_scooter", "name": "4327d654cd5cb5c83be47c447eed4270"}, {"is_disabled": 0, "is_reserved": 0, "fusion_lat": 0.0, "lat": 38.92122366666667, "fusion_lon": 0.0, "rental_uris": {"ios": "https://dc.lft.to/lastmile_qr_scan", "android": "https://dc.lft.to/lastmile_qr_scan"}, "lon": -77.03170516666667, "bike_id": "6db52b361b3ce3ab11ec184b16194ad0", "type": "electric_scooter", "name": "6db52b361b3ce3ab11ec184b16194ad0"}, {"is_disabled": 0, "is_reserved": 0, "fusion_lat": 0.0, "lat": 38.86888033333334, "fusion_lon": 0.0, "rental_uris": {"ios": "https://dc.lft.to/lastmile_qr_scan", "android": "https://dc.lft.to/lastmile_qr_scan"}, "lon": -76.98999, "bike_id": "0c31b9df71abd4254789c5b251f3ef0a", "type": "electric_scooter", "name": "0c31b9df71abd4254789c5b251f3ef0a"}, {"is_disabled": 0, "is_reserved": 0, "fusion_lat": 0.0, "lat": 38.88661366666667, "fusion_lon": 0.0, "rental_uris": {"ios": "https://dc.lft.to/lastmile_qr_scan", "android": "https://dc.lft.to/lastmile_qr_scan"}, "lon": -77.028316, "bike_id": "c837f50ca361d6aae7f2ff5a658be66d", "type": "electric_scooter", "name": "c837f50ca361d6aae7f2ff5a658be66d"}, {"is_disabled": 0, "is_reserved": 0, "fusion_lat": 0.0, "lat": 38.896009, "fusion_lon": 0.0, "rental_uris": {"ios": "https://dc.lft.to/lastmile_qr_scan", "android": "https://dc.lft.to/lastmile_qr_scan"}, "lon": -76.983216, "bike_id": "808e2e59eee8fa677b083b9cb3aca499", "type": "electric_scooter", "name": "808e2e59eee8fa677b083b9cb3aca499"}, {"is_disabled": 0, "is_reserved": 0, "fusion_lat": 0.0, "lat": 38.90449566666667, "fusion_lon": 0.0, "rental_uris": {"ios": "https://dc.lft.to/lastmile_qr_scan", "android": "https://dc.lft.to/lastmile_qr_scan"}, "lon": -77.0269885, "bike_id": "a7f32ba4e8f916cb0c850b38027e2f5d", "type": "electric_scooter", "name": "a7f32ba4e8f916cb0c850b38027e2f5d"}, {"is_disabled": 0, "is_reserved": 0, "fusion_lat": 0.0, "lat": 38.87563016666667, "fusion_lon": 0.0, "rental_uris": {"ios": "https://dc.lft.to/lastmile_qr_scan", "android": "https://dc.lft.to/lastmile_qr_scan"}, "lon": -77.00608583333333, "bike_id": "92bd8cbf29711891e92613aaf7129e7d", "type": "electric_scooter", "name": "92bd8cbf29711891e92613aaf7129e7d"}, {"is_disabled": 0, "is_reserved": 0, "fusion_lat": 0.0, "lat": 38.915751666666665, "fusion_lon": 0.0, "rental_uris": {"ios": "https://dc.lft.to/lastmile_qr_scan", "android": "https://dc.lft.to/lastmile_qr_scan"}, "lon": -77.0505545, "bike_id": "bb259bc52747e3b2ed436823cad49ec9", "type": "electric_scooter", "name": "bb259bc52747e3b2ed436823cad49ec9"}, {"is_disabled": 0, "is_reserved": 0, "fusion_lat": 0.0, "lat": 38.91565666666666, "fusion_lon": 0.0, "rental_uris": {"ios": "https://dc.lft.to/lastmile_qr_scan", "android": "https://dc.lft.to/lastmile_qr_scan"}, "lon": -77.03938916666667, "bike_id": "54197b1d795ce35c0ec298df5cbbbcc8", "type": "electric_scooter", "name": "54197b1d795ce35c0ec298df5cbbbcc8"}, {"is_disabled": 0, "is_reserved": 0, "fusion_lat": 0.0, "lat": 38.9170735, "fusion_lon": 0.0, "rental_uris": {"ios": "https://dc.lft.to/lastmile_qr_scan", "android": "https://dc.lft.to/lastmile_qr_scan"}, "lon": -77.04124366666667, "bike_id": "8048defeb95ffdb16986cefd80e0bd31", "type": "electric_scooter", "name": "8048defeb95ffdb16986cefd80e0bd31"}, {"is_disabled": 0, "is_reserved": 0, "fusion_lat": 0.0, "lat": 38.931471, "fusion_lon": 0.0, "rental_uris": {"ios": "https://dc.lft.to/lastmile_qr_scan", "android": "https://dc.lft.to/lastmile_qr_scan"}, "lon": -77.02371283333333, "bike_id": "e0166c3f3ee85e40010984f67aaded32", "type": "electric_scooter", "name": "e0166c3f3ee85e40010984f67aaded32"}, {"is_disabled": 0, "is_reserved": 0, "fusion_lat": 0.0, "lat": 38.877041, "fusion_lon": 0.0, "rental_uris": {"ios": "https://dc.lft.to/lastmile_qr_scan", "android": "https://dc.lft.to/lastmile_qr_scan"}, "lon": -77.00659666666667, "bike_id": "1d553ebf8f264a270bd0e72830fef919", "type": "electric_scooter", "name": "1d553ebf8f264a270bd0e72830fef919"}, {"is_disabled": 0, "is_reserved": 0, "fusion_lat": 0.0, "lat": 38.9344565, "fusion_lon": 0.0, "rental_uris": {"ios": "https://dc.lft.to/lastmile_qr_scan", "android": "https://dc.lft.to/lastmile_qr_scan"}, "lon": -77.029802, "bike_id": "04067b188864eb9ad54ad15497f60188", "type": "electric_scooter", "name": "04067b188864eb9ad54ad15497f60188"}, {"is_disabled": 0, "is_reserved": 0, "fusion_lat": 0.0, "lat": 38.89820666666667, "fusion_lon": 0.0, "rental_uris": {"ios": "https://dc.lft.to/lastmile_qr_scan", "android": "https://dc.lft.to/lastmile_qr_scan"}, "lon": -77.02944733333334, "bike_id": "09ba388459665d6e3d059c17ac0c6479", "type": "electric_scooter", "name": "09ba388459665d6e3d059c17ac0c6479"}, {"is_disabled": 0, "is_reserved": 0, "fusion_lat": 0.0, "lat": 38.917115, "fusion_lon": 0.0, "rental_uris": {"ios": "https://dc.lft.to/lastmile_qr_scan", "android": "https://dc.lft.to/lastmile_qr_scan"}, "lon": -77.03471066666667, "bike_id": "383d7801a675a8000bf6faf6e6b8eebd", "type": "electric_scooter", "name": "383d7801a675a8000bf6faf6e6b8eebd"}, {"is_disabled": 0, "is_reserved": 0, "fusion_lat": 0.0, "lat": 38.927952, "fusion_lon": 0.0, "rental_uris": {"ios": "https://dc.lft.to/lastmile_qr_scan", "android": "https://dc.lft.to/lastmile_qr_scan"}, "lon": -77.05585866666667, "bike_id": "70206dca94a425d9de127b4cad02cd4f", "type": "electric_scooter", "name": "70206dca94a425d9de127b4cad02cd4f"}, {"is_disabled": 0, "is_reserved": 0, "fusion_lat": 0.0, "lat": 38.920650333333334, "fusion_lon": 0.0, "rental_uris": {"ios": "https://dc.lft.to/lastmile_qr_scan", "android": "https://dc.lft.to/lastmile_qr_scan"}, "lon": -77.04359933333333, "bike_id": "d1c7127fc0895c38e3cf5746dac2d4b7", "type": "electric_scooter", "name": "d1c7127fc0895c38e3cf5746dac2d4b7"}, {"is_disabled": 0, "is_reserved": 0, "fusion_lat": 0.0, "lat": 38.89826983333333, "fusion_lon": 0.0, "rental_uris": {"ios": "https://dc.lft.to/lastmile_qr_scan", "android": "https://dc.lft.to/lastmile_qr_scan"}, "lon": -77.02963666666666, "bike_id": "045422143d364b48e22d8a4e56bc0f51", "type": "electric_scooter", "name": "045422143d364b48e22d8a4e56bc0f51"}, {"is_disabled": 0, "is_reserved": 0, "fusion_lat": 0.0, "lat": 38.9221125, "fusion_lon": 0.0, "rental_uris": {"ios": "https://dc.lft.to/lastmile_qr_scan", "android": "https://dc.lft.to/lastmile_qr_scan"}, "lon": -77.04255683333334, "bike_id": "a8548bfd17ad3063fd7911495bd14131", "type": "electric_scooter", "name": "a8548bfd17ad3063fd7911495bd14131"}, {"is_disabled": 0, "is_reserved": 0, "fusion_lat": 0.0, "lat": 38.887141166666666, "fusion_lon": 0.0, "rental_uris": {"ios": "https://dc.lft.to/lastmile_qr_scan", "android": "https://dc.lft.to/lastmile_qr_scan"}, "lon": -76.99611516666667, "bike_id": "512d3b54738c2ff2e294c45d77e17ccf", "type": "electric_scooter", "name": "512d3b54738c2ff2e294c45d77e17ccf"}, {"is_disabled": 0, "is_reserved": 0, "fusion_lat": 0.0, "lat": 38.908582, "fusion_lon": 0.0, "rental_uris": {"ios": "https://dc.lft.to/lastmile_qr_scan", "android": "https://dc.lft.to/lastmile_qr_scan"}, "lon": -77.04730066666667, "bike_id": "31ae5fc5ba2e64776483b8de8cbc14a5", "type": "electric_scooter", "name": "31ae5fc5ba2e64776483b8de8cbc14a5"}, {"is_disabled": 0, "is_reserved": 0, "fusion_lat": 0.0, "lat": 38.9085195, "fusion_lon": 0.0, "rental_uris": {"ios": "https://dc.lft.to/lastmile_qr_scan", "android": "https://dc.lft.to/lastmile_qr_scan"}, "lon": -77.04818216666666, "bike_id": "665d825f34870ba83a8d7cc8f5b6ae21", "type": "electric_scooter", "name": "665d825f34870ba83a8d7cc8f5b6ae21"}, {"is_disabled": 0, "is_reserved": 0, "fusion_lat": 0.0, "lat": 38.974809666666665, "fusion_lon": 0.0, "rental_uris": {"ios": "https://dc.lft.to/lastmile_qr_scan", "android": "https://dc.lft.to/lastmile_qr_scan"}, "lon": -76.986638, "bike_id": "ce3e852606c41df2692f2c465d56b8aa", "type": "electric_bike", "name": "ce3e852606c41df2692f2c465d56b8aa"}, {"is_disabled": 0, "is_reserved": 0, "fusion_lat": 0.0, "lat": 38.834908666666664, "fusion_lon": 0.0, "rental_uris": {"ios": "https://dc.lft.to/lastmile_qr_scan", "android": "https://dc.lft.to/lastmile_qr_scan"}, "lon": -77.00433083333333, "bike_id": "f37cf1218542dd71fbdac24210e25f45", "type": "electric_bike", "name": "f37cf1218542dd71fbdac24210e25f45"}, {"is_disabled": 0, "is_reserved": 0, "fusion_lat": 0.0, "lat": 39.029273, "fusion_lon": 0.0, "rental_uris": {"ios": "https://dc.lft.to/lastmile_qr_scan", "android": "https://dc.lft.to/lastmile_qr_scan"}, "lon": -77.01363366666666, "bike_id": "19b996e7421c039d53b0c0f18047e54f", "type": "electric_bike", "name": "19b996e7421c039d53b0c0f18047e54f"}, {"is_disabled": 0, "is_reserved": 0, "fusion_lat": 0.0, "lat": 38.905756, "fusion_lon": 0.0, "rental_uris": {"ios": "https://dc.lft.to/lastmile_qr_scan", "android": "https://dc.lft.to/lastmile_qr_scan"}, "lon": -76.98901133333334, "bike_id": "254454c6e63c1b11fa7fd817c38d2c13", "type": "electric_scooter", "name": "254454c6e63c1b11fa7fd817c38d2c13"},