{"data": {"bikes": [{"is_reserved": 0, "fusion_lon": 0.0, "fusion_lat": 0.0, "name": "c36a8ce2132c751ebd224bdd90af196e", "type": "electric_bike", "is_disabled": 0, "lat": 38.96743133333333, "rental_uris": {"android": "https://dc.lft.to/lastmile_qr_scan", "ios": "https://dc.lft.to/lastmile_qr_scan"}, "bike_id": "c36a8ce2132c751ebd224bdd90af196e", "lon": -76.98193516666667}, {"is_reserved": 0, "fusion_lon": 0.0, "fusion_lat": 0.0, "name": "ff6aa11f6654cc6bc3e57ba9780ce622", "type": "electric_scooter", "is_disabled": 0, "lat": 38.9097005, "rental_uris": {"android": "https://dc.lft.to/lastmile_qr_scan", "ios": "https://dc.lft.to/lastmile_qr_scan"}, "bike_id": "ff6aa11f6654cc6bc3e57ba9780ce622", "lon": -77.0382745}, {"is_reserved": 0, "fusion_lon": 0.0, "fusion_lat": 0.0, "name": "4badc30a5177539fa3a7957e425f0413", "type": "electric_scooter", "is_disabled": 0, "lat": 38.91563333333333, "rental_uris": {"android": "https://dc.lft.to/lastmile_qr_scan", "ios": "https://dc.lft.to/lastmile_qr_scan"}, "bike_id": "4badc30a5177539fa3a7957e425f0413", "lon": -77.03936283333333}, {"is_reserved": 0, "fusion_lon": 0.0, "fusion_lat": 0.0, "name": "d8bf47a8fea80530a17a247194d24cae", "type": "electric_bike", "is_disabled": 0, "lat": 39.0147905, "rental_uris": {"android": "https://dc.lft.to/lastmile_qr_scan", "ios": "https://dc.lft.to/lastmile_qr_scan"}, "bike_id": "d8bf47a8fea80530a17a247194d24cae", "lon": -77.05496083333334}, {"is_reserved": 0, "fusion_lon": 0.0, "fusion_lat": 0.0, "name": "07db1bfaf261b3d3d5b1b928b9f4b74c", "type": "electric_scooter", "is_disabled": 0, "lat": 38.9191915, "rental_uris": {"android": "https://dc.lft.to/lastmile_qr_scan", "ios": "https://dc.lft.to/lastmile_qr_scan"}, "bike_id": "07db1bfaf261b3d3d5b1b928b9f4b74c", "lon": -77.044955}, {"is_reserved": 0, "fusion_lon": 0.0, "fusion_lat": 0.0, "name": "6794a4c51205bbeb19377a675688cd71", "type": "electric_scooter", "is_disabled": 0, "lat": 38.891985166666664, "rental_uris": {"android": "https://dc.lft.to/lastmile_qr_scan", "ios": "https://dc.lft.to/lastmile_qr_scan"}, "bike_id": "6794a4c51205bbeb19377a675688cd71", "lon": -77.02770866666667}, {"is_reserved": 0, "fusion_lon": 0.0, "fusion_lat": 0.0, "name": "3404a20d2e1e64269f053efbaa70821b", "type": "electric_scooter", "is_disabled": 0, "lat": 38.892110333333335, "rental_uris": {"android": "https://dc.lft.to/lastmile_qr_scan", "ios": "https://dc.lft.to/lastmile_qr_scan"}, "bike_id": "3404a20d2e1e64269f053efbaa70821b", "lon": -77.02626383333333}, {"is_reserved": 0, "fusion_lon": 0.0, "fusion_lat": 0.0, "name": "5c2c53e045e829038b1cc69e089466e1", "type": "electric_scooter", "is_disabled": 0, "lat": 38.93175933333333, "rental_uris": {"android": "https://dc.lft.to/lastmile_qr_scan", "ios": "https://dc.lft.to/lastmile_qr_scan"}, "bike_id": "5c2c53e045e829038b1cc69e089466e1", "lon": -77.02817133333333}, {"is_reserved": 0, "fusion_lon": 0.0, "fusion_lat": 0.0, "name": "55a283b146016ead5665ae278ae71219", "type": "electric_scooter", "is_disabled": 0, "lat": 38.91978616666667, "rental_uris": {"android": "https://dc.lft.to/lastmile_qr_scan", "ios": "https://dc.lft.to/lastmile_qr_scan"}, "bike_id": "55a283b146016ead5665ae278ae71219", "lon": -77.02185866666666}, {"is_reserved": 0, "fusion_lon": 0.0, "fusion_lat": 0.0, "name": "c55bd3b82678e0931e8d2a63a6fe1857", "type": "electric_scooter", "is_disabled": 0, "lat": 38.887374333333334, "rental_uris": {"android": "https://dc.lft.to/lastmile_qr_scan", "ios": "https://dc.lft.to/lastmile_qr_scan"}, "bike_id": "c55bd3b82678e0931e8d2a63a6fe1857", "lon": -77.02827516666666}, {"is_reserved": 0, "fusion_lon": 0.0, "fusion_lat": 0.0, "name": "b56b2fd56dddf3b847c16ad7cca8e456", "type": "electric_scooter", "is_disabled": 0, "lat": 38.8730855, "rental_uris": {"android": "https://dc.lft.to/lastmile_qr_scan", "ios": "https://dc.lft.to/lastmile_qr_scan"}, "bike_id": "b56b2fd56dddf3b847c16ad7cca8e456", "lon": -77.00599433333333}, {"is_reserved": 0, "fusion_lon": 0.0, "fusion_lat": 0.0, "name": "e77d3c277e697369290abf20a0e76944", "type": "electric_scooter", "is_disabled": 0, "lat": 38.90190366666667, "rental_uris": {"android": "https://dc.lft.to/lastmile_qr_scan", "ios": "https://dc.lft.to/lastmile_qr_scan"}, "bike_id": "e77d3c277e697369290abf20a0e76944", "lon": -77.020854}, {"is_reserved": 0, "fusion_lon": 0.0, "fusion_lat": 0.0, "name": "8eb455dfc10fb7a9636ba9d49e259eba", "type": "electric_scooter", "is_disabled": 0, "lat": 38.911855333333335, "rental_uris": {"android": "https://dc.lft.to/lastmile_qr_scan", "ios": "https://dc.lft.to/lastmile_qr_scan"}, "bike_id": "8eb455dfc10fb7a9636ba9d49e259eba", "lon": -77.00969233333333}, {"is_reserved": 0, "fusion_lon": 0.0, "fusion_lat": 0.0, "name": "0cc54ade07751ef02302b7493e338cc0", "type": "electric_scooter", "is_disabled": 0, "lat": 38.922692166666664, "rental_uris": {"android": "https://dc.lft.to/lastmile_qr_scan", "ios": "https://dc.lft.to/lastmile_qr_scan"}, "bike_id": "0cc54ade07751ef02302b7493e338cc0", "lon": -77.03222216666667}, {"is_reserved": 0, "fusion_lon": 0.0, "fusion_lat": 0.0, "name": "ba98c6be25c64199d62c5b31b0792839", "type": "electric_scooter", "is_disabled": 0, "lat": 38.88812033333333, "rental_uris": {"android": "https://dc.lft.to/lastmile_qr_scan", "ios": "https://dc.lft.to/lastmile_qr_scan"}, "bike_id": "ba98c6be25c64199d62c5b31b0792839", "lon": -76.933482}, {"is_reserved": 0, "fusion_lon": 0.0, "fusion_lat": 0.0, "name": "81c07f7c50e16c2649e3eabeb04f461c", "type": "electric_scooter", "is_disabled": 0, "lat": 38.8670285, "rental_uris": {"android": "https://dc.lft.to/lastmile_qr_scan", "ios": "https://dc.lft.to/lastmile_qr_scan"}, "bike_id": "81c07f7c50e16c2649e3eabeb04f461c", "lon": -76.98712833333333}, {"is_reserved": 0, "fusion_lon": 0.0, "fusion_lat": 0.0, "name": "9c080d5378b42abeca78553631ec20bf", "type": "electric_scooter", "is_disabled": 0, "lat": 38.8237915, "rental_uris": {"android": "https://dc.lft.to/lastmile_qr_scan", "ios": "https://dc.lft.to/lastmile_qr_scan"}, "bike_id": "9c080d5378b42abeca78553631ec20bf", "lon": -77.011807}, {"is_reserved": 0, "fusion_lon": 0.0, "fusion_lat": 0.0, "name": "391761a08b9eb07a331df6a0d3ff1aa3", "type": "electric_bike", "is_disabled": 0, "lat": 38.88043233333333, "rental_uris": {"android": "https://dc.lft.to/lastmile_qr_scan", "ios": "https://dc.lft.to/lastmile_qr_scan"}, "bike_id": "391761a08b9eb07a331df6a0d3ff1aa3", "lon": -77.011296}, {"is_reserved": 0, "fusion_lon": 0.0, "fusion_lat": 0.0, "name": "3ff3135ab628b1a980839dbbf02065ba", "type": "electric_scooter", "is_disabled": 0, "lat": 38.91786333333334, "rental_uris": {"android": "https://dc.lft.to/lastmile_qr_scan", "ios": "https://dc.lft.to/lastmile_qr_scan"}, "bike_id": "3ff3135ab628b1a980839dbbf02065ba", "lon": -77.04026666666667}, {"is_reserved": 0, "fusion_lon": 0.0, "fusion_lat": 0.0, "name": "31952d45adf35dadd45352f733fb0cb1", "type": "electric_scooter", "is_disabled": 0, "lat": 38.893845666666664, "rental_uris": {"android": "https://dc.lft.to/lastmile_qr_scan", "ios": "https://dc.lft.to/lastmile_qr_scan"}, "bike_id": "31952d45adf35dadd45352f733fb0cb1", "lon": -77.03141683333334}, {"is_reserved": 0, "fusion_lon": 0.0, "fusion_lat": 0.0, "name": "04fea2955989f123d0f0401aae894229", "type": "electric_scooter", "is_disabled": 0, "lat": 38.900139833333334, "rental_uris": {"android": "https://dc.lft.to/lastmile_qr_scan", "ios": "https://dc.lft.to/lastmile_qr_scan"}, "bike_id": "04fea2955989f123d0f0401aae894229", "lon": -77.04025333333334}, {"is_reserved": 0, "fusion_lon": 0.0, "fusion_lat": 0.0, "name": "a1e0607ac357e2c9ef889281f96ad5ce", "type": "electric_scooter", "is_disabled": 0, "lat": 38.9091395, "rental_uris": {"android": "https://dc.lft.to/lastmile_qr_scan", "ios": "https://dc.lft.to/lastmile_qr_scan"}, "bike_id": "a1e0607ac357e2c9ef889281f96ad5ce", "lon": -77.07268433333333}, {"is_reserved": 0, "fusion_lon": 0.0, "fusion_lat": 0.0, "name": "dff659cc3be7622681e1d7844d5a3f7b", "type": "electric_scooter", "is_disabled": 0, "lat": 38.867349833333336, "rental_uris": {"android": "https://dc.lft.to/lastmile_qr_scan", "ios": "https://dc.lft.to/lastmile_qr_scan"}, "bike_id": "dff659cc3be7622681e1d7844d5a3f7b", "lon": -76.98783716666667}, {"is_reserved": 0, "fusion_lon": 0.0, "fusion_lat": 0.0, "name": "9d519b104b4d8ae5d013a827c09afd67", "type": "electric_scooter", "is_disabled": 0, "lat": 38.90504816666667, "rental_uris": {"android": "https://dc.lft.to/lastmile_qr_scan", "ios": "https://dc.lft.to/lastmile_qr_scan"}, "bike_id": "9d519b104b4d8ae5d013a827c09afd67", "lon": -77.03880716666667}, {"is_reserved": 0, "fusion_lon": 0.0, "fusion_lat": 0.0, "name": "cc5803f4c3232826a04bdafeabc69c4b", "type": "electric_scooter", "is_disabled": 0, "lat": 38.93160816666666, "rental_uris": {"android": "https://dc.lft.to/lastmile_qr_scan", "ios": "https://dc.lft.to/lastmile_qr_scan"}, "bike_id": "cc5803f4c3232826a04bdafeabc69c4b", "lon": -76.99624633333333}, {"is_reserved": 0, "fusion_lon": 0.0, "fusion_lat": 0.0, "name": "27f6d312b15e973221b2d8175479b7f7", "type": "electric_scooter", "is_disabled": 0, "lat": 38.91067533333333, "rental_uris": {"android": "https://dc.lft.to/lastmile_qr_scan", "ios": "https://dc.lft.to/lastmile_qr_scan"}, "bike_id": "27f6d312b15e973221b2d8175479b7f7", "lon": -77.0366285}, {"is_reserved": 0, "fusion_lon": 0.0, "fusion_lat": 0.0, "name": "6d7c085bfc36b343cd8606cf20720ba6", "type": "electric_scooter", "is_disabled": 0, "lat": 38.91016483333333, "rental_uris": {"android": "https://dc.lft.to/lastmile_qr_scan", "ios": "https://dc.lft.to/lastmile_qr_scan"}, "bike_id": "6d7c085bfc36b343cd8606cf20720ba6", "lon": -77.06491966666667}, {"is_reserved": 0, "fusion_lon": 0.0, "fusion_lat": 0.0, "name": "d4a0b4d20e5316e604cc72ac854d3c33", "type": "electric_scooter", "is_disabled": 0, "lat": 38.90022716666667, "rental_uris": {"android": "https://dc.lft.to/lastmile_qr_scan", "ios": "https://dc.lft.to/lastmile_qr_scan"}, "bike_id": "d4a0b4d20e5316e604cc72ac854d3c33", "lon": -77.017109}, {"is_reserved": 0, "fusion_lon": 0.0, "fusion_lat": 0.0, "name": "dd36dd4b4d098f0d4e6d9694bc5dc63f", "type": "electric_scooter", "is_disabled": 0, "lat": 38.91116666666667, "rental_uris": {"android": "https://dc.lft.to/lastmile_qr_scan", "ios": "https://dc.lft.to/lastmile_qr_scan"}, "bike_id": "dd36dd4b4d098f0d4e6d9694bc5dc63f", "lon": -77.0207575}, {"is_reserved": 0, "fusion_lon": 0.0, "fusion_lat": 0.0, "name": "ccbb10ae4eb92b0db338d73fbebefc99", "type": "electric_scooter", "is_disabled": 0, "lat": 38.914991, "rental_uris": {"android": "https://dc.lft.to/lastmile_qr_scan", "ios": "https://dc.lft.to/lastmile_qr_scan"}, "bike_id": "ccbb10ae4eb92b0db338d73fbebefc99", "lon": -77.0217525}, {"is_reserved": 0, "fusion_lon": 0.0, "fusion_lat": 0.0, "name": "e4020e8455bcc253ddb10f689e02e40a", "type": "electric_scooter", "is_disabled": 0, "lat": 38.925686166666665, "rental_uris": {"android": "https://dc.lft.to/lastmile_qr_scan", "ios": "https://dc.lft.to/lastmile_qr_scan"}, "bike_id": "e4020e8455bcc253ddb10f689e02e40a", "lon": -77.0529605}, {"is_reserved": 0, "fusion_lon": 0.0, "fusion_lat": 0.0, "name": "062da5b986e10035cee32c1725f63ef3", "type": "electric_scooter", "is_disabled": 0, "lat": 38.92423933333333, "rental_uris": {"android": "https://dc.lft.to/lastmile_qr_scan", "ios": "https://dc.lft.to/lastmile_qr_scan"}, "bike_id": "062da5b986e10035cee32c1725f63ef3", "lon": -77.03546616666667}, {"is_reserved": 0, "fusion_lon": 0.0, "fusion_lat": 0.0, "name": "9c9b0a963ab5b8da97521d18081f9205", "type": "electric_scooter", "is_disabled": 0, "lat": 38.88739533333333, "rental_uris": {"android": "https://dc.lft.to/lastmile_qr_scan", "ios": "https://dc.lft.to/lastmile_qr_scan"}, "bike_id": "9c9b0a963ab5b8da97521d18081f9205", "lon": -77.0318055}, {"is_reserved": 0, "fusion_lon": 0.0, "fusion_lat": 0.0, "name": "895ffa6bb5b56b6b55b10471e1b2bebe", "type": "electric_scooter", "is_disabled": 0, "lat": 38.89544033333333, "rental_uris": {"android": "https://dc.lft.to/lastmile_qr_scan", "ios": "https://dc.lft.to/lastmile_qr_scan"}, "bike_id": "895ffa6bb5b56b6b55b10471e1b2bebe", "lon": -77.02912233333333}, {"is_reserved": 0, "fusion_lon": 0.0, "fusion_lat": 0.0, "name": "cef28d75416f845b1dd2d78807166302", "type": "electric_scooter", "is_disabled": 0, "lat": 38.9248865, "rental_uris": {"android": "https://dc.lft.to/lastmile_qr_scan", "ios": "https://dc.lft.to/lastmile_qr_scan"}, "bike_id": "cef28d75416f845b1dd2d78807166302", "lon": -77.02140266666666}, {"is_reserved": 0, "fusion_lon": 0.0, "fusion_lat": 0.0, "name": "a92a51c6d51421a4157134280d754885", "type": "electric_bike", "is_disabled": 0, "lat": 38.881442166666666, "rental_uris": {"android": "https://dc.lft.to/lastmile_qr_scan", "ios": "https://dc.lft.to/lastmile_qr_scan"}, "bike_id": "a92a51c6d51421a4157134280d754885", "lon": -77.1147175}, {"is_reserved": 0, "fusion_lon": 0.0, "fusion_lat": 0.0, "name": "bab55cda52de56966e2cfc263e592602", "type": "electric_scooter", "is_disabled": 0, "lat": 38.90893766666667, "rental_uris": {"android": "https://dc.lft.to/lastmile_qr_scan", "ios": "https://dc.lft.to/lastmile_qr_scan"}, "bike_id": "bab55cda52de56966e2cfc263e592602", "lon": -76.98235983333333}, {"is_reserved": 0, "fusion_lon": 0.0, "fusion_lat": 0.0, "name": "a1b433a7105e0a347e9cd3b821a343a9", "type": "electric_bike", "is_disabled": 0, "lat": 39.01371433333333, "rental_uris": {"android": "https://dc.lft.to/lastmile_qr_scan", "ios": "https://dc.lft.to/lastmile_qr_scan"}, "bike_id": "a1b433a7105e0a347e9cd3b821a343a9", "lon": -76.92136533333333}, {"is_reserved": 0, "fusion_lon": 0.0, "fusion_lat": 0.0, "name": "3a55edb7c1ad2631313a3470f69dadd9", "type": "electric_scooter", "is_disabled": 0, "lat": 38.88602183333333, "rental_uris": {"android": "https://dc.lft.to/lastmile_qr_scan", "ios": "https://dc.lft.to/lastmile_qr_scan"}, "bike_id": "3a55edb7c1ad2631313a3470f69dadd9", "lon": -77.012416}, {"is_reserved": 0, "fusion_lon": 0.0, "fusion_lat": 0.0, "name": "7befd6a0e7990efa525f5d38beb5cfca", "type": "electric_scooter", "is_disabled": 0, "lat": 38.9334055, "rental_uris": {"android": "https://dc.lft.to/lastmile_qr_scan", "ios": "https://dc.lft.to/lastmile_qr_scan"}, "bike_id": "7befd6a0e7990efa525f5d38beb5cfca", "lon": -77.026192}, {"is_reserved": 0, "fusion_lon": 0.0, "fusion_lat": 0.0, "name": "6d4b75b13b523e3574c0460d561c7443", "type": "electric_scooter", "is_disabled": 0, "lat": 38.892218666666665, "rental_uris": {"android": "https://dc.lft.to/lastmile_qr_scan", "ios": "https://dc.lft.to/lastmile_qr_scan"}, "bike_id": "6d4b75b13b523e3574c0460d561c7443", "lon": -77.04869366666667}, {"is_reserved": 0, "fusion_lon": 0.0, "fusion_lat": 0.0, "name": "5bb194a1fb1c4f71942d4ca33f62961a", "type": "electric_scooter", "is_disabled": 0, "lat": 38.8634005, "rental_uris": {"android": "https://dc.lft.to/lastmile_qr_scan", "ios": "https://dc.lft.to/lastmile_qr_scan"}, "bike_id": "5bb194a1fb1c4f71942d4ca33f62961a", "lon": -76.98274583333334}, {"is_reserved": 0, "fusion_lon": 0.0, "fusion_lat": 0.0, "name": "ece3a1e26c5c83a66156a82873158f32", "type": "electric_scooter", "is_disabled": 0, "lat": 38.887807333333335, "rental_uris": {"android": "https://dc.lft.to/lastmile_qr_scan", "ios": "https://dc.lft.to/lastmile_qr_scan"}, "bike_id": "ece3a1e26c5c83a66156a82873158f32", "lon": -76.9553055}, {"is_reserved": 0, "fusion_lon": 0.0, "fusion_lat": 0.0, "name": "f5b8bc32b371721d72577a5410492236", "type": "electric_scooter", "is_disabled": 0, "lat": 38.9358125, "rental_uris": {"android": "https://dc.lft.to/lastmile_qr_scan", "ios": "https://dc.lft.to/lastmile_qr_scan"}, "bike_id": "f5b8bc32b371721d72577a5410492236", "lon": -77.02123266666666}, {"is_reserved": 0, "fusion_lon": 0.0, "fusion_lat": 0.0, "name": "831ce641a9a2baf54caccedb071240be", "type": "electric_scooter", "is_disabled": 0, "lat": 38.892262333333335, "rental_uris": {"android": "https://dc.lft.to/lastmile_qr_scan", "ios": "https://dc.lft.to/lastmile_qr_scan"}, "bike_id": "831ce641a9a2baf54caccedb071240be", "lon": -77.04334583333333}, {"is_reserved": 0, "fusion_lon": 0.0, "fusion_lat": 0.0, "name": "77b14ff8d6b41273f14516d87282fa96", "type": "electric_scooter", "is_disabled": 0, "lat": 38.916001333333334, "rental_uris": {"android": "https://dc.lft.to/lastmile_qr_scan", "ios": "https://dc.lft.to/lastmile_qr_scan"}, "bike_id": "77b14ff8d6b41273f14516d87282fa96", "lon": -77.02395066666666}, {"is_reserved": 0, "fusion_lon": 0.0, "fusion_lat": 0.0, "name": "329b41a3cb9266dfa957fa2bcb7c4e5f", "type": "electric_scooter", "is_disabled": 0, "lat": 38.9306885, "rental_uris": {"android": "https://dc.lft.to/lastmile_qr_scan", "ios": "https://dc.lft.to/lastmile_qr_scan"}, "bike_id": "329b41a3cb9266dfa957fa2bcb7c4e5f", "lon": -77.03479416666667}, {"is_reserved": 0, "fusion_lon": 0.0, "fusion_lat": 0.0, "name": "abcc48f5a1db2408c8eb0497207353ea", "type": "electric_scooter", "is_disabled": 0, "lat": 38.843098, "rental_uris": {"android": "https://dc.lft.to/lastmile_qr_scan", "ios": "https://dc.lft.to/lastmile_qr_scan"}, "bike_id": "abcc48f5a1db2408c8eb0497207353ea", "lon": -76.9993675}, {"is_reserved": 0, "fusion_lon": 0.0, "fusion_lat": 0.0, "name": "dd75c8690be26156cac67e3dc12f2860", "type": "electric_scooter", "is_disabled": 0, "lat": 38.870407166666666, "rental_uris": {"android": "https://dc.lft.to/lastmile_qr_scan", "ios": "https://dc.lft.to/lastmile_qr_scan"}, "bike_id": "dd75c8690be26156cac67e3dc12f2860", "lon": -77.0096725}, {"is_reserved": 0, "fusion_lon": 0.0, "fusion_lat": 0.0, "name": "d0d0b596d0cd41451a81e274e4833221", "type": "electric_scooter", "is_disabled": 0, "lat": 38.914986666666664, "rental_uris": {"android": "https://dc.lft.to/lastmile_qr_scan", "ios": "https://dc.lft.to/lastmile_qr_scan"}, "bike_id": "d0d0b596d0cd41451a81e274e4833221", "lon": -77.02173116666667}, {"is_reserved": 0, "fusion_lon": 0.0, "fusion_lat": 0.0, "name": "7b3eb6623bb7d600c37ccfe633ee7c58", "type": "electric_scooter", "is_disabled": 0, "lat": 38.910442333333336, "rental_uris": {"android": "https://dc.lft.to/lastmile_qr_scan", "ios": "https://dc.lft.to/lastmile_qr_scan"}, "bike_id": "7b3eb6623bb7d600c37ccfe633ee7c58", "lon": -77.043563}, {"is_reserved": 0, "fusion_lon": 0.0, "fusion_lat": 0.0, "name": "42eb8ecf405f226a8311cc9784ff8eeb", "type": "electric_scooter", "is_disabled": 0, "lat": 38.86703333333333, "rental_uris": {"android": "https://dc.lft.to/lastmile_qr_scan", "ios": "https://dc.lft.to/lastmile_qr_scan"}, "bike_id": "42eb8ecf405f226a8311cc9784ff8eeb", "lon": -76.98712333333333}, {"is_reserved": 0, "fusion_lon": 0.0, "fusion_lat": 0.0, "name": "d414ad6b9fb8fcfb881a0b7099825266", "type": "electric_scooter", "is_disabled": 0, "lat": 38.9162535, "rental_uris": {"android": "https://dc.lft.to/lastmile_qr_scan", "ios": "https://dc.lft.to/lastmile_qr_scan"}, "bike_id": "d414ad6b9fb8fcfb881a0b7099825266", "lon": -77.01095733333334}, {"is_reserved": 0, "fusion_lon": 0.0, "fusion_lat": 0.0, "name": "321f8ccf538ef33fb7ad6b9d6093c04b", "type": "electric_scooter", "is_disabled": 0, "lat": 38.916874, "rental_uris": {"android": "https://dc.lft.to/lastmile_qr_scan", "ios": "https://dc.lft.to/lastmile_qr_scan"}, "bike_id": "321f8ccf538ef33fb7ad6b9d6093c04b", "lon": -77.03745116666667}, {"is_reserved": 0, "fusion_lon": 0.0, "fusion_lat": 0.0, "name": "b8843ede077f9b93c1763b57ea5a7f59", "type": "electric_bike", "is_disabled": 0, "lat": 38.93970933333333, "rental_uris": {"android": "https://dc.lft.to/lastmile_qr_scan", "ios": "https://dc.lft.to/lastmile_qr_scan"}, "bike_id": "b8843ede077f9b93c1763b57ea5a7f59", "lon": -76.98617083333333}, {"is_reserved": 0, "fusion_lon": 0.0, "fusion_lat": 0.0, "name": "5f48a48356685d9717c22c27f92dfc1e", "type": "electric_scooter", "is_disabled": 0, "lat": 38.92092733333333, "rental_uris": {"android": "https://dc.lft.to/lastmile_qr_scan", "ios": "https://dc.lft.to/lastmile_qr_scan"}, "bike_id": "5f48a48356685d9717c22c27f92dfc1e", "lon": -77.01762633333334}, {"is_reserved": 0, "fusion_lon": 0.0, "fusion_lat": 0.0, "name": "276e6b3bdc4ec785c86fc65b8bb0d5b1", "type": "electric_scooter", "is_disabled": 0, "lat": 38.87199016666667, "rental_uris": {"android": "https://dc.lft.to/lastmile_qr_scan", "ios": "https://dc.lft.to/lastmile_qr_scan"}, "bike_id": "276e6b3bdc4ec785c86fc65b8bb0d5b1", "lon": -77.00571316666667}, {"is_reserved": 0, "fusion_lon": 0.0, "fusion_lat": 0.0, "name": "ffc8b51d80ea1249723e12ae6df3eaa2", "type": "electric_scooter", "is_disabled": 0, "lat": 38.912363166666665, "rental_uris": {"android": "https://dc.lft.to/lastmile_qr_scan", "ios": "https://dc.lft.to/lastmile_qr_scan"}, "bike_id": "ffc8b51d80ea1249723e12ae6df3eaa2", "lon": -77.00919383333333}, {"is_reserved": 0, "fusion_lon": 0.0, "fusion_lat": 0.0, "name": "3681bc3962ef80fd4e8f5fec2a5b6a5f", "type": "electric_scooter", "is_disabled": 0, "lat": 38.8929225, "rental_uris": {"android": "https://dc.lft.to/lastmile_qr_scan", "ios": "https://dc.lft.to/lastmile_qr_scan"}, "bike_id": "3681bc3962ef80fd4e8f5fec2a5b6a5f", "lon": -77.03193083333333}, {"is_reserved": 0, "fusion_lon": 0.0, "fusion_lat": 0.0, "name": "aa442933f4214a69f8cb19297aba059e", "type": "electric_scooter", "is_disabled": 0, "lat": 38.89305933333333, "rental_uris": {"android": "https://dc.lft.to/lastmile_qr_scan", "ios": "https://dc.lft.to/lastmile_qr_scan"}, "bike_id": "aa442933f4214a69f8cb19297aba059e", "lon": -77.050085}, {"is_reserved": 0, "fusion_lon": 0.0, "fusion_lat": 0.0, "name": "e2b49cf494fd7f313a199cc1b3728c48", "type": "electric_scooter", "is_disabled": 0, "lat": 38.900364333333336, "rental_uris": {"android": "https://dc.lft.to/lastmile_qr_scan", "ios": "https://dc.lft.to/lastmile_qr_scan"}, "bike_id": "e2b49cf494fd7f313a199cc1b3728c48", "lon": -76.992624}, {"is_reserved": 0, "fusion_lon": 0.0, "fusion_lat": 0.0, "name": "c542706968a3d2969fb2530e96f0b715", "type": "electric_scooter", "is_disabled": 0, "lat": 38.9071775, "rental_uris": {"android": "https://dc.lft.to/lastmile_qr_scan", "ios": "https://dc.lft.to/lastmile_qr_scan"}, "bike_id": "c542706968a3d2969fb2530e96f0b715", "lon": -77.00046266666666}, {"is_reserved": 0, "fusion_lon": 0.0, "fusion_lat": 0.0, "name": "6872896807ddb7001a244c67b7f16267", "type": "electric_bike", "is_disabled": 0, "lat": 38.86938383333333, "rental_uris": {"android": "https://dc.lft.to/lastmile_qr_scan", "ios": "https://dc.lft.to/lastmile_qr_scan"}, "bike_id": "6872896807ddb7001a244c67b7f16267", "lon": -77.09465866666666}, {"is_reserved": 0, "fusion_lon": 0.0, "fusion_lat": 0.0, "name": "1763a82d9b75525bfbbbc5d6b25e4bd7", "type": "electric_scooter", "is_disabled": 0, "lat": 38.9197625, "rental_uris": {"android": "https://dc.lft.to/lastmile_qr_scan", "ios": "https://dc.lft.to/lastmile_qr_scan"}, "bike_id": "1763a82d9b75525bfbbbc5d6b25e4bd7", "lon": -77.025232}, {"is_reserved": 0, "fusion_lon": 0.0, "fusion_lat": 0.0, "name": "0993eb53b28104b8894a505224268f0f", "type": "electric_scooter", "is_disabled": 0, "lat": 38.890226166666665, "rental_uris": {"android": "https://dc.lft.to/lastmile_qr_scan", "ios": "https://dc.lft.to/lastmile_qr_scan"}, "bike_id": "0993eb53b28104b8894a505224268f0f", "lon": -76.93699283333333}, {"is_reserved": 0, "fusion_lon": 0.0, "fusion_lat": 0.0, "name": "2a4c986be114fcb982847292d7b81026", "type": "electric_scooter", "is_disabled": 0, "lat": 38.892115, "rental_uris": {"android": "https://dc.lft.to/lastmile_qr_scan", "ios": "https://dc.lft.to/lastmile_qr_scan"}, "bike_id": "2a4c986be114fcb982847292d7b81026", "lon": -77.02350166666666}, {"is_reserved": 0, "fusion_lon": 0.0, "fusion_lat": 0.0, "name": "a7d7bb0cab1fd2497537cce89c9095d8", "type": "electric_scooter", "is_disabled": 0, "lat": 38.91155783333333, "rental_uris": {"android": "https://dc.lft.to/lastmile_qr_scan", "ios": "https://dc.lft.to/lastmile_qr_scan"}, "bike_id": "a7d7bb0cab1fd2497537cce89c9095d8", "lon": -77.07272683333333}, {"is_reserved": 0, "fusion_lon": 0.0, "fusion_lat": 0.0, "name": "0ef2042369477e1e04c2fe7e8ac3546a", "type": "electric_scooter", "is_disabled": 0, "lat": 38.916966333333335, "rental_uris": {"android": "https://dc.lft.to/lastmile_qr_scan", "ios": "https://dc.lft.to/lastmile_qr_scan"}, "bike_id": "0ef2042369477e1e04c2fe7e8ac3546a", "lon": -77.02598133333333}, {"is_reserved": 0, "fusion_lon": 0.0, "fusion_lat": 0.0, "name": "c1ba17dba9168bca276fb33ee9a07101", "type": "electric_scooter", "is_disabled": 0, "lat": 38.92369516666667, "rental_uris": {"android": "https://dc.lft.to/lastmile_qr_scan", "ios": "https://dc.lft.to/lastmile_qr_scan"}, "bike_id": "c1ba17dba9168bca276fb33ee9a07101", "lon": -77.0269565}, {"is_reserved": 0, "fusion_lon": 0.0, "fusion_lat": 0.0, "name": "317a62fec1efed1dd15ce4e8f52ab54f", "type": "electric_scooter", "is_disabled": 0, "lat": 38.90369583333333, "rental_uris": {"android": "https://dc.lft.to/lastmile_qr_scan", "ios": "https://dc.lft.to/lastmile_qr_scan"}, "bike_id": "317a62fec1efed1dd15ce4e8f52ab54f", "lon": -77.00726466666667}, {"is_reserved": 0, "fusion_lon": 0.0, "fusion_lat": 0.0, "name": "908a131babfdc42b73929462aa7c4be9", "type": "electric_scooter", "is_disabled": 0, "lat": 38.90559416666667, "rental_uris": {"android": "https://dc.lft.to/lastmile_qr_scan", "ios": "https://dc.lft.to/lastmile_qr_scan"}, "bike_id": "908a131babfdc42b73929462aa7c4be9", "lon": -77.02490583333334}, {"is_reserved": 0, "fusion_lon": 0.0, "fusion_lat": 0.0, "name": "edd9fd97c965de2241b17251c7fbd8e7", "type": "electric_scooter", "is_disabled": 0, "lat": 38.93633616666666, "rental_uris": {"android": "https://dc.lft.to/lastmile_qr_scan", "ios": "https://dc.lft.to/lastmile_qr_scan"}, "bike_id": "edd9fd97c965de2241b17251c7fbd8e7", "lon": -77.03651633333334}, {"is_reserved": 0, "fusion_lon": 0.0, "fusion_lat": 0.0, "name": "7ce7541a7c44cae3a959f638734524fe", "type": "electric_scooter", "is_disabled": 0, "lat": 38.92919916666666, "rental_uris": {"android": "https://dc.lft.to/lastmile_qr_scan", "ios": "https://dc.lft.to/lastmile_qr_scan"}, "bike_id": "7ce7541a7c44cae3a959f638734524fe", "lon": -77.037566}, {"is_reserved": 0, "fusion_lon": 0.0, "fusion_lat": 0.0, "name": "b717b72b1b289d69e3da5dcef197b7a7", "type": "electric_scooter", "is_disabled": 0, "lat": 38.91136933333333, "rental_uris": {"android": "https://dc.lft.to/lastmile_qr_scan", "ios": "https://dc.lft.to/lastmile_qr_scan"}, "bike_id": "b717b72b1b289d69e3da5dcef197b7a7", "lon": -77.03208266666667}, {"is_reserved": 0, "fusion_lon": 0.0, "fusion_lat": 0.0, "name": "716bd208ab7a5436a60ff761a3cb8f67", "type": "electric_scooter", "is_disabled": 0, "lat": 38.94199666666667, "rental_uris": {"android": "https://dc.lft.to/lastmile_qr_scan", "ios": "https://dc.lft.to/lastmile_qr_scan"}, "bike_id": "716bd208ab7a5436a60ff761a3cb8f67", "lon": -77.025064}, {"is_reserved": 0, "fusion_lon": 0.0, "fusion_lat": 0.0, "name": "5991f61d88ddd26a18ce2c1e04c8a83c", "type": "electric_scooter", "is_disabled": 0, "lat": 38.91984016666667, "rental_uris": {"android": "https://dc.lft.to/lastmile_qr_scan", "ios": "https://dc.lft.to/lastmile_qr_scan"}, "bike_id": "5991f61d88ddd26a18ce2c1e04c8a83c", "lon": -77.03248783333333}, {"is_reserved": 0, "fusion_lon": 0.0, "fusion_lat": 0.0, "name": "2cc8489ed59fab5cb1116e66489ba154", "type": "electric_scooter", "is_disabled": 0, "lat": 38.9175945, "rental_uris": {"android": "https://dc.lft.to/lastmile_qr_scan", "ios": "https://dc.lft.to/lastmile_qr_scan"}, "bike_id": "2cc8489ed59fab5cb1116e66489ba154", "lon": -77.04779616666667}, {"is_reserved": 0, "fusion_lon": 0.0, "fusion_lat": 0.0, "name": "995a261a15e8362b171b11d5b4a8f2d0", "type": "electric_scooter", "is_disabled": 0, "lat": 38.9042365, "rental_uris": {"android": "https://dc.lft.to/lastmile_qr_scan", "ios": "https://dc.lft.to/lastmile_qr_scan"}, "bike_id": "995a261a15e8362b171b11d5b4a8f2d0", "lon": -77.0183805}, {"is_reserved": 0, "fusion_lon": 0.0, "fusion_lat": 0.0, "name": "080c8ebe15f1373f42de59d51290fc57", "type": "electric_scooter", "is_disabled": 0, "lat": 38.912416666666665, "rental_uris": {"android": "https://dc.lft.to/lastmile_qr_scan", "ios": "https://dc.lft.to/lastmile_qr_scan"}, "bike_id": "080c8ebe15f1373f42de59d51290fc57", "lon": -77.00918783333333}, {"is_reserved": 0, "fusion_lon": 0.0, "fusion_lat": 0.0, "name": "09b48ef4e6f97241ed9379ce2a9397e9", "type": "electric_bike", "is_disabled": 0, "lat": 38.865193166666664, "rental_uris": {"android": "https://dc.lft.to/lastmile_qr_scan", "ios": "https://dc.lft.to/lastmile_qr_scan"}, "bike_id": "09b48ef4e6f97241ed9379ce2a9397e9", "lon": -76.9733425}, {"is_reserved": 0, "fusion_lon": 0.0, "fusion_lat": 0.0, "name": "b02e116ab7985d031657ac1e63aafd3e", "type": "electric_scooter", "is_disabled": 0, "lat": 38.89220533333334, "rental_uris": {"android": "https://dc.lft.to/lastmile_qr_scan", "ios": "https://dc.lft.to/lastmile_qr_scan"}, "bike_id": "b02e116ab7985d031657ac1e63aafd3e", "lon": -77.0437455}, {"is_reserved": 0, "fusion_lon": 0.0, "fusion_lat": 0.0, "name": "86dc0f1a603317e1535fbd9d5f8a1a5b", "type": "electric_scooter", "is_disabled": 0, "lat": 38.887453666666666, "rental_uris": {"android": "https://dc.lft.to/lastmile_qr_scan", "ios": "https://dc.lft.to/lastmile_qr_scan"}, "bike_id": "86dc0f1a603317e1535fbd9d5f8a1a5b", "lon": -77.02734316666667}, {"is_reserved": 0, "fusion_lon": 0.0, "fusion_lat": 0.0, "name": "69392be9e1a2974b90725f9db16f4f7d", "type": "electric_bike", "is_disabled": 0, "lat": 38.865823666666664, "rental_uris": {"android": "https://dc.lft.to/lastmile_qr_scan", "ios": "https://dc.lft.to/lastmile_qr_scan"}, "bike_id": "69392be9e1a2974b90725f9db16f4f7d", "lon": -77.04760816666666}, {"is_reserved": 0, "fusion_lon": 0.0, "fusion_lat": 0.0, "name": "5db01f8055f08a0c2a1a61bf80767fb1", "type": "electric_scooter", "is_disabled": 0, "lat": 38.918754666666665, "rental_uris": {"android": "https://dc.lft.to/lastmile_qr_scan", "ios": "https://dc.lft.to/lastmile_qr_scan"}, "bike_id": "5db01f8055f08a0c2a1a61bf80767fb1", "lon": -77.0419695}, {"is_reserved": 0, "fusion_lon": 0.0, "fusion_lat": 0.0, "name": "28adb539c21e9076fc59964447914485", "type": "electric_scooter", "is_disabled": 0, "lat": 38.939499833333336, "rental_uris": {"android": "https://dc.lft.to/lastmile_qr_scan", "ios": "https://dc.lft.to/lastmile_qr_scan"}, "bike_id": "28adb539c21e9076fc59964447914485", "lon": -77.072488}, {"is_reserved": 0, "fusion_lon": 0.0, "fusion_lat": 0.0, "name": "433737654d591ed78e734bf29b0dcd02", "type": "electric_scooter", "is_disabled": 0, "lat": 38.865058833333336, "rental_uris": {"android": "https://dc.lft.to/lastmile_qr_scan", "ios": "https://dc.lft.to/lastmile_qr_scan"}, "bike_id": "433737654d591ed78e734bf29b0dcd02", "lon": -76.99001566666666}, {"is_reserved": 0, "fusion_lon": 0.0, "fusion_lat": 0.0, "name": "59ac50292d79039d7b7727701027aa4d", "type": "electric_scooter", "is_disabled": 0, "lat": 38.939110166666666, "rental_uris": {"android": "https://dc.lft.to/lastmile_qr_scan", "ios": "https://dc.lft.to/lastmile_qr_scan"}, "bike_id": "59ac50292d79039d7b7727701027aa4d", "lon": -77.02477066666667}, {"is_reserved": 0, "fusion_lon": 0.0, "fusion_lat": 0.0, "name": "851dba426876ed9923bf8c963411a32e", "type": "electric_scooter", "is_disabled": 0, "lat": 38.9125835, "rental_uris": {"android": "https://dc.lft.to/lastmile_qr_scan", "ios": "https://dc.lft.to/lastmile_qr_scan"}, "bike_id": "851dba426876ed9923bf8c963411a32e", "lon": -77.031283}, {"is_reserved": 0, "fusion_lon": 0.0, "fusion_lat": 0.0, "name": "0ce75888adc25e6de081865bc1a834cf", "type": "electric_scooter", "is_disabled": 0, "lat": 38.938627333333336, "rental_uris": {"android": "https://dc.lft.to/lastmile_qr_scan", "ios": "https://dc.lft.to/lastmile_qr_scan"}, "bike_id": "0ce75888adc25e6de081865bc1a834cf", "lon": -77.02651183333333}, {"is_reserved": 0, "fusion_lon": 0.0, "fusion_lat": 0.0, "name": "9d6f4b739e3a0cb598a4c643b607a34a", "type": "electric_scooter", "is_disabled": 0, "lat": 38.924768666666665, "rental_uris": {"android": "https://dc.lft.to/lastmile_qr_scan", "ios": "https://dc.lft.to/lastmile_qr_scan"}, "bike_id": "9d6f4b739e3a0cb598a4c643b607a34a", "lon": -77.02130733333334}, {"is_reserved": 0, "fusion_lon": 0.0, "fusion_lat": 0.0, "name": "f249dfada020fafaf72c74550158ec32", "type": "electric_scooter", "is_disabled": 0, "lat": 38.905658833333334, "rental_uris": {"android": "https://dc.lft.to/lastmile_qr_scan", "ios": "https://dc.lft.to/lastmile_qr_scan"}, "bike_id": "f249dfada020fafaf72c74550158ec32", "lon": -77.024935}, {"is_reserved": 0, "fusion_lon": 0.0, "fusion_lat": 0.0, "name": "42f10dd21db988805cfddebd359408be", "type": "electric_scooter", "is_disabled": 0, "lat": 38.88508233333334, "rental_uris": {"android": "https://dc.lft.to/lastmile_qr_scan", "ios": "https://dc.lft.to/lastmile_qr_scan"}, "bike_id": "42f10dd21db988805cfddebd359408be", "lon": -77.0202}, {"is_reserved": 0, "fusion_lon": 0.0, "fusion_lat": 0.0, "name": "c4b4da1499c246da6be27bbb9c28e4aa", "type": "electric_scooter", "is_disabled": 0, "lat": 38.92926283333333, "rental_uris": {"android": "https://dc.lft.to/lastmile_qr_scan", "ios": "https://dc.lft.to/lastmile_qr_scan"}, "bike_id": "c4b4da1499c246da6be27bbb9c28e4aa", "lon": -77.02336083333333}, {"is_reserved": 0, "fusion_lon": 0.0, "fusion_lat": 0.0, "name": "5d32d353c8aaaeb1210a7a250bae2b14", "type": "electric_scooter", "is_disabled": 0, "lat": 38.942047, "rental_uris": {"android": "https://dc.lft.to/lastmile_qr_scan", "ios": "https://dc.lft.to/lastmile_qr_scan"}, "bike_id": "5d32d353c8aaaeb1210a7a250bae2b14", "lon": -77.02515666666666}, {"is_reserved": 0, "fusion_lon": 0.0, "fusion_lat": 0.0, "name": "e825c34471c07f34246874e2426a7005", "type": "electric_scooter", "is_disabled": 0, "lat": 38.89225016666666, "rental_uris": {"android": "https://dc.lft.to/lastmile_qr_scan", "ios": "https://dc.lft.to/lastmile_qr_scan"}, "bike_id": "e825c34471c07f34246874e2426a7005", "lon": -77.02178283333333}, {"is_reserved": 0, "fusion_lon": 0.0, "fusion_lat": 0.0, "name": "20ee4948a9bb292c93e53c0d11ecc4e4", "type": "electric_scooter", "is_disabled": 0, "lat": 38.92265883333334, "rental_uris": {"android": "https://dc.lft.to/lastmile_qr_scan", "ios": "https://dc.lft.to/lastmile_qr_scan"}, "bike_id": "20ee4948a9bb292c93e53c0d11ecc4e4", "lon": -77.02245166666667}, {"is_reserved": 0, "fusion_lon": 0.0, "fusion_lat": 0.0, "name": "23dbe0b4af8ee75dfb3b31639bcc3add", "type": "electric_scooter", "is_disabled": 0, "lat": 38.923331833333336, "rental_uris": {"android": "https://dc.lft.to/lastmile_qr_scan", "ios": "https://dc.lft.to/lastmile_qr_scan"}, "bike_id": "23dbe0b4af8ee75dfb3b31639bcc3add", "lon": -77.01957116666667}, {"is_reserved": 0, "fusion_lon": 0.0, "fusion_lat": 0.0, "name": "49c8cf1a00f26ccf8c03b97db1dfac2d", "type": "electric_scooter", "is_disabled": 0, "lat": 38.91182216666667, "rental_uris": {"android": "https://dc.lft.to/lastmile_qr_scan", "ios": "https://dc.lft.to/lastmile_qr_scan"}, "bike_id": "49c8cf1a00f26ccf8c03b97db1dfac2d", "lon": -77.04343116666666}, {"is_reserved": 0, "fusion_lon": 0.0, "fusion_lat": 0.0, "name": "b5f720ce95fcfbbdb5579d4d03a6a30c", "type": "electric_scooter", "is_disabled": 0, "lat": 38.90726983333333, "rental_uris": {"android": "https://dc.lft.to/lastmile_qr_scan", "ios": "https://dc.lft.to/lastmile_qr_scan"}, "bike_id": "b5f720ce95fcfbbdb5579d4d03a6a30c", "lon": -77.0407435}, {"is_reserved": 0, "fusion_lon": 0.0, "fusion_lat": 0.0, "name": "71b8b29f305bd762ab20ea5a8e9668c1", "type": "electric_scooter", "is_disabled": 0, "lat": 38.919762, "rental_uris": {"android": "https://dc.lft.to/lastmile_qr_scan", "ios": "https://dc.lft.to/lastmile_qr_scan"}, "bike_id": "71b8b29f305bd762ab20ea5a8e9668c1", "lon": -77.03311666666667}, {"is_reserved": 0, "fusion_lon": 0.0, "fusion_lat": 0.0, "name": "d944c29adb16987a6796534af1c08da1", "type": "electric_scooter", "is_disabled": 0, "lat": 38.865527666666665, "rental_uris": {"android": "https://dc.lft.to/lastmile_qr_scan", "ios": "https://dc.lft.to/lastmile_qr_scan"}, "bike_id": "d944c29adb16987a6796534af1c08da1", "lon": -76.9887585}, {"is_reserved": 0, "fusion_lon": 0.0, "fusion_lat": 0.0, "name": "0f6b70eaf0106bb0f5a05195f665a745", "type": "electric_scooter", "is_disabled": 0, "lat": 38.908996, "rental_uris": {"android": "https://dc.lft.to/lastmile_qr_scan", "ios": "https://dc.lft.to/lastmile_qr_scan"}, "bike_id": "0f6b70eaf0106bb0f5a05195f665a745", "lon": -77.04408266666667}, {"is_reserved": 0, "fusion_lon": 0.0, "fusion_lat": 0.0, "name": "87aec5d93bf694799ed950c4b52ea785", "type": "electric_scooter", "is_disabled": 0, "lat": 38.892172, "rental_uris": {"android": "https://dc.lft.to/lastmile_qr_scan", "ios": "https://dc.lft.to/lastmile_qr_scan"}, "bike_id": "87aec5d93bf694799ed950c4b52ea785", "lon": -77.031941}, {"is_reserved": 0, "fusion_lon": 0.0, "fusion_lat": 0.0, "name": "b1c711bc85f6b4c4bf807d733762c396", "type": "electric_scooter", "is_disabled": 0, "lat": 38.921048, "rental_uris": {"android": "https://dc.lft.to/lastmile_qr_scan", "ios": "https://dc.lft.to/lastmile_qr_scan"}, "bike_id": "b1c711bc85f6b4c4bf807d733762c396", "lon": -77.03196166666666}, {"is_reserved": 0, "fusion_lon": 0.0, "fusion_lat": 0.0, "name": "8a775ebbab317981cbf82c63c013d6db", "type": "electric_scooter", "is_disabled": 0, "lat": 38.90153816666667, "rental_uris": {"android": "https://dc.lft.to/lastmile_qr_scan", "ios": "https://dc.lft.to/lastmile_qr_scan"}, "bike_id": "8a775ebbab317981cbf82c63c013d6db", "lon": -77.03950366666666}, {"is_reserved": 0, "fusion_lon": 0.0, "fusion_lat": 0.0, "name": "1cd1ffa6ee51e9381666c62c3d648c4e", "type": "electric_bike", "is_disabled": 0, "lat": 38.855179166666666, "rental_uris": {"android": "https://dc.lft.to/lastmile_qr_scan", "ios": "https://dc.lft.to/lastmile_qr_scan"}, "bike_id": "1cd1ffa6ee51e9381666c62c3d648c4e", "lon": -76.98437683333333}, {"is_reserved": 0, "fusion_lon": 0.0, "fusion_lat": 0.0, "name": "8ef30e2ca9ba542c57f448991300dc41", "type": "electric_scooter", "is_disabled": 0, "lat": 38.93100333333334, "rental_uris": {"android": "https://dc.lft.to/lastmile_qr_scan", "ios": "https://dc.lft.to/lastmile_qr_scan"}, "bike_id": "8ef30e2ca9ba542c57f448991300dc41", "lon": -77.036386}, {"is_reserved": 0, "fusion_lon": 0.0, "fusion_lat": 0.0, "name": "bc6c1884ccd7bbcf135166ee0cdc0c1c", "type": "electric_scooter", "is_disabled": 0, "lat": 38.899982, "rental_uris": {"android": "https://dc.lft.to/lastmile_qr_scan", "ios": "https://dc.lft.to/lastmile_qr_scan"}, "bike_id": "bc6c1884ccd7bbcf135166ee0cdc0c1c", "lon": -76.9984855}, {"is_reserved": 0, "fusion_lon": 0.0, "fusion_lat": 0.0, "name": "26b0b0bac9c12f3f1db279211910fcad", "type": "electric_scooter", "is_disabled": 0, "lat": 38.887427, "rental_uris": {"android": "https://dc.lft.to/lastmile_qr_scan", "ios": "https://dc.lft.to/lastmile_qr_scan"}, "bike_id": "26b0b0bac9c12f3f1db279211910fcad", "lon": -77.01741916666667}, {"is_reserved": 0, "fusion_lon": 0.0, "fusion_lat": 0.0, "name": "7afcc981000e9b3951b3e7cce73a1aca", "type": "electric_scooter", "is_disabled": 0, "lat": 38.901521833333334, "rental_uris": {"android": "https://dc.lft.to/lastmile_qr_scan", "ios": "https://dc.lft.to/lastmile_qr_scan"}, "bike_id": "7afcc981000e9b3951b3e7cce73a1aca", "lon": -77.02420366666666}, {"is_reserved": 0, "fusion_lon": 0.0, "fusion_lat": 0.0, "name": "44eb5e84473cf3719c829c910269c14a", "type": "electric_scooter", "is_disabled": 0, "lat": 38.905776, "rental_uris": {"android": "https://dc.lft.to/lastmile_qr_scan", "ios": "https://dc.lft.to/lastmile_qr_scan"}, "bike_id": "44eb5e84473cf3719c829c910269c14a", "lon": -77.024836}, {"is_reserved": 0, "fusion_lon": 0.0, "fusion_lat": 0.0, "name": "abe6745dd8ac6704274d77c237652838", "type": "electric_scooter", "is_disabled": 0, "lat": 38.86354566666667, "rental_uris": {"android": "https://dc.lft.to/lastmile_qr_scan", "ios": "https://dc.lft.to/lastmile_qr_scan"}, "bike_id": "abe6745dd8ac6704274d77c237652838", "lon": -76.9906495}, {"is_reserved": 0, "fusion_lon": 0.0, "fusion_lat": 0.0, "name": "d153a3a1e35dbfc936c91753731fdb89", "type": "electric_scooter", "is_disabled": 0, "lat": 38.90875116666667, "rental_uris": {"android": "https://dc.lft.to/lastmile_qr_scan", "ios": "https://dc.lft.to/lastmile_qr_scan"}, "bike_id": "d153a3a1e35dbfc936c91753731fdb89", "lon": -77.00155416666666}, {"is_reserved": 0, "fusion_lon": 0.0, "fusion_lat": 0.0, "name": "d1672a302fe1b49b324e6c0b4d0460cc", "type": "electric_scooter", "is_disabled": 0, "lat": 38.909835, "rental_uris": {"android": "https://dc.lft.to/lastmile_qr_scan", "ios": "https://dc.lft.to/lastmile_qr_scan"}, "bike_id": "d1672a302fe1b49b324e6c0b4d0460cc", "lon": -77.03375216666667}, {"is_reserved": 0, "fusion_lon": 0.0, "fusion_lat": 0.0, "name": "c21d1550d5da78e02f30b600135296cf", "type": "electric_scooter", "is_disabled": 0, "lat": 38.92257216666667, "rental_uris": {"android": "https://dc.lft.to/lastmile_qr_scan", "ios": "https://dc.lft.to/lastmile_qr_scan"}, "bike_id": "c21d1550d5da78e02f30b600135296cf", "lon": -77.03522683333334}, {"is_reserved": 0, "fusion_lon": 0.0, "fusion_lat": 0.0, "name": "364e5353319bff45c18f053437d31b57", "type": "electric_bike", "is_disabled": 0, "lat": 38.938144, "rental_uris": {"android": "https://dc.lft.to/lastmile_qr_scan", "ios": "https://dc.lft.to/lastmile_qr_scan"}, "bike_id": "364e5353319bff45c18f053437d31b57", "lon": -77.068544}, {"is_reserved": 0, "fusion_lon": 0.0, "fusion_lat": 0.0, "name": "06abb33735c658fe3b9c96ea795fd152", "type": "electric_scooter", "is_disabled": 0, "lat": 38.90034716666667, "rental_uris": {"android": "https://dc.lft.to/lastmile_qr_scan", "ios": "https://dc.lft.to/lastmile_qr_scan"}, "bike_id": "06abb33735c658fe3b9c96ea795fd152", "lon": -77.006892}, {"is_reserved": 0, "fusion_lon": 0.0, "fusion_lat": 0.0, "name": "b1524e2a97228bf995e2fdb51d3419c4", "type": "electric_bike", "is_disabled": 0, "lat": 38.969603666666664, "rental_uris": {"android": "https://dc.lft.to/lastmile_qr_scan", "ios": "https://dc.lft.to/lastmile_qr_scan"}, "bike_id": "b1524e2a97228bf995e2fdb51d3419c4", "lon": -76.957505}, {"is_reserved": 0, "fusion_lon": 0.0, "fusion_lat": 0.0, "name": "6af61afd3ce11c0706365e302fa9a3f3", "type": "electric_scooter", "is_disabled": 0, "lat": 38.90503983333333, "rental_uris": {"android": "https://dc.lft.to/lastmile_qr_scan", "ios": "https://dc.lft.to/lastmile_qr_scan"}, "bike_id": "6af61afd3ce11c0706365e302fa9a3f3", "lon": -77.0482475}, {"is_reserved": 0, "fusion_lon": 0.0, "fusion_lat": 0.0, "name": "d596e765114c7b51a79e8794ae9ba87f", "type": "electric_scooter", "is_disabled": 0, "lat": 38.86018933333333, "rental_uris": {"android": "https://dc.lft.to/lastmile_qr_scan", "ios": "https://dc.lft.to/lastmile_qr_scan"}, "bike_id": "d596e765114c7b51a79e8794ae9ba87f", "lon": -76.98509766666666}, {"is_reserved": 0, "fusion_lon": 0.0, "fusion_lat": 0.0, "name": "d991028b7d600fc3ba5b92de395ff080", "type": "electric_scooter", "is_disabled": 0, "lat": 38.90224083333333, "rental_uris": {"android": "https://dc.lft.to/lastmile_qr_scan", "ios": "https://dc.lft.to/lastmile_qr_scan"}, "bike_id": "d991028b7d600fc3ba5b92de395ff080", "lon": -77.02815016666666}, {"is_reserved": 0, "fusion_lon": 0.0, "fusion_lat": 0.0, "name": "9b87e7e82163acedaed4641902525ae1", "type": "electric_scooter", "is_disabled": 0, "lat": 38.88421566666667, "rental_uris": {"android": "https://dc.lft.to/lastmile_qr_scan", "ios": "https://dc.lft.to/lastmile_qr_scan"}, "bike_id": "9b87e7e82163acedaed4641902525ae1", "lon": -77.01760516666667}, {"is_reserved": 0, "fusion_lon": 0.0, "fusion_lat": 0.0, "name": "6fdc9f0510b8a886d3d92f7c7c0fee6b", "type": "electric_scooter", "is_disabled": 0, "lat": 38.92246516666667, "rental_uris": {"android": "https://dc.lft.to/lastmile_qr_scan", "ios": "https://dc.lft.to/lastmile_qr_scan"}, "bike_id": "6fdc9f0510b8a886d3d92f7c7c0fee6b", "lon": -77.03067883333334}, {"is_reserved": 0, "fusion_lon": 0.0, "fusion_lat": 0.0, "name": "820f5120c23c7de6858ead5d2a80b00a", "type": "electric_scooter", "is_disabled": 0, "lat": 38.905052166666664, "rental_uris": {"android": "https://dc.lft.to/lastmile_qr_scan", "ios": "https://dc.lft.to/lastmile_qr_scan"}, "bike_id": "820f5120c23c7de6858ead5d2a80b00a", "lon": -77.046547}, {"is_reserved": 0, "fusion_lon": 0.0, "fusion_lat": 0.0, "name": "86e29899a221b5d176d2f7cd8c7182da", "type": "electric_scooter", "is_disabled": 0, "lat": 38.916922666666665, "rental_uris": {"android": "https://dc.lft.to/lastmile_qr_scan", "ios": "https://dc.lft.to/lastmile_qr_scan"}, "bike_id": "86e29899a221b5d176d2f7cd8c7182da", "lon": -77.0259775}, {"is_reserved": 0, "fusion_lon": 0.0, "fusion_lat": 0.0, "name": "c844cb4d9162de5faa692b65f312b7d8", "type": "electric_scooter", "is_disabled": 0, "lat": 38.91642616666667, "rental_uris": {"android": "https://dc.lft.to/lastmile_qr_scan", "ios": "https://dc.lft.to/lastmile_qr_scan"}, "bike_id": "c844cb4d9162de5faa692b65f312b7d8", "lon": -77.04805533333334}, {"is_reserved": 0, "fusion_lon": 0.0, "fusion_lat": 0.0, "name": "3e5915320334b5185f06462f60ca3ab2", "type": "electric_scooter", "is_disabled": 0, "lat": 38.91256216666667, "rental_uris": {"android": "https://dc.lft.to/lastmile_qr_scan", "ios": "https://dc.lft.to/lastmile_qr_scan"}, "bike_id": "3e5915320334b5185f06462f60ca3ab2", "lon": -77.0731825}, {"is_reserved": 0, "fusion_lon": 0.0, "fusion_lat": 0.0, "name": "64a43df68ec60fa6bc26d7d37e15648b", "type": "electric_scooter", "is_disabled": 0, "lat": 38.926207833333336, "rental_uris": {"android": "https://dc.lft.to/lastmile_qr_scan", "ios": "https://dc.lft.to/lastmile_qr_scan"}, "bike_id": "64a43df68ec60fa6bc26d7d37e15648b", "lon": -77.04320633333333}, {"is_reserved": 0, "fusion_lon": 0.0, "fusion_lat": 0.0, "name": "9b9952e5c939d2220993cbb87ca256e5", "type": "electric_scooter", "is_disabled": 0, "lat": 38.9111815, "rental_uris": {"android": "https://dc.lft.to/lastmile_qr_scan", "ios": "https://dc.lft.to/lastmile_qr_scan"}, "bike_id": "9b9952e5c939d2220993cbb87ca256e5", "lon": -77.03214133333333}, {"is_reserved": 0, "fusion_lon": 0.0, "fusion_lat": 0.0, "name": "de498bae8cb127e2b9a5558ce5a8a5c6", "type": "electric_scooter", "is_disabled": 0, "lat": 38.951932166666666, "rental_uris": {"android": "https://dc.lft.to/lastmile_qr_scan", "ios": "https://dc.lft.to/lastmile_qr_scan"}, "bike_id": "de498bae8cb127e2b9a5558ce5a8a5c6", "lon": -77.026156}, {"is_reserved": 0, "fusion_lon": 0.0, "fusion_lat": 0.0, "name": "130cef5daa3d709b8966c3caf19235fd", "type": "electric_bike", "is_disabled": 0, "lat": 38.93225116666667, "rental_uris": {"android": "https://dc.lft.to/lastmile_qr_scan", "ios": "https://dc.lft.to/lastmile_qr_scan"}, "bike_id": "130cef5daa3d709b8966c3caf19235fd", "lon": -77.1812395}, {"is_reserved": 0, "fusion_lon": 0.0, "fusion_lat": 0.0, "name": "4d93755f84b8005c17eb5a0cb3841898", "type": "electric_scooter", "is_disabled": 0, "lat": 38.912619166666666, "rental_uris": {"android": "https://dc.lft.to/lastmile_qr_scan", "ios": "https://dc.lft.to/lastmile_qr_scan"}, "bike_id": "4d93755f84b8005c17eb5a0cb3841898", "lon": -77.04106083333333}, {"is_reserved": 0, "fusion_lon": 0.0, "fusion_lat": 0.0, "name": "0e413884b8f19d3a26df5ac929f9ffe8", "type": "electric_scooter", "is_disabled": 0, "lat": 38.89892716666667, "rental_uris": {"android": "https://dc.lft.to/lastmile_qr_scan", "ios": "https://dc.lft.to/lastmile_qr_scan"}, "bike_id": "0e413884b8f19d3a26df5ac929f9ffe8", "lon": -76.9938555}, {"is_reserved": 0, "fusion_lon": 0.0, "fusion_lat": 0.0, "name": "8b0ba7b9ee9b5515861349a87dda6df7", "type": "electric_scooter", "is_disabled": 0, "lat": 38.9111745, "rental_uris": {"android": "https://dc.lft.to/lastmile_qr_scan", "ios": "https://dc.lft.to/lastmile_qr_scan"}, "bike_id": "8b0ba7b9ee9b5515861349a87dda6df7", "lon": -77.03256683333333}, {"is_reserved": 0, "fusion_lon": 0.0, "fusion_lat": 0.0, "name": "f3c9bfce7c518cb82cdd901a89d49b21", "type": "electric_scooter", "is_disabled": 0, "lat": 38.88136866666667, "rental_uris": {"android": "https://dc.lft.to/lastmile_qr_scan", "ios": "https://dc.lft.to/lastmile_qr_scan"}, "bike_id": "f3c9bfce7c518cb82cdd901a89d49b21", "lon": -77.01228433333333}, {"is_reserved": 0, "fusion_lon": 0.0, "fusion_lat": 0.0, "name": "499c6d9ce74119a133000a56fbead5fa", "type": "electric_bike", "is_disabled": 0, "lat": 38.95331433333333, "rental_uris": {"android": "https://dc.lft.to/lastmile_qr_scan", "ios": "https://dc.lft.to/lastmile_qr_scan"}, "bike_id": "499c6d9ce74119a133000a56fbead5fa", "lon": -76.95434466666667}, {"is_reserved": 0, "fusion_lon": 0.0, "fusion_lat": 0.0, "name": "8a030fc0376dc338e1ecfdb68aa09be6", "type": "electric_scooter", "is_disabled": 0, "lat": 38.89602566666667, "rental_uris": {"android": "https://dc.lft.to/lastmile_qr_scan", "ios": "https://dc.lft.to/lastmile_qr_scan"}, "bike_id": "8a030fc0376dc338e1ecfdb68aa09be6", "lon": -77.0498925}, {"is_reserved": 0, "fusion_lon": 0.0, "fusion_lat": 0.0, "name": "34ad5f89ee4fe1cbf61ec1f48ea2bd72", "type": "electric_scooter", "is_disabled": 0, "lat": 38.91376833333333, "rental_uris": {"android": "https://dc.lft.to/lastmile_qr_scan", "ios": "https://dc.lft.to/lastmile_qr_scan"}, "bike_id": "34ad5f89ee4fe1cbf61ec1f48ea2bd72", "lon": -77.03140266666666}, {"is_reserved": 0, "fusion_lon": 0.0, "fusion_lat": 0.0, "name": "07192e8531c0344d7ec158e89d050b1c", "type": "electric_scooter", "is_disabled": 0, "lat": 38.921584833333334, "rental_uris": {"android": "https://dc.lft.to/lastmile_qr_scan", "ios": "https://dc.lft.to/lastmile_qr_scan"}, "bike_id": "07192e8531c0344d7ec158e89d050b1c", "lon": -77.03384266666667}, {"is_reserved": 0, "fusion_lon": 0.0, "fusion_lat": 0.0, "name": "b213bc3527c32f383c1bff1bac1df2d8", "type": "electric_scooter", "is_disabled": 0, "lat": 38.894284666666664, "rental_uris": {"android": "https://dc.lft.to/lastmile_qr_scan", "ios": "https://dc.lft.to/lastmile_qr_scan"}, "bike_id": "b213bc3527c32f383c1bff1bac1df2d8", "lon": -77.04001316666667}, {"is_reserved": 0, "fusion_lon": 0.0, "fusion_lat": 0.0, "name": "5f63543a2781ec24305acf81001d4fd4", "type": "electric_bike", "is_disabled": 0, "lat": 38.971322666666666, "rental_uris": {"android": "https://dc.lft.to/lastmile_qr_scan", "ios": "https://dc.lft.to/lastmile_qr_scan"}, "bike_id": "5f63543a2781ec24305acf81001d4fd4", "lon": -77.03166}, {"is_reserved": 0, "fusion_lon": 0.0, "fusion_lat": 0.0, "name": "912bebfa1009227c37db7f370f449722", "type": "electric_bike", "is_disabled": 0, "lat": 38.81203133333333, "rental_uris": {"android": "https://dc.lft.to/lastmile_qr_scan", "ios": "https://dc.lft.to/lastmile_qr_scan"}, "bike_id": "912bebfa1009227c37db7f370f449722", "lon": -77.10838766666667}, {"is_reserved": 0, "fusion_lon": 0.0, "fusion_lat": 0.0, "name": "7fdcc1d0875142a70df2e16dbf524948", "type": "electric_scooter", "is_disabled": 0, "lat": 38.926651666666665, "rental_uris": {"android": "https://dc.lft.to/lastmile_qr_scan", "ios": "https://dc.lft.to/lastmile_qr_scan"}, "bike_id": "7fdcc1d0875142a70df2e16dbf524948", "lon": -77.02281883333333}, {"is_reserved": 0, "fusion_lon": 0.0, "fusion_lat": 0.0, "name": "598391bbbf9f5eaf8a21dc9efe4a8545", "type": "electric_scooter", "is_disabled": 0, "lat": 38.916643666666666, "rental_uris": {"android": "https://dc.lft.to/lastmile_qr_scan", "ios": "https://dc.lft.to/lastmile_qr_scan"}, "bike_id": "598391bbbf9f5eaf8a21dc9efe4a8545", "lon": -77.0385245}, {"is_reserved": 0, "fusion_lon": 0.0, "fusion_lat": 0.0, "name": "12de2516ed8c5be7519731bd3c06d953", "type": "electric_scooter", "is_disabled": 0, "lat": 38.89303916666667, "rental_uris": {"android": "https://dc.lft.to/lastmile_qr_scan", "ios": "https://dc.lft.to/lastmile_qr_scan"}, "bike_id": "12de2516ed8c5be7519731bd3c06d953", "lon": -76.92920483333333}, {"is_reserved": 0, "fusion_lon": 0.0, "fusion_lat": 0.0, "name": "d185b8387073fae10c8df4c4a20739ab", "type": "electric_scooter", "is_disabled": 0, "lat": 38.90029116666667, "rental_uris": {"android": "https://dc.lft.to/lastmile_qr_scan", "ios": "https://dc.lft.to/lastmile_qr_scan"}, "bike_id": "d185b8387073fae10c8df4c4a20739ab", "lon": -76.999941}, {"is_reserved": 0, "fusion_lon": 0.0, "fusion_lat": 0.0, "name": "8dfd2b98fbc3132cbe328e6030b7354b", "type": "electric_scooter", "is_disabled": 0, "lat": 38.89823666666667, "rental_uris": {"android": "https://dc.lft.to/lastmile_qr_scan", "ios": "https://dc.lft.to/lastmile_qr_scan"}, "bike_id": "8dfd2b98fbc3132cbe328e6030b7354b", "lon": -77.03300166666666}, {"is_reserved": 0, "fusion_lon": 0.0, "fusion_lat": 0.0, "name": "4ee9e0dcce8bd164a7b0fc73a5f8133a", "type": "electric_scooter", "is_disabled": 0, "lat": 38.91406666666666, "rental_uris": {"android": "https://dc.lft.to/lastmile_qr_scan", "ios": "https://dc.lft.to/lastmile_qr_scan"}, "bike_id": "4ee9e0dcce8bd164a7b0fc73a5f8133a", "lon": -77.03288783333333}, {"is_reserved": 0, "fusion_lon": 0.0, "fusion_lat": 0.0, "name": "1b5d13687060909bb90d50534fd52b48", "type": "electric_scooter", "is_disabled": 0, "lat": 38.86506833333333, "rental_uris": {"android": "https://dc.lft.to/lastmile_qr_scan", "ios": "https://dc.lft.to/lastmile_qr_scan"}, "bike_id": "1b5d13687060909bb90d50534fd52b48", "lon": -76.990046}, {"is_reserved": 0, "fusion_lon": 0.0, "fusion_lat": 0.0, "name": "71a5655ad5d95ac2f127cd0fc5ba9b4e", "type": "electric_scooter", "is_disabled": 0, "lat": 38.93853033333333, "rental_uris": {"android": "https://dc.lft.to/lastmile_qr_scan", "ios": "https://dc.lft.to/lastmile_qr_scan"}, "bike_id": "71a5655ad5d95ac2f127cd0fc5ba9b4e", "lon": -77.03378733333334}, {"is_reserved": 0, "fusion_lon": 0.0, "fusion_lat": 0.0, "name": "376c2a199bfaa8032b1c86f03cff2785", "type": "electric_scooter", "is_disabled": 0, "lat": 38.92222616666667, "rental_uris": {"android": "https://dc.lft.to/lastmile_qr_scan", "ios": "https://dc.lft.to/lastmile_qr_scan"}, "bike_id": "376c2a199bfaa8032b1c86f03cff2785", "lon": -77.04239566666666}, {"is_reserved": 0, "fusion_lon": 0.0, "fusion_lat": 0.0, "name": "ca70dbd382cd0692f004a3febc3839d9", "type": "electric_scooter", "is_disabled": 0, "lat": 38.9194805, "rental_uris": {"android": "https://dc.lft.to/lastmile_qr_scan", "ios": "https://dc.lft.to/lastmile_qr_scan"}, "bike_id": "ca70dbd382cd0692f004a3febc3839d9", "lon": -77.013996}, {"is_reserved": 0, "fusion_lon": 0.0, "fusion_lat": 0.0, "name": "ba18a0f2736000228657991a9b6ac8d4", "type": "electric_scooter", "is_disabled": 0, "lat": 38.90441233333333, "rental_uris": {"android": "https://dc.lft.to/lastmile_qr_scan", "ios": "https://dc.lft.to/lastmile_qr_scan"}, "bike_id": "ba18a0f2736000228657991a9b6ac8d4", "lon": -76.98492366666666}, {"is_reserved": 0, "fusion_lon": 0.0, "fusion_lat": 0.0, "name": "1b18e72d4f03a4cb91cfcdb162739465", "type": "electric_bike", "is_disabled": 0, "lat": 38.899664, "rental_uris": {"android": "https://dc.lft.to/lastmile_qr_scan", "ios": "https://dc.lft.to/lastmile_qr_scan"}, "bike_id": "1b18e72d4f03a4cb91cfcdb162739465", "lon": -76.98675883333334}, {"is_reserved": 0, "fusion_lon": 0.0, "fusion_lat": 0.0, "name": "26bc37109cac8202784caa4c263b38b5", "type": "electric_bike", "is_disabled": 0, "lat": 38.96805833333333, "rental_uris": {"android": "https://dc.lft.to/lastmile_qr_scan", "ios": "https://dc.lft.to/lastmile_qr_scan"}, "bike_id": "26bc37109cac8202784caa4c263b38b5", "lon": -77.0722835}, {"is_reserved": 0, "fusion_lon": 0.0, "fusion_lat": 0.0, "name": "142048de6a239b10ae84d13f89588cfe", "type": "electric_scooter", "is_disabled": 0, "lat": 38.92870883333333, "rental_uris": {"android": "https://dc.lft.to/lastmile_qr_scan", "ios": "https://dc.lft.to/lastmile_qr_scan"}, "bike_id": "142048de6a239b10ae84d13f89588cfe", "lon": -77.01358266666666}, {"is_reserved": 0, "fusion_lon": 0.0, "fusion_lat": 0.0, "name": "65676e0f810a3dd88b9c2acf888795eb", "type": "electric_scooter", "is_disabled": 0, "lat": 38.900811833333336, "rental_uris": {"android": "https://dc.lft.to/lastmile_qr_scan", "ios": "https://dc.lft.to/lastmile_qr_scan"}, "bike_id": "65676e0f810a3dd88b9c2acf888795eb", "lon": -77.03202066666667}, {"is_reserved": 0, "fusion_lon": 0.0, "fusion_lat": 0.0, "name": "9882fbac434694982eba84c8ec862e03", "type": "electric_scooter", "is_disabled": 0, "lat": 38.931568166666665, "rental_uris": {"android": "https://dc.lft.to/lastmile_qr_scan", "ios": "https://dc.lft.to/lastmile_qr_scan"}, "bike_id": "9882fbac434694982eba84c8ec862e03", "lon": -77.07837416666666}, {"is_reserved": 0, "fusion_lon": 0.0, "fusion_lat": 0.0, "name": "98e9b494060914d1fe0239f597793110", "type": "electric_scooter", "is_disabled": 0, "lat": 38.896035499999996, "rental_uris": {"android": "https://dc.lft.to/lastmile_qr_scan", "ios": "https://dc.lft.to/lastmile_qr_scan"}, "bike_id": "98e9b494060914d1fe0239f597793110", "lon": -77.029792}, {"is_reserved": 0, "fusion_lon": 0.0, "fusion_lat": 0.0, "name": "22cacf107f284b8a7f6ac8ada430c6d3", "type": "electric_scooter", "is_disabled": 0, "lat": 38.906407333333334, "rental_uris": {"android": "https://dc.lft.to/lastmile_qr_scan", "ios": "https://dc.lft.to/lastmile_qr_scan"}, "bike_id": "22cacf107f284b8a7f6ac8ada430c6d3", "lon": -77.05139883333334}, {"is_reserved": 0, "fusion_lon": 0.0, "fusion_lat": 0.0, "name": "59391fad373018a5895ea49db9647d3a", "type": "electric_scooter", "is_disabled": 0, "lat": 38.89209133333333, "rental_uris": {"android": "https://dc.lft.to/lastmile_qr_scan", "ios": "https://dc.lft.to/lastmile_qr_scan"}, "bike_id": "59391fad373018a5895ea49db9647d3a", "lon": -77.0278855}, {"is_reserved": 0, "fusion_lon": 0.0, "fusion_lat": 0.0, "name": "1d1df9ac3a29a7ebb1d8ed560ccdb143", "type": "electric_scooter", "is_disabled": 0, "lat": 38.9772775, "rental_uris": {"android": "https://dc.lft.to/lastmile_qr_scan", "ios": "https://dc.lft.to/lastmile_qr_scan"}, "bike_id": "1d1df9ac3a29a7ebb1d8ed560ccdb143", "lon": -77.01726366666666}, {"is_reserved": 0, "fusion_lon": 0.0, "fusion_lat": 0.0, "name": "5605b476ebd64810c5f5e57d1ad81517", "type": "electric_scooter", "is_disabled": 0, "lat": 38.90772916666667, "rental_uris": {"android": "https://dc.lft.to/lastmile_qr_scan", "ios": "https://dc.lft.to/lastmile_qr_scan"}, "bike_id": "5605b476ebd64810c5f5e57d1ad81517", "lon": -77.03497733333333}, {"is_reserved": 0, "fusion_lon": 0.0, "fusion_lat": 0.0, "name": "8946cc0bd1da851dbc992a354dd3b694", "type": "electric_bike", "is_disabled": 0, "lat": 38.795122, "rental_uris": {"android": "https://dc.lft.to/lastmile_qr_scan", "ios": "https://dc.lft.to/lastmile_qr_scan"}, "bike_id": "8946cc0bd1da851dbc992a354dd3b694", "lon": -77.0069305}, {"is_reserved": 0, "fusion_lon": 0.0, "fusion_lat": 0.0, "name": "b5af560cbe1a55be9e2c50ad71f85bee", "type": "electric_scooter", "is_disabled": 0, "lat": 38.887462, "rental_uris": {"android": "https://dc.lft.to/lastmile_qr_scan", "ios": "https://dc.lft.to/lastmile_qr_scan"}, "bike_id": "b5af560cbe1a55be9e2c50ad71f85bee", "lon": -77.02213183333333}, {"is_reserved": 0, "fusion_lon": 0.0, "fusion_lat": 0.0, "name": "4fd4f27459d32b8ffc3cb586c2c27b3d", "type": "electric_scooter", "is_disabled": 0, "lat": 38.897914, "rental_uris": {"android": "https://dc.lft.to/lastmile_qr_scan", "ios": "https://dc.lft.to/lastmile_qr_scan"}, "bike_id": "4fd4f27459d32b8ffc3cb586c2c27b3d", "lon": -77.03963866666666}, {"is_reserved": 0, "fusion_lon": 0.0, "fusion_lat": 0.0, "name": "7fd2400becd69c555ca45296343e6e67", "type": "electric_scooter", "is_disabled": 0, "lat": 38.89322966666667, "rental_uris": {"android": "https://dc.lft.to/lastmile_qr_scan", "ios": "https://dc.lft.to/lastmile_qr_scan"}, "bike_id": "7fd2400becd69c555ca45296343e6e67", "lon": -77.01808483333333}, {"is_reserved": 0, "fusion_lon": 0.0, "fusion_lat": 0.0, "name": "4def1ea43092363cc5f595d9252b0ca9", "type": "electric_scooter", "is_disabled": 0, "lat": 38.891741333333336, "rental_uris": {"android": "https://dc.lft.to/lastmile_qr_scan", "ios": "https://dc.lft.to/lastmile_qr_scan"}, "bike_id": "4def1ea43092363cc5f595d9252b0ca9", "lon": -76.9518565}, {"is_reserved": 0, "fusion_lon": 0.0, "fusion_lat": 0.0, "name": "8eaace400bbe17404e309e8c9c1e31da", "type": "electric_scooter", "is_disabled": 0, "lat": 38.93855716666667, "rental_uris": {"android": "https://dc.lft.to/lastmile_qr_scan", "ios": "https://dc.lft.to/lastmile_qr_scan"}, "bike_id": "8eaace400bbe17404e309e8c9c1e31da", "lon": -77.02474983333333}, {"is_reserved": 0, "fusion_lon": 0.0, "fusion_lat": 0.0, "name": "95320ee552ca845e15be5fa2b36cfdbe", "type": "electric_scooter", "is_disabled": 0, "lat": 38.911086, "rental_uris": {"android": "https://dc.lft.to/lastmile_qr_scan", "ios": "https://dc.lft.to/lastmile_qr_scan"}, "bike_id": "95320ee552ca845e15be5fa2b36cfdbe", "lon": -77.02178116666667}, {"is_reserved": 0, "fusion_lon": 0.0, "fusion_lat": 0.0, "name": "f93e4637f93b57b9e7e7cf3a698c2626", "type": "electric_scooter", "is_disabled": 0, "lat": 38.93040633333333, "rental_uris": {"android": "https://dc.lft.to/lastmile_qr_scan", "ios": "https://dc.lft.to/lastmile_qr_scan"}, "bike_id": "f93e4637f93b57b9e7e7cf3a698c2626", "lon": -77.02785116666666}, {"is_reserved": 0, "fusion_lon": 0.0, "fusion_lat": 0.0, "name": "af3b4e2f332f9953feb87b882af3cfa1", "type": "electric_scooter", "is_disabled": 0, "lat": 38.90009116666667, "rental_uris": {"android": "https://dc.lft.to/lastmile_qr_scan", "ios": "https://dc.lft.to/lastmile_qr_scan"}, "bike_id": "af3b4e2f332f9953feb87b882af3cfa1", "lon": -77.04400133333333}, {"is_reserved": 0, "fusion_lon": 0.0, "fusion_lat": 0.0, "name": "8fff5682fa2d817904b1d5ac6b6d2230", "type": "electric_scooter", "is_disabled": 0, "lat": 38.9178135, "rental_uris": {"android": "https://dc.lft.to/lastmile_qr_scan", "ios": "https://dc.lft.to/lastmile_qr_scan"}, "bike_id": "8fff5682fa2d817904b1d5ac6b6d2230", "lon": -77.04275133333333}, {"is_reserved": 0, "fusion_lon": 0.0, "fusion_lat": 0.0, "name": "fdf5cf79ddfd202645c82a2da772fbff", "type": "electric_bike", "is_disabled": 0, "lat": 38.91450833333333, "rental_uris": {"android": "https://dc.lft.to/lastmile_qr_scan", "ios": "https://dc.lft.to/lastmile_qr_scan"}, "bike_id": "fdf5cf79ddfd202645c82a2da772fbff", "lon": -77.0364875}, {"is_reserved": 0, "fusion_lon": 0.0, "fusion_lat": 0.0, "name": "03f7c12aedc63782d63433813fa90e5b", "type": "electric_bike", "is_disabled": 0, "lat": 38.829109833333334, "rental_uris": {"android": "https://dc.lft.to/lastmile_qr_scan", "ios": "https://dc.lft.to/lastmile_qr_scan"}, "bike_id": "03f7c12aedc63782d63433813fa90e5b", "lon": -76.997843}, {"is_reserved": 0, "fusion_lon": 0.0, "fusion_lat": 0.0, "name": "a57da2698e3c6572bf0e3cff46dfebb4", "type": "electric_scooter", "is_disabled": 0, "lat": 38.90399083333333, "rental_uris": {"android": "https://dc.lft.to/lastmile_qr_scan", "ios": "https://dc.lft.to/lastmile_qr_scan"}, "bike_id": "a57da2698e3c6572bf0e3cff46dfebb4", "lon": -77.0629675}, {"is_reserved": 0, "fusion_lon": 0.0, "fusion_lat": 0.0, "name": "d116dfd51fb02243da6b2d59b142e729", "type": "electric_scooter", "is_disabled": 0, "lat": 38.925729833333335, "rental_uris": {"android": "https://dc.lft.to/lastmile_qr_scan", "ios": "https://dc.lft.to/lastmile_qr_scan"}, "bike_id": "d116dfd51fb02243da6b2d59b142e729", "lon": -77.03771033333334}, {"is_reserved": 0, "fusion_lon": 0.0, "fusion_lat": 0.0, "name": "52e76e8eb85a03cdbc67ea541fd78107", "type": "electric_scooter", "is_disabled": 0, "lat": 38.93041783333334, "rental_uris": {"android": "https://dc.lft.to/lastmile_qr_scan", "ios": "https://dc.lft.to/lastmile_qr_scan"}, "bike_id": "52e76e8eb85a03cdbc67ea541fd78107", "lon": -77.03222483333333}, {"is_reserved": 0, "fusion_lon": 0.0, "fusion_lat": 0.0, "name": "2d07058a24770033d56f6d6e6d062104", "type": "electric_scooter", "is_disabled": 0, "lat": 38.893695, "rental_uris": {"android": "https://dc.lft.to/lastmile_qr_scan", "ios": "https://dc.lft.to/lastmile_qr_scan"}, "bike_id": "2d07058a24770033d56f6d6e6d062104", "lon": -76.94994133333333}, {"is_reserved": 0, "fusion_lon": 0.0, "fusion_lat": 0.0, "name": "3db6daffcb8c1b8b5194aa2b6e8d66e3", "type": "electric_scooter", "is_disabled": 0, "lat": 38.899064833333334, "rental_uris": {"android": "https://dc.lft.to/lastmile_qr_scan", "ios": "https://dc.lft.to/lastmile_qr_scan"}, "bike_id": "3db6daffcb8c1b8b5194aa2b6e8d66e3", "lon": -77.03256833333333}, {"is_reserved": 0, "fusion_lon": 0.0, "fusion_lat": 0.0, "name": "9d8cea8399671b394a9f620e0e653bc1", "type": "electric_scooter", "is_disabled": 0, "lat": 38.8996395, "rental_uris": {"android": "https://dc.lft.to/lastmile_qr_scan", "ios": "https://dc.lft.to/lastmile_qr_scan"}, "bike_id": "9d8cea8399671b394a9f620e0e653bc1", "lon": -77.04507566666666}, {"is_reserved": 0, "fusion_lon": 0.0, "fusion_lat": 0.0, "name": "b9df501db97c1d9d48bbf36b5f5ddf9a", "type": "electric_scooter", "is_disabled": 0, "lat": 38.921103333333335, "rental_uris": {"android": "https://dc.lft.to/lastmile_qr_scan", "ios": "https://dc.lft.to/lastmile_qr_scan"}, "bike_id": "b9df501db97c1d9d48bbf36b5f5ddf9a", "lon": -77.02026366666666}, {"is_reserved": 0, "fusion_lon": 0.0, "fusion_lat": 0.0, "name": "1ab0bd505b54752b86524c36907b826f", "type": "electric_scooter", "is_disabled": 0, "lat": 38.903135, "rental_uris": {"android": "https://dc.lft.to/lastmile_qr_scan", "ios": "https://dc.lft.to/lastmile_qr_scan"}, "bike_id": "1ab0bd505b54752b86524c36907b826f", "lon": -77.03180366666666}, {"is_reserved": 0, "fusion_lon": 0.0, "fusion_lat": 0.0, "name": "c91233ba231f741e8d5e995cfbfdb8a3", "type": "electric_scooter", "is_disabled": 0, "lat": 38.905561, "rental_uris": {"android": "https://dc.lft.to/lastmile_qr_scan", "ios": "https://dc.lft.to/lastmile_qr_scan"}, "bike_id": "c91233ba231f741e8d5e995cfbfdb8a3", "lon": -77.03930016666666}, {"is_reserved": 0, "fusion_lon": 0.0, "fusion_lat": 0.0, "name": "7d19389a0e0bca45eda3cfb49739530b", "type": "electric_scooter", "is_disabled": 0, "lat": 38.95934333333334, "rental_uris": {"android": "https://dc.lft.to/lastmile_qr_scan", "ios": "https://dc.lft.to/lastmile_qr_scan"}, "bike_id": "7d19389a0e0bca45eda3cfb49739530b", "lon": -77.03128783333334}, {"is_reserved": 0, "fusion_lon": 0.0, "fusion_lat": 0.0, "name": "0f2e7788a7a73cfbbb23737e302a0950", "type": "electric_scooter", "is_disabled": 0, "lat": 38.8736875, "rental_uris": {"android": "https://dc.lft.to/lastmile_qr_scan", "ios": "https://dc.lft.to/lastmile_qr_scan"}, "bike_id": "0f2e7788a7a73cfbbb23737e302a0950", "lon": -76.97010633333333}, {"is_reserved": 0, "fusion_lon": 0.0, "fusion_lat": 0.0, "name": "634d0c98aa98921969ceca1c24a317dc", "type": "electric_scooter", "is_disabled": 0, "lat": 38.92700333333333, "rental_uris": {"android": "https://dc.lft.to/lastmile_qr_scan", "ios": "https://dc.lft.to/lastmile_qr_scan"}, "bike_id": "634d0c98aa98921969ceca1c24a317dc", "lon": -77.0241205}, {"is_reserved": 0, "fusion_lon": 0.0, "fusion_lat": 0.0, "name": "131c2cdbe0ddbd0644cc606a9e3b7a84", "type": "electric_scooter", "is_disabled": 0, "lat": 38.94294466666667, "rental_uris": {"android": "https://dc.lft.to/lastmile_qr_scan", "ios": "https://dc.lft.to/lastmile_qr_scan"}, "bike_id": "131c2cdbe0ddbd0644cc606a9e3b7a84", "lon": -77.02173583333334}, {"is_reserved": 0, "fusion_lon": 0.0, "fusion_lat": 0.0, "name": "39a18de6a5e9828b2f2e23fb5e6c659b", "type": "electric_scooter", "is_disabled": 0, "lat": 38.894952333333336, "rental_uris": {"android": "https://dc.lft.to/lastmile_qr_scan", "ios": "https://dc.lft.to/lastmile_qr_scan"}, "bike_id": "39a18de6a5e9828b2f2e23fb5e6c659b", "lon": -77.00217866666667}, {"is_reserved": 0, "fusion_lon": 0.0, "fusion_lat": 0.0, "name": "7b978598fcfea9e8bea14c75b5f366df", "type": "electric_scooter", "is_disabled": 0, "lat": 38.8717145, "rental_uris": {"android": "https://dc.lft.to/lastmile_qr_scan", "ios": "https://dc.lft.to/lastmile_qr_scan"}, "bike_id": "7b978598fcfea9e8bea14c75b5f366df", "lon": -77.0062295}, {"is_reserved": 0, "fusion_lon": 0.0, "fusion_lat": 0.0, "name": "3a261f09815def362265ef817c90f8c0", "type": "electric_scooter", "is_disabled": 0, "lat": 38.934581666666666, "rental_uris": {"android": "https://dc.lft.to/lastmile_qr_scan", "ios": "https://dc.lft.to/lastmile_qr_scan"}, "bike_id": "3a261f09815def362265ef817c90f8c0", "lon": -77.03081016666667}, {"is_reserved": 0, "fusion_lon": 0.0, "fusion_lat": 0.0, "name": "2416fe70467f9e2aae80db1f56a3653b", "type": "electric_scooter", "is_disabled": 0, "lat": 38.920516166666665, "rental_uris": {"android": "https://dc.lft.to/lastmile_qr_scan", "ios": "https://dc.lft.to/lastmile_qr_scan"}, "bike_id": "2416fe70467f9e2aae80db1f56a3653b", "lon": -76.96364633333333}, {"is_reserved": 0, "fusion_lon": 0.0, "fusion_lat": 0.0, "name": "5f52d7e3b7b993bb0f08fdea7117334e", "type": "electric_bike", "is_disabled": 0, "lat": 38.925338833333335, "rental_uris": {"android": "https://dc.lft.to/lastmile_qr_scan", "ios": "https://dc.lft.to/lastmile_qr_scan"}, "bike_id": "5f52d7e3b7b993bb0f08fdea7117334e", "lon": -77.00111933333334}, {"is_reserved": 0, "fusion_lon": 0.0, "fusion_lat": 0.0, "name": "8dd904c7132694489c9f704ba061f29d", "type": "electric_scooter", "is_disabled": 0, "lat": 38.90464, "rental_uris": {"android": "https://dc.lft.to/lastmile_qr_scan", "ios": "https://dc.lft.to/lastmile_qr_scan"}, "bike_id": "8dd904c7132694489c9f704ba061f29d", "lon": -77.03794816666667}, {"is_reserved": 0, "fusion_lon": 0.0, "fusion_lat": 0.0, "name": "501b08e54c834aa17d3300c5ea2832e4", "type": "electric_scooter", "is_disabled": 0, "lat": 38.919479833333334, "rental_uris": {"android": "https://dc.lft.to/lastmile_qr_scan", "ios": "https://dc.lft.to/lastmile_qr_scan"}, "bike_id": "501b08e54c834aa17d3300c5ea2832e4", "lon": -77.02511266666667}, {"is_reserved": 0, "fusion_lon": 0.0, "fusion_lat": 0.0, "name": "d91b0e3db1c3c5732fa66b7bdd4fac22", "type": "electric_scooter", "is_disabled": 0, "lat": 38.8665905, "rental_uris": {"android": "https://dc.lft.to/lastmile_qr_scan", "ios": "https://dc.lft.to/lastmile_qr_scan"}, "bike_id": "d91b0e3db1c3c5732fa66b7bdd4fac22", "lon": -76.98884316666667}, {"is_reserved": 0, "fusion_lon": 0.0, "fusion_lat": 0.0, "name": "754f7916b10ce26050aaff29ac9c6383", "type": "electric_scooter", "is_disabled": 0, "lat": 38.918436666666665, "rental_uris": {"android": "https://dc.lft.to/lastmile_qr_scan", "ios": "https://dc.lft.to/lastmile_qr_scan"}, "bike_id": "754f7916b10ce26050aaff29ac9c6383", "lon": -76.96551166666667}, {"is_reserved": 0, "fusion_lon": 0.0, "fusion_lat": 0.0, "name": "dd69dcb7298cc73f4b284e949d7e1d93", "type": "electric_scooter", "is_disabled": 0, "lat": 38.91065283333333, "rental_uris": {"android": "https://dc.lft.to/lastmile_qr_scan", "ios": "https://dc.lft.to/lastmile_qr_scan"}, "bike_id": "dd69dcb7298cc73f4b284e949d7e1d93", "lon": -77.04483466666667}, {"is_reserved": 0, "fusion_lon": 0.0, "fusion_lat": 0.0, "name": "95375efa77cf64e7ecb4da06fb8fd507", "type": "electric_scooter", "is_disabled": 0, "lat": 38.871495, "rental_uris": {"android": "https://dc.lft.to/lastmile_qr_scan", "ios": "https://dc.lft.to/lastmile_qr_scan"}, "bike_id": "95375efa77cf64e7ecb4da06fb8fd507", "lon": -77.0070545}, {"is_reserved": 0, "fusion_lon": 0.0, "fusion_lat": 0.0, "name": "f52c2ff600b65a476e83e594369b97cc", "type": "electric_scooter", "is_disabled": 0, "lat": 38.932756166666664, "rental_uris": {"android": "https://dc.lft.to/lastmile_qr_scan", "ios": "https://dc.lft.to/lastmile_qr_scan"}, "bike_id": "f52c2ff600b65a476e83e594369b97cc", "lon": -77.0285615}, {"is_reserved": 0, "fusion_lon": 0.0, "fusion_lat": 0.0, "name": "845b407238c25199d443fef307393c90", "type": "electric_scooter", "is_disabled": 0, "lat": 38.892273833333334, "rental_uris": {"android": "https://dc.lft.to/lastmile_qr_scan", "ios": "https://dc.lft.to/lastmile_qr_scan"}, "bike_id": "845b407238c25199d443fef307393c90", "lon": -77.043353}, {"is_reserved": 0, "fusion_lon": 0.0, "fusion_lat": 0.0, "name": "5415c2c622cfdcb093147ae93f566d54", "type": "electric_scooter", "is_disabled": 0, "lat": 38.9032725, "rental_uris": {"android": "https://dc.lft.to/lastmile_qr_scan", "ios": "https://dc.lft.to/lastmile_qr_scan"}, "bike_id": "5415c2c622cfdcb093147ae93f566d54", "lon": -77.04676833333333}, {"is_reserved": 0, "fusion_lon": 0.0, "fusion_lat": 0.0, "name": "65397f09f1d8b8ae47e59af8248c0ada", "type": "electric_scooter", "is_disabled": 0, "lat": 38.91428633333334, "rental_uris": {"android": "https://dc.lft.to/lastmile_qr_scan", "ios": "https://dc.lft.to/lastmile_qr_scan"}, "bike_id": "65397f09f1d8b8ae47e59af8248c0ada", "lon": -77.0281675}, {"is_reserved": 0, "fusion_lon": 0.0, "fusion_lat": 0.0, "name": "47a2576206cc4477197b21825597c88b", "type": "electric_bike", "is_disabled": 0, "lat": 38.90802816666667, "rental_uris": {"android": "https://dc.lft.to/lastmile_qr_scan", "ios": "https://dc.lft.to/lastmile_qr_scan"}, "bike_id": "47a2576206cc4477197b21825597c88b", "lon": -77.0319675}, {"is_reserved": 0, "fusion_lon": 0.0, "fusion_lat": 0.0, "name": "825a7bd81ff6df4386793173fed640f3", "type": "electric_scooter", "is_disabled": 0, "lat": 38.898898, "rental_uris": {"android": "https://dc.lft.to/lastmile_qr_scan", "ios": "https://dc.lft.to/lastmile_qr_scan"}, "bike_id": "825a7bd81ff6df4386793173fed640f3", "lon": -77.05298083333334}, {"is_reserved": 0, "fusion_lon": 0.0, "fusion_lat": 0.0, "name": "042435123065288fbc11b7cddde3ab52", "type": "electric_scooter", "is_disabled": 0, "lat": 38.91903883333333, "rental_uris": {"android": "https://dc.lft.to/lastmile_qr_scan", "ios": "https://dc.lft.to/lastmile_qr_scan"}, "bike_id": "042435123065288fbc11b7cddde3ab52", "lon": -77.032199}, {"is_reserved": 0, "fusion_lon": 0.0, "fusion_lat": 0.0, "name": "70a029010d3825218f88dad5dc901db4", "type": "electric_scooter", "is_disabled": 0, "lat": 38.91552766666667, "rental_uris": {"android": "https://dc.lft.to/lastmile_qr_scan", "ios": "https://dc.lft.to/lastmile_qr_scan"}, "bike_id": "70a029010d3825218f88dad5dc901db4", "lon": -77.053174}, {"is_reserved": 0, "fusion_lon": 0.0, "fusion_lat": 0.0, "name": "956d22ad1991985a3b93040b778d536d", "type": "electric_scooter", "is_disabled": 0, "lat": 38.876425, "rental_uris": {"android": "https://dc.lft.to/lastmile_qr_scan", "ios": "https://dc.lft.to/lastmile_qr_scan"}, "bike_id": "956d22ad1991985a3b93040b778d536d", "lon": -77.0058025}, {"is_reserved": 0, "fusion_lon": 0.0, "fusion_lat": 0.0, "name": "08d3725af350115e01490f4c3ab4435b", "type": "electric_bike", "is_disabled": 0, "lat": 38.97397266666667, "rental_uris": {"android": "https://dc.lft.to/lastmile_qr_scan", "ios": "https://dc.lft.to/lastmile_qr_scan"}, "bike_id": "08d3725af350115e01490f4c3ab4435b", "lon": -77.06451333333334}, {"is_reserved": 0, "fusion_lon": 0.0, "fusion_lat": 0.0, "name": "b70cd30d6cbf3215d92ac19c84816841", "type": "electric_scooter", "is_disabled": 0, "lat": 38.8923265, "rental_uris": {"android": "https://dc.lft.to/lastmile_qr_scan", "ios": "https://dc.lft.to/lastmile_qr_scan"}, "bike_id": "b70cd30d6cbf3215d92ac19c84816841", "lon": -77.02379616666667}, {"is_reserved": 0, "fusion_lon": 0.0, "fusion_lat": 0.0, "name": "2171d51d7bc12a3cd594bd951fc8ee40", "type": "electric_scooter", "is_disabled": 0, "lat": 38.90730033333333, "rental_uris": {"android": "https://dc.lft.to/lastmile_qr_scan", "ios": "https://dc.lft.to/lastmile_qr_scan"}, "bike_id": "2171d51d7bc12a3cd594bd951fc8ee40", "lon": -76.93224716666667}, {"is_reserved": 0, "fusion_lon": 0.0, "fusion_lat": 0.0, "name": "82abb6cb328766ae407671d47feff5d0", "type": "electric_bike", "is_disabled": 0, "lat": 38.91133716666667, "rental_uris": {"android": "https://dc.lft.to/lastmile_qr_scan", "ios": "https://dc.lft.to/lastmile_qr_scan"}, "bike_id": "82abb6cb328766ae407671d47feff5d0", "lon": -77.06581783333333}, {"is_reserved": 0, "fusion_lon": 0.0, "fusion_lat": 0.0, "name": "96e0ac88b96f4f27210ea0ad6c23fbae", "type": "electric_scooter", "is_disabled": 0, "lat": 38.9148375, "rental_uris": {"android": "https://dc.lft.to/lastmile_qr_scan", "ios": "https://dc.lft.to/lastmile_qr_scan"}, "bike_id": "96e0ac88b96f4f27210ea0ad6c23fbae", "lon": -77.02582883333334}, {"is_reserved": 0, "fusion_lon": 0.0, "fusion_lat": 0.0, "name": "f4305e79bc0b23479ab02677ad8c2666", "type": "electric_scooter", "is_disabled": 0, "lat": 38.9080465, "rental_uris": {"android": "https://dc.lft.to/lastmile_qr_scan", "ios": "https://dc.lft.to/lastmile_qr_scan"}, "bike_id": "f4305e79bc0b23479ab02677ad8c2666", "lon": -76.98733566666667}, {"is_reserved": 0, "fusion_lon": 0.0, "fusion_lat": 0.0, "name": "5bea9f582c43e753949e4b8121d179d9", "type": "electric_scooter", "is_disabled": 0, "lat": 38.9281365, "rental_uris": {"android": "https://dc.lft.to/lastmile_qr_scan", "ios": "https://dc.lft.to/lastmile_qr_scan"}, "bike_id": "5bea9f582c43e753949e4b8121d179d9", "lon": -77.01415366666667}, {"is_reserved": 0, "fusion_lon": 0.0, "fusion_lat": 0.0, "name": "7cdd1682637f1d1c6d6ec712adb22352", "type": "electric_scooter", "is_disabled": 0, "lat": 38.917857166666664, "rental_uris": {"android": "https://dc.lft.to/lastmile_qr_scan", "ios": "https://dc.lft.to/lastmile_qr_scan"}, "bike_id": "7cdd1682637f1d1c6d6ec712adb22352", "lon": -77.040287}, {"is_reserved": 0, "fusion_lon": 0.0, "fusion_lat": 0.0, "name": "c5b8338ef6391e865316e534c11f5ce0", "type": "electric_scooter", "is_disabled": 0, "lat": 38.9243335, "rental_uris": {"android": "https://dc.lft.to/lastmile_qr_scan", "ios": "https://dc.lft.to/lastmile_qr_scan"}, "bike_id": "c5b8338ef6391e865316e534c11f5ce0", "lon": -77.040244}, {"is_reserved": 0, "fusion_lon": 0.0, "fusion_lat": 0.0, "name": "6c495696abcdda5846954bd261d9a19a", "type": "electric_scooter", "is_disabled": 0, "lat": 38.9199335, "rental_uris": {"android": "https://dc.lft.to/lastmile_qr_scan", "ios": "https://dc.lft.to/lastmile_qr_scan"}, "bike_id": "6c495696abcdda5846954bd261d9a19a", "lon": -77.02138516666666}, {"is_reserved": 0, "fusion_lon": 0.0, "fusion_lat": 0.0, "name": "e30ea78609e7d086de6021f1ff73eb79", "type": "electric_bike", "is_disabled": 0, "lat": 38.898164333333334, "rental_uris": {"android": "https://dc.lft.to/lastmile_qr_scan", "ios": "https://dc.lft.to/lastmile_qr_scan"}, "bike_id": "e30ea78609e7d086de6021f1ff73eb79", "lon": -76.9907175}, {"is_reserved": 0, "fusion_lon": 0.0, "fusion_lat": 0.0, "name": "992bb76e193d11e3ea6e261d03b0acc7", "type": "electric_scooter", "is_disabled": 0, "lat": 38.850751333333335, "rental_uris": {"android": "https://dc.lft.to/lastmile_qr_scan", "ios": "https://dc.lft.to/lastmile_qr_scan"}, "bike_id": "992bb76e193d11e3ea6e261d03b0acc7", "lon": -76.970109}, {"is_reserved": 0, "fusion_lon": 0.0, "fusion_lat": 0.0, "name": "e50eb3417820ad7314acd2abd27309c3", "type": "electric_scooter", "is_disabled": 0, "lat": 38.913852, "rental_uris": {"android": "https://dc.lft.to/lastmile_qr_scan", "ios": "https://dc.lft.to/lastmile_qr_scan"}, "bike_id": "e50eb3417820ad7314acd2abd27309c3", "lon": -77.04471016666666}, {"is_reserved": 0, "fusion_lon": 0.0, "fusion_lat": 0.0, "name": "144e83b2f28fe5bc0e8f1eb1e14dee64", "type": "electric_scooter", "is_disabled": 0, "lat": 38.90142316666667, "rental_uris": {"android": "https://dc.lft.to/lastmile_qr_scan", "ios": "https://dc.lft.to/lastmile_qr_scan"}, "bike_id": "144e83b2f28fe5bc0e8f1eb1e14dee64", "lon": -77.04360066666666}, {"is_reserved": 0, "fusion_lon": 0.0, "fusion_lat": 0.0, "name": "d943736ba5104ea4e5c2bab44e69aac6", "type": "electric_scooter", "is_disabled": 0, "lat": 38.893179333333336, "rental_uris": {"android": "https://dc.lft.to/lastmile_qr_scan", "ios": "https://dc.lft.to/lastmile_qr_scan"}, "bike_id": "d943736ba5104ea4e5c2bab44e69aac6", "lon": -76.939668}, {"is_reserved": 0, "fusion_lon": 0.0, "fusion_lat": 0.0, "name": "80e6e594fb17d195c4635c8b30e381ef", "type": "electric_scooter", "is_disabled": 0, "lat": 38.90449366666667, "rental_uris": {"android": "https://dc.lft.to/lastmile_qr_scan", "ios": "https://dc.lft.to/lastmile_qr_scan"}, "bike_id": "80e6e594fb17d195c4635c8b30e381ef", "lon": -77.05146266666667}, {"is_reserved": 0, "fusion_lon": 0.0, "fusion_lat": 0.0, "name": "8b9efc7601e8c03668694c8e3bc34c27", "type": "electric_scooter", "is_disabled": 0, "lat": 38.92156583333333, "rental_uris": {"android": "https://dc.lft.to/lastmile_qr_scan", "ios": "https://dc.lft.to/lastmile_qr_scan"}, "bike_id": "8b9efc7601e8c03668694c8e3bc34c27", "lon": -77.0209135}, {"is_reserved": 0, "fusion_lon": 0.0, "fusion_lat": 0.0, "name": "9e871ce6814c87acdb86c2641d7bbc5f", "type": "electric_scooter", "is_disabled": 0, "lat": 38.928492166666665, "rental_uris": {"android": "https://dc.lft.to/lastmile_qr_scan", "ios": "https://dc.lft.to/lastmile_qr_scan"}, "bike_id": "9e871ce6814c87acdb86c2641d7bbc5f", "lon": -77.02735733333333}, {"is_reserved": 0, "fusion_lon": 0.0, "fusion_lat": 0.0, "name": "5e3f3d64cc1676dea44f21490b8cbfee", "type": "electric_scooter", "is_disabled": 0, "lat": 38.90229816666667, "rental_uris": {"android": "https://dc.lft.to/lastmile_qr_scan", "ios": "https://dc.lft.to/lastmile_qr_scan"}, "bike_id": "5e3f3d64cc1676dea44f21490b8cbfee", "lon": -77.04496216666666}, {"is_reserved": 0, "fusion_lon": 0.0, "fusion_lat": 0.0, "name": "9ec9d452dc2eebc1d0349c57b5c38f19", "type": "electric_scooter", "is_disabled": 0, "lat": 38.92203666666666, "rental_uris": {"android": "https://dc.lft.to/lastmile_qr_scan", "ios": "https://dc.lft.to/lastmile_qr_scan"}, "bike_id": "9ec9d452dc2eebc1d0349c57b5c38f19", "lon": -77.029598}, {"is_reserved": 0, "fusion_lon": 0.0, "fusion_lat": 0.0, "name": "21f8e2bfd00e98448fb4a3853a36f007", "type": "electric_bike", "is_disabled": 0, "lat": 38.95438883333333, "rental_uris": {"android": "https://dc.lft.to/lastmile_qr_scan", "ios": "https://dc.lft.to/lastmile_qr_scan"}, "bike_id": "21f8e2bfd00e98448fb4a3853a36f007", "lon": -76.98914766666667}, {"is_reserved": 0, "fusion_lon": 0.0, "fusion_lat": 0.0, "name": "3b04b213fcd7236a6c446d72449d4ebb", "type": "electric_scooter", "is_disabled": 0, "lat": 38.904141833333334, "rental_uris": {"android": "https://dc.lft.to/lastmile_qr_scan", "ios": "https://dc.lft.to/lastmile_qr_scan"}, "bike_id": "3b04b213fcd7236a6c446d72449d4ebb", "lon": -77.043525}, {"is_reserved": 0, "fusion_lon": 0.0, "fusion_lat": 0.0, "name": "0496d5f8a77d53b704e7bff92d93e915", "type": "electric_bike", "is_disabled": 0, "lat": 38.864827, "rental_uris": {"android": "https://dc.lft.to/lastmile_qr_scan", "ios": "https://dc.lft.to/lastmile_qr_scan"}, "bike_id": "0496d5f8a77d53b704e7bff92d93e915", "lon": -76.97747116666666}, {"is_reserved": 0, "fusion_lon": 0.0, "fusion_lat": 0.0, "name": "e7bd294adc5454de300df158006d342f", "type": "electric_scooter", "is_disabled": 0, "lat": 38.916829166666666, "rental_uris": {"android": "https://dc.lft.to/lastmile_qr_scan", "ios": "https://dc.lft.to/lastmile_qr_scan"}, "bike_id": "e7bd294adc5454de300df158006d342f", "lon": -77.03688966666667}, {"is_reserved": 0, "fusion_lon": 0.0, "fusion_lat": 0.0, "name": "dd00a2e718a2c20b65fda481f89b03ad", "type": "electric_bike", "is_disabled": 0, "lat": 38.931673333333336, "rental_uris": {"android": "https://dc.lft.to/lastmile_qr_scan", "ios": "https://dc.lft.to/lastmile_qr_scan"}, "bike_id": "dd00a2e718a2c20b65fda481f89b03ad", "lon": -76.88402933333333}, {"is_reserved": 0, "fusion_lon": 0.0, "fusion_lat": 0.0, "name": "78f0f2ca01d782234b3ca22a0874f307", "type": "electric_scooter", "is_disabled": 0, "lat": 38.9169955, "rental_uris": {"android": "https://dc.lft.to/lastmile_qr_scan", "ios": "https://dc.lft.to/lastmile_qr_scan"}, "bike_id": "78f0f2ca01d782234b3ca22a0874f307", "lon": -77.032361}, {"is_reserved": 0, "fusion_lon": 0.0, "fusion_lat": 0.0, "name": "d1ddeb0b96fd3056d418bb594d8214d5", "type": "electric_scooter", "is_disabled": 0, "lat": 38.89416, "rental_uris": {"android": "https://dc.lft.to/lastmile_qr_scan", "ios": "https://dc.lft.to/lastmile_qr_scan"}, "bike_id": "d1ddeb0b96fd3056d418bb594d8214d5", "lon": -77.024129}, {"is_reserved": 0, "fusion_lon": 0.0, "fusion_lat": 0.0, "name": "a4ba130f694df5acd210c550c6f30d93", "type": "electric_bike", "is_disabled": 0, "lat": 38.92968033333333, "rental_uris": {"android": "https://dc.lft.to/lastmile_qr_scan", "ios": "https://dc.lft.to/lastmile_qr_scan"}, "bike_id": "a4ba130f694df5acd210c550c6f30d93", "lon": -77.18565100000001}, {"is_reserved": 0, "fusion_lon": 0.0, "fusion_lat": 0.0, "name": "e7cc23f341867cd63fffe83ca9ed7644", "type": "electric_scooter", "is_disabled": 0, "lat": 38.912971166666665, "rental_uris": {"android": "https://dc.lft.to/lastmile_qr_scan", "ios": "https://dc.lft.to/lastmile_qr_scan"}, "bike_id": "e7cc23f341867cd63fffe83ca9ed7644", "lon": -77.019734}, {"is_reserved": 0, "fusion_lon": 0.0, "fusion_lat": 0.0, "name": "db8349c3041b0d1b57ccd06f2367265e", "type": "electric_scooter", "is_disabled": 0, "lat": 38.917868, "rental_uris": {"android": "https://dc.lft.to/lastmile_qr_scan", "ios": "https://dc.lft.to/lastmile_qr_scan"}, "bike_id": "db8349c3041b0d1b57ccd06f2367265e", "lon": -77.03449333333333}, {"is_reserved": 0, "fusion_lon": 0.0, "fusion_lat": 0.0, "name": "d7e32245de93c1cd637b299b63788dd5", "type": "electric_bike", "is_disabled": 0, "lat": 39.0551105, "rental_uris": {"android": "https://dc.lft.to/lastmile_qr_scan", "ios": "https://dc.lft.to/lastmile_qr_scan"}, "bike_id": "d7e32245de93c1cd637b299b63788dd5", "lon": -77.04650833333334}, {"is_reserved": 0, "fusion_lon": 0.0, "fusion_lat": 0.0, "name": "5ab9f99201776d32f930c726c146ef05", "type": "electric_scooter", "is_disabled": 0, "lat": 38.88607733333333, "rental_uris": {"android": "https://dc.lft.to/lastmile_qr_scan", "ios": "https://dc.lft.to/lastmile_qr_scan"}, "bike_id": "5ab9f99201776d32f930c726c146ef05", "lon": -76.99510483333333}, {"is_reserved": 0, "fusion_lon": 0.0, "fusion_lat": 0.0, "name": "ed7ad0c7615be5b204b715e1030ca0f9", "type": "electric_scooter", "is_disabled": 0, "lat": 38.92434933333333, "rental_uris": {"android": "https://dc.lft.to/lastmile_qr_scan", "ios": "https://dc.lft.to/lastmile_qr_scan"}, "bike_id": "ed7ad0c7615be5b204b715e1030ca0f9", "lon": -77.04025566666667}, {"is_reserved": 0, "fusion_lon": 0.0, "fusion_lat": 0.0, "name": "68c40cb9f4e4c23f26c65219ffece62c", "type": "electric_scooter", "is_disabled": 0, "lat": 38.892157166666664, "rental_uris": {"android": "https://dc.lft.to/lastmile_qr_scan", "ios": "https://dc.lft.to/lastmile_qr_scan"}, "bike_id": "68c40cb9f4e4c23f26c65219ffece62c", "lon": -77.02015533333334}, {"is_reserved": 0, "fusion_lon": 0.0, "fusion_lat": 0.0, "name": "f8dbe3eeab579b2062c83af92e3269ac", "type": "electric_scooter", "is_disabled": 0, "lat": 38.88381916666667, "rental_uris": {"android": "https://dc.lft.to/lastmile_qr_scan", "ios": "https://dc.lft.to/lastmile_qr_scan"}, "bike_id": "f8dbe3eeab579b2062c83af92e3269ac", "lon": -77.02632666666666}, {"is_reserved": 0, "fusion_lon": 0.0, "fusion_lat": 0.0, "name": "ad3793a272eff3d940256ffe694d2b83", "type": "electric_bike", "is_disabled": 0, "lat": 38.9382965, "rental_uris": {"android": "https://dc.lft.to/lastmile_qr_scan", "ios": "https://dc.lft.to/lastmile_qr_scan"}, "bike_id": "ad3793a272eff3d940256ffe694d2b83", "lon": -76.99478883333333}, {"is_reserved": 0, "fusion_lon": 0.0, "fusion_lat": 0.0, "name": "2649d31f8f6f1a1fa1e3705b73ca63e6", "type": "electric_scooter", "is_disabled": 0, "lat": 38.9328405, "rental_uris": {"android": "https://dc.lft.to/lastmile_qr_scan", "ios": "https://dc.lft.to/lastmile_qr_scan"}, "bike_id": "2649d31f8f6f1a1fa1e3705b73ca63e6", "lon": -77.02305233333334}, {"is_reserved": 0, "fusion_lon": 0.0, "fusion_lat": 0.0, "name": "ec64bb4bae789d566d58c79f082f21e3", "type": "electric_scooter", "is_disabled": 0, "lat": 38.896072, "rental_uris": {"android": "https://dc.lft.to/lastmile_qr_scan", "ios": "https://dc.lft.to/lastmile_qr_scan"}, "bike_id": "ec64bb4bae789d566d58c79f082f21e3", "lon": -76.99969733333333}, {"is_reserved": 0, "fusion_lon": 0.0, "fusion_lat": 0.0, "name": "cd479a1c1a6ad84860e9c5cbdfe1815d", "type": "electric_scooter", "is_disabled": 0, "lat": 38.923693, "rental_uris": {"android": "https://dc.lft.to/lastmile_qr_scan", "ios": "https://dc.lft.to/lastmile_qr_scan"}, "bike_id": "cd479a1c1a6ad84860e9c5cbdfe1815d", "lon": -77.01919883333333}, {"is_reserved": 0, "fusion_lon": 0.0, "fusion_lat": 0.0, "name": "16d2f98af5bf9e672e77c8ea925e1dd6", "type": "electric_scooter", "is_disabled": 0, "lat": 38.91185216666667, "rental_uris": {"android": "https://dc.lft.to/lastmile_qr_scan", "ios": "https://dc.lft.to/lastmile_qr_scan"}, "bike_id": "16d2f98af5bf9e672e77c8ea925e1dd6", "lon": -77.00497716666666}, {"is_reserved": 0, "fusion_lon": 0.0, "fusion_lat": 0.0, "name": "bdefdc13e62db5d5b66f121af78f3bd2", "type": "electric_scooter", "is_disabled": 0, "lat": 38.877763, "rental_uris": {"android": "https://dc.lft.to/lastmile_qr_scan", "ios": "https://dc.lft.to/lastmile_qr_scan"}, "bike_id": "bdefdc13e62db5d5b66f121af78f3bd2", "lon": -76.99506933333333}, {"is_reserved": 0, "fusion_lon": 0.0, "fusion_lat": 0.0, "name": "757806d068ffcf83d83fbee6be379065", "type": "electric_scooter", "is_disabled": 0, "lat": 38.9004155, "rental_uris": {"android": "https://dc.lft.to/lastmile_qr_scan", "ios": "https://dc.lft.to/lastmile_qr_scan"}, "bike_id": "757806d068ffcf83d83fbee6be379065", "lon": -77.03205316666667}, {"is_reserved": 0, "fusion_lon": 0.0, "fusion_lat": 0.0, "name": "dd177a6305bcac9f753e02c349546328", "type": "electric_scooter", "is_disabled": 0, "lat": 38.89645866666667, "rental_uris": {"android": "https://dc.lft.to/lastmile_qr_scan", "ios": "https://dc.lft.to/lastmile_qr_scan"}, "bike_id": "dd177a6305bcac9f753e02c349546328", "lon": -77.03333566666667}, {"is_reserved": 0, "fusion_lon": 0.0, "fusion_lat": 0.0, "name": "a3009887f05b7916d04ff9d5b595eea9", "type": "electric_scooter", "is_disabled": 0, "lat": 38.917226, "rental_uris": {"android": "https://dc.lft.to/lastmile_qr_scan", "ios": "https://dc.lft.to/lastmile_qr_scan"}, "bike_id": "a3009887f05b7916d04ff9d5b595eea9", "lon": -77.02894516666667}, {"is_reserved": 0, "fusion_lon": 0.0, "fusion_lat": 0.0, "name": "19aeb2da9e25e0ab0c759f555a9fc949", "type": "electric_scooter", "is_disabled": 0, "lat": 38.91187516666667, "rental_uris": {"android": "https://dc.lft.to/lastmile_qr_scan", "ios": "https://dc.lft.to/lastmile_qr_scan"}, "bike_id": "19aeb2da9e25e0ab0c759f555a9fc949", "lon": -77.034945}, {"is_reserved": 0, "fusion_lon": 0.0, "fusion_lat": 0.0, "name": "19662dcffdc933ba6f288782f77d4dad", "type": "electric_scooter", "is_disabled": 0, "lat": 38.928015, "rental_uris": {"android": "https://dc.lft.to/lastmile_qr_scan", "ios": "https://dc.lft.to/lastmile_qr_scan"}, "bike_id": "19662dcffdc933ba6f288782f77d4dad", "lon": -77.03245366666667}, {"is_reserved": 0, "fusion_lon": 0.0, "fusion_lat": 0.0, "name": "06263f52bcca788de581bcdfc5e041da", "type": "electric_scooter", "is_disabled": 0, "lat": 38.908251, "rental_uris": {"android": "https://dc.lft.to/lastmile_qr_scan", "ios": "https://dc.lft.to/lastmile_qr_scan"}, "bike_id": "06263f52bcca788de581bcdfc5e041da", "lon": -77.03911433333333}, {"is_reserved": 0, "fusion_lon": 0.0, "fusion_lat": 0.0, "name": "59a8dc04d8867e94592349fd3fd48ab1", "type": "electric_scooter", "is_disabled": 0, "lat": 38.92434433333333, "rental_uris": {"android": "https://dc.lft.to/lastmile_qr_scan", "ios": "https://dc.lft.to/lastmile_qr_scan"}, "bike_id": "59a8dc04d8867e94592349fd3fd48ab1", "lon": -77.04031283333333}, {"is_reserved": 0, "fusion_lon": 0.0, "fusion_lat": 0.0, "name": "1d50f0544fafaf8e836f861b4878b50b", "type": "electric_scooter", "is_disabled": 0, "lat": 38.90730166666667, "rental_uris": {"android": "https://dc.lft.to/lastmile_qr_scan", "ios": "https://dc.lft.to/lastmile_qr_scan"}, "bike_id": "1d50f0544fafaf8e836f861b4878b50b", "lon": -76.98693116666666}, {"is_reserved": 0, "fusion_lon": 0.0, "fusion_lat": 0.0, "name": "fd6d0be2a27d957153da3c93445af0ea", "type": "electric_scooter", "is_disabled": 0, "lat": 38.89916683333333, "rental_uris": {"android": "https://dc.lft.to/lastmile_qr_scan", "ios": "https://dc.lft.to/lastmile_qr_scan"}, "bike_id": "fd6d0be2a27d957153da3c93445af0ea", "lon": -77.03283666666667}, {"is_reserved": 0, "fusion_lon": 0.0, "fusion_lat": 0.0, "name": "78819a273a66afbb922780b35ac7e955", "type": "electric_scooter", "is_disabled": 0, "lat": 38.911296, "rental_uris": {"android": "https://dc.lft.to/lastmile_qr_scan", "ios": "https://dc.lft.to/lastmile_qr_scan"}, "bike_id": "78819a273a66afbb922780b35ac7e955", "lon": -77.0167575}, {"is_reserved": 0, "fusion_lon": 0.0, "fusion_lat": 0.0, "name": "a7574441ab68b6ed66cd079424a656fd", "type": "electric_scooter", "is_disabled": 0, "lat": 38.905061, "rental_uris": {"android": "https://dc.lft.to/lastmile_qr_scan", "ios": "https://dc.lft.to/lastmile_qr_scan"}, "bike_id": "a7574441ab68b6ed66cd079424a656fd", "lon": -76.99610033333333}, {"is_reserved": 0, "fusion_lon": 0.0, "fusion_lat": 0.0, "name": "971c6e212759545e16e5dccdfacf67aa", "type": "electric_bike", "is_disabled": 0, "lat": 39.0431375, "rental_uris": {"android": "https://dc.lft.to/lastmile_qr_scan", "ios": "https://dc.lft.to/lastmile_qr_scan"}, "bike_id": "971c6e212759545e16e5dccdfacf67aa", "lon": -77.05157433333333}, {"is_reserved": 0, "fusion_lon": 0.0, "fusion_lat": 0.0, "name": "8c74f288f28c669b25ecb3cc9904aeaa", "type": "electric_scooter", "is_disabled": 0, "lat": 38.9371245, "rental_uris": {"android": "https://dc.lft.to/lastmile_qr_scan", "ios": "https://dc.lft.to/lastmile_qr_scan"}, "bike_id": "8c74f288f28c669b25ecb3cc9904aeaa", "lon": -77.02935333333333}, {"is_reserved": 0, "fusion_lon": 0.0, "fusion_lat": 0.0, "name": "d29df18333a427d41e5552b708634eff", "type": "electric_scooter", "is_disabled": 0, "lat": 38.86055833333333, "rental_uris": {"android": "https://dc.lft.to/lastmile_qr_scan", "ios": "https://dc.lft.to/lastmile_qr_scan"}, "bike_id": "d29df18333a427d41e5552b708634eff", "lon": -76.98508266666667}, {"is_reserved": 0, "fusion_lon": 0.0, "fusion_lat": 0.0, "name": "f1407b7debdd9a471e7dbec64b680a43", "type": "electric_scooter", "is_disabled": 0, "lat": 38.92218183333333, "rental_uris": {"android": "https://dc.lft.to/lastmile_qr_scan", "ios": "https://dc.lft.to/lastmile_qr_scan"}, "bike_id": "f1407b7debdd9a471e7dbec64b680a43", "lon": -77.04332183333334}, {"is_reserved": 0, "fusion_lon": 0.0, "fusion_lat": 0.0, "name": "a48f433ca683ccf447b78732ec075dd8", "type": "electric_scooter", "is_disabled": 0, "lat": 38.911323333333335, "rental_uris": {"android": "https://dc.lft.to/lastmile_qr_scan", "ios": "https://dc.lft.to/lastmile_qr_scan"}, "bike_id": "a48f433ca683ccf447b78732ec075dd8", "lon": -77.04413683333334}, {"is_reserved": 0, "fusion_lon": 0.0, "fusion_lat": 0.0, "name": "d3a47a64752b64815ba963fa951b4c4b", "type": "electric_scooter", "is_disabled": 0, "lat": 38.900872666666665, "rental_uris": {"android": "https://dc.lft.to/lastmile_qr_scan", "ios": "https://dc.lft.to/lastmile_qr_scan"}, "bike_id": "d3a47a64752b64815ba963fa951b4c4b", "lon": -76.93029883333334}, {"is_reserved": 0, "fusion_lon": 0.0, "fusion_lat": 0.0, "name": "d812a70a881b0570c1830e968c6207d7", "type": "electric_scooter", "is_disabled": 0, "lat": 38.8861115, "rental_uris": {"android": "https://dc.lft.to/lastmile_qr_scan", "ios": "https://dc.lft.to/lastmile_qr_scan"}, "bike_id": "d812a70a881b0570c1830e968c6207d7", "lon": -77.019883}, {"is_reserved": 0, "fusion_lon": 0.0, "fusion_lat": 0.0, "name": "2b86d9e6c6a3f51ee578c51465b853a5", "type": "electric_scooter", "is_disabled": 0, "lat": 38.9562485, "rental_uris": {"android": "https://dc.lft.to/lastmile_qr_scan", "ios": "https://dc.lft.to/lastmile_qr_scan"}, "bike_id": "2b86d9e6c6a3f51ee578c51465b853a5", "lon": -77.02780116666666}, {"is_reserved": 0, "fusion_lon": 0.0, "fusion_lat": 0.0, "name": "e40c6608ad939b9ac881cca89c883cc4", "type": "electric_scooter", "is_disabled": 0, "lat": 38.89896433333333, "rental_uris": {"android": "https://dc.lft.to/lastmile_qr_scan", "ios": "https://dc.lft.to/lastmile_qr_scan"}, "bike_id": "e40c6608ad939b9ac881cca89c883cc4", "lon": -77.0328685}, {"is_reserved": 0, "fusion_lon": 0.0, "fusion_lat": 0.0, "name": "b47d28f8c3ced657f94b9a2d4adb024a", "type": "electric_scooter", "is_disabled": 0, "lat": 38.94253883333333, "rental_uris": {"android": "https://dc.lft.to/lastmile_qr_scan", "ios": "https://dc.lft.to/lastmile_qr_scan"}, "bike_id": "b47d28f8c3ced657f94b9a2d4adb024a", "lon": -77.041339}, {"is_reserved": 0, "fusion_lon": 0.0, "fusion_lat": 0.0, "name": "bcff05bb11b1b9739cf26ee4402e2441", "type": "electric_scooter", "is_disabled": 0, "lat": 38.925095666666664, "rental_uris": {"android": "https://dc.lft.to/lastmile_qr_scan", "ios": "https://dc.lft.to/lastmile_qr_scan"}, "bike_id": "bcff05bb11b1b9739cf26ee4402e2441", "lon": -77.0022555}, {"is_reserved": 0, "fusion_lon": 0.0, "fusion_lat": 0.0, "name": "ac34719f1b9595b7bc9a20a36870c5f7", "type": "electric_bike", "is_disabled": 0, "lat": 38.95761733333333, "rental_uris": {"android": "https://dc.lft.to/lastmile_qr_scan", "ios": "https://dc.lft.to/lastmile_qr_scan"}, "bike_id": "ac34719f1b9595b7bc9a20a36870c5f7", "lon": -77.00709366666666}, {"is_reserved": 0, "fusion_lon": 0.0, "fusion_lat": 0.0, "name": "ca1ef0ff91bf8f96f55057fc5a6337ac", "type": "electric_scooter", "is_disabled": 0, "lat": 38.871908, "rental_uris": {"android": "https://dc.lft.to/lastmile_qr_scan", "ios": "https://dc.lft.to/lastmile_qr_scan"}, "bike_id": "ca1ef0ff91bf8f96f55057fc5a6337ac", "lon": -77.00585383333333}, {"is_reserved": 0, "fusion_lon": 0.0, "fusion_lat": 0.0, "name": "43e7530a2ead07b64e44efa39bf9b86e", "type": "electric_scooter", "is_disabled": 0, "lat": 38.8920275, "rental_uris": {"android": "https://dc.lft.to/lastmile_qr_scan", "ios": "https://dc.lft.to/lastmile_qr_scan"}, "bike_id": "43e7530a2ead07b64e44efa39bf9b86e", "lon": -76.957006}, {"is_reserved": 0, "fusion_lon": 0.0, "fusion_lat": 0.0, "name": "2bffe6caaf156d5c418772a5643d9e62", "type": "electric_scooter", "is_disabled": 0, "lat": 38.94200133333333, "rental_uris": {"android": "https://dc.lft.to/lastmile_qr_scan", "ios": "https://dc.lft.to/lastmile_qr_scan"}, "bike_id": "2bffe6caaf156d5c418772a5643d9e62", "lon": -77.02501316666667}, {"is_reserved": 0, "fusion_lon": 0.0, "fusion_lat": 0.0, "name": "adc8c6318e242c38c38886aa2d2e5b4f", "type": "electric_scooter", "is_disabled": 0, "lat": 38.86503666666667, "rental_uris": {"android": "https://dc.lft.to/lastmile_qr_scan", "ios": "https://dc.lft.to/lastmile_qr_scan"}, "bike_id": "adc8c6318e242c38c38886aa2d2e5b4f", "lon": -76.99001283333334}, {"is_reserved": 0, "fusion_lon": 0.0, "fusion_lat": 0.0, "name": "40a0e6726c1d33d284255742a13f4f9e", "type": "electric_scooter", "is_disabled": 0, "lat": 38.91004016666667, "rental_uris": {"android": "https://dc.lft.to/lastmile_qr_scan", "ios": "https://dc.lft.to/lastmile_qr_scan"}, "bike_id": "40a0e6726c1d33d284255742a13f4f9e", "lon": -77.03436233333333}, {"is_reserved": 0, "fusion_lon": 0.0, "fusion_lat": 0.0, "name": "979db72d5532bd095f753b51c09ad7f8", "type": "electric_scooter", "is_disabled": 0, "lat": 38.90829316666667, "rental_uris": {"android": "https://dc.lft.to/lastmile_qr_scan", "ios": "https://dc.lft.to/lastmile_qr_scan"}, "bike_id": "979db72d5532bd095f753b51c09ad7f8", "lon": -77.074338}, {"is_reserved": 0, "fusion_lon": 0.0, "fusion_lat": 0.0, "name": "13c6faf59fbeb68590279ebb0bf29f54", "type": "electric_scooter", "is_disabled": 0, "lat": 38.950679666666666, "rental_uris": {"android": "https://dc.lft.to/lastmile_qr_scan", "ios": "https://dc.lft.to/lastmile_qr_scan"}, "bike_id": "13c6faf59fbeb68590279ebb0bf29f54", "lon": -76.99562483333334}, {"is_reserved": 0, "fusion_lon": 0.0, "fusion_lat": 0.0, "name": "7b2d92ff6b9e1ee3bbfb5b171b4c0d17", "type": "electric_scooter", "is_disabled": 0, "lat": 38.915623833333335, "rental_uris": {"android": "https://dc.lft.to/lastmile_qr_scan", "ios": "https://dc.lft.to/lastmile_qr_scan"}, "bike_id": "7b2d92ff6b9e1ee3bbfb5b171b4c0d17", "lon": -77.033565}, {"is_reserved": 0, "fusion_lon": 0.0, "fusion_lat": 0.0, "name": "649053f70f2d199fa0e1491397f4c432", "type": "electric_scooter", "is_disabled": 0, "lat": 38.915696, "rental_uris": {"android": "https://dc.lft.to/lastmile_qr_scan", "ios": "https://dc.lft.to/lastmile_qr_scan"}, "bike_id": "649053f70f2d199fa0e1491397f4c432", "lon": -77.03183933333334}, {"is_reserved": 0, "fusion_lon": 0.0, "fusion_lat": 0.0, "name": "e4680c5b4e78b868ae030da5605855d3", "type": "electric_bike", "is_disabled": 0, "lat": 38.95307733333333, "rental_uris": {"android": "https://dc.lft.to/lastmile_qr_scan", "ios": "https://dc.lft.to/lastmile_qr_scan"}, "bike_id": "e4680c5b4e78b868ae030da5605855d3", "lon": -77.02375383333333},