{"data": {"bikes": [{"fusion_lat": 0.0, "name": "41b871bf0172680f43cd8f213411e86b", "is_disabled": 0, "rental_uris": {"android": "https://dc.lft.to/lastmile_qr_scan", "ios": "https://dc.lft.to/lastmile_qr_scan"}, "fusion_lon": 0.0, "lat": 38.847575666666664, "bike_id": "41b871bf0172680f43cd8f213411e86b", "type": "electric_scooter", "is_reserved": 0, "lon": -76.99500633333334}, {"fusion_lat": 0.0, "name": "767a78526a8e1e05d0de85b18d5b753a", "is_disabled": 0, "rental_uris": {"android": "https://dc.lft.to/lastmile_qr_scan", "ios": "https://dc.lft.to/lastmile_qr_scan"}, "fusion_lon": 0.0, "lat": 38.906811166666664, "bike_id": "767a78526a8e1e05d0de85b18d5b753a", "type": "electric_scooter", "is_reserved": 0, "lon": -77.02696466666667}, {"fusion_lat": 0.0, "name": "767076217da34a487b06e532dfa20f30", "is_disabled": 0, "rental_uris": {"android": "https://dc.lft.to/lastmile_qr_scan", "ios": "https://dc.lft.to/lastmile_qr_scan"}, "fusion_lon": 0.0, "lat": 38.922431333333336, "bike_id": "767076217da34a487b06e532dfa20f30", "type": "electric_scooter", "is_reserved": 0, "lon": -77.0280595}, {"fusion_lat": 0.0, "name": "4d5feedc9e74b05d66786d8088070a30", "is_disabled": 0, "rental_uris": {"android": "https://dc.lft.to/lastmile_qr_scan", "ios": "https://dc.lft.to/lastmile_qr_scan"}, "fusion_lon": 0.0, "lat": 38.91980366666667, "bike_id": "4d5feedc9e74b05d66786d8088070a30", "type": "electric_scooter", "is_reserved": 0, "lon": -77.02617083333334}, {"fusion_lat": 0.0, "name": "bbb00e31dc1bdc37417249d8e9cf4f36", "is_disabled": 0, "rental_uris": {"android": "https://dc.lft.to/lastmile_qr_scan", "ios": "https://dc.lft.to/lastmile_qr_scan"}, "fusion_lon": 0.0, "lat": 38.93577116666667, "bike_id": "bbb00e31dc1bdc37417249d8e9cf4f36", "type": "electric_scooter", "is_reserved": 0, "lon": -77.0365575}, {"fusion_lat": 0.0, "name": "125573fdcfb9e8230a55784cef901683", "is_disabled": 0, "rental_uris": {"android": "https://dc.lft.to/lastmile_qr_scan", "ios": "https://dc.lft.to/lastmile_qr_scan"}, "fusion_lon": 0.0, "lat": 38.90169366666667, "bike_id": "125573fdcfb9e8230a55784cef901683", "type": "electric_scooter", "is_reserved": 0, "lon": -76.99259583333334}, {"fusion_lat": 0.0, "name": "3a5da7ad9a786189eaf15a386fc53d20", "is_disabled": 0, "rental_uris": {"android": "https://dc.lft.to/lastmile_qr_scan", "ios": "https://dc.lft.to/lastmile_qr_scan"}, "fusion_lon": 0.0, "lat": 38.90870266666667, "bike_id": "3a5da7ad9a786189eaf15a386fc53d20", "type": "electric_scooter", "is_reserved": 0, "lon": -77.071695}, {"fusion_lat": 0.0, "name": "0c41acc1152ff9a1fdfe0711eba08fbe", "is_disabled": 0, "rental_uris": {"android": "https://dc.lft.to/lastmile_qr_scan", "ios": "https://dc.lft.to/lastmile_qr_scan"}, "fusion_lon": 0.0, "lat": 38.9071115, "bike_id": "0c41acc1152ff9a1fdfe0711eba08fbe", "type": "electric_scooter", "is_reserved": 0, "lon": -77.02715683333334}, {"fusion_lat": 0.0, "name": "eea13bb44a537ac5b2fd054fe1c2d17c", "is_disabled": 0, "rental_uris": {"android": "https://dc.lft.to/lastmile_qr_scan", "ios": "https://dc.lft.to/lastmile_qr_scan"}, "fusion_lon": 0.0, "lat": 38.8834445, "bike_id": "eea13bb44a537ac5b2fd054fe1c2d17c", "type": "electric_scooter", "is_reserved": 0, "lon": -77.03171016666667}, {"fusion_lat": 0.0, "name": "6033cb6b2d91a7cf7e4aa3af690c0d9a", "is_disabled": 0, "rental_uris": {"android": "https://dc.lft.to/lastmile_qr_scan", "ios": "https://dc.lft.to/lastmile_qr_scan"}, "fusion_lon": 0.0, "lat": 38.923123833333335, "bike_id": "6033cb6b2d91a7cf7e4aa3af690c0d9a", "type": "electric_scooter", "is_reserved": 0, "lon": -77.03976516666667}, {"fusion_lat": 0.0, "name": "4e07956499511a71e43abc698984cfa4", "is_disabled": 0, "rental_uris": {"android": "https://dc.lft.to/lastmile_qr_scan", "ios": "https://dc.lft.to/lastmile_qr_scan"}, "fusion_lon": 0.0, "lat": 38.941837166666666, "bike_id": "4e07956499511a71e43abc698984cfa4", "type": "electric_scooter", "is_reserved": 0, "lon": -77.0261635}, {"fusion_lat": 0.0, "name": "ac56427704a57dfab5c43999f32057db", "is_disabled": 0, "rental_uris": {"android": "https://dc.lft.to/lastmile_qr_scan", "ios": "https://dc.lft.to/lastmile_qr_scan"}, "fusion_lon": 0.0, "lat": 38.9127055, "bike_id": "ac56427704a57dfab5c43999f32057db", "type": "electric_scooter", "is_reserved": 0, "lon": -77.0384095}, {"fusion_lat": 0.0, "name": "3a8317fceb27be99e30c78a1585a0625", "is_disabled": 0, "rental_uris": {"android": "https://dc.lft.to/lastmile_qr_scan", "ios": "https://dc.lft.to/lastmile_qr_scan"}, "fusion_lon": 0.0, "lat": 38.905552666666665, "bike_id": "3a8317fceb27be99e30c78a1585a0625", "type": "electric_scooter", "is_reserved": 0, "lon": -77.04661566666667}, {"fusion_lat": 0.0, "name": "f3b997d0674378ff7b9f0ee50d0beafa", "is_disabled": 0, "rental_uris": {"android": "https://dc.lft.to/lastmile_qr_scan", "ios": "https://dc.lft.to/lastmile_qr_scan"}, "fusion_lon": 0.0, "lat": 38.90600966666667, "bike_id": "f3b997d0674378ff7b9f0ee50d0beafa", "type": "electric_scooter", "is_reserved": 0, "lon": -77.06296916666666}, {"fusion_lat": 0.0, "name": "832c02d8ef2d35304aec94e2d5243e47", "is_disabled": 0, "rental_uris": {"android": "https://dc.lft.to/lastmile_qr_scan", "ios": "https://dc.lft.to/lastmile_qr_scan"}, "fusion_lon": 0.0, "lat": 38.916743833333335, "bike_id": "832c02d8ef2d35304aec94e2d5243e47", "type": "electric_scooter", "is_reserved": 0, "lon": -77.02713183333333}, {"fusion_lat": 0.0, "name": "10aabec3da4f4b4132eee8839b07d7f1", "is_disabled": 0, "rental_uris": {"android": "https://dc.lft.to/lastmile_qr_scan", "ios": "https://dc.lft.to/lastmile_qr_scan"}, "fusion_lon": 0.0, "lat": 38.9054155, "bike_id": "10aabec3da4f4b4132eee8839b07d7f1", "type": "electric_scooter", "is_reserved": 0, "lon": -77.029546}, {"fusion_lat": 0.0, "name": "e81e44405fe83aea4131281b5ec06862", "is_disabled": 0, "rental_uris": {"android": "https://dc.lft.to/lastmile_qr_scan", "ios": "https://dc.lft.to/lastmile_qr_scan"}, "fusion_lon": 0.0, "lat": 38.907705, "bike_id": "e81e44405fe83aea4131281b5ec06862", "type": "electric_scooter", "is_reserved": 0, "lon": -77.035521}, {"fusion_lat": 0.0, "name": "868c8e9abe9049918db79d6c883ea66e", "is_disabled": 0, "rental_uris": {"android": "https://dc.lft.to/lastmile_qr_scan", "ios": "https://dc.lft.to/lastmile_qr_scan"}, "fusion_lon": 0.0, "lat": 38.899888833333335, "bike_id": "868c8e9abe9049918db79d6c883ea66e", "type": "electric_scooter", "is_reserved": 0, "lon": -77.05101033333334}, {"fusion_lat": 0.0, "name": "54587e0f7b454fd8b8e323bb41be26ba", "is_disabled": 0, "rental_uris": {"android": "https://dc.lft.to/lastmile_qr_scan", "ios": "https://dc.lft.to/lastmile_qr_scan"}, "fusion_lon": 0.0, "lat": 38.88382883333333, "bike_id": "54587e0f7b454fd8b8e323bb41be26ba", "type": "electric_scooter", "is_reserved": 0, "lon": -77.00523116666666}, {"fusion_lat": 0.0, "name": "9e24a02d977f83c0968bb342f27b82ce", "is_disabled": 0, "rental_uris": {"android": "https://dc.lft.to/lastmile_qr_scan", "ios": "https://dc.lft.to/lastmile_qr_scan"}, "fusion_lon": 0.0, "lat": 38.844285166666666, "bike_id": "9e24a02d977f83c0968bb342f27b82ce", "type": "electric_scooter", "is_reserved": 0, "lon": -76.99785666666666}, {"fusion_lat": 0.0, "name": "212a011e9d318556749d00fd655899f7", "is_disabled": 0, "rental_uris": {"android": "https://dc.lft.to/lastmile_qr_scan", "ios": "https://dc.lft.to/lastmile_qr_scan"}, "fusion_lon": 0.0, "lat": 38.9172005, "bike_id": "212a011e9d318556749d00fd655899f7", "type": "electric_scooter", "is_reserved": 0, "lon": -77.02889083333334}, {"fusion_lat": 0.0, "name": "a053d590052acf815c675d7d54347bad", "is_disabled": 0, "rental_uris": {"android": "https://dc.lft.to/lastmile_qr_scan", "ios": "https://dc.lft.to/lastmile_qr_scan"}, "fusion_lon": 0.0, "lat": 38.851983833333335, "bike_id": "a053d590052acf815c675d7d54347bad", "type": "electric_bike", "is_reserved": 0, "lon": -76.96297}, {"fusion_lat": 0.0, "name": "57b276f1ec71aa056b055c8d98b9158e", "is_disabled": 0, "rental_uris": {"android": "https://dc.lft.to/lastmile_qr_scan", "ios": "https://dc.lft.to/lastmile_qr_scan"}, "fusion_lon": 0.0, "lat": 38.92100466666667, "bike_id": "57b276f1ec71aa056b055c8d98b9158e", "type": "electric_scooter", "is_reserved": 0, "lon": -77.017682}, {"fusion_lat": 0.0, "name": "afe8aca63de15c2c3e8268486d6cb2a3", "is_disabled": 0, "rental_uris": {"android": "https://dc.lft.to/lastmile_qr_scan", "ios": "https://dc.lft.to/lastmile_qr_scan"}, "fusion_lon": 0.0, "lat": 38.92473416666667, "bike_id": "afe8aca63de15c2c3e8268486d6cb2a3", "type": "electric_scooter", "is_reserved": 0, "lon": -77.05209833333333}, {"fusion_lat": 0.0, "name": "03faa9542dfa5b7dabbf4e34b1da7617", "is_disabled": 0, "rental_uris": {"android": "https://dc.lft.to/lastmile_qr_scan", "ios": "https://dc.lft.to/lastmile_qr_scan"}, "fusion_lon": 0.0, "lat": 38.88679233333333, "bike_id": "03faa9542dfa5b7dabbf4e34b1da7617", "type": "electric_scooter", "is_reserved": 0, "lon": -77.001984}, {"fusion_lat": 0.0, "name": "2ba8531efb568b627675d5942de95aad", "is_disabled": 0, "rental_uris": {"android": "https://dc.lft.to/lastmile_qr_scan", "ios": "https://dc.lft.to/lastmile_qr_scan"}, "fusion_lon": 0.0, "lat": 38.887434166666665, "bike_id": "2ba8531efb568b627675d5942de95aad", "type": "electric_scooter", "is_reserved": 0, "lon": -77.0213035}, {"fusion_lat": 0.0, "name": "e0c8b2bc10a538219054a6bc3c690a84", "is_disabled": 0, "rental_uris": {"android": "https://dc.lft.to/lastmile_qr_scan", "ios": "https://dc.lft.to/lastmile_qr_scan"}, "fusion_lon": 0.0, "lat": 38.90778916666667, "bike_id": "e0c8b2bc10a538219054a6bc3c690a84", "type": "electric_scooter", "is_reserved": 0, "lon": -77.07252416666667}, {"fusion_lat": 0.0, "name": "5981ddbeaf0dee89e1f84eb0a6b7155d", "is_disabled": 0, "rental_uris": {"android": "https://dc.lft.to/lastmile_qr_scan", "ios": "https://dc.lft.to/lastmile_qr_scan"}, "fusion_lon": 0.0, "lat": 38.92065733333333, "bike_id": "5981ddbeaf0dee89e1f84eb0a6b7155d", "type": "electric_scooter", "is_reserved": 0, "lon": -77.04375533333334}, {"fusion_lat": 0.0, "name": "6cb6b82d374d3c35c79d5123bfa3670c", "is_disabled": 0, "rental_uris": {"android": "https://dc.lft.to/lastmile_qr_scan", "ios": "https://dc.lft.to/lastmile_qr_scan"}, "fusion_lon": 0.0, "lat": 38.918389166666664, "bike_id": "6cb6b82d374d3c35c79d5123bfa3670c", "type": "electric_scooter", "is_reserved": 0, "lon": -77.03525883333333}, {"fusion_lat": 0.0, "name": "2e2d20c9cda06885c9b4553dd819245e", "is_disabled": 0, "rental_uris": {"android": "https://dc.lft.to/lastmile_qr_scan", "ios": "https://dc.lft.to/lastmile_qr_scan"}, "fusion_lon": 0.0, "lat": 38.92538616666667, "bike_id": "2e2d20c9cda06885c9b4553dd819245e", "type": "electric_scooter", "is_reserved": 0, "lon": -77.05254133333334}, {"fusion_lat": 0.0, "name": "307e34904070acd1bd7d0f4adb287955", "is_disabled": 0, "rental_uris": {"android": "https://dc.lft.to/lastmile_qr_scan", "ios": "https://dc.lft.to/lastmile_qr_scan"}, "fusion_lon": 0.0, "lat": 38.9169235, "bike_id": "307e34904070acd1bd7d0f4adb287955", "type": "electric_scooter", "is_reserved": 0, "lon": -77.04270033333333}, {"fusion_lat": 0.0, "name": "1a5eefb31b25f187566f478e7a3d8920", "is_disabled": 0, "rental_uris": {"android": "https://dc.lft.to/lastmile_qr_scan", "ios": "https://dc.lft.to/lastmile_qr_scan"}, "fusion_lon": 0.0, "lat": 38.86004, "bike_id": "1a5eefb31b25f187566f478e7a3d8920", "type": "electric_scooter", "is_reserved": 0, "lon": -76.9852045}, {"fusion_lat": 0.0, "name": "04197f69d7f8abb8c70c6c01e3d6c7f6", "is_disabled": 0, "rental_uris": {"android": "https://dc.lft.to/lastmile_qr_scan", "ios": "https://dc.lft.to/lastmile_qr_scan"}, "fusion_lon": 0.0, "lat": 38.926597, "bike_id": "04197f69d7f8abb8c70c6c01e3d6c7f6", "type": "electric_scooter", "is_reserved": 0, "lon": -77.03025383333333}, {"fusion_lat": 0.0, "name": "3735df1913fae34921d67d08f79e1167", "is_disabled": 0, "rental_uris": {"android": "https://dc.lft.to/lastmile_qr_scan", "ios": "https://dc.lft.to/lastmile_qr_scan"}, "fusion_lon": 0.0, "lat": 38.926004166666665, "bike_id": "3735df1913fae34921d67d08f79e1167", "type": "electric_scooter", "is_reserved": 0, "lon": -77.0215835}, {"fusion_lat": 0.0, "name": "466967bb283672bd140da487cae59c35", "is_disabled": 0, "rental_uris": {"android": "https://dc.lft.to/lastmile_qr_scan", "ios": "https://dc.lft.to/lastmile_qr_scan"}, "fusion_lon": 0.0, "lat": 38.9045695, "bike_id": "466967bb283672bd140da487cae59c35", "type": "electric_scooter", "is_reserved": 0, "lon": -77.02813083333334}, {"fusion_lat": 0.0, "name": "0dfb13df2941535a6af74a75ffec5417", "is_disabled": 0, "rental_uris": {"android": "https://dc.lft.to/lastmile_qr_scan", "ios": "https://dc.lft.to/lastmile_qr_scan"}, "fusion_lon": 0.0, "lat": 38.89584283333333, "bike_id": "0dfb13df2941535a6af74a75ffec5417", "type": "electric_scooter", "is_reserved": 0, "lon": -76.98326583333333}, {"fusion_lat": 0.0, "name": "9e930aa41362386dfed95a6bd8cb054f", "is_disabled": 0, "rental_uris": {"android": "https://dc.lft.to/lastmile_qr_scan", "ios": "https://dc.lft.to/lastmile_qr_scan"}, "fusion_lon": 0.0, "lat": 38.959330333333334, "bike_id": "9e930aa41362386dfed95a6bd8cb054f", "type": "electric_bike", "is_reserved": 0, "lon": -76.9284}, {"fusion_lat": 0.0, "name": "ebe71c601ac5b3207c6aa4edb07b507f", "is_disabled": 0, "rental_uris": {"android": "https://dc.lft.to/lastmile_qr_scan", "ios": "https://dc.lft.to/lastmile_qr_scan"}, "fusion_lon": 0.0, "lat": 38.887648666666664, "bike_id": "ebe71c601ac5b3207c6aa4edb07b507f", "type": "electric_scooter", "is_reserved": 0, "lon": -76.99161583333333}, {"fusion_lat": 0.0, "name": "3cc2bba9043fa4bd048e59ac1606400e", "is_disabled": 0, "rental_uris": {"android": "https://dc.lft.to/lastmile_qr_scan", "ios": "https://dc.lft.to/lastmile_qr_scan"}, "fusion_lon": 0.0, "lat": 38.8587495, "bike_id": "3cc2bba9043fa4bd048e59ac1606400e", "type": "electric_bike", "is_reserved": 0, "lon": -77.095533}, {"fusion_lat": 0.0, "name": "69d4dc2352395b5747f916d67d463248", "is_disabled": 0, "rental_uris": {"android": "https://dc.lft.to/lastmile_qr_scan", "ios": "https://dc.lft.to/lastmile_qr_scan"}, "fusion_lon": 0.0, "lat": 38.900123666666666, "bike_id": "69d4dc2352395b5747f916d67d463248", "type": "electric_scooter", "is_reserved": 0, "lon": -76.98809133333333}, {"fusion_lat": 0.0, "name": "d8bb777ccd4c8ff1af82f366295b2b97", "is_disabled": 0, "rental_uris": {"android": "https://dc.lft.to/lastmile_qr_scan", "ios": "https://dc.lft.to/lastmile_qr_scan"}, "fusion_lon": 0.0, "lat": 38.9179735, "bike_id": "d8bb777ccd4c8ff1af82f366295b2b97", "type": "electric_scooter", "is_reserved": 0, "lon": -77.03434716666666}, {"fusion_lat": 0.0, "name": "204a8b62aaaac8cdca8cef986b6b1f92", "is_disabled": 0, "rental_uris": {"android": "https://dc.lft.to/lastmile_qr_scan", "ios": "https://dc.lft.to/lastmile_qr_scan"}, "fusion_lon": 0.0, "lat": 38.89810833333333, "bike_id": "204a8b62aaaac8cdca8cef986b6b1f92", "type": "electric_scooter", "is_reserved": 0, "lon": -77.03042533333333}, {"fusion_lat": 0.0, "name": "fe10ed78f3c570d40965e0071f2c8685", "is_disabled": 0, "rental_uris": {"android": "https://dc.lft.to/lastmile_qr_scan", "ios": "https://dc.lft.to/lastmile_qr_scan"}, "fusion_lon": 0.0, "lat": 38.902202333333335, "bike_id": "fe10ed78f3c570d40965e0071f2c8685", "type": "electric_scooter", "is_reserved": 0, "lon": -77.053457}, {"fusion_lat": 0.0, "name": "fe2a3fde042d4e4716011ad0a94fd757", "is_disabled": 0, "rental_uris": {"android": "https://dc.lft.to/lastmile_qr_scan", "ios": "https://dc.lft.to/lastmile_qr_scan"}, "fusion_lon": 0.0, "lat": 38.89285516666666, "bike_id": "fe2a3fde042d4e4716011ad0a94fd757", "type": "electric_scooter", "is_reserved": 0, "lon": -77.0123715}, {"fusion_lat": 0.0, "name": "6ec679e21253d16ff4e94082599b81c1", "is_disabled": 0, "rental_uris": {"android": "https://dc.lft.to/lastmile_qr_scan", "ios": "https://dc.lft.to/lastmile_qr_scan"}, "fusion_lon": 0.0, "lat": 38.92873783333334, "bike_id": "6ec679e21253d16ff4e94082599b81c1", "type": "electric_scooter", "is_reserved": 0, "lon": -77.032275}, {"fusion_lat": 0.0, "name": "e4b505e8c53e11dfdce4bb80b1f2cf94", "is_disabled": 0, "rental_uris": {"android": "https://dc.lft.to/lastmile_qr_scan", "ios": "https://dc.lft.to/lastmile_qr_scan"}, "fusion_lon": 0.0, "lat": 38.91778983333333, "bike_id": "e4b505e8c53e11dfdce4bb80b1f2cf94", "type": "electric_scooter", "is_reserved": 0, "lon": -77.03210383333334}, {"fusion_lat": 0.0, "name": "a5436b78a3aecbff656d14e44c593eec", "is_disabled": 0, "rental_uris": {"android": "https://dc.lft.to/lastmile_qr_scan", "ios": "https://dc.lft.to/lastmile_qr_scan"}, "fusion_lon": 0.0, "lat": 38.871651, "bike_id": "a5436b78a3aecbff656d14e44c593eec", "type": "electric_scooter", "is_reserved": 0, "lon": -77.0057095}, {"fusion_lat": 0.0, "name": "68447281eca7364f9f7bed78922ffc4f", "is_disabled": 0, "rental_uris": {"android": "https://dc.lft.to/lastmile_qr_scan", "ios": "https://dc.lft.to/lastmile_qr_scan"}, "fusion_lon": 0.0, "lat": 38.9040875, "bike_id": "68447281eca7364f9f7bed78922ffc4f", "type": "electric_scooter", "is_reserved": 0, "lon": -77.02587583333333}, {"fusion_lat": 0.0, "name": "7e5200eb39c20b79fb605a49088e4ffb", "is_disabled": 0, "rental_uris": {"android": "https://dc.lft.to/lastmile_qr_scan", "ios": "https://dc.lft.to/lastmile_qr_scan"}, "fusion_lon": 0.0, "lat": 38.8926605, "bike_id": "7e5200eb39c20b79fb605a49088e4ffb", "type": "electric_scooter", "is_reserved": 0, "lon": -77.0319255}, {"fusion_lat": 0.0, "name": "f540094cfe0ed88f1c5a4e6e0cfd767d", "is_disabled": 0, "rental_uris": {"android": "https://dc.lft.to/lastmile_qr_scan", "ios": "https://dc.lft.to/lastmile_qr_scan"}, "fusion_lon": 0.0, "lat": 38.86664566666666, "bike_id": "f540094cfe0ed88f1c5a4e6e0cfd767d", "type": "electric_scooter", "is_reserved": 0, "lon": -76.98899816666666}, {"fusion_lat": 0.0, "name": "1904aa51499d7b6e4c17958480f868aa", "is_disabled": 0, "rental_uris": {"android": "https://dc.lft.to/lastmile_qr_scan", "ios": "https://dc.lft.to/lastmile_qr_scan"}, "fusion_lon": 0.0, "lat": 38.92985866666667, "bike_id": "1904aa51499d7b6e4c17958480f868aa", "type": "electric_scooter", "is_reserved": 0, "lon": -77.03230583333334}, {"fusion_lat": 0.0, "name": "0be38480d5d69d48957daae8cabe1c0a", "is_disabled": 0, "rental_uris": {"android": "https://dc.lft.to/lastmile_qr_scan", "ios": "https://dc.lft.to/lastmile_qr_scan"}, "fusion_lon": 0.0, "lat": 38.903005, "bike_id": "0be38480d5d69d48957daae8cabe1c0a", "type": "electric_scooter", "is_reserved": 0, "lon": -77.04956983333334}, {"fusion_lat": 0.0, "name": "245f39310584ee837d44b052ca79c4e0", "is_disabled": 0, "rental_uris": {"android": "https://dc.lft.to/lastmile_qr_scan", "ios": "https://dc.lft.to/lastmile_qr_scan"}, "fusion_lon": 0.0, "lat": 38.86193333333333, "bike_id": "245f39310584ee837d44b052ca79c4e0", "type": "electric_bike", "is_reserved": 0, "lon": -77.0597695}, {"fusion_lat": 0.0, "name": "677c22143d6551f40f1e71da559cc834", "is_disabled": 0, "rental_uris": {"android": "https://dc.lft.to/lastmile_qr_scan", "ios": "https://dc.lft.to/lastmile_qr_scan"}, "fusion_lon": 0.0, "lat": 38.89796616666667, "bike_id": "677c22143d6551f40f1e71da559cc834", "type": "electric_scooter", "is_reserved": 0, "lon": -76.98454883333333}, {"fusion_lat": 0.0, "name": "28729ad9bda0595d75c725f6c1cbd84d", "is_disabled": 0, "rental_uris": {"android": "https://dc.lft.to/lastmile_qr_scan", "ios": "https://dc.lft.to/lastmile_qr_scan"}, "fusion_lon": 0.0, "lat": 38.916923833333335, "bike_id": "28729ad9bda0595d75c725f6c1cbd84d", "type": "electric_scooter", "is_reserved": 0, "lon": -77.03859516666667}, {"fusion_lat": 0.0, "name": "b129b137fb98b83986047a25b6205c62", "is_disabled": 0, "rental_uris": {"android": "https://dc.lft.to/lastmile_qr_scan", "ios": "https://dc.lft.to/lastmile_qr_scan"}, "fusion_lon": 0.0, "lat": 38.909992, "bike_id": "b129b137fb98b83986047a25b6205c62", "type": "electric_scooter", "is_reserved": 0, "lon": -77.03463616666667}, {"fusion_lat": 0.0, "name": "4d9b000909800fac2bf15bd24c25baae", "is_disabled": 0, "rental_uris": {"android": "https://dc.lft.to/lastmile_qr_scan", "ios": "https://dc.lft.to/lastmile_qr_scan"}, "fusion_lon": 0.0, "lat": 38.9093765, "bike_id": "4d9b000909800fac2bf15bd24c25baae", "type": "electric_scooter", "is_reserved": 0, "lon": -77.03191866666667}, {"fusion_lat": 0.0, "name": "ec63861ebb8375e802f3119b987c8038", "is_disabled": 0, "rental_uris": {"android": "https://dc.lft.to/lastmile_qr_scan", "ios": "https://dc.lft.to/lastmile_qr_scan"}, "fusion_lon": 0.0, "lat": 38.900319, "bike_id": "ec63861ebb8375e802f3119b987c8038", "type": "electric_scooter", "is_reserved": 0, "lon": -77.002053}, {"fusion_lat": 0.0, "name": "e4809d1a8a0646e34328da9c24db1dec", "is_disabled": 0, "rental_uris": {"android": "https://dc.lft.to/lastmile_qr_scan", "ios": "https://dc.lft.to/lastmile_qr_scan"}, "fusion_lon": 0.0, "lat": 38.87182966666667, "bike_id": "e4809d1a8a0646e34328da9c24db1dec", "type": "electric_scooter", "is_reserved": 0, "lon": -77.00607733333334}, {"fusion_lat": 0.0, "name": "9333ea538eed8383507b8e7eafa32bc3", "is_disabled": 0, "rental_uris": {"android": "https://dc.lft.to/lastmile_qr_scan", "ios": "https://dc.lft.to/lastmile_qr_scan"}, "fusion_lon": 0.0, "lat": 38.88308033333333, "bike_id": "9333ea538eed8383507b8e7eafa32bc3", "type": "electric_scooter", "is_reserved": 0, "lon": -77.01383366666667}, {"fusion_lat": 0.0, "name": "19d31a1e19b9bb29caf6f0fb98b7400c", "is_disabled": 0, "rental_uris": {"android": "https://dc.lft.to/lastmile_qr_scan", "ios": "https://dc.lft.to/lastmile_qr_scan"}, "fusion_lon": 0.0, "lat": 38.922987166666665, "bike_id": "19d31a1e19b9bb29caf6f0fb98b7400c", "type": "electric_scooter", "is_reserved": 0, "lon": -77.02356633333333}, {"fusion_lat": 0.0, "name": "7a0c3f4964ba5af74367f1daa2ebd98b", "is_disabled": 0, "rental_uris": {"android": "https://dc.lft.to/lastmile_qr_scan", "ios": "https://dc.lft.to/lastmile_qr_scan"}, "fusion_lon": 0.0, "lat": 38.90016416666667, "bike_id": "7a0c3f4964ba5af74367f1daa2ebd98b", "type": "electric_scooter", "is_reserved": 0, "lon": -77.05421983333333}, {"fusion_lat": 0.0, "name": "a0248f8d809ec1c17856552a6569a1aa", "is_disabled": 0, "rental_uris": {"android": "https://dc.lft.to/lastmile_qr_scan", "ios": "https://dc.lft.to/lastmile_qr_scan"}, "fusion_lon": 0.0, "lat": 38.89719683333333, "bike_id": "a0248f8d809ec1c17856552a6569a1aa", "type": "electric_scooter", "is_reserved": 0, "lon": -77.00212333333333}, {"fusion_lat": 0.0, "name": "098de889f9dd68263155abe530865884", "is_disabled": 0, "rental_uris": {"android": "https://dc.lft.to/lastmile_qr_scan", "ios": "https://dc.lft.to/lastmile_qr_scan"}, "fusion_lon": 0.0, "lat": 38.920730666666664, "bike_id": "098de889f9dd68263155abe530865884", "type": "electric_scooter", "is_reserved": 0, "lon": -77.0232415}, {"fusion_lat": 0.0, "name": "c962e859e36b13a3dd25f2ae702a79d9", "is_disabled": 0, "rental_uris": {"android": "https://dc.lft.to/lastmile_qr_scan", "ios": "https://dc.lft.to/lastmile_qr_scan"}, "fusion_lon": 0.0, "lat": 38.930900333333334, "bike_id": "c962e859e36b13a3dd25f2ae702a79d9", "type": "electric_scooter", "is_reserved": 0, "lon": -77.034317}, {"fusion_lat": 0.0, "name": "32bdb11d995d130276100dc4f72f5c6d", "is_disabled": 0, "rental_uris": {"android": "https://dc.lft.to/lastmile_qr_scan", "ios": "https://dc.lft.to/lastmile_qr_scan"}, "fusion_lon": 0.0, "lat": 38.923460666666664, "bike_id": "32bdb11d995d130276100dc4f72f5c6d", "type": "electric_scooter", "is_reserved": 0, "lon": -77.05182733333334}, {"fusion_lat": 0.0, "name": "4d2417ba20fe9168dc01d4da57079ebd", "is_disabled": 0, "rental_uris": {"android": "https://dc.lft.to/lastmile_qr_scan", "ios": "https://dc.lft.to/lastmile_qr_scan"}, "fusion_lon": 0.0, "lat": 38.906246833333334, "bike_id": "4d2417ba20fe9168dc01d4da57079ebd", "type": "electric_scooter", "is_reserved": 0, "lon": -77.02532883333333}, {"fusion_lat": 0.0, "name": "82611e0da8450e7392ac95aaaa44ff22", "is_disabled": 0, "rental_uris": {"android": "https://dc.lft.to/lastmile_qr_scan", "ios": "https://dc.lft.to/lastmile_qr_scan"}, "fusion_lon": 0.0, "lat": 38.91683183333333, "bike_id": "82611e0da8450e7392ac95aaaa44ff22", "type": "electric_scooter", "is_reserved": 0, "lon": -77.02382766666666}, {"fusion_lat": 0.0, "name": "419feb17bd71b77e8f24bd273dcdc1cf", "is_disabled": 0, "rental_uris": {"android": "https://dc.lft.to/lastmile_qr_scan", "ios": "https://dc.lft.to/lastmile_qr_scan"}, "fusion_lon": 0.0, "lat": 38.91532983333333, "bike_id": "419feb17bd71b77e8f24bd273dcdc1cf", "type": "electric_scooter", "is_reserved": 0, "lon": -77.07479633333334}, {"fusion_lat": 0.0, "name": "9b2d89aaafaa3441d536a639dd041811", "is_disabled": 0, "rental_uris": {"android": "https://dc.lft.to/lastmile_qr_scan", "ios": "https://dc.lft.to/lastmile_qr_scan"}, "fusion_lon": 0.0, "lat": 38.907249666666665, "bike_id": "9b2d89aaafaa3441d536a639dd041811", "type": "electric_scooter", "is_reserved": 0, "lon": -77.04328366666667}, {"fusion_lat": 0.0, "name": "1a05ace7bc529a7700515a24e449f32d", "is_disabled": 0, "rental_uris": {"android": "https://dc.lft.to/lastmile_qr_scan", "ios": "https://dc.lft.to/lastmile_qr_scan"}, "fusion_lon": 0.0, "lat": 38.915986, "bike_id": "1a05ace7bc529a7700515a24e449f32d", "type": "electric_scooter", "is_reserved": 0, "lon": -77.014842}, {"fusion_lat": 0.0, "name": "0d82e7f314d81da0a340164032b4c805", "is_disabled": 0, "rental_uris": {"android": "https://dc.lft.to/lastmile_qr_scan", "ios": "https://dc.lft.to/lastmile_qr_scan"}, "fusion_lon": 0.0, "lat": 38.916821, "bike_id": "0d82e7f314d81da0a340164032b4c805", "type": "electric_scooter", "is_reserved": 0, "lon": -77.03688066666666}, {"fusion_lat": 0.0, "name": "d10ae250f7e43482837c59ff8c1503fc", "is_disabled": 0, "rental_uris": {"android": "https://dc.lft.to/lastmile_qr_scan", "ios": "https://dc.lft.to/lastmile_qr_scan"}, "fusion_lon": 0.0, "lat": 38.901444, "bike_id": "d10ae250f7e43482837c59ff8c1503fc", "type": "electric_scooter", "is_reserved": 0, "lon": -76.97422516666667}, {"fusion_lat": 0.0, "name": "5ee5a7d596442d2b08db3cc8bafe9724", "is_disabled": 0, "rental_uris": {"android": "https://dc.lft.to/lastmile_qr_scan", "ios": "https://dc.lft.to/lastmile_qr_scan"}, "fusion_lon": 0.0, "lat": 38.90726383333333, "bike_id": "5ee5a7d596442d2b08db3cc8bafe9724", "type": "electric_scooter", "is_reserved": 0, "lon": -77.0433725}, {"fusion_lat": 0.0, "name": "6143c3242af6e62c4b3a10065c5ee25b", "is_disabled": 0, "rental_uris": {"android": "https://dc.lft.to/lastmile_qr_scan", "ios": "https://dc.lft.to/lastmile_qr_scan"}, "fusion_lon": 0.0, "lat": 38.9304595, "bike_id": "6143c3242af6e62c4b3a10065c5ee25b", "type": "electric_scooter", "is_reserved": 0, "lon": -77.03207866666666}, {"fusion_lat": 0.0, "name": "4f7085859dadc4369847641cc6ff804e", "is_disabled": 0, "rental_uris": {"android": "https://dc.lft.to/lastmile_qr_scan", "ios": "https://dc.lft.to/lastmile_qr_scan"}, "fusion_lon": 0.0, "lat": 38.91706466666667, "bike_id": "4f7085859dadc4369847641cc6ff804e", "type": "electric_scooter", "is_reserved": 0, "lon": -77.0311365}, {"fusion_lat": 0.0, "name": "190322389d512ae0f18947cc78e18c44", "is_disabled": 0, "rental_uris": {"android": "https://dc.lft.to/lastmile_qr_scan", "ios": "https://dc.lft.to/lastmile_qr_scan"}, "fusion_lon": 0.0, "lat": 38.88743, "bike_id": "190322389d512ae0f18947cc78e18c44", "type": "electric_scooter", "is_reserved": 0, "lon": -77.0178235}, {"fusion_lat": 0.0, "name": "7bce2eb5b1b973c260ad7903bd5dd195", "is_disabled": 0, "rental_uris": {"android": "https://dc.lft.to/lastmile_qr_scan", "ios": "https://dc.lft.to/lastmile_qr_scan"}, "fusion_lon": 0.0, "lat": 38.92082766666667, "bike_id": "7bce2eb5b1b973c260ad7903bd5dd195", "type": "electric_scooter", "is_reserved": 0, "lon": -77.02393933333333}, {"fusion_lat": 0.0, "name": "0de07607e6458b54c8e3857d4fb66412", "is_disabled": 0, "rental_uris": {"android": "https://dc.lft.to/lastmile_qr_scan", "ios": "https://dc.lft.to/lastmile_qr_scan"}, "fusion_lon": 0.0, "lat": 38.90758316666667, "bike_id": "0de07607e6458b54c8e3857d4fb66412", "type": "electric_scooter", "is_reserved": 0, "lon": -77.03584133333334}, {"fusion_lat": 0.0, "name": "f75d2843bb28c73590a5a72a302e3905", "is_disabled": 0, "rental_uris": {"android": "https://dc.lft.to/lastmile_qr_scan", "ios": "https://dc.lft.to/lastmile_qr_scan"}, "fusion_lon": 0.0, "lat": 38.90005683333333, "bike_id": "f75d2843bb28c73590a5a72a302e3905", "type": "electric_scooter", "is_reserved": 0, "lon": -77.044798}, {"fusion_lat": 0.0, "name": "0608f4d84a56aba035158fde4e080821", "is_disabled": 0, "rental_uris": {"android": "https://dc.lft.to/lastmile_qr_scan", "ios": "https://dc.lft.to/lastmile_qr_scan"}, "fusion_lon": 0.0, "lat": 38.9240885, "bike_id": "0608f4d84a56aba035158fde4e080821", "type": "electric_scooter", "is_reserved": 0, "lon": -77.02713766666666}, {"fusion_lat": 0.0, "name": "5b8deffed0bb1bcc49e7a3a3f227dc9a", "is_disabled": 0, "rental_uris": {"android": "https://dc.lft.to/lastmile_qr_scan", "ios": "https://dc.lft.to/lastmile_qr_scan"}, "fusion_lon": 0.0, "lat": 38.92131883333333, "bike_id": "5b8deffed0bb1bcc49e7a3a3f227dc9a", "type": "electric_scooter", "is_reserved": 0, "lon": -77.025212}, {"fusion_lat": 0.0, "name": "7745ac9132d10b977487d7fcdd27130d", "is_disabled": 0, "rental_uris": {"android": "https://dc.lft.to/lastmile_qr_scan", "ios": "https://dc.lft.to/lastmile_qr_scan"}, "fusion_lon": 0.0, "lat": 38.900362, "bike_id": "7745ac9132d10b977487d7fcdd27130d", "type": "electric_scooter", "is_reserved": 0, "lon": -77.00197283333334}, {"fusion_lat": 0.0, "name": "97ab6d1277c0870941d5319049729528", "is_disabled": 0, "rental_uris": {"android": "https://dc.lft.to/lastmile_qr_scan", "ios": "https://dc.lft.to/lastmile_qr_scan"}, "fusion_lon": 0.0, "lat": 38.9146135, "bike_id": "97ab6d1277c0870941d5319049729528", "type": "electric_scooter", "is_reserved": 0, "lon": -77.002125}, {"fusion_lat": 0.0, "name": "dd277640db4632780860f2fb42ced2c9", "is_disabled": 0, "rental_uris": {"android": "https://dc.lft.to/lastmile_qr_scan", "ios": "https://dc.lft.to/lastmile_qr_scan"}, "fusion_lon": 0.0, "lat": 38.900420833333335, "bike_id": "dd277640db4632780860f2fb42ced2c9", "type": "electric_scooter", "is_reserved": 0, "lon": -76.99140366666667}, {"fusion_lat": 0.0, "name": "3aeb2b85d6209d9e4d46250906a3d57b", "is_disabled": 0, "rental_uris": {"android": "https://dc.lft.to/lastmile_qr_scan", "ios": "https://dc.lft.to/lastmile_qr_scan"}, "fusion_lon": 0.0, "lat": 38.95008583333333, "bike_id": "3aeb2b85d6209d9e4d46250906a3d57b", "type": "electric_scooter", "is_reserved": 0, "lon": -77.08058183333333}, {"fusion_lat": 0.0, "name": "ef57ec9211805ed897402535c0d6f6e0", "is_disabled": 0, "rental_uris": {"android": "https://dc.lft.to/lastmile_qr_scan", "ios": "https://dc.lft.to/lastmile_qr_scan"}, "fusion_lon": 0.0, "lat": 38.90376166666667, "bike_id": "ef57ec9211805ed897402535c0d6f6e0", "type": "electric_scooter", "is_reserved": 0, "lon": -77.009848}, {"fusion_lat": 0.0, "name": "c68fa0a1fe8cd2b43be97745e7041a92", "is_disabled": 0, "rental_uris": {"android": "https://dc.lft.to/lastmile_qr_scan", "ios": "https://dc.lft.to/lastmile_qr_scan"}, "fusion_lon": 0.0, "lat": 38.88369683333333, "bike_id": "c68fa0a1fe8cd2b43be97745e7041a92", "type": "electric_scooter", "is_reserved": 0, "lon": -76.99518366666666}, {"fusion_lat": 0.0, "name": "2456bb0886e38c3e18af1020c3e66957", "is_disabled": 0, "rental_uris": {"android": "https://dc.lft.to/lastmile_qr_scan", "ios": "https://dc.lft.to/lastmile_qr_scan"}, "fusion_lon": 0.0, "lat": 38.892112833333336, "bike_id": "2456bb0886e38c3e18af1020c3e66957", "type": "electric_scooter", "is_reserved": 0, "lon": -77.02658183333334}, {"fusion_lat": 0.0, "name": "8944b5c96f13d41138231c25eee70866", "is_disabled": 0, "rental_uris": {"android": "https://dc.lft.to/lastmile_qr_scan", "ios": "https://dc.lft.to/lastmile_qr_scan"}, "fusion_lon": 0.0, "lat": 38.917201166666665, "bike_id": "8944b5c96f13d41138231c25eee70866", "type": "electric_scooter", "is_reserved": 0, "lon": -77.02291183333334}, {"fusion_lat": 0.0, "name": "7ab5ae5dc145512c49d094c62d7634ff", "is_disabled": 0, "rental_uris": {"android": "https://dc.lft.to/lastmile_qr_scan", "ios": "https://dc.lft.to/lastmile_qr_scan"}, "fusion_lon": 0.0, "lat": 38.94184383333333, "bike_id": "7ab5ae5dc145512c49d094c62d7634ff", "type": "electric_scooter", "is_reserved": 0, "lon": -77.02617133333334}, {"fusion_lat": 0.0, "name": "6da4b531b32382740b92f62d573aadfc", "is_disabled": 0, "rental_uris": {"android": "https://dc.lft.to/lastmile_qr_scan", "ios": "https://dc.lft.to/lastmile_qr_scan"}, "fusion_lon": 0.0, "lat": 38.9284465, "bike_id": "6da4b531b32382740b92f62d573aadfc", "type": "electric_scooter", "is_reserved": 0, "lon": -77.033012}, {"fusion_lat": 0.0, "name": "53b4ed1a20cb1a86751f60d6fe63a933", "is_disabled": 0, "rental_uris": {"android": "https://dc.lft.to/lastmile_qr_scan", "ios": "https://dc.lft.to/lastmile_qr_scan"}, "fusion_lon": 0.0, "lat": 38.91425916666667, "bike_id": "53b4ed1a20cb1a86751f60d6fe63a933", "type": "electric_scooter", "is_reserved": 0, "lon": -77.02194966666667}, {"fusion_lat": 0.0, "name": "efdba4a0a757f523b4880bbf70ebc184", "is_disabled": 0, "rental_uris": {"android": "https://dc.lft.to/lastmile_qr_scan", "ios": "https://dc.lft.to/lastmile_qr_scan"}, "fusion_lon": 0.0, "lat": 38.921893833333336, "bike_id": "efdba4a0a757f523b4880bbf70ebc184", "type": "electric_scooter", "is_reserved": 0, "lon": -77.03979216666667}, {"fusion_lat": 0.0, "name": "12039c046590ca0838ddbe1dac159ac9", "is_disabled": 0, "rental_uris": {"android": "https://dc.lft.to/lastmile_qr_scan", "ios": "https://dc.lft.to/lastmile_qr_scan"}, "fusion_lon": 0.0, "lat": 38.9002305, "bike_id": "12039c046590ca0838ddbe1dac159ac9", "type": "electric_scooter", "is_reserved": 0, "lon": -77.02609266666667}, {"fusion_lat": 0.0, "name": "3af81b059bfe654e7380ece0f1b04472", "is_disabled": 0, "rental_uris": {"android": "https://dc.lft.to/lastmile_qr_scan", "ios": "https://dc.lft.to/lastmile_qr_scan"}, "fusion_lon": 0.0, "lat": 38.89537983333334, "bike_id": "3af81b059bfe654e7380ece0f1b04472", "type": "electric_scooter", "is_reserved": 0, "lon": -77.04483666666667}, {"fusion_lat": 0.0, "name": "43c5df6805603694d996c23243b505c7", "is_disabled": 0, "rental_uris": {"android": "https://dc.lft.to/lastmile_qr_scan", "ios": "https://dc.lft.to/lastmile_qr_scan"}, "fusion_lon": 0.0, "lat": 38.8872945, "bike_id": "43c5df6805603694d996c23243b505c7", "type": "electric_scooter", "is_reserved": 0, "lon": -76.98360116666667}, {"fusion_lat": 0.0, "name": "b973c84873d00c75c8a6eaef0bb5fc9a", "is_disabled": 0, "rental_uris": {"android": "https://dc.lft.to/lastmile_qr_scan", "ios": "https://dc.lft.to/lastmile_qr_scan"}, "fusion_lon": 0.0, "lat": 38.90528716666667, "bike_id": "b973c84873d00c75c8a6eaef0bb5fc9a", "type": "electric_scooter", "is_reserved": 0, "lon": -77.06523316666667}, {"fusion_lat": 0.0, "name": "3b33387892b0436d8d607d94a93b07bf", "is_disabled": 0, "rental_uris": {"android": "https://dc.lft.to/lastmile_qr_scan", "ios": "https://dc.lft.to/lastmile_qr_scan"}, "fusion_lon": 0.0, "lat": 38.890165333333336, "bike_id": "3b33387892b0436d8d607d94a93b07bf", "type": "electric_scooter", "is_reserved": 0, "lon": -76.93736116666666}, {"fusion_lat": 0.0, "name": "2c88a704b999135303cd5dc046d1f5c8", "is_disabled": 0, "rental_uris": {"android": "https://dc.lft.to/lastmile_qr_scan", "ios": "https://dc.lft.to/lastmile_qr_scan"}, "fusion_lon": 0.0, "lat": 38.949746166666664, "bike_id": "2c88a704b999135303cd5dc046d1f5c8", "type": "electric_bike", "is_reserved": 0, "lon": -77.06639966666667}, {"fusion_lat": 0.0, "name": "a3a49d50bfa63db1709943886eddd1ae", "is_disabled": 0, "rental_uris": {"android": "https://dc.lft.to/lastmile_qr_scan", "ios": "https://dc.lft.to/lastmile_qr_scan"}, "fusion_lon": 0.0, "lat": 38.90299383333333, "bike_id": "a3a49d50bfa63db1709943886eddd1ae", "type": "electric_scooter", "is_reserved": 0, "lon": -77.0488085}, {"fusion_lat": 0.0, "name": "4d38098b83330e84d72098085f502319", "is_disabled": 0, "rental_uris": {"android": "https://dc.lft.to/lastmile_qr_scan", "ios": "https://dc.lft.to/lastmile_qr_scan"}, "fusion_lon": 0.0, "lat": 38.87558516666667, "bike_id": "4d38098b83330e84d72098085f502319", "type": "electric_scooter", "is_reserved": 0, "lon": -77.0058225}, {"fusion_lat": 0.0, "name": "d7fa3be1aae17c608a8399ac42b8d157", "is_disabled": 0, "rental_uris": {"android": "https://dc.lft.to/lastmile_qr_scan", "ios": "https://dc.lft.to/lastmile_qr_scan"}, "fusion_lon": 0.0, "lat": 38.9234315, "bike_id": "d7fa3be1aae17c608a8399ac42b8d157", "type": "electric_scooter", "is_reserved": 0, "lon": -77.05173983333333}, {"fusion_lat": 0.0, "name": "c83790150ed9fe0e41705952909ec69b", "is_disabled": 0, "rental_uris": {"android": "https://dc.lft.to/lastmile_qr_scan", "ios": "https://dc.lft.to/lastmile_qr_scan"}, "fusion_lon": 0.0, "lat": 38.88589616666667, "bike_id": "c83790150ed9fe0e41705952909ec69b", "type": "electric_scooter", "is_reserved": 0, "lon": -76.99532033333334}, {"fusion_lat": 0.0, "name": "d4556498cda849d5c33809265f77d4e7", "is_disabled": 0, "rental_uris": {"android": "https://dc.lft.to/lastmile_qr_scan", "ios": "https://dc.lft.to/lastmile_qr_scan"}, "fusion_lon": 0.0, "lat": 38.91965733333333, "bike_id": "d4556498cda849d5c33809265f77d4e7", "type": "electric_scooter", "is_reserved": 0, "lon": -77.02365933333333}, {"fusion_lat": 0.0, "name": "b9e85ee8f69d1953ba3eca27be7bcbc1", "is_disabled": 0, "rental_uris": {"android": "https://dc.lft.to/lastmile_qr_scan", "ios": "https://dc.lft.to/lastmile_qr_scan"}, "fusion_lon": 0.0, "lat": 38.900772333333336, "bike_id": "b9e85ee8f69d1953ba3eca27be7bcbc1", "type": "electric_scooter", "is_reserved": 0, "lon": -76.98334266666667}, {"fusion_lat": 0.0, "name": "a867f3a5d8f5c0b3cfe8e47e34c58620", "is_disabled": 0, "rental_uris": {"android": "https://dc.lft.to/lastmile_qr_scan", "ios": "https://dc.lft.to/lastmile_qr_scan"}, "fusion_lon": 0.0, "lat": 38.91400066666667, "bike_id": "a867f3a5d8f5c0b3cfe8e47e34c58620", "type": "electric_scooter", "is_reserved": 0, "lon": -77.02982266666666}, {"fusion_lat": 0.0, "name": "19bc307f0b7d1641912cfc1961bdcaaf", "is_disabled": 0, "rental_uris": {"android": "https://dc.lft.to/lastmile_qr_scan", "ios": "https://dc.lft.to/lastmile_qr_scan"}, "fusion_lon": 0.0, "lat": 38.89219533333333, "bike_id": "19bc307f0b7d1641912cfc1961bdcaaf", "type": "electric_scooter", "is_reserved": 0, "lon": -77.02225483333334}, {"fusion_lat": 0.0, "name": "d71c554344119f1ff4af6898455fed21", "is_disabled": 0, "rental_uris": {"android": "https://dc.lft.to/lastmile_qr_scan", "ios": "https://dc.lft.to/lastmile_qr_scan"}, "fusion_lon": 0.0, "lat": 38.925049, "bike_id": "d71c554344119f1ff4af6898455fed21", "type": "electric_scooter", "is_reserved": 0, "lon": -77.02407866666667}, {"fusion_lat": 0.0, "name": "c37389d7083b02fb81817b5cd93a0358", "is_disabled": 0, "rental_uris": {"android": "https://dc.lft.to/lastmile_qr_scan", "ios": "https://dc.lft.to/lastmile_qr_scan"}, "fusion_lon": 0.0, "lat": 38.8899885, "bike_id": "c37389d7083b02fb81817b5cd93a0358", "type": "electric_scooter", "is_reserved": 0, "lon": -76.95435583333334}, {"fusion_lat": 0.0, "name": "4ba2921f2f3ad61de5419fc8e33ff41f", "is_disabled": 0, "rental_uris": {"android": "https://dc.lft.to/lastmile_qr_scan", "ios": "https://dc.lft.to/lastmile_qr_scan"}, "fusion_lon": 0.0, "lat": 38.8922265, "bike_id": "4ba2921f2f3ad61de5419fc8e33ff41f", "type": "electric_scooter", "is_reserved": 0, "lon": -77.0432205}, {"fusion_lat": 0.0, "name": "1542ef79d0de19fb8be690f89ef9135d", "is_disabled": 0, "rental_uris": {"android": "https://dc.lft.to/lastmile_qr_scan", "ios": "https://dc.lft.to/lastmile_qr_scan"}, "fusion_lon": 0.0, "lat": 38.8351345, "bike_id": "1542ef79d0de19fb8be690f89ef9135d", "type": "electric_bike", "is_reserved": 0, "lon": -76.986751}, {"fusion_lat": 0.0, "name": "0933c529a6db6a42f317b04e58371912", "is_disabled": 0, "rental_uris": {"android": "https://dc.lft.to/lastmile_qr_scan", "ios": "https://dc.lft.to/lastmile_qr_scan"}, "fusion_lon": 0.0, "lat": 38.892496333333334, "bike_id": "0933c529a6db6a42f317b04e58371912", "type": "electric_bike", "is_reserved": 0, "lon": -76.98541933333334}, {"fusion_lat": 0.0, "name": "87b15f8595a7550f2ff5fb3c2abb2ac6", "is_disabled": 0, "rental_uris": {"android": "https://dc.lft.to/lastmile_qr_scan", "ios": "https://dc.lft.to/lastmile_qr_scan"}, "fusion_lon": 0.0, "lat": 38.90120666666667, "bike_id": "87b15f8595a7550f2ff5fb3c2abb2ac6", "type": "electric_scooter", "is_reserved": 0, "lon": -77.04606733333334}, {"fusion_lat": 0.0, "name": "2f4e14167206c82466f9e50d812e43eb", "is_disabled": 0, "rental_uris": {"android": "https://dc.lft.to/lastmile_qr_scan", "ios": "https://dc.lft.to/lastmile_qr_scan"}, "fusion_lon": 0.0, "lat": 38.901898, "bike_id": "2f4e14167206c82466f9e50d812e43eb", "type": "electric_scooter", "is_reserved": 0, "lon": -77.02402733333334}, {"fusion_lat": 0.0, "name": "67b3ed1d36838375c9c75d032a6b34c0", "is_disabled": 0, "rental_uris": {"android": "https://dc.lft.to/lastmile_qr_scan", "ios": "https://dc.lft.to/lastmile_qr_scan"}, "fusion_lon": 0.0, "lat": 38.90062966666667, "bike_id": "67b3ed1d36838375c9c75d032a6b34c0", "type": "electric_scooter", "is_reserved": 0, "lon": -76.933842}, {"fusion_lat": 0.0, "name": "98051347f6c224587423ce530e390159", "is_disabled": 0, "rental_uris": {"android": "https://dc.lft.to/lastmile_qr_scan", "ios": "https://dc.lft.to/lastmile_qr_scan"}, "fusion_lon": 0.0, "lat": 38.8904255, "bike_id": "98051347f6c224587423ce530e390159", "type": "electric_scooter", "is_reserved": 0, "lon": -77.0150735}, {"fusion_lat": 0.0, "name": "6179714d8021a92f0f353ad003f81cb2", "is_disabled": 0, "rental_uris": {"android": "https://dc.lft.to/lastmile_qr_scan", "ios": "https://dc.lft.to/lastmile_qr_scan"}, "fusion_lon": 0.0, "lat": 38.88747683333333, "bike_id": "6179714d8021a92f0f353ad003f81cb2", "type": "electric_scooter", "is_reserved": 0, "lon": -77.01777766666666}, {"fusion_lat": 0.0, "name": "c907731eb07b6335de5e1ca91fa2d949", "is_disabled": 0, "rental_uris": {"android": "https://dc.lft.to/lastmile_qr_scan", "ios": "https://dc.lft.to/lastmile_qr_scan"}, "fusion_lon": 0.0, "lat": 38.942673166666665, "bike_id": "c907731eb07b6335de5e1ca91fa2d949", "type": "electric_scooter", "is_reserved": 0, "lon": -77.03259983333334}, {"fusion_lat": 0.0, "name": "06dd22d994eca3d8bbad987169212214", "is_disabled": 0, "rental_uris": {"android": "https://dc.lft.to/lastmile_qr_scan", "ios": "https://dc.lft.to/lastmile_qr_scan"}, "fusion_lon": 0.0, "lat": 38.91925283333333, "bike_id": "06dd22d994eca3d8bbad987169212214", "type": "electric_scooter", "is_reserved": 0, "lon": -77.0326735}, {"fusion_lat": 0.0, "name": "6a925b820d9d9c6fd5c32507d18c9f21", "is_disabled": 0, "rental_uris": {"android": "https://dc.lft.to/lastmile_qr_scan", "ios": "https://dc.lft.to/lastmile_qr_scan"}, "fusion_lon": 0.0, "lat": 38.91709066666667, "bike_id": "6a925b820d9d9c6fd5c32507d18c9f21", "type": "electric_scooter", "is_reserved": 0, "lon": -77.03334716666667}, {"fusion_lat": 0.0, "name": "df022365110b40e085e0632297f4d07f", "is_disabled": 0, "rental_uris": {"android": "https://dc.lft.to/lastmile_qr_scan", "ios": "https://dc.lft.to/lastmile_qr_scan"}, "fusion_lon": 0.0, "lat": 38.897911666666666, "bike_id": "df022365110b40e085e0632297f4d07f", "type": "electric_scooter", "is_reserved": 0, "lon": -76.94734583333333}, {"fusion_lat": 0.0, "name": "82288f1d69d7197cbc7232f2fe41523f", "is_disabled": 0, "rental_uris": {"android": "https://dc.lft.to/lastmile_qr_scan", "ios": "https://dc.lft.to/lastmile_qr_scan"}, "fusion_lon": 0.0, "lat": 38.93483783333333, "bike_id": "82288f1d69d7197cbc7232f2fe41523f", "type": "electric_scooter", "is_reserved": 0, "lon": -77.0727285}, {"fusion_lat": 0.0, "name": "8be7aa86f2b1a48b18d3a3532da17d89", "is_disabled": 0, "rental_uris": {"android": "https://dc.lft.to/lastmile_qr_scan", "ios": "https://dc.lft.to/lastmile_qr_scan"}, "fusion_lon": 0.0, "lat": 38.902699, "bike_id": "8be7aa86f2b1a48b18d3a3532da17d89", "type": "electric_scooter", "is_reserved": 0, "lon": -77.03628816666667}, {"fusion_lat": 0.0, "name": "f6e38be295b162937093566cab1754ca", "is_disabled": 0, "rental_uris": {"android": "https://dc.lft.to/lastmile_qr_scan", "ios": "https://dc.lft.to/lastmile_qr_scan"}, "fusion_lon": 0.0, "lat": 38.914827333333335, "bike_id": "f6e38be295b162937093566cab1754ca", "type": "electric_scooter", "is_reserved": 0, "lon": -77.042481}, {"fusion_lat": 0.0, "name": "c464bfd9da39a5d802b8cb86e063782c", "is_disabled": 0, "rental_uris": {"android": "https://dc.lft.to/lastmile_qr_scan", "ios": "https://dc.lft.to/lastmile_qr_scan"}, "fusion_lon": 0.0, "lat": 38.92346333333333, "bike_id": "c464bfd9da39a5d802b8cb86e063782c", "type": "electric_scooter", "is_reserved": 0, "lon": -77.039045}, {"fusion_lat": 0.0, "name": "25618fe936e9d417e67f9876b4d1370f", "is_disabled": 0, "rental_uris": {"android": "https://dc.lft.to/lastmile_qr_scan", "ios": "https://dc.lft.to/lastmile_qr_scan"}, "fusion_lon": 0.0, "lat": 38.942702, "bike_id": "25618fe936e9d417e67f9876b4d1370f", "type": "electric_scooter", "is_reserved": 0, "lon": -77.03256816666666}, {"fusion_lat": 0.0, "name": "28aaea5ec286f1b3a9b4a0136c8028bf", "is_disabled": 0, "rental_uris": {"android": "https://dc.lft.to/lastmile_qr_scan", "ios": "https://dc.lft.to/lastmile_qr_scan"}, "fusion_lon": 0.0, "lat": 38.937793666666664, "bike_id": "28aaea5ec286f1b3a9b4a0136c8028bf", "type": "electric_scooter", "is_reserved": 0, "lon": -77.03265083333334}, {"fusion_lat": 0.0, "name": "759cfed03d18484616082f1547388206", "is_disabled": 0, "rental_uris": {"android": "https://dc.lft.to/lastmile_qr_scan", "ios": "https://dc.lft.to/lastmile_qr_scan"}, "fusion_lon": 0.0, "lat": 38.8983345, "bike_id": "759cfed03d18484616082f1547388206", "type": "electric_scooter", "is_reserved": 0, "lon": -77.0296465}, {"fusion_lat": 0.0, "name": "3c7834be76187fa2e4c81967db7dc357", "is_disabled": 0, "rental_uris": {"android": "https://dc.lft.to/lastmile_qr_scan", "ios": "https://dc.lft.to/lastmile_qr_scan"}, "fusion_lon": 0.0, "lat": 38.950949, "bike_id": "3c7834be76187fa2e4c81967db7dc357", "type": "electric_scooter", "is_reserved": 0, "lon": -77.0296155}, {"fusion_lat": 0.0, "name": "8a29cc77995410b1375ae4d1c07cf75a", "is_disabled": 0, "rental_uris": {"android": "https://dc.lft.to/lastmile_qr_scan", "ios": "https://dc.lft.to/lastmile_qr_scan"}, "fusion_lon": 0.0, "lat": 38.91196583333333, "bike_id": "8a29cc77995410b1375ae4d1c07cf75a", "type": "electric_scooter", "is_reserved": 0, "lon": -77.0375665}, {"fusion_lat": 0.0, "name": "7e8aa389807ed7de74c73a222feccd2e", "is_disabled": 0, "rental_uris": {"android": "https://dc.lft.to/lastmile_qr_scan", "ios": "https://dc.lft.to/lastmile_qr_scan"}, "fusion_lon": 0.0, "lat": 38.8921375, "bike_id": "7e8aa389807ed7de74c73a222feccd2e", "type": "electric_scooter", "is_reserved": 0, "lon": -76.99570666666666}, {"fusion_lat": 0.0, "name": "2c25535523765358d7c08701cfa183a2", "is_disabled": 0, "rental_uris": {"android": "https://dc.lft.to/lastmile_qr_scan", "ios": "https://dc.lft.to/lastmile_qr_scan"}, "fusion_lon": 0.0, "lat": 38.93105466666667, "bike_id": "2c25535523765358d7c08701cfa183a2", "type": "electric_scooter", "is_reserved": 0, "lon": -77.02377983333334}, {"fusion_lat": 0.0, "name": "cbf4e9dbb37d98c8db8cfd68b0bbf4fc", "is_disabled": 0, "rental_uris": {"android": "https://dc.lft.to/lastmile_qr_scan", "ios": "https://dc.lft.to/lastmile_qr_scan"}, "fusion_lon": 0.0, "lat": 38.918224333333335, "bike_id": "cbf4e9dbb37d98c8db8cfd68b0bbf4fc", "type": "electric_scooter", "is_reserved": 0, "lon": -77.04003983333334}, {"fusion_lat": 0.0, "name": "36666ff69646a04be665d89e6e00c5b6", "is_disabled": 0, "rental_uris": {"android": "https://dc.lft.to/lastmile_qr_scan", "ios": "https://dc.lft.to/lastmile_qr_scan"}, "fusion_lon": 0.0, "lat": 38.9560645, "bike_id": "36666ff69646a04be665d89e6e00c5b6", "type": "electric_scooter", "is_reserved": 0, "lon": -77.033537}, {"fusion_lat": 0.0, "name": "f69ac929a47a3de1fd96c92994de3bbc", "is_disabled": 0, "rental_uris": {"android": "https://dc.lft.to/lastmile_qr_scan", "ios": "https://dc.lft.to/lastmile_qr_scan"}, "fusion_lon": 0.0, "lat": 38.9126445, "bike_id": "f69ac929a47a3de1fd96c92994de3bbc", "type": "electric_scooter", "is_reserved": 0, "lon": -77.02823366666667}, {"fusion_lat": 0.0, "name": "34d03d2458a17bfc0b5f23a94aef6c74", "is_disabled": 0, "rental_uris": {"android": "https://dc.lft.to/lastmile_qr_scan", "ios": "https://dc.lft.to/lastmile_qr_scan"}, "fusion_lon": 0.0, "lat": 38.90085166666667, "bike_id": "34d03d2458a17bfc0b5f23a94aef6c74", "type": "electric_scooter", "is_reserved": 0, "lon": -77.013409}, {"fusion_lat": 0.0, "name": "062f8753c2b0685810e6006990048429", "is_disabled": 0, "rental_uris": {"android": "https://dc.lft.to/lastmile_qr_scan", "ios": "https://dc.lft.to/lastmile_qr_scan"}, "fusion_lon": 0.0, "lat": 38.912549166666665, "bike_id": "062f8753c2b0685810e6006990048429", "type": "electric_scooter", "is_reserved": 0, "lon": -77.03162166666667}, {"fusion_lat": 0.0, "name": "f15617662418b7d691deea256afdeffe", "is_disabled": 0, "rental_uris": {"android": "https://dc.lft.to/lastmile_qr_scan", "ios": "https://dc.lft.to/lastmile_qr_scan"}, "fusion_lon": 0.0, "lat": 38.8882085, "bike_id": "f15617662418b7d691deea256afdeffe", "type": "electric_scooter", "is_reserved": 0, "lon": -76.97722216666666}, {"fusion_lat": 0.0, "name": "b08faff94e6cedc365fc467fde0d79d6", "is_disabled": 0, "rental_uris": {"android": "https://dc.lft.to/lastmile_qr_scan", "ios": "https://dc.lft.to/lastmile_qr_scan"}, "fusion_lon": 0.0, "lat": 38.909767333333335, "bike_id": "b08faff94e6cedc365fc467fde0d79d6", "type": "electric_scooter", "is_reserved": 0, "lon": -77.03422483333334}, {"fusion_lat": 0.0, "name": "bda77b379de326b56be24f59fb2d7a04", "is_disabled": 0, "rental_uris": {"android": "https://dc.lft.to/lastmile_qr_scan", "ios": "https://dc.lft.to/lastmile_qr_scan"}, "fusion_lon": 0.0, "lat": 38.9069055, "bike_id": "bda77b379de326b56be24f59fb2d7a04", "type": "electric_scooter", "is_reserved": 0, "lon": -77.03597733333334}, {"fusion_lat": 0.0, "name": "b894ad19aa7f8c5a38c265e4e8662f3d", "is_disabled": 0, "rental_uris": {"android": "https://dc.lft.to/lastmile_qr_scan", "ios": "https://dc.lft.to/lastmile_qr_scan"}, "fusion_lon": 0.0, "lat": 38.89222516666667, "bike_id": "b894ad19aa7f8c5a38c265e4e8662f3d", "type": "electric_scooter", "is_reserved": 0, "lon": -77.04642516666667}, {"fusion_lat": 0.0, "name": "d201305d0280234a4ae604bf48624265", "is_disabled": 0, "rental_uris": {"android": "https://dc.lft.to/lastmile_qr_scan", "ios": "https://dc.lft.to/lastmile_qr_scan"}, "fusion_lon": 0.0, "lat": 38.912605, "bike_id": "d201305d0280234a4ae604bf48624265", "type": "electric_scooter", "is_reserved": 0, "lon": -77.0176725}, {"fusion_lat": 0.0, "name": "31bd3d26e1f1c37ef94be9d08a391221", "is_disabled": 0, "rental_uris": {"android": "https://dc.lft.to/lastmile_qr_scan", "ios": "https://dc.lft.to/lastmile_qr_scan"}, "fusion_lon": 0.0, "lat": 38.898857, "bike_id": "31bd3d26e1f1c37ef94be9d08a391221", "type": "electric_scooter", "is_reserved": 0, "lon": -76.99358466666666}, {"fusion_lat": 0.0, "name": "6ed79b0a959e575846870611d8ccb632", "is_disabled": 0, "rental_uris": {"android": "https://dc.lft.to/lastmile_qr_scan", "ios": "https://dc.lft.to/lastmile_qr_scan"}, "fusion_lon": 0.0, "lat": 38.9131325, "bike_id": "6ed79b0a959e575846870611d8ccb632", "type": "electric_scooter", "is_reserved": 0, "lon": -77.03671866666667}, {"fusion_lat": 0.0, "name": "65657b2a236285bb9c9529f87142c5dd", "is_disabled": 0, "rental_uris": {"android": "https://dc.lft.to/lastmile_qr_scan", "ios": "https://dc.lft.to/lastmile_qr_scan"}, "fusion_lon": 0.0, "lat": 38.917048, "bike_id": "65657b2a236285bb9c9529f87142c5dd", "type": "electric_scooter", "is_reserved": 0, "lon": -77.03124966666667}, {"fusion_lat": 0.0, "name": "7147b211737c3b6f4df6746d38a96dd8", "is_disabled": 0, "rental_uris": {"android": "https://dc.lft.to/lastmile_qr_scan", "ios": "https://dc.lft.to/lastmile_qr_scan"}, "fusion_lon": 0.0, "lat": 38.95276416666667, "bike_id": "7147b211737c3b6f4df6746d38a96dd8", "type": "electric_scooter", "is_reserved": 0, "lon": -77.068801}, {"fusion_lat": 0.0, "name": "b8ad46f4209db9475561f8df7750c2a7", "is_disabled": 0, "rental_uris": {"android": "https://dc.lft.to/lastmile_qr_scan", "ios": "https://dc.lft.to/lastmile_qr_scan"}, "fusion_lon": 0.0, "lat": 38.91151216666667, "bike_id": "b8ad46f4209db9475561f8df7750c2a7", "type": "electric_scooter", "is_reserved": 0, "lon": -77.087555}, {"fusion_lat": 0.0, "name": "57f3bdc586da3b5f1838e050e034d54b", "is_disabled": 0, "rental_uris": {"android": "https://dc.lft.to/lastmile_qr_scan", "ios": "https://dc.lft.to/lastmile_qr_scan"}, "fusion_lon": 0.0, "lat": 38.885115, "bike_id": "57f3bdc586da3b5f1838e050e034d54b", "type": "electric_scooter", "is_reserved": 0, "lon": -77.01477016666666}, {"fusion_lat": 0.0, "name": "b14c78cba0f910100771be2f36cc568c", "is_disabled": 0, "rental_uris": {"android": "https://dc.lft.to/lastmile_qr_scan", "ios": "https://dc.lft.to/lastmile_qr_scan"}, "fusion_lon": 0.0, "lat": 38.91536466666667, "bike_id": "b14c78cba0f910100771be2f36cc568c", "type": "electric_scooter", "is_reserved": 0, "lon": -77.03208266666667}, {"fusion_lat": 0.0, "name": "0eabe113fb160b9ddecfd1235e53dc36", "is_disabled": 0, "rental_uris": {"android": "https://dc.lft.to/lastmile_qr_scan", "ios": "https://dc.lft.to/lastmile_qr_scan"}, "fusion_lon": 0.0, "lat": 38.89545666666667, "bike_id": "0eabe113fb160b9ddecfd1235e53dc36", "type": "electric_scooter", "is_reserved": 0, "lon": -76.98337433333333}, {"fusion_lat": 0.0, "name": "824148f2e0beb48e1226ad304263f427", "is_disabled": 0, "rental_uris": {"android": "https://dc.lft.to/lastmile_qr_scan", "ios": "https://dc.lft.to/lastmile_qr_scan"}, "fusion_lon": 0.0, "lat": 38.94513766666667, "bike_id": "824148f2e0beb48e1226ad304263f427", "type": "electric_bike", "is_reserved": 0, "lon": -77.00671966666667}, {"fusion_lat": 0.0, "name": "9d2ba179efd7f3579fa0d955d8ec6a6b", "is_disabled": 0, "rental_uris": {"android": "https://dc.lft.to/lastmile_qr_scan", "ios": "https://dc.lft.to/lastmile_qr_scan"}, "fusion_lon": 0.0, "lat": 38.918246, "bike_id": "9d2ba179efd7f3579fa0d955d8ec6a6b", "type": "electric_scooter", "is_reserved": 0, "lon": -77.04531866666666}, {"fusion_lat": 0.0, "name": "307bcf78e1d8a9bf977fcd9375e1ef2c", "is_disabled": 0, "rental_uris": {"android": "https://dc.lft.to/lastmile_qr_scan", "ios": "https://dc.lft.to/lastmile_qr_scan"}, "fusion_lon": 0.0, "lat": 38.888177666666664, "bike_id": "307bcf78e1d8a9bf977fcd9375e1ef2c", "type": "electric_scooter", "is_reserved": 0, "lon": -76.977226}, {"fusion_lat": 0.0, "name": "18e7961f637939ea5435ed96508d91a9", "is_disabled": 0, "rental_uris": {"android": "https://dc.lft.to/lastmile_qr_scan", "ios": "https://dc.lft.to/lastmile_qr_scan"}, "fusion_lon": 0.0, "lat": 38.925126666666664, "bike_id": "18e7961f637939ea5435ed96508d91a9", "type": "electric_scooter", "is_reserved": 0, "lon": -77.07713533333333}, {"fusion_lat": 0.0, "name": "d4728ba89317da60c7d345dec218b134", "is_disabled": 0, "rental_uris": {"android": "https://dc.lft.to/lastmile_qr_scan", "ios": "https://dc.lft.to/lastmile_qr_scan"}, "fusion_lon": 0.0, "lat": 38.91729616666667, "bike_id": "d4728ba89317da60c7d345dec218b134", "type": "electric_bike", "is_reserved": 0, "lon": -76.97901916666666}, {"fusion_lat": 0.0, "name": "dd5b85011b8b565c64fcb256e296af19", "is_disabled": 0, "rental_uris": {"android": "https://dc.lft.to/lastmile_qr_scan", "ios": "https://dc.lft.to/lastmile_qr_scan"}, "fusion_lon": 0.0, "lat": 38.9231295, "bike_id": "dd5b85011b8b565c64fcb256e296af19", "type": "electric_scooter", "is_reserved": 0, "lon": -77.03574016666667}, {"fusion_lat": 0.0, "name": "43859000e8d4f0efc79f66da05610000", "is_disabled": 0, "rental_uris": {"android": "https://dc.lft.to/lastmile_qr_scan", "ios": "https://dc.lft.to/lastmile_qr_scan"}, "fusion_lon": 0.0, "lat": 38.876537166666665, "bike_id": "43859000e8d4f0efc79f66da05610000", "type": "electric_scooter", "is_reserved": 0, "lon": -77.00419416666666}, {"fusion_lat": 0.0, "name": "0dbc205f6deb8339abc633daaf50c842", "is_disabled": 0, "rental_uris": {"android": "https://dc.lft.to/lastmile_qr_scan", "ios": "https://dc.lft.to/lastmile_qr_scan"}, "fusion_lon": 0.0, "lat": 38.923639, "bike_id": "0dbc205f6deb8339abc633daaf50c842", "type": "electric_scooter", "is_reserved": 0, "lon": -77.02959166666666}, {"fusion_lat": 0.0, "name": "650be0a81b732da5663e39758148a99a", "is_disabled": 0, "rental_uris": {"android": "https://dc.lft.to/lastmile_qr_scan", "ios": "https://dc.lft.to/lastmile_qr_scan"}, "fusion_lon": 0.0, "lat": 38.916952, "bike_id": "650be0a81b732da5663e39758148a99a", "type": "electric_scooter", "is_reserved": 0, "lon": -77.03771583333334}, {"fusion_lat": 0.0, "name": "8bd6755754ff133227f5412ffd165a3f", "is_disabled": 0, "rental_uris": {"android": "https://dc.lft.to/lastmile_qr_scan", "ios": "https://dc.lft.to/lastmile_qr_scan"}, "fusion_lon": 0.0, "lat": 38.84429433333333, "bike_id": "8bd6755754ff133227f5412ffd165a3f", "type": "electric_scooter", "is_reserved": 0, "lon": -76.99784316666667}, {"fusion_lat": 0.0, "name": "8358f29f2162730840d44a363452bf30", "is_disabled": 0, "rental_uris": {"android": "https://dc.lft.to/lastmile_qr_scan", "ios": "https://dc.lft.to/lastmile_qr_scan"}, "fusion_lon": 0.0, "lat": 38.876971833333336, "bike_id": "8358f29f2162730840d44a363452bf30", "type": "electric_scooter", "is_reserved": 0, "lon": -77.007263}, {"fusion_lat": 0.0, "name": "0a3fd66a5870964b97a4606e77a08390", "is_disabled": 0, "rental_uris": {"android": "https://dc.lft.to/lastmile_qr_scan", "ios": "https://dc.lft.to/lastmile_qr_scan"}, "fusion_lon": 0.0, "lat": 38.9046035, "bike_id": "0a3fd66a5870964b97a4606e77a08390", "type": "electric_scooter", "is_reserved": 0, "lon": -77.05320466666667}, {"fusion_lat": 0.0, "name": "4e679527bcfca9391c1360d1f2b511d3", "is_disabled": 0, "rental_uris": {"android": "https://dc.lft.to/lastmile_qr_scan", "ios": "https://dc.lft.to/lastmile_qr_scan"}, "fusion_lon": 0.0, "lat": 38.91136733333333, "bike_id": "4e679527bcfca9391c1360d1f2b511d3", "type": "electric_scooter", "is_reserved": 0, "lon": -77.065381}, {"fusion_lat": 0.0, "name": "e2afe04f598c24f4c4a14a9469895e22", "is_disabled": 0, "rental_uris": {"android": "https://dc.lft.to/lastmile_qr_scan", "ios": "https://dc.lft.to/lastmile_qr_scan"}, "fusion_lon": 0.0, "lat": 38.95084516666667, "bike_id": "e2afe04f598c24f4c4a14a9469895e22", "type": "electric_scooter", "is_reserved": 0, "lon": -77.0311805}, {"fusion_lat": 0.0, "name": "5ab578cf8215e1751c4c9a54dd13768f", "is_disabled": 0, "rental_uris": {"android": "https://dc.lft.to/lastmile_qr_scan", "ios": "https://dc.lft.to/lastmile_qr_scan"}, "fusion_lon": 0.0, "lat": 38.91147183333333, "bike_id": "5ab578cf8215e1751c4c9a54dd13768f", "type": "electric_scooter", "is_reserved": 0, "lon": -77.0320455}, {"fusion_lat": 0.0, "name": "e5bc52f0243fbae9d792a1aa5af4f585", "is_disabled": 0, "rental_uris": {"android": "https://dc.lft.to/lastmile_qr_scan", "ios": "https://dc.lft.to/lastmile_qr_scan"}, "fusion_lon": 0.0, "lat": 38.905424333333336, "bike_id": "e5bc52f0243fbae9d792a1aa5af4f585", "type": "electric_scooter", "is_reserved": 0, "lon": -77.00579566666667}, {"fusion_lat": 0.0, "name": "090f471e4002bc684d9be69a354f843c", "is_disabled": 0, "rental_uris": {"android": "https://dc.lft.to/lastmile_qr_scan", "ios": "https://dc.lft.to/lastmile_qr_scan"}, "fusion_lon": 0.0, "lat": 38.93475333333333, "bike_id": "090f471e4002bc684d9be69a354f843c", "type": "electric_scooter", "is_reserved": 0, "lon": -77.07270433333333}, {"fusion_lat": 0.0, "name": "ffdea7134cbf2de8158509ac6d61c988", "is_disabled": 0, "rental_uris": {"android": "https://dc.lft.to/lastmile_qr_scan", "ios": "https://dc.lft.to/lastmile_qr_scan"}, "fusion_lon": 0.0, "lat": 38.930867166666665, "bike_id": "ffdea7134cbf2de8158509ac6d61c988", "type": "electric_scooter", "is_reserved": 0, "lon": -77.02474066666667}, {"fusion_lat": 0.0, "name": "4a318d2fb936b0f2eea361c86bf5298d", "is_disabled": 0, "rental_uris": {"android": "https://dc.lft.to/lastmile_qr_scan", "ios": "https://dc.lft.to/lastmile_qr_scan"}, "fusion_lon": 0.0, "lat": 38.9125145, "bike_id": "4a318d2fb936b0f2eea361c86bf5298d", "type": "electric_scooter", "is_reserved": 0, "lon": -77.031582}, {"fusion_lat": 0.0, "name": "59ffa33773c8ecd98f5f9e235c1a843d", "is_disabled": 0, "rental_uris": {"android": "https://dc.lft.to/lastmile_qr_scan", "ios": "https://dc.lft.to/lastmile_qr_scan"}, "fusion_lon": 0.0, "lat": 38.924784333333335, "bike_id": "59ffa33773c8ecd98f5f9e235c1a843d", "type": "electric_scooter", "is_reserved": 0, "lon": -77.0259655}, {"fusion_lat": 0.0, "name": "eaae98b228b957c0e8234c314c486724", "is_disabled": 0, "rental_uris": {"android": "https://dc.lft.to/lastmile_qr_scan", "ios": "https://dc.lft.to/lastmile_qr_scan"}, "fusion_lon": 0.0, "lat": 38.90283683333333, "bike_id": "eaae98b228b957c0e8234c314c486724", "type": "electric_scooter", "is_reserved": 0, "lon": -77.03655366666666}, {"fusion_lat": 0.0, "name": "da0d7888c492c53257bd0b63260aa605", "is_disabled": 0, "rental_uris": {"android": "https://dc.lft.to/lastmile_qr_scan", "ios": "https://dc.lft.to/lastmile_qr_scan"}, "fusion_lon": 0.0, "lat": 38.9038865, "bike_id": "da0d7888c492c53257bd0b63260aa605", "type": "electric_scooter", "is_reserved": 0, "lon": -77.048311}, {"fusion_lat": 0.0, "name": "b782d7a387cb6a2a0e5459fc5d640b52", "is_disabled": 0, "rental_uris": {"android": "https://dc.lft.to/lastmile_qr_scan", "ios": "https://dc.lft.to/lastmile_qr_scan"}, "fusion_lon": 0.0, "lat": 38.932369, "bike_id": "b782d7a387cb6a2a0e5459fc5d640b52", "type": "electric_scooter", "is_reserved": 0, "lon": -77.032668}, {"fusion_lat": 0.0, "name": "706eace218f631223d436fa884488f7c", "is_disabled": 0, "rental_uris": {"android": "https://dc.lft.to/lastmile_qr_scan", "ios": "https://dc.lft.to/lastmile_qr_scan"}, "fusion_lon": 0.0, "lat": 38.9000885, "bike_id": "706eace218f631223d436fa884488f7c", "type": "electric_scooter", "is_reserved": 0, "lon": -76.9881165}, {"fusion_lat": 0.0, "name": "653b9682324b21b450c9f24f9af79f85", "is_disabled": 0, "rental_uris": {"android": "https://dc.lft.to/lastmile_qr_scan", "ios": "https://dc.lft.to/lastmile_qr_scan"}, "fusion_lon": 0.0, "lat": 38.93681866666667, "bike_id": "653b9682324b21b450c9f24f9af79f85", "type": "electric_scooter", "is_reserved": 0, "lon": -77.03637433333333}, {"fusion_lat": 0.0, "name": "23bb13efe0c30da3979864fa8332a990", "is_disabled": 0, "rental_uris": {"android": "https://dc.lft.to/lastmile_qr_scan", "ios": "https://dc.lft.to/lastmile_qr_scan"}, "fusion_lon": 0.0, "lat": 38.90030983333333, "bike_id": "23bb13efe0c30da3979864fa8332a990", "type": "electric_scooter", "is_reserved": 0, "lon": -76.99634816666666}, {"fusion_lat": 0.0, "name": "37156f41839b41d40147271ed98bf07f", "is_disabled": 0, "rental_uris": {"android": "https://dc.lft.to/lastmile_qr_scan", "ios": "https://dc.lft.to/lastmile_qr_scan"}, "fusion_lon": 0.0, "lat": 38.902175, "bike_id": "37156f41839b41d40147271ed98bf07f", "type": "electric_scooter", "is_reserved": 0, "lon": -77.01779666666667}, {"fusion_lat": 0.0, "name": "d22fbac3a1307dcdc94e743187837a6c", "is_disabled": 0, "rental_uris": {"android": "https://dc.lft.to/lastmile_qr_scan", "ios": "https://dc.lft.to/lastmile_qr_scan"}, "fusion_lon": 0.0, "lat": 38.90101266666667, "bike_id": "d22fbac3a1307dcdc94e743187837a6c", "type": "electric_scooter", "is_reserved": 0, "lon": -77.04751183333333}, {"fusion_lat": 0.0, "name": "381059aa536d075857990a48184ab229", "is_disabled": 0, "rental_uris": {"android": "https://dc.lft.to/lastmile_qr_scan", "ios": "https://dc.lft.to/lastmile_qr_scan"}, "fusion_lon": 0.0, "lat": 38.925764, "bike_id": "381059aa536d075857990a48184ab229", "type": "electric_scooter", "is_reserved": 0, "lon": -77.05260433333333}, {"fusion_lat": 0.0, "name": "bb9215ce5e37ec0b1d267fe6330c2487", "is_disabled": 0, "rental_uris": {"android": "https://dc.lft.to/lastmile_qr_scan", "ios": "https://dc.lft.to/lastmile_qr_scan"}, "fusion_lon": 0.0, "lat": 38.91952416666667, "bike_id": "bb9215ce5e37ec0b1d267fe6330c2487", "type": "electric_scooter", "is_reserved": 0, "lon": -77.01789116666667}, {"fusion_lat": 0.0, "name": "1aa3864b82e3baa7f8f011d9a7a09289", "is_disabled": 0, "rental_uris": {"android": "https://dc.lft.to/lastmile_qr_scan", "ios": "https://dc.lft.to/lastmile_qr_scan"}, "fusion_lon": 0.0, "lat": 38.919145, "bike_id": "1aa3864b82e3baa7f8f011d9a7a09289", "type": "electric_scooter", "is_reserved": 0, "lon": -77.03066216666667}, {"fusion_lat": 0.0, "name": "fa0024e320cbcef952680aa994b3c3c2", "is_disabled": 0, "rental_uris": {"android": "https://dc.lft.to/lastmile_qr_scan", "ios": "https://dc.lft.to/lastmile_qr_scan"}, "fusion_lon": 0.0, "lat": 38.909544333333336, "bike_id": "fa0024e320cbcef952680aa994b3c3c2", "type": "electric_scooter", "is_reserved": 0, "lon": -76.98538566666667}, {"fusion_lat": 0.0, "name": "82a423974befdfb0962fd9ab13f3993e", "is_disabled": 0, "rental_uris": {"android": "https://dc.lft.to/lastmile_qr_scan", "ios": "https://dc.lft.to/lastmile_qr_scan"}, "fusion_lon": 0.0, "lat": 38.92033633333333, "bike_id": "82a423974befdfb0962fd9ab13f3993e", "type": "electric_scooter", "is_reserved": 0, "lon": -77.07147433333333}, {"fusion_lat": 0.0, "name": "72294a30faa54d7da6cb866886f025a0", "is_disabled": 0, "rental_uris": {"android": "https://dc.lft.to/lastmile_qr_scan", "ios": "https://dc.lft.to/lastmile_qr_scan"}, "fusion_lon": 0.0, "lat": 38.90852916666667, "bike_id": "72294a30faa54d7da6cb866886f025a0", "type": "electric_scooter", "is_reserved": 0, "lon": -77.0272215}, {"fusion_lat": 0.0, "name": "00b28ec8104a0699b45072ee910ad8c2", "is_disabled": 0, "rental_uris": {"android": "https://dc.lft.to/lastmile_qr_scan", "ios": "https://dc.lft.to/lastmile_qr_scan"}, "fusion_lon": 0.0, "lat": 38.997802, "bike_id": "00b28ec8104a0699b45072ee910ad8c2", "type": "electric_bike", "is_reserved": 0, "lon": -77.04720416666666}, {"fusion_lat": 0.0, "name": "f9aa12663409dcd15f316619b565b85e", "is_disabled": 0, "rental_uris": {"android": "https://dc.lft.to/lastmile_qr_scan", "ios": "https://dc.lft.to/lastmile_qr_scan"}, "fusion_lon": 0.0, "lat": 38.892223, "bike_id": "f9aa12663409dcd15f316619b565b85e", "type": "electric_scooter", "is_reserved": 0, "lon": -77.03339716666666}, {"fusion_lat": 0.0, "name": "675435c5b263f20981b4653f8a2539d4", "is_disabled": 0, "rental_uris": {"android": "https://dc.lft.to/lastmile_qr_scan", "ios": "https://dc.lft.to/lastmile_qr_scan"}, "fusion_lon": 0.0, "lat": 38.92728316666667, "bike_id": "675435c5b263f20981b4653f8a2539d4", "type": "electric_scooter", "is_reserved": 0, "lon": -77.03061}, {"fusion_lat": 0.0, "name": "216bea2029667102e0d0a85c01906f06", "is_disabled": 0, "rental_uris": {"android": "https://dc.lft.to/lastmile_qr_scan", "ios": "https://dc.lft.to/lastmile_qr_scan"}, "fusion_lon": 0.0, "lat": 38.87368416666666, "bike_id": "216bea2029667102e0d0a85c01906f06", "type": "electric_scooter", "is_reserved": 0, "lon": -77.00127733333333}, {"fusion_lat": 0.0, "name": "e12b948d2263432a9f6632fb65542ae3", "is_disabled": 0, "rental_uris": {"android": "https://dc.lft.to/lastmile_qr_scan", "ios": "https://dc.lft.to/lastmile_qr_scan"}, "fusion_lon": 0.0, "lat": 38.89284466666667, "bike_id": "e12b948d2263432a9f6632fb65542ae3", "type": "electric_scooter", "is_reserved": 0, "lon": -76.92995983333333}, {"fusion_lat": 0.0, "name": "8c5f529d996d748586cced08d71ff0e7", "is_disabled": 0, "rental_uris": {"android": "https://dc.lft.to/lastmile_qr_scan", "ios": "https://dc.lft.to/lastmile_qr_scan"}, "fusion_lon": 0.0, "lat": 38.901197333333336, "bike_id": "8c5f529d996d748586cced08d71ff0e7", "type": "electric_scooter", "is_reserved": 0, "lon": -77.04993866666666}, {"fusion_lat": 0.0, "name": "f94d2cde9a92c40b401539dace198e29", "is_disabled": 0, "rental_uris": {"android": "https://dc.lft.to/lastmile_qr_scan", "ios": "https://dc.lft.to/lastmile_qr_scan"}, "fusion_lon": 0.0, "lat": 38.900363166666665, "bike_id": "f94d2cde9a92c40b401539dace198e29", "type": "electric_scooter", "is_reserved": 0, "lon": -76.99139066666666}, {"fusion_lat": 0.0, "name": "b843ff1292da9bf708e8bb280e32c1f8", "is_disabled": 0, "rental_uris": {"android": "https://dc.lft.to/lastmile_qr_scan", "ios": "https://dc.lft.to/lastmile_qr_scan"}, "fusion_lon": 0.0, "lat": 38.812521333333336, "bike_id": "b843ff1292da9bf708e8bb280e32c1f8", "type": "electric_bike", "is_reserved": 0, "lon": -77.1177755}, {"fusion_lat": 0.0, "name": "5ad9e8998e3d2e23b3d148eb60204fd0", "is_disabled": 0, "rental_uris": {"android": "https://dc.lft.to/lastmile_qr_scan", "ios": "https://dc.lft.to/lastmile_qr_scan"}, "fusion_lon": 0.0, "lat": 38.8071115, "bike_id": "5ad9e8998e3d2e23b3d148eb60204fd0", "type": "electric_bike", "is_reserved": 0, "lon": -77.0617325}, {"fusion_lat": 0.0, "name": "bba11637b54f9838d16fb520457a1761", "is_disabled": 0, "rental_uris": {"android": "https://dc.lft.to/lastmile_qr_scan", "ios": "https://dc.lft.to/lastmile_qr_scan"}, "fusion_lon": 0.0, "lat": 38.903945, "bike_id": "bba11637b54f9838d16fb520457a1761", "type": "electric_scooter", "is_reserved": 0, "lon": -77.06810783333333}, {"fusion_lat": 0.0, "name": "c07cd4da0afeb0d537ae02cc7d0b0f48", "is_disabled": 0, "rental_uris": {"android": "https://dc.lft.to/lastmile_qr_scan", "ios": "https://dc.lft.to/lastmile_qr_scan"}, "fusion_lon": 0.0, "lat": 38.92670966666667, "bike_id": "c07cd4da0afeb0d537ae02cc7d0b0f48", "type": "electric_scooter", "is_reserved": 0, "lon": -77.014751}, {"fusion_lat": 0.0, "name": "21fa8acde9ccf686e1ec1c3fa17a1af3", "is_disabled": 0, "rental_uris": {"android": "https://dc.lft.to/lastmile_qr_scan", "ios": "https://dc.lft.to/lastmile_qr_scan"}, "fusion_lon": 0.0, "lat": 38.907483, "bike_id": "21fa8acde9ccf686e1ec1c3fa17a1af3", "type": "electric_scooter", "is_reserved": 0, "lon": -76.9355025}, {"fusion_lat": 0.0, "name": "e6899c9a9ddbabc423b08c605d8de873", "is_disabled": 0, "rental_uris": {"android": "https://dc.lft.to/lastmile_qr_scan", "ios": "https://dc.lft.to/lastmile_qr_scan"}, "fusion_lon": 0.0, "lat": 38.879189, "bike_id": "e6899c9a9ddbabc423b08c605d8de873", "type": "electric_scooter", "is_reserved": 0, "lon": -77.00632583333334}, {"fusion_lat": 0.0, "name": "8bb69863281371d496c47f9735528fcb", "is_disabled": 0, "rental_uris": {"android": "https://dc.lft.to/lastmile_qr_scan", "ios": "https://dc.lft.to/lastmile_qr_scan"}, "fusion_lon": 0.0, "lat": 38.92235683333333, "bike_id": "8bb69863281371d496c47f9735528fcb", "type": "electric_scooter", "is_reserved": 0, "lon": -77.0424645}, {"fusion_lat": 0.0, "name": "f2a1694aa648099025c1423db656cdd4", "is_disabled": 0, "rental_uris": {"android": "https://dc.lft.to/lastmile_qr_scan", "ios": "https://dc.lft.to/lastmile_qr_scan"}, "fusion_lon": 0.0, "lat": 38.81915083333333, "bike_id": "f2a1694aa648099025c1423db656cdd4", "type": "electric_bike", "is_reserved": 0, "lon": -77.04797233333333}, {"fusion_lat": 0.0, "name": "c7742951bd9a75ac7ac335d7d3fb7114", "is_disabled": 0, "rental_uris": {"android": "https://dc.lft.to/lastmile_qr_scan", "ios": "https://dc.lft.to/lastmile_qr_scan"}, "fusion_lon": 0.0, "lat": 38.8794275, "bike_id": "c7742951bd9a75ac7ac335d7d3fb7114", "type": "electric_scooter", "is_reserved": 0, "lon": -77.00630266666667}, {"fusion_lat": 0.0, "name": "f270dd8ccea744a00a8e891e1e3d3dc3", "is_disabled": 0, "rental_uris": {"android": "https://dc.lft.to/lastmile_qr_scan", "ios": "https://dc.lft.to/lastmile_qr_scan"}, "fusion_lon": 0.0, "lat": 38.916992666666665, "bike_id": "f270dd8ccea744a00a8e891e1e3d3dc3", "type": "electric_scooter", "is_reserved": 0, "lon": -77.030406}, {"fusion_lat": 0.0, "name": "ef6778498416c34736c5ece38d7cf74d", "is_disabled": 0, "rental_uris": {"android": "https://dc.lft.to/lastmile_qr_scan", "ios": "https://dc.lft.to/lastmile_qr_scan"}, "fusion_lon": 0.0, "lat": 38.93010566666667, "bike_id": "ef6778498416c34736c5ece38d7cf74d", "type": "electric_scooter", "is_reserved": 0, "lon": -77.05546266666667}, {"fusion_lat": 0.0, "name": "c0e4f0b9d5b5973d64995b0137d61179", "is_disabled": 0, "rental_uris": {"android": "https://dc.lft.to/lastmile_qr_scan", "ios": "https://dc.lft.to/lastmile_qr_scan"}, "fusion_lon": 0.0, "lat": 38.919138, "bike_id": "c0e4f0b9d5b5973d64995b0137d61179", "type": "electric_scooter", "is_reserved": 0, "lon": -77.03223783333334}, {"fusion_lat": 0.0, "name": "5be2f9433b52c60119978e481589cd38", "is_disabled": 0, "rental_uris": {"android": "https://dc.lft.to/lastmile_qr_scan", "ios": "https://dc.lft.to/lastmile_qr_scan"}, "fusion_lon": 0.0, "lat": 38.915939333333334, "bike_id": "5be2f9433b52c60119978e481589cd38", "type": "electric_scooter", "is_reserved": 0, "lon": -77.03188833333333}, {"fusion_lat": 0.0, "name": "5480147dc3d390875651c284c5ad9259", "is_disabled": 0, "rental_uris": {"android": "https://dc.lft.to/lastmile_qr_scan", "ios": "https://dc.lft.to/lastmile_qr_scan"}, "fusion_lon": 0.0, "lat": 38.92920933333333, "bike_id": "5480147dc3d390875651c284c5ad9259", "type": "electric_scooter", "is_reserved": 0, "lon": -77.03284366666666}, {"fusion_lat": 0.0, "name": "71b7fba8a2fdaa33f1092767955ada6c", "is_disabled": 0, "rental_uris": {"android": "https://dc.lft.to/lastmile_qr_scan", "ios": "https://dc.lft.to/lastmile_qr_scan"}, "fusion_lon": 0.0, "lat": 38.90049966666667, "bike_id": "71b7fba8a2fdaa33f1092767955ada6c", "type": "electric_scooter", "is_reserved": 0, "lon": -77.0007195}, {"fusion_lat": 0.0, "name": "fb754c9bf095efb0ca8cc61d862ca7c2", "is_disabled": 0, "rental_uris": {"android": "https://dc.lft.to/lastmile_qr_scan", "ios": "https://dc.lft.to/lastmile_qr_scan"}, "fusion_lon": 0.0, "lat": 38.899851166666664, "bike_id": "fb754c9bf095efb0ca8cc61d862ca7c2", "type": "electric_scooter", "is_reserved": 0, "lon": -77.02715833333333}, {"fusion_lat": 0.0, "name": "0155f9e8c3acf396c7648e819206692c", "is_disabled": 0, "rental_uris": {"android": "https://dc.lft.to/lastmile_qr_scan", "ios": "https://dc.lft.to/lastmile_qr_scan"}, "fusion_lon": 0.0, "lat": 38.902206166666666, "bike_id": "0155f9e8c3acf396c7648e819206692c", "type": "electric_scooter", "is_reserved": 0, "lon": -77.02379033333334}, {"fusion_lat": 0.0, "name": "8e5180829a8eec2d16acd37b1fdcd7c5", "is_disabled": 0, "rental_uris": {"android": "https://dc.lft.to/lastmile_qr_scan", "ios": "https://dc.lft.to/lastmile_qr_scan"}, "fusion_lon": 0.0, "lat": 38.908835333333336, "bike_id": "8e5180829a8eec2d16acd37b1fdcd7c5", "type": "electric_scooter", "is_reserved": 0, "lon": -77.03218416666667}, {"fusion_lat": 0.0, "name": "d6715e9ba5c57bd73dc4c4025bd72fd5", "is_disabled": 0, "rental_uris": {"android": "https://dc.lft.to/lastmile_qr_scan", "ios": "https://dc.lft.to/lastmile_qr_scan"}, "fusion_lon": 0.0, "lat": 38.905856166666666, "bike_id": "d6715e9ba5c57bd73dc4c4025bd72fd5", "type": "electric_scooter", "is_reserved": 0, "lon": -77.00881466666667}, {"fusion_lat": 0.0, "name": "6206a20be05c24018ab398babcbafd58", "is_disabled": 0, "rental_uris": {"android": "https://dc.lft.to/lastmile_qr_scan", "ios": "https://dc.lft.to/lastmile_qr_scan"}, "fusion_lon": 0.0, "lat": 38.93540216666667, "bike_id": "6206a20be05c24018ab398babcbafd58", "type": "electric_scooter", "is_reserved": 0, "lon": -77.0574995}, {"fusion_lat": 0.0, "name": "a2fb4461a8a7e4d742074faf7c8a9116", "is_disabled": 0, "rental_uris": {"android": "https://dc.lft.to/lastmile_qr_scan", "ios": "https://dc.lft.to/lastmile_qr_scan"}, "fusion_lon": 0.0, "lat": 38.91717833333333, "bike_id": "a2fb4461a8a7e4d742074faf7c8a9116", "type": "electric_scooter", "is_reserved": 0, "lon": -77.02590916666666}, {"fusion_lat": 0.0, "name": "62f1ce1f066d274750ad91707e8a3ed4", "is_disabled": 0, "rental_uris": {"android": "https://dc.lft.to/lastmile_qr_scan", "ios": "https://dc.lft.to/lastmile_qr_scan"}, "fusion_lon": 0.0, "lat": 38.916303166666665, "bike_id": "62f1ce1f066d274750ad91707e8a3ed4", "type": "electric_scooter", "is_reserved": 0, "lon": -77.03200883333334}, {"fusion_lat": 0.0, "name": "ac007d5d06fc3a05e2a474a7f719e538", "is_disabled": 0, "rental_uris": {"android": "https://dc.lft.to/lastmile_qr_scan", "ios": "https://dc.lft.to/lastmile_qr_scan"}, "fusion_lon": 0.0, "lat": 38.911077166666665, "bike_id": "ac007d5d06fc3a05e2a474a7f719e538", "type": "electric_scooter", "is_reserved": 0, "lon": -77.042042}, {"fusion_lat": 0.0, "name": "fe0717c489ff659881121570afd7523f", "is_disabled": 0, "rental_uris": {"android": "https://dc.lft.to/lastmile_qr_scan", "ios": "https://dc.lft.to/lastmile_qr_scan"}, "fusion_lon": 0.0, "lat": 38.90857533333333, "bike_id": "fe0717c489ff659881121570afd7523f", "type": "electric_scooter", "is_reserved": 0, "lon": -77.03302883333333}, {"fusion_lat": 0.0, "name": "a0b48da9ee37a89b9cdcf938a78d5e4a", "is_disabled": 0, "rental_uris": {"android": "https://dc.lft.to/lastmile_qr_scan", "ios": "https://dc.lft.to/lastmile_qr_scan"}, "fusion_lon": 0.0, "lat": 38.9235865, "bike_id": "a0b48da9ee37a89b9cdcf938a78d5e4a", "type": "electric_scooter", "is_reserved": 0, "lon": -77.05052466666666}, {"fusion_lat": 0.0, "name": "215d0f715bdc2d667aeaa6638fdfb6c7", "is_disabled": 0, "rental_uris": {"android": "https://dc.lft.to/lastmile_qr_scan", "ios": "https://dc.lft.to/lastmile_qr_scan"}, "fusion_lon": 0.0, "lat": 38.89962583333333, "bike_id": "215d0f715bdc2d667aeaa6638fdfb6c7", "type": "electric_scooter", "is_reserved": 0, "lon": -77.02734366666667}, {"fusion_lat": 0.0, "name": "3729caa562c672c6a5c7fd4b19b025e2", "is_disabled": 0, "rental_uris": {"android": "https://dc.lft.to/lastmile_qr_scan", "ios": "https://dc.lft.to/lastmile_qr_scan"}, "fusion_lon": 0.0, "lat": 38.90597283333334, "bike_id": "3729caa562c672c6a5c7fd4b19b025e2", "type": "electric_scooter", "is_reserved": 0, "lon": -77.00263483333333}, {"fusion_lat": 0.0, "name": "a7c322d2de74058f1fb5299bb42daaca", "is_disabled": 0, "rental_uris": {"android": "https://dc.lft.to/lastmile_qr_scan", "ios": "https://dc.lft.to/lastmile_qr_scan"}, "fusion_lon": 0.0, "lat": 38.896846833333335, "bike_id": "a7c322d2de74058f1fb5299bb42daaca", "type": "electric_scooter", "is_reserved": 0, "lon": -76.93713216666667}, {"fusion_lat": 0.0, "name": "f1feb6bacccca6ca9f4c8e724e2a98dd", "is_disabled": 0, "rental_uris": {"android": "https://dc.lft.to/lastmile_qr_scan", "ios": "https://dc.lft.to/lastmile_qr_scan"}, "fusion_lon": 0.0, "lat": 38.924083, "bike_id": "f1feb6bacccca6ca9f4c8e724e2a98dd", "type": "electric_scooter", "is_reserved": 0, "lon": -77.0525335}, {"fusion_lat": 0.0, "name": "181c5f02cbeec59596f7a65f022430fa", "is_disabled": 0, "rental_uris": {"android": "https://dc.lft.to/lastmile_qr_scan", "ios": "https://dc.lft.to/lastmile_qr_scan"}, "fusion_lon": 0.0, "lat": 38.9505635, "bike_id": "181c5f02cbeec59596f7a65f022430fa", "type": "electric_scooter", "is_reserved": 0, "lon": -77.08025766666667}, {"fusion_lat": 0.0, "name": "d75a8a4da6661a3e4bb76fd0d63e12aa", "is_disabled": 0, "rental_uris": {"android": "https://dc.lft.to/lastmile_qr_scan", "ios": "https://dc.lft.to/lastmile_qr_scan"}, "fusion_lon": 0.0, "lat": 38.89909433333333, "bike_id": "d75a8a4da6661a3e4bb76fd0d63e12aa", "type": "electric_scooter", "is_reserved": 0, "lon": -76.9458995}, {"fusion_lat": 0.0, "name": "7fb7823a54423fa975c4d8c70cd669a4", "is_disabled": 0, "rental_uris": {"android": "https://dc.lft.to/lastmile_qr_scan", "ios": "https://dc.lft.to/lastmile_qr_scan"}, "fusion_lon": 0.0, "lat": 38.916971333333336, "bike_id": "7fb7823a54423fa975c4d8c70cd669a4", "type": "electric_scooter", "is_reserved": 0, "lon": -77.022896}, {"fusion_lat": 0.0, "name": "cee7a4553f3ee749bc35655672f54dc0", "is_disabled": 0, "rental_uris": {"android": "https://dc.lft.to/lastmile_qr_scan", "ios": "https://dc.lft.to/lastmile_qr_scan"}, "fusion_lon": 0.0, "lat": 38.87579816666667, "bike_id": "cee7a4553f3ee749bc35655672f54dc0", "type": "electric_bike", "is_reserved": 0, "lon": -77.2341075}, {"fusion_lat": 0.0, "name": "1be0c89343a7a2a0337288d8d902e818", "is_disabled": 0, "rental_uris": {"android": "https://dc.lft.to/lastmile_qr_scan", "ios": "https://dc.lft.to/lastmile_qr_scan"}, "fusion_lon": 0.0, "lat": 38.91513533333333, "bike_id": "1be0c89343a7a2a0337288d8d902e818", "type": "electric_scooter", "is_reserved": 0, "lon": -77.01904716666667}, {"fusion_lat": 0.0, "name": "3e0f000d22a4d0153bf5ed204c7ae84b", "is_disabled": 0, "rental_uris": {"android": "https://dc.lft.to/lastmile_qr_scan", "ios": "https://dc.lft.to/lastmile_qr_scan"}, "fusion_lon": 0.0, "lat": 38.931670833333335, "bike_id": "3e0f000d22a4d0153bf5ed204c7ae84b", "type": "electric_scooter", "is_reserved": 0, "lon": -77.07863033333334}, {"fusion_lat": 0.0, "name": "4a74606337ca47793a3c800f3ed38ef8", "is_disabled": 0, "rental_uris": {"android": "https://dc.lft.to/lastmile_qr_scan", "ios": "https://dc.lft.to/lastmile_qr_scan"}, "fusion_lon": 0.0, "lat": 38.911076666666666, "bike_id": "4a74606337ca47793a3c800f3ed38ef8", "type": "electric_scooter", "is_reserved": 0, "lon": -77.04201916666666}, {"fusion_lat": 0.0, "name": "eb4997601bbba30775b9838c5a6cec21", "is_disabled": 0, "rental_uris": {"android": "https://dc.lft.to/lastmile_qr_scan", "ios": "https://dc.lft.to/lastmile_qr_scan"}, "fusion_lon": 0.0, "lat": 38.948616, "bike_id": "eb4997601bbba30775b9838c5a6cec21", "type": "electric_scooter", "is_reserved": 0, "lon": -77.0257165}, {"fusion_lat": 0.0, "name": "96faad804f469f79369d3aaddd021018", "is_disabled": 0, "rental_uris": {"android": "https://dc.lft.to/lastmile_qr_scan", "ios": "https://dc.lft.to/lastmile_qr_scan"}, "fusion_lon": 0.0, "lat": 38.957973, "bike_id": "96faad804f469f79369d3aaddd021018", "type": "electric_bike", "is_reserved": 0, "lon": -76.96044533333334}, {"fusion_lat": 0.0, "name": "4245bf450f0a0caddee567ac2e7ff613", "is_disabled": 0, "rental_uris": {"android": "https://dc.lft.to/lastmile_qr_scan", "ios": "https://dc.lft.to/lastmile_qr_scan"}, "fusion_lon": 0.0, "lat": 38.9172275, "bike_id": "4245bf450f0a0caddee567ac2e7ff613", "type": "electric_scooter", "is_reserved": 0, "lon": -77.0280205}, {"fusion_lat": 0.0, "name": "cb7b2634181becff03eb017757fd0995", "is_disabled": 0, "rental_uris": {"android": "https://dc.lft.to/lastmile_qr_scan", "ios": "https://dc.lft.to/lastmile_qr_scan"}, "fusion_lon": 0.0, "lat": 38.90578816666667, "bike_id": "cb7b2634181becff03eb017757fd0995", "type": "electric_scooter", "is_reserved": 0, "lon": -77.00890033333333}, {"fusion_lat": 0.0, "name": "53d5d7c3c11633144ac156010f7406b5", "is_disabled": 0, "rental_uris": {"android": "https://dc.lft.to/lastmile_qr_scan", "ios": "https://dc.lft.to/lastmile_qr_scan"}, "fusion_lon": 0.0, "lat": 38.954845, "bike_id": "53d5d7c3c11633144ac156010f7406b5", "type": "electric_bike", "is_reserved": 0, "lon": -77.02668333333334}, {"fusion_lat": 0.0, "name": "ef2ac529878ad74a5957c97c47d242f7", "is_disabled": 0, "rental_uris": {"android": "https://dc.lft.to/lastmile_qr_scan", "ios": "https://dc.lft.to/lastmile_qr_scan"}, "fusion_lon": 0.0, "lat": 38.91439166666667, "bike_id": "ef2ac529878ad74a5957c97c47d242f7", "type": "electric_scooter", "is_reserved": 0, "lon": -77.044891}, {"fusion_lat": 0.0, "name": "ef73ae8ae00560b6ba0882b688fa6e14", "is_disabled": 0, "rental_uris": {"android": "https://dc.lft.to/lastmile_qr_scan", "ios": "https://dc.lft.to/lastmile_qr_scan"}, "fusion_lon": 0.0, "lat": 38.9056315, "bike_id": "ef73ae8ae00560b6ba0882b688fa6e14", "type": "electric_scooter", "is_reserved": 0, "lon": -77.046726}, {"fusion_lat": 0.0, "name": "d69bf3d861b12b0b3cbec21020e1bd94", "is_disabled": 0, "rental_uris": {"android": "https://dc.lft.to/lastmile_qr_scan", "ios": "https://dc.lft.to/lastmile_qr_scan"}, "fusion_lon": 0.0, "lat": 38.899499166666665, "bike_id": "d69bf3d861b12b0b3cbec21020e1bd94", "type": "electric_scooter", "is_reserved": 0, "lon": -76.985574}, {"fusion_lat": 0.0, "name": "38562ff7ae48beffac15c43b3b8ae712", "is_disabled": 0, "rental_uris": {"android": "https://dc.lft.to/lastmile_qr_scan", "ios": "https://dc.lft.to/lastmile_qr_scan"}, "fusion_lon": 0.0, "lat": 38.905086, "bike_id": "38562ff7ae48beffac15c43b3b8ae712", "type": "electric_scooter", "is_reserved": 0, "lon": -77.04074}, {"fusion_lat": 0.0, "name": "a6813952fee716d07b6ed5c8ba593508", "is_disabled": 0, "rental_uris": {"android": "https://dc.lft.to/lastmile_qr_scan", "ios": "https://dc.lft.to/lastmile_qr_scan"}, "fusion_lon": 0.0, "lat": 38.8898855, "bike_id": "a6813952fee716d07b6ed5c8ba593508", "type": "electric_scooter", "is_reserved": 0, "lon": -76.9141815}, {"fusion_lat": 0.0, "name": "1c42feac6a0576d7bcaf68041ce5e67a", "is_disabled": 0, "rental_uris": {"android": "https://dc.lft.to/lastmile_qr_scan", "ios": "https://dc.lft.to/lastmile_qr_scan"}, "fusion_lon": 0.0, "lat": 38.90625683333333, "bike_id": "1c42feac6a0576d7bcaf68041ce5e67a", "type": "electric_scooter", "is_reserved": 0, "lon": -77.00587366666667}, {"fusion_lat": 0.0, "name": "f199b96a22d5ff7328e7141f786aea74", "is_disabled": 0, "rental_uris": {"android": "https://dc.lft.to/lastmile_qr_scan", "ios": "https://dc.lft.to/lastmile_qr_scan"}, "fusion_lon": 0.0, "lat": 38.9398475, "bike_id": "f199b96a22d5ff7328e7141f786aea74", "type": "electric_scooter", "is_reserved": 0, "lon": -77.01915616666666}, {"fusion_lat": 0.0, "name": "838b136b2aa89c07c3a927e68301e618", "is_disabled": 0, "rental_uris": {"android": "https://dc.lft.to/lastmile_qr_scan", "ios": "https://dc.lft.to/lastmile_qr_scan"}, "fusion_lon": 0.0, "lat": 38.892278166666664, "bike_id": "838b136b2aa89c07c3a927e68301e618", "type": "electric_scooter", "is_reserved": 0, "lon": -77.04470066666667}, {"fusion_lat": 0.0, "name": "b052b839ac043e802523e56b66142919", "is_disabled": 0, "rental_uris": {"android": "https://dc.lft.to/lastmile_qr_scan", "ios": "https://dc.lft.to/lastmile_qr_scan"}, "fusion_lon": 0.0, "lat": 38.90567716666666, "bike_id": "b052b839ac043e802523e56b66142919", "type": "electric_scooter", "is_reserved": 0, "lon": -77.02207933333334}, {"fusion_lat": 0.0, "name": "a68bdbd8dd1a5d729a16154c60b5561d", "is_disabled": 0, "rental_uris": {"android": "https://dc.lft.to/lastmile_qr_scan", "ios": "https://dc.lft.to/lastmile_qr_scan"}, "fusion_lon": 0.0, "lat": 38.89904416666667, "bike_id": "a68bdbd8dd1a5d729a16154c60b5561d", "type": "electric_scooter", "is_reserved": 0, "lon": -76.98500733333333}, {"fusion_lat": 0.0, "name": "33eb747bd87010da32bfd18e1f858ab3", "is_disabled": 0, "rental_uris": {"android": "https://dc.lft.to/lastmile_qr_scan", "ios": "https://dc.lft.to/lastmile_qr_scan"}, "fusion_lon": 0.0, "lat": 38.941886, "bike_id": "33eb747bd87010da32bfd18e1f858ab3", "type": "electric_scooter", "is_reserved": 0, "lon": -77.024907}, {"fusion_lat": 0.0, "name": "dddab72e2d8ef6b21f77dfc1337df701", "is_disabled": 0, "rental_uris": {"android": "https://dc.lft.to/lastmile_qr_scan", "ios": "https://dc.lft.to/lastmile_qr_scan"}, "fusion_lon": 0.0, "lat": 38.9233615, "bike_id": "dddab72e2d8ef6b21f77dfc1337df701", "type": "electric_scooter", "is_reserved": 0, "lon": -77.03646933333333}, {"fusion_lat": 0.0, "name": "4ee09dd14505f2d8f8915055e4029f64", "is_disabled": 0, "rental_uris": {"android": "https://dc.lft.to/lastmile_qr_scan", "ios": "https://dc.lft.to/lastmile_qr_scan"}, "fusion_lon": 0.0, "lat": 38.915541, "bike_id": "4ee09dd14505f2d8f8915055e4029f64", "type": "electric_scooter", "is_reserved": 0, "lon": -77.0220625}, {"fusion_lat": 0.0, "name": "e9bd0212fd1313bcdcdcb020fe89353b", "is_disabled": 0, "rental_uris": {"android": "https://dc.lft.to/lastmile_qr_scan", "ios": "https://dc.lft.to/lastmile_qr_scan"}, "fusion_lon": 0.0, "lat": 39.0047945, "bike_id": "e9bd0212fd1313bcdcdcb020fe89353b", "type": "electric_bike", "is_reserved": 0, "lon": -77.02184316666667}, {"fusion_lat": 0.0, "name": "f149a13837c62fe98c77a69be060acc9", "is_disabled": 0, "rental_uris": {"android": "https://dc.lft.to/lastmile_qr_scan", "ios": "https://dc.lft.to/lastmile_qr_scan"}, "fusion_lon": 0.0, "lat": 38.90013866666666, "bike_id": "f149a13837c62fe98c77a69be060acc9", "type": "electric_scooter", "is_reserved": 0, "lon": -77.01165133333333}, {"fusion_lat": 0.0, "name": "d170df00b994f215e09cdde295a7d835", "is_disabled": 0, "rental_uris": {"android": "https://dc.lft.to/lastmile_qr_scan", "ios": "https://dc.lft.to/lastmile_qr_scan"}, "fusion_lon": 0.0, "lat": 38.930924833333336, "bike_id": "d170df00b994f215e09cdde295a7d835", "type": "electric_bike", "is_reserved": 0, "lon": -77.02452266666667}, {"fusion_lat": 0.0, "name": "ed17befcf78b6a7f61a9b1b53d97cb93", "is_disabled": 0, "rental_uris": {"android": "https://dc.lft.to/lastmile_qr_scan", "ios": "https://dc.lft.to/lastmile_qr_scan"}, "fusion_lon": 0.0, "lat": 38.91700433333333, "bike_id": "ed17befcf78b6a7f61a9b1b53d97cb93", "type": "electric_scooter", "is_reserved": 0, "lon": -77.03853916666667}, {"fusion_lat": 0.0, "name": "0a130fe3893d20160d2facebfb5a07ba", "is_disabled": 0, "rental_uris": {"android": "https://dc.lft.to/lastmile_qr_scan", "ios": "https://dc.lft.to/lastmile_qr_scan"}, "fusion_lon": 0.0, "lat": 38.907906833333335, "bike_id": "0a130fe3893d20160d2facebfb5a07ba", "type": "electric_scooter", "is_reserved": 0, "lon": -77.0343575}, {"fusion_lat": 0.0, "name": "dc711eaf0ec0a839b16b3057a59c5473", "is_disabled": 0, "rental_uris": {"android": "https://dc.lft.to/lastmile_qr_scan", "ios": "https://dc.lft.to/lastmile_qr_scan"}, "fusion_lon": 0.0, "lat": 38.91275433333333, "bike_id": "dc711eaf0ec0a839b16b3057a59c5473", "type": "electric_scooter", "is_reserved": 0, "lon": -77.02233316666667}, {"fusion_lat": 0.0, "name": "6257043c93ce5350e8281852a3835796", "is_disabled": 0, "rental_uris": {"android": "https://dc.lft.to/lastmile_qr_scan", "ios": "https://dc.lft.to/lastmile_qr_scan"}, "fusion_lon": 0.0, "lat": 38.8767835, "bike_id": "6257043c93ce5350e8281852a3835796", "type": "electric_scooter", "is_reserved": 0, "lon": -77.00361283333334}, {"fusion_lat": 0.0, "name": "5e4eb5d99c0cf6b9d26f47c2fe0feb04", "is_disabled": 0, "rental_uris": {"android": "https://dc.lft.to/lastmile_qr_scan", "ios": "https://dc.lft.to/lastmile_qr_scan"}, "fusion_lon": 0.0, "lat": 38.90956083333333, "bike_id": "5e4eb5d99c0cf6b9d26f47c2fe0feb04", "type": "electric_scooter", "is_reserved": 0, "lon": -77.01441233333334}, {"fusion_lat": 0.0, "name": "2f89519309e15ab18d9bfc3bdf41bc03", "is_disabled": 0, "rental_uris": {"android": "https://dc.lft.to/lastmile_qr_scan", "ios": "https://dc.lft.to/lastmile_qr_scan"}, "fusion_lon": 0.0, "lat": 38.917983166666666, "bike_id": "2f89519309e15ab18d9bfc3bdf41bc03", "type": "electric_scooter", "is_reserved": 0, "lon": -77.02700883333333}, {"fusion_lat": 0.0, "name": "b9eaaaae2ddd279af161a22bd8a34409", "is_disabled": 0, "rental_uris": {"android": "https://dc.lft.to/lastmile_qr_scan", "ios": "https://dc.lft.to/lastmile_qr_scan"}, "fusion_lon": 0.0, "lat": 38.879025, "bike_id": "b9eaaaae2ddd279af161a22bd8a34409", "type": "electric_scooter", "is_reserved": 0, "lon": -77.00586433333334}, {"fusion_lat": 0.0, "name": "e8315caa43fb1769aed0eb0ab0af6422", "is_disabled": 0, "rental_uris": {"android": "https://dc.lft.to/lastmile_qr_scan", "ios": "https://dc.lft.to/lastmile_qr_scan"}, "fusion_lon": 0.0, "lat": 38.93280716666666, "bike_id": "e8315caa43fb1769aed0eb0ab0af6422", "type": "electric_scooter", "is_reserved": 0, "lon": -77.04076566666667}, {"fusion_lat": 0.0, "name": "d1fc35357d464e67ca1676c1f386fa5f", "is_disabled": 0, "rental_uris": {"android": "https://dc.lft.to/lastmile_qr_scan", "ios": "https://dc.lft.to/lastmile_qr_scan"}, "fusion_lon": 0.0, "lat": 38.90264233333333, "bike_id": "d1fc35357d464e67ca1676c1f386fa5f", "type": "electric_scooter", "is_reserved": 0, "lon": -77.05311183333333}, {"fusion_lat": 0.0, "name": "db21c6b0c0a86d189780185075fa0abe", "is_disabled": 0, "rental_uris": {"android": "https://dc.lft.to/lastmile_qr_scan", "ios": "https://dc.lft.to/lastmile_qr_scan"}, "fusion_lon": 0.0, "lat": 38.905529666666666, "bike_id": "db21c6b0c0a86d189780185075fa0abe", "type": "electric_scooter", "is_reserved": 0, "lon": -77.0059895}, {"fusion_lat": 0.0, "name": "00fc46ce845a7177ba3b3917e32246af", "is_disabled": 0, "rental_uris": {"android": "https://dc.lft.to/lastmile_qr_scan", "ios": "https://dc.lft.to/lastmile_qr_scan"}, "fusion_lon": 0.0, "lat": 38.914691166666664, "bike_id": "00fc46ce845a7177ba3b3917e32246af", "type": "electric_scooter", "is_reserved": 0, "lon": -77.03854516666667}, {"fusion_lat": 0.0, "name": "d06e6058419bb1ed27b1d1a0a803a654", "is_disabled": 0, "rental_uris": {"android": "https://dc.lft.to/lastmile_qr_scan", "ios": "https://dc.lft.to/lastmile_qr_scan"}, "fusion_lon": 0.0, "lat": 38.92440466666667, "bike_id": "d06e6058419bb1ed27b1d1a0a803a654", "type": "electric_scooter", "is_reserved": 0, "lon": -77.03332616666667}, {"fusion_lat": 0.0, "name": "c37730c4d28cd7737fc1f42d38900d30", "is_disabled": 0, "rental_uris": {"android": "https://dc.lft.to/lastmile_qr_scan", "ios": "https://dc.lft.to/lastmile_qr_scan"}, "fusion_lon": 0.0, "lat": 38.91850816666667, "bike_id": "c37730c4d28cd7737fc1f42d38900d30", "type": "electric_scooter", "is_reserved": 0, "lon": -76.9653545}, {"fusion_lat": 0.0, "name": "39fa31db2ec85bd2bafcca0ed2063956", "is_disabled": 0, "rental_uris": {"android": "https://dc.lft.to/lastmile_qr_scan", "ios": "https://dc.lft.to/lastmile_qr_scan"}, "fusion_lon": 0.0, "lat": 38.89988866666667, "bike_id": "39fa31db2ec85bd2bafcca0ed2063956", "type": "electric_scooter", "is_reserved": 0, "lon": -76.98371533333334}, {"fusion_lat": 0.0, "name": "74a68a770fd7561f03c375565689f443", "is_disabled": 0, "rental_uris": {"android": "https://dc.lft.to/lastmile_qr_scan", "ios": "https://dc.lft.to/lastmile_qr_scan"}, "fusion_lon": 0.0, "lat": 38.9073065, "bike_id": "74a68a770fd7561f03c375565689f443", "type": "electric_scooter", "is_reserved": 0, "lon": -77.04146566666667}, {"fusion_lat": 0.0, "name": "96dbc553c1572bec37a7818482f3ae6e", "is_disabled": 0, "rental_uris": {"android": "https://dc.lft.to/lastmile_qr_scan", "ios": "https://dc.lft.to/lastmile_qr_scan"}, "fusion_lon": 0.0, "lat": 38.919404, "bike_id": "96dbc553c1572bec37a7818482f3ae6e", "type": "electric_scooter", "is_reserved": 0, "lon": -77.0303585}, {"fusion_lat": 0.0, "name": "86cbd51d55cf51219b83ca7bedeaa8a5", "is_disabled": 0, "rental_uris": {"android": "https://dc.lft.to/lastmile_qr_scan", "ios": "https://dc.lft.to/lastmile_qr_scan"}, "fusion_lon": 0.0, "lat": 38.92315216666667, "bike_id": "86cbd51d55cf51219b83ca7bedeaa8a5", "type": "electric_scooter", "is_reserved": 0, "lon": -77.0451805}, {"fusion_lat": 0.0, "name": "6988439b7ba9fd1afd28540c274c81f7", "is_disabled": 0, "rental_uris": {"android": "https://dc.lft.to/lastmile_qr_scan", "ios": "https://dc.lft.to/lastmile_qr_scan"}, "fusion_lon": 0.0, "lat": 38.9140575, "bike_id": "6988439b7ba9fd1afd28540c274c81f7", "type": "electric_scooter", "is_reserved": 0, "lon": -77.03223433333334}, {"fusion_lat": 0.0, "name": "dfa83664b640c60a6d09e4b0691a259b", "is_disabled": 0, "rental_uris": {"android": "https://dc.lft.to/lastmile_qr_scan", "ios": "https://dc.lft.to/lastmile_qr_scan"}, "fusion_lon": 0.0, "lat": 38.941454, "bike_id": "dfa83664b640c60a6d09e4b0691a259b", "type": "electric_scooter", "is_reserved": 0, "lon": -77.032743}, {"fusion_lat": 0.0, "name": "ab87f9a800326e29ac89874a9e0ceb8d", "is_disabled": 0, "rental_uris": {"android": "https://dc.lft.to/lastmile_qr_scan", "ios": "https://dc.lft.to/lastmile_qr_scan"}, "fusion_lon": 0.0, "lat": 38.92070733333333, "bike_id": "ab87f9a800326e29ac89874a9e0ceb8d", "type": "electric_scooter", "is_reserved": 0, "lon": -77.02226466666667}, {"fusion_lat": 0.0, "name": "de5a097c2d380535670d9658d5675d0c", "is_disabled": 0, "rental_uris": {"android": "https://dc.lft.to/lastmile_qr_scan", "ios": "https://dc.lft.to/lastmile_qr_scan"}, "fusion_lon": 0.0, "lat": 38.921434833333336, "bike_id": "de5a097c2d380535670d9658d5675d0c", "type": "electric_scooter", "is_reserved": 0, "lon": -77.03864916666667}, {"fusion_lat": 0.0, "name": "d6b650c7457ba262c106e528fb0c83c2", "is_disabled": 0, "rental_uris": {"android": "https://dc.lft.to/lastmile_qr_scan", "ios": "https://dc.lft.to/lastmile_qr_scan"}, "fusion_lon": 0.0, "lat": 38.91675383333333, "bike_id": "d6b650c7457ba262c106e528fb0c83c2", "type": "electric_scooter", "is_reserved": 0, "lon": -77.0237995}, {"fusion_lat": 0.0, "name": "9c83afe9b27f9b6dd1b87e652975d1fa", "is_disabled": 0, "rental_uris": {"android": "https://dc.lft.to/lastmile_qr_scan", "ios": "https://dc.lft.to/lastmile_qr_scan"}, "fusion_lon": 0.0, "lat": 38.887442, "bike_id": "9c83afe9b27f9b6dd1b87e652975d1fa", "type": "electric_scooter", "is_reserved": 0, "lon": -77.02568483333333}, {"fusion_lat": 0.0, "name": "98974195c81ac932726e81b2819792e7", "is_disabled": 0, "rental_uris": {"android": "https://dc.lft.to/lastmile_qr_scan", "ios": "https://dc.lft.to/lastmile_qr_scan"}, "fusion_lon": 0.0, "lat": 38.924868000000004, "bike_id": "98974195c81ac932726e81b2819792e7", "type": "electric_scooter", "is_reserved": 0, "lon": -77.021367}, {"fusion_lat": 0.0, "name": "ee68c79fcf05b3a8b586a5be609d983e", "is_disabled": 0, "rental_uris": {"android": "https://dc.lft.to/lastmile_qr_scan", "ios": "https://dc.lft.to/lastmile_qr_scan"}, "fusion_lon": 0.0, "lat": 38.934819166666664, "bike_id": "ee68c79fcf05b3a8b586a5be609d983e", "type": "electric_scooter", "is_reserved": 0, "lon": -77.072745}, {"fusion_lat": 0.0, "name": "55db8c4d7ab7dc6dee86d55326a91e33", "is_disabled": 0, "rental_uris": {"android": "https://dc.lft.to/lastmile_qr_scan", "ios": "https://dc.lft.to/lastmile_qr_scan"}, "fusion_lon": 0.0, "lat": 38.90560116666666, "bike_id": "55db8c4d7ab7dc6dee86d55326a91e33", "type": "electric_scooter", "is_reserved": 0, "lon": -77.02096516666667}, {"fusion_lat": 0.0, "name": "b4426ed802366285ca83d7e4374f1e79", "is_disabled": 0, "rental_uris": {"android": "https://dc.lft.to/lastmile_qr_scan", "ios": "https://dc.lft.to/lastmile_qr_scan"}, "fusion_lon": 0.0, "lat": 38.87182033333333, "bike_id": "b4426ed802366285ca83d7e4374f1e79", "type": "electric_scooter", "is_reserved": 0, "lon": -77.00572083333333}, {"fusion_lat": 0.0, "name": "cb17d501767911eeee21e3add69167bc", "is_disabled": 0, "rental_uris": {"android": "https://dc.lft.to/lastmile_qr_scan", "ios": "https://dc.lft.to/lastmile_qr_scan"}, "fusion_lon": 0.0, "lat": 38.872109333333334, "bike_id": "cb17d501767911eeee21e3add69167bc", "type": "electric_scooter", "is_reserved": 0, "lon": -77.0176}, {"fusion_lat": 0.0, "name": "7582d71cc586906e91641ee818ced195", "is_disabled": 0, "rental_uris": {"android": "https://dc.lft.to/lastmile_qr_scan", "ios": "https://dc.lft.to/lastmile_qr_scan"}, "fusion_lon": 0.0, "lat": 38.8363105, "bike_id": "7582d71cc586906e91641ee818ced195", "type": "electric_bike", "is_reserved": 0, "lon": -77.06946916666666}, {"fusion_lat": 0.0, "name": "bce128d302221cbef27ff95a9d820b1d", "is_disabled": 0, "rental_uris": {"android": "https://dc.lft.to/lastmile_qr_scan", "ios": "https://dc.lft.to/lastmile_qr_scan"}, "fusion_lon": 0.0, "lat": 38.906851333333336, "bike_id": "bce128d302221cbef27ff95a9d820b1d", "type": "electric_scooter", "is_reserved": 0, "lon": -76.951939}, {"fusion_lat": 0.0, "name": "2301fc1d17595af3cfdf28468ec5826d", "is_disabled": 0, "rental_uris": {"android": "https://dc.lft.to/lastmile_qr_scan", "ios": "https://dc.lft.to/lastmile_qr_scan"}, "fusion_lon": 0.0, "lat": 38.90713183333333, "bike_id": "2301fc1d17595af3cfdf28468ec5826d", "type": "electric_scooter", "is_reserved": 0, "lon": -77.02716883333333}, {"fusion_lat": 0.0, "name": "8d92f8af12821ed2caf9fa83df2fc3f9", "is_disabled": 0, "rental_uris": {"android": "https://dc.lft.to/lastmile_qr_scan", "ios": "https://dc.lft.to/lastmile_qr_scan"}, "fusion_lon": 0.0, "lat": 38.89711633333334, "bike_id": "8d92f8af12821ed2caf9fa83df2fc3f9", "type": "electric_scooter", "is_reserved": 0, "lon": -77.0472985}, {"fusion_lat": 0.0, "name": "79ab8591fc4c63f864656e67aaeb13d9", "is_disabled": 0, "rental_uris": {"android": "https://dc.lft.to/lastmile_qr_scan", "ios": "https://dc.lft.to/lastmile_qr_scan"}, "fusion_lon": 0.0, "lat": 38.921216333333334, "bike_id": "79ab8591fc4c63f864656e67aaeb13d9", "type": "electric_scooter", "is_reserved": 0, "lon": -77.04224516666666},