{"data": {"bikes": [{"rental_uris": {"android": "https://dc.lft.to/lastmile_qr_scan", "ios": "https://dc.lft.to/lastmile_qr_scan"}, "is_reserved": 0, "is_disabled": 0, "name": "cd9d17124cd784e635628934a20e88c9", "bike_id": "cd9d17124cd784e635628934a20e88c9", "fusion_lat": 0.0, "lon": -77.00064616666667, "type": "electric_bike", "fusion_lon": 0.0, "lat": 38.89821216666667}, {"rental_uris": {"android": "https://dc.lft.to/lastmile_qr_scan", "ios": "https://dc.lft.to/lastmile_qr_scan"}, "is_reserved": 0, "is_disabled": 0, "name": "41c1be3df817818e1093a1d7bd18a17b", "bike_id": "41c1be3df817818e1093a1d7bd18a17b", "fusion_lat": 0.0, "lon": -77.0306865, "type": "electric_scooter", "fusion_lon": 0.0, "lat": 38.9031925}, {"rental_uris": {"android": "https://dc.lft.to/lastmile_qr_scan", "ios": "https://dc.lft.to/lastmile_qr_scan"}, "is_reserved": 0, "is_disabled": 0, "name": "5826833cf464595580ac8b32888c5674", "bike_id": "5826833cf464595580ac8b32888c5674", "fusion_lat": 0.0, "lon": -77.04191266666666, "type": "electric_scooter", "fusion_lon": 0.0, "lat": 38.92057116666667}, {"rental_uris": {"android": "https://dc.lft.to/lastmile_qr_scan", "ios": "https://dc.lft.to/lastmile_qr_scan"}, "is_reserved": 0, "is_disabled": 0, "name": "874cfd435d7d0c9200e85fb5508bc515", "bike_id": "874cfd435d7d0c9200e85fb5508bc515", "fusion_lat": 0.0, "lon": -77.05322416666667, "type": "electric_scooter", "fusion_lon": 0.0, "lat": 38.91556533333333}, {"rental_uris": {"android": "https://dc.lft.to/lastmile_qr_scan", "ios": "https://dc.lft.to/lastmile_qr_scan"}, "is_reserved": 0, "is_disabled": 0, "name": "fe12b7ee8c9bfcb150def82564bc3449", "bike_id": "fe12b7ee8c9bfcb150def82564bc3449", "fusion_lat": 0.0, "lon": -77.02192583333333, "type": "electric_scooter", "fusion_lon": 0.0, "lat": 38.90025283333333}, {"rental_uris": {"android": "https://dc.lft.to/lastmile_qr_scan", "ios": "https://dc.lft.to/lastmile_qr_scan"}, "is_reserved": 0, "is_disabled": 0, "name": "ae9ed6817554cec99b9baa53d4e7bd65", "bike_id": "ae9ed6817554cec99b9baa53d4e7bd65", "fusion_lat": 0.0, "lon": -77.00571766666667, "type": "electric_scooter", "fusion_lon": 0.0, "lat": 38.885124166666664}, {"rental_uris": {"android": "https://dc.lft.to/lastmile_qr_scan", "ios": "https://dc.lft.to/lastmile_qr_scan"}, "is_reserved": 0, "is_disabled": 0, "name": "6484abc9292ad1a95b9ff907b6900dee", "bike_id": "6484abc9292ad1a95b9ff907b6900dee", "fusion_lat": 0.0, "lon": -77.031056, "type": "electric_scooter", "fusion_lon": 0.0, "lat": 38.9331365}, {"rental_uris": {"android": "https://dc.lft.to/lastmile_qr_scan", "ios": "https://dc.lft.to/lastmile_qr_scan"}, "is_reserved": 0, "is_disabled": 0, "name": "93909f4930b8e646add24e5ee43ef63b", "bike_id": "93909f4930b8e646add24e5ee43ef63b", "fusion_lat": 0.0, "lon": -77.022128, "type": "electric_scooter", "fusion_lon": 0.0, "lat": 38.91790816666666}, {"rental_uris": {"android": "https://dc.lft.to/lastmile_qr_scan", "ios": "https://dc.lft.to/lastmile_qr_scan"}, "is_reserved": 0, "is_disabled": 0, "name": "400c57b83d65a25f2ef732ce78f481d3", "bike_id": "400c57b83d65a25f2ef732ce78f481d3", "fusion_lat": 0.0, "lon": -77.031649, "type": "electric_scooter", "fusion_lon": 0.0, "lat": 38.89221366666666}, {"rental_uris": {"android": "https://dc.lft.to/lastmile_qr_scan", "ios": "https://dc.lft.to/lastmile_qr_scan"}, "is_reserved": 0, "is_disabled": 0, "name": "f7f7589274c3a0bdd0bbbcfa270a03ee", "bike_id": "f7f7589274c3a0bdd0bbbcfa270a03ee", "fusion_lat": 0.0, "lon": -77.019084, "type": "electric_scooter", "fusion_lon": 0.0, "lat": 38.9372715}, {"rental_uris": {"android": "https://dc.lft.to/lastmile_qr_scan", "ios": "https://dc.lft.to/lastmile_qr_scan"}, "is_reserved": 0, "is_disabled": 0, "name": "6980d8f6e6a7b638c2367e78016aeaae", "bike_id": "6980d8f6e6a7b638c2367e78016aeaae", "fusion_lat": 0.0, "lon": -77.04425433333333, "type": "electric_scooter", "fusion_lon": 0.0, "lat": 38.904066666666665}, {"rental_uris": {"android": "https://dc.lft.to/lastmile_qr_scan", "ios": "https://dc.lft.to/lastmile_qr_scan"}, "is_reserved": 0, "is_disabled": 0, "name": "873509d6b36b47f4ee01c18c13f1e784", "bike_id": "873509d6b36b47f4ee01c18c13f1e784", "fusion_lat": 0.0, "lon": -77.02511783333334, "type": "electric_scooter", "fusion_lon": 0.0, "lat": 38.917627333333336}, {"rental_uris": {"android": "https://dc.lft.to/lastmile_qr_scan", "ios": "https://dc.lft.to/lastmile_qr_scan"}, "is_reserved": 0, "is_disabled": 0, "name": "2510cb4697227212a212a178d847219e", "bike_id": "2510cb4697227212a212a178d847219e", "fusion_lat": 0.0, "lon": -77.0350785, "type": "electric_scooter", "fusion_lon": 0.0, "lat": 38.9214465}, {"rental_uris": {"android": "https://dc.lft.to/lastmile_qr_scan", "ios": "https://dc.lft.to/lastmile_qr_scan"}, "is_reserved": 0, "is_disabled": 0, "name": "369ca56defd2f942f1fe69abe481d3b3", "bike_id": "369ca56defd2f942f1fe69abe481d3b3", "fusion_lat": 0.0, "lon": -77.029762, "type": "electric_scooter", "fusion_lon": 0.0, "lat": 38.89772583333333}, {"rental_uris": {"android": "https://dc.lft.to/lastmile_qr_scan", "ios": "https://dc.lft.to/lastmile_qr_scan"}, "is_reserved": 0, "is_disabled": 0, "name": "bff3f971aa71edd29b36f8f7185a51ad", "bike_id": "bff3f971aa71edd29b36f8f7185a51ad", "fusion_lat": 0.0, "lon": -77.0320385, "type": "electric_scooter", "fusion_lon": 0.0, "lat": 38.914755666666665}, {"rental_uris": {"android": "https://dc.lft.to/lastmile_qr_scan", "ios": "https://dc.lft.to/lastmile_qr_scan"}, "is_reserved": 0, "is_disabled": 0, "name": "cc0989eab0d0d9d4f0ef70acc2d82cc8", "bike_id": "cc0989eab0d0d9d4f0ef70acc2d82cc8", "fusion_lat": 0.0, "lon": -77.02472133333333, "type": "electric_scooter", "fusion_lon": 0.0, "lat": 38.918180666666665}, {"rental_uris": {"android": "https://dc.lft.to/lastmile_qr_scan", "ios": "https://dc.lft.to/lastmile_qr_scan"}, "is_reserved": 0, "is_disabled": 0, "name": "b437db7e8b51efec32b3f3618bafe85a", "bike_id": "b437db7e8b51efec32b3f3618bafe85a", "fusion_lat": 0.0, "lon": -77.04586166666667, "type": "electric_scooter", "fusion_lon": 0.0, "lat": 38.914329}, {"rental_uris": {"android": "https://dc.lft.to/lastmile_qr_scan", "ios": "https://dc.lft.to/lastmile_qr_scan"}, "is_reserved": 0, "is_disabled": 0, "name": "54a1ac7084aaebbeef302e56d32f8cdf", "bike_id": "54a1ac7084aaebbeef302e56d32f8cdf", "fusion_lat": 0.0, "lon": -76.95827066666666, "type": "electric_bike", "fusion_lon": 0.0, "lat": 38.850693}, {"rental_uris": {"android": "https://dc.lft.to/lastmile_qr_scan", "ios": "https://dc.lft.to/lastmile_qr_scan"}, "is_reserved": 0, "is_disabled": 0, "name": "0fb88cbecc11d5ac7682a07072bb77cf", "bike_id": "0fb88cbecc11d5ac7682a07072bb77cf", "fusion_lat": 0.0, "lon": -77.02586766666667, "type": "electric_scooter", "fusion_lon": 0.0, "lat": 38.91718983333333}, {"rental_uris": {"android": "https://dc.lft.to/lastmile_qr_scan", "ios": "https://dc.lft.to/lastmile_qr_scan"}, "is_reserved": 0, "is_disabled": 0, "name": "f453ffa9175d956383bf2aea709ea7fb", "bike_id": "f453ffa9175d956383bf2aea709ea7fb", "fusion_lat": 0.0, "lon": -76.98794566666666, "type": "electric_scooter", "fusion_lon": 0.0, "lat": 38.900348}, {"rental_uris": {"android": "https://dc.lft.to/lastmile_qr_scan", "ios": "https://dc.lft.to/lastmile_qr_scan"}, "is_reserved": 0, "is_disabled": 0, "name": "18f7a16b980967c27360e565465045c5", "bike_id": "18f7a16b980967c27360e565465045c5", "fusion_lat": 0.0, "lon": -77.021612, "type": "electric_scooter", "fusion_lon": 0.0, "lat": 38.926144}, {"rental_uris": {"android": "https://dc.lft.to/lastmile_qr_scan", "ios": "https://dc.lft.to/lastmile_qr_scan"}, "is_reserved": 0, "is_disabled": 0, "name": "4f7a4075f8dc2e6999f2c34bf7dba222", "bike_id": "4f7a4075f8dc2e6999f2c34bf7dba222", "fusion_lat": 0.0, "lon": -77.03185116666667, "type": "electric_scooter", "fusion_lon": 0.0, "lat": 38.9192655}, {"rental_uris": {"android": "https://dc.lft.to/lastmile_qr_scan", "ios": "https://dc.lft.to/lastmile_qr_scan"}, "is_reserved": 0, "is_disabled": 0, "name": "f4232823650f4b0481d0426a9bf3bbd1", "bike_id": "f4232823650f4b0481d0426a9bf3bbd1", "fusion_lat": 0.0, "lon": -77.02978366666666, "type": "electric_scooter", "fusion_lon": 0.0, "lat": 38.89632116666667}, {"rental_uris": {"android": "https://dc.lft.to/lastmile_qr_scan", "ios": "https://dc.lft.to/lastmile_qr_scan"}, "is_reserved": 0, "is_disabled": 0, "name": "9007ca005866a201c051b8d0df3a0f64", "bike_id": "9007ca005866a201c051b8d0df3a0f64", "fusion_lat": 0.0, "lon": -76.92361683333333, "type": "electric_scooter", "fusion_lon": 0.0, "lat": 38.892497166666665}, {"rental_uris": {"android": "https://dc.lft.to/lastmile_qr_scan", "ios": "https://dc.lft.to/lastmile_qr_scan"}, "is_reserved": 0, "is_disabled": 0, "name": "08d11cc48195aa84224a53dcef524fb5", "bike_id": "08d11cc48195aa84224a53dcef524fb5", "fusion_lat": 0.0, "lon": -77.05116216666667, "type": "electric_scooter", "fusion_lon": 0.0, "lat": 38.92345616666667}, {"rental_uris": {"android": "https://dc.lft.to/lastmile_qr_scan", "ios": "https://dc.lft.to/lastmile_qr_scan"}, "is_reserved": 0, "is_disabled": 0, "name": "2a067619460d8c109c6b447bcd92c258", "bike_id": "2a067619460d8c109c6b447bcd92c258", "fusion_lat": 0.0, "lon": -77.02319066666666, "type": "electric_scooter", "fusion_lon": 0.0, "lat": 38.878827666666666}, {"rental_uris": {"android": "https://dc.lft.to/lastmile_qr_scan", "ios": "https://dc.lft.to/lastmile_qr_scan"}, "is_reserved": 0, "is_disabled": 0, "name": "7d2c3bd4008ff1fbf1ad0d811ad7a0b9", "bike_id": "7d2c3bd4008ff1fbf1ad0d811ad7a0b9", "fusion_lat": 0.0, "lon": -77.02781666666667, "type": "electric_scooter", "fusion_lon": 0.0, "lat": 38.92763083333333}, {"rental_uris": {"android": "https://dc.lft.to/lastmile_qr_scan", "ios": "https://dc.lft.to/lastmile_qr_scan"}, "is_reserved": 0, "is_disabled": 0, "name": "f4538eae276cd444f280ccb4e76cd5bb", "bike_id": "f4538eae276cd444f280ccb4e76cd5bb", "fusion_lat": 0.0, "lon": -77.04312, "type": "electric_scooter", "fusion_lon": 0.0, "lat": 38.91883}, {"rental_uris": {"android": "https://dc.lft.to/lastmile_qr_scan", "ios": "https://dc.lft.to/lastmile_qr_scan"}, "is_reserved": 0, "is_disabled": 0, "name": "2ea4a3216592c38381497689298716e2", "bike_id": "2ea4a3216592c38381497689298716e2", "fusion_lat": 0.0, "lon": -77.04847283333334, "type": "electric_scooter", "fusion_lon": 0.0, "lat": 38.900531666666666}, {"rental_uris": {"android": "https://dc.lft.to/lastmile_qr_scan", "ios": "https://dc.lft.to/lastmile_qr_scan"}, "is_reserved": 0, "is_disabled": 0, "name": "c5f16b549994d3b5009c445d57b4031a", "bike_id": "c5f16b549994d3b5009c445d57b4031a", "fusion_lat": 0.0, "lon": -77.04553233333333, "type": "electric_scooter", "fusion_lon": 0.0, "lat": 38.913650833333335}, {"rental_uris": {"android": "https://dc.lft.to/lastmile_qr_scan", "ios": "https://dc.lft.to/lastmile_qr_scan"}, "is_reserved": 0, "is_disabled": 0, "name": "e638145b4b547983a4bad016a83acb59", "bike_id": "e638145b4b547983a4bad016a83acb59", "fusion_lat": 0.0, "lon": -77.0219275, "type": "electric_scooter", "fusion_lon": 0.0, "lat": 38.945084333333334}, {"rental_uris": {"android": "https://dc.lft.to/lastmile_qr_scan", "ios": "https://dc.lft.to/lastmile_qr_scan"}, "is_reserved": 0, "is_disabled": 0, "name": "04b381dcbb5a8327d8f2de8f0065ea14", "bike_id": "04b381dcbb5a8327d8f2de8f0065ea14", "fusion_lat": 0.0, "lon": -77.04175966666666, "type": "electric_scooter", "fusion_lon": 0.0, "lat": 38.917313}, {"rental_uris": {"android": "https://dc.lft.to/lastmile_qr_scan", "ios": "https://dc.lft.to/lastmile_qr_scan"}, "is_reserved": 0, "is_disabled": 0, "name": "eff7939d3361c2806ee17d314c18533e", "bike_id": "eff7939d3361c2806ee17d314c18533e", "fusion_lat": 0.0, "lon": -77.03991316666666, "type": "electric_scooter", "fusion_lon": 0.0, "lat": 38.93405933333333}, {"rental_uris": {"android": "https://dc.lft.to/lastmile_qr_scan", "ios": "https://dc.lft.to/lastmile_qr_scan"}, "is_reserved": 0, "is_disabled": 0, "name": "da2306b082a20d6102ebdf13ca04f12a", "bike_id": "da2306b082a20d6102ebdf13ca04f12a", "fusion_lat": 0.0, "lon": -77.029409, "type": "electric_scooter", "fusion_lon": 0.0, "lat": 38.8974775}, {"rental_uris": {"android": "https://dc.lft.to/lastmile_qr_scan", "ios": "https://dc.lft.to/lastmile_qr_scan"}, "is_reserved": 0, "is_disabled": 0, "name": "618380f78ec9653c4df16a1c298b6e6a", "bike_id": "618380f78ec9653c4df16a1c298b6e6a", "fusion_lat": 0.0, "lon": -77.01819216666667, "type": "electric_scooter", "fusion_lon": 0.0, "lat": 38.921489666666666}, {"rental_uris": {"android": "https://dc.lft.to/lastmile_qr_scan", "ios": "https://dc.lft.to/lastmile_qr_scan"}, "is_reserved": 0, "is_disabled": 0, "name": "e8f4023ea4fd065a2f683cd1b27c2afc", "bike_id": "e8f4023ea4fd065a2f683cd1b27c2afc", "fusion_lat": 0.0, "lon": -77.00332033333333, "type": "electric_scooter", "fusion_lon": 0.0, "lat": 38.8936155}, {"rental_uris": {"android": "https://dc.lft.to/lastmile_qr_scan", "ios": "https://dc.lft.to/lastmile_qr_scan"}, "is_reserved": 0, "is_disabled": 0, "name": "81370e70da06cd7dfbd9ba67effeb7ae", "bike_id": "81370e70da06cd7dfbd9ba67effeb7ae", "fusion_lat": 0.0, "lon": -76.980584, "type": "electric_bike", "fusion_lon": 0.0, "lat": 38.9725615}, {"rental_uris": {"android": "https://dc.lft.to/lastmile_qr_scan", "ios": "https://dc.lft.to/lastmile_qr_scan"}, "is_reserved": 0, "is_disabled": 0, "name": "57fa8e838a6813c7e5052323df060dac", "bike_id": "57fa8e838a6813c7e5052323df060dac", "fusion_lat": 0.0, "lon": -77.04365833333334, "type": "electric_scooter", "fusion_lon": 0.0, "lat": 38.90140783333333}, {"rental_uris": {"android": "https://dc.lft.to/lastmile_qr_scan", "ios": "https://dc.lft.to/lastmile_qr_scan"}, "is_reserved": 0, "is_disabled": 0, "name": "6e927eb8c42dc1e8a06036a447645fea", "bike_id": "6e927eb8c42dc1e8a06036a447645fea", "fusion_lat": 0.0, "lon": -77.024766, "type": "electric_scooter", "fusion_lon": 0.0, "lat": 38.9181675}, {"rental_uris": {"android": "https://dc.lft.to/lastmile_qr_scan", "ios": "https://dc.lft.to/lastmile_qr_scan"}, "is_reserved": 0, "is_disabled": 0, "name": "2182331a4098be01670960fa12d36129", "bike_id": "2182331a4098be01670960fa12d36129", "fusion_lat": 0.0, "lon": -77.018807, "type": "electric_scooter", "fusion_lon": 0.0, "lat": 38.897545666666666}, {"rental_uris": {"android": "https://dc.lft.to/lastmile_qr_scan", "ios": "https://dc.lft.to/lastmile_qr_scan"}, "is_reserved": 0, "is_disabled": 0, "name": "e51580e670b54ac249643d6679e8a2e4", "bike_id": "e51580e670b54ac249643d6679e8a2e4", "fusion_lat": 0.0, "lon": -77.043516, "type": "electric_scooter", "fusion_lon": 0.0, "lat": 38.910988}, {"rental_uris": {"android": "https://dc.lft.to/lastmile_qr_scan", "ios": "https://dc.lft.to/lastmile_qr_scan"}, "is_reserved": 0, "is_disabled": 0, "name": "11dfad553968243ccdf415349cd52262", "bike_id": "11dfad553968243ccdf415349cd52262", "fusion_lat": 0.0, "lon": -77.03972233333333, "type": "electric_scooter", "fusion_lon": 0.0, "lat": 38.90134966666667}, {"rental_uris": {"android": "https://dc.lft.to/lastmile_qr_scan", "ios": "https://dc.lft.to/lastmile_qr_scan"}, "is_reserved": 0, "is_disabled": 0, "name": "09d43843a5f8ecd6bd240c818e997a57", "bike_id": "09d43843a5f8ecd6bd240c818e997a57", "fusion_lat": 0.0, "lon": -77.023725, "type": "electric_scooter", "fusion_lon": 0.0, "lat": 38.8922325}, {"rental_uris": {"android": "https://dc.lft.to/lastmile_qr_scan", "ios": "https://dc.lft.to/lastmile_qr_scan"}, "is_reserved": 0, "is_disabled": 0, "name": "b8272b1ef1a86cf9e6a57e08c7665f82", "bike_id": "b8272b1ef1a86cf9e6a57e08c7665f82", "fusion_lat": 0.0, "lon": -77.0327425, "type": "electric_scooter", "fusion_lon": 0.0, "lat": 38.898574333333336}, {"rental_uris": {"android": "https://dc.lft.to/lastmile_qr_scan", "ios": "https://dc.lft.to/lastmile_qr_scan"}, "is_reserved": 0, "is_disabled": 0, "name": "1479534b8519c8974d55269d114d98cd", "bike_id": "1479534b8519c8974d55269d114d98cd", "fusion_lat": 0.0, "lon": -77.04987516666667, "type": "electric_scooter", "fusion_lon": 0.0, "lat": 38.897354666666665}, {"rental_uris": {"android": "https://dc.lft.to/lastmile_qr_scan", "ios": "https://dc.lft.to/lastmile_qr_scan"}, "is_reserved": 0, "is_disabled": 0, "name": "5b36a4619de160ce5d6fbe50e18b5691", "bike_id": "5b36a4619de160ce5d6fbe50e18b5691", "fusion_lat": 0.0, "lon": -77.00642116666667, "type": "electric_scooter", "fusion_lon": 0.0, "lat": 38.90586066666667}, {"rental_uris": {"android": "https://dc.lft.to/lastmile_qr_scan", "ios": "https://dc.lft.to/lastmile_qr_scan"}, "is_reserved": 0, "is_disabled": 0, "name": "c06401c305aa6f71b705e18b4e890560", "bike_id": "c06401c305aa6f71b705e18b4e890560", "fusion_lat": 0.0, "lon": -77.04625466666667, "type": "electric_scooter", "fusion_lon": 0.0, "lat": 38.9096845}, {"rental_uris": {"android": "https://dc.lft.to/lastmile_qr_scan", "ios": "https://dc.lft.to/lastmile_qr_scan"}, "is_reserved": 0, "is_disabled": 0, "name": "bfda5a6f59d900c3ee3118df496fc13d", "bike_id": "bfda5a6f59d900c3ee3118df496fc13d", "fusion_lat": 0.0, "lon": -77.020316, "type": "electric_scooter", "fusion_lon": 0.0, "lat": 38.92213533333333}, {"rental_uris": {"android": "https://dc.lft.to/lastmile_qr_scan", "ios": "https://dc.lft.to/lastmile_qr_scan"}, "is_reserved": 0, "is_disabled": 0, "name": "ea4ec0ef0b2b4f46f8266fe0d0b1f853", "bike_id": "ea4ec0ef0b2b4f46f8266fe0d0b1f853", "fusion_lat": 0.0, "lon": -77.04239266666667, "type": "electric_scooter", "fusion_lon": 0.0, "lat": 38.9221215}, {"rental_uris": {"android": "https://dc.lft.to/lastmile_qr_scan", "ios": "https://dc.lft.to/lastmile_qr_scan"}, "is_reserved": 0, "is_disabled": 0, "name": "d6bcb9bba223595ab4acb829361ab853", "bike_id": "d6bcb9bba223595ab4acb829361ab853", "fusion_lat": 0.0, "lon": -77.0213075, "type": "electric_scooter", "fusion_lon": 0.0, "lat": 38.92417183333333}, {"rental_uris": {"android": "https://dc.lft.to/lastmile_qr_scan", "ios": "https://dc.lft.to/lastmile_qr_scan"}, "is_reserved": 0, "is_disabled": 0, "name": "b2a0c7add057f8a3d659c37ca8e1253c", "bike_id": "b2a0c7add057f8a3d659c37ca8e1253c", "fusion_lat": 0.0, "lon": -77.043471, "type": "electric_scooter", "fusion_lon": 0.0, "lat": 38.910573666666664}, {"rental_uris": {"android": "https://dc.lft.to/lastmile_qr_scan", "ios": "https://dc.lft.to/lastmile_qr_scan"}, "is_reserved": 0, "is_disabled": 0, "name": "dfc737e411fcd6169270a9bb6b9c606a", "bike_id": "dfc737e411fcd6169270a9bb6b9c606a", "fusion_lat": 0.0, "lon": -77.04992583333333, "type": "electric_scooter", "fusion_lon": 0.0, "lat": 38.89839516666667}, {"rental_uris": {"android": "https://dc.lft.to/lastmile_qr_scan", "ios": "https://dc.lft.to/lastmile_qr_scan"}, "is_reserved": 0, "is_disabled": 0, "name": "fd8ecf903ef99e03e3e1e19350d9547a", "bike_id": "fd8ecf903ef99e03e3e1e19350d9547a", "fusion_lat": 0.0, "lon": -77.039577, "type": "electric_scooter", "fusion_lon": 0.0, "lat": 38.901430166666664}, {"rental_uris": {"android": "https://dc.lft.to/lastmile_qr_scan", "ios": "https://dc.lft.to/lastmile_qr_scan"}, "is_reserved": 0, "is_disabled": 0, "name": "93e4f1064339685d3b7a1088e96437c5", "bike_id": "93e4f1064339685d3b7a1088e96437c5", "fusion_lat": 0.0, "lon": -76.983701, "type": "electric_scooter", "fusion_lon": 0.0, "lat": 38.92227666666667}, {"rental_uris": {"android": "https://dc.lft.to/lastmile_qr_scan", "ios": "https://dc.lft.to/lastmile_qr_scan"}, "is_reserved": 0, "is_disabled": 0, "name": "74560f2f9060c5e09ec6015db213e605", "bike_id": "74560f2f9060c5e09ec6015db213e605", "fusion_lat": 0.0, "lon": -77.02724233333333, "type": "electric_scooter", "fusion_lon": 0.0, "lat": 38.9277735}, {"rental_uris": {"android": "https://dc.lft.to/lastmile_qr_scan", "ios": "https://dc.lft.to/lastmile_qr_scan"}, "is_reserved": 0, "is_disabled": 0, "name": "9b26487bbfd8036bb0d79954a28e98e2", "bike_id": "9b26487bbfd8036bb0d79954a28e98e2", "fusion_lat": 0.0, "lon": -76.91724783333333, "type": "electric_bike", "fusion_lon": 0.0, "lat": 38.88028833333333}, {"rental_uris": {"android": "https://dc.lft.to/lastmile_qr_scan", "ios": "https://dc.lft.to/lastmile_qr_scan"}, "is_reserved": 0, "is_disabled": 0, "name": "ee0f3d374866f997e01a610b7d81922a", "bike_id": "ee0f3d374866f997e01a610b7d81922a", "fusion_lat": 0.0, "lon": -77.05053533333333, "type": "electric_scooter", "fusion_lon": 0.0, "lat": 38.9008775}, {"rental_uris": {"android": "https://dc.lft.to/lastmile_qr_scan", "ios": "https://dc.lft.to/lastmile_qr_scan"}, "is_reserved": 0, "is_disabled": 0, "name": "7edb11ce49e0321206f7b9b12e3a4bba", "bike_id": "7edb11ce49e0321206f7b9b12e3a4bba", "fusion_lat": 0.0, "lon": -77.02336916666667, "type": "electric_scooter", "fusion_lon": 0.0, "lat": 38.9223345}, {"rental_uris": {"android": "https://dc.lft.to/lastmile_qr_scan", "ios": "https://dc.lft.to/lastmile_qr_scan"}, "is_reserved": 0, "is_disabled": 0, "name": "5f92fd47dc37574002b0e8521aa515c7", "bike_id": "5f92fd47dc37574002b0e8521aa515c7", "fusion_lat": 0.0, "lon": -77.0333845, "type": "electric_bike", "fusion_lon": 0.0, "lat": 38.89904216666667}, {"rental_uris": {"android": "https://dc.lft.to/lastmile_qr_scan", "ios": "https://dc.lft.to/lastmile_qr_scan"}, "is_reserved": 0, "is_disabled": 0, "name": "9bc2081c69c785acb7f36decda53f01a", "bike_id": "9bc2081c69c785acb7f36decda53f01a", "fusion_lat": 0.0, "lon": -77.03294416666667, "type": "electric_scooter", "fusion_lon": 0.0, "lat": 38.95619116666667}, {"rental_uris": {"android": "https://dc.lft.to/lastmile_qr_scan", "ios": "https://dc.lft.to/lastmile_qr_scan"}, "is_reserved": 0, "is_disabled": 0, "name": "85b1067dac92e0fe62e61dc901d877e5", "bike_id": "85b1067dac92e0fe62e61dc901d877e5", "fusion_lat": 0.0, "lon": -77.032075, "type": "electric_scooter", "fusion_lon": 0.0, "lat": 38.892411}, {"rental_uris": {"android": "https://dc.lft.to/lastmile_qr_scan", "ios": "https://dc.lft.to/lastmile_qr_scan"}, "is_reserved": 0, "is_disabled": 0, "name": "539a9554d6ac82907d23202993cb1d0d", "bike_id": "539a9554d6ac82907d23202993cb1d0d", "fusion_lat": 0.0, "lon": -77.0264165, "type": "electric_scooter", "fusion_lon": 0.0, "lat": 38.95189}, {"rental_uris": {"android": "https://dc.lft.to/lastmile_qr_scan", "ios": "https://dc.lft.to/lastmile_qr_scan"}, "is_reserved": 0, "is_disabled": 0, "name": "dda206be25150aa78d7499ed71b09a16", "bike_id": "dda206be25150aa78d7499ed71b09a16", "fusion_lat": 0.0, "lon": -77.10211816666667, "type": "electric_bike", "fusion_lon": 0.0, "lat": 38.920009}, {"rental_uris": {"android": "https://dc.lft.to/lastmile_qr_scan", "ios": "https://dc.lft.to/lastmile_qr_scan"}, "is_reserved": 0, "is_disabled": 0, "name": "6514c87d35c12526a2722efee2605c31", "bike_id": "6514c87d35c12526a2722efee2605c31", "fusion_lat": 0.0, "lon": -77.03088583333333, "type": "electric_scooter", "fusion_lon": 0.0, "lat": 38.91635083333333}, {"rental_uris": {"android": "https://dc.lft.to/lastmile_qr_scan", "ios": "https://dc.lft.to/lastmile_qr_scan"}, "is_reserved": 0, "is_disabled": 0, "name": "1b0d25c2a231a7e37d3d99408c4fc8a0", "bike_id": "1b0d25c2a231a7e37d3d99408c4fc8a0", "fusion_lat": 0.0, "lon": -77.00682133333333, "type": "electric_scooter", "fusion_lon": 0.0, "lat": 38.90041766666667}, {"rental_uris": {"android": "https://dc.lft.to/lastmile_qr_scan", "ios": "https://dc.lft.to/lastmile_qr_scan"}, "is_reserved": 0, "is_disabled": 0, "name": "49a8beae04dbb35e5f33ec96fb77d2d5", "bike_id": "49a8beae04dbb35e5f33ec96fb77d2d5", "fusion_lat": 0.0, "lon": -77.03066783333334, "type": "electric_scooter", "fusion_lon": 0.0, "lat": 38.9225165}, {"rental_uris": {"android": "https://dc.lft.to/lastmile_qr_scan", "ios": "https://dc.lft.to/lastmile_qr_scan"}, "is_reserved": 0, "is_disabled": 0, "name": "6cbd67ed264863ddc6df16e0324d1680", "bike_id": "6cbd67ed264863ddc6df16e0324d1680", "fusion_lat": 0.0, "lon": -77.0468655, "type": "electric_scooter", "fusion_lon": 0.0, "lat": 38.8961135}, {"rental_uris": {"android": "https://dc.lft.to/lastmile_qr_scan", "ios": "https://dc.lft.to/lastmile_qr_scan"}, "is_reserved": 0, "is_disabled": 0, "name": "7e38ce452d8ece247d352fb2262fd7fe", "bike_id": "7e38ce452d8ece247d352fb2262fd7fe", "fusion_lat": 0.0, "lon": -77.0056845, "type": "electric_scooter", "fusion_lon": 0.0, "lat": 38.87661166666667}, {"rental_uris": {"android": "https://dc.lft.to/lastmile_qr_scan", "ios": "https://dc.lft.to/lastmile_qr_scan"}, "is_reserved": 0, "is_disabled": 0, "name": "86d69ad40fd47de2c91bfe60d98f8383", "bike_id": "86d69ad40fd47de2c91bfe60d98f8383", "fusion_lat": 0.0, "lon": -77.03830366666666, "type": "electric_scooter", "fusion_lon": 0.0, "lat": 38.90326366666667}, {"rental_uris": {"android": "https://dc.lft.to/lastmile_qr_scan", "ios": "https://dc.lft.to/lastmile_qr_scan"}, "is_reserved": 0, "is_disabled": 0, "name": "24895d2c91b8325ba413d2663a7517d4", "bike_id": "24895d2c91b8325ba413d2663a7517d4", "fusion_lat": 0.0, "lon": -77.04125983333333, "type": "electric_bike", "fusion_lon": 0.0, "lat": 38.899238833333335}, {"rental_uris": {"android": "https://dc.lft.to/lastmile_qr_scan", "ios": "https://dc.lft.to/lastmile_qr_scan"}, "is_reserved": 0, "is_disabled": 0, "name": "740fe9ae893344cbe97599b8537715ff", "bike_id": "740fe9ae893344cbe97599b8537715ff", "fusion_lat": 0.0, "lon": -76.98689633333333, "type": "electric_bike", "fusion_lon": 0.0, "lat": 38.944731166666664}, {"rental_uris": {"android": "https://dc.lft.to/lastmile_qr_scan", "ios": "https://dc.lft.to/lastmile_qr_scan"}, "is_reserved": 0, "is_disabled": 0, "name": "3d2a20d505d463a99b9e6d34476fed65", "bike_id": "3d2a20d505d463a99b9e6d34476fed65", "fusion_lat": 0.0, "lon": -77.04291083333334, "type": "electric_bike", "fusion_lon": 0.0, "lat": 38.900100333333334}, {"rental_uris": {"android": "https://dc.lft.to/lastmile_qr_scan", "ios": "https://dc.lft.to/lastmile_qr_scan"}, "is_reserved": 0, "is_disabled": 0, "name": "3e2227e1807279eb71e3b10621347e81", "bike_id": "3e2227e1807279eb71e3b10621347e81", "fusion_lat": 0.0, "lon": -76.962652, "type": "electric_bike", "fusion_lon": 0.0, "lat": 38.96789483333333}, {"rental_uris": {"android": "https://dc.lft.to/lastmile_qr_scan", "ios": "https://dc.lft.to/lastmile_qr_scan"}, "is_reserved": 0, "is_disabled": 0, "name": "4eb404ebe5c499e50a7f95083b1bf1c8", "bike_id": "4eb404ebe5c499e50a7f95083b1bf1c8", "fusion_lat": 0.0, "lon": -76.96089883333333, "type": "electric_bike", "fusion_lon": 0.0, "lat": 38.91867666666667}, {"rental_uris": {"android": "https://dc.lft.to/lastmile_qr_scan", "ios": "https://dc.lft.to/lastmile_qr_scan"}, "is_reserved": 0, "is_disabled": 0, "name": "4a12683ae33a53bfded6a6a858e78024", "bike_id": "4a12683ae33a53bfded6a6a858e78024", "fusion_lat": 0.0, "lon": -76.988277, "type": "electric_bike", "fusion_lon": 0.0, "lat": 38.84268266666667}, {"rental_uris": {"android": "https://dc.lft.to/lastmile_qr_scan", "ios": "https://dc.lft.to/lastmile_qr_scan"}, "is_reserved": 0, "is_disabled": 0, "name": "d5c9cccb0f61f6e415e719734983049e", "bike_id": "d5c9cccb0f61f6e415e719734983049e", "fusion_lat": 0.0, "lon": -77.03737116666667, "type": "electric_scooter", "fusion_lon": 0.0, "lat": 38.90266883333334}, {"rental_uris": {"android": "https://dc.lft.to/lastmile_qr_scan", "ios": "https://dc.lft.to/lastmile_qr_scan"}, "is_reserved": 0, "is_disabled": 0, "name": "d469c1a4d2ef095639ee53aecfffc228", "bike_id": "d469c1a4d2ef095639ee53aecfffc228", "fusion_lat": 0.0, "lon": -77.075714, "type": "electric_scooter", "fusion_lon": 0.0, "lat": 38.907358333333335}, {"rental_uris": {"android": "https://dc.lft.to/lastmile_qr_scan", "ios": "https://dc.lft.to/lastmile_qr_scan"}, "is_reserved": 0, "is_disabled": 0, "name": "5c91add2ca0f3e898714669129e3f3ec", "bike_id": "5c91add2ca0f3e898714669129e3f3ec", "fusion_lat": 0.0, "lon": -77.0079555, "type": "electric_scooter", "fusion_lon": 0.0, "lat": 38.926694833333336}, {"rental_uris": {"android": "https://dc.lft.to/lastmile_qr_scan", "ios": "https://dc.lft.to/lastmile_qr_scan"}, "is_reserved": 0, "is_disabled": 0, "name": "c8a571f783c983addbf084ad3b273de7", "bike_id": "c8a571f783c983addbf084ad3b273de7", "fusion_lat": 0.0, "lon": -77.02063916666667, "type": "electric_scooter", "fusion_lon": 0.0, "lat": 38.92368066666667}, {"rental_uris": {"android": "https://dc.lft.to/lastmile_qr_scan", "ios": "https://dc.lft.to/lastmile_qr_scan"}, "is_reserved": 0, "is_disabled": 0, "name": "ad579cb1bc93e6cd84344c61eba4766f", "bike_id": "ad579cb1bc93e6cd84344c61eba4766f", "fusion_lat": 0.0, "lon": -77.06258916666667, "type": "electric_bike", "fusion_lon": 0.0, "lat": 38.806365166666666}, {"rental_uris": {"android": "https://dc.lft.to/lastmile_qr_scan", "ios": "https://dc.lft.to/lastmile_qr_scan"}, "is_reserved": 0, "is_disabled": 0, "name": "4b43a6d0e989d0df8a32ed051e0076bb", "bike_id": "4b43a6d0e989d0df8a32ed051e0076bb", "fusion_lat": 0.0, "lon": -77.0240705, "type": "electric_scooter", "fusion_lon": 0.0, "lat": 38.9110345}, {"rental_uris": {"android": "https://dc.lft.to/lastmile_qr_scan", "ios": "https://dc.lft.to/lastmile_qr_scan"}, "is_reserved": 0, "is_disabled": 0, "name": "4eafeffb79d7f08624ac66175019c1c3", "bike_id": "4eafeffb79d7f08624ac66175019c1c3", "fusion_lat": 0.0, "lon": -77.02697033333334, "type": "electric_scooter", "fusion_lon": 0.0, "lat": 38.90080716666667}, {"rental_uris": {"android": "https://dc.lft.to/lastmile_qr_scan", "ios": "https://dc.lft.to/lastmile_qr_scan"}, "is_reserved": 0, "is_disabled": 0, "name": "0731318c8265976e1e4a3d2883ca51e0", "bike_id": "0731318c8265976e1e4a3d2883ca51e0", "fusion_lat": 0.0, "lon": -76.9774385, "type": "electric_bike", "fusion_lon": 0.0, "lat": 38.864897}, {"rental_uris": {"android": "https://dc.lft.to/lastmile_qr_scan", "ios": "https://dc.lft.to/lastmile_qr_scan"}, "is_reserved": 0, "is_disabled": 0, "name": "bc667ea32e520ed5b147a2ca71efe7b7", "bike_id": "bc667ea32e520ed5b147a2ca71efe7b7", "fusion_lat": 0.0, "lon": -77.02186333333333, "type": "electric_scooter", "fusion_lon": 0.0, "lat": 38.90004733333333}, {"rental_uris": {"android": "https://dc.lft.to/lastmile_qr_scan", "ios": "https://dc.lft.to/lastmile_qr_scan"}, "is_reserved": 0, "is_disabled": 0, "name": "3785d5631d41ba134d4257a3bf9129ac", "bike_id": "3785d5631d41ba134d4257a3bf9129ac", "fusion_lat": 0.0, "lon": -77.02827833333333, "type": "electric_scooter", "fusion_lon": 0.0, "lat": 38.90265216666667}, {"rental_uris": {"android": "https://dc.lft.to/lastmile_qr_scan", "ios": "https://dc.lft.to/lastmile_qr_scan"}, "is_reserved": 0, "is_disabled": 0, "name": "01535b641113de13cf7831dd25e35ef1", "bike_id": "01535b641113de13cf7831dd25e35ef1", "fusion_lat": 0.0, "lon": -77.02311716666667, "type": "electric_scooter", "fusion_lon": 0.0, "lat": 38.9019575}, {"rental_uris": {"android": "https://dc.lft.to/lastmile_qr_scan", "ios": "https://dc.lft.to/lastmile_qr_scan"}, "is_reserved": 0, "is_disabled": 0, "name": "f36caf5d020b32114ff87cb224ded8d2", "bike_id": "f36caf5d020b32114ff87cb224ded8d2", "fusion_lat": 0.0, "lon": -77.032266, "type": "electric_scooter", "fusion_lon": 0.0, "lat": 38.896847}, {"rental_uris": {"android": "https://dc.lft.to/lastmile_qr_scan", "ios": "https://dc.lft.to/lastmile_qr_scan"}, "is_reserved": 0, "is_disabled": 0, "name": "649f541f5c5c4b27042eb282e4011b3d", "bike_id": "649f541f5c5c4b27042eb282e4011b3d", "fusion_lat": 0.0, "lon": -77.019543, "type": "electric_scooter", "fusion_lon": 0.0, "lat": 38.9232765}, {"rental_uris": {"android": "https://dc.lft.to/lastmile_qr_scan", "ios": "https://dc.lft.to/lastmile_qr_scan"}, "is_reserved": 0, "is_disabled": 0, "name": "84b06447188cda58fb69bfcc642c8dd5", "bike_id": "84b06447188cda58fb69bfcc642c8dd5", "fusion_lat": 0.0, "lon": -77.03654916666666, "type": "electric_scooter", "fusion_lon": 0.0, "lat": 38.92347016666667}, {"rental_uris": {"android": "https://dc.lft.to/lastmile_qr_scan", "ios": "https://dc.lft.to/lastmile_qr_scan"}, "is_reserved": 0, "is_disabled": 0, "name": "859ecf252989252660932247fc40d180", "bike_id": "859ecf252989252660932247fc40d180", "fusion_lat": 0.0, "lon": -77.00360533333334, "type": "electric_scooter", "fusion_lon": 0.0, "lat": 38.88037416666667}, {"rental_uris": {"android": "https://dc.lft.to/lastmile_qr_scan", "ios": "https://dc.lft.to/lastmile_qr_scan"}, "is_reserved": 0, "is_disabled": 0, "name": "a39ee86f70be970e79b53fce9d8f70d5", "bike_id": "a39ee86f70be970e79b53fce9d8f70d5", "fusion_lat": 0.0, "lon": -76.9689115, "type": "electric_bike", "fusion_lon": 0.0, "lat": 38.8698615}, {"rental_uris": {"android": "https://dc.lft.to/lastmile_qr_scan", "ios": "https://dc.lft.to/lastmile_qr_scan"}, "is_reserved": 0, "is_disabled": 0, "name": "21a24956f7e1a218def098ccaf2c24c7", "bike_id": "21a24956f7e1a218def098ccaf2c24c7", "fusion_lat": 0.0, "lon": -77.1289095, "type": "electric_bike", "fusion_lon": 0.0, "lat": 38.9061185}, {"rental_uris": {"android": "https://dc.lft.to/lastmile_qr_scan", "ios": "https://dc.lft.to/lastmile_qr_scan"}, "is_reserved": 0, "is_disabled": 0, "name": "4c75e81c367227ffcb412568777fb68f", "bike_id": "4c75e81c367227ffcb412568777fb68f", "fusion_lat": 0.0, "lon": -77.00741383333333, "type": "electric_scooter", "fusion_lon": 0.0, "lat": 38.8984695}, {"rental_uris": {"android": "https://dc.lft.to/lastmile_qr_scan", "ios": "https://dc.lft.to/lastmile_qr_scan"}, "is_reserved": 0, "is_disabled": 0, "name": "d850f0f2966ec6129c8c539396d08a93", "bike_id": "d850f0f2966ec6129c8c539396d08a93", "fusion_lat": 0.0, "lon": -77.0173445, "type": "electric_scooter", "fusion_lon": 0.0, "lat": 38.877065333333334}, {"rental_uris": {"android": "https://dc.lft.to/lastmile_qr_scan", "ios": "https://dc.lft.to/lastmile_qr_scan"}, "is_reserved": 0, "is_disabled": 0, "name": "2d5ae824ef90e3a3b6e0e3b3957d54c9", "bike_id": "2d5ae824ef90e3a3b6e0e3b3957d54c9", "fusion_lat": 0.0, "lon": -77.04004266666666, "type": "electric_scooter", "fusion_lon": 0.0, "lat": 38.934286166666666}, {"rental_uris": {"android": "https://dc.lft.to/lastmile_qr_scan", "ios": "https://dc.lft.to/lastmile_qr_scan"}, "is_reserved": 0, "is_disabled": 0, "name": "7695172b461156db6cffa0641ae689d1", "bike_id": "7695172b461156db6cffa0641ae689d1", "fusion_lat": 0.0, "lon": -77.02375166666667, "type": "electric_scooter", "fusion_lon": 0.0, "lat": 38.892187}, {"rental_uris": {"android": "https://dc.lft.to/lastmile_qr_scan", "ios": "https://dc.lft.to/lastmile_qr_scan"}, "is_reserved": 0, "is_disabled": 0, "name": "3cdabfb9f78a5cd3167ab4686a0feb40", "bike_id": "3cdabfb9f78a5cd3167ab4686a0feb40", "fusion_lat": 0.0, "lon": -77.01512583333333, "type": "electric_scooter", "fusion_lon": 0.0, "lat": 38.89342083333333}, {"rental_uris": {"android": "https://dc.lft.to/lastmile_qr_scan", "ios": "https://dc.lft.to/lastmile_qr_scan"}, "is_reserved": 0, "is_disabled": 0, "name": "7ffb2c37cd774701b7fe3741526bad26", "bike_id": "7ffb2c37cd774701b7fe3741526bad26", "fusion_lat": 0.0, "lon": -77.019596, "type": "electric_scooter", "fusion_lon": 0.0, "lat": 38.92330583333333}, {"rental_uris": {"android": "https://dc.lft.to/lastmile_qr_scan", "ios": "https://dc.lft.to/lastmile_qr_scan"}, "is_reserved": 0, "is_disabled": 0, "name": "9ef6af1166e3b3014a5b194babbb8a1c", "bike_id": "9ef6af1166e3b3014a5b194babbb8a1c", "fusion_lat": 0.0, "lon": -77.02818016666667, "type": "electric_scooter", "fusion_lon": 0.0, "lat": 38.9313105}, {"rental_uris": {"android": "https://dc.lft.to/lastmile_qr_scan", "ios": "https://dc.lft.to/lastmile_qr_scan"}, "is_reserved": 0, "is_disabled": 0, "name": "ab773385be5e1b5687c52d520f1ae520", "bike_id": "ab773385be5e1b5687c52d520f1ae520", "fusion_lat": 0.0, "lon": -77.01764516666667, "type": "electric_scooter", "fusion_lon": 0.0, "lat": 38.87702816666667}, {"rental_uris": {"android": "https://dc.lft.to/lastmile_qr_scan", "ios": "https://dc.lft.to/lastmile_qr_scan"}, "is_reserved": 0, "is_disabled": 0, "name": "bc6dd4cd1a58d8fde8602b1be89d80d9", "bike_id": "bc6dd4cd1a58d8fde8602b1be89d80d9", "fusion_lat": 0.0, "lon": -77.01618983333333, "type": "electric_scooter", "fusion_lon": 0.0, "lat": 38.88791}, {"rental_uris": {"android": "https://dc.lft.to/lastmile_qr_scan", "ios": "https://dc.lft.to/lastmile_qr_scan"}, "is_reserved": 0, "is_disabled": 0, "name": "0f27d1bfe10a31ad13f6f8e77a3d3229", "bike_id": "0f27d1bfe10a31ad13f6f8e77a3d3229", "fusion_lat": 0.0, "lon": -76.95365033333333, "type": "electric_scooter", "fusion_lon": 0.0, "lat": 38.88953133333333}, {"rental_uris": {"android": "https://dc.lft.to/lastmile_qr_scan", "ios": "https://dc.lft.to/lastmile_qr_scan"}, "is_reserved": 0, "is_disabled": 0, "name": "37e9d77a608d3a34f79f4a5ba9c2e6dd", "bike_id": "37e9d77a608d3a34f79f4a5ba9c2e6dd", "fusion_lat": 0.0, "lon": -77.02787766666667, "type": "electric_scooter", "fusion_lon": 0.0, "lat": 38.961654833333334}, {"rental_uris": {"android": "https://dc.lft.to/lastmile_qr_scan", "ios": "https://dc.lft.to/lastmile_qr_scan"}, "is_reserved": 0, "is_disabled": 0, "name": "feef31a5fed2903379fef3c2d6aa3d70", "bike_id": "feef31a5fed2903379fef3c2d6aa3d70", "fusion_lat": 0.0, "lon": -77.018152, "type": "electric_scooter", "fusion_lon": 0.0, "lat": 38.91403916666667}, {"rental_uris": {"android": "https://dc.lft.to/lastmile_qr_scan", "ios": "https://dc.lft.to/lastmile_qr_scan"}, "is_reserved": 0, "is_disabled": 0, "name": "c119774429143d33c1a872092fea3849", "bike_id": "c119774429143d33c1a872092fea3849", "fusion_lat": 0.0, "lon": -77.03943, "type": "electric_scooter", "fusion_lon": 0.0, "lat": 38.9081605}, {"rental_uris": {"android": "https://dc.lft.to/lastmile_qr_scan", "ios": "https://dc.lft.to/lastmile_qr_scan"}, "is_reserved": 0, "is_disabled": 0, "name": "74ce3dfaaf37ff60173f7ac0954f8f0a", "bike_id": "74ce3dfaaf37ff60173f7ac0954f8f0a", "fusion_lat": 0.0, "lon": -77.03623733333333, "type": "electric_scooter", "fusion_lon": 0.0, "lat": 38.9033405}, {"rental_uris": {"android": "https://dc.lft.to/lastmile_qr_scan", "ios": "https://dc.lft.to/lastmile_qr_scan"}, "is_reserved": 0, "is_disabled": 0, "name": "5130f6997b417d13da6a431ba0b794d7", "bike_id": "5130f6997b417d13da6a431ba0b794d7", "fusion_lat": 0.0, "lon": -77.033316, "type": "electric_scooter", "fusion_lon": 0.0, "lat": 38.89890533333333}, {"rental_uris": {"android": "https://dc.lft.to/lastmile_qr_scan", "ios": "https://dc.lft.to/lastmile_qr_scan"}, "is_reserved": 0, "is_disabled": 0, "name": "9e06487c3a7c2c652ddf25e7c8541bca", "bike_id": "9e06487c3a7c2c652ddf25e7c8541bca", "fusion_lat": 0.0, "lon": -77.05924266666666, "type": "electric_scooter", "fusion_lon": 0.0, "lat": 38.90151683333333}, {"rental_uris": {"android": "https://dc.lft.to/lastmile_qr_scan", "ios": "https://dc.lft.to/lastmile_qr_scan"}, "is_reserved": 0, "is_disabled": 0, "name": "bf3023fe4241768de562f7e8718b0c93", "bike_id": "bf3023fe4241768de562f7e8718b0c93", "fusion_lat": 0.0, "lon": -77.062986, "type": "electric_scooter", "fusion_lon": 0.0, "lat": 38.90397983333333}, {"rental_uris": {"android": "https://dc.lft.to/lastmile_qr_scan", "ios": "https://dc.lft.to/lastmile_qr_scan"}, "is_reserved": 0, "is_disabled": 0, "name": "b65e75018311fdf6187131f7f5b79f74", "bike_id": "b65e75018311fdf6187131f7f5b79f74", "fusion_lat": 0.0, "lon": -77.00912483333333, "type": "electric_scooter", "fusion_lon": 0.0, "lat": 38.895539166666666}, {"rental_uris": {"android": "https://dc.lft.to/lastmile_qr_scan", "ios": "https://dc.lft.to/lastmile_qr_scan"}, "is_reserved": 0, "is_disabled": 0, "name": "d079eaaa52af2b71256fae4d42d11301", "bike_id": "d079eaaa52af2b71256fae4d42d11301", "fusion_lat": 0.0, "lon": -77.04456483333334, "type": "electric_scooter", "fusion_lon": 0.0, "lat": 38.911216333333336}, {"rental_uris": {"android": "https://dc.lft.to/lastmile_qr_scan", "ios": "https://dc.lft.to/lastmile_qr_scan"}, "is_reserved": 0, "is_disabled": 0, "name": "363397507befda752ab4cb48d39eb64d", "bike_id": "363397507befda752ab4cb48d39eb64d", "fusion_lat": 0.0, "lon": -76.98359166666667, "type": "electric_scooter", "fusion_lon": 0.0, "lat": 38.89721433333333}, {"rental_uris": {"android": "https://dc.lft.to/lastmile_qr_scan", "ios": "https://dc.lft.to/lastmile_qr_scan"}, "is_reserved": 0, "is_disabled": 0, "name": "3519f382e46deaf74ac06c1e4a513d09", "bike_id": "3519f382e46deaf74ac06c1e4a513d09", "fusion_lat": 0.0, "lon": -77.03003233333334, "type": "electric_bike", "fusion_lon": 0.0, "lat": 38.90017116666667}, {"rental_uris": {"android": "https://dc.lft.to/lastmile_qr_scan", "ios": "https://dc.lft.to/lastmile_qr_scan"}, "is_reserved": 0, "is_disabled": 0, "name": "e1ea4f181e5ae862e1d942069aacbe08", "bike_id": "e1ea4f181e5ae862e1d942069aacbe08", "fusion_lat": 0.0, "lon": -77.00727483333333, "type": "electric_scooter", "fusion_lon": 0.0, "lat": 38.911956333333336}, {"rental_uris": {"android": "https://dc.lft.to/lastmile_qr_scan", "ios": "https://dc.lft.to/lastmile_qr_scan"}, "is_reserved": 0, "is_disabled": 0, "name": "770a0950051fad604159e1ad35ffd4a2", "bike_id": "770a0950051fad604159e1ad35ffd4a2", "fusion_lat": 0.0, "lon": -77.02258216666667, "type": "electric_scooter", "fusion_lon": 0.0, "lat": 38.924226}, {"rental_uris": {"android": "https://dc.lft.to/lastmile_qr_scan", "ios": "https://dc.lft.to/lastmile_qr_scan"}, "is_reserved": 0, "is_disabled": 0, "name": "0a6fe5283ff0126e917f1482cd25af0e", "bike_id": "0a6fe5283ff0126e917f1482cd25af0e", "fusion_lat": 0.0, "lon": -77.037917, "type": "electric_scooter", "fusion_lon": 0.0, "lat": 38.907963}, {"rental_uris": {"android": "https://dc.lft.to/lastmile_qr_scan", "ios": "https://dc.lft.to/lastmile_qr_scan"}, "is_reserved": 0, "is_disabled": 0, "name": "5b6b978c7adaa65f5b06028e604d4fab", "bike_id": "5b6b978c7adaa65f5b06028e604d4fab", "fusion_lat": 0.0, "lon": -77.003361, "type": "electric_scooter", "fusion_lon": 0.0, "lat": 38.893617666666664}, {"rental_uris": {"android": "https://dc.lft.to/lastmile_qr_scan", "ios": "https://dc.lft.to/lastmile_qr_scan"}, "is_reserved": 0, "is_disabled": 0, "name": "c64508862a4a99d264acaaa181e2bc41", "bike_id": "c64508862a4a99d264acaaa181e2bc41", "fusion_lat": 0.0, "lon": -77.031388, "type": "electric_scooter", "fusion_lon": 0.0, "lat": 38.922378}, {"rental_uris": {"android": "https://dc.lft.to/lastmile_qr_scan", "ios": "https://dc.lft.to/lastmile_qr_scan"}, "is_reserved": 0, "is_disabled": 0, "name": "5e42342c23d3b93393e092fccdec70a6", "bike_id": "5e42342c23d3b93393e092fccdec70a6", "fusion_lat": 0.0, "lon": -77.019575, "type": "electric_scooter", "fusion_lon": 0.0, "lat": 38.923233333333336}, {"rental_uris": {"android": "https://dc.lft.to/lastmile_qr_scan", "ios": "https://dc.lft.to/lastmile_qr_scan"}, "is_reserved": 0, "is_disabled": 0, "name": "066138dd7a427d3f906287e6d69cfdf3", "bike_id": "066138dd7a427d3f906287e6d69cfdf3", "fusion_lat": 0.0, "lon": -76.9722495, "type": "electric_bike", "fusion_lon": 0.0, "lat": 38.900445}, {"rental_uris": {"android": "https://dc.lft.to/lastmile_qr_scan", "ios": "https://dc.lft.to/lastmile_qr_scan"}, "is_reserved": 0, "is_disabled": 0, "name": "f7ea2e7d3990b18f8da449af4f984616", "bike_id": "f7ea2e7d3990b18f8da449af4f984616", "fusion_lat": 0.0, "lon": -77.00633933333333, "type": "electric_scooter", "fusion_lon": 0.0, "lat": 38.90586016666666}, {"rental_uris": {"android": "https://dc.lft.to/lastmile_qr_scan", "ios": "https://dc.lft.to/lastmile_qr_scan"}, "is_reserved": 0, "is_disabled": 0, "name": "290a40573c17b995501b181b374b5b18", "bike_id": "290a40573c17b995501b181b374b5b18", "fusion_lat": 0.0, "lon": -77.03466616666667, "type": "electric_scooter", "fusion_lon": 0.0, "lat": 38.91382266666667}, {"rental_uris": {"android": "https://dc.lft.to/lastmile_qr_scan", "ios": "https://dc.lft.to/lastmile_qr_scan"}, "is_reserved": 0, "is_disabled": 0, "name": "5d6e2d8f5584b4023a7b9b12c93fc08e", "bike_id": "5d6e2d8f5584b4023a7b9b12c93fc08e", "fusion_lat": 0.0, "lon": -77.01665583333333, "type": "electric_bike", "fusion_lon": 0.0, "lat": 38.8812595}, {"rental_uris": {"android": "https://dc.lft.to/lastmile_qr_scan", "ios": "https://dc.lft.to/lastmile_qr_scan"}, "is_reserved": 0, "is_disabled": 0, "name": "7c24a9952b0187e59f50f52bc9155bdb", "bike_id": "7c24a9952b0187e59f50f52bc9155bdb", "fusion_lat": 0.0, "lon": -77.02274416666667, "type": "electric_scooter", "fusion_lon": 0.0, "lat": 38.90281233333333}, {"rental_uris": {"android": "https://dc.lft.to/lastmile_qr_scan", "ios": "https://dc.lft.to/lastmile_qr_scan"}, "is_reserved": 0, "is_disabled": 0, "name": "a3d121b44a5694a7e004a31adaa8ba95", "bike_id": "a3d121b44a5694a7e004a31adaa8ba95", "fusion_lat": 0.0, "lon": -77.02548433333334, "type": "electric_scooter", "fusion_lon": 0.0, "lat": 38.891964}, {"rental_uris": {"android": "https://dc.lft.to/lastmile_qr_scan", "ios": "https://dc.lft.to/lastmile_qr_scan"}, "is_reserved": 0, "is_disabled": 0, "name": "3d554636c82871f5de37f8b8f39684be", "bike_id": "3d554636c82871f5de37f8b8f39684be", "fusion_lat": 0.0, "lon": -77.0234045, "type": "electric_scooter", "fusion_lon": 0.0, "lat": 38.91715116666666}, {"rental_uris": {"android": "https://dc.lft.to/lastmile_qr_scan", "ios": "https://dc.lft.to/lastmile_qr_scan"}, "is_reserved": 0, "is_disabled": 0, "name": "d549cc34be57dd8699054174c494463a", "bike_id": "d549cc34be57dd8699054174c494463a", "fusion_lat": 0.0, "lon": -77.04262916666667, "type": "electric_bike", "fusion_lon": 0.0, "lat": 38.91630883333333}, {"rental_uris": {"android": "https://dc.lft.to/lastmile_qr_scan", "ios": "https://dc.lft.to/lastmile_qr_scan"}, "is_reserved": 0, "is_disabled": 0, "name": "4bf37e08cba03c3fd31a8c4cc6488d2f", "bike_id": "4bf37e08cba03c3fd31a8c4cc6488d2f", "fusion_lat": 0.0, "lon": -77.0257165, "type": "electric_scooter", "fusion_lon": 0.0, "lat": 38.887539}, {"rental_uris": {"android": "https://dc.lft.to/lastmile_qr_scan", "ios": "https://dc.lft.to/lastmile_qr_scan"}, "is_reserved": 0, "is_disabled": 0, "name": "d548094f511c5b2106c42ff8901f3113", "bike_id": "d548094f511c5b2106c42ff8901f3113", "fusion_lat": 0.0, "lon": -77.09614916666666, "type": "electric_bike", "fusion_lon": 0.0, "lat": 38.8788915}, {"rental_uris": {"android": "https://dc.lft.to/lastmile_qr_scan", "ios": "https://dc.lft.to/lastmile_qr_scan"}, "is_reserved": 0, "is_disabled": 0, "name": "0833e5f7eaf9914a4d068f8b49afb771", "bike_id": "0833e5f7eaf9914a4d068f8b49afb771", "fusion_lat": 0.0, "lon": -76.94033016666667, "type": "electric_bike", "fusion_lon": 0.0, "lat": 38.908202333333335}, {"rental_uris": {"android": "https://dc.lft.to/lastmile_qr_scan", "ios": "https://dc.lft.to/lastmile_qr_scan"}, "is_reserved": 0, "is_disabled": 0, "name": "fd987aa12f18b32779d4f73afb6e81e5", "bike_id": "fd987aa12f18b32779d4f73afb6e81e5", "fusion_lat": 0.0, "lon": -76.99023366666667, "type": "electric_bike", "fusion_lon": 0.0, "lat": 38.83587266666667}, {"rental_uris": {"android": "https://dc.lft.to/lastmile_qr_scan", "ios": "https://dc.lft.to/lastmile_qr_scan"}, "is_reserved": 0, "is_disabled": 0, "name": "7c53a47527d419a2c7821a4148b170ed", "bike_id": "7c53a47527d419a2c7821a4148b170ed", "fusion_lat": 0.0, "lon": -77.0230725, "type": "electric_scooter", "fusion_lon": 0.0, "lat": 38.9273455}, {"rental_uris": {"android": "https://dc.lft.to/lastmile_qr_scan", "ios": "https://dc.lft.to/lastmile_qr_scan"}, "is_reserved": 0, "is_disabled": 0, "name": "f1f9c39729134c66717910cbfdd760b6", "bike_id": "f1f9c39729134c66717910cbfdd760b6", "fusion_lat": 0.0, "lon": -76.94872883333333, "type": "electric_scooter", "fusion_lon": 0.0, "lat": 38.89497766666667}, {"rental_uris": {"android": "https://dc.lft.to/lastmile_qr_scan", "ios": "https://dc.lft.to/lastmile_qr_scan"}, "is_reserved": 0, "is_disabled": 0, "name": "0fcb8b66a2b4ea21e1a9085d6d4fb7dc", "bike_id": "0fcb8b66a2b4ea21e1a9085d6d4fb7dc", "fusion_lat": 0.0, "lon": -77.04889433333334, "type": "electric_scooter", "fusion_lon": 0.0, "lat": 38.90016933333333}, {"rental_uris": {"android": "https://dc.lft.to/lastmile_qr_scan", "ios": "https://dc.lft.to/lastmile_qr_scan"}, "is_reserved": 0, "is_disabled": 0, "name": "2dd4776bfb1a37ab51e33c421812c84f", "bike_id": "2dd4776bfb1a37ab51e33c421812c84f", "fusion_lat": 0.0, "lon": -77.00626416666667, "type": "electric_scooter", "fusion_lon": 0.0, "lat": 38.87175116666667}, {"rental_uris": {"android": "https://dc.lft.to/lastmile_qr_scan", "ios": "https://dc.lft.to/lastmile_qr_scan"}, "is_reserved": 0, "is_disabled": 0, "name": "7f40d27d42709399405fe389f97b9418", "bike_id": "7f40d27d42709399405fe389f97b9418", "fusion_lat": 0.0, "lon": -76.99676633333333, "type": "electric_bike", "fusion_lon": 0.0, "lat": 38.83824283333333}, {"rental_uris": {"android": "https://dc.lft.to/lastmile_qr_scan", "ios": "https://dc.lft.to/lastmile_qr_scan"}, "is_reserved": 0, "is_disabled": 0, "name": "a333ae5f1b96360a04cb619a7ba4fe6f", "bike_id": "a333ae5f1b96360a04cb619a7ba4fe6f", "fusion_lat": 0.0, "lon": -77.014059, "type": "electric_scooter", "fusion_lon": 0.0, "lat": 38.92827333333334}, {"rental_uris": {"android": "https://dc.lft.to/lastmile_qr_scan", "ios": "https://dc.lft.to/lastmile_qr_scan"}, "is_reserved": 0, "is_disabled": 0, "name": "804acb09de41bec45b996206abe1415c", "bike_id": "804acb09de41bec45b996206abe1415c", "fusion_lat": 0.0, "lon": -77.036436, "type": "electric_scooter", "fusion_lon": 0.0, "lat": 38.90309416666667}, {"rental_uris": {"android": "https://dc.lft.to/lastmile_qr_scan", "ios": "https://dc.lft.to/lastmile_qr_scan"}, "is_reserved": 0, "is_disabled": 0, "name": "35b86ba0a81db6ef51c743983ef09ad2", "bike_id": "35b86ba0a81db6ef51c743983ef09ad2", "fusion_lat": 0.0, "lon": -77.0133475, "type": "electric_scooter", "fusion_lon": 0.0, "lat": 38.914188333333335}, {"rental_uris": {"android": "https://dc.lft.to/lastmile_qr_scan", "ios": "https://dc.lft.to/lastmile_qr_scan"}, "is_reserved": 0, "is_disabled": 0, "name": "1329fcac2f586add0c37c72d1a54cc92", "bike_id": "1329fcac2f586add0c37c72d1a54cc92", "fusion_lat": 0.0, "lon": -77.02802716666666, "type": "electric_scooter", "fusion_lon": 0.0, "lat": 38.939266}, {"rental_uris": {"android": "https://dc.lft.to/lastmile_qr_scan", "ios": "https://dc.lft.to/lastmile_qr_scan"}, "is_reserved": 0, "is_disabled": 0, "name": "4595bb5fed0f9a9c8f7f1eb7d8264025", "bike_id": "4595bb5fed0f9a9c8f7f1eb7d8264025", "fusion_lat": 0.0, "lon": -77.01675733333333, "type": "electric_scooter", "fusion_lon": 0.0, "lat": 38.920462}, {"rental_uris": {"android": "https://dc.lft.to/lastmile_qr_scan", "ios": "https://dc.lft.to/lastmile_qr_scan"}, "is_reserved": 0, "is_disabled": 0, "name": "f118c9f78fba5dae52ba739b23ec3752", "bike_id": "f118c9f78fba5dae52ba739b23ec3752", "fusion_lat": 0.0, "lon": -77.02030233333333, "type": "electric_bike", "fusion_lon": 0.0, "lat": 38.9656165}, {"rental_uris": {"android": "https://dc.lft.to/lastmile_qr_scan", "ios": "https://dc.lft.to/lastmile_qr_scan"}, "is_reserved": 0, "is_disabled": 0, "name": "49d13f68e6ffd2d01df05f4faf611f89", "bike_id": "49d13f68e6ffd2d01df05f4faf611f89", "fusion_lat": 0.0, "lon": -77.00629866666667, "type": "electric_scooter", "fusion_lon": 0.0, "lat": 38.872019333333334}, {"rental_uris": {"android": "https://dc.lft.to/lastmile_qr_scan", "ios": "https://dc.lft.to/lastmile_qr_scan"}, "is_reserved": 0, "is_disabled": 0, "name": "001b6687f067cccefc8e612d6a99a789", "bike_id": "001b6687f067cccefc8e612d6a99a789", "fusion_lat": 0.0, "lon": -77.013301, "type": "electric_scooter", "fusion_lon": 0.0, "lat": 38.898416}, {"rental_uris": {"android": "https://dc.lft.to/lastmile_qr_scan", "ios": "https://dc.lft.to/lastmile_qr_scan"}, "is_reserved": 0, "is_disabled": 0, "name": "57b5dd1529269ab2ca69610ee7736eae", "bike_id": "57b5dd1529269ab2ca69610ee7736eae", "fusion_lat": 0.0, "lon": -77.03384366666667, "type": "electric_scooter", "fusion_lon": 0.0, "lat": 38.9215725}, {"rental_uris": {"android": "https://dc.lft.to/lastmile_qr_scan", "ios": "https://dc.lft.to/lastmile_qr_scan"}, "is_reserved": 0, "is_disabled": 0, "name": "d19752cc2722b949f2d8b9354a673034", "bike_id": "d19752cc2722b949f2d8b9354a673034", "fusion_lat": 0.0, "lon": -77.00710983333333, "type": "electric_bike", "fusion_lon": 0.0, "lat": 38.94604833333333}, {"rental_uris": {"android": "https://dc.lft.to/lastmile_qr_scan", "ios": "https://dc.lft.to/lastmile_qr_scan"}, "is_reserved": 0, "is_disabled": 0, "name": "5f0ba4c266bb4568c90dedf81798f9a0", "bike_id": "5f0ba4c266bb4568c90dedf81798f9a0", "fusion_lat": 0.0, "lon": -77.08022816666667, "type": "electric_bike", "fusion_lon": 0.0, "lat": 38.957797}, {"rental_uris": {"android": "https://dc.lft.to/lastmile_qr_scan", "ios": "https://dc.lft.to/lastmile_qr_scan"}, "is_reserved": 0, "is_disabled": 0, "name": "455b7f29e4d0a22dfd7e760932370ad9", "bike_id": "455b7f29e4d0a22dfd7e760932370ad9", "fusion_lat": 0.0, "lon": -77.04266933333334, "type": "electric_scooter", "fusion_lon": 0.0, "lat": 38.91783383333333}, {"rental_uris": {"android": "https://dc.lft.to/lastmile_qr_scan", "ios": "https://dc.lft.to/lastmile_qr_scan"}, "is_reserved": 0, "is_disabled": 0, "name": "60a7979ef5a807197468db8d0b50a91c", "bike_id": "60a7979ef5a807197468db8d0b50a91c", "fusion_lat": 0.0, "lon": -76.93204816666666, "type": "electric_scooter", "fusion_lon": 0.0, "lat": 38.896675333333334}, {"rental_uris": {"android": "https://dc.lft.to/lastmile_qr_scan", "ios": "https://dc.lft.to/lastmile_qr_scan"}, "is_reserved": 0, "is_disabled": 0, "name": "025c4a363662117df2217d56ecb13c23", "bike_id": "025c4a363662117df2217d56ecb13c23", "fusion_lat": 0.0, "lon": -76.986358, "type": "electric_scooter", "fusion_lon": 0.0, "lat": 38.880461333333336}, {"rental_uris": {"android": "https://dc.lft.to/lastmile_qr_scan", "ios": "https://dc.lft.to/lastmile_qr_scan"}, "is_reserved": 0, "is_disabled": 0, "name": "09bbc30bbbde1f19d95778d1c3c46a0d", "bike_id": "09bbc30bbbde1f19d95778d1c3c46a0d", "fusion_lat": 0.0, "lon": -77.098256, "type": "electric_bike", "fusion_lon": 0.0, "lat": 38.8501875}, {"rental_uris": {"android": "https://dc.lft.to/lastmile_qr_scan", "ios": "https://dc.lft.to/lastmile_qr_scan"}, "is_reserved": 0, "is_disabled": 0, "name": "c35045c26fe4e7cb609f0cf4634d20ce", "bike_id": "c35045c26fe4e7cb609f0cf4634d20ce", "fusion_lat": 0.0, "lon": -77.02779783333334, "type": "electric_scooter", "fusion_lon": 0.0, "lat": 38.96216}, {"rental_uris": {"android": "https://dc.lft.to/lastmile_qr_scan", "ios": "https://dc.lft.to/lastmile_qr_scan"}, "is_reserved": 0, "is_disabled": 0, "name": "510298f646d51822356da036f3029526", "bike_id": "510298f646d51822356da036f3029526", "fusion_lat": 0.0, "lon": -77.0511565, "type": "electric_scooter", "fusion_lon": 0.0, "lat": 38.9234415}, {"rental_uris": {"android": "https://dc.lft.to/lastmile_qr_scan", "ios": "https://dc.lft.to/lastmile_qr_scan"}, "is_reserved": 0, "is_disabled": 0, "name": "35e3d1fa8dadad343578b06a1279387d", "bike_id": "35e3d1fa8dadad343578b06a1279387d", "fusion_lat": 0.0, "lon": -76.99095083333333, "type": "electric_bike", "fusion_lon": 0.0, "lat": 38.804845}, {"rental_uris": {"android": "https://dc.lft.to/lastmile_qr_scan", "ios": "https://dc.lft.to/lastmile_qr_scan"}, "is_reserved": 0, "is_disabled": 0, "name": "37e95fae7cb81f4bbd057ea788e9da2a", "bike_id": "37e95fae7cb81f4bbd057ea788e9da2a", "fusion_lat": 0.0, "lon": -76.98687083333333, "type": "electric_bike", "fusion_lon": 0.0, "lat": 38.94475166666667}, {"rental_uris": {"android": "https://dc.lft.to/lastmile_qr_scan", "ios": "https://dc.lft.to/lastmile_qr_scan"}, "is_reserved": 0, "is_disabled": 0, "name": "5db62be72278d20a05867d77998ec886", "bike_id": "5db62be72278d20a05867d77998ec886", "fusion_lat": 0.0, "lon": -77.0453785, "type": "electric_scooter", "fusion_lon": 0.0, "lat": 38.8996165}, {"rental_uris": {"android": "https://dc.lft.to/lastmile_qr_scan", "ios": "https://dc.lft.to/lastmile_qr_scan"}, "is_reserved": 0, "is_disabled": 0, "name": "f9c35a6f4937c9752e365509bc2a5121", "bike_id": "f9c35a6f4937c9752e365509bc2a5121", "fusion_lat": 0.0, "lon": -77.0467605, "type": "electric_bike", "fusion_lon": 0.0, "lat": 38.90142016666667}, {"rental_uris": {"android": "https://dc.lft.to/lastmile_qr_scan", "ios": "https://dc.lft.to/lastmile_qr_scan"}, "is_reserved": 0, "is_disabled": 0, "name": "ebb99c6e17100fa42dec5d895558a63f", "bike_id": "ebb99c6e17100fa42dec5d895558a63f", "fusion_lat": 0.0, "lon": -77.03316033333333, "type": "electric_scooter", "fusion_lon": 0.0, "lat": 38.921587833333334}, {"rental_uris": {"android": "https://dc.lft.to/lastmile_qr_scan", "ios": "https://dc.lft.to/lastmile_qr_scan"}, "is_reserved": 0, "is_disabled": 0, "name": "5bd337fa7a86f8cb18b79d09a0f454b1", "bike_id": "5bd337fa7a86f8cb18b79d09a0f454b1", "fusion_lat": 0.0, "lon": -77.0225835, "type": "electric_scooter", "fusion_lon": 0.0, "lat": 38.896333166666665}, {"rental_uris": {"android": "https://dc.lft.to/lastmile_qr_scan", "ios": "https://dc.lft.to/lastmile_qr_scan"}, "is_reserved": 0, "is_disabled": 0, "name": "87b0df0a8e12eb293f082ffc499e8e60", "bike_id": "87b0df0a8e12eb293f082ffc499e8e60", "fusion_lat": 0.0, "lon": -77.024225, "type": "electric_scooter", "fusion_lon": 0.0, "lat": 38.895212}, {"rental_uris": {"android": "https://dc.lft.to/lastmile_qr_scan", "ios": "https://dc.lft.to/lastmile_qr_scan"}, "is_reserved": 0, "is_disabled": 0, "name": "61ce64e0874b7ac8938c1607f982f1bf", "bike_id": "61ce64e0874b7ac8938c1607f982f1bf", "fusion_lat": 0.0, "lon": -77.0237225, "type": "electric_scooter", "fusion_lon": 0.0, "lat": 38.87928133333333}, {"rental_uris": {"android": "https://dc.lft.to/lastmile_qr_scan", "ios": "https://dc.lft.to/lastmile_qr_scan"}, "is_reserved": 0, "is_disabled": 0, "name": "5e34f848d4716c41d188684e2e947975", "bike_id": "5e34f848d4716c41d188684e2e947975", "fusion_lat": 0.0, "lon": -77.0413245, "type": "electric_scooter", "fusion_lon": 0.0, "lat": 38.92367816666667}, {"rental_uris": {"android": "https://dc.lft.to/lastmile_qr_scan", "ios": "https://dc.lft.to/lastmile_qr_scan"}, "is_reserved": 0, "is_disabled": 0, "name": "4d9f7ca1268709488c3237f3c00c5709", "bike_id": "4d9f7ca1268709488c3237f3c00c5709", "fusion_lat": 0.0, "lon": -77.03208416666666, "type": "electric_scooter", "fusion_lon": 0.0, "lat": 38.9178925}, {"rental_uris": {"android": "https://dc.lft.to/lastmile_qr_scan", "ios": "https://dc.lft.to/lastmile_qr_scan"}, "is_reserved": 0, "is_disabled": 0, "name": "c19fd4d1950f046cc7584922697985f8", "bike_id": "c19fd4d1950f046cc7584922697985f8", "fusion_lat": 0.0, "lon": -77.021601, "type": "electric_scooter", "fusion_lon": 0.0, "lat": 38.924623833333335}, {"rental_uris": {"android": "https://dc.lft.to/lastmile_qr_scan", "ios": "https://dc.lft.to/lastmile_qr_scan"}, "is_reserved": 0, "is_disabled": 0, "name": "d6b7bf682eeef3f82af26ed7fa7ae8d3", "bike_id": "d6b7bf682eeef3f82af26ed7fa7ae8d3", "fusion_lat": 0.0, "lon": -77.03481433333333, "type": "electric_scooter", "fusion_lon": 0.0, "lat": 38.9155975}, {"rental_uris": {"android": "https://dc.lft.to/lastmile_qr_scan", "ios": "https://dc.lft.to/lastmile_qr_scan"}, "is_reserved": 0, "is_disabled": 0, "name": "778b6825baa70dba6127480974a0e110", "bike_id": "778b6825baa70dba6127480974a0e110", "fusion_lat": 0.0, "lon": -76.97074466666666, "type": "electric_bike", "fusion_lon": 0.0, "lat": 38.920634}, {"rental_uris": {"android": "https://dc.lft.to/lastmile_qr_scan", "ios": "https://dc.lft.to/lastmile_qr_scan"}, "is_reserved": 0, "is_disabled": 0, "name": "a453008af19c5e63cafaea40d1649dfb", "bike_id": "a453008af19c5e63cafaea40d1649dfb", "fusion_lat": 0.0, "lon": -77.046626, "type": "electric_scooter", "fusion_lon": 0.0, "lat": 38.9030405}, {"rental_uris": {"android": "https://dc.lft.to/lastmile_qr_scan", "ios": "https://dc.lft.to/lastmile_qr_scan"}, "is_reserved": 0, "is_disabled": 0, "name": "f783dce2abd5e3b1007aa18e7d20b52a", "bike_id": "f783dce2abd5e3b1007aa18e7d20b52a", "fusion_lat": 0.0, "lon": -77.04335616666667, "type": "electric_scooter", "fusion_lon": 0.0, "lat": 38.92319416666667}, {"rental_uris": {"android": "https://dc.lft.to/lastmile_qr_scan", "ios": "https://dc.lft.to/lastmile_qr_scan"}, "is_reserved": 0, "is_disabled": 0, "name": "3b7bd526a70080c5357f8a5ab073c1f4", "bike_id": "3b7bd526a70080c5357f8a5ab073c1f4", "fusion_lat": 0.0, "lon": -77.05024316666666, "type": "electric_scooter", "fusion_lon": 0.0, "lat": 38.896969166666665}, {"rental_uris": {"android": "https://dc.lft.to/lastmile_qr_scan", "ios": "https://dc.lft.to/lastmile_qr_scan"}, "is_reserved": 0, "is_disabled": 0, "name": "bdb20b9f7d2ef241924de3bd2cf2cf3b", "bike_id": "bdb20b9f7d2ef241924de3bd2cf2cf3b", "fusion_lat": 0.0, "lon": -77.04160783333333, "type": "electric_scooter", "fusion_lon": 0.0, "lat": 38.897471833333334}, {"rental_uris": {"android": "https://dc.lft.to/lastmile_qr_scan", "ios": "https://dc.lft.to/lastmile_qr_scan"}, "is_reserved": 0, "is_disabled": 0, "name": "398b9132ece82f1fad3fb1ccb33b5f92", "bike_id": "398b9132ece82f1fad3fb1ccb33b5f92", "fusion_lat": 0.0, "lon": -77.03789616666667, "type": "electric_scooter", "fusion_lon": 0.0, "lat": 38.93326716666667}, {"rental_uris": {"android": "https://dc.lft.to/lastmile_qr_scan", "ios": "https://dc.lft.to/lastmile_qr_scan"}, "is_reserved": 0, "is_disabled": 0, "name": "9b47875f75c6896ee150b7b959925182", "bike_id": "9b47875f75c6896ee150b7b959925182", "fusion_lat": 0.0, "lon": -77.04504666666666, "type": "electric_scooter", "fusion_lon": 0.0, "lat": 38.89227533333333}, {"rental_uris": {"android": "https://dc.lft.to/lastmile_qr_scan", "ios": "https://dc.lft.to/lastmile_qr_scan"}, "is_reserved": 0, "is_disabled": 0, "name": "479d08318b6d6972538da86f6fc4750f", "bike_id": "479d08318b6d6972538da86f6fc4750f", "fusion_lat": 0.0, "lon": -77.05145783333333, "type": "electric_scooter", "fusion_lon": 0.0, "lat": 38.905375166666666}, {"rental_uris": {"android": "https://dc.lft.to/lastmile_qr_scan", "ios": "https://dc.lft.to/lastmile_qr_scan"}, "is_reserved": 0, "is_disabled": 0, "name": "1ebfd71692c7d984c4a8a2c99583642b", "bike_id": "1ebfd71692c7d984c4a8a2c99583642b", "fusion_lat": 0.0, "lon": -77.00019183333333, "type": "electric_scooter", "fusion_lon": 0.0, "lat": 38.87396583333334}, {"rental_uris": {"android": "https://dc.lft.to/lastmile_qr_scan", "ios": "https://dc.lft.to/lastmile_qr_scan"}, "is_reserved": 0, "is_disabled": 0, "name": "9b85fab385e9b7efbe8059fc3fa2666e", "bike_id": "9b85fab385e9b7efbe8059fc3fa2666e", "fusion_lat": 0.0, "lon": -77.03223683333333, "type": "electric_scooter", "fusion_lon": 0.0, "lat": 38.91606266666667}, {"rental_uris": {"android": "https://dc.lft.to/lastmile_qr_scan", "ios": "https://dc.lft.to/lastmile_qr_scan"}, "is_reserved": 0, "is_disabled": 0, "name": "294e00b442dba52423fbfdf88fd4feab", "bike_id": "294e00b442dba52423fbfdf88fd4feab", "fusion_lat": 0.0, "lon": -77.1141185, "type": "electric_bike", "fusion_lon": 0.0, "lat": 38.8732495}, {"rental_uris": {"android": "https://dc.lft.to/lastmile_qr_scan", "ios": "https://dc.lft.to/lastmile_qr_scan"}, "is_reserved": 0, "is_disabled": 0, "name": "0aa5aaddd1faa15bfce8014d06743826", "bike_id": "0aa5aaddd1faa15bfce8014d06743826", "fusion_lat": 0.0, "lon": -77.00894566666666, "type": "electric_bike", "fusion_lon": 0.0, "lat": 38.921514333333334}, {"rental_uris": {"android": "https://dc.lft.to/lastmile_qr_scan", "ios": "https://dc.lft.to/lastmile_qr_scan"}, "is_reserved": 0, "is_disabled": 0, "name": "d06370b6042231a7b3e6839a21ec24a2", "bike_id": "d06370b6042231a7b3e6839a21ec24a2", "fusion_lat": 0.0, "lon": -77.013776, "type": "electric_scooter", "fusion_lon": 0.0, "lat": 38.8991855}, {"rental_uris": {"android": "https://dc.lft.to/lastmile_qr_scan", "ios": "https://dc.lft.to/lastmile_qr_scan"}, "is_reserved": 0, "is_disabled": 0, "name": "6134449836d370d24759487de82f1fee", "bike_id": "6134449836d370d24759487de82f1fee", "fusion_lat": 0.0, "lon": -77.06702683333333, "type": "electric_scooter", "fusion_lon": 0.0, "lat": 38.950142666666665}, {"rental_uris": {"android": "https://dc.lft.to/lastmile_qr_scan", "ios": "https://dc.lft.to/lastmile_qr_scan"}, "is_reserved": 0, "is_disabled": 0, "name": "dc3013cc1f0d2933ee4133742bffa5cb", "bike_id": "dc3013cc1f0d2933ee4133742bffa5cb", "fusion_lat": 0.0, "lon": -77.0376015, "type": "electric_scooter", "fusion_lon": 0.0, "lat": 38.9067675}, {"rental_uris": {"android": "https://dc.lft.to/lastmile_qr_scan", "ios": "https://dc.lft.to/lastmile_qr_scan"}, "is_reserved": 0, "is_disabled": 0, "name": "50426e32d0f4eb173621a0657cdd78d7", "bike_id": "50426e32d0f4eb173621a0657cdd78d7", "fusion_lat": 0.0, "lon": -76.98337116666667, "type": "electric_scooter", "fusion_lon": 0.0, "lat": 38.89548166666667}, {"rental_uris": {"android": "https://dc.lft.to/lastmile_qr_scan", "ios": "https://dc.lft.to/lastmile_qr_scan"}, "is_reserved": 0, "is_disabled": 0, "name": "1acf99cbb2ccd9fc29a5d35029b95766", "bike_id": "1acf99cbb2ccd9fc29a5d35029b95766", "fusion_lat": 0.0, "lon": -77.028221, "type": "electric_scooter", "fusion_lon": 0.0, "lat": 38.929719166666665}, {"rental_uris": {"android": "https://dc.lft.to/lastmile_qr_scan", "ios": "https://dc.lft.to/lastmile_qr_scan"}, "is_reserved": 0, "is_disabled": 0, "name": "6db2c2a5fe37513c091063be34d9ea63", "bike_id": "6db2c2a5fe37513c091063be34d9ea63", "fusion_lat": 0.0, "lon": -76.98768666666666, "type": "electric_bike", "fusion_lon": 0.0, "lat": 38.85769483333333}, {"rental_uris": {"android": "https://dc.lft.to/lastmile_qr_scan", "ios": "https://dc.lft.to/lastmile_qr_scan"}, "is_reserved": 0, "is_disabled": 0, "name": "a05b546793deda682c484f6067535851", "bike_id": "a05b546793deda682c484f6067535851", "fusion_lat": 0.0, "lon": -76.97335066666666, "type": "electric_scooter", "fusion_lon": 0.0, "lat": 38.90408516666667}, {"rental_uris": {"android": "https://dc.lft.to/lastmile_qr_scan", "ios": "https://dc.lft.to/lastmile_qr_scan"}, "is_reserved": 0, "is_disabled": 0, "name": "00dcc318dc24df63c03a0217b05ffa43", "bike_id": "00dcc318dc24df63c03a0217b05ffa43", "fusion_lat": 0.0, "lon": -77.03263233333334, "type": "electric_bike", "fusion_lon": 0.0, "lat": 38.91152183333333}, {"rental_uris": {"android": "https://dc.lft.to/lastmile_qr_scan", "ios": "https://dc.lft.to/lastmile_qr_scan"}, "is_reserved": 0, "is_disabled": 0, "name": "42850f5ada61248e7ac848ac325b9645", "bike_id": "42850f5ada61248e7ac848ac325b9645", "fusion_lat": 0.0, "lon": -77.02794683333333, "type": "electric_scooter", "fusion_lon": 0.0, "lat": 38.884322833333336}, {"rental_uris": {"android": "https://dc.lft.to/lastmile_qr_scan", "ios": "https://dc.lft.to/lastmile_qr_scan"}, "is_reserved": 0, "is_disabled": 0, "name": "f31b26a3ea3c739deb23dd6c39c60de4", "bike_id": "f31b26a3ea3c739deb23dd6c39c60de4", "fusion_lat": 0.0, "lon": -77.01953233333333, "type": "electric_scooter", "fusion_lon": 0.0, "lat": 38.9233205}, {"rental_uris": {"android": "https://dc.lft.to/lastmile_qr_scan", "ios": "https://dc.lft.to/lastmile_qr_scan"}, "is_reserved": 0, "is_disabled": 0, "name": "e6e8087b9ee21bdfc1c08de1892b2bc5", "bike_id": "e6e8087b9ee21bdfc1c08de1892b2bc5", "fusion_lat": 0.0, "lon": -77.02092066666667, "type": "electric_scooter", "fusion_lon": 0.0, "lat": 38.92166233333333}, {"rental_uris": {"android": "https://dc.lft.to/lastmile_qr_scan", "ios": "https://dc.lft.to/lastmile_qr_scan"}, "is_reserved": 0, "is_disabled": 0, "name": "5813434f0940f35587c52e4dc5052511", "bike_id": "5813434f0940f35587c52e4dc5052511", "fusion_lat": 0.0, "lon": -77.12976666666667, "type": "electric_bike", "fusion_lon": 0.0, "lat": 38.79989166666667}, {"rental_uris": {"android": "https://dc.lft.to/lastmile_qr_scan", "ios": "https://dc.lft.to/lastmile_qr_scan"}, "is_reserved": 0, "is_disabled": 0, "name": "4f3ae0cc6f57597e0d5f0886c44461e3", "bike_id": "4f3ae0cc6f57597e0d5f0886c44461e3", "fusion_lat": 0.0, "lon": -77.00376433333334, "type": "electric_scooter", "fusion_lon": 0.0, "lat": 38.908785}, {"rental_uris": {"android": "https://dc.lft.to/lastmile_qr_scan", "ios": "https://dc.lft.to/lastmile_qr_scan"}, "is_reserved": 0, "is_disabled": 0, "name": "6e50ad44bd73bbafc1f38cf40bfe5b74", "bike_id": "6e50ad44bd73bbafc1f38cf40bfe5b74", "fusion_lat": 0.0, "lon": -77.03431666666667, "type": "electric_scooter", "fusion_lon": 0.0, "lat": 38.904479}, {"rental_uris": {"android": "https://dc.lft.to/lastmile_qr_scan", "ios": "https://dc.lft.to/lastmile_qr_scan"}, "is_reserved": 0, "is_disabled": 0, "name": "fd3c1bb0ae9a55508ba89796bcfba7d9", "bike_id": "fd3c1bb0ae9a55508ba89796bcfba7d9", "fusion_lat": 0.0, "lon": -77.072698, "type": "electric_scooter", "fusion_lon": 0.0, "lat": 38.93470533333333}, {"rental_uris": {"android": "https://dc.lft.to/lastmile_qr_scan", "ios": "https://dc.lft.to/lastmile_qr_scan"}, "is_reserved": 0, "is_disabled": 0, "name": "1141ff66e9309f33efa135796d6411c1", "bike_id": "1141ff66e9309f33efa135796d6411c1", "fusion_lat": 0.0, "lon": -76.97803766666667, "type": "electric_scooter", "fusion_lon": 0.0, "lat": 38.920345166666664}, {"rental_uris": {"android": "https://dc.lft.to/lastmile_qr_scan", "ios": "https://dc.lft.to/lastmile_qr_scan"}, "is_reserved": 0, "is_disabled": 0, "name": "35b201fa76003c36d8d4991daf41eecc", "bike_id": "35b201fa76003c36d8d4991daf41eecc", "fusion_lat": 0.0, "lon": -77.01676183333333, "type": "electric_scooter", "fusion_lon": 0.0, "lat": 38.92041716666667}, {"rental_uris": {"android": "https://dc.lft.to/lastmile_qr_scan", "ios": "https://dc.lft.to/lastmile_qr_scan"}, "is_reserved": 0, "is_disabled": 0, "name": "d0ad28af65e4e44d6065ff054bf6bf41", "bike_id": "d0ad28af65e4e44d6065ff054bf6bf41", "fusion_lat": 0.0, "lon": -77.05926983333333, "type": "electric_scooter", "fusion_lon": 0.0, "lat": 38.943043333333335}, {"rental_uris": {"android": "https://dc.lft.to/lastmile_qr_scan", "ios": "https://dc.lft.to/lastmile_qr_scan"}, "is_reserved": 0, "is_disabled": 0, "name": "677a9a3fd6c49126aa18a69fc578f129", "bike_id": "677a9a3fd6c49126aa18a69fc578f129", "fusion_lat": 0.0, "lon": -77.02019483333333, "type": "electric_scooter", "fusion_lon": 0.0, "lat": 38.91569416666667}, {"rental_uris": {"android": "https://dc.lft.to/lastmile_qr_scan", "ios": "https://dc.lft.to/lastmile_qr_scan"}, "is_reserved": 0, "is_disabled": 0, "name": "aaba67048155a4f23aeb5720c763e5bc", "bike_id": "aaba67048155a4f23aeb5720c763e5bc", "fusion_lat": 0.0, "lon": -77.0111555, "type": "electric_scooter", "fusion_lon": 0.0, "lat": 38.8851055}, {"rental_uris": {"android": "https://dc.lft.to/lastmile_qr_scan", "ios": "https://dc.lft.to/lastmile_qr_scan"}, "is_reserved": 0, "is_disabled": 0, "name": "75811cf620144a5cc6f63ba382d3c816", "bike_id": "75811cf620144a5cc6f63ba382d3c816", "fusion_lat": 0.0, "lon": -77.02024116666666, "type": "electric_scooter", "fusion_lon": 0.0, "lat": 38.924527}, {"rental_uris": {"android": "https://dc.lft.to/lastmile_qr_scan", "ios": "https://dc.lft.to/lastmile_qr_scan"}, "is_reserved": 0, "is_disabled": 0, "name": "a9692c964da24bfd2bd97f44d0acd0d4", "bike_id": "a9692c964da24bfd2bd97f44d0acd0d4", "fusion_lat": 0.0, "lon": -77.04671383333333, "type": "electric_scooter", "fusion_lon": 0.0, "lat": 38.89556}, {"rental_uris": {"android": "https://dc.lft.to/lastmile_qr_scan", "ios": "https://dc.lft.to/lastmile_qr_scan"}, "is_reserved": 0, "is_disabled": 0, "name": "f4a3cb06e13dad197f99da6493e218eb", "bike_id": "f4a3cb06e13dad197f99da6493e218eb", "fusion_lat": 0.0, "lon": -77.0347695, "type": "electric_scooter", "fusion_lon": 0.0, "lat": 38.901449166666666}, {"rental_uris": {"android": "https://dc.lft.to/lastmile_qr_scan", "ios": "https://dc.lft.to/lastmile_qr_scan"}, "is_reserved": 0, "is_disabled": 0, "name": "21538b724f326c52251dc4fcece34e1d", "bike_id": "21538b724f326c52251dc4fcece34e1d", "fusion_lat": 0.0, "lon": -77.00065166666667, "type": "electric_bike", "fusion_lon": 0.0, "lat": 38.919078}, {"rental_uris": {"android": "https://dc.lft.to/lastmile_qr_scan", "ios": "https://dc.lft.to/lastmile_qr_scan"}, "is_reserved": 0, "is_disabled": 0, "name": "a664bb882fab843f4d860888c15bffe5", "bike_id": "a664bb882fab843f4d860888c15bffe5", "fusion_lat": 0.0, "lon": -77.019925, "type": "electric_scooter", "fusion_lon": 0.0, "lat": 38.901166333333336}, {"rental_uris": {"android": "https://dc.lft.to/lastmile_qr_scan", "ios": "https://dc.lft.to/lastmile_qr_scan"}, "is_reserved": 0, "is_disabled": 0, "name": "ef009e9fb67459a0bd61b537c2d85b0f", "bike_id": "ef009e9fb67459a0bd61b537c2d85b0f", "fusion_lat": 0.0, "lon": -77.04491016666667, "type": "electric_scooter", "fusion_lon": 0.0, "lat": 38.91516033333333}, {"rental_uris": {"android": "https://dc.lft.to/lastmile_qr_scan", "ios": "https://dc.lft.to/lastmile_qr_scan"}, "is_reserved": 0, "is_disabled": 0, "name": "72ca28533a4fd8d7bb2269cf752824a6", "bike_id": "72ca28533a4fd8d7bb2269cf752824a6", "fusion_lat": 0.0, "lon": -77.050237, "type": "electric_scooter", "fusion_lon": 0.0, "lat": 38.896551}, {"rental_uris": {"android": "https://dc.lft.to/lastmile_qr_scan", "ios": "https://dc.lft.to/lastmile_qr_scan"}, "is_reserved": 0, "is_disabled": 0, "name": "f57fd1536d9379515c0210d924d635fb", "bike_id": "f57fd1536d9379515c0210d924d635fb", "fusion_lat": 0.0, "lon": -77.040121, "type": "electric_scooter", "fusion_lon": 0.0, "lat": 38.89841116666667}, {"rental_uris": {"android": "https://dc.lft.to/lastmile_qr_scan", "ios": "https://dc.lft.to/lastmile_qr_scan"}, "is_reserved": 0, "is_disabled": 0, "name": "189bf17d894dd7e7febe221db5adc4ec", "bike_id": "189bf17d894dd7e7febe221db5adc4ec", "fusion_lat": 0.0, "lon": -77.01046666666667, "type": "electric_scooter", "fusion_lon": 0.0, "lat": 38.92133316666666}, {"rental_uris": {"android": "https://dc.lft.to/lastmile_qr_scan", "ios": "https://dc.lft.to/lastmile_qr_scan"}, "is_reserved": 0, "is_disabled": 0, "name": "bcc9eeb57fa63c89932de7caf5ae4322", "bike_id": "bcc9eeb57fa63c89932de7caf5ae4322", "fusion_lat": 0.0, "lon": -77.0462515, "type": "electric_scooter", "fusion_lon": 0.0, "lat": 38.914563333333334}, {"rental_uris": {"android": "https://dc.lft.to/lastmile_qr_scan", "ios": "https://dc.lft.to/lastmile_qr_scan"}, "is_reserved": 0, "is_disabled": 0, "name": "ca91b0a5206685a78350f9b795ae2563", "bike_id": "ca91b0a5206685a78350f9b795ae2563", "fusion_lat": 0.0, "lon": -76.98386866666667, "type": "electric_scooter", "fusion_lon": 0.0, "lat": 38.87947783333333}, {"rental_uris": {"android": "https://dc.lft.to/lastmile_qr_scan", "ios": "https://dc.lft.to/lastmile_qr_scan"}, "is_reserved": 0, "is_disabled": 0, "name": "889a2a231722c1026de609d4522d597e", "bike_id": "889a2a231722c1026de609d4522d597e", "fusion_lat": 0.0, "lon": -77.024208, "type": "electric_scooter", "fusion_lon": 0.0, "lat": 38.9028615}, {"rental_uris": {"android": "https://dc.lft.to/lastmile_qr_scan", "ios": "https://dc.lft.to/lastmile_qr_scan"}, "is_reserved": 0, "is_disabled": 0, "name": "a143764d5d6050beb993ace92c39920b", "bike_id": "a143764d5d6050beb993ace92c39920b", "fusion_lat": 0.0, "lon": -76.9811585, "type": "electric_bike", "fusion_lon": 0.0, "lat": 38.945723}, {"rental_uris": {"android": "https://dc.lft.to/lastmile_qr_scan", "ios": "https://dc.lft.to/lastmile_qr_scan"}, "is_reserved": 0, "is_disabled": 0, "name": "c3dfc7e89684445d7925d4005d2f3293", "bike_id": "c3dfc7e89684445d7925d4005d2f3293", "fusion_lat": 0.0, "lon": -77.02817566666667, "type": "electric_scooter", "fusion_lon": 0.0, "lat": 38.904673333333335}, {"rental_uris": {"android": "https://dc.lft.to/lastmile_qr_scan", "ios": "https://dc.lft.to/lastmile_qr_scan"}, "is_reserved": 0, "is_disabled": 0, "name": "19c89aeb2169a02df4da71977e2bd983", "bike_id": "19c89aeb2169a02df4da71977e2bd983", "fusion_lat": 0.0, "lon": -77.03893433333333, "type": "electric_scooter", "fusion_lon": 0.0, "lat": 38.920448666666665}, {"rental_uris": {"android": "https://dc.lft.to/lastmile_qr_scan", "ios": "https://dc.lft.to/lastmile_qr_scan"}, "is_reserved": 0, "is_disabled": 0, "name": "a68302efb0c4b44dae2a14e6f8a789a8", "bike_id": "a68302efb0c4b44dae2a14e6f8a789a8", "fusion_lat": 0.0, "lon": -77.07849883333333, "type": "electric_scooter", "fusion_lon": 0.0, "lat": 38.946034}, {"rental_uris": {"android": "https://dc.lft.to/lastmile_qr_scan", "ios": "https://dc.lft.to/lastmile_qr_scan"}, "is_reserved": 0, "is_disabled": 0, "name": "082379b5f7d58be360e8710b0353a71b", "bike_id": "082379b5f7d58be360e8710b0353a71b", "fusion_lat": 0.0, "lon": -77.02787416666666, "type": "electric_scooter", "fusion_lon": 0.0, "lat": 38.961301666666664}, {"rental_uris": {"android": "https://dc.lft.to/lastmile_qr_scan", "ios": "https://dc.lft.to/lastmile_qr_scan"}, "is_reserved": 0, "is_disabled": 0, "name": "092aa55437cd5b4182bd48ec055bf4ca", "bike_id": "092aa55437cd5b4182bd48ec055bf4ca", "fusion_lat": 0.0, "lon": -77.01816533333333, "type": "electric_scooter", "fusion_lon": 0.0, "lat": 38.921601833333334}, {"rental_uris": {"android": "https://dc.lft.to/lastmile_qr_scan", "ios": "https://dc.lft.to/lastmile_qr_scan"}, "is_reserved": 0, "is_disabled": 0, "name": "51ca76b33204fa137ed584e39039cbf4", "bike_id": "51ca76b33204fa137ed584e39039cbf4", "fusion_lat": 0.0, "lon": -77.068398, "type": "electric_scooter", "fusion_lon": 0.0, "lat": 38.917312333333335}, {"rental_uris": {"android": "https://dc.lft.to/lastmile_qr_scan", "ios": "https://dc.lft.to/lastmile_qr_scan"}, "is_reserved": 0, "is_disabled": 0, "name": "3df1e92e6885c36098bd04a59d64b7f4", "bike_id": "3df1e92e6885c36098bd04a59d64b7f4", "fusion_lat": 0.0, "lon": -77.04050983333333, "type": "electric_scooter", "fusion_lon": 0.0, "lat": 38.90873916666666}, {"rental_uris": {"android": "https://dc.lft.to/lastmile_qr_scan", "ios": "https://dc.lft.to/lastmile_qr_scan"}, "is_reserved": 0, "is_disabled": 0, "name": "7cae773e04df28422f652edc9472f189", "bike_id": "7cae773e04df28422f652edc9472f189", "fusion_lat": 0.0, "lon": -76.94085633333333, "type": "electric_scooter", "fusion_lon": 0.0, "lat": 38.891217}, {"rental_uris": {"android": "https://dc.lft.to/lastmile_qr_scan", "ios": "https://dc.lft.to/lastmile_qr_scan"}, "is_reserved": 0, "is_disabled": 0, "name": "ec786852d1fb577a471946d2b8e03be9", "bike_id": "ec786852d1fb577a471946d2b8e03be9", "fusion_lat": 0.0, "lon": -77.02379883333333, "type": "electric_scooter", "fusion_lon": 0.0, "lat": 38.95274033333333}, {"rental_uris": {"android": "https://dc.lft.to/lastmile_qr_scan", "ios": "https://dc.lft.to/lastmile_qr_scan"}, "is_reserved": 0, "is_disabled": 0, "name": "97b92023c68d7ea3cdcd00453d0cf102", "bike_id": "97b92023c68d7ea3cdcd00453d0cf102", "fusion_lat": 0.0, "lon": -77.04061183333333, "type": "electric_scooter", "fusion_lon": 0.0, "lat": 38.90381516666667}, {"rental_uris": {"android": "https://dc.lft.to/lastmile_qr_scan", "ios": "https://dc.lft.to/lastmile_qr_scan"}, "is_reserved": 0, "is_disabled": 0, "name": "aa531e2aa7a42d8b62fa6f29cfc81ef4", "bike_id": "aa531e2aa7a42d8b62fa6f29cfc81ef4", "fusion_lat": 0.0, "lon": -77.04996833333334, "type": "electric_scooter", "fusion_lon": 0.0, "lat": 38.9012025}, {"rental_uris": {"android": "https://dc.lft.to/lastmile_qr_scan", "ios": "https://dc.lft.to/lastmile_qr_scan"}, "is_reserved": 0, "is_disabled": 0, "name": "f51203444d639e73fcfafbc2aa22aa68", "bike_id": "f51203444d639e73fcfafbc2aa22aa68", "fusion_lat": 0.0, "lon": -77.06315233333333, "type": "electric_scooter", "fusion_lon": 0.0, "lat": 38.943781666666666}, {"rental_uris": {"android": "https://dc.lft.to/lastmile_qr_scan", "ios": "https://dc.lft.to/lastmile_qr_scan"}, "is_reserved": 0, "is_disabled": 0, "name": "648cdd6f6d10648cf04b4a13595132a2", "bike_id": "648cdd6f6d10648cf04b4a13595132a2", "fusion_lat": 0.0, "lon": -77.032226, "type": "electric_scooter", "fusion_lon": 0.0, "lat": 38.9165485}, {"rental_uris": {"android": "https://dc.lft.to/lastmile_qr_scan", "ios": "https://dc.lft.to/lastmile_qr_scan"}, "is_reserved": 0, "is_disabled": 0, "name": "33433ae40dfdeb0f652980ba1ca85e0e", "bike_id": "33433ae40dfdeb0f652980ba1ca85e0e", "fusion_lat": 0.0, "lon": -77.0150925, "type": "electric_scooter", "fusion_lon": 0.0, "lat": 38.895615666666664}, {"rental_uris": {"android": "https://dc.lft.to/lastmile_qr_scan", "ios": "https://dc.lft.to/lastmile_qr_scan"}, "is_reserved": 0, "is_disabled": 0, "name": "5de8641b75bff219455dffa9ac6e05cf", "bike_id": "5de8641b75bff219455dffa9ac6e05cf", "fusion_lat": 0.0, "lon": -77.03446166666667, "type": "electric_scooter", "fusion_lon": 0.0, "lat": 38.90284616666667}, {"rental_uris": {"android": "https://dc.lft.to/lastmile_qr_scan", "ios": "https://dc.lft.to/lastmile_qr_scan"}, "is_reserved": 0, "is_disabled": 0, "name": "0a10ca7d78ebf96307f9f4a7ee4c151b", "bike_id": "0a10ca7d78ebf96307f9f4a7ee4c151b", "fusion_lat": 0.0, "lon": -77.0452215, "type": "electric_scooter", "fusion_lon": 0.0, "lat": 38.902787000000004}, {"rental_uris": {"android": "https://dc.lft.to/lastmile_qr_scan", "ios": "https://dc.lft.to/lastmile_qr_scan"}, "is_reserved": 0, "is_disabled": 0, "name": "a9b02c35d9980596465cff78e8861437", "bike_id": "a9b02c35d9980596465cff78e8861437", "fusion_lat": 0.0, "lon": -77.0091125, "type": "electric_scooter", "fusion_lon": 0.0, "lat": 38.899006166666666}, {"rental_uris": {"android": "https://dc.lft.to/lastmile_qr_scan", "ios": "https://dc.lft.to/lastmile_qr_scan"}, "is_reserved": 0, "is_disabled": 0, "name": "3c1f5fbc675bbf5c5a0f894b6f4d8783", "bike_id": "3c1f5fbc675bbf5c5a0f894b6f4d8783", "fusion_lat": 0.0, "lon": -77.05336816666667, "type": "electric_scooter", "fusion_lon": 0.0, "lat": 38.905080833333336}, {"rental_uris": {"android": "https://dc.lft.to/lastmile_qr_scan", "ios": "https://dc.lft.to/lastmile_qr_scan"}, "is_reserved": 0, "is_disabled": 0, "name": "0846d7cfa71bda2d8a0a02021e9acb15", "bike_id": "0846d7cfa71bda2d8a0a02021e9acb15", "fusion_lat": 0.0, "lon": -77.02690316666667, "type": "electric_scooter", "fusion_lon": 0.0, "lat": 38.90245066666667}, {"rental_uris": {"android": "https://dc.lft.to/lastmile_qr_scan", "ios": "https://dc.lft.to/lastmile_qr_scan"}, "is_reserved": 0, "is_disabled": 0, "name": "6d069800518a06ac9a8d02fbaf0041d3", "bike_id": "6d069800518a06ac9a8d02fbaf0041d3", "fusion_lat": 0.0, "lon": -77.00922766666666, "type": "electric_scooter", "fusion_lon": 0.0, "lat": 38.8955215}, {"rental_uris": {"android": "https://dc.lft.to/lastmile_qr_scan", "ios": "https://dc.lft.to/lastmile_qr_scan"}, "is_reserved": 0, "is_disabled": 0, "name": "c57485415342e83bb88223e5838b32cf", "bike_id": "c57485415342e83bb88223e5838b32cf", "fusion_lat": 0.0, "lon": -77.01569616666667, "type": "electric_scooter", "fusion_lon": 0.0, "lat": 38.9268655}, {"rental_uris": {"android": "https://dc.lft.to/lastmile_qr_scan", "ios": "https://dc.lft.to/lastmile_qr_scan"}, "is_reserved": 0, "is_disabled": 0, "name": "aae1eeb2a30f764ccc17947ab4334f3b", "bike_id": "aae1eeb2a30f764ccc17947ab4334f3b", "fusion_lat": 0.0, "lon": -77.00925666666667, "type": "electric_scooter", "fusion_lon": 0.0, "lat": 38.91377216666667}, {"rental_uris": {"android": "https://dc.lft.to/lastmile_qr_scan", "ios": "https://dc.lft.to/lastmile_qr_scan"}, "is_reserved": 0, "is_disabled": 0, "name": "98cf0c037ec7f5f2ec213b6ab16107d4", "bike_id": "98cf0c037ec7f5f2ec213b6ab16107d4", "fusion_lat": 0.0, "lon": -77.03629416666666, "type": "electric_scooter", "fusion_lon": 0.0, "lat": 38.91628983333333}, {"rental_uris": {"android": "https://dc.lft.to/lastmile_qr_scan", "ios": "https://dc.lft.to/lastmile_qr_scan"}, "is_reserved": 0, "is_disabled": 0, "name": "e03fda432469e1b1591eb1f133a50161", "bike_id": "e03fda432469e1b1591eb1f133a50161", "fusion_lat": 0.0, "lon": -77.023023, "type": "electric_scooter", "fusion_lon": 0.0, "lat": 38.90181583333333}, {"rental_uris": {"android": "https://dc.lft.to/lastmile_qr_scan", "ios": "https://dc.lft.to/lastmile_qr_scan"}, "is_reserved": 0, "is_disabled": 0, "name": "db46ee3110dc916f8012e122094133e6", "bike_id": "db46ee3110dc916f8012e122094133e6", "fusion_lat": 0.0, "lon": -77.02936633333333, "type": "electric_scooter", "fusion_lon": 0.0, "lat": 38.9206075}, {"rental_uris": {"android": "https://dc.lft.to/lastmile_qr_scan", "ios": "https://dc.lft.to/lastmile_qr_scan"}, "is_reserved": 0, "is_disabled": 0, "name": "7adb80e646e80fa4ee40848ade42f164", "bike_id": "7adb80e646e80fa4ee40848ade42f164", "fusion_lat": 0.0, "lon": -77.0238185, "type": "electric_scooter", "fusion_lon": 0.0, "lat": 38.879256166666664}, {"rental_uris": {"android": "https://dc.lft.to/lastmile_qr_scan", "ios": "https://dc.lft.to/lastmile_qr_scan"}, "is_reserved": 0, "is_disabled": 0, "name": "986d3cb1f6d6ac9c36de26c6a79918a7", "bike_id": "986d3cb1f6d6ac9c36de26c6a79918a7", "fusion_lat": 0.0, "lon": -76.98572933333334, "type": "electric_scooter", "fusion_lon": 0.0, "lat": 38.900208166666665}, {"rental_uris": {"android": "https://dc.lft.to/lastmile_qr_scan", "ios": "https://dc.lft.to/lastmile_qr_scan"}, "is_reserved": 0, "is_disabled": 0, "name": "65847d5c8379f6c6410a9ceb608eba52", "bike_id": "65847d5c8379f6c6410a9ceb608eba52", "fusion_lat": 0.0, "lon": -76.925873, "type": "electric_scooter", "fusion_lon": 0.0, "lat": 38.8973485}, {"rental_uris": {"android": "https://dc.lft.to/lastmile_qr_scan", "ios": "https://dc.lft.to/lastmile_qr_scan"}, "is_reserved": 0, "is_disabled": 0, "name": "63e37e78db7ee30ae64784c60f0f7914", "bike_id": "63e37e78db7ee30ae64784c60f0f7914", "fusion_lat": 0.0, "lon": -77.02891566666666, "type": "electric_scooter", "fusion_lon": 0.0, "lat": 38.926800666666665}, {"rental_uris": {"android": "https://dc.lft.to/lastmile_qr_scan", "ios": "https://dc.lft.to/lastmile_qr_scan"}, "is_reserved": 0, "is_disabled": 0, "name": "a70f9037d4d43618bfe3d290b608d152", "bike_id": "a70f9037d4d43618bfe3d290b608d152", "fusion_lat": 0.0, "lon": -77.040092, "type": "electric_scooter", "fusion_lon": 0.0, "lat": 38.924346666666665}, {"rental_uris": {"android": "https://dc.lft.to/lastmile_qr_scan", "ios": "https://dc.lft.to/lastmile_qr_scan"}, "is_reserved": 0, "is_disabled": 0, "name": "6591d3d316f4c546505134793ab2e156", "bike_id": "6591d3d316f4c546505134793ab2e156", "fusion_lat": 0.0, "lon": -77.02426883333334, "type": "electric_scooter", "fusion_lon": 0.0, "lat": 38.907728}, {"rental_uris": {"android": "https://dc.lft.to/lastmile_qr_scan", "ios": "https://dc.lft.to/lastmile_qr_scan"}, "is_reserved": 0, "is_disabled": 0, "name": "87bb8ebad1def6384c4bb128737fbdd6", "bike_id": "87bb8ebad1def6384c4bb128737fbdd6", "fusion_lat": 0.0, "lon": -76.986409, "type": "electric_scooter", "fusion_lon": 0.0, "lat": 38.8551185}, {"rental_uris": {"android": "https://dc.lft.to/lastmile_qr_scan", "ios": "https://dc.lft.to/lastmile_qr_scan"}, "is_reserved": 0, "is_disabled": 0, "name": "85e8067524fd7cf000ff6c0c63fc4541", "bike_id": "85e8067524fd7cf000ff6c0c63fc4541", "fusion_lat": 0.0, "lon": -77.02699, "type": "electric_scooter", "fusion_lon": 0.0, "lat": 38.9068505}, {"rental_uris": {"android": "https://dc.lft.to/lastmile_qr_scan", "ios": "https://dc.lft.to/lastmile_qr_scan"}, "is_reserved": 0, "is_disabled": 0, "name": "c5e2aedba4e95fb57367762fe19b692b", "bike_id": "c5e2aedba4e95fb57367762fe19b692b", "fusion_lat": 0.0, "lon": -77.0415665, "type": "electric_scooter", "fusion_lon": 0.0, "lat": 38.917165}, {"rental_uris": {"android": "https://dc.lft.to/lastmile_qr_scan", "ios": "https://dc.lft.to/lastmile_qr_scan"}, "is_reserved": 0, "is_disabled": 0, "name": "019d16b53904c5e351c5b6f7af2b856e", "bike_id": "019d16b53904c5e351c5b6f7af2b856e", "fusion_lat": 0.0, "lon": -77.02376816666667, "type": "electric_scooter", "fusion_lon": 0.0, "lat": 38.92078683333333}, {"rental_uris": {"android": "https://dc.lft.to/lastmile_qr_scan", "ios": "https://dc.lft.to/lastmile_qr_scan"}, "is_reserved": 0, "is_disabled": 0, "name": "b447b2b19b08374bbfe0dc74877d625c", "bike_id": "b447b2b19b08374bbfe0dc74877d625c", "fusion_lat": 0.0, "lon": -77.02884533333334, "type": "electric_scooter", "fusion_lon": 0.0, "lat": 38.913520166666665}, {"rental_uris": {"android": "https://dc.lft.to/lastmile_qr_scan", "ios": "https://dc.lft.to/lastmile_qr_scan"}, "is_reserved": 0, "is_disabled": 0, "name": "bd3af2686e59738f310edf89a33e3b9b", "bike_id": "bd3af2686e59738f310edf89a33e3b9b", "fusion_lat": 0.0, "lon": -77.032828, "type": "electric_scooter", "fusion_lon": 0.0, "lat": 38.932530166666666}, {"rental_uris": {"android": "https://dc.lft.to/lastmile_qr_scan", "ios": "https://dc.lft.to/lastmile_qr_scan"}, "is_reserved": 0, "is_disabled": 0, "name": "d275f9ca48b5cfd393d62962fc185ff8", "bike_id": "d275f9ca48b5cfd393d62962fc185ff8", "fusion_lat": 0.0, "lon": -76.9927835, "type": "electric_bike", "fusion_lon": 0.0, "lat": 38.97261733333333}, {"rental_uris": {"android": "https://dc.lft.to/lastmile_qr_scan", "ios": "https://dc.lft.to/lastmile_qr_scan"}, "is_reserved": 0, "is_disabled": 0, "name": "8d612eb96f98103bd8ba87918abf902b", "bike_id": "8d612eb96f98103bd8ba87918abf902b", "fusion_lat": 0.0, "lon": -76.99698266666667, "type": "electric_bike", "fusion_lon": 0.0, "lat": 38.838688}, {"rental_uris": {"android": "https://dc.lft.to/lastmile_qr_scan", "ios": "https://dc.lft.to/lastmile_qr_scan"}, "is_reserved": 0, "is_disabled": 0, "name": "dcfd6439ca76ea245264744374be9f64", "bike_id": "dcfd6439ca76ea245264744374be9f64", "fusion_lat": 0.0, "lon": -77.0259525, "type": "electric_scooter", "fusion_lon": 0.0, "lat": 38.903449333333334}, {"rental_uris": {"android": "https://dc.lft.to/lastmile_qr_scan", "ios": "https://dc.lft.to/lastmile_qr_scan"}, "is_reserved": 0, "is_disabled": 0, "name": "0d8b0744e5d51d1f2f0c7d90709b526e", "bike_id": "0d8b0744e5d51d1f2f0c7d90709b526e", "fusion_lat": 0.0, "lon": -77.0395805, "type": "electric_scooter", "fusion_lon": 0.0, "lat": 38.892480166666665}, {"rental_uris": {"android": "https://dc.lft.to/lastmile_qr_scan", "ios": "https://dc.lft.to/lastmile_qr_scan"}, "is_reserved": 0, "is_disabled": 0, "name": "f1eb39acd1e26cd0feb54382070143d0", "bike_id": "f1eb39acd1e26cd0feb54382070143d0", "fusion_lat": 0.0, "lon": -77.02681466666667, "type": "electric_scooter", "fusion_lon": 0.0, "lat": 38.896768}, {"rental_uris": {"android": "https://dc.lft.to/lastmile_qr_scan", "ios": "https://dc.lft.to/lastmile_qr_scan"}, "is_reserved": 0, "is_disabled": 0, "name": "211c7ab92e7d32806c89510167626738", "bike_id": "211c7ab92e7d32806c89510167626738", "fusion_lat": 0.0, "lon": -76.99773033333334, "type": "electric_scooter", "fusion_lon": 0.0, "lat": 38.901278833333336}, {"rental_uris": {"android": "https://dc.lft.to/lastmile_qr_scan", "ios": "https://dc.lft.to/lastmile_qr_scan"}, "is_reserved": 0, "is_disabled": 0, "name": "52ffddc5e11a8f07e2207a9c04ebfe6c", "bike_id": "52ffddc5e11a8f07e2207a9c04ebfe6c", "fusion_lat": 0.0, "lon": -77.0445425, "type": "electric_scooter", "fusion_lon": 0.0, "lat": 38.90260283333333}, {"rental_uris": {"android": "https://dc.lft.to/lastmile_qr_scan", "ios": "https://dc.lft.to/lastmile_qr_scan"}, "is_reserved": 0, "is_disabled": 0, "name": "207bba7f4d9464e78e098bede2a06b3b", "bike_id": "207bba7f4d9464e78e098bede2a06b3b", "fusion_lat": 0.0, "lon": -77.03660783333333, "type": "electric_scooter", "fusion_lon": 0.0, "lat": 38.90292016666667}, {"rental_uris": {"android": "https://dc.lft.to/lastmile_qr_scan", "ios": "https://dc.lft.to/lastmile_qr_scan"}, "is_reserved": 0, "is_disabled": 0, "name": "63fcb22a607c0c926984bb2d3cf6d663", "bike_id": "63fcb22a607c0c926984bb2d3cf6d663", "fusion_lat": 0.0, "lon": -77.02164033333334, "type": "electric_scooter", "fusion_lon": 0.0, "lat": 38.925071}, {"rental_uris": {"android": "https://dc.lft.to/lastmile_qr_scan", "ios": "https://dc.lft.to/lastmile_qr_scan"}, "is_reserved": 0, "is_disabled": 0, "name": "dd53c0300e09c3b25d54664d23d88adb", "bike_id": "dd53c0300e09c3b25d54664d23d88adb", "fusion_lat": 0.0, "lon": -77.04088533333334, "type": "electric_scooter", "fusion_lon": 0.0, "lat": 38.903872}, {"rental_uris": {"android": "https://dc.lft.to/lastmile_qr_scan", "ios": "https://dc.lft.to/lastmile_qr_scan"}, "is_reserved": 0, "is_disabled": 0, "name": "32cab55ee65929221c7554d444f0a315", "bike_id": "32cab55ee65929221c7554d444f0a315", "fusion_lat": 0.0, "lon": -77.01350383333333, "type": "electric_scooter", "fusion_lon": 0.0, "lat": 38.91948583333333}, {"rental_uris": {"android": "https://dc.lft.to/lastmile_qr_scan", "ios": "https://dc.lft.to/lastmile_qr_scan"}, "is_reserved": 0, "is_disabled": 0, "name": "8a7349e501668b4423f08c4d3ed654b6", "bike_id": "8a7349e501668b4423f08c4d3ed654b6", "fusion_lat": 0.0, "lon": -77.02446, "type": "electric_scooter", "fusion_lon": 0.0, "lat": 38.94979266666667}, {"rental_uris": {"android": "https://dc.lft.to/lastmile_qr_scan", "ios": "https://dc.lft.to/lastmile_qr_scan"}, "is_reserved": 0, "is_disabled": 0, "name": "83394876515bc554703747efca7fd4d9", "bike_id": "83394876515bc554703747efca7fd4d9", "fusion_lat": 0.0, "lon": -77.02718116666667, "type": "electric_scooter", "fusion_lon": 0.0, "lat": 38.91378866666667}, {"rental_uris": {"android": "https://dc.lft.to/lastmile_qr_scan", "ios": "https://dc.lft.to/lastmile_qr_scan"}, "is_reserved": 0, "is_disabled": 0, "name": "260b75d37c2c5963f2116645accfdcfd", "bike_id": "260b75d37c2c5963f2116645accfdcfd", "fusion_lat": 0.0, "lon": -77.04552433333333, "type": "electric_scooter", "fusion_lon": 0.0, "lat": 38.90404683333333}, {"rental_uris": {"android": "https://dc.lft.to/lastmile_qr_scan", "ios": "https://dc.lft.to/lastmile_qr_scan"}, "is_reserved": 0, "is_disabled": 0, "name": "6ec7fb093c9d8ed6e7f24472091d8ee2", "bike_id": "6ec7fb093c9d8ed6e7f24472091d8ee2", "fusion_lat": 0.0, "lon": -77.02247366666667, "type": "electric_scooter", "fusion_lon": 0.0, "lat": 38.9024175}, {"rental_uris": {"android": "https://dc.lft.to/lastmile_qr_scan", "ios": "https://dc.lft.to/lastmile_qr_scan"}, "is_reserved": 0, "is_disabled": 0, "name": "853dc5a6d66baba9ef5428e3ce947eea", "bike_id": "853dc5a6d66baba9ef5428e3ce947eea", "fusion_lat": 0.0, "lon": -77.032662, "type": "electric_scooter", "fusion_lon": 0.0, "lat": 38.919996}, {"rental_uris": {"android": "https://dc.lft.to/lastmile_qr_scan", "ios": "https://dc.lft.to/lastmile_qr_scan"}, "is_reserved": 0, "is_disabled": 0, "name": "977c8d6be82818d0293a9668267bbc34", "bike_id": "977c8d6be82818d0293a9668267bbc34", "fusion_lat": 0.0, "lon": -77.04679233333333, "type": "electric_scooter", "fusion_lon": 0.0, "lat": 38.897425166666665}, {"rental_uris": {"android": "https://dc.lft.to/lastmile_qr_scan", "ios": "https://dc.lft.to/lastmile_qr_scan"}, "is_reserved": 0, "is_disabled": 0, "name": "2d58213b83d98a7fb3c59c86c26ebefa", "bike_id": "2d58213b83d98a7fb3c59c86c26ebefa", "fusion_lat": 0.0, "lon": -77.03263583333333, "type": "electric_scooter", "fusion_lon": 0.0, "lat": 38.9205335}, {"rental_uris": {"android": "https://dc.lft.to/lastmile_qr_scan", "ios": "https://dc.lft.to/lastmile_qr_scan"}, "is_reserved": 0, "is_disabled": 0, "name": "b387fd5f6832e8b0f04a1a54b0cf3711", "bike_id": "b387fd5f6832e8b0f04a1a54b0cf3711", "fusion_lat": 0.0, "lon": -77.02226666666667, "type": "electric_scooter", "fusion_lon": 0.0, "lat": 38.92483883333333}, {"rental_uris": {"android": "https://dc.lft.to/lastmile_qr_scan", "ios": "https://dc.lft.to/lastmile_qr_scan"}, "is_reserved": 0, "is_disabled": 0, "name": "4216abcfdfc1c33781a0ae1b96c8b8a7", "bike_id": "4216abcfdfc1c33781a0ae1b96c8b8a7", "fusion_lat": 0.0, "lon": -77.01822483333333, "type": "electric_scooter", "fusion_lon": 0.0, "lat": 38.90972716666667}, {"rental_uris": {"android": "https://dc.lft.to/lastmile_qr_scan", "ios": "https://dc.lft.to/lastmile_qr_scan"}, "is_reserved": 0, "is_disabled": 0, "name": "9eb4ab22beac5302e0070a9cac4fb9ab", "bike_id": "9eb4ab22beac5302e0070a9cac4fb9ab", "fusion_lat": 0.0, "lon": -77.00341233333333, "type": "electric_scooter", "fusion_lon": 0.0, "lat": 38.876777}, {"rental_uris": {"android": "https://dc.lft.to/lastmile_qr_scan", "ios": "https://dc.lft.to/lastmile_qr_scan"}, "is_reserved": 0, "is_disabled": 0, "name": "f583084b84c9dc136c6d314d24a975a9", "bike_id": "f583084b84c9dc136c6d314d24a975a9", "fusion_lat": 0.0, "lon": -77.040174, "type": "electric_scooter", "fusion_lon": 0.0, "lat": 38.91603716666667}, {"rental_uris": {"android": "https://dc.lft.to/lastmile_qr_scan", "ios": "https://dc.lft.to/lastmile_qr_scan"}, "is_reserved": 0, "is_disabled": 0, "name": "09974361a1a309cb7dcbce8d087b2e3d", "bike_id": "09974361a1a309cb7dcbce8d087b2e3d", "fusion_lat": 0.0, "lon": -77.040293, "type": "electric_scooter", "fusion_lon": 0.0, "lat": 38.91810133333333}, {"rental_uris": {"android": "https://dc.lft.to/lastmile_qr_scan", "ios": "https://dc.lft.to/lastmile_qr_scan"}, "is_reserved": 0, "is_disabled": 0, "name": "1ae3cf55d10834d4f1455d5199d84621", "bike_id": "1ae3cf55d10834d4f1455d5199d84621", "fusion_lat": 0.0, "lon": -76.97441933333333, "type": "electric_bike", "fusion_lon": 0.0, "lat": 38.85583616666667}, {"rental_uris": {"android": "https://dc.lft.to/lastmile_qr_scan", "ios": "https://dc.lft.to/lastmile_qr_scan"}, "is_reserved": 0, "is_disabled": 0, "name": "b567cd8c4d7c75a20133162f8525878a", "bike_id": "b567cd8c4d7c75a20133162f8525878a", "fusion_lat": 0.0, "lon": -77.02124516666667, "type": "electric_scooter", "fusion_lon": 0.0, "lat": 38.923784166666664}, {"rental_uris": {"android": "https://dc.lft.to/lastmile_qr_scan", "ios": "https://dc.lft.to/lastmile_qr_scan"}, "is_reserved": 0, "is_disabled": 0, "name": "d46c5c1ff8d3cb33f9b1c2d76ab9b385", "bike_id": "d46c5c1ff8d3cb33f9b1c2d76ab9b385", "fusion_lat": 0.0, "lon": -77.041361, "type": "electric_scooter", "fusion_lon": 0.0, "lat": 38.906181833333335}, {"rental_uris": {"android": "https://dc.lft.to/lastmile_qr_scan", "ios": "https://dc.lft.to/lastmile_qr_scan"}, "is_reserved": 0, "is_disabled": 0, "name": "9ff93ec4cddcb97b45b4daf27de0616a", "bike_id": "9ff93ec4cddcb97b45b4daf27de0616a", "fusion_lat": 0.0, "lon": -77.04686683333334, "type": "electric_scooter", "fusion_lon": 0.0, "lat": 38.899629166666664}, {"rental_uris": {"android": "https://dc.lft.to/lastmile_qr_scan", "ios": "https://dc.lft.to/lastmile_qr_scan"}, "is_reserved": 0, "is_disabled": 0, "name": "a4ac3d3a0249863d851af3e99afa18c3", "bike_id": "a4ac3d3a0249863d851af3e99afa18c3", "fusion_lat": 0.0, "lon": -77.034415, "type": "electric_scooter", "fusion_lon": 0.0, "lat": 38.904970166666665}, {"rental_uris": {"android": "https://dc.lft.to/lastmile_qr_scan", "ios": "https://dc.lft.to/lastmile_qr_scan"}, "is_reserved": 0, "is_disabled": 0, "name": "7d2ca31abed01a37709527e8390b4e9f", "bike_id": "7d2ca31abed01a37709527e8390b4e9f", "fusion_lat": 0.0, "lon": -77.07066066666667, "type": "electric_scooter", "fusion_lon": 0.0, "lat": 38.91941533333333}, {"rental_uris": {"android": "https://dc.lft.to/lastmile_qr_scan", "ios": "https://dc.lft.to/lastmile_qr_scan"}, "is_reserved": 0, "is_disabled": 0, "name": "60ea73c7e3ee35fe634fda6624d0fe6c", "bike_id": "60ea73c7e3ee35fe634fda6624d0fe6c", "fusion_lat": 0.0, "lon": -77.031836, "type": "electric_scooter", "fusion_lon": 0.0, "lat": 38.914326333333335}, {"rental_uris": {"android": "https://dc.lft.to/lastmile_qr_scan", "ios": "https://dc.lft.to/lastmile_qr_scan"}, "is_reserved": 0, "is_disabled": 0, "name": "9bb5752fb03b364cd9f5fedb923f3ca3", "bike_id": "9bb5752fb03b364cd9f5fedb923f3ca3", "fusion_lat": 0.0, "lon": -77.02533466666667, "type": "electric_scooter", "fusion_lon": 0.0, "lat": 38.90649283333333}, {"rental_uris": {"android": "https://dc.lft.to/lastmile_qr_scan", "ios": "https://dc.lft.to/lastmile_qr_scan"}, "is_reserved": 0, "is_disabled": 0, "name": "63c01e01c60602dbafb43408030f85ef", "bike_id": "63c01e01c60602dbafb43408030f85ef", "fusion_lat": 0.0, "lon": -77.03336116666667, "type": "electric_scooter", "fusion_lon": 0.0, "lat": 38.902432}, {"rental_uris": {"android": "https://dc.lft.to/lastmile_qr_scan", "ios": "https://dc.lft.to/lastmile_qr_scan"}, "is_reserved": 0, "is_disabled": 0, "name": "1010850f7a43e9e9f48bae74623abe61", "bike_id": "1010850f7a43e9e9f48bae74623abe61", "fusion_lat": 0.0, "lon": -76.99479933333333, "type": "electric_scooter", "fusion_lon": 0.0, "lat": 38.86232533333333}, {"rental_uris": {"android": "https://dc.lft.to/lastmile_qr_scan", "ios": "https://dc.lft.to/lastmile_qr_scan"}, "is_reserved": 0, "is_disabled": 0, "name": "4b35880af80930c86ccf65e722b9787a", "bike_id": "4b35880af80930c86ccf65e722b9787a", "fusion_lat": 0.0, "lon": -77.02729516666666, "type": "electric_scooter", "fusion_lon": 0.0, "lat": 38.89863716666667}, {"rental_uris": {"android": "https://dc.lft.to/lastmile_qr_scan", "ios": "https://dc.lft.to/lastmile_qr_scan"}, "is_reserved": 0, "is_disabled": 0, "name": "15e9293970557f8a955e2769c2568cde", "bike_id": "15e9293970557f8a955e2769c2568cde", "fusion_lat": 0.0, "lon": -76.92966066666666, "type": "electric_scooter", "fusion_lon": 0.0, "lat": 38.896353500000004}, {"rental_uris": {"android": "https://dc.lft.to/lastmile_qr_scan", "ios": "https://dc.lft.to/lastmile_qr_scan"},