{"data": {"bikes": [{"lon": -77.00062166666666, "name": "0bf45243d9fe0303f3cfcef4ebe0585a", "is_disabled": 0, "type": "electric_scooter", "is_reserved": 0, "fusion_lon": 0.0, "lat": 38.88781016666667, "rental_uris": {"ios": "https://dc.lft.to/lastmile_qr_scan", "android": "https://dc.lft.to/lastmile_qr_scan"}, "bike_id": "0bf45243d9fe0303f3cfcef4ebe0585a", "fusion_lat": 0.0}, {"lon": -77.0215595, "name": "b05a6c71955da88b189fe591750e9407", "is_disabled": 0, "type": "electric_scooter", "is_reserved": 0, "fusion_lon": 0.0, "lat": 38.92603966666667, "rental_uris": {"ios": "https://dc.lft.to/lastmile_qr_scan", "android": "https://dc.lft.to/lastmile_qr_scan"}, "bike_id": "b05a6c71955da88b189fe591750e9407", "fusion_lat": 0.0}, {"lon": -77.02128133333333, "name": "76523d4e87bfba303bbd81332a301d97", "is_disabled": 0, "type": "electric_scooter", "is_reserved": 0, "fusion_lon": 0.0, "lat": 38.923996333333335, "rental_uris": {"ios": "https://dc.lft.to/lastmile_qr_scan", "android": "https://dc.lft.to/lastmile_qr_scan"}, "bike_id": "76523d4e87bfba303bbd81332a301d97", "fusion_lat": 0.0}, {"lon": -77.0215995, "name": "a36e4e8e1ca2e705b8fc1932f8cece8f", "is_disabled": 0, "type": "electric_scooter", "is_reserved": 0, "fusion_lon": 0.0, "lat": 38.9261275, "rental_uris": {"ios": "https://dc.lft.to/lastmile_qr_scan", "android": "https://dc.lft.to/lastmile_qr_scan"}, "bike_id": "a36e4e8e1ca2e705b8fc1932f8cece8f", "fusion_lat": 0.0}, {"lon": -76.98422816666667, "name": "dd0b6ca7b62a8847fcdab46818787b26", "is_disabled": 0, "type": "electric_bike", "is_reserved": 0, "fusion_lon": 0.0, "lat": 38.91005366666667, "rental_uris": {"ios": "https://dc.lft.to/lastmile_qr_scan", "android": "https://dc.lft.to/lastmile_qr_scan"}, "bike_id": "dd0b6ca7b62a8847fcdab46818787b26", "fusion_lat": 0.0}, {"lon": -76.98200533333333, "name": "27be6789d77de0539b45382ddb058802", "is_disabled": 0, "type": "electric_bike", "is_reserved": 0, "fusion_lon": 0.0, "lat": 38.9850765, "rental_uris": {"ios": "https://dc.lft.to/lastmile_qr_scan", "android": "https://dc.lft.to/lastmile_qr_scan"}, "bike_id": "27be6789d77de0539b45382ddb058802", "fusion_lat": 0.0}, {"lon": -77.03203333333333, "name": "511b85f660b3df986a2cfe7a363d195c", "is_disabled": 0, "type": "electric_scooter", "is_reserved": 0, "fusion_lon": 0.0, "lat": 38.90390516666667, "rental_uris": {"ios": "https://dc.lft.to/lastmile_qr_scan", "android": "https://dc.lft.to/lastmile_qr_scan"}, "bike_id": "511b85f660b3df986a2cfe7a363d195c", "fusion_lat": 0.0}, {"lon": -77.00172183333333, "name": "0abb2ce51b22a56bf799b75bf40ce007", "is_disabled": 0, "type": "electric_scooter", "is_reserved": 0, "fusion_lon": 0.0, "lat": 38.94074883333333, "rental_uris": {"ios": "https://dc.lft.to/lastmile_qr_scan", "android": "https://dc.lft.to/lastmile_qr_scan"}, "bike_id": "0abb2ce51b22a56bf799b75bf40ce007", "fusion_lat": 0.0}, {"lon": -76.97803983333333, "name": "03fac81990627b2bd7f5521c165988b9", "is_disabled": 0, "type": "electric_scooter", "is_reserved": 0, "fusion_lon": 0.0, "lat": 38.92036933333333, "rental_uris": {"ios": "https://dc.lft.to/lastmile_qr_scan", "android": "https://dc.lft.to/lastmile_qr_scan"}, "bike_id": "03fac81990627b2bd7f5521c165988b9", "fusion_lat": 0.0}, {"lon": -77.00219333333334, "name": "e4a1de95397650a50866e73b8fb934fd", "is_disabled": 0, "type": "electric_scooter", "is_reserved": 0, "fusion_lon": 0.0, "lat": 38.957439, "rental_uris": {"ios": "https://dc.lft.to/lastmile_qr_scan", "android": "https://dc.lft.to/lastmile_qr_scan"}, "bike_id": "e4a1de95397650a50866e73b8fb934fd", "fusion_lat": 0.0}, {"lon": -77.02036366666667, "name": "44ca4c0fae8e93be18c0847ccfb9d17b", "is_disabled": 0, "type": "electric_scooter", "is_reserved": 0, "fusion_lon": 0.0, "lat": 38.924280833333334, "rental_uris": {"ios": "https://dc.lft.to/lastmile_qr_scan", "android": "https://dc.lft.to/lastmile_qr_scan"}, "bike_id": "44ca4c0fae8e93be18c0847ccfb9d17b", "fusion_lat": 0.0}, {"lon": -77.01229616666667, "name": "6fd482b5e5eba5a595d691715be06315", "is_disabled": 0, "type": "electric_scooter", "is_reserved": 0, "fusion_lon": 0.0, "lat": 38.90014083333333, "rental_uris": {"ios": "https://dc.lft.to/lastmile_qr_scan", "android": "https://dc.lft.to/lastmile_qr_scan"}, "bike_id": "6fd482b5e5eba5a595d691715be06315", "fusion_lat": 0.0}, {"lon": -77.02198916666667, "name": "6277404c6b98f619b305902fbc01c102", "is_disabled": 0, "type": "electric_scooter", "is_reserved": 0, "fusion_lon": 0.0, "lat": 38.91128283333333, "rental_uris": {"ios": "https://dc.lft.to/lastmile_qr_scan", "android": "https://dc.lft.to/lastmile_qr_scan"}, "bike_id": "6277404c6b98f619b305902fbc01c102", "fusion_lat": 0.0}, {"lon": -77.01789316666667, "name": "c23a856a25c8b29752867f944ff0d122", "is_disabled": 0, "type": "electric_scooter", "is_reserved": 0, "fusion_lon": 0.0, "lat": 38.919957, "rental_uris": {"ios": "https://dc.lft.to/lastmile_qr_scan", "android": "https://dc.lft.to/lastmile_qr_scan"}, "bike_id": "c23a856a25c8b29752867f944ff0d122", "fusion_lat": 0.0}, {"lon": -77.04243483333333, "name": "679a8f994f1d15d6c125299d8c0ecb7e", "is_disabled": 0, "type": "electric_scooter", "is_reserved": 0, "fusion_lon": 0.0, "lat": 38.92067566666667, "rental_uris": {"ios": "https://dc.lft.to/lastmile_qr_scan", "android": "https://dc.lft.to/lastmile_qr_scan"}, "bike_id": "679a8f994f1d15d6c125299d8c0ecb7e", "fusion_lat": 0.0}, {"lon": -77.02948783333333, "name": "897a0ec203c9adeacd86c713a294f04e", "is_disabled": 0, "type": "electric_scooter", "is_reserved": 0, "fusion_lon": 0.0, "lat": 38.89990233333333, "rental_uris": {"ios": "https://dc.lft.to/lastmile_qr_scan", "android": "https://dc.lft.to/lastmile_qr_scan"}, "bike_id": "897a0ec203c9adeacd86c713a294f04e", "fusion_lat": 0.0}, {"lon": -77.01437483333333, "name": "843216a16f8f0cb08be70dec1db2dddc", "is_disabled": 0, "type": "electric_scooter", "is_reserved": 0, "fusion_lon": 0.0, "lat": 38.9195455, "rental_uris": {"ios": "https://dc.lft.to/lastmile_qr_scan", "android": "https://dc.lft.to/lastmile_qr_scan"}, "bike_id": "843216a16f8f0cb08be70dec1db2dddc", "fusion_lat": 0.0}, {"lon": -77.04654216666667, "name": "2f3c03dfa06abe8456e7c070345c1c91", "is_disabled": 0, "type": "electric_scooter", "is_reserved": 0, "fusion_lon": 0.0, "lat": 38.9061815, "rental_uris": {"ios": "https://dc.lft.to/lastmile_qr_scan", "android": "https://dc.lft.to/lastmile_qr_scan"}, "bike_id": "2f3c03dfa06abe8456e7c070345c1c91", "fusion_lat": 0.0}, {"lon": -76.95831233333334, "name": "ff4c52bed6674aad7c29d58e207a7e9b", "is_disabled": 0, "type": "electric_bike", "is_reserved": 0, "fusion_lon": 0.0, "lat": 38.85063233333333, "rental_uris": {"ios": "https://dc.lft.to/lastmile_qr_scan", "android": "https://dc.lft.to/lastmile_qr_scan"}, "bike_id": "ff4c52bed6674aad7c29d58e207a7e9b", "fusion_lat": 0.0}, {"lon": -77.03589416666667, "name": "4f12a29873338966405ee6264291f197", "is_disabled": 0, "type": "electric_scooter", "is_reserved": 0, "fusion_lon": 0.0, "lat": 38.90241616666667, "rental_uris": {"ios": "https://dc.lft.to/lastmile_qr_scan", "android": "https://dc.lft.to/lastmile_qr_scan"}, "bike_id": "4f12a29873338966405ee6264291f197", "fusion_lat": 0.0}, {"lon": -77.0533285, "name": "aa167bafc2a4f6a7540afd8ae18fdaaf", "is_disabled": 0, "type": "electric_scooter", "is_reserved": 0, "fusion_lon": 0.0, "lat": 38.9043245, "rental_uris": {"ios": "https://dc.lft.to/lastmile_qr_scan", "android": "https://dc.lft.to/lastmile_qr_scan"}, "bike_id": "aa167bafc2a4f6a7540afd8ae18fdaaf", "fusion_lat": 0.0}, {"lon": -76.93742866666666, "name": "d3f21183572f3c4904830468c3a2d801", "is_disabled": 0, "type": "electric_scooter", "is_reserved": 0, "fusion_lon": 0.0, "lat": 38.890163, "rental_uris": {"ios": "https://dc.lft.to/lastmile_qr_scan", "android": "https://dc.lft.to/lastmile_qr_scan"}, "bike_id": "d3f21183572f3c4904830468c3a2d801", "fusion_lat": 0.0}, {"lon": -76.98375916666667, "name": "357c4712e22300277c4d99f5b6aef2c2", "is_disabled": 0, "type": "electric_scooter", "is_reserved": 0, "fusion_lon": 0.0, "lat": 38.860847166666666, "rental_uris": {"ios": "https://dc.lft.to/lastmile_qr_scan", "android": "https://dc.lft.to/lastmile_qr_scan"}, "bike_id": "357c4712e22300277c4d99f5b6aef2c2", "fusion_lat": 0.0}, {"lon": -77.02173483333333, "name": "14688c89d303db837645cd6ded74e7b5", "is_disabled": 0, "type": "electric_scooter", "is_reserved": 0, "fusion_lon": 0.0, "lat": 38.899728833333334, "rental_uris": {"ios": "https://dc.lft.to/lastmile_qr_scan", "android": "https://dc.lft.to/lastmile_qr_scan"}, "bike_id": "14688c89d303db837645cd6ded74e7b5", "fusion_lat": 0.0}, {"lon": -77.02340083333333, "name": "ec838714122798d59347295d8305a0e4", "is_disabled": 0, "type": "electric_scooter", "is_reserved": 0, "fusion_lon": 0.0, "lat": 38.91778333333333, "rental_uris": {"ios": "https://dc.lft.to/lastmile_qr_scan", "android": "https://dc.lft.to/lastmile_qr_scan"}, "bike_id": "ec838714122798d59347295d8305a0e4", "fusion_lat": 0.0}, {"lon": -77.00795816666667, "name": "1acf3ff93d0c4febe462ce09c2e8c468", "is_disabled": 0, "type": "electric_scooter", "is_reserved": 0, "fusion_lon": 0.0, "lat": 38.926766, "rental_uris": {"ios": "https://dc.lft.to/lastmile_qr_scan", "android": "https://dc.lft.to/lastmile_qr_scan"}, "bike_id": "1acf3ff93d0c4febe462ce09c2e8c468", "fusion_lat": 0.0}, {"lon": -77.04367383333333, "name": "139348d44100f40de8dc231fca8db657", "is_disabled": 0, "type": "electric_scooter", "is_reserved": 0, "fusion_lon": 0.0, "lat": 38.92239133333333, "rental_uris": {"ios": "https://dc.lft.to/lastmile_qr_scan", "android": "https://dc.lft.to/lastmile_qr_scan"}, "bike_id": "139348d44100f40de8dc231fca8db657", "fusion_lat": 0.0}, {"lon": -77.031743, "name": "fe5324469ec0233233e8ad1651acea21", "is_disabled": 0, "type": "electric_scooter", "is_reserved": 0, "fusion_lon": 0.0, "lat": 38.89228133333334, "rental_uris": {"ios": "https://dc.lft.to/lastmile_qr_scan", "android": "https://dc.lft.to/lastmile_qr_scan"}, "bike_id": "fe5324469ec0233233e8ad1651acea21", "fusion_lat": 0.0}, {"lon": -77.0194835, "name": "6de3264387b7fd390fda3b0fb1f546e7", "is_disabled": 0, "type": "electric_scooter", "is_reserved": 0, "fusion_lon": 0.0, "lat": 38.922592, "rental_uris": {"ios": "https://dc.lft.to/lastmile_qr_scan", "android": "https://dc.lft.to/lastmile_qr_scan"}, "bike_id": "6de3264387b7fd390fda3b0fb1f546e7", "fusion_lat": 0.0}, {"lon": -76.95766783333333, "name": "4567eea0ed16482124e4799ad5cbfe75", "is_disabled": 0, "type": "electric_scooter", "is_reserved": 0, "fusion_lon": 0.0, "lat": 38.8835785, "rental_uris": {"ios": "https://dc.lft.to/lastmile_qr_scan", "android": "https://dc.lft.to/lastmile_qr_scan"}, "bike_id": "4567eea0ed16482124e4799ad5cbfe75", "fusion_lat": 0.0}, {"lon": -77.00223433333333, "name": "eeb1a88541150e10d403c4a1c78fe98c", "is_disabled": 0, "type": "electric_scooter", "is_reserved": 0, "fusion_lon": 0.0, "lat": 38.95746916666667, "rental_uris": {"ios": "https://dc.lft.to/lastmile_qr_scan", "android": "https://dc.lft.to/lastmile_qr_scan"}, "bike_id": "eeb1a88541150e10d403c4a1c78fe98c", "fusion_lat": 0.0}, {"lon": -77.02792383333333, "name": "171c66f9457549a58ee15e119f020cf9", "is_disabled": 0, "type": "electric_scooter", "is_reserved": 0, "fusion_lon": 0.0, "lat": 38.9418825, "rental_uris": {"ios": "https://dc.lft.to/lastmile_qr_scan", "android": "https://dc.lft.to/lastmile_qr_scan"}, "bike_id": "171c66f9457549a58ee15e119f020cf9", "fusion_lat": 0.0}, {"lon": -77.01069883333334, "name": "c465c3e4b6209f8cc626cade9578f492", "is_disabled": 0, "type": "electric_scooter", "is_reserved": 0, "fusion_lon": 0.0, "lat": 38.873170333333334, "rental_uris": {"ios": "https://dc.lft.to/lastmile_qr_scan", "android": "https://dc.lft.to/lastmile_qr_scan"}, "bike_id": "c465c3e4b6209f8cc626cade9578f492", "fusion_lat": 0.0}, {"lon": -77.027114, "name": "c95cf890f4f5debbc3e1a8585a07967e", "is_disabled": 0, "type": "electric_scooter", "is_reserved": 0, "fusion_lon": 0.0, "lat": 38.916854666666666, "rental_uris": {"ios": "https://dc.lft.to/lastmile_qr_scan", "android": "https://dc.lft.to/lastmile_qr_scan"}, "bike_id": "c95cf890f4f5debbc3e1a8585a07967e", "fusion_lat": 0.0}, {"lon": -77.04293983333334, "name": "13d14ada3e5f8cddc88bab2a003ac128", "is_disabled": 0, "type": "electric_bike", "is_reserved": 0, "fusion_lon": 0.0, "lat": 39.034285833333335, "rental_uris": {"ios": "https://dc.lft.to/lastmile_qr_scan", "android": "https://dc.lft.to/lastmile_qr_scan"}, "bike_id": "13d14ada3e5f8cddc88bab2a003ac128", "fusion_lat": 0.0}, {"lon": -77.039546, "name": "b3acb6df950a3b204e81478af8e98aff", "is_disabled": 0, "type": "electric_scooter", "is_reserved": 0, "fusion_lon": 0.0, "lat": 38.91931866666667, "rental_uris": {"ios": "https://dc.lft.to/lastmile_qr_scan", "android": "https://dc.lft.to/lastmile_qr_scan"}, "bike_id": "b3acb6df950a3b204e81478af8e98aff", "fusion_lat": 0.0}, {"lon": -77.00138216666667, "name": "cb2c6b844287fc7459915b9dc00c90a7", "is_disabled": 0, "type": "electric_scooter", "is_reserved": 0, "fusion_lon": 0.0, "lat": 38.873874666666666, "rental_uris": {"ios": "https://dc.lft.to/lastmile_qr_scan", "android": "https://dc.lft.to/lastmile_qr_scan"}, "bike_id": "cb2c6b844287fc7459915b9dc00c90a7", "fusion_lat": 0.0}, {"lon": -77.03959983333333, "name": "ba91b71963de8e9864d296a632f97733", "is_disabled": 0, "type": "electric_scooter", "is_reserved": 0, "fusion_lon": 0.0, "lat": 38.8986585, "rental_uris": {"ios": "https://dc.lft.to/lastmile_qr_scan", "android": "https://dc.lft.to/lastmile_qr_scan"}, "bike_id": "ba91b71963de8e9864d296a632f97733", "fusion_lat": 0.0}, {"lon": -76.94666133333334, "name": "ea53917e879b28cec895c816b2035f5b", "is_disabled": 0, "type": "electric_scooter", "is_reserved": 0, "fusion_lon": 0.0, "lat": 38.8986985, "rental_uris": {"ios": "https://dc.lft.to/lastmile_qr_scan", "android": "https://dc.lft.to/lastmile_qr_scan"}, "bike_id": "ea53917e879b28cec895c816b2035f5b", "fusion_lat": 0.0}, {"lon": -77.02816883333334, "name": "5edc6cde9bd68954c580a7dcd6cbb579", "is_disabled": 0, "type": "electric_scooter", "is_reserved": 0, "fusion_lon": 0.0, "lat": 38.907089166666665, "rental_uris": {"ios": "https://dc.lft.to/lastmile_qr_scan", "android": "https://dc.lft.to/lastmile_qr_scan"}, "bike_id": "5edc6cde9bd68954c580a7dcd6cbb579", "fusion_lat": 0.0}, {"lon": -77.02134883333333, "name": "4590ca4aa4c11be5f9c5f1420448440c", "is_disabled": 0, "type": "electric_scooter", "is_reserved": 0, "fusion_lon": 0.0, "lat": 38.92371383333333, "rental_uris": {"ios": "https://dc.lft.to/lastmile_qr_scan", "android": "https://dc.lft.to/lastmile_qr_scan"}, "bike_id": "4590ca4aa4c11be5f9c5f1420448440c", "fusion_lat": 0.0}, {"lon": -77.02380383333333, "name": "2b7ca5fe6da0f19197d185c650e2b6e2", "is_disabled": 0, "type": "electric_scooter", "is_reserved": 0, "fusion_lon": 0.0, "lat": 38.95274166666667, "rental_uris": {"ios": "https://dc.lft.to/lastmile_qr_scan", "android": "https://dc.lft.to/lastmile_qr_scan"}, "bike_id": "2b7ca5fe6da0f19197d185c650e2b6e2", "fusion_lat": 0.0}, {"lon": -77.02501933333333, "name": "0ccec9697b757fccc62dd277329a22a0", "is_disabled": 0, "type": "electric_scooter", "is_reserved": 0, "fusion_lon": 0.0, "lat": 38.954118, "rental_uris": {"ios": "https://dc.lft.to/lastmile_qr_scan", "android": "https://dc.lft.to/lastmile_qr_scan"}, "bike_id": "0ccec9697b757fccc62dd277329a22a0", "fusion_lat": 0.0}, {"lon": -76.98561366666667, "name": "1c1fb38b48898dd9ac3c2e2044ab3451", "is_disabled": 0, "type": "electric_scooter", "is_reserved": 0, "fusion_lon": 0.0, "lat": 38.9071385, "rental_uris": {"ios": "https://dc.lft.to/lastmile_qr_scan", "android": "https://dc.lft.to/lastmile_qr_scan"}, "bike_id": "1c1fb38b48898dd9ac3c2e2044ab3451", "fusion_lat": 0.0}, {"lon": -77.0230325, "name": "04e96073869efa14b69e7e7e29bfcc9e", "is_disabled": 0, "type": "electric_scooter", "is_reserved": 0, "fusion_lon": 0.0, "lat": 38.9206975, "rental_uris": {"ios": "https://dc.lft.to/lastmile_qr_scan", "android": "https://dc.lft.to/lastmile_qr_scan"}, "bike_id": "04e96073869efa14b69e7e7e29bfcc9e", "fusion_lat": 0.0}, {"lon": -77.00079416666667, "name": "ae67996e2cd7f18377300f86f2f29396", "is_disabled": 0, "type": "electric_scooter", "is_reserved": 0, "fusion_lon": 0.0, "lat": 38.87552616666667, "rental_uris": {"ios": "https://dc.lft.to/lastmile_qr_scan", "android": "https://dc.lft.to/lastmile_qr_scan"}, "bike_id": "ae67996e2cd7f18377300f86f2f29396", "fusion_lat": 0.0}, {"lon": -77.04343916666667, "name": "623553ac32cfb1327fa519956899ec81", "is_disabled": 0, "type": "electric_scooter", "is_reserved": 0, "fusion_lon": 0.0, "lat": 38.90057266666667, "rental_uris": {"ios": "https://dc.lft.to/lastmile_qr_scan", "android": "https://dc.lft.to/lastmile_qr_scan"}, "bike_id": "623553ac32cfb1327fa519956899ec81", "fusion_lat": 0.0}, {"lon": -77.06286583333333, "name": "495fb128a72bfa14c186f1b2cab38cdd", "is_disabled": 0, "type": "electric_scooter", "is_reserved": 0, "fusion_lon": 0.0, "lat": 38.905733, "rental_uris": {"ios": "https://dc.lft.to/lastmile_qr_scan", "android": "https://dc.lft.to/lastmile_qr_scan"}, "bike_id": "495fb128a72bfa14c186f1b2cab38cdd", "fusion_lat": 0.0}, {"lon": -77.03383933333333, "name": "96b690f7e13db4a278680d8a972edd7d", "is_disabled": 0, "type": "electric_scooter", "is_reserved": 0, "fusion_lon": 0.0, "lat": 38.9215875, "rental_uris": {"ios": "https://dc.lft.to/lastmile_qr_scan", "android": "https://dc.lft.to/lastmile_qr_scan"}, "bike_id": "96b690f7e13db4a278680d8a972edd7d", "fusion_lat": 0.0}, {"lon": -77.02214833333333, "name": "2f469d24541e91fa1b0526e4aa43f03d", "is_disabled": 0, "type": "electric_scooter", "is_reserved": 0, "fusion_lon": 0.0, "lat": 38.912711, "rental_uris": {"ios": "https://dc.lft.to/lastmile_qr_scan", "android": "https://dc.lft.to/lastmile_qr_scan"}, "bike_id": "2f469d24541e91fa1b0526e4aa43f03d", "fusion_lat": 0.0}, {"lon": -77.02039466666666, "name": "5757b88046090b8b75c47bb109bb4d86", "is_disabled": 0, "type": "electric_scooter", "is_reserved": 0, "fusion_lon": 0.0, "lat": 38.9241435, "rental_uris": {"ios": "https://dc.lft.to/lastmile_qr_scan", "android": "https://dc.lft.to/lastmile_qr_scan"}, "bike_id": "5757b88046090b8b75c47bb109bb4d86", "fusion_lat": 0.0}, {"lon": -77.00725033333333, "name": "170ade169acf96c6e392b9dd8a496ca5", "is_disabled": 0, "type": "electric_scooter", "is_reserved": 0, "fusion_lon": 0.0, "lat": 38.90373733333333, "rental_uris": {"ios": "https://dc.lft.to/lastmile_qr_scan", "android": "https://dc.lft.to/lastmile_qr_scan"}, "bike_id": "170ade169acf96c6e392b9dd8a496ca5", "fusion_lat": 0.0}, {"lon": -77.052373, "name": "051d57ad6b2fb69548e05f80b470f622", "is_disabled": 0, "type": "electric_scooter", "is_reserved": 0, "fusion_lon": 0.0, "lat": 38.9247115, "rental_uris": {"ios": "https://dc.lft.to/lastmile_qr_scan", "android": "https://dc.lft.to/lastmile_qr_scan"}, "bike_id": "051d57ad6b2fb69548e05f80b470f622", "fusion_lat": 0.0}, {"lon": -77.04263516666667, "name": "688b9fe32d0067daab0aa7595c4a7846", "is_disabled": 0, "type": "electric_scooter", "is_reserved": 0, "fusion_lon": 0.0, "lat": 38.920587833333336, "rental_uris": {"ios": "https://dc.lft.to/lastmile_qr_scan", "android": "https://dc.lft.to/lastmile_qr_scan"}, "bike_id": "688b9fe32d0067daab0aa7595c4a7846", "fusion_lat": 0.0}, {"lon": -77.02858666666667, "name": "11fc3f3b0f4a4c5f51cde0b09a4bb3ec", "is_disabled": 0, "type": "electric_scooter", "is_reserved": 0, "fusion_lon": 0.0, "lat": 38.94195783333333, "rental_uris": {"ios": "https://dc.lft.to/lastmile_qr_scan", "android": "https://dc.lft.to/lastmile_qr_scan"}, "bike_id": "11fc3f3b0f4a4c5f51cde0b09a4bb3ec", "fusion_lat": 0.0}, {"lon": -77.0533935, "name": "01dce1874dead736f7e0fcb52780b431", "is_disabled": 0, "type": "electric_scooter", "is_reserved": 0, "fusion_lon": 0.0, "lat": 38.90170916666667, "rental_uris": {"ios": "https://dc.lft.to/lastmile_qr_scan", "android": "https://dc.lft.to/lastmile_qr_scan"}, "bike_id": "01dce1874dead736f7e0fcb52780b431", "fusion_lat": 0.0}, {"lon": -77.03152216666666, "name": "7082ca71f4bb8a9b68aaf6c925ebc683", "is_disabled": 0, "type": "electric_scooter", "is_reserved": 0, "fusion_lon": 0.0, "lat": 38.9278935, "rental_uris": {"ios": "https://dc.lft.to/lastmile_qr_scan", "android": "https://dc.lft.to/lastmile_qr_scan"}, "bike_id": "7082ca71f4bb8a9b68aaf6c925ebc683", "fusion_lat": 0.0}, {"lon": -77.00296666666667, "name": "02534463568f177b4ff1c37ab865bee3", "is_disabled": 0, "type": "electric_scooter", "is_reserved": 0, "fusion_lon": 0.0, "lat": 38.89199833333333, "rental_uris": {"ios": "https://dc.lft.to/lastmile_qr_scan", "android": "https://dc.lft.to/lastmile_qr_scan"}, "bike_id": "02534463568f177b4ff1c37ab865bee3", "fusion_lat": 0.0}, {"lon": -77.01768383333334, "name": "bc1b5e5af3e1ea0a5b73c900b51694ef", "is_disabled": 0, "type": "electric_scooter", "is_reserved": 0, "fusion_lon": 0.0, "lat": 38.892334, "rental_uris": {"ios": "https://dc.lft.to/lastmile_qr_scan", "android": "https://dc.lft.to/lastmile_qr_scan"}, "bike_id": "bc1b5e5af3e1ea0a5b73c900b51694ef", "fusion_lat": 0.0}, {"lon": -77.0446115, "name": "04a5117c6ae105b2bb698508a21550c8", "is_disabled": 0, "type": "electric_scooter", "is_reserved": 0, "fusion_lon": 0.0, "lat": 38.90281866666667, "rental_uris": {"ios": "https://dc.lft.to/lastmile_qr_scan", "android": "https://dc.lft.to/lastmile_qr_scan"}, "bike_id": "04a5117c6ae105b2bb698508a21550c8", "fusion_lat": 0.0}, {"lon": -76.99341916666667, "name": "aca81be5c0e4904b4b2b5aed8c354319", "is_disabled": 0, "type": "electric_scooter", "is_reserved": 0, "fusion_lon": 0.0, "lat": 38.881289833333334, "rental_uris": {"ios": "https://dc.lft.to/lastmile_qr_scan", "android": "https://dc.lft.to/lastmile_qr_scan"}, "bike_id": "aca81be5c0e4904b4b2b5aed8c354319", "fusion_lat": 0.0}, {"lon": -76.99018133333334, "name": "3f21022d09cf6f76c44ff19190eef5b8", "is_disabled": 0, "type": "electric_scooter", "is_reserved": 0, "fusion_lon": 0.0, "lat": 38.86514116666667, "rental_uris": {"ios": "https://dc.lft.to/lastmile_qr_scan", "android": "https://dc.lft.to/lastmile_qr_scan"}, "bike_id": "3f21022d09cf6f76c44ff19190eef5b8", "fusion_lat": 0.0}, {"lon": -77.01721483333333, "name": "73a58ab7fca138415a3a5a2907a1d1de", "is_disabled": 0, "type": "electric_scooter", "is_reserved": 0, "fusion_lon": 0.0, "lat": 38.9073485, "rental_uris": {"ios": "https://dc.lft.to/lastmile_qr_scan", "android": "https://dc.lft.to/lastmile_qr_scan"}, "bike_id": "73a58ab7fca138415a3a5a2907a1d1de", "fusion_lat": 0.0}, {"lon": -77.027109, "name": "32b90a75c513622ec0faaf9de658c273", "is_disabled": 0, "type": "electric_scooter", "is_reserved": 0, "fusion_lon": 0.0, "lat": 38.897631833333335, "rental_uris": {"ios": "https://dc.lft.to/lastmile_qr_scan", "android": "https://dc.lft.to/lastmile_qr_scan"}, "bike_id": "32b90a75c513622ec0faaf9de658c273", "fusion_lat": 0.0}, {"lon": -77.048082, "name": "cb25ed8ed6a527335c1f637904cfa188", "is_disabled": 0, "type": "electric_scooter", "is_reserved": 0, "fusion_lon": 0.0, "lat": 38.89835333333333, "rental_uris": {"ios": "https://dc.lft.to/lastmile_qr_scan", "android": "https://dc.lft.to/lastmile_qr_scan"}, "bike_id": "cb25ed8ed6a527335c1f637904cfa188", "fusion_lat": 0.0}, {"lon": -76.93741983333334, "name": "05c374cefe791c8aefb0f9d6b378028f", "is_disabled": 0, "type": "electric_scooter", "is_reserved": 0, "fusion_lon": 0.0, "lat": 38.890237166666665, "rental_uris": {"ios": "https://dc.lft.to/lastmile_qr_scan", "android": "https://dc.lft.to/lastmile_qr_scan"}, "bike_id": "05c374cefe791c8aefb0f9d6b378028f", "fusion_lat": 0.0}, {"lon": -77.027135, "name": "e047e85178f09e5a207dd041d3875c6b", "is_disabled": 0, "type": "electric_scooter", "is_reserved": 0, "fusion_lon": 0.0, "lat": 38.927820833333335, "rental_uris": {"ios": "https://dc.lft.to/lastmile_qr_scan", "android": "https://dc.lft.to/lastmile_qr_scan"}, "bike_id": "e047e85178f09e5a207dd041d3875c6b", "fusion_lat": 0.0}, {"lon": -77.03210316666667, "name": "e60477ab313ef89dd89c0cee0ac75a67", "is_disabled": 0, "type": "electric_scooter", "is_reserved": 0, "fusion_lon": 0.0, "lat": 38.917349, "rental_uris": {"ios": "https://dc.lft.to/lastmile_qr_scan", "android": "https://dc.lft.to/lastmile_qr_scan"}, "bike_id": "e60477ab313ef89dd89c0cee0ac75a67", "fusion_lat": 0.0}, {"lon": -77.033408, "name": "f2eba63038be2b9096cf906b3ab56072", "is_disabled": 0, "type": "electric_scooter", "is_reserved": 0, "fusion_lon": 0.0, "lat": 38.91915, "rental_uris": {"ios": "https://dc.lft.to/lastmile_qr_scan", "android": "https://dc.lft.to/lastmile_qr_scan"}, "bike_id": "f2eba63038be2b9096cf906b3ab56072", "fusion_lat": 0.0}, {"lon": -77.0111145, "name": "705a60fe5676c89e5c57455a10b83a93", "is_disabled": 0, "type": "electric_scooter", "is_reserved": 0, "fusion_lon": 0.0, "lat": 38.903536333333335, "rental_uris": {"ios": "https://dc.lft.to/lastmile_qr_scan", "android": "https://dc.lft.to/lastmile_qr_scan"}, "bike_id": "705a60fe5676c89e5c57455a10b83a93", "fusion_lat": 0.0}, {"lon": -76.99518366666666, "name": "e8ee81160ba83d216f4285160cc72f72", "is_disabled": 0, "type": "electric_scooter", "is_reserved": 0, "fusion_lon": 0.0, "lat": 38.902642166666666, "rental_uris": {"ios": "https://dc.lft.to/lastmile_qr_scan", "android": "https://dc.lft.to/lastmile_qr_scan"}, "bike_id": "e8ee81160ba83d216f4285160cc72f72", "fusion_lat": 0.0}, {"lon": -77.026631, "name": "fb9a93560e3d4c0859123205267b458d", "is_disabled": 0, "type": "electric_scooter", "is_reserved": 0, "fusion_lon": 0.0, "lat": 38.9310035, "rental_uris": {"ios": "https://dc.lft.to/lastmile_qr_scan", "android": "https://dc.lft.to/lastmile_qr_scan"}, "bike_id": "fb9a93560e3d4c0859123205267b458d", "fusion_lat": 0.0}, {"lon": -77.045023, "name": "961ba7c361daea9fec15c9c899ed2bf3", "is_disabled": 0, "type": "electric_scooter", "is_reserved": 0, "fusion_lon": 0.0, "lat": 38.91271866666666, "rental_uris": {"ios": "https://dc.lft.to/lastmile_qr_scan", "android": "https://dc.lft.to/lastmile_qr_scan"}, "bike_id": "961ba7c361daea9fec15c9c899ed2bf3", "fusion_lat": 0.0}, {"lon": -77.0272285, "name": "cc74c0d26896e91d8713bd54ecba1915", "is_disabled": 0, "type": "electric_bike", "is_reserved": 0, "fusion_lon": 0.0, "lat": 38.97153733333333, "rental_uris": {"ios": "https://dc.lft.to/lastmile_qr_scan", "android": "https://dc.lft.to/lastmile_qr_scan"}, "bike_id": "cc74c0d26896e91d8713bd54ecba1915", "fusion_lat": 0.0}, {"lon": -76.92581266666667, "name": "1b99f8c3aed19b65c028b18b22a1543a", "is_disabled": 0, "type": "electric_scooter", "is_reserved": 0, "fusion_lon": 0.0, "lat": 38.89725216666667, "rental_uris": {"ios": "https://dc.lft.to/lastmile_qr_scan", "android": "https://dc.lft.to/lastmile_qr_scan"}, "bike_id": "1b99f8c3aed19b65c028b18b22a1543a", "fusion_lat": 0.0}, {"lon": -77.032175, "name": "52d65ac64850c4670dfdcbbcc6052428", "is_disabled": 0, "type": "electric_scooter", "is_reserved": 0, "fusion_lon": 0.0, "lat": 38.915647166666666, "rental_uris": {"ios": "https://dc.lft.to/lastmile_qr_scan", "android": "https://dc.lft.to/lastmile_qr_scan"}, "bike_id": "52d65ac64850c4670dfdcbbcc6052428", "fusion_lat": 0.0}, {"lon": -77.02817883333333, "name": "fbf653b45076dc7d391e1446f28c6001", "is_disabled": 0, "type": "electric_scooter", "is_reserved": 0, "fusion_lon": 0.0, "lat": 38.9070945, "rental_uris": {"ios": "https://dc.lft.to/lastmile_qr_scan", "android": "https://dc.lft.to/lastmile_qr_scan"}, "bike_id": "fbf653b45076dc7d391e1446f28c6001", "fusion_lat": 0.0}, {"lon": -77.04014566666666, "name": "f17f0963d701c047d32fbf807d87b555", "is_disabled": 0, "type": "electric_scooter", "is_reserved": 0, "fusion_lon": 0.0, "lat": 38.89929033333333, "rental_uris": {"ios": "https://dc.lft.to/lastmile_qr_scan", "android": "https://dc.lft.to/lastmile_qr_scan"}, "bike_id": "f17f0963d701c047d32fbf807d87b555", "fusion_lat": 0.0}, {"lon": -77.01913966666666, "name": "df89c374c38c628904a476405eccbfdf", "is_disabled": 0, "type": "electric_scooter", "is_reserved": 0, "fusion_lon": 0.0, "lat": 38.923744, "rental_uris": {"ios": "https://dc.lft.to/lastmile_qr_scan", "android": "https://dc.lft.to/lastmile_qr_scan"}, "bike_id": "df89c374c38c628904a476405eccbfdf", "fusion_lat": 0.0}, {"lon": -77.02047816666666, "name": "d469135e361ea2212cd402cb1398db95", "is_disabled": 0, "type": "electric_scooter", "is_reserved": 0, "fusion_lon": 0.0, "lat": 38.92771166666667, "rental_uris": {"ios": "https://dc.lft.to/lastmile_qr_scan", "android": "https://dc.lft.to/lastmile_qr_scan"}, "bike_id": "d469135e361ea2212cd402cb1398db95", "fusion_lat": 0.0}, {"lon": -77.12651966666667, "name": "d7ed13cdede2237eab50f36d65da3efb", "is_disabled": 0, "type": "electric_bike", "is_reserved": 0, "fusion_lon": 0.0, "lat": 38.81913683333333, "rental_uris": {"ios": "https://dc.lft.to/lastmile_qr_scan", "android": "https://dc.lft.to/lastmile_qr_scan"}, "bike_id": "d7ed13cdede2237eab50f36d65da3efb", "fusion_lat": 0.0}, {"lon": -77.051894, "name": "171d8886fddf4f4468e2a2b47fec08ea", "is_disabled": 0, "type": "electric_scooter", "is_reserved": 0, "fusion_lon": 0.0, "lat": 38.92397666666667, "rental_uris": {"ios": "https://dc.lft.to/lastmile_qr_scan", "android": "https://dc.lft.to/lastmile_qr_scan"}, "bike_id": "171d8886fddf4f4468e2a2b47fec08ea", "fusion_lat": 0.0}, {"lon": -77.02808983333334, "name": "3d471490f1bd0d260e4c81697fc61cf6", "is_disabled": 0, "type": "electric_scooter", "is_reserved": 0, "fusion_lon": 0.0, "lat": 38.907128166666666, "rental_uris": {"ios": "https://dc.lft.to/lastmile_qr_scan", "android": "https://dc.lft.to/lastmile_qr_scan"}, "bike_id": "3d471490f1bd0d260e4c81697fc61cf6", "fusion_lat": 0.0}, {"lon": -77.01611816666667, "name": "ad7ac3d479b1771be3415bc0b1d083c9", "is_disabled": 0, "type": "electric_bike", "is_reserved": 0, "fusion_lon": 0.0, "lat": 38.949470833333336, "rental_uris": {"ios": "https://dc.lft.to/lastmile_qr_scan", "android": "https://dc.lft.to/lastmile_qr_scan"}, "bike_id": "ad7ac3d479b1771be3415bc0b1d083c9", "fusion_lat": 0.0}, {"lon": -77.05003983333333, "name": "57b25c4c583169178a96787861d21301", "is_disabled": 0, "type": "electric_scooter", "is_reserved": 0, "fusion_lon": 0.0, "lat": 38.90552683333333, "rental_uris": {"ios": "https://dc.lft.to/lastmile_qr_scan", "android": "https://dc.lft.to/lastmile_qr_scan"}, "bike_id": "57b25c4c583169178a96787861d21301", "fusion_lat": 0.0}, {"lon": -77.02484716666666, "name": "cff968269c11f9c8203b9dad9224cb47", "is_disabled": 0, "type": "electric_scooter", "is_reserved": 0, "fusion_lon": 0.0, "lat": 38.8846535, "rental_uris": {"ios": "https://dc.lft.to/lastmile_qr_scan", "android": "https://dc.lft.to/lastmile_qr_scan"}, "bike_id": "cff968269c11f9c8203b9dad9224cb47", "fusion_lat": 0.0}, {"lon": -77.04017583333334, "name": "56fc553f56835f44ab613109d208bbb5", "is_disabled": 0, "type": "electric_scooter", "is_reserved": 0, "fusion_lon": 0.0, "lat": 38.902537, "rental_uris": {"ios": "https://dc.lft.to/lastmile_qr_scan", "android": "https://dc.lft.to/lastmile_qr_scan"}, "bike_id": "56fc553f56835f44ab613109d208bbb5", "fusion_lat": 0.0}, {"lon": -77.03027983333334, "name": "77ac16fc1f982fc6278e530629689784", "is_disabled": 0, "type": "electric_scooter", "is_reserved": 0, "fusion_lon": 0.0, "lat": 38.92247116666667, "rental_uris": {"ios": "https://dc.lft.to/lastmile_qr_scan", "android": "https://dc.lft.to/lastmile_qr_scan"}, "bike_id": "77ac16fc1f982fc6278e530629689784", "fusion_lat": 0.0}, {"lon": -77.03351266666667, "name": "e32022760dd8ea696533de6fccb822cf", "is_disabled": 0, "type": "electric_scooter", "is_reserved": 0, "fusion_lon": 0.0, "lat": 38.8925125, "rental_uris": {"ios": "https://dc.lft.to/lastmile_qr_scan", "android": "https://dc.lft.to/lastmile_qr_scan"}, "bike_id": "e32022760dd8ea696533de6fccb822cf", "fusion_lat": 0.0}, {"lon": -77.03961033333333, "name": "30db427b7656939c909ab14786d276f7", "is_disabled": 0, "type": "electric_scooter", "is_reserved": 0, "fusion_lon": 0.0, "lat": 38.90137433333334, "rental_uris": {"ios": "https://dc.lft.to/lastmile_qr_scan", "android": "https://dc.lft.to/lastmile_qr_scan"}, "bike_id": "30db427b7656939c909ab14786d276f7", "fusion_lat": 0.0}, {"lon": -77.0383875, "name": "4138eac3608e2b89883d01c740f2e8c7", "is_disabled": 0, "type": "electric_scooter", "is_reserved": 0, "fusion_lon": 0.0, "lat": 38.901480666666664, "rental_uris": {"ios": "https://dc.lft.to/lastmile_qr_scan", "android": "https://dc.lft.to/lastmile_qr_scan"}, "bike_id": "4138eac3608e2b89883d01c740f2e8c7", "fusion_lat": 0.0}, {"lon": -77.08576916666667, "name": "7189ea763bb64029cb07ad31024a9028", "is_disabled": 0, "type": "electric_scooter", "is_reserved": 0, "fusion_lon": 0.0, "lat": 38.93359266666667, "rental_uris": {"ios": "https://dc.lft.to/lastmile_qr_scan", "android": "https://dc.lft.to/lastmile_qr_scan"}, "bike_id": "7189ea763bb64029cb07ad31024a9028", "fusion_lat": 0.0}, {"lon": -77.046732, "name": "674424d4c6dfa790bb8a18e9993e69b9", "is_disabled": 0, "type": "electric_scooter", "is_reserved": 0, "fusion_lon": 0.0, "lat": 38.895640666666665, "rental_uris": {"ios": "https://dc.lft.to/lastmile_qr_scan", "android": "https://dc.lft.to/lastmile_qr_scan"}, "bike_id": "674424d4c6dfa790bb8a18e9993e69b9", "fusion_lat": 0.0}, {"lon": -77.0643695, "name": "4fd45d50a6c7217b2fca067b154c71fb", "is_disabled": 0, "type": "electric_scooter", "is_reserved": 0, "fusion_lon": 0.0, "lat": 38.905269, "rental_uris": {"ios": "https://dc.lft.to/lastmile_qr_scan", "android": "https://dc.lft.to/lastmile_qr_scan"}, "bike_id": "4fd45d50a6c7217b2fca067b154c71fb", "fusion_lat": 0.0}, {"lon": -77.02129983333333, "name": "d897aee90032e4e9bc839073f78ef4ef", "is_disabled": 0, "type": "electric_scooter", "is_reserved": 0, "fusion_lon": 0.0, "lat": 38.924166, "rental_uris": {"ios": "https://dc.lft.to/lastmile_qr_scan", "android": "https://dc.lft.to/lastmile_qr_scan"}, "bike_id": "d897aee90032e4e9bc839073f78ef4ef", "fusion_lat": 0.0}, {"lon": -77.03158083333334, "name": "7c85bbfe10f75de40d5c30071460cba3", "is_disabled": 0, "type": "electric_scooter", "is_reserved": 0, "fusion_lon": 0.0, "lat": 38.8933975, "rental_uris": {"ios": "https://dc.lft.to/lastmile_qr_scan", "android": "https://dc.lft.to/lastmile_qr_scan"}, "bike_id": "7c85bbfe10f75de40d5c30071460cba3", "fusion_lat": 0.0}, {"lon": -77.02610783333333, "name": "0157c2d790abfcf07fc261b26d1033ac", "is_disabled": 0, "type": "electric_scooter", "is_reserved": 0, "fusion_lon": 0.0, "lat": 38.900466333333334, "rental_uris": {"ios": "https://dc.lft.to/lastmile_qr_scan", "android": "https://dc.lft.to/lastmile_qr_scan"}, "bike_id": "0157c2d790abfcf07fc261b26d1033ac", "fusion_lat": 0.0}, {"lon": -77.02059566666667, "name": "9c5998afa7ea21e9d838896f7bcae7bb", "is_disabled": 0, "type": "electric_bike", "is_reserved": 0, "fusion_lon": 0.0, "lat": 38.912622666666664, "rental_uris": {"ios": "https://dc.lft.to/lastmile_qr_scan", "android": "https://dc.lft.to/lastmile_qr_scan"}, "bike_id": "9c5998afa7ea21e9d838896f7bcae7bb", "fusion_lat": 0.0}, {"lon": -77.03930133333333, "name": "cc23e92da90e9f4e319289659143e5aa", "is_disabled": 0, "type": "electric_scooter", "is_reserved": 0, "fusion_lon": 0.0, "lat": 38.92492433333334, "rental_uris": {"ios": "https://dc.lft.to/lastmile_qr_scan", "android": "https://dc.lft.to/lastmile_qr_scan"}, "bike_id": "cc23e92da90e9f4e319289659143e5aa", "fusion_lat": 0.0}, {"lon": -77.02370466666666, "name": "dbcf8af4bbc6ec65d21fba5392127b07", "is_disabled": 0, "type": "electric_scooter", "is_reserved": 0, "fusion_lon": 0.0, "lat": 38.902056333333334, "rental_uris": {"ios": "https://dc.lft.to/lastmile_qr_scan", "android": "https://dc.lft.to/lastmile_qr_scan"}, "bike_id": "dbcf8af4bbc6ec65d21fba5392127b07", "fusion_lat": 0.0}, {"lon": -77.04340516666667, "name": "47b8057448fb784d1c9a399ef40ed702", "is_disabled": 0, "type": "electric_scooter", "is_reserved": 0, "fusion_lon": 0.0, "lat": 38.92502, "rental_uris": {"ios": "https://dc.lft.to/lastmile_qr_scan", "android": "https://dc.lft.to/lastmile_qr_scan"}, "bike_id": "47b8057448fb784d1c9a399ef40ed702", "fusion_lat": 0.0}, {"lon": -77.04173133333333, "name": "ea5e4e720bbe24271660389027cb9a33", "is_disabled": 0, "type": "electric_scooter", "is_reserved": 0, "fusion_lon": 0.0, "lat": 38.91705783333333, "rental_uris": {"ios": "https://dc.lft.to/lastmile_qr_scan", "android": "https://dc.lft.to/lastmile_qr_scan"}, "bike_id": "ea5e4e720bbe24271660389027cb9a33", "fusion_lat": 0.0}, {"lon": -77.04551433333333, "name": "cff214dfcbcde44ca69590026d8212d0", "is_disabled": 0, "type": "electric_scooter", "is_reserved": 0, "fusion_lon": 0.0, "lat": 38.902272833333335, "rental_uris": {"ios": "https://dc.lft.to/lastmile_qr_scan", "android": "https://dc.lft.to/lastmile_qr_scan"}, "bike_id": "cff214dfcbcde44ca69590026d8212d0", "fusion_lat": 0.0}, {"lon": -77.04020166666666, "name": "c953f383d4c98bdbd5070cf810751176", "is_disabled": 0, "type": "electric_scooter", "is_reserved": 0, "fusion_lon": 0.0, "lat": 38.90844533333333, "rental_uris": {"ios": "https://dc.lft.to/lastmile_qr_scan", "android": "https://dc.lft.to/lastmile_qr_scan"}, "bike_id": "c953f383d4c98bdbd5070cf810751176", "fusion_lat": 0.0}, {"lon": -77.01701566666667, "name": "6c8cec97cf5f2b8164726b686145246a", "is_disabled": 0, "type": "electric_scooter", "is_reserved": 0, "fusion_lon": 0.0, "lat": 38.9204385, "rental_uris": {"ios": "https://dc.lft.to/lastmile_qr_scan", "android": "https://dc.lft.to/lastmile_qr_scan"}, "bike_id": "6c8cec97cf5f2b8164726b686145246a", "fusion_lat": 0.0}, {"lon": -77.02943083333334, "name": "fc88853d46399a8818957f02a3b649d4", "is_disabled": 0, "type": "electric_scooter", "is_reserved": 0, "fusion_lon": 0.0, "lat": 38.90582883333333, "rental_uris": {"ios": "https://dc.lft.to/lastmile_qr_scan", "android": "https://dc.lft.to/lastmile_qr_scan"}, "bike_id": "fc88853d46399a8818957f02a3b649d4", "fusion_lat": 0.0}, {"lon": -76.98836566666667, "name": "4a8f77758d879fc889bfbc1ff2cbe77c", "is_disabled": 0, "type": "electric_scooter", "is_reserved": 0, "fusion_lon": 0.0, "lat": 38.934717166666665, "rental_uris": {"ios": "https://dc.lft.to/lastmile_qr_scan", "android": "https://dc.lft.to/lastmile_qr_scan"}, "bike_id": "4a8f77758d879fc889bfbc1ff2cbe77c", "fusion_lat": 0.0}, {"lon": -77.019534, "name": "fabf9f41d8ef9c6fd9f82e8cd5304181", "is_disabled": 0, "type": "electric_scooter", "is_reserved": 0, "fusion_lon": 0.0, "lat": 38.923654666666664, "rental_uris": {"ios": "https://dc.lft.to/lastmile_qr_scan", "android": "https://dc.lft.to/lastmile_qr_scan"}, "bike_id": "fabf9f41d8ef9c6fd9f82e8cd5304181", "fusion_lat": 0.0}, {"lon": -77.02540116666667, "name": "0fa9a2a10cfacea62c25d81e7fecf2d1", "is_disabled": 0, "type": "electric_scooter", "is_reserved": 0, "fusion_lon": 0.0, "lat": 38.892272166666665, "rental_uris": {"ios": "https://dc.lft.to/lastmile_qr_scan", "android": "https://dc.lft.to/lastmile_qr_scan"}, "bike_id": "0fa9a2a10cfacea62c25d81e7fecf2d1", "fusion_lat": 0.0}, {"lon": -77.0266985, "name": "efdc58c914a1b561c26577e44ee54734", "is_disabled": 0, "type": "electric_scooter", "is_reserved": 0, "fusion_lon": 0.0, "lat": 38.92179733333333, "rental_uris": {"ios": "https://dc.lft.to/lastmile_qr_scan", "android": "https://dc.lft.to/lastmile_qr_scan"}, "bike_id": "efdc58c914a1b561c26577e44ee54734", "fusion_lat": 0.0}, {"lon": -77.0238195, "name": "a665971836a64c1d0e871e0186e1cee3", "is_disabled": 0, "type": "electric_scooter", "is_reserved": 0, "fusion_lon": 0.0, "lat": 38.91784916666667, "rental_uris": {"ios": "https://dc.lft.to/lastmile_qr_scan", "android": "https://dc.lft.to/lastmile_qr_scan"}, "bike_id": "a665971836a64c1d0e871e0186e1cee3", "fusion_lat": 0.0}, {"lon": -77.02532266666667, "name": "cb57ccf00a6e48942f8fc0de01da9df9", "is_disabled": 0, "type": "electric_scooter", "is_reserved": 0, "fusion_lon": 0.0, "lat": 38.92092316666667, "rental_uris": {"ios": "https://dc.lft.to/lastmile_qr_scan", "android": "https://dc.lft.to/lastmile_qr_scan"}, "bike_id": "cb57ccf00a6e48942f8fc0de01da9df9", "fusion_lat": 0.0}, {"lon": -77.05456516666666, "name": "d946e892e45a0cb2bccb9fcb301c06fd", "is_disabled": 0, "type": "electric_scooter", "is_reserved": 0, "fusion_lon": 0.0, "lat": 38.928985, "rental_uris": {"ios": "https://dc.lft.to/lastmile_qr_scan", "android": "https://dc.lft.to/lastmile_qr_scan"}, "bike_id": "d946e892e45a0cb2bccb9fcb301c06fd", "fusion_lat": 0.0}, {"lon": -77.026746, "name": "e7dad9c94ce56c0b96841b3d9424a1f5", "is_disabled": 0, "type": "electric_scooter", "is_reserved": 0, "fusion_lon": 0.0, "lat": 38.89732383333333, "rental_uris": {"ios": "https://dc.lft.to/lastmile_qr_scan", "android": "https://dc.lft.to/lastmile_qr_scan"}, "bike_id": "e7dad9c94ce56c0b96841b3d9424a1f5", "fusion_lat": 0.0}, {"lon": -77.00736283333333, "name": "474f47c131dfb1d284d47d15c349050f", "is_disabled": 0, "type": "electric_scooter", "is_reserved": 0, "fusion_lon": 0.0, "lat": 38.878857333333336, "rental_uris": {"ios": "https://dc.lft.to/lastmile_qr_scan", "android": "https://dc.lft.to/lastmile_qr_scan"}, "bike_id": "474f47c131dfb1d284d47d15c349050f", "fusion_lat": 0.0}, {"lon": -77.0182005, "name": "5601d8f94a36bfab0e545a8be66dea72", "is_disabled": 0, "type": "electric_scooter", "is_reserved": 0, "fusion_lon": 0.0, "lat": 38.920604833333336, "rental_uris": {"ios": "https://dc.lft.to/lastmile_qr_scan", "android": "https://dc.lft.to/lastmile_qr_scan"}, "bike_id": "5601d8f94a36bfab0e545a8be66dea72", "fusion_lat": 0.0}, {"lon": -77.0249715, "name": "4a389d36a48d10afa34189d189a3d075", "is_disabled": 0, "type": "electric_scooter", "is_reserved": 0, "fusion_lon": 0.0, "lat": 38.937586333333336, "rental_uris": {"ios": "https://dc.lft.to/lastmile_qr_scan", "android": "https://dc.lft.to/lastmile_qr_scan"}, "bike_id": "4a389d36a48d10afa34189d189a3d075", "fusion_lat": 0.0}, {"lon": -77.03971816666666, "name": "d00678e1a06cf8282ffc3fe32007a499", "is_disabled": 0, "type": "electric_scooter", "is_reserved": 0, "fusion_lon": 0.0, "lat": 38.92031216666667, "rental_uris": {"ios": "https://dc.lft.to/lastmile_qr_scan", "android": "https://dc.lft.to/lastmile_qr_scan"}, "bike_id": "d00678e1a06cf8282ffc3fe32007a499", "fusion_lat": 0.0}, {"lon": -77.04186366666667, "name": "c98fc6115b9f2fbc86f96d4fee55f3ce", "is_disabled": 0, "type": "electric_scooter", "is_reserved": 0, "fusion_lon": 0.0, "lat": 38.92049633333333, "rental_uris": {"ios": "https://dc.lft.to/lastmile_qr_scan", "android": "https://dc.lft.to/lastmile_qr_scan"}, "bike_id": "c98fc6115b9f2fbc86f96d4fee55f3ce", "fusion_lat": 0.0}, {"lon": -77.03380733333333, "name": "a20c75c0489f9209ec5d0db2c13be3ee", "is_disabled": 0, "type": "electric_scooter", "is_reserved": 0, "fusion_lon": 0.0, "lat": 38.92157666666667, "rental_uris": {"ios": "https://dc.lft.to/lastmile_qr_scan", "android": "https://dc.lft.to/lastmile_qr_scan"}, "bike_id": "a20c75c0489f9209ec5d0db2c13be3ee", "fusion_lat": 0.0}, {"lon": -76.90752883333333, "name": "2e1528c88f4018a2ca071f9b6155405f", "is_disabled": 0, "type": "electric_bike", "is_reserved": 0, "fusion_lon": 0.0, "lat": 38.89617966666667, "rental_uris": {"ios": "https://dc.lft.to/lastmile_qr_scan", "android": "https://dc.lft.to/lastmile_qr_scan"}, "bike_id": "2e1528c88f4018a2ca071f9b6155405f", "fusion_lat": 0.0}, {"lon": -77.02703383333333, "name": "1f26e6a7d7947ae67de029c42fe98df1", "is_disabled": 0, "type": "electric_scooter", "is_reserved": 0, "fusion_lon": 0.0, "lat": 38.89759133333333, "rental_uris": {"ios": "https://dc.lft.to/lastmile_qr_scan", "android": "https://dc.lft.to/lastmile_qr_scan"}, "bike_id": "1f26e6a7d7947ae67de029c42fe98df1", "fusion_lat": 0.0}, {"lon": -77.0419355, "name": "e9c013cdf1e85dcb962eb0f55e41a78a", "is_disabled": 0, "type": "electric_scooter", "is_reserved": 0, "fusion_lon": 0.0, "lat": 38.92063066666667, "rental_uris": {"ios": "https://dc.lft.to/lastmile_qr_scan", "android": "https://dc.lft.to/lastmile_qr_scan"}, "bike_id": "e9c013cdf1e85dcb962eb0f55e41a78a", "fusion_lat": 0.0}, {"lon": -76.97139933333334, "name": "a2e87632d7cff14862373db96ce2a7ad", "is_disabled": 0, "type": "electric_scooter", "is_reserved": 0, "fusion_lon": 0.0, "lat": 38.913548166666665, "rental_uris": {"ios": "https://dc.lft.to/lastmile_qr_scan", "android": "https://dc.lft.to/lastmile_qr_scan"}, "bike_id": "a2e87632d7cff14862373db96ce2a7ad", "fusion_lat": 0.0}, {"lon": -77.03976416666667, "name": "6d7c31eb2bec2e39289b51867aa93772", "is_disabled": 0, "type": "electric_scooter", "is_reserved": 0, "fusion_lon": 0.0, "lat": 38.903777166666664, "rental_uris": {"ios": "https://dc.lft.to/lastmile_qr_scan", "android": "https://dc.lft.to/lastmile_qr_scan"}, "bike_id": "6d7c31eb2bec2e39289b51867aa93772", "fusion_lat": 0.0}, {"lon": -77.01950466666666, "name": "aaf30906027c2a9e6e3849aba79212dc", "is_disabled": 0, "type": "electric_scooter", "is_reserved": 0, "fusion_lon": 0.0, "lat": 38.92263033333333, "rental_uris": {"ios": "https://dc.lft.to/lastmile_qr_scan", "android": "https://dc.lft.to/lastmile_qr_scan"}, "bike_id": "aaf30906027c2a9e6e3849aba79212dc", "fusion_lat": 0.0}, {"lon": -76.99394266666667, "name": "115b18f6970fa09b0b065253dfcb75a3", "is_disabled": 0, "type": "electric_scooter", "is_reserved": 0, "fusion_lon": 0.0, "lat": 38.8763945, "rental_uris": {"ios": "https://dc.lft.to/lastmile_qr_scan", "android": "https://dc.lft.to/lastmile_qr_scan"}, "bike_id": "115b18f6970fa09b0b065253dfcb75a3", "fusion_lat": 0.0}, {"lon": -77.03172483333333, "name": "ed2b744eba218bdde977fa8608118398", "is_disabled": 0, "type": "electric_scooter", "is_reserved": 0, "fusion_lon": 0.0, "lat": 38.91652916666666, "rental_uris": {"ios": "https://dc.lft.to/lastmile_qr_scan", "android": "https://dc.lft.to/lastmile_qr_scan"}, "bike_id": "ed2b744eba218bdde977fa8608118398", "fusion_lat": 0.0}, {"lon": -77.0180225, "name": "c0e842e8c4f99b0fb0a0651cbafdc2e8", "is_disabled": 0, "type": "electric_scooter", "is_reserved": 0, "fusion_lon": 0.0, "lat": 38.91994316666667, "rental_uris": {"ios": "https://dc.lft.to/lastmile_qr_scan", "android": "https://dc.lft.to/lastmile_qr_scan"}, "bike_id": "c0e842e8c4f99b0fb0a0651cbafdc2e8", "fusion_lat": 0.0}, {"lon": -77.03945033333333, "name": "f6b1ef2fb3bb65d2fb202801531fbd58", "is_disabled": 0, "type": "electric_scooter", "is_reserved": 0, "fusion_lon": 0.0, "lat": 38.908182, "rental_uris": {"ios": "https://dc.lft.to/lastmile_qr_scan", "android": "https://dc.lft.to/lastmile_qr_scan"}, "bike_id": "f6b1ef2fb3bb65d2fb202801531fbd58", "fusion_lat": 0.0}, {"lon": -77.0500775, "name": "a11fd902a75c118044df4315f1e5cbbc", "is_disabled": 0, "type": "electric_scooter", "is_reserved": 0, "fusion_lon": 0.0, "lat": 38.9012675, "rental_uris": {"ios": "https://dc.lft.to/lastmile_qr_scan", "android": "https://dc.lft.to/lastmile_qr_scan"}, "bike_id": "a11fd902a75c118044df4315f1e5cbbc", "fusion_lat": 0.0}, {"lon": -77.02179833333334, "name": "12b1a86abe899e219422392294177697", "is_disabled": 0, "type": "electric_scooter", "is_reserved": 0, "fusion_lon": 0.0, "lat": 38.943107166666664, "rental_uris": {"ios": "https://dc.lft.to/lastmile_qr_scan", "android": "https://dc.lft.to/lastmile_qr_scan"}, "bike_id": "12b1a86abe899e219422392294177697", "fusion_lat": 0.0}, {"lon": -77.00899083333333, "name": "fff5e2b62497198744ae44cf400ee88b", "is_disabled": 0, "type": "electric_scooter", "is_reserved": 0, "fusion_lon": 0.0, "lat": 38.900708, "rental_uris": {"ios": "https://dc.lft.to/lastmile_qr_scan", "android": "https://dc.lft.to/lastmile_qr_scan"}, "bike_id": "fff5e2b62497198744ae44cf400ee88b", "fusion_lat": 0.0}, {"lon": -77.02486883333333, "name": "c1e133f10ec966755e563cf9903ac9f7", "is_disabled": 0, "type": "electric_scooter", "is_reserved": 0, "fusion_lon": 0.0, "lat": 38.9181925, "rental_uris": {"ios": "https://dc.lft.to/lastmile_qr_scan", "android": "https://dc.lft.to/lastmile_qr_scan"}, "bike_id": "c1e133f10ec966755e563cf9903ac9f7", "fusion_lat": 0.0}, {"lon": -77.032573, "name": "68dcc90c2d727aa87cad156817be8789", "is_disabled": 0, "type": "electric_scooter", "is_reserved": 0, "fusion_lon": 0.0, "lat": 38.93256916666667, "rental_uris": {"ios": "https://dc.lft.to/lastmile_qr_scan", "android": "https://dc.lft.to/lastmile_qr_scan"}, "bike_id": "68dcc90c2d727aa87cad156817be8789", "fusion_lat": 0.0}, {"lon": -77.04007583333333, "name": "e5d7b4c496dde9be69ba24d3964c4d61", "is_disabled": 0, "type": "electric_scooter", "is_reserved": 0, "fusion_lon": 0.0, "lat": 38.917002333333336, "rental_uris": {"ios": "https://dc.lft.to/lastmile_qr_scan", "android": "https://dc.lft.to/lastmile_qr_scan"}, "bike_id": "e5d7b4c496dde9be69ba24d3964c4d61", "fusion_lat": 0.0}, {"lon": -76.99572, "name": "8ed788be9d7c43f48266a1a6a361977d", "is_disabled": 0, "type": "electric_bike", "is_reserved": 0, "fusion_lon": 0.0, "lat": 38.8316055, "rental_uris": {"ios": "https://dc.lft.to/lastmile_qr_scan", "android": "https://dc.lft.to/lastmile_qr_scan"}, "bike_id": "8ed788be9d7c43f48266a1a6a361977d", "fusion_lat": 0.0}, {"lon": -77.029813, "name": "19bbd61817a26c0e50a7209cc55a750d", "is_disabled": 0, "type": "electric_scooter", "is_reserved": 0, "fusion_lon": 0.0, "lat": 38.943535, "rental_uris": {"ios": "https://dc.lft.to/lastmile_qr_scan", "android": "https://dc.lft.to/lastmile_qr_scan"}, "bike_id": "19bbd61817a26c0e50a7209cc55a750d", "fusion_lat": 0.0}, {"lon": -77.04722716666667, "name": "b13843e2cec957b6d2f7c69bda090427", "is_disabled": 0, "type": "electric_scooter", "is_reserved": 0, "fusion_lon": 0.0, "lat": 38.89965516666667, "rental_uris": {"ios": "https://dc.lft.to/lastmile_qr_scan", "android": "https://dc.lft.to/lastmile_qr_scan"}, "bike_id": "b13843e2cec957b6d2f7c69bda090427", "fusion_lat": 0.0}, {"lon": -77.00293116666667, "name": "1a35ec49efe43d674ae25a7f7320aa0b", "is_disabled": 0, "type": "electric_scooter", "is_reserved": 0, "fusion_lon": 0.0, "lat": 38.892353166666666, "rental_uris": {"ios": "https://dc.lft.to/lastmile_qr_scan", "android": "https://dc.lft.to/lastmile_qr_scan"}, "bike_id": "1a35ec49efe43d674ae25a7f7320aa0b", "fusion_lat": 0.0}, {"lon": -77.004442, "name": "26f94aae706c2b64542af17a469dfeff", "is_disabled": 0, "type": "electric_scooter", "is_reserved": 0, "fusion_lon": 0.0, "lat": 38.87833783333333, "rental_uris": {"ios": "https://dc.lft.to/lastmile_qr_scan", "android": "https://dc.lft.to/lastmile_qr_scan"}, "bike_id": "26f94aae706c2b64542af17a469dfeff", "fusion_lat": 0.0}, {"lon": -77.0208145, "name": "61d148a4647782bfbaee77e2e917dc89", "is_disabled": 0, "type": "electric_scooter", "is_reserved": 0, "fusion_lon": 0.0, "lat": 38.921484666666665, "rental_uris": {"ios": "https://dc.lft.to/lastmile_qr_scan", "android": "https://dc.lft.to/lastmile_qr_scan"}, "bike_id": "61d148a4647782bfbaee77e2e917dc89", "fusion_lat": 0.0}, {"lon": -76.98489266666667, "name": "ff868ab9dee525d95dc5bdf82535f385", "is_disabled": 0, "type": "electric_scooter", "is_reserved": 0, "fusion_lon": 0.0, "lat": 38.92034366666667, "rental_uris": {"ios": "https://dc.lft.to/lastmile_qr_scan", "android": "https://dc.lft.to/lastmile_qr_scan"}, "bike_id": "ff868ab9dee525d95dc5bdf82535f385", "fusion_lat": 0.0}, {"lon": -77.00213733333334, "name": "deabef62a59e25a31cc2e4f27587c693", "is_disabled": 0, "type": "electric_scooter", "is_reserved": 0, "fusion_lon": 0.0, "lat": 38.89813483333333, "rental_uris": {"ios": "https://dc.lft.to/lastmile_qr_scan", "android": "https://dc.lft.to/lastmile_qr_scan"}, "bike_id": "deabef62a59e25a31cc2e4f27587c693", "fusion_lat": 0.0}, {"lon": -77.01366566666667, "name": "d5327cc360653b6fe96825e17293ff26", "is_disabled": 0, "type": "electric_scooter", "is_reserved": 0, "fusion_lon": 0.0, "lat": 38.91333483333333, "rental_uris": {"ios": "https://dc.lft.to/lastmile_qr_scan", "android": "https://dc.lft.to/lastmile_qr_scan"}, "bike_id": "d5327cc360653b6fe96825e17293ff26", "fusion_lat": 0.0}, {"lon": -77.035079, "name": "8448498010da0a0ffcf5d7f5771f27a9", "is_disabled": 0, "type": "electric_scooter", "is_reserved": 0, "fusion_lon": 0.0, "lat": 38.901322, "rental_uris": {"ios": "https://dc.lft.to/lastmile_qr_scan", "android": "https://dc.lft.to/lastmile_qr_scan"}, "bike_id": "8448498010da0a0ffcf5d7f5771f27a9", "fusion_lat": 0.0}, {"lon": -77.03187566666666, "name": "9bd5d0aa45c82a9cc1aa74d100d605ba", "is_disabled": 0, "type": "electric_scooter", "is_reserved": 0, "fusion_lon": 0.0, "lat": 38.883889, "rental_uris": {"ios": "https://dc.lft.to/lastmile_qr_scan", "android": "https://dc.lft.to/lastmile_qr_scan"}, "bike_id": "9bd5d0aa45c82a9cc1aa74d100d605ba", "fusion_lat": 0.0}, {"lon": -76.99852083333333, "name": "e8ab521b5287a0c417aae029c6329ce5", "is_disabled": 0, "type": "electric_scooter", "is_reserved": 0, "fusion_lon": 0.0, "lat": 38.90120316666667, "rental_uris": {"ios": "https://dc.lft.to/lastmile_qr_scan", "android": "https://dc.lft.to/lastmile_qr_scan"}, "bike_id": "e8ab521b5287a0c417aae029c6329ce5", "fusion_lat": 0.0}, {"lon": -77.032465, "name": "d3c6fd4807bdbb79442e6cf4fe2a1e6a", "is_disabled": 0, "type": "electric_scooter", "is_reserved": 0, "fusion_lon": 0.0, "lat": 38.90278166666667, "rental_uris": {"ios": "https://dc.lft.to/lastmile_qr_scan", "android": "https://dc.lft.to/lastmile_qr_scan"}, "bike_id": "d3c6fd4807bdbb79442e6cf4fe2a1e6a", "fusion_lat": 0.0}, {"lon": -76.9956235, "name": "31345683c789555c88704059ee33252e", "is_disabled": 0, "type": "electric_scooter", "is_reserved": 0, "fusion_lon": 0.0, "lat": 38.950725166666665, "rental_uris": {"ios": "https://dc.lft.to/lastmile_qr_scan", "android": "https://dc.lft.to/lastmile_qr_scan"}, "bike_id": "31345683c789555c88704059ee33252e", "fusion_lat": 0.0}, {"lon": -77.060149, "name": "c517ddf07b00e1d3ed73301997739f47", "is_disabled": 0, "type": "electric_scooter", "is_reserved": 0, "fusion_lon": 0.0, "lat": 38.927144, "rental_uris": {"ios": "https://dc.lft.to/lastmile_qr_scan", "android": "https://dc.lft.to/lastmile_qr_scan"}, "bike_id": "c517ddf07b00e1d3ed73301997739f47", "fusion_lat": 0.0}, {"lon": -76.926295, "name": "f8302f9450c546480b8cb55af9ab5153", "is_disabled": 0, "type": "electric_scooter", "is_reserved": 0, "fusion_lon": 0.0, "lat": 38.8862615, "rental_uris": {"ios": "https://dc.lft.to/lastmile_qr_scan", "android": "https://dc.lft.to/lastmile_qr_scan"}, "bike_id": "f8302f9450c546480b8cb55af9ab5153", "fusion_lat": 0.0}, {"lon": -77.05059566666667, "name": "410c5b816c5eefdf0f5cfe144f04ca99", "is_disabled": 0, "type": "electric_scooter", "is_reserved": 0, "fusion_lon": 0.0, "lat": 38.900853166666664, "rental_uris": {"ios": "https://dc.lft.to/lastmile_qr_scan", "android": "https://dc.lft.to/lastmile_qr_scan"}, "bike_id": "410c5b816c5eefdf0f5cfe144f04ca99", "fusion_lat": 0.0}, {"lon": -77.00897783333333, "name": "3f8dd2c0e398d2ae9794bfe047714e23", "is_disabled": 0, "type": "electric_scooter", "is_reserved": 0, "fusion_lon": 0.0, "lat": 38.90978466666667, "rental_uris": {"ios": "https://dc.lft.to/lastmile_qr_scan", "android": "https://dc.lft.to/lastmile_qr_scan"}, "bike_id": "3f8dd2c0e398d2ae9794bfe047714e23", "fusion_lat": 0.0}, {"lon": -77.02406266666667, "name": "358db14eba2d2523dc0d2b7aea27a767", "is_disabled": 0, "type": "electric_scooter", "is_reserved": 0, "fusion_lon": 0.0, "lat": 38.917126333333336, "rental_uris": {"ios": "https://dc.lft.to/lastmile_qr_scan", "android": "https://dc.lft.to/lastmile_qr_scan"}, "bike_id": "358db14eba2d2523dc0d2b7aea27a767", "fusion_lat": 0.0}, {"lon": -77.00985816666666, "name": "b928db62282a3b70001892a5dfe9a3d9", "is_disabled": 0, "type": "electric_scooter", "is_reserved": 0, "fusion_lon": 0.0, "lat": 38.91408, "rental_uris": {"ios": "https://dc.lft.to/lastmile_qr_scan", "android": "https://dc.lft.to/lastmile_qr_scan"}, "bike_id": "b928db62282a3b70001892a5dfe9a3d9", "fusion_lat": 0.0}, {"lon": -77.01332633333334, "name": "9ba142c288c2498b02ae124882f338c9", "is_disabled": 0, "type": "electric_scooter", "is_reserved": 0, "fusion_lon": 0.0, "lat": 38.942051, "rental_uris": {"ios": "https://dc.lft.to/lastmile_qr_scan", "android": "https://dc.lft.to/lastmile_qr_scan"}, "bike_id": "9ba142c288c2498b02ae124882f338c9", "fusion_lat": 0.0}, {"lon": -77.0338035, "name": "6a0ca6ac1cf23870d996bb604827d4b7", "is_disabled": 0, "type": "electric_scooter", "is_reserved": 0, "fusion_lon": 0.0, "lat": 38.92469833333333, "rental_uris": {"ios": "https://dc.lft.to/lastmile_qr_scan", "android": "https://dc.lft.to/lastmile_qr_scan"}, "bike_id": "6a0ca6ac1cf23870d996bb604827d4b7", "fusion_lat": 0.0}, {"lon": -77.06684233333333, "name": "b498f4de15ed7c990e08394afb550279", "is_disabled": 0, "type": "electric_scooter", "is_reserved": 0, "fusion_lon": 0.0, "lat": 38.914262666666666, "rental_uris": {"ios": "https://dc.lft.to/lastmile_qr_scan", "android": "https://dc.lft.to/lastmile_qr_scan"}, "bike_id": "b498f4de15ed7c990e08394afb550279", "fusion_lat": 0.0}, {"lon": -76.98837166666667, "name": "7c5db6d2a63687fbd0e25cf2544253fc", "is_disabled": 0, "type": "electric_scooter", "is_reserved": 0, "fusion_lon": 0.0, "lat": 38.90035683333333, "rental_uris": {"ios": "https://dc.lft.to/lastmile_qr_scan", "android": "https://dc.lft.to/lastmile_qr_scan"}, "bike_id": "7c5db6d2a63687fbd0e25cf2544253fc", "fusion_lat": 0.0}, {"lon": -77.02001666666666, "name": "8f513832bd1eae55952c98f9bd358095", "is_disabled": 0, "type": "electric_scooter", "is_reserved": 0, "fusion_lon": 0.0, "lat": 38.88557483333334, "rental_uris": {"ios": "https://dc.lft.to/lastmile_qr_scan", "android": "https://dc.lft.to/lastmile_qr_scan"}, "bike_id": "8f513832bd1eae55952c98f9bd358095", "fusion_lat": 0.0}, {"lon": -77.075454, "name": "fd67c9526983a2d6e5bfecf2ecd13236", "is_disabled": 0, "type": "electric_scooter", "is_reserved": 0, "fusion_lon": 0.0, "lat": 38.91536833333333, "rental_uris": {"ios": "https://dc.lft.to/lastmile_qr_scan", "android": "https://dc.lft.to/lastmile_qr_scan"}, "bike_id": "fd67c9526983a2d6e5bfecf2ecd13236", "fusion_lat": 0.0}, {"lon": -76.91803333333333, "name": "10d80cc909f14f6c751a7eec1f5b6f9d", "is_disabled": 0, "type": "electric_bike", "is_reserved": 0, "fusion_lon": 0.0, "lat": 39.000060166666664, "rental_uris": {"ios": "https://dc.lft.to/lastmile_qr_scan", "android": "https://dc.lft.to/lastmile_qr_scan"}, "bike_id": "10d80cc909f14f6c751a7eec1f5b6f9d", "fusion_lat": 0.0}, {"lon": -77.04642416666667, "name": "4737bff54887cdc92b91f07b226e5b73", "is_disabled": 0, "type": "electric_scooter", "is_reserved": 0, "fusion_lon": 0.0, "lat": 38.9048555, "rental_uris": {"ios": "https://dc.lft.to/lastmile_qr_scan", "android": "https://dc.lft.to/lastmile_qr_scan"}, "bike_id": "4737bff54887cdc92b91f07b226e5b73", "fusion_lat": 0.0}, {"lon": -77.01776933333333, "name": "c3efb89c59f8797a97dbb6208308e2f3", "is_disabled": 0, "type": "electric_scooter", "is_reserved": 0, "fusion_lon": 0.0, "lat": 38.920412666666664, "rental_uris": {"ios": "https://dc.lft.to/lastmile_qr_scan", "android": "https://dc.lft.to/lastmile_qr_scan"}, "bike_id": "c3efb89c59f8797a97dbb6208308e2f3", "fusion_lat": 0.0}, {"lon": -77.06601666666667, "name": "68f3ad2d709653fe758a38bb35afd9d2", "is_disabled": 0, "type": "electric_scooter", "is_reserved": 0, "fusion_lon": 0.0, "lat": 38.91224366666667, "rental_uris": {"ios": "https://dc.lft.to/lastmile_qr_scan", "android": "https://dc.lft.to/lastmile_qr_scan"}, "bike_id": "68f3ad2d709653fe758a38bb35afd9d2", "fusion_lat": 0.0}, {"lon": -76.99118616666667, "name": "013123e8df7040648c3cadbe376f512f", "is_disabled": 0, "type": "electric_scooter", "is_reserved": 0, "fusion_lon": 0.0, "lat": 38.9002895, "rental_uris": {"ios": "https://dc.lft.to/lastmile_qr_scan", "android": "https://dc.lft.to/lastmile_qr_scan"}, "bike_id": "013123e8df7040648c3cadbe376f512f", "fusion_lat": 0.0}, {"lon": -77.025583, "name": "5a3c384076933aa17f43a74c11db301c", "is_disabled": 0, "type": "electric_scooter", "is_reserved": 0, "fusion_lon": 0.0, "lat": 38.94165266666667, "rental_uris": {"ios": "https://dc.lft.to/lastmile_qr_scan", "android": "https://dc.lft.to/lastmile_qr_scan"}, "bike_id": "5a3c384076933aa17f43a74c11db301c", "fusion_lat": 0.0}, {"lon": -77.02379633333334, "name": "b07e5949f9c82753f653986d9acd7265", "is_disabled": 0, "type": "electric_scooter", "is_reserved": 0, "fusion_lon": 0.0, "lat": 38.9020395, "rental_uris": {"ios": "https://dc.lft.to/lastmile_qr_scan", "android": "https://dc.lft.to/lastmile_qr_scan"}, "bike_id": "b07e5949f9c82753f653986d9acd7265", "fusion_lat": 0.0}, {"lon": -77.060831, "name": "995e59410c097c9a70d275042024bccd", "is_disabled": 0, "type": "electric_scooter", "is_reserved": 0, "fusion_lon": 0.0, "lat": 38.911919166666664, "rental_uris": {"ios": "https://dc.lft.to/lastmile_qr_scan", "android": "https://dc.lft.to/lastmile_qr_scan"}, "bike_id": "995e59410c097c9a70d275042024bccd", "fusion_lat": 0.0}, {"lon": -77.01887383333333, "name": "e1676402145ab29220c584ee8074a3bd", "is_disabled": 0, "type": "electric_scooter", "is_reserved": 0, "fusion_lon": 0.0, "lat": 38.909191166666666, "rental_uris": {"ios": "https://dc.lft.to/lastmile_qr_scan", "android": "https://dc.lft.to/lastmile_qr_scan"}, "bike_id": "e1676402145ab29220c584ee8074a3bd", "fusion_lat": 0.0}, {"lon": -77.02059466666667, "name": "f8e16b5841e27c7dc6d51718886301ad", "is_disabled": 0, "type": "electric_scooter", "is_reserved": 0, "fusion_lon": 0.0, "lat": 38.92255683333333, "rental_uris": {"ios": "https://dc.lft.to/lastmile_qr_scan", "android": "https://dc.lft.to/lastmile_qr_scan"}, "bike_id": "f8e16b5841e27c7dc6d51718886301ad", "fusion_lat": 0.0}, {"lon": -77.021715, "name": "3b892465cd1f14da926d1f93872cd289", "is_disabled": 0, "type": "electric_scooter", "is_reserved": 0, "fusion_lon": 0.0, "lat": 38.901881, "rental_uris": {"ios": "https://dc.lft.to/lastmile_qr_scan", "android": "https://dc.lft.to/lastmile_qr_scan"}, "bike_id": "3b892465cd1f14da926d1f93872cd289", "fusion_lat": 0.0}, {"lon": -76.997585, "name": "5106a6a7783fe7fc92efb86960c1a020", "is_disabled": 0, "type": "electric_scooter", "is_reserved": 0, "fusion_lon": 0.0, "lat": 38.922875166666664, "rental_uris": {"ios": "https://dc.lft.to/lastmile_qr_scan", "android": "https://dc.lft.to/lastmile_qr_scan"}, "bike_id": "5106a6a7783fe7fc92efb86960c1a020", "fusion_lat": 0.0}, {"lon": -77.04996583333333, "name": "f8f915ad6a239c1266de227f5e57549a", "is_disabled": 0, "type": "electric_scooter", "is_reserved": 0, "fusion_lon": 0.0, "lat": 38.892302, "rental_uris": {"ios": "https://dc.lft.to/lastmile_qr_scan", "android": "https://dc.lft.to/lastmile_qr_scan"}, "bike_id": "f8f915ad6a239c1266de227f5e57549a", "fusion_lat": 0.0}, {"lon": -77.035594, "name": "e7e3bf0b3c958c7dc653cc49dc9ad3c4", "is_disabled": 0, "type": "electric_scooter", "is_reserved": 0, "fusion_lon": 0.0, "lat": 38.904767166666666, "rental_uris": {"ios": "https://dc.lft.to/lastmile_qr_scan", "android": "https://dc.lft.to/lastmile_qr_scan"}, "bike_id": "e7e3bf0b3c958c7dc653cc49dc9ad3c4", "fusion_lat": 0.0}, {"lon": -77.07798833333334, "name": "17fa511619334b5f791f3e07da24c9a9", "is_disabled": 0, "type": "electric_scooter", "is_reserved": 0, "fusion_lon": 0.0, "lat": 38.938526, "rental_uris": {"ios": "https://dc.lft.to/lastmile_qr_scan", "android": "https://dc.lft.to/lastmile_qr_scan"}, "bike_id": "17fa511619334b5f791f3e07da24c9a9", "fusion_lat": 0.0}, {"lon": -77.032056, "name": "5ba835a64a3918c2d335abc15bd949d0", "is_disabled": 0, "type": "electric_scooter", "is_reserved": 0, "fusion_lon": 0.0, "lat": 38.919136, "rental_uris": {"ios": "https://dc.lft.to/lastmile_qr_scan", "android": "https://dc.lft.to/lastmile_qr_scan"}, "bike_id": "5ba835a64a3918c2d335abc15bd949d0", "fusion_lat": 0.0}, {"lon": -77.00575683333334, "name": "677104ec6345c5e26715ce434fab5a26", "is_disabled": 0, "type": "electric_scooter", "is_reserved": 0, "fusion_lon": 0.0, "lat": 38.872212833333336, "rental_uris": {"ios": "https://dc.lft.to/lastmile_qr_scan", "android": "https://dc.lft.to/lastmile_qr_scan"}, "bike_id": "677104ec6345c5e26715ce434fab5a26", "fusion_lat": 0.0}, {"lon": -77.00868666666666, "name": "4d4c9f5ded7ef68e40e9401366b1f5bc", "is_disabled": 0, "type": "electric_scooter", "is_reserved": 0, "fusion_lon": 0.0, "lat": 38.899468666666664, "rental_uris": {"ios": "https://dc.lft.to/lastmile_qr_scan", "android": "https://dc.lft.to/lastmile_qr_scan"}, "bike_id": "4d4c9f5ded7ef68e40e9401366b1f5bc", "fusion_lat": 0.0}, {"lon": -77.012242, "name": "40602342de2de6676d1268132c61f0ef", "is_disabled": 0, "type": "electric_scooter", "is_reserved": 0, "fusion_lon": 0.0, "lat": 38.91521383333333, "rental_uris": {"ios": "https://dc.lft.to/lastmile_qr_scan", "android": "https://dc.lft.to/lastmile_qr_scan"}, "bike_id": "40602342de2de6676d1268132c61f0ef", "fusion_lat": 0.0}, {"lon": -77.01999533333333, "name": "9749bffc68ae4a287d2fb556bb9c4401", "is_disabled": 0, "type": "electric_scooter", "is_reserved": 0, "fusion_lon": 0.0, "lat": 38.885591, "rental_uris": {"ios": "https://dc.lft.to/lastmile_qr_scan", "android": "https://dc.lft.to/lastmile_qr_scan"}, "bike_id": "9749bffc68ae4a287d2fb556bb9c4401", "fusion_lat": 0.0}, {"lon": -77.22568116666666, "name": "3cb587d9886f99b23685e91a9db9337b", "is_disabled": 0, "type": "electric_bike", "is_reserved": 0, "fusion_lon": 0.0, "lat": 38.929568833333335, "rental_uris": {"ios": "https://dc.lft.to/lastmile_qr_scan", "android": "https://dc.lft.to/lastmile_qr_scan"}, "bike_id": "3cb587d9886f99b23685e91a9db9337b", "fusion_lat": 0.0}, {"lon": -77.03415183333334, "name": "445c32803959c3cb90c7d3a4277e9f24", "is_disabled": 0, "type": "electric_scooter", "is_reserved": 0, "fusion_lon": 0.0, "lat": 38.92056433333333, "rental_uris": {"ios": "https://dc.lft.to/lastmile_qr_scan", "android": "https://dc.lft.to/lastmile_qr_scan"}, "bike_id": "445c32803959c3cb90c7d3a4277e9f24", "fusion_lat": 0.0}, {"lon": -77.0215105, "name": "90ece84085b7d4a26707ad98c5a07820", "is_disabled": 0, "type": "electric_scooter", "is_reserved": 0, "fusion_lon": 0.0, "lat": 38.924596333333334, "rental_uris": {"ios": "https://dc.lft.to/lastmile_qr_scan", "android": "https://dc.lft.to/lastmile_qr_scan"}, "bike_id": "90ece84085b7d4a26707ad98c5a07820", "fusion_lat": 0.0}, {"lon": -77.02684216666667, "name": "bdb6f5f77bdd9d8132c7377922446294", "is_disabled": 0, "type": "electric_bike", "is_reserved": 0, "fusion_lon": 0.0, "lat": 38.987145, "rental_uris": {"ios": "https://dc.lft.to/lastmile_qr_scan", "android": "https://dc.lft.to/lastmile_qr_scan"}, "bike_id": "bdb6f5f77bdd9d8132c7377922446294", "fusion_lat": 0.0}, {"lon": -77.02450733333333, "name": "3427f62acc29f20ac39568e048b71284", "is_disabled": 0, "type": "electric_scooter", "is_reserved": 0, "fusion_lon": 0.0, "lat": 38.92386966666667, "rental_uris": {"ios": "https://dc.lft.to/lastmile_qr_scan", "android": "https://dc.lft.to/lastmile_qr_scan"}, "bike_id": "3427f62acc29f20ac39568e048b71284", "fusion_lat": 0.0}, {"lon": -77.04349116666667, "name": "9175f5885ba8b1bed2e3a22eb71b4479", "is_disabled": 0, "type": "electric_scooter", "is_reserved": 0, "fusion_lon": 0.0, "lat": 38.901276, "rental_uris": {"ios": "https://dc.lft.to/lastmile_qr_scan", "android": "https://dc.lft.to/lastmile_qr_scan"}, "bike_id": "9175f5885ba8b1bed2e3a22eb71b4479", "fusion_lat": 0.0}, {"lon": -77.00979216666667, "name": "33861c2afa66b5d920d167e3076ebd02", "is_disabled": 0, "type": "electric_scooter", "is_reserved": 0, "fusion_lon": 0.0, "lat": 38.909772333333336, "rental_uris": {"ios": "https://dc.lft.to/lastmile_qr_scan", "android": "https://dc.lft.to/lastmile_qr_scan"}, "bike_id": "33861c2afa66b5d920d167e3076ebd02", "fusion_lat": 0.0}, {"lon": -77.01163783333334, "name": "db35b5f7448850a199fa15fc5fdc9623", "is_disabled": 0, "type": "electric_scooter", "is_reserved": 0, "fusion_lon": 0.0, "lat": 38.91706816666667, "rental_uris": {"ios": "https://dc.lft.to/lastmile_qr_scan", "android": "https://dc.lft.to/lastmile_qr_scan"}, "bike_id": "db35b5f7448850a199fa15fc5fdc9623", "fusion_lat": 0.0}, {"lon": -77.01112, "name": "efda1cb4d36e8ba77dcadc31c272ecaa", "is_disabled": 0, "type": "electric_scooter", "is_reserved": 0, "fusion_lon": 0.0, "lat": 38.89480666666667, "rental_uris": {"ios": "https://dc.lft.to/lastmile_qr_scan", "android": "https://dc.lft.to/lastmile_qr_scan"}, "bike_id": "efda1cb4d36e8ba77dcadc31c272ecaa", "fusion_lat": 0.0}, {"lon": -76.929507, "name": "189054012d354a0f6019fa1323792369", "is_disabled": 0, "type": "electric_scooter", "is_reserved": 0, "fusion_lon": 0.0, "lat": 38.901832666666664, "rental_uris": {"ios": "https://dc.lft.to/lastmile_qr_scan", "android": "https://dc.lft.to/lastmile_qr_scan"}, "bike_id": "189054012d354a0f6019fa1323792369", "fusion_lat": 0.0}, {"lon": -77.0206, "name": "8423d05d7c8a478837de8754364754e1", "is_disabled": 0, "type": "electric_scooter", "is_reserved": 0, "fusion_lon": 0.0, "lat": 38.92372783333333, "rental_uris": {"ios": "https://dc.lft.to/lastmile_qr_scan", "android": "https://dc.lft.to/lastmile_qr_scan"}, "bike_id": "8423d05d7c8a478837de8754364754e1", "fusion_lat": 0.0}, {"lon": -77.00490716666667, "name": "5232430c2f248ad8bf563f130853375d", "is_disabled": 0, "type": "electric_scooter", "is_reserved": 0, "fusion_lon": 0.0, "lat": 38.91693216666667, "rental_uris": {"ios": "https://dc.lft.to/lastmile_qr_scan", "android": "https://dc.lft.to/lastmile_qr_scan"}, "bike_id": "5232430c2f248ad8bf563f130853375d", "fusion_lat": 0.0}, {"lon": -76.91722583333333, "name": "8848ea2d025654579f876f963611deef", "is_disabled": 0, "type": "electric_bike", "is_reserved": 0, "fusion_lon": 0.0, "lat": 38.880307333333334, "rental_uris": {"ios": "https://dc.lft.to/lastmile_qr_scan", "android": "https://dc.lft.to/lastmile_qr_scan"}, "bike_id": "8848ea2d025654579f876f963611deef", "fusion_lat": 0.0}, {"lon": -77.03880016666666, "name": "0eee47fd8adf0549b2d1156d1fe5c3ce", "is_disabled": 0, "type": "electric_scooter", "is_reserved": 0, "fusion_lon": 0.0, "lat": 38.9312435, "rental_uris": {"ios": "https://dc.lft.to/lastmile_qr_scan", "android": "https://dc.lft.to/lastmile_qr_scan"}, "bike_id": "0eee47fd8adf0549b2d1156d1fe5c3ce", "fusion_lat": 0.0}, {"lon": -77.0721955, "name": "cae424a86b47fcdd68da0d3617215465", "is_disabled": 0, "type": "electric_scooter", "is_reserved": 0, "fusion_lon": 0.0, "lat": 38.9136555, "rental_uris": {"ios": "https://dc.lft.to/lastmile_qr_scan", "android": "https://dc.lft.to/lastmile_qr_scan"}, "bike_id": "cae424a86b47fcdd68da0d3617215465", "fusion_lat": 0.0}, {"lon": -77.029491, "name": "dc7d022a2659f1d36ab3ec893be30df2", "is_disabled": 0, "type": "electric_scooter", "is_reserved": 0, "fusion_lon": 0.0, "lat": 38.90499366666667, "rental_uris": {"ios": "https://dc.lft.to/lastmile_qr_scan", "android": "https://dc.lft.to/lastmile_qr_scan"}, "bike_id": "dc7d022a2659f1d36ab3ec893be30df2", "fusion_lat": 0.0}, {"lon": -77.02376933333333, "name": "77859a9054700c874956aff9e8091cfa", "is_disabled": 0, "type": "electric_scooter", "is_reserved": 0, "fusion_lon": 0.0, "lat": 38.917831, "rental_uris": {"ios": "https://dc.lft.to/lastmile_qr_scan", "android": "https://dc.lft.to/lastmile_qr_scan"}, "bike_id": "77859a9054700c874956aff9e8091cfa", "fusion_lat": 0.0}, {"lon": -77.03250433333334, "name": "382e271b514657fc59bb1edb34ae4a65", "is_disabled": 0, "type": "electric_scooter", "is_reserved": 0, "fusion_lon": 0.0, "lat": 38.902365333333336, "rental_uris": {"ios": "https://dc.lft.to/lastmile_qr_scan", "android": "https://dc.lft.to/lastmile_qr_scan"}, "bike_id": "382e271b514657fc59bb1edb34ae4a65", "fusion_lat": 0.0}, {"lon": -77.06352933333334, "name": "6c0884c66929159d867fcf7fbaf03555", "is_disabled": 0, "type": "electric_scooter", "is_reserved": 0, "fusion_lon": 0.0, "lat": 38.906886666666665, "rental_uris": {"ios": "https://dc.lft.to/lastmile_qr_scan", "android": "https://dc.lft.to/lastmile_qr_scan"}, "bike_id": "6c0884c66929159d867fcf7fbaf03555", "fusion_lat": 0.0}, {"lon": -77.02188666666666, "name": "3086a82cd745c51cc650d586ee82a292", "is_disabled": 0, "type": "electric_scooter", "is_reserved": 0, "fusion_lon": 0.0, "lat": 38.877864333333335, "rental_uris": {"ios": "https://dc.lft.to/lastmile_qr_scan", "android": "https://dc.lft.to/lastmile_qr_scan"}, "bike_id": "3086a82cd745c51cc650d586ee82a292", "fusion_lat": 0.0}, {"lon": -77.05209183333334, "name": "215fb1e5e2e40b570a0fccbe33adf658", "is_disabled": 0, "type": "electric_scooter", "is_reserved": 0, "fusion_lon": 0.0, "lat": 38.92433966666667, "rental_uris": {"ios": "https://dc.lft.to/lastmile_qr_scan", "android": "https://dc.lft.to/lastmile_qr_scan"}, "bike_id": "215fb1e5e2e40b570a0fccbe33adf658", "fusion_lat": 0.0}, {"lon": -77.05498033333333, "name": "37dd29ed9c31aec9938c2c26f2f121b9", "is_disabled": 0, "type": "electric_scooter", "is_reserved": 0, "fusion_lon": 0.0, "lat": 38.89757083333333, "rental_uris": {"ios": "https://dc.lft.to/lastmile_qr_scan", "android": "https://dc.lft.to/lastmile_qr_scan"}, "bike_id": "37dd29ed9c31aec9938c2c26f2f121b9", "fusion_lat": 0.0}, {"lon": -77.01615816666667, "name": "74e1cef9cdf9ba3586d40a8c3cd24e6c", "is_disabled": 0, "type": "electric_scooter", "is_reserved": 0, "fusion_lon": 0.0, "lat": 38.905922333333336, "rental_uris": {"ios": "https://dc.lft.to/lastmile_qr_scan", "android": "https://dc.lft.to/lastmile_qr_scan"}, "bike_id": "74e1cef9cdf9ba3586d40a8c3cd24e6c", "fusion_lat": 0.0}, {"lon": -77.026071, "name": "21cd764dac49eeafa4de07b047b64f95", "is_disabled": 0, "type": "electric_scooter", "is_reserved": 0, "fusion_lon": 0.0, "lat": 38.920259, "rental_uris": {"ios": "https://dc.lft.to/lastmile_qr_scan", "android": "https://dc.lft.to/lastmile_qr_scan"}, "bike_id": "21cd764dac49eeafa4de07b047b64f95", "fusion_lat": 0.0}, {"lon": -76.98086466666666, "name": "6776f38f2b0588b8081840faae37f64e", "is_disabled": 0, "type": "electric_scooter", "is_reserved": 0, "fusion_lon": 0.0, "lat": 38.894398333333335, "rental_uris": {"ios": "https://dc.lft.to/lastmile_qr_scan", "android": "https://dc.lft.to/lastmile_qr_scan"}, "bike_id": "6776f38f2b0588b8081840faae37f64e", "fusion_lat": 0.0}, {"lon": -77.03628916666666, "name": "bae8a43a778324b68e837460fe1d4277", "is_disabled": 0, "type": "electric_scooter", "is_reserved": 0, "fusion_lon": 0.0, "lat": 38.946126166666666, "rental_uris": {"ios": "https://dc.lft.to/lastmile_qr_scan", "android": "https://dc.lft.to/lastmile_qr_scan"}, "bike_id": "bae8a43a778324b68e837460fe1d4277", "fusion_lat": 0.0}, {"lon": -77.02378316666666, "name": "c251b17ff52f2f4aa9dfe173d3f243e0", "is_disabled": 0, "type": "electric_scooter", "is_reserved": 0, "fusion_lon": 0.0, "lat": 38.91789083333333, "rental_uris": {"ios": "https://dc.lft.to/lastmile_qr_scan", "android": "https://dc.lft.to/lastmile_qr_scan"}, "bike_id": "c251b17ff52f2f4aa9dfe173d3f243e0", "fusion_lat": 0.0}, {"lon": -77.04217866666667, "name": "7745a09cd0bee14d635c4ce659030028", "is_disabled": 0, "type": "electric_scooter", "is_reserved": 0, "fusion_lon": 0.0, "lat": 38.921517, "rental_uris": {"ios": "https://dc.lft.to/lastmile_qr_scan", "android": "https://dc.lft.to/lastmile_qr_scan"}, "bike_id": "7745a09cd0bee14d635c4ce659030028", "fusion_lat": 0.0}, {"lon": -77.019555, "name": "58d15f17aa9042b8c3461a46bea3c5af", "is_disabled": 0, "type": "electric_scooter", "is_reserved": 0, "fusion_lon": 0.0, "lat": 38.923210833333336, "rental_uris": {"ios": "https://dc.lft.to/lastmile_qr_scan", "android": "https://dc.lft.to/lastmile_qr_scan"}, "bike_id": "58d15f17aa9042b8c3461a46bea3c5af", "fusion_lat": 0.0}, {"lon": -77.00410366666667, "name": "515631a9495e74d7b5638adec2d8b4a0", "is_disabled": 0, "type": "electric_scooter", "is_reserved": 0, "fusion_lon": 0.0, "lat": 38.877101, "rental_uris": {"ios": "https://dc.lft.to/lastmile_qr_scan", "android": "https://dc.lft.to/lastmile_qr_scan"}, "bike_id": "515631a9495e74d7b5638adec2d8b4a0", "fusion_lat": 0.0}, {"lon": -77.05366116666667, "name": "6ba812e4f6510dad3c23bdcd7fe252e9", "is_disabled": 0, "type": "electric_scooter", "is_reserved": 0, "fusion_lon": 0.0, "lat": 38.92335816666667, "rental_uris": {"ios": "https://dc.lft.to/lastmile_qr_scan", "android": "https://dc.lft.to/lastmile_qr_scan"}, "bike_id": "6ba812e4f6510dad3c23bdcd7fe252e9", "fusion_lat": 0.0}, {"lon": -77.0107175, "name": "8a1c04ed48f42fdb4b1c8a33096af1f1", "is_disabled": 0, "type": "electric_scooter", "is_reserved": 0, "fusion_lon": 0.0, "lat": 38.9141385, "rental_uris": {"ios": "https://dc.lft.to/lastmile_qr_scan", "android": "https://dc.lft.to/lastmile_qr_scan"}, "bike_id": "8a1c04ed48f42fdb4b1c8a33096af1f1", "fusion_lat": 0.0}, {"lon": -77.0208225, "name": "8f8778ae0d71154d810d331fadea06e8", "is_disabled": 0, "type": "electric_scooter", "is_reserved": 0, "fusion_lon": 0.0, "lat": 38.926989666666664, "rental_uris": {"ios": "https://dc.lft.to/lastmile_qr_scan", "android": "https://dc.lft.to/lastmile_qr_scan"}, "bike_id": "8f8778ae0d71154d810d331fadea06e8", "fusion_lat": 0.0}, {"lon": -77.01056866666667, "name": "a1a77fc01679315c9478b93f845d5db6", "is_disabled": 0, "type": "electric_bike", "is_reserved": 0, "fusion_lon": 0.0, "lat": 38.96636783333334, "rental_uris": {"ios": "https://dc.lft.to/lastmile_qr_scan", "android": "https://dc.lft.to/lastmile_qr_scan"}, "bike_id": "a1a77fc01679315c9478b93f845d5db6", "fusion_lat": 0.0}, {"lon": -77.09058, "name": "5b522f2303e87a9bd8c48151153a7df6", "is_disabled": 0, "type": "electric_bike", "is_reserved": 0, "fusion_lon": 0.0, "lat": 38.841737, "rental_uris": {"ios": "https://dc.lft.to/lastmile_qr_scan", "android": "https://dc.lft.to/lastmile_qr_scan"}, "bike_id": "5b522f2303e87a9bd8c48151153a7df6", "fusion_lat": 0.0}, {"lon": -77.04572416666667, "name": "602cd0bd309e2fc6d6d8e723d29a4c01", "is_disabled": 0, "type": "electric_scooter", "is_reserved": 0, "fusion_lon": 0.0, "lat": 38.91364016666667, "rental_uris": {"ios": "https://dc.lft.to/lastmile_qr_scan", "android": "https://dc.lft.to/lastmile_qr_scan"}, "bike_id": "602cd0bd309e2fc6d6d8e723d29a4c01", "fusion_lat": 0.0}, {"lon": -76.925883, "name": "e722f7bb33627d73ddd4bbb59cb0f744", "is_disabled": 0, "type": "electric_scooter", "is_reserved": 0, "fusion_lon": 0.0, "lat": 38.89733233333333, "rental_uris": {"ios": "https://dc.lft.to/lastmile_qr_scan", "android": "https://dc.lft.to/lastmile_qr_scan"}, "bike_id": "e722f7bb33627d73ddd4bbb59cb0f744", "fusion_lat": 0.0}, {"lon": -77.02532616666667, "name": "897a92a5580eac6fcaa9d59183ae3f7b", "is_disabled": 0, "type": "electric_scooter", "is_reserved": 0, "fusion_lon": 0.0, "lat": 38.918155666666664, "rental_uris": {"ios": "https://dc.lft.to/lastmile_qr_scan", "android": "https://dc.lft.to/lastmile_qr_scan"}, "bike_id": "897a92a5580eac6fcaa9d59183ae3f7b", "fusion_lat": 0.0}, {"lon": -77.021667, "name": "ea699e6f5cdc3e85ce4cb3310d5504ac", "is_disabled": 0, "type": "electric_scooter", "is_reserved": 0, "fusion_lon": 0.0, "lat": 38.926102666666665, "rental_uris": {"ios": "https://dc.lft.to/lastmile_qr_scan", "android": "https://dc.lft.to/lastmile_qr_scan"}, "bike_id": "ea699e6f5cdc3e85ce4cb3310d5504ac", "fusion_lat": 0.0}, {"lon": -77.0423565, "name": "bfb0ae891ea398f64343ac368f677285", "is_disabled": 0, "type": "electric_scooter", "is_reserved": 0, "fusion_lon": 0.0, "lat": 38.921603833333336, "rental_uris": {"ios": "https://dc.lft.to/lastmile_qr_scan", "android": "https://dc.lft.to/lastmile_qr_scan"}, "bike_id": "bfb0ae891ea398f64343ac368f677285", "fusion_lat": 0.0}, {"lon": -77.02615983333334, "name": "1ec42608c8dfff8376636dce9676593a", "is_disabled": 0, "type": "electric_bike", "is_reserved": 0, "fusion_lon": 0.0, "lat": 38.9693235, "rental_uris": {"ios": "https://dc.lft.to/lastmile_qr_scan", "android": "https://dc.lft.to/lastmile_qr_scan"}, "bike_id": "1ec42608c8dfff8376636dce9676593a", "fusion_lat": 0.0}, {"lon": -77.028429, "name": "688c7eca4c2f1732fbe3b88f1a804e99", "is_disabled": 0, "type": "electric_bike", "is_reserved": 0, "fusion_lon": 0.0, "lat": 38.926429, "rental_uris": {"ios": "https://dc.lft.to/lastmile_qr_scan", "android": "https://dc.lft.to/lastmile_qr_scan"}, "bike_id": "688c7eca4c2f1732fbe3b88f1a804e99", "fusion_lat": 0.0}, {"lon": -77.06224233333333, "name": "ff348e77db1a429c2c6b19eca01cb434", "is_disabled": 0, "type": "electric_scooter", "is_reserved": 0, "fusion_lon": 0.0, "lat": 38.913158833333334, "rental_uris": {"ios": "https://dc.lft.to/lastmile_qr_scan", "android": "https://dc.lft.to/lastmile_qr_scan"}, "bike_id": "ff348e77db1a429c2c6b19eca01cb434", "fusion_lat": 0.0}, {"lon": -77.0231175, "name": "2c1a4f62ceeb951d4dcebdd881b11700", "is_disabled": 0, "type": "electric_scooter", "is_reserved": 0, "fusion_lon": 0.0, "lat": 38.91782, "rental_uris": {"ios": "https://dc.lft.to/lastmile_qr_scan", "android": "https://dc.lft.to/lastmile_qr_scan"}, "bike_id": "2c1a4f62ceeb951d4dcebdd881b11700", "fusion_lat": 0.0}, {"lon": -77.0346495, "name": "7cfd17679e134bb73792045839c790a5", "is_disabled": 0, "type": "electric_scooter", "is_reserved": 0, "fusion_lon": 0.0, "lat": 38.9215785, "rental_uris": {"ios": "https://dc.lft.to/lastmile_qr_scan", "android": "https://dc.lft.to/lastmile_qr_scan"}, "bike_id": "7cfd17679e134bb73792045839c790a5", "fusion_lat": 0.0}, {"lon": -77.0021425, "name": "7469db6aa72bc74f53ae8ab96eea674f", "is_disabled": 0, "type": "electric_scooter", "is_reserved": 0, "fusion_lon": 0.0, "lat": 38.900379666666666, "rental_uris": {"ios": "https://dc.lft.to/lastmile_qr_scan", "android": "https://dc.lft.to/lastmile_qr_scan"}, "bike_id": "7469db6aa72bc74f53ae8ab96eea674f", "fusion_lat": 0.0}, {"lon": -77.032135, "name": "1a8cfb6f581d0bed9ed148239b945eb2", "is_disabled": 0, "type": "electric_scooter", "is_reserved": 0, "fusion_lon": 0.0, "lat": 38.919189833333334, "rental_uris": {"ios": "https://dc.lft.to/lastmile_qr_scan", "android": "https://dc.lft.to/lastmile_qr_scan"}, "bike_id": "1a8cfb6f581d0bed9ed148239b945eb2", "fusion_lat": 0.0}, {"lon": -77.02347083333333, "name": "a8f232811eeaa17a62e8370647d30c98", "is_disabled": 0, "type": "electric_scooter", "is_reserved": 0, "fusion_lon": 0.0, "lat": 38.943036, "rental_uris": {"ios": "https://dc.lft.to/lastmile_qr_scan", "android": "https://dc.lft.to/lastmile_qr_scan"}, "bike_id": "a8f232811eeaa17a62e8370647d30c98", "fusion_lat": 0.0}, {"lon": -77.08797033333333, "name": "d7478f2c2d2e6f9f5ddfb301be7e01c3", "is_disabled": 0, "type": "electric_scooter", "is_reserved": 0, "fusion_lon": 0.0, "lat": 38.9353565, "rental_uris": {"ios": "https://dc.lft.to/lastmile_qr_scan", "android": "https://dc.lft.to/lastmile_qr_scan"}, "bike_id": "d7478f2c2d2e6f9f5ddfb301be7e01c3", "fusion_lat": 0.0}, {"lon": -77.030863, "name": "4232f3e6fff409ff9a7be326aa05418e", "is_disabled": 0, "type": "electric_scooter", "is_reserved": 0, "fusion_lon": 0.0, "lat": 38.9353095, "rental_uris": {"ios": "https://dc.lft.to/lastmile_qr_scan", "android": "https://dc.lft.to/lastmile_qr_scan"}, "bike_id": "4232f3e6fff409ff9a7be326aa05418e", "fusion_lat": 0.0}, {"lon": -77.01961666666666, "name": "67cf831400535599cf01cb815c0ca127", "is_disabled": 0, "type": "electric_scooter", "is_reserved": 0, "fusion_lon": 0.0, "lat": 38.92367316666667, "rental_uris": {"ios": "https://dc.lft.to/lastmile_qr_scan", "android": "https://dc.lft.to/lastmile_qr_scan"}, "bike_id": "67cf831400535599cf01cb815c0ca127", "fusion_lat": 0.0}, {"lon": -77.0598765, "name": "80c02eb0105e24f12ca3969a61aa9435", "is_disabled": 0, "type": "electric_scooter", "is_reserved": 0, "fusion_lon": 0.0, "lat": 38.927225166666666, "rental_uris": {"ios": "https://dc.lft.to/lastmile_qr_scan", "android": "https://dc.lft.to/lastmile_qr_scan"}, "bike_id": "80c02eb0105e24f12ca3969a61aa9435", "fusion_lat": 0.0}, {"lon": -77.03277683333333, "name": "657f160f08c2775221ec1b404e8eb1d1", "is_disabled": 0, "type": "electric_scooter", "is_reserved": 0, "fusion_lon": 0.0, "lat": 38.932005, "rental_uris": {"ios": "https://dc.lft.to/lastmile_qr_scan", "android": "https://dc.lft.to/lastmile_qr_scan"}, "bike_id": "657f160f08c2775221ec1b404e8eb1d1", "fusion_lat": 0.0}, {"lon": -77.05321616666667, "name": "d69697c5075be68e173d0c8af1543084", "is_disabled": 0, "type": "electric_scooter", "is_reserved": 0, "fusion_lon": 0.0, "lat": 38.904399, "rental_uris": {"ios": "https://dc.lft.to/lastmile_qr_scan", "android": "https://dc.lft.to/lastmile_qr_scan"}, "bike_id": "d69697c5075be68e173d0c8af1543084", "fusion_lat": 0.0}, {"lon": -77.02453783333333, "name": "b305c3888f5ee520671fb4c9730b4b33", "is_disabled": 0, "type": "electric_scooter", "is_reserved": 0, "fusion_lon": 0.0, "lat": 38.893927166666664, "rental_uris": {"ios": "https://dc.lft.to/lastmile_qr_scan", "android": "https://dc.lft.to/lastmile_qr_scan"}, "bike_id": "b305c3888f5ee520671fb4c9730b4b33", "fusion_lat": 0.0}, {"lon": -76.9864705, "name": "9630dbbda162a46742a2326a31efad24", "is_disabled": 0, "type": "electric_bike", "is_reserved": 0, "fusion_lon": 0.0, "lat": 38.97479833333333, "rental_uris": {"ios": "https://dc.lft.to/lastmile_qr_scan", "android": "https://dc.lft.to/lastmile_qr_scan"}, "bike_id": "9630dbbda162a46742a2326a31efad24", "fusion_lat": 0.0}, {"lon": -77.0210525, "name": "0d095ba9455d91204a0a842f8a3f6cb2", "is_disabled": 0, "type": "electric_bike", "is_reserved": 0, "fusion_lon": 0.0, "lat": 39.02301216666667, "rental_uris": {"ios": "https://dc.lft.to/lastmile_qr_scan", "android": "https://dc.lft.to/lastmile_qr_scan"}, "bike_id": "0d095ba9455d91204a0a842f8a3f6cb2", "fusion_lat": 0.0}, {"lon": -77.02161616666666, "name": "b42fb42bdba4fcf0fc15b3e6ceec8ef1", "is_disabled": 0, "type": "electric_scooter", "is_reserved": 0, "fusion_lon": 0.0, "lat": 38.926155333333334, "rental_uris": {"ios": "https://dc.lft.to/lastmile_qr_scan", "android": "https://dc.lft.to/lastmile_qr_scan"}, "bike_id": "b42fb42bdba4fcf0fc15b3e6ceec8ef1", "fusion_lat": 0.0}, {"lon": -77.06054083333333, "name": "a4b6d66fb2ebe6250ab040817fe21c58", "is_disabled": 0, "type": "electric_scooter", "is_reserved": 0, "fusion_lon": 0.0, "lat": 38.9393205, "rental_uris": {"ios": "https://dc.lft.to/lastmile_qr_scan", "android": "https://dc.lft.to/lastmile_qr_scan"}, "bike_id": "a4b6d66fb2ebe6250ab040817fe21c58", "fusion_lat": 0.0}, {"lon": -77.094492, "name": "423aae5a33cd7005c14c1f4e4f10ae31", "is_disabled": 0, "type": "electric_bike", "is_reserved": 0, "fusion_lon": 0.0, "lat": 38.89428516666667, "rental_uris": {"ios": "https://dc.lft.to/lastmile_qr_scan", "android": "https://dc.lft.to/lastmile_qr_scan"}, "bike_id": "423aae5a33cd7005c14c1f4e4f10ae31", "fusion_lat": 0.0}, {"lon": -77.02272283333333, "name": "27b0bcc017a6d55792d199937268c7ec", "is_disabled": 0, "type": "electric_scooter", "is_reserved": 0, "fusion_lon": 0.0, "lat": 38.902878, "rental_uris": {"ios": "https://dc.lft.to/lastmile_qr_scan", "android": "https://dc.lft.to/lastmile_qr_scan"}, "bike_id": "27b0bcc017a6d55792d199937268c7ec", "fusion_lat": 0.0}, {"lon": -76.99897133333333, "name": "75e2178f64455a5c326859806d8236d4", "is_disabled": 0, "type": "electric_scooter", "is_reserved": 0, "fusion_lon": 0.0, "lat": 38.89101383333333, "rental_uris": {"ios": "https://dc.lft.to/lastmile_qr_scan", "android": "https://dc.lft.to/lastmile_qr_scan"}, "bike_id": "75e2178f64455a5c326859806d8236d4", "fusion_lat": 0.0}, {"lon": -77.02074016666667, "name": "e28f2f6da75328874b43c98c5e263238", "is_disabled": 0, "type": "electric_scooter", "is_reserved": 0, "fusion_lon": 0.0, "lat": 38.9214805, "rental_uris": {"ios": "https://dc.lft.to/lastmile_qr_scan", "android": "https://dc.lft.to/lastmile_qr_scan"}, "bike_id": "e28f2f6da75328874b43c98c5e263238", "fusion_lat": 0.0}, {"lon": -77.0576155, "name": "b819cd285e68c4bd71a2465c3ad70286", "is_disabled": 0, "type": "electric_scooter", "is_reserved": 0, "fusion_lon": 0.0, "lat": 38.92493783333333, "rental_uris": {"ios": "https://dc.lft.to/lastmile_qr_scan", "android": "https://dc.lft.to/lastmile_qr_scan"}, "bike_id": "b819cd285e68c4bd71a2465c3ad70286", "fusion_lat": 0.0}, {"lon": -77.05706133333334, "name": "70d63250ab9d0174f462a16f7f2018ea", "is_disabled": 0, "type": "electric_scooter", "is_reserved": 0, "fusion_lon": 0.0, "lat": 38.92610616666666, "rental_uris": {"ios": "https://dc.lft.to/lastmile_qr_scan", "android": "https://dc.lft.to/lastmile_qr_scan"}, "bike_id": "70d63250ab9d0174f462a16f7f2018ea", "fusion_lat": 0.0}, {"lon": -77.02152983333333, "name": "b55103ed29830d4651efffa6e7d03372", "is_disabled": 0, "type": "electric_scooter", "is_reserved": 0, "fusion_lon": 0.0, "lat": 38.926050833333335, "rental_uris": {"ios": "https://dc.lft.to/lastmile_qr_scan", "android": "https://dc.lft.to/lastmile_qr_scan"}, "bike_id": "b55103ed29830d4651efffa6e7d03372", "fusion_lat": 0.0}, {"lon": -77.02392466666667, "name": "6e8bed7ec503f6d7a15f6e23bfeeec33", "is_disabled": 0, "type": "electric_scooter", "is_reserved": 0, "fusion_lon": 0.0, "lat": 38.916179, "rental_uris": {"ios": "https://dc.lft.to/lastmile_qr_scan", "android": "https://dc.lft.to/lastmile_qr_scan"}, "bike_id": "6e8bed7ec503f6d7a15f6e23bfeeec33", "fusion_lat": 0.0}, {"lon": -77.03584933333333, "name": "5f1bcc4be6297fd36a19902158a304e3", "is_disabled": 0, "type": "electric_scooter", "is_reserved": 0, "fusion_lon": 0.0, "lat": 38.926941666666664, "rental_uris": {"ios": "https://dc.lft.to/lastmile_qr_scan", "android": "https://dc.lft.to/lastmile_qr_scan"}, "bike_id": "5f1bcc4be6297fd36a19902158a304e3", "fusion_lat": 0.0}, {"lon": -77.04328516666666, "name": "bc84bdc53a64598d4a40714ceacf6182", "is_disabled": 0, "type": "electric_scooter", "is_reserved": 0, "fusion_lon": 0.0, "lat": 38.90551383333333, "rental_uris": {"ios": "https://dc.lft.to/lastmile_qr_scan", "android": "https://dc.lft.to/lastmile_qr_scan"}, "bike_id": "bc84bdc53a64598d4a40714ceacf6182", "fusion_lat": 0.0}, {"lon": -77.04347783333333, "name": "061621e45f1cf7ba6bad4d1d560a0a34", "is_disabled": 0, "type": "electric_scooter", "is_reserved": 0, "fusion_lon": 0.0, "lat": 38.90263483333333, "rental_uris": {"ios": "https://dc.lft.to/lastmile_qr_scan", "android": "https://dc.lft.to/lastmile_qr_scan"}, "bike_id": "061621e45f1cf7ba6bad4d1d560a0a34", "fusion_lat": 0.0}, {"lon": -77.041871, "name": "fa96a4eb903e4045f3a4ea7e96ed7dae", "is_disabled": 0, "type": "electric_scooter", "is_reserved": 0, "fusion_lon": 0.0, "lat": 38.92054366666667, "rental_uris": {"ios": "https://dc.lft.to/lastmile_qr_scan", "android": "https://dc.lft.to/lastmile_qr_scan"}, "bike_id": "fa96a4eb903e4045f3a4ea7e96ed7dae", "fusion_lat": 0.0}, {"lon": -77.0194875, "name": "5e872fc121e9909a44773abb4cc973e7", "is_disabled": 0, "type": "electric_scooter", "is_reserved": 0, "fusion_lon": 0.0, "lat": 38.9242645, "rental_uris": {"ios": "https://dc.lft.to/lastmile_qr_scan", "android": "https://dc.lft.to/lastmile_qr_scan"}, "bike_id": "5e872fc121e9909a44773abb4cc973e7", "fusion_lat": 0.0}, {"lon": -76.99080183333334, "name": "90ca8fe4b76c397095684da3ba3159a9", "is_disabled": 0, "type": "electric_bike", "is_reserved": 0, "fusion_lon": 0.0, "lat": 38.898231333333335, "rental_uris": {"ios": "https://dc.lft.to/lastmile_qr_scan", "android": "https://dc.lft.to/lastmile_qr_scan"}, "bike_id": "90ca8fe4b76c397095684da3ba3159a9", "fusion_lat": 0.0}, {"lon": -77.02696233333333, "name": "d8dcb05f8c6fb9927053bb3e0b492146", "is_disabled": 0, "type": "electric_scooter", "is_reserved": 0, "fusion_lon": 0.0, "lat": 38.9494175, "rental_uris": {"ios": "https://dc.lft.to/lastmile_qr_scan", "android": "https://dc.lft.to/lastmile_qr_scan"}, "bike_id": "d8dcb05f8c6fb9927053bb3e0b492146", "fusion_lat": 0.0}, {"lon": -77.013653, "name": "5fb2f1a9d3615e420e3ec9e44dc9cfbc", "is_disabled": 0, "type": "electric_scooter", "is_reserved": 0, "fusion_lon": 0.0, "lat": 38.928875, "rental_uris": {"ios": "https://dc.lft.to/lastmile_qr_scan", "android": "https://dc.lft.to/lastmile_qr_scan"}, "bike_id": "5fb2f1a9d3615e420e3ec9e44dc9cfbc", "fusion_lat": 0.0}, {"lon": -77.02246616666666, "name": "4c26cbbc4238845adf05641d2e0777a9", "is_disabled": 0, "type": "electric_scooter", "is_reserved": 0, "fusion_lon": 0.0, "lat": 38.894524833333335, "rental_uris": {"ios": "https://dc.lft.to/lastmile_qr_scan", "android": "https://dc.lft.to/lastmile_qr_scan"}, "bike_id": "4c26cbbc4238845adf05641d2e0777a9", "fusion_lat": 0.0}, {"lon": -77.01857483333333, "name": "b1446245968b025a4d9b11fff8ed4fb6", "is_disabled": 0, "type": "electric_scooter", "is_reserved": 0, "fusion_lon": 0.0, "lat": 38.91496166666667, "rental_uris": {"ios": "https://dc.lft.to/lastmile_qr_scan", "android": "https://dc.lft.to/lastmile_qr_scan"}, "bike_id": "b1446245968b025a4d9b11fff8ed4fb6", "fusion_lat": 0.0}, {"lon": -77.04476183333334, "name": "7f289b960e54e22b2931d094bfe9951f", "is_disabled": 0, "type": "electric_scooter", "is_reserved": 0, "fusion_lon": 0.0, "lat": 38.91540366666667, "rental_uris": {"ios": "https://dc.lft.to/lastmile_qr_scan", "android": "https://dc.lft.to/lastmile_qr_scan"}, "bike_id": "7f289b960e54e22b2931d094bfe9951f", "fusion_lat": 0.0}, {"lon": -77.0629755, "name": "52bf8f24e37343ccfc498efd6b73b649", "is_disabled": 0, "type": "electric_scooter", "is_reserved": 0, "fusion_lon": 0.0, "lat": 38.907826666666665, "rental_uris": {"ios": "https://dc.lft.to/lastmile_qr_scan", "android": "https://dc.lft.to/lastmile_qr_scan"}, "bike_id": "52bf8f24e37343ccfc498efd6b73b649", "fusion_lat": 0.0}, {"lon": -77.01668433333333, "name": "386d44b64e0f414e91dd4d73fbcdd991", "is_disabled": 0, "type": "electric_scooter", "is_reserved": 0, "fusion_lon": 0.0, "lat": 38.920447, "rental_uris": {"ios": "https://dc.lft.to/lastmile_qr_scan", "android": "https://dc.lft.to/lastmile_qr_scan"}, "bike_id": "386d44b64e0f414e91dd4d73fbcdd991", "fusion_lat": 0.0}, {"lon": -77.044598, "name": "de3348e0647a719cfe92e1bbb95387f6", "is_disabled": 0, "type": "electric_scooter", "is_reserved": 0, "fusion_lon": 0.0, "lat": 38.92322016666667, "rental_uris": {"ios": "https://dc.lft.to/lastmile_qr_scan", "android": "https://dc.lft.to/lastmile_qr_scan"}, "bike_id": "de3348e0647a719cfe92e1bbb95387f6", "fusion_lat": 0.0}, {"lon": -77.0297365, "name": "1671ef33695e0079d95b0772d035e3cf", "is_disabled": 0, "type": "electric_scooter", "is_reserved": 0, "fusion_lon": 0.0, "lat": 38.917209166666666, "rental_uris": {"ios": "https://dc.lft.to/lastmile_qr_scan", "android": "https://dc.lft.to/lastmile_qr_scan"}, "bike_id": "1671ef33695e0079d95b0772d035e3cf", "fusion_lat": 0.0}, {"lon": -76.9983425, "name": "f1dc4b6f226a009d778d6b6287346d73", "is_disabled": 0, "type": "electric_scooter", "is_reserved": 0, "fusion_lon": 0.0, "lat": 38.9071715, "rental_uris": {"ios": "https://dc.lft.to/lastmile_qr_scan", "android": "https://dc.lft.to/lastmile_qr_scan"}, "bike_id": "f1dc4b6f226a009d778d6b6287346d73", "fusion_lat": 0.0}, {"lon": -77.021302, "name": "56fbaedad51cfc4f8cfcc3f0e2ed7e72", "is_disabled": 0, "type": "electric_scooter", "is_reserved": 0, "fusion_lon": 0.0, "lat": 38.922771166666664, "rental_uris": {"ios": "https://dc.lft.to/lastmile_qr_scan", "android": "https://dc.lft.to/lastmile_qr_scan"}, "bike_id": "56fbaedad51cfc4f8cfcc3f0e2ed7e72", "fusion_lat": 0.0}, {"lon": -77.04892966666667, "name": "af5280c0730a4cb644c44b966466a4a3", "is_disabled": 0, "type": "electric_scooter", "is_reserved": 0, "fusion_lon": 0.0, "lat": 38.90076233333333, "rental_uris": {"ios": "https://dc.lft.to/lastmile_qr_scan", "android": "https://dc.lft.to/lastmile_qr_scan"}, "bike_id": "af5280c0730a4cb644c44b966466a4a3", "fusion_lat": 0.0}, {"lon": -77.00500983333333, "name": "01bacb9c92b13250f848204f0a0174c9", "is_disabled": 0, "type": "electric_scooter", "is_reserved": 0, "fusion_lon": 0.0, "lat": 38.916267166666664, "rental_uris": {"ios": "https://dc.lft.to/lastmile_qr_scan", "android": "https://dc.lft.to/lastmile_qr_scan"}, "bike_id": "01bacb9c92b13250f848204f0a0174c9", "fusion_lat": 0.0}, {"lon": -77.090248, "name": "57b214396898530fd6e1c67bc8f49e3c", "is_disabled": 0, "type": "electric_bike", "is_reserved": 0, "fusion_lon": 0.0, "lat": 38.9265805, "rental_uris": {"ios": "https://dc.lft.to/lastmile_qr_scan", "android": "https://dc.lft.to/lastmile_qr_scan"}, "bike_id": "57b214396898530fd6e1c67bc8f49e3c", "fusion_lat": 0.0}, {"lon": -77.029578, "name": "eb4dc11c41e9e8492bc735eb13276c9a", "is_disabled": 0, "type": "electric_scooter", "is_reserved": 0, "fusion_lon": 0.0, "lat": 38.943113833333335, "rental_uris": {"ios": "https://dc.lft.to/lastmile_qr_scan", "android": "https://dc.lft.to/lastmile_qr_scan"}, "bike_id": "eb4dc11c41e9e8492bc735eb13276c9a", "fusion_lat": 0.0}, {"lon": -77.01605416666666, "name": "5e34ac9d0a4e584860dde6d55401291a", "is_disabled": 0, "type": "electric_scooter", "is_reserved": 0, "fusion_lon": 0.0, "lat": 38.91948716666667, "rental_uris": {"ios": "https://dc.lft.to/lastmile_qr_scan", "android": "https://dc.lft.to/lastmile_qr_scan"}, "bike_id": "5e34ac9d0a4e584860dde6d55401291a", "fusion_lat": 0.0}, {"lon": -77.03666466666667, "name": "90ebb4115feb2bb2cbf046938c0069a3", "is_disabled": 0, "type": "electric_scooter", "is_reserved": 0, "fusion_lon": 0.0, "lat": 38.902882166666664, "rental_uris": {"ios": "https://dc.lft.to/lastmile_qr_scan", "android": "https://dc.lft.to/lastmile_qr_scan"}, "bike_id": "90ebb4115feb2bb2cbf046938c0069a3", "fusion_lat": 0.0}, {"lon": -77.0214905, "name": "3a5ef5eb540da3c905d5e045ddb887c3", "is_disabled": 0, "type": "electric_scooter", "is_reserved": 0, "fusion_lon": 0.0, "lat": 38.924452333333335, "rental_uris": {"ios": "https://dc.lft.to/lastmile_qr_scan", "android": "https://dc.lft.to/lastmile_qr_scan"}, "bike_id": "3a5ef5eb540da3c905d5e045ddb887c3", "fusion_lat": 0.0}, {"lon": -77.0322915, "name": "b464eb31a53d4dc0824a8a817949e881", "is_disabled": 0, "type": "electric_scooter", "is_reserved": 0, "fusion_lon": 0.0, "lat": 38.921709166666666, "rental_uris": {"ios": "https://dc.lft.to/lastmile_qr_scan", "android": "https://dc.lft.to/lastmile_qr_scan"}, "bike_id": "b464eb31a53d4dc0824a8a817949e881", "fusion_lat": 0.0}, {"lon": -77.0112035, "name": "4940afe6173519125132188abada677d", "is_disabled": 0, "type": "electric_scooter", "is_reserved": 0, "fusion_lon": 0.0, "lat": 38.89512333333333, "rental_uris": {"ios": "https://dc.lft.to/lastmile_qr_scan", "android": "https://dc.lft.to/lastmile_qr_scan"}, "bike_id": "4940afe6173519125132188abada677d", "fusion_lat": 0.0}, {"lon": -77.03779483333334, "name": "462cde6acf58be2541af5c0314a18718", "is_disabled": 0, "type": "electric_scooter", "is_reserved": 0, "fusion_lon": 0.0, "lat": 38.92793, "rental_uris": {"ios": "https://dc.lft.to/lastmile_qr_scan", "android": "https://dc.lft.to/lastmile_qr_scan"}, "bike_id": "462cde6acf58be2541af5c0314a18718", "fusion_lat": 0.0}, {"lon": -77.03888616666667, "name": "36cc2f1f458f36ee68ac2b1276ee1cac", "is_disabled": 0, "type": "electric_scooter", "is_reserved": 0, "fusion_lon": 0.0, "lat": 38.90122366666667, "rental_uris": {"ios": "https://dc.lft.to/lastmile_qr_scan", "android": "https://dc.lft.to/lastmile_qr_scan"}, "bike_id": "36cc2f1f458f36ee68ac2b1276ee1cac", "fusion_lat": 0.0}, {"lon": -76.99843733333333, "name": "c1a864e41282c49b80af50d49761bea9", "is_disabled": 0, "type": "electric_scooter", "is_reserved": 0, "fusion_lon": 0.0, "lat": 38.95371316666667, "rental_uris": {"ios": "https://dc.lft.to/lastmile_qr_scan", "android": "https://dc.lft.to/lastmile_qr_scan"}, "bike_id": "c1a864e41282c49b80af50d49761bea9", "fusion_lat": 0.0}, {"lon": -77.026039, "name": "cb5ba927af0764e2332ef5b8f445c2b9", "is_disabled": 0, "type": "electric_scooter", "is_reserved": 0, "fusion_lon": 0.0, "lat": 38.918863, "rental_uris": {"ios": "https://dc.lft.to/lastmile_qr_scan", "android": "https://dc.lft.to/lastmile_qr_scan"}, "bike_id": "cb5ba927af0764e2332ef5b8f445c2b9", "fusion_lat": 0.0}, {"lon": -77.0209905, "name": "cefa836351e4597647c026a99ede8a25", "is_disabled": 0, "type": "electric_scooter", "is_reserved": 0, "fusion_lon": 0.0, "lat": 38.931167, "rental_uris": {"ios": "https://dc.lft.to/lastmile_qr_scan", "android": "https://dc.lft.to/lastmile_qr_scan"}, "bike_id": "cefa836351e4597647c026a99ede8a25", "fusion_lat": 0.0}, {"lon": -77.06001583333334, "name": "bccf705974be83c97bff468610beeeb1", "is_disabled": 0, "type": "electric_scooter", "is_reserved": 0, "fusion_lon": 0.0, "lat": 38.92713533333333, "rental_uris": {"ios": "https://dc.lft.to/lastmile_qr_scan", "android": "https://dc.lft.to/lastmile_qr_scan"}, "bike_id": "bccf705974be83c97bff468610beeeb1", "fusion_lat": 0.0}, {"lon": -76.9321835, "name": "603371c67a8fc728579b2abb6c48889d", "is_disabled": 0, "type": "electric_scooter", "is_reserved": 0, "fusion_lon": 0.0, "lat": 38.88066466666667, "rental_uris": {"ios": "https://dc.lft.to/lastmile_qr_scan", "android": "https://dc.lft.to/lastmile_qr_scan"}, "bike_id": "603371c67a8fc728579b2abb6c48889d", "fusion_lat": 0.0},