{"data": {"bikes": [{"lon": -77.02937816666666, "rental_uris": {"android": "https://dc.lft.to/lastmile_qr_scan", "ios": "https://dc.lft.to/lastmile_qr_scan"}, "fusion_lon": 0.0, "is_reserved": 0, "is_disabled": 0, "fusion_lat": 0.0, "type": "electric_scooter", "name": "73ea9d139853d79b9afd9b7bc394d53a", "lat": 38.9102455, "bike_id": "73ea9d139853d79b9afd9b7bc394d53a"}, {"lon": -76.99406366666666, "rental_uris": {"android": "https://dc.lft.to/lastmile_qr_scan", "ios": "https://dc.lft.to/lastmile_qr_scan"}, "fusion_lon": 0.0, "is_reserved": 0, "is_disabled": 0, "fusion_lat": 0.0, "type": "electric_bike", "name": "2d159ef5ee1565e5e6f4c9b972c86512", "lat": 38.83141483333333, "bike_id": "2d159ef5ee1565e5e6f4c9b972c86512"}, {"lon": -76.99982483333334, "rental_uris": {"android": "https://dc.lft.to/lastmile_qr_scan", "ios": "https://dc.lft.to/lastmile_qr_scan"}, "fusion_lon": 0.0, "is_reserved": 0, "is_disabled": 0, "fusion_lat": 0.0, "type": "electric_scooter", "name": "5d5eb0624a924770ad2fc637761165b5", "lat": 38.906905, "bike_id": "5d5eb0624a924770ad2fc637761165b5"}, {"lon": -77.04662816666666, "rental_uris": {"android": "https://dc.lft.to/lastmile_qr_scan", "ios": "https://dc.lft.to/lastmile_qr_scan"}, "fusion_lon": 0.0, "is_reserved": 0, "is_disabled": 0, "fusion_lat": 0.0, "type": "electric_scooter", "name": "652b189a0efe4b3277d73fe5e67cbd51", "lat": 38.901883833333336, "bike_id": "652b189a0efe4b3277d73fe5e67cbd51"}, {"lon": -77.04025816666666, "rental_uris": {"android": "https://dc.lft.to/lastmile_qr_scan", "ios": "https://dc.lft.to/lastmile_qr_scan"}, "fusion_lon": 0.0, "is_reserved": 0, "is_disabled": 0, "fusion_lat": 0.0, "type": "electric_scooter", "name": "f851f9923a2a9c4b913ea63d3adf2107", "lat": 38.90134483333333, "bike_id": "f851f9923a2a9c4b913ea63d3adf2107"}, {"lon": -77.03814333333334, "rental_uris": {"android": "https://dc.lft.to/lastmile_qr_scan", "ios": "https://dc.lft.to/lastmile_qr_scan"}, "fusion_lon": 0.0, "is_reserved": 0, "is_disabled": 0, "fusion_lat": 0.0, "type": "electric_scooter", "name": "29d05db183bc524a62b42c6cf74ab051", "lat": 38.90666483333333, "bike_id": "29d05db183bc524a62b42c6cf74ab051"}, {"lon": -77.03229466666667, "rental_uris": {"android": "https://dc.lft.to/lastmile_qr_scan", "ios": "https://dc.lft.to/lastmile_qr_scan"}, "fusion_lon": 0.0, "is_reserved": 0, "is_disabled": 0, "fusion_lat": 0.0, "type": "electric_scooter", "name": "1cd51dd4a2a71e9e2ea69de5c960c535", "lat": 38.921656666666664, "bike_id": "1cd51dd4a2a71e9e2ea69de5c960c535"}, {"lon": -77.021875, "rental_uris": {"android": "https://dc.lft.to/lastmile_qr_scan", "ios": "https://dc.lft.to/lastmile_qr_scan"}, "fusion_lon": 0.0, "is_reserved": 0, "is_disabled": 0, "fusion_lat": 0.0, "type": "electric_bike", "name": "cd6dee9c4e68534b5e717ba7ff8d972c", "lat": 39.00479583333333, "bike_id": "cd6dee9c4e68534b5e717ba7ff8d972c"}, {"lon": -77.03660516666666, "rental_uris": {"android": "https://dc.lft.to/lastmile_qr_scan", "ios": "https://dc.lft.to/lastmile_qr_scan"}, "fusion_lon": 0.0, "is_reserved": 0, "is_disabled": 0, "fusion_lat": 0.0, "type": "electric_scooter", "name": "19258587d6d560c92839bce1a379f15d", "lat": 38.91308266666667, "bike_id": "19258587d6d560c92839bce1a379f15d"}, {"lon": -77.03168583333333, "rental_uris": {"android": "https://dc.lft.to/lastmile_qr_scan", "ios": "https://dc.lft.to/lastmile_qr_scan"}, "fusion_lon": 0.0, "is_reserved": 0, "is_disabled": 0, "fusion_lat": 0.0, "type": "electric_scooter", "name": "7a9a9031a981bf4a66584a644ae04d82", "lat": 38.892207, "bike_id": "7a9a9031a981bf4a66584a644ae04d82"}, {"lon": -77.04674733333333, "rental_uris": {"android": "https://dc.lft.to/lastmile_qr_scan", "ios": "https://dc.lft.to/lastmile_qr_scan"}, "fusion_lon": 0.0, "is_reserved": 0, "is_disabled": 0, "fusion_lat": 0.0, "type": "electric_scooter", "name": "20507278cff7ea62d42dea857f014002", "lat": 38.894989833333334, "bike_id": "20507278cff7ea62d42dea857f014002"}, {"lon": -77.05128166666667, "rental_uris": {"android": "https://dc.lft.to/lastmile_qr_scan", "ios": "https://dc.lft.to/lastmile_qr_scan"}, "fusion_lon": 0.0, "is_reserved": 0, "is_disabled": 0, "fusion_lat": 0.0, "type": "electric_scooter", "name": "b9c61992cd223c07136b26dd76f26905", "lat": 38.923655833333335, "bike_id": "b9c61992cd223c07136b26dd76f26905"}, {"lon": -76.965054, "rental_uris": {"android": "https://dc.lft.to/lastmile_qr_scan", "ios": "https://dc.lft.to/lastmile_qr_scan"}, "fusion_lon": 0.0, "is_reserved": 0, "is_disabled": 0, "fusion_lat": 0.0, "type": "electric_scooter", "name": "854b7bec501c99aa5b6c52225f23a9d5", "lat": 38.87645916666666, "bike_id": "854b7bec501c99aa5b6c52225f23a9d5"}, {"lon": -77.02376333333333, "rental_uris": {"android": "https://dc.lft.to/lastmile_qr_scan", "ios": "https://dc.lft.to/lastmile_qr_scan"}, "fusion_lon": 0.0, "is_reserved": 0, "is_disabled": 0, "fusion_lat": 0.0, "type": "electric_scooter", "name": "e8a8b8650a3c317c452eb6c2fc6abbef", "lat": 38.909699, "bike_id": "e8a8b8650a3c317c452eb6c2fc6abbef"}, {"lon": -76.988453, "rental_uris": {"android": "https://dc.lft.to/lastmile_qr_scan", "ios": "https://dc.lft.to/lastmile_qr_scan"}, "fusion_lon": 0.0, "is_reserved": 0, "is_disabled": 0, "fusion_lat": 0.0, "type": "electric_scooter", "name": "d2532e922aafe440419b32271e367d10", "lat": 38.89245916666667, "bike_id": "d2532e922aafe440419b32271e367d10"}, {"lon": -77.04029166666666, "rental_uris": {"android": "https://dc.lft.to/lastmile_qr_scan", "ios": "https://dc.lft.to/lastmile_qr_scan"}, "fusion_lon": 0.0, "is_reserved": 0, "is_disabled": 0, "fusion_lat": 0.0, "type": "electric_scooter", "name": "78fff72e95652cb22fb3ef131107a201", "lat": 38.9034925, "bike_id": "78fff72e95652cb22fb3ef131107a201"}, {"lon": -77.04539783333334, "rental_uris": {"android": "https://dc.lft.to/lastmile_qr_scan", "ios": "https://dc.lft.to/lastmile_qr_scan"}, "fusion_lon": 0.0, "is_reserved": 0, "is_disabled": 0, "fusion_lat": 0.0, "type": "electric_scooter", "name": "4fe612c8d7dc9e43c3536461e1695ffe", "lat": 38.911896666666664, "bike_id": "4fe612c8d7dc9e43c3536461e1695ffe"}, {"lon": -77.02700483333334, "rental_uris": {"android": "https://dc.lft.to/lastmile_qr_scan", "ios": "https://dc.lft.to/lastmile_qr_scan"}, "fusion_lon": 0.0, "is_reserved": 0, "is_disabled": 0, "fusion_lat": 0.0, "type": "electric_scooter", "name": "d0f7729a0a3372fdf88d228446106d26", "lat": 38.90661633333333, "bike_id": "d0f7729a0a3372fdf88d228446106d26"}, {"lon": -77.0260895, "rental_uris": {"android": "https://dc.lft.to/lastmile_qr_scan", "ios": "https://dc.lft.to/lastmile_qr_scan"}, "fusion_lon": 0.0, "is_reserved": 0, "is_disabled": 0, "fusion_lat": 0.0, "type": "electric_scooter", "name": "a873240659b8b65a57f64cadb6c9ad39", "lat": 38.90598, "bike_id": "a873240659b8b65a57f64cadb6c9ad39"}, {"lon": -77.02779066666666, "rental_uris": {"android": "https://dc.lft.to/lastmile_qr_scan", "ios": "https://dc.lft.to/lastmile_qr_scan"}, "fusion_lon": 0.0, "is_reserved": 0, "is_disabled": 0, "fusion_lat": 0.0, "type": "electric_scooter", "name": "f24f45d66f57cd027b229f1e38ea20b3", "lat": 38.892182, "bike_id": "f24f45d66f57cd027b229f1e38ea20b3"}, {"lon": -77.0254935, "rental_uris": {"android": "https://dc.lft.to/lastmile_qr_scan", "ios": "https://dc.lft.to/lastmile_qr_scan"}, "fusion_lon": 0.0, "is_reserved": 0, "is_disabled": 0, "fusion_lat": 0.0, "type": "electric_scooter", "name": "5ca28c11adb29dd56b33a19ec70df115", "lat": 38.901454666666666, "bike_id": "5ca28c11adb29dd56b33a19ec70df115"}, {"lon": -77.02197716666667, "rental_uris": {"android": "https://dc.lft.to/lastmile_qr_scan", "ios": "https://dc.lft.to/lastmile_qr_scan"}, "fusion_lon": 0.0, "is_reserved": 0, "is_disabled": 0, "fusion_lat": 0.0, "type": "electric_scooter", "name": "0b89b18ab31b1b7917f40b607b3817ee", "lat": 38.92010916666667, "bike_id": "0b89b18ab31b1b7917f40b607b3817ee"}, {"lon": -77.0184815, "rental_uris": {"android": "https://dc.lft.to/lastmile_qr_scan", "ios": "https://dc.lft.to/lastmile_qr_scan"}, "fusion_lon": 0.0, "is_reserved": 0, "is_disabled": 0, "fusion_lat": 0.0, "type": "electric_scooter", "name": "cbb3e91c3e5b9a0b18a4fc7ab48dc2a0", "lat": 38.901034833333334, "bike_id": "cbb3e91c3e5b9a0b18a4fc7ab48dc2a0"}, {"lon": -77.03265283333333, "rental_uris": {"android": "https://dc.lft.to/lastmile_qr_scan", "ios": "https://dc.lft.to/lastmile_qr_scan"}, "fusion_lon": 0.0, "is_reserved": 0, "is_disabled": 0, "fusion_lat": 0.0, "type": "electric_scooter", "name": "f73e44efadd098938c31e2178288400e", "lat": 38.8988955, "bike_id": "f73e44efadd098938c31e2178288400e"}, {"lon": -77.04096933333334, "rental_uris": {"android": "https://dc.lft.to/lastmile_qr_scan", "ios": "https://dc.lft.to/lastmile_qr_scan"}, "fusion_lon": 0.0, "is_reserved": 0, "is_disabled": 0, "fusion_lat": 0.0, "type": "electric_scooter", "name": "0284db6aea4e164b0a3dcda939554e20", "lat": 38.905779333333335, "bike_id": "0284db6aea4e164b0a3dcda939554e20"}, {"lon": -77.0298975, "rental_uris": {"android": "https://dc.lft.to/lastmile_qr_scan", "ios": "https://dc.lft.to/lastmile_qr_scan"}, "fusion_lon": 0.0, "is_reserved": 0, "is_disabled": 0, "fusion_lat": 0.0, "type": "electric_scooter", "name": "25d466a193e2c18d6076b52121adc54a", "lat": 38.905078833333334, "bike_id": "25d466a193e2c18d6076b52121adc54a"}, {"lon": -77.032832, "rental_uris": {"android": "https://dc.lft.to/lastmile_qr_scan", "ios": "https://dc.lft.to/lastmile_qr_scan"}, "fusion_lon": 0.0, "is_reserved": 0, "is_disabled": 0, "fusion_lat": 0.0, "type": "electric_scooter", "name": "34f50b21cef1f2f02221feb58424de91", "lat": 38.937721833333335, "bike_id": "34f50b21cef1f2f02221feb58424de91"}, {"lon": -77.0260235, "rental_uris": {"android": "https://dc.lft.to/lastmile_qr_scan", "ios": "https://dc.lft.to/lastmile_qr_scan"}, "fusion_lon": 0.0, "is_reserved": 0, "is_disabled": 0, "fusion_lat": 0.0, "type": "electric_scooter", "name": "dcf8403714d937b0023f3532955933be", "lat": 38.91689066666667, "bike_id": "dcf8403714d937b0023f3532955933be"}, {"lon": -77.01619616666666, "rental_uris": {"android": "https://dc.lft.to/lastmile_qr_scan", "ios": "https://dc.lft.to/lastmile_qr_scan"}, "fusion_lon": 0.0, "is_reserved": 0, "is_disabled": 0, "fusion_lat": 0.0, "type": "electric_scooter", "name": "9b274ce46f55add2d13394bbc2f249e3", "lat": 38.89970866666667, "bike_id": "9b274ce46f55add2d13394bbc2f249e3"}, {"lon": -76.98654016666667, "rental_uris": {"android": "https://dc.lft.to/lastmile_qr_scan", "ios": "https://dc.lft.to/lastmile_qr_scan"}, "fusion_lon": 0.0, "is_reserved": 0, "is_disabled": 0, "fusion_lat": 0.0, "type": "electric_scooter", "name": "ed83f3c1f760b797a004bcef92dcaf36", "lat": 38.897603833333335, "bike_id": "ed83f3c1f760b797a004bcef92dcaf36"}, {"lon": -77.024825, "rental_uris": {"android": "https://dc.lft.to/lastmile_qr_scan", "ios": "https://dc.lft.to/lastmile_qr_scan"}, "fusion_lon": 0.0, "is_reserved": 0, "is_disabled": 0, "fusion_lat": 0.0, "type": "electric_scooter", "name": "50c9b1025852dab1f65d8c2c8264b5b4", "lat": 38.94194516666667, "bike_id": "50c9b1025852dab1f65d8c2c8264b5b4"}, {"lon": -77.01231116666666, "rental_uris": {"android": "https://dc.lft.to/lastmile_qr_scan", "ios": "https://dc.lft.to/lastmile_qr_scan"}, "fusion_lon": 0.0, "is_reserved": 0, "is_disabled": 0, "fusion_lat": 0.0, "type": "electric_scooter", "name": "ca6a63c6d1bf66e8dc713ee854b130d1", "lat": 38.893422666666666, "bike_id": "ca6a63c6d1bf66e8dc713ee854b130d1"}, {"lon": -77.05145033333334, "rental_uris": {"android": "https://dc.lft.to/lastmile_qr_scan", "ios": "https://dc.lft.to/lastmile_qr_scan"}, "fusion_lon": 0.0, "is_reserved": 0, "is_disabled": 0, "fusion_lat": 0.0, "type": "electric_scooter", "name": "c7433697300a837455a9e20712987009", "lat": 38.9063615, "bike_id": "c7433697300a837455a9e20712987009"}, {"lon": -77.02000883333334, "rental_uris": {"android": "https://dc.lft.to/lastmile_qr_scan", "ios": "https://dc.lft.to/lastmile_qr_scan"}, "fusion_lon": 0.0, "is_reserved": 0, "is_disabled": 0, "fusion_lat": 0.0, "type": "electric_scooter", "name": "fab078c28118697b576649ca4b5d4358", "lat": 38.964371166666666, "bike_id": "fab078c28118697b576649ca4b5d4358"}, {"lon": -77.02173983333333, "rental_uris": {"android": "https://dc.lft.to/lastmile_qr_scan", "ios": "https://dc.lft.to/lastmile_qr_scan"}, "fusion_lon": 0.0, "is_reserved": 0, "is_disabled": 0, "fusion_lat": 0.0, "type": "electric_scooter", "name": "ff3211be0b878ef549c26045f5293ba9", "lat": 38.942877833333334, "bike_id": "ff3211be0b878ef549c26045f5293ba9"}, {"lon": -77.04732433333334, "rental_uris": {"android": "https://dc.lft.to/lastmile_qr_scan", "ios": "https://dc.lft.to/lastmile_qr_scan"}, "fusion_lon": 0.0, "is_reserved": 0, "is_disabled": 0, "fusion_lat": 0.0, "type": "electric_scooter", "name": "96e4063734c15131b6907291fa07c084", "lat": 38.901863, "bike_id": "96e4063734c15131b6907291fa07c084"}, {"lon": -77.0417835, "rental_uris": {"android": "https://dc.lft.to/lastmile_qr_scan", "ios": "https://dc.lft.to/lastmile_qr_scan"}, "fusion_lon": 0.0, "is_reserved": 0, "is_disabled": 0, "fusion_lat": 0.0, "type": "electric_scooter", "name": "8f2954f5303453672fd056ad32f65b58", "lat": 38.8993385, "bike_id": "8f2954f5303453672fd056ad32f65b58"}, {"lon": -77.02837816666667, "rental_uris": {"android": "https://dc.lft.to/lastmile_qr_scan", "ios": "https://dc.lft.to/lastmile_qr_scan"}, "fusion_lon": 0.0, "is_reserved": 0, "is_disabled": 0, "fusion_lat": 0.0, "type": "electric_bike", "name": "93e9cd15235fa9b4fb22c457ce9fd1ca", "lat": 38.94260216666667, "bike_id": "93e9cd15235fa9b4fb22c457ce9fd1ca"}, {"lon": -77.02866, "rental_uris": {"android": "https://dc.lft.to/lastmile_qr_scan", "ios": "https://dc.lft.to/lastmile_qr_scan"}, "fusion_lon": 0.0, "is_reserved": 0, "is_disabled": 0, "fusion_lat": 0.0, "type": "electric_scooter", "name": "b2da27d1dd14c0664b4284837d2e6c90", "lat": 38.93275283333333, "bike_id": "b2da27d1dd14c0664b4284837d2e6c90"}, {"lon": -77.01940716666667, "rental_uris": {"android": "https://dc.lft.to/lastmile_qr_scan", "ios": "https://dc.lft.to/lastmile_qr_scan"}, "fusion_lon": 0.0, "is_reserved": 0, "is_disabled": 0, "fusion_lat": 0.0, "type": "electric_scooter", "name": "e57b5591d5ce9bdbd0032ae6b4ed251a", "lat": 38.92415733333333, "bike_id": "e57b5591d5ce9bdbd0032ae6b4ed251a"}, {"lon": -77.015546, "rental_uris": {"android": "https://dc.lft.to/lastmile_qr_scan", "ios": "https://dc.lft.to/lastmile_qr_scan"}, "fusion_lon": 0.0, "is_reserved": 0, "is_disabled": 0, "fusion_lat": 0.0, "type": "electric_scooter", "name": "2664affffe4bb3597a651c58320ab778", "lat": 38.9146665, "bike_id": "2664affffe4bb3597a651c58320ab778"}, {"lon": -77.026907, "rental_uris": {"android": "https://dc.lft.to/lastmile_qr_scan", "ios": "https://dc.lft.to/lastmile_qr_scan"}, "fusion_lon": 0.0, "is_reserved": 0, "is_disabled": 0, "fusion_lat": 0.0, "type": "electric_scooter", "name": "dff24b1d9e01f65609f3c6098c119b30", "lat": 38.90850983333333, "bike_id": "dff24b1d9e01f65609f3c6098c119b30"}, {"lon": -76.95699216666667, "rental_uris": {"android": "https://dc.lft.to/lastmile_qr_scan", "ios": "https://dc.lft.to/lastmile_qr_scan"}, "fusion_lon": 0.0, "is_reserved": 0, "is_disabled": 0, "fusion_lat": 0.0, "type": "electric_bike", "name": "d5c67f6070d53890b6001e030219186a", "lat": 38.85094816666667, "bike_id": "d5c67f6070d53890b6001e030219186a"}, {"lon": -76.98840866666667, "rental_uris": {"android": "https://dc.lft.to/lastmile_qr_scan", "ios": "https://dc.lft.to/lastmile_qr_scan"}, "fusion_lon": 0.0, "is_reserved": 0, "is_disabled": 0, "fusion_lat": 0.0, "type": "electric_bike", "name": "83bf7243d1e257c94efe8317c1c5482d", "lat": 38.842788, "bike_id": "83bf7243d1e257c94efe8317c1c5482d"}, {"lon": -77.001746, "rental_uris": {"android": "https://dc.lft.to/lastmile_qr_scan", "ios": "https://dc.lft.to/lastmile_qr_scan"}, "fusion_lon": 0.0, "is_reserved": 0, "is_disabled": 0, "fusion_lat": 0.0, "type": "electric_scooter", "name": "81a88336fa2b8497447ebdcfcccbd16a", "lat": 38.873774833333336, "bike_id": "81a88336fa2b8497447ebdcfcccbd16a"}, {"lon": -77.01959066666667, "rental_uris": {"android": "https://dc.lft.to/lastmile_qr_scan", "ios": "https://dc.lft.to/lastmile_qr_scan"}, "fusion_lon": 0.0, "is_reserved": 0, "is_disabled": 0, "fusion_lat": 0.0, "type": "electric_scooter", "name": "60053cc8867594f9c10a7e433dc5fb4f", "lat": 38.923231, "bike_id": "60053cc8867594f9c10a7e433dc5fb4f"}, {"lon": -77.04484333333333, "rental_uris": {"android": "https://dc.lft.to/lastmile_qr_scan", "ios": "https://dc.lft.to/lastmile_qr_scan"}, "fusion_lon": 0.0, "is_reserved": 0, "is_disabled": 0, "fusion_lat": 0.0, "type": "electric_scooter", "name": "3b0c3b944b7c17a91316112b3e716717", "lat": 38.903242166666665, "bike_id": "3b0c3b944b7c17a91316112b3e716717"}, {"lon": -77.018535, "rental_uris": {"android": "https://dc.lft.to/lastmile_qr_scan", "ios": "https://dc.lft.to/lastmile_qr_scan"}, "fusion_lon": 0.0, "is_reserved": 0, "is_disabled": 0, "fusion_lat": 0.0, "type": "electric_scooter", "name": "d5f2675e69fbe2f7447c674e2c70e2d2", "lat": 38.92261633333333, "bike_id": "d5f2675e69fbe2f7447c674e2c70e2d2"}, {"lon": -77.007001, "rental_uris": {"android": "https://dc.lft.to/lastmile_qr_scan", "ios": "https://dc.lft.to/lastmile_qr_scan"}, "fusion_lon": 0.0, "is_reserved": 0, "is_disabled": 0, "fusion_lat": 0.0, "type": "electric_scooter", "name": "35944b75f810c139fb5cab0bdb9876b8", "lat": 38.91551233333333, "bike_id": "35944b75f810c139fb5cab0bdb9876b8"}, {"lon": -77.03401433333333, "rental_uris": {"android": "https://dc.lft.to/lastmile_qr_scan", "ios": "https://dc.lft.to/lastmile_qr_scan"}, "fusion_lon": 0.0, "is_reserved": 0, "is_disabled": 0, "fusion_lat": 0.0, "type": "electric_scooter", "name": "e23772acb7233cec502c33e804e4a597", "lat": 38.90257966666667, "bike_id": "e23772acb7233cec502c33e804e4a597"}, {"lon": -77.04061083333333, "rental_uris": {"android": "https://dc.lft.to/lastmile_qr_scan", "ios": "https://dc.lft.to/lastmile_qr_scan"}, "fusion_lon": 0.0, "is_reserved": 0, "is_disabled": 0, "fusion_lat": 0.0, "type": "electric_scooter", "name": "e5b2a423e1290045effbe6910b7725a5", "lat": 38.927935, "bike_id": "e5b2a423e1290045effbe6910b7725a5"}, {"lon": -77.029634, "rental_uris": {"android": "https://dc.lft.to/lastmile_qr_scan", "ios": "https://dc.lft.to/lastmile_qr_scan"}, "fusion_lon": 0.0, "is_reserved": 0, "is_disabled": 0, "fusion_lat": 0.0, "type": "electric_scooter", "name": "16e416039de743c96e004ac6df604e2d", "lat": 38.90047166666667, "bike_id": "16e416039de743c96e004ac6df604e2d"}, {"lon": -77.00666783333334, "rental_uris": {"android": "https://dc.lft.to/lastmile_qr_scan", "ios": "https://dc.lft.to/lastmile_qr_scan"}, "fusion_lon": 0.0, "is_reserved": 0, "is_disabled": 0, "fusion_lat": 0.0, "type": "electric_scooter", "name": "aec56d6cb0ac33086c1553eafa50f318", "lat": 38.90068183333333, "bike_id": "aec56d6cb0ac33086c1553eafa50f318"}, {"lon": -77.02269716666666, "rental_uris": {"android": "https://dc.lft.to/lastmile_qr_scan", "ios": "https://dc.lft.to/lastmile_qr_scan"}, "fusion_lon": 0.0, "is_reserved": 0, "is_disabled": 0, "fusion_lat": 0.0, "type": "electric_scooter", "name": "773894621476d37cba5dc24156781ccb", "lat": 38.92474433333334, "bike_id": "773894621476d37cba5dc24156781ccb"}, {"lon": -77.04892333333333, "rental_uris": {"android": "https://dc.lft.to/lastmile_qr_scan", "ios": "https://dc.lft.to/lastmile_qr_scan"}, "fusion_lon": 0.0, "is_reserved": 0, "is_disabled": 0, "fusion_lat": 0.0, "type": "electric_scooter", "name": "f0eccb973c2b1f321740e0a9adfe3f2b", "lat": 38.90047716666667, "bike_id": "f0eccb973c2b1f321740e0a9adfe3f2b"}, {"lon": -77.01979916666667, "rental_uris": {"android": "https://dc.lft.to/lastmile_qr_scan", "ios": "https://dc.lft.to/lastmile_qr_scan"}, "fusion_lon": 0.0, "is_reserved": 0, "is_disabled": 0, "fusion_lat": 0.0, "type": "electric_scooter", "name": "40c427736410257fda523ca27ad1a83c", "lat": 38.91193883333333, "bike_id": "40c427736410257fda523ca27ad1a83c"}, {"lon": -77.0433485, "rental_uris": {"android": "https://dc.lft.to/lastmile_qr_scan", "ios": "https://dc.lft.to/lastmile_qr_scan"}, "fusion_lon": 0.0, "is_reserved": 0, "is_disabled": 0, "fusion_lat": 0.0, "type": "electric_scooter", "name": "159b71b3c6c6185c576806be2f42f651", "lat": 38.9222975, "bike_id": "159b71b3c6c6185c576806be2f42f651"}, {"lon": -77.018308, "rental_uris": {"android": "https://dc.lft.to/lastmile_qr_scan", "ios": "https://dc.lft.to/lastmile_qr_scan"}, "fusion_lon": 0.0, "is_reserved": 0, "is_disabled": 0, "fusion_lat": 0.0, "type": "electric_scooter", "name": "f06c83d58006f0f1d9c90ac1cfbba584", "lat": 38.9223655, "bike_id": "f06c83d58006f0f1d9c90ac1cfbba584"}, {"lon": -76.99506283333334, "rental_uris": {"android": "https://dc.lft.to/lastmile_qr_scan", "ios": "https://dc.lft.to/lastmile_qr_scan"}, "fusion_lon": 0.0, "is_reserved": 0, "is_disabled": 0, "fusion_lat": 0.0, "type": "electric_scooter", "name": "dafdcd165a4190f90666e649be3af5d3", "lat": 38.904648333333334, "bike_id": "dafdcd165a4190f90666e649be3af5d3"}, {"lon": -77.0626815, "rental_uris": {"android": "https://dc.lft.to/lastmile_qr_scan", "ios": "https://dc.lft.to/lastmile_qr_scan"}, "fusion_lon": 0.0, "is_reserved": 0, "is_disabled": 0, "fusion_lat": 0.0, "type": "electric_scooter", "name": "9a9560070b877c631ce648a8a58e628f", "lat": 38.902377333333334, "bike_id": "9a9560070b877c631ce648a8a58e628f"}, {"lon": -77.02328983333334, "rental_uris": {"android": "https://dc.lft.to/lastmile_qr_scan", "ios": "https://dc.lft.to/lastmile_qr_scan"}, "fusion_lon": 0.0, "is_reserved": 0, "is_disabled": 0, "fusion_lat": 0.0, "type": "electric_scooter", "name": "e45f42cb915bb3df707e65659e379165", "lat": 38.92300316666667, "bike_id": "e45f42cb915bb3df707e65659e379165"}, {"lon": -77.0294345, "rental_uris": {"android": "https://dc.lft.to/lastmile_qr_scan", "ios": "https://dc.lft.to/lastmile_qr_scan"}, "fusion_lon": 0.0, "is_reserved": 0, "is_disabled": 0, "fusion_lat": 0.0, "type": "electric_scooter", "name": "69f1e90864594e47f5928dcca0d12f1d", "lat": 38.89918866666667, "bike_id": "69f1e90864594e47f5928dcca0d12f1d"}, {"lon": -77.01674433333334, "rental_uris": {"android": "https://dc.lft.to/lastmile_qr_scan", "ios": "https://dc.lft.to/lastmile_qr_scan"}, "fusion_lon": 0.0, "is_reserved": 0, "is_disabled": 0, "fusion_lat": 0.0, "type": "electric_scooter", "name": "424caf24db9ee44af915fb6437359964", "lat": 38.881147, "bike_id": "424caf24db9ee44af915fb6437359964"}, {"lon": -77.0793925, "rental_uris": {"android": "https://dc.lft.to/lastmile_qr_scan", "ios": "https://dc.lft.to/lastmile_qr_scan"}, "fusion_lon": 0.0, "is_reserved": 0, "is_disabled": 0, "fusion_lat": 0.0, "type": "electric_scooter", "name": "7515b060ded1cf47215a68544a043d3e", "lat": 38.91927333333334, "bike_id": "7515b060ded1cf47215a68544a043d3e"}, {"lon": -77.03391016666667, "rental_uris": {"android": "https://dc.lft.to/lastmile_qr_scan", "ios": "https://dc.lft.to/lastmile_qr_scan"}, "fusion_lon": 0.0, "is_reserved": 0, "is_disabled": 0, "fusion_lat": 0.0, "type": "electric_scooter", "name": "962745a4d1e6c6fb360d209454d92037", "lat": 38.88655983333334, "bike_id": "962745a4d1e6c6fb360d209454d92037"}, {"lon": -77.02178616666667, "rental_uris": {"android": "https://dc.lft.to/lastmile_qr_scan", "ios": "https://dc.lft.to/lastmile_qr_scan"}, "fusion_lon": 0.0, "is_reserved": 0, "is_disabled": 0, "fusion_lat": 0.0, "type": "electric_scooter", "name": "91cab533fcf67b48d7f89517ac33a153", "lat": 38.942867666666665, "bike_id": "91cab533fcf67b48d7f89517ac33a153"}, {"lon": -77.043005, "rental_uris": {"android": "https://dc.lft.to/lastmile_qr_scan", "ios": "https://dc.lft.to/lastmile_qr_scan"}, "fusion_lon": 0.0, "is_reserved": 0, "is_disabled": 0, "fusion_lat": 0.0, "type": "electric_scooter", "name": "27625df86102f03c2c3154a815815ef9", "lat": 38.93176066666667, "bike_id": "27625df86102f03c2c3154a815815ef9"}, {"lon": -77.0382795, "rental_uris": {"android": "https://dc.lft.to/lastmile_qr_scan", "ios": "https://dc.lft.to/lastmile_qr_scan"}, "fusion_lon": 0.0, "is_reserved": 0, "is_disabled": 0, "fusion_lat": 0.0, "type": "electric_scooter", "name": "95b4280067c192d054561bbd657faa9c", "lat": 38.918847, "bike_id": "95b4280067c192d054561bbd657faa9c"}, {"lon": -77.23666483333334, "rental_uris": {"android": "https://dc.lft.to/lastmile_qr_scan", "ios": "https://dc.lft.to/lastmile_qr_scan"}, "fusion_lon": 0.0, "is_reserved": 0, "is_disabled": 0, "fusion_lat": 0.0, "type": "electric_bike", "name": "652045612603befb07061cb13fc5c92c", "lat": 38.9212145, "bike_id": "652045612603befb07061cb13fc5c92c"}, {"lon": -77.02431316666667, "rental_uris": {"android": "https://dc.lft.to/lastmile_qr_scan", "ios": "https://dc.lft.to/lastmile_qr_scan"}, "fusion_lon": 0.0, "is_reserved": 0, "is_disabled": 0, "fusion_lat": 0.0, "type": "electric_scooter", "name": "d9046018e9ae9d2994ae892d055e644e", "lat": 38.9562015, "bike_id": "d9046018e9ae9d2994ae892d055e644e"}, {"lon": -77.0250405, "rental_uris": {"android": "https://dc.lft.to/lastmile_qr_scan", "ios": "https://dc.lft.to/lastmile_qr_scan"}, "fusion_lon": 0.0, "is_reserved": 0, "is_disabled": 0, "fusion_lat": 0.0, "type": "electric_scooter", "name": "25728a7f448517591f90292a1fee9a65", "lat": 38.91910216666667, "bike_id": "25728a7f448517591f90292a1fee9a65"}, {"lon": -77.03794416666666, "rental_uris": {"android": "https://dc.lft.to/lastmile_qr_scan", "ios": "https://dc.lft.to/lastmile_qr_scan"}, "fusion_lon": 0.0, "is_reserved": 0, "is_disabled": 0, "fusion_lat": 0.0, "type": "electric_scooter", "name": "89046cb7801b57239c84b85d00a03b43", "lat": 38.902350166666665, "bike_id": "89046cb7801b57239c84b85d00a03b43"}, {"lon": -77.00872533333333, "rental_uris": {"android": "https://dc.lft.to/lastmile_qr_scan", "ios": "https://dc.lft.to/lastmile_qr_scan"}, "fusion_lon": 0.0, "is_reserved": 0, "is_disabled": 0, "fusion_lat": 0.0, "type": "electric_scooter", "name": "b5b58e632f87190002a68eae4aa601c1", "lat": 38.905742333333336, "bike_id": "b5b58e632f87190002a68eae4aa601c1"}, {"lon": -77.003359, "rental_uris": {"android": "https://dc.lft.to/lastmile_qr_scan", "ios": "https://dc.lft.to/lastmile_qr_scan"}, "fusion_lon": 0.0, "is_reserved": 0, "is_disabled": 0, "fusion_lat": 0.0, "type": "electric_scooter", "name": "c3a6e06a8ff6d9fc03b4350cfcd615a6", "lat": 38.876665333333335, "bike_id": "c3a6e06a8ff6d9fc03b4350cfcd615a6"}, {"lon": -77.03380583333333, "rental_uris": {"android": "https://dc.lft.to/lastmile_qr_scan", "ios": "https://dc.lft.to/lastmile_qr_scan"}, "fusion_lon": 0.0, "is_reserved": 0, "is_disabled": 0, "fusion_lat": 0.0, "type": "electric_scooter", "name": "06fa1dd3a903eaa76df98e30c306b1dc", "lat": 38.93837633333333, "bike_id": "06fa1dd3a903eaa76df98e30c306b1dc"}, {"lon": -77.07270516666667, "rental_uris": {"android": "https://dc.lft.to/lastmile_qr_scan", "ios": "https://dc.lft.to/lastmile_qr_scan"}, "fusion_lon": 0.0, "is_reserved": 0, "is_disabled": 0, "fusion_lat": 0.0, "type": "electric_scooter", "name": "78c9f7fefba1b7222542b4f6fe32bdb1", "lat": 38.90915533333333, "bike_id": "78c9f7fefba1b7222542b4f6fe32bdb1"}, {"lon": -76.987199, "rental_uris": {"android": "https://dc.lft.to/lastmile_qr_scan", "ios": "https://dc.lft.to/lastmile_qr_scan"}, "fusion_lon": 0.0, "is_reserved": 0, "is_disabled": 0, "fusion_lat": 0.0, "type": "electric_bike", "name": "060c38ae0842f079312fcec2d45e1046", "lat": 38.863278, "bike_id": "060c38ae0842f079312fcec2d45e1046"}, {"lon": -77.05312733333334, "rental_uris": {"android": "https://dc.lft.to/lastmile_qr_scan", "ios": "https://dc.lft.to/lastmile_qr_scan"}, "fusion_lon": 0.0, "is_reserved": 0, "is_disabled": 0, "fusion_lat": 0.0, "type": "electric_scooter", "name": "819e80f863ab5d5095e7923427fa0f4e", "lat": 38.902694, "bike_id": "819e80f863ab5d5095e7923427fa0f4e"}, {"lon": -77.04900066666667, "rental_uris": {"android": "https://dc.lft.to/lastmile_qr_scan", "ios": "https://dc.lft.to/lastmile_qr_scan"}, "fusion_lon": 0.0, "is_reserved": 0, "is_disabled": 0, "fusion_lat": 0.0, "type": "electric_scooter", "name": "26ef5502983c5c385fdf10f2e73d864a", "lat": 38.89226633333333, "bike_id": "26ef5502983c5c385fdf10f2e73d864a"}, {"lon": -77.03866633333334, "rental_uris": {"android": "https://dc.lft.to/lastmile_qr_scan", "ios": "https://dc.lft.to/lastmile_qr_scan"}, "fusion_lon": 0.0, "is_reserved": 0, "is_disabled": 0, "fusion_lat": 0.0, "type": "electric_scooter", "name": "b313e7f9e337d20937b7d13b6c2108d4", "lat": 38.90585266666667, "bike_id": "b313e7f9e337d20937b7d13b6c2108d4"}, {"lon": -77.03286533333333, "rental_uris": {"android": "https://dc.lft.to/lastmile_qr_scan", "ios": "https://dc.lft.to/lastmile_qr_scan"}, "fusion_lon": 0.0, "is_reserved": 0, "is_disabled": 0, "fusion_lat": 0.0, "type": "electric_scooter", "name": "58015dd7a8dee955c9046d90ae911a30", "lat": 38.93761466666667, "bike_id": "58015dd7a8dee955c9046d90ae911a30"}, {"lon": -77.0628735, "rental_uris": {"android": "https://dc.lft.to/lastmile_qr_scan", "ios": "https://dc.lft.to/lastmile_qr_scan"}, "fusion_lon": 0.0, "is_reserved": 0, "is_disabled": 0, "fusion_lat": 0.0, "type": "electric_scooter", "name": "81047d077129e34f1d63626f4296d590", "lat": 38.912409333333336, "bike_id": "81047d077129e34f1d63626f4296d590"}, {"lon": -77.01903166666666, "rental_uris": {"android": "https://dc.lft.to/lastmile_qr_scan", "ios": "https://dc.lft.to/lastmile_qr_scan"}, "fusion_lon": 0.0, "is_reserved": 0, "is_disabled": 0, "fusion_lat": 0.0, "type": "electric_scooter", "name": "c6e7b9fdb5a5c6c9a9a555a5c0947cc9", "lat": 38.91916633333334, "bike_id": "c6e7b9fdb5a5c6c9a9a555a5c0947cc9"}, {"lon": -77.041999, "rental_uris": {"android": "https://dc.lft.to/lastmile_qr_scan", "ios": "https://dc.lft.to/lastmile_qr_scan"}, "fusion_lon": 0.0, "is_reserved": 0, "is_disabled": 0, "fusion_lat": 0.0, "type": "electric_scooter", "name": "7f9fd84ff4a22237c49bc8cb97bb04dd", "lat": 38.92216366666667, "bike_id": "7f9fd84ff4a22237c49bc8cb97bb04dd"}, {"lon": -77.03446283333334, "rental_uris": {"android": "https://dc.lft.to/lastmile_qr_scan", "ios": "https://dc.lft.to/lastmile_qr_scan"}, "fusion_lon": 0.0, "is_reserved": 0, "is_disabled": 0, "fusion_lat": 0.0, "type": "electric_scooter", "name": "a20719ff9ac5873545445fc75db72d55", "lat": 38.907022833333336, "bike_id": "a20719ff9ac5873545445fc75db72d55"}, {"lon": -77.021173, "rental_uris": {"android": "https://dc.lft.to/lastmile_qr_scan", "ios": "https://dc.lft.to/lastmile_qr_scan"}, "fusion_lon": 0.0, "is_reserved": 0, "is_disabled": 0, "fusion_lat": 0.0, "type": "electric_scooter", "name": "788313d07b3f5e258095a88a1064fc05", "lat": 38.92670566666666, "bike_id": "788313d07b3f5e258095a88a1064fc05"}, {"lon": -76.97667233333334, "rental_uris": {"android": "https://dc.lft.to/lastmile_qr_scan", "ios": "https://dc.lft.to/lastmile_qr_scan"}, "fusion_lon": 0.0, "is_reserved": 0, "is_disabled": 0, "fusion_lat": 0.0, "type": "electric_scooter", "name": "6317d0bf8a0c51991f45bdcc4cef194f", "lat": 38.84051266666667, "bike_id": "6317d0bf8a0c51991f45bdcc4cef194f"}, {"lon": -77.0637165, "rental_uris": {"android": "https://dc.lft.to/lastmile_qr_scan", "ios": "https://dc.lft.to/lastmile_qr_scan"}, "fusion_lon": 0.0, "is_reserved": 0, "is_disabled": 0, "fusion_lat": 0.0, "type": "electric_scooter", "name": "7609e1cf7b3ba067004c17c16152a9cf", "lat": 38.90512416666667, "bike_id": "7609e1cf7b3ba067004c17c16152a9cf"}, {"lon": -77.04702566666667, "rental_uris": {"android": "https://dc.lft.to/lastmile_qr_scan", "ios": "https://dc.lft.to/lastmile_qr_scan"}, "fusion_lon": 0.0, "is_reserved": 0, "is_disabled": 0, "fusion_lat": 0.0, "type": "electric_scooter", "name": "6bac61316041f68add144e7c0b44531f", "lat": 38.92140633333333, "bike_id": "6bac61316041f68add144e7c0b44531f"}, {"lon": -77.043256, "rental_uris": {"android": "https://dc.lft.to/lastmile_qr_scan", "ios": "https://dc.lft.to/lastmile_qr_scan"}, "fusion_lon": 0.0, "is_reserved": 0, "is_disabled": 0, "fusion_lat": 0.0, "type": "electric_scooter", "name": "4d9bff0c7f061b60cda5dcd1863e9086", "lat": 38.90660733333333, "bike_id": "4d9bff0c7f061b60cda5dcd1863e9086"}, {"lon": -77.00874366666666, "rental_uris": {"android": "https://dc.lft.to/lastmile_qr_scan", "ios": "https://dc.lft.to/lastmile_qr_scan"}, "fusion_lon": 0.0, "is_reserved": 0, "is_disabled": 0, "fusion_lat": 0.0, "type": "electric_scooter", "name": "1e91415964a1a40482a04e0fbc2e1b95", "lat": 38.90649633333334, "bike_id": "1e91415964a1a40482a04e0fbc2e1b95"}, {"lon": -77.00038916666666, "rental_uris": {"android": "https://dc.lft.to/lastmile_qr_scan", "ios": "https://dc.lft.to/lastmile_qr_scan"}, "fusion_lon": 0.0, "is_reserved": 0, "is_disabled": 0, "fusion_lat": 0.0, "type": "electric_scooter", "name": "a3dae7cea021086f403e69477c708cee", "lat": 38.87485733333333, "bike_id": "a3dae7cea021086f403e69477c708cee"}, {"lon": -77.0449735, "rental_uris": {"android": "https://dc.lft.to/lastmile_qr_scan", "ios": "https://dc.lft.to/lastmile_qr_scan"}, "fusion_lon": 0.0, "is_reserved": 0, "is_disabled": 0, "fusion_lat": 0.0, "type": "electric_scooter", "name": "8a3270b99daa0dcb3b9fc9763000e9a4", "lat": 38.899517, "bike_id": "8a3270b99daa0dcb3b9fc9763000e9a4"}, {"lon": -77.01827116666666, "rental_uris": {"android": "https://dc.lft.to/lastmile_qr_scan", "ios": "https://dc.lft.to/lastmile_qr_scan"}, "fusion_lon": 0.0, "is_reserved": 0, "is_disabled": 0, "fusion_lat": 0.0, "type": "electric_scooter", "name": "f44f74db3896821cd72c32683badfe8d", "lat": 38.9223365, "bike_id": "f44f74db3896821cd72c32683badfe8d"}, {"lon": -77.01835066666666, "rental_uris": {"android": "https://dc.lft.to/lastmile_qr_scan", "ios": "https://dc.lft.to/lastmile_qr_scan"}, "fusion_lon": 0.0, "is_reserved": 0, "is_disabled": 0, "fusion_lat": 0.0, "type": "electric_scooter", "name": "bb7f1456011b46b6b683a68f63de2021", "lat": 38.900896833333334, "bike_id": "bb7f1456011b46b6b683a68f63de2021"}, {"lon": -77.03667666666666, "rental_uris": {"android": "https://dc.lft.to/lastmile_qr_scan", "ios": "https://dc.lft.to/lastmile_qr_scan"}, "fusion_lon": 0.0, "is_reserved": 0, "is_disabled": 0, "fusion_lat": 0.0, "type": "electric_scooter", "name": "01af5d0a7b33fe4edf2ea1f65def9ac0", "lat": 38.917250833333334, "bike_id": "01af5d0a7b33fe4edf2ea1f65def9ac0"}, {"lon": -77.0450135, "rental_uris": {"android": "https://dc.lft.to/lastmile_qr_scan", "ios": "https://dc.lft.to/lastmile_qr_scan"}, "fusion_lon": 0.0, "is_reserved": 0, "is_disabled": 0, "fusion_lat": 0.0, "type": "electric_scooter", "name": "5b1bcfe3374f0f5c45e507d1230f65fd", "lat": 38.90369316666666, "bike_id": "5b1bcfe3374f0f5c45e507d1230f65fd"}, {"lon": -77.034598, "rental_uris": {"android": "https://dc.lft.to/lastmile_qr_scan", "ios": "https://dc.lft.to/lastmile_qr_scan"}, "fusion_lon": 0.0, "is_reserved": 0, "is_disabled": 0, "fusion_lat": 0.0, "type": "electric_scooter", "name": "2490351cd843f387856ab60c16d5f67a", "lat": 38.90768683333334, "bike_id": "2490351cd843f387856ab60c16d5f67a"}, {"lon": -76.9937105, "rental_uris": {"android": "https://dc.lft.to/lastmile_qr_scan", "ios": "https://dc.lft.to/lastmile_qr_scan"}, "fusion_lon": 0.0, "is_reserved": 0, "is_disabled": 0, "fusion_lat": 0.0, "type": "electric_bike", "name": "ebf0cefcec5836a94ee34bf2301da139", "lat": 38.883434, "bike_id": "ebf0cefcec5836a94ee34bf2301da139"}, {"lon": -77.03830783333333, "rental_uris": {"android": "https://dc.lft.to/lastmile_qr_scan", "ios": "https://dc.lft.to/lastmile_qr_scan"}, "fusion_lon": 0.0, "is_reserved": 0, "is_disabled": 0, "fusion_lat": 0.0, "type": "electric_scooter", "name": "eda0bfd481028f73d02857dfeb43bdb3", "lat": 38.91885, "bike_id": "eda0bfd481028f73d02857dfeb43bdb3"}, {"lon": -76.94653633333333, "rental_uris": {"android": "https://dc.lft.to/lastmile_qr_scan", "ios": "https://dc.lft.to/lastmile_qr_scan"}, "fusion_lon": 0.0, "is_reserved": 0, "is_disabled": 0, "fusion_lat": 0.0, "type": "electric_scooter", "name": "a5e63e8737da15aa636eb0b4e77cc0d3", "lat": 38.89823483333333, "bike_id": "a5e63e8737da15aa636eb0b4e77cc0d3"}, {"lon": -77.0029345, "rental_uris": {"android": "https://dc.lft.to/lastmile_qr_scan", "ios": "https://dc.lft.to/lastmile_qr_scan"}, "fusion_lon": 0.0, "is_reserved": 0, "is_disabled": 0, "fusion_lat": 0.0, "type": "electric_scooter", "name": "370bc892520b20b6b99f0c4154d1ab0b", "lat": 38.89198583333334, "bike_id": "370bc892520b20b6b99f0c4154d1ab0b"}, {"lon": -77.06760283333334, "rental_uris": {"android": "https://dc.lft.to/lastmile_qr_scan", "ios": "https://dc.lft.to/lastmile_qr_scan"}, "fusion_lon": 0.0, "is_reserved": 0, "is_disabled": 0, "fusion_lat": 0.0, "type": "electric_bike", "name": "b88d339e1e8ea93cc4f251119fb95d35", "lat": 38.841942, "bike_id": "b88d339e1e8ea93cc4f251119fb95d35"}, {"lon": -77.20110966666667, "rental_uris": {"android": "https://dc.lft.to/lastmile_qr_scan", "ios": "https://dc.lft.to/lastmile_qr_scan"}, "fusion_lon": 0.0, "is_reserved": 0, "is_disabled": 0, "fusion_lat": 0.0, "type": "electric_bike", "name": "0593985a331f66510c0016822c1ea184", "lat": 38.863949, "bike_id": "0593985a331f66510c0016822c1ea184"}, {"lon": -77.00674033333334, "rental_uris": {"android": "https://dc.lft.to/lastmile_qr_scan", "ios": "https://dc.lft.to/lastmile_qr_scan"}, "fusion_lon": 0.0, "is_reserved": 0, "is_disabled": 0, "fusion_lat": 0.0, "type": "electric_scooter", "name": "f4b9b52dd5de24941f8137dc4f25281d", "lat": 38.90007166666667, "bike_id": "f4b9b52dd5de24941f8137dc4f25281d"}, {"lon": -77.0333445, "rental_uris": {"android": "https://dc.lft.to/lastmile_qr_scan", "ios": "https://dc.lft.to/lastmile_qr_scan"}, "fusion_lon": 0.0, "is_reserved": 0, "is_disabled": 0, "fusion_lat": 0.0, "type": "electric_scooter", "name": "e173c0c707fbf660e88a8e25982517bb", "lat": 38.97213033333333, "bike_id": "e173c0c707fbf660e88a8e25982517bb"}, {"lon": -77.04151383333334, "rental_uris": {"android": "https://dc.lft.to/lastmile_qr_scan", "ios": "https://dc.lft.to/lastmile_qr_scan"}, "fusion_lon": 0.0, "is_reserved": 0, "is_disabled": 0, "fusion_lat": 0.0, "type": "electric_scooter", "name": "c5c4f38868caf9a00e357ca8f908ace3", "lat": 38.903678166666666, "bike_id": "c5c4f38868caf9a00e357ca8f908ace3"}, {"lon": -77.02203933333334, "rental_uris": {"android": "https://dc.lft.to/lastmile_qr_scan", "ios": "https://dc.lft.to/lastmile_qr_scan"}, "fusion_lon": 0.0, "is_reserved": 0, "is_disabled": 0, "fusion_lat": 0.0, "type": "electric_scooter", "name": "23870c018d48b67be2554cf12daf710f", "lat": 38.885351166666666, "bike_id": "23870c018d48b67be2554cf12daf710f"}, {"lon": -77.0500405, "rental_uris": {"android": "https://dc.lft.to/lastmile_qr_scan", "ios": "https://dc.lft.to/lastmile_qr_scan"}, "fusion_lon": 0.0, "is_reserved": 0, "is_disabled": 0, "fusion_lat": 0.0, "type": "electric_scooter", "name": "de36af2098eb9151d09931dfebea3527", "lat": 38.89229016666667, "bike_id": "de36af2098eb9151d09931dfebea3527"}, {"lon": -76.93872316666666, "rental_uris": {"android": "https://dc.lft.to/lastmile_qr_scan", "ios": "https://dc.lft.to/lastmile_qr_scan"}, "fusion_lon": 0.0, "is_reserved": 0, "is_disabled": 0, "fusion_lat": 0.0, "type": "electric_bike", "name": "d06cdada7957b81eae52bb34ff052794", "lat": 38.956334, "bike_id": "d06cdada7957b81eae52bb34ff052794"}, {"lon": -77.06421633333333, "rental_uris": {"android": "https://dc.lft.to/lastmile_qr_scan", "ios": "https://dc.lft.to/lastmile_qr_scan"}, "fusion_lon": 0.0, "is_reserved": 0, "is_disabled": 0, "fusion_lat": 0.0, "type": "electric_scooter", "name": "f49c5e868338a79802b834c122e86798", "lat": 38.9139825, "bike_id": "f49c5e868338a79802b834c122e86798"}, {"lon": -77.0244345, "rental_uris": {"android": "https://dc.lft.to/lastmile_qr_scan", "ios": "https://dc.lft.to/lastmile_qr_scan"}, "fusion_lon": 0.0, "is_reserved": 0, "is_disabled": 0, "fusion_lat": 0.0, "type": "electric_scooter", "name": "a2ab13e8b4c2f0b40d1dda5cdfd6ebdc", "lat": 38.89980383333334, "bike_id": "a2ab13e8b4c2f0b40d1dda5cdfd6ebdc"}, {"lon": -77.035483, "rental_uris": {"android": "https://dc.lft.to/lastmile_qr_scan", "ios": "https://dc.lft.to/lastmile_qr_scan"}, "fusion_lon": 0.0, "is_reserved": 0, "is_disabled": 0, "fusion_lat": 0.0, "type": "electric_scooter", "name": "4e9963460c4cbcbd02f7f5a53a3f67ef", "lat": 38.93300416666666, "bike_id": "4e9963460c4cbcbd02f7f5a53a3f67ef"}, {"lon": -77.03208083333334, "rental_uris": {"android": "https://dc.lft.to/lastmile_qr_scan", "ios": "https://dc.lft.to/lastmile_qr_scan"}, "fusion_lon": 0.0, "is_reserved": 0, "is_disabled": 0, "fusion_lat": 0.0, "type": "electric_scooter", "name": "f2e4d30683ca04698b9d4b50bcc067ac", "lat": 38.914132333333335, "bike_id": "f2e4d30683ca04698b9d4b50bcc067ac"}, {"lon": -77.03569216666666, "rental_uris": {"android": "https://dc.lft.to/lastmile_qr_scan", "ios": "https://dc.lft.to/lastmile_qr_scan"}, "fusion_lon": 0.0, "is_reserved": 0, "is_disabled": 0, "fusion_lat": 0.0, "type": "electric_scooter", "name": "b8a2590dee4fcb0651eadc4f67263e61", "lat": 38.902546, "bike_id": "b8a2590dee4fcb0651eadc4f67263e61"}, {"lon": -77.0236945, "rental_uris": {"android": "https://dc.lft.to/lastmile_qr_scan", "ios": "https://dc.lft.to/lastmile_qr_scan"}, "fusion_lon": 0.0, "is_reserved": 0, "is_disabled": 0, "fusion_lat": 0.0, "type": "electric_scooter", "name": "8ac4df309fa53a4f846956e61bb6e3d6", "lat": 38.90201116666667, "bike_id": "8ac4df309fa53a4f846956e61bb6e3d6"}, {"lon": -77.06473016666666, "rental_uris": {"android": "https://dc.lft.to/lastmile_qr_scan", "ios": "https://dc.lft.to/lastmile_qr_scan"}, "fusion_lon": 0.0, "is_reserved": 0, "is_disabled": 0, "fusion_lat": 0.0, "type": "electric_scooter", "name": "efc37172ff774115086f8eaaae2674a7", "lat": 38.9050585, "bike_id": "efc37172ff774115086f8eaaae2674a7"}, {"lon": -77.02203766666666, "rental_uris": {"android": "https://dc.lft.to/lastmile_qr_scan", "ios": "https://dc.lft.to/lastmile_qr_scan"}, "fusion_lon": 0.0, "is_reserved": 0, "is_disabled": 0, "fusion_lat": 0.0, "type": "electric_scooter", "name": "16ce2bc444102cca0773890b092f9f0d", "lat": 38.92106916666667, "bike_id": "16ce2bc444102cca0773890b092f9f0d"}, {"lon": -77.01210033333334, "rental_uris": {"android": "https://dc.lft.to/lastmile_qr_scan", "ios": "https://dc.lft.to/lastmile_qr_scan"}, "fusion_lon": 0.0, "is_reserved": 0, "is_disabled": 0, "fusion_lat": 0.0, "type": "electric_bike", "name": "30d23af849ea8a1c0ed5c78ffd5c0e8d", "lat": 38.9212015, "bike_id": "30d23af849ea8a1c0ed5c78ffd5c0e8d"}, {"lon": -77.047826, "rental_uris": {"android": "https://dc.lft.to/lastmile_qr_scan", "ios": "https://dc.lft.to/lastmile_qr_scan"}, "fusion_lon": 0.0, "is_reserved": 0, "is_disabled": 0, "fusion_lat": 0.0, "type": "electric_scooter", "name": "ea411bcd2eb6460db4d7506a1e82c332", "lat": 38.897739, "bike_id": "ea411bcd2eb6460db4d7506a1e82c332"}, {"lon": -77.00381216666666, "rental_uris": {"android": "https://dc.lft.to/lastmile_qr_scan", "ios": "https://dc.lft.to/lastmile_qr_scan"}, "fusion_lon": 0.0, "is_reserved": 0, "is_disabled": 0, "fusion_lat": 0.0, "type": "electric_scooter", "name": "f611fe87ed84a4a81032f90f8c3c207a", "lat": 38.896632, "bike_id": "f611fe87ed84a4a81032f90f8c3c207a"}, {"lon": -77.03261533333334, "rental_uris": {"android": "https://dc.lft.to/lastmile_qr_scan", "ios": "https://dc.lft.to/lastmile_qr_scan"}, "fusion_lon": 0.0, "is_reserved": 0, "is_disabled": 0, "fusion_lat": 0.0, "type": "electric_scooter", "name": "3d7294989b58ae88d8ac4897ae364792", "lat": 38.91251833333333, "bike_id": "3d7294989b58ae88d8ac4897ae364792"}, {"lon": -76.97331199999999, "rental_uris": {"android": "https://dc.lft.to/lastmile_qr_scan", "ios": "https://dc.lft.to/lastmile_qr_scan"}, "fusion_lon": 0.0, "is_reserved": 0, "is_disabled": 0, "fusion_lat": 0.0, "type": "electric_scooter", "name": "5dfccc81b624afb4e70cc0be94029052", "lat": 38.904109, "bike_id": "5dfccc81b624afb4e70cc0be94029052"}, {"lon": -77.04337733333334, "rental_uris": {"android": "https://dc.lft.to/lastmile_qr_scan", "ios": "https://dc.lft.to/lastmile_qr_scan"}, "fusion_lon": 0.0, "is_reserved": 0, "is_disabled": 0, "fusion_lat": 0.0, "type": "electric_scooter", "name": "1a6ad7c21c6dd805fb1f592ea5d57ffb", "lat": 38.892223, "bike_id": "1a6ad7c21c6dd805fb1f592ea5d57ffb"}, {"lon": -76.99551316666667, "rental_uris": {"android": "https://dc.lft.to/lastmile_qr_scan", "ios": "https://dc.lft.to/lastmile_qr_scan"}, "fusion_lon": 0.0, "is_reserved": 0, "is_disabled": 0, "fusion_lat": 0.0, "type": "electric_scooter", "name": "2fe6f43bcdb1f9be11cff0fcfa37c87e", "lat": 38.8623165, "bike_id": "2fe6f43bcdb1f9be11cff0fcfa37c87e"}, {"lon": -77.0486475, "rental_uris": {"android": "https://dc.lft.to/lastmile_qr_scan", "ios": "https://dc.lft.to/lastmile_qr_scan"}, "fusion_lon": 0.0, "is_reserved": 0, "is_disabled": 0, "fusion_lat": 0.0, "type": "electric_scooter", "name": "fd1538f693989583a91eb97cfa5bf429", "lat": 38.8988325, "bike_id": "fd1538f693989583a91eb97cfa5bf429"}, {"lon": -77.01762866666667, "rental_uris": {"android": "https://dc.lft.to/lastmile_qr_scan", "ios": "https://dc.lft.to/lastmile_qr_scan"}, "fusion_lon": 0.0, "is_reserved": 0, "is_disabled": 0, "fusion_lat": 0.0, "type": "electric_scooter", "name": "fedd407c010b6cd1fdacd4956d813bb1", "lat": 38.938958, "bike_id": "fedd407c010b6cd1fdacd4956d813bb1"}, {"lon": -76.96973633333333, "rental_uris": {"android": "https://dc.lft.to/lastmile_qr_scan", "ios": "https://dc.lft.to/lastmile_qr_scan"}, "fusion_lon": 0.0, "is_reserved": 0, "is_disabled": 0, "fusion_lat": 0.0, "type": "electric_scooter", "name": "5f6d52b41bf5d36697a665b0eb649f1b", "lat": 38.87383416666667, "bike_id": "5f6d52b41bf5d36697a665b0eb649f1b"}, {"lon": -77.03868266666667, "rental_uris": {"android": "https://dc.lft.to/lastmile_qr_scan", "ios": "https://dc.lft.to/lastmile_qr_scan"}, "fusion_lon": 0.0, "is_reserved": 0, "is_disabled": 0, "fusion_lat": 0.0, "type": "electric_scooter", "name": "2fb78f50333f5250853313566dfd14ba", "lat": 38.91265416666667, "bike_id": "2fb78f50333f5250853313566dfd14ba"}, {"lon": -77.1151425, "rental_uris": {"android": "https://dc.lft.to/lastmile_qr_scan", "ios": "https://dc.lft.to/lastmile_qr_scan"}, "fusion_lon": 0.0, "is_reserved": 0, "is_disabled": 0, "fusion_lat": 0.0, "type": "electric_bike", "name": "3e4127ca42fb4e9114f33bdc1d5378a5", "lat": 39.07051883333333, "bike_id": "3e4127ca42fb4e9114f33bdc1d5378a5"}, {"lon": -77.048846, "rental_uris": {"android": "https://dc.lft.to/lastmile_qr_scan", "ios": "https://dc.lft.to/lastmile_qr_scan"}, "fusion_lon": 0.0, "is_reserved": 0, "is_disabled": 0, "fusion_lat": 0.0, "type": "electric_scooter", "name": "453a4a2bd5a114796ad8cca6070bb7ca", "lat": 38.912370333333335, "bike_id": "453a4a2bd5a114796ad8cca6070bb7ca"}, {"lon": -77.02401466666667, "rental_uris": {"android": "https://dc.lft.to/lastmile_qr_scan", "ios": "https://dc.lft.to/lastmile_qr_scan"}, "fusion_lon": 0.0, "is_reserved": 0, "is_disabled": 0, "fusion_lat": 0.0, "type": "electric_scooter", "name": "187abee64dcd14ef3e3f429b57c82289", "lat": 38.95704466666667, "bike_id": "187abee64dcd14ef3e3f429b57c82289"}, {"lon": -76.96506366666667, "rental_uris": {"android": "https://dc.lft.to/lastmile_qr_scan", "ios": "https://dc.lft.to/lastmile_qr_scan"}, "fusion_lon": 0.0, "is_reserved": 0, "is_disabled": 0, "fusion_lat": 0.0, "type": "electric_scooter", "name": "3a64d865788671a32b9722b70b0e5beb", "lat": 38.876469, "bike_id": "3a64d865788671a32b9722b70b0e5beb"}, {"lon": -77.047158, "rental_uris": {"android": "https://dc.lft.to/lastmile_qr_scan", "ios": "https://dc.lft.to/lastmile_qr_scan"}, "fusion_lon": 0.0, "is_reserved": 0, "is_disabled": 0, "fusion_lat": 0.0, "type": "electric_scooter", "name": "edd055aca6c3b14afd0bf33a4b456a07", "lat": 38.918919333333335, "bike_id": "edd055aca6c3b14afd0bf33a4b456a07"}, {"lon": -77.02407133333334, "rental_uris": {"android": "https://dc.lft.to/lastmile_qr_scan", "ios": "https://dc.lft.to/lastmile_qr_scan"}, "fusion_lon": 0.0, "is_reserved": 0, "is_disabled": 0, "fusion_lat": 0.0, "type": "electric_scooter", "name": "4d1073f95f9b8c0f968b69af5f478195", "lat": 38.90187983333333, "bike_id": "4d1073f95f9b8c0f968b69af5f478195"}, {"lon": -76.996427, "rental_uris": {"android": "https://dc.lft.to/lastmile_qr_scan", "ios": "https://dc.lft.to/lastmile_qr_scan"}, "fusion_lon": 0.0, "is_reserved": 0, "is_disabled": 0, "fusion_lat": 0.0, "type": "electric_scooter", "name": "e8cac62ebe36b753fa15cb19a1b63044", "lat": 38.85972, "bike_id": "e8cac62ebe36b753fa15cb19a1b63044"}, {"lon": -77.039455, "rental_uris": {"android": "https://dc.lft.to/lastmile_qr_scan", "ios": "https://dc.lft.to/lastmile_qr_scan"}, "fusion_lon": 0.0, "is_reserved": 0, "is_disabled": 0, "fusion_lat": 0.0, "type": "electric_scooter", "name": "b6d13f8d6091c34e4e33af980fd285fe", "lat": 38.9084025, "bike_id": "b6d13f8d6091c34e4e33af980fd285fe"}, {"lon": -77.04556816666667, "rental_uris": {"android": "https://dc.lft.to/lastmile_qr_scan", "ios": "https://dc.lft.to/lastmile_qr_scan"}, "fusion_lon": 0.0, "is_reserved": 0, "is_disabled": 0, "fusion_lat": 0.0, "type": "electric_scooter", "name": "fc0337727b81f83b16b85c25e10ca416", "lat": 38.89610716666667, "bike_id": "fc0337727b81f83b16b85c25e10ca416"}, {"lon": -77.03335433333334, "rental_uris": {"android": "https://dc.lft.to/lastmile_qr_scan", "ios": "https://dc.lft.to/lastmile_qr_scan"}, "fusion_lon": 0.0, "is_reserved": 0, "is_disabled": 0, "fusion_lat": 0.0, "type": "electric_scooter", "name": "6b8375813ba680926b19abfab2a1788b", "lat": 38.89806633333333, "bike_id": "6b8375813ba680926b19abfab2a1788b"}, {"lon": -77.00312, "rental_uris": {"android": "https://dc.lft.to/lastmile_qr_scan", "ios": "https://dc.lft.to/lastmile_qr_scan"}, "fusion_lon": 0.0, "is_reserved": 0, "is_disabled": 0, "fusion_lat": 0.0, "type": "electric_scooter", "name": "0129a4af1ba1a18fdbc73c86a78f6ed9", "lat": 38.8765455, "bike_id": "0129a4af1ba1a18fdbc73c86a78f6ed9"}, {"lon": -77.03808433333333, "rental_uris": {"android": "https://dc.lft.to/lastmile_qr_scan", "ios": "https://dc.lft.to/lastmile_qr_scan"}, "fusion_lon": 0.0, "is_reserved": 0, "is_disabled": 0, "fusion_lat": 0.0, "type": "electric_scooter", "name": "8d43c96c48a176eef7a9081b1d1d6835", "lat": 38.92314366666667, "bike_id": "8d43c96c48a176eef7a9081b1d1d6835"}, {"lon": -77.001652, "rental_uris": {"android": "https://dc.lft.to/lastmile_qr_scan", "ios": "https://dc.lft.to/lastmile_qr_scan"}, "fusion_lon": 0.0, "is_reserved": 0, "is_disabled": 0, "fusion_lat": 0.0, "type": "electric_scooter", "name": "a3e894801948d4bab50ecf2dcd5642c9", "lat": 38.95830266666667, "bike_id": "a3e894801948d4bab50ecf2dcd5642c9"}, {"lon": -77.04348216666666, "rental_uris": {"android": "https://dc.lft.to/lastmile_qr_scan", "ios": "https://dc.lft.to/lastmile_qr_scan"}, "fusion_lon": 0.0, "is_reserved": 0, "is_disabled": 0, "fusion_lat": 0.0, "type": "electric_scooter", "name": "5e8505bd68963109f122379bae936e90", "lat": 38.92175616666667, "bike_id": "5e8505bd68963109f122379bae936e90"}, {"lon": -77.02189933333334, "rental_uris": {"android": "https://dc.lft.to/lastmile_qr_scan", "ios": "https://dc.lft.to/lastmile_qr_scan"}, "fusion_lon": 0.0, "is_reserved": 0, "is_disabled": 0, "fusion_lat": 0.0, "type": "electric_scooter", "name": "31c9248719632e2a188a242101272473", "lat": 38.9187615, "bike_id": "31c9248719632e2a188a242101272473"}, {"lon": -77.04267883333333, "rental_uris": {"android": "https://dc.lft.to/lastmile_qr_scan", "ios": "https://dc.lft.to/lastmile_qr_scan"}, "fusion_lon": 0.0, "is_reserved": 0, "is_disabled": 0, "fusion_lat": 0.0, "type": "electric_scooter", "name": "8f21617f32d781d080006ffcabbdb87f", "lat": 38.9223935, "bike_id": "8f21617f32d781d080006ffcabbdb87f"}, {"lon": -77.03006216666667, "rental_uris": {"android": "https://dc.lft.to/lastmile_qr_scan", "ios": "https://dc.lft.to/lastmile_qr_scan"}, "fusion_lon": 0.0, "is_reserved": 0, "is_disabled": 0, "fusion_lat": 0.0, "type": "electric_scooter", "name": "ea65e550a8b29ac4b511e95669abe13e", "lat": 38.9166725, "bike_id": "ea65e550a8b29ac4b511e95669abe13e"}, {"lon": -77.05761933333334, "rental_uris": {"android": "https://dc.lft.to/lastmile_qr_scan", "ios": "https://dc.lft.to/lastmile_qr_scan"}, "fusion_lon": 0.0, "is_reserved": 0, "is_disabled": 0, "fusion_lat": 0.0, "type": "electric_scooter", "name": "2b1d3a661da95548c07f33b2f5b4b520", "lat": 38.93371116666667, "bike_id": "2b1d3a661da95548c07f33b2f5b4b520"}, {"lon": -77.04999516666666, "rental_uris": {"android": "https://dc.lft.to/lastmile_qr_scan", "ios": "https://dc.lft.to/lastmile_qr_scan"}, "fusion_lon": 0.0, "is_reserved": 0, "is_disabled": 0, "fusion_lat": 0.0, "type": "electric_scooter", "name": "9f7cab976a36bbd28f8af052a9810c47", "lat": 38.89931816666667, "bike_id": "9f7cab976a36bbd28f8af052a9810c47"}, {"lon": -77.03393033333333, "rental_uris": {"android": "https://dc.lft.to/lastmile_qr_scan", "ios": "https://dc.lft.to/lastmile_qr_scan"}, "fusion_lon": 0.0, "is_reserved": 0, "is_disabled": 0, "fusion_lat": 0.0, "type": "electric_scooter", "name": "b177693017b0e3c92177f3876b5254d6", "lat": 38.91966383333333, "bike_id": "b177693017b0e3c92177f3876b5254d6"}, {"lon": -77.043633, "rental_uris": {"android": "https://dc.lft.to/lastmile_qr_scan", "ios": "https://dc.lft.to/lastmile_qr_scan"}, "fusion_lon": 0.0, "is_reserved": 0, "is_disabled": 0, "fusion_lat": 0.0, "type": "electric_scooter", "name": "29d203f15ec9ce53a80001ada9005f57", "lat": 38.90621866666667, "bike_id": "29d203f15ec9ce53a80001ada9005f57"}, {"lon": -76.93757166666667, "rental_uris": {"android": "https://dc.lft.to/lastmile_qr_scan", "ios": "https://dc.lft.to/lastmile_qr_scan"}, "fusion_lon": 0.0, "is_reserved": 0, "is_disabled": 0, "fusion_lat": 0.0, "type": "electric_scooter", "name": "e78ff61e02b044fd7aa922c052165ab1", "lat": 38.890464, "bike_id": "e78ff61e02b044fd7aa922c052165ab1"}, {"lon": -77.036749, "rental_uris": {"android": "https://dc.lft.to/lastmile_qr_scan", "ios": "https://dc.lft.to/lastmile_qr_scan"}, "fusion_lon": 0.0, "is_reserved": 0, "is_disabled": 0, "fusion_lat": 0.0, "type": "electric_scooter", "name": "4d9bb7cb2288f242dae69ffab731a299", "lat": 38.9038235, "bike_id": "4d9bb7cb2288f242dae69ffab731a299"}, {"lon": -76.9625765, "rental_uris": {"android": "https://dc.lft.to/lastmile_qr_scan", "ios": "https://dc.lft.to/lastmile_qr_scan"}, "fusion_lon": 0.0, "is_reserved": 0, "is_disabled": 0, "fusion_lat": 0.0, "type": "electric_scooter", "name": "2c2865f1d2b8cf630a059badfc4000c2", "lat": 38.878670666666665, "bike_id": "2c2865f1d2b8cf630a059badfc4000c2"}, {"lon": -77.03880133333334, "rental_uris": {"android": "https://dc.lft.to/lastmile_qr_scan", "ios": "https://dc.lft.to/lastmile_qr_scan"}, "fusion_lon": 0.0, "is_reserved": 0, "is_disabled": 0, "fusion_lat": 0.0, "type": "electric_scooter", "name": "dc88c119d68710f9c192483c9fed168a", "lat": 38.906203833333336, "bike_id": "dc88c119d68710f9c192483c9fed168a"}, {"lon": -77.00670133333334, "rental_uris": {"android": "https://dc.lft.to/lastmile_qr_scan", "ios": "https://dc.lft.to/lastmile_qr_scan"}, "fusion_lon": 0.0, "is_reserved": 0, "is_disabled": 0, "fusion_lat": 0.0, "type": "electric_scooter", "name": "98c244d93f07d2aadfec42435f6a2a12", "lat": 38.87684183333333, "bike_id": "98c244d93f07d2aadfec42435f6a2a12"}, {"lon": -77.029639, "rental_uris": {"android": "https://dc.lft.to/lastmile_qr_scan", "ios": "https://dc.lft.to/lastmile_qr_scan"}, "fusion_lon": 0.0, "is_reserved": 0, "is_disabled": 0, "fusion_lat": 0.0, "type": "electric_scooter", "name": "51d42472891dcd7cda0b3bdce78e7f79", "lat": 38.922816833333336, "bike_id": "51d42472891dcd7cda0b3bdce78e7f79"}, {"lon": -77.0488305, "rental_uris": {"android": "https://dc.lft.to/lastmile_qr_scan", "ios": "https://dc.lft.to/lastmile_qr_scan"}, "fusion_lon": 0.0, "is_reserved": 0, "is_disabled": 0, "fusion_lat": 0.0, "type": "electric_scooter", "name": "70add72a003e33de4814d17c8296208c", "lat": 38.905897333333336, "bike_id": "70add72a003e33de4814d17c8296208c"}, {"lon": -77.0265765, "rental_uris": {"android": "https://dc.lft.to/lastmile_qr_scan", "ios": "https://dc.lft.to/lastmile_qr_scan"}, "fusion_lon": 0.0, "is_reserved": 0, "is_disabled": 0, "fusion_lat": 0.0, "type": "electric_scooter", "name": "84aa6589f9b56fe4707d0231f1286ed8", "lat": 38.881145, "bike_id": "84aa6589f9b56fe4707d0231f1286ed8"}, {"lon": -77.04013883333333, "rental_uris": {"android": "https://dc.lft.to/lastmile_qr_scan", "ios": "https://dc.lft.to/lastmile_qr_scan"}, "fusion_lon": 0.0, "is_reserved": 0, "is_disabled": 0, "fusion_lat": 0.0, "type": "electric_scooter", "name": "dc07594a604b490f7c2b8aa638472564", "lat": 38.91800633333333, "bike_id": "dc07594a604b490f7c2b8aa638472564"}, {"lon": -76.98369683333334, "rental_uris": {"android": "https://dc.lft.to/lastmile_qr_scan", "ios": "https://dc.lft.to/lastmile_qr_scan"}, "fusion_lon": 0.0, "is_reserved": 0, "is_disabled": 0, "fusion_lat": 0.0, "type": "electric_scooter", "name": "0072c2a37b76ce025d61252ff0365fbf", "lat": 38.915025666666665, "bike_id": "0072c2a37b76ce025d61252ff0365fbf"}, {"lon": -77.00589266666667, "rental_uris": {"android": "https://dc.lft.to/lastmile_qr_scan", "ios": "https://dc.lft.to/lastmile_qr_scan"}, "fusion_lon": 0.0, "is_reserved": 0, "is_disabled": 0, "fusion_lat": 0.0, "type": "electric_scooter", "name": "67dc8c7e575d17b961c77aeb20bc19ff", "lat": 38.9056365, "bike_id": "67dc8c7e575d17b961c77aeb20bc19ff"}, {"lon": -77.04153466666666, "rental_uris": {"android": "https://dc.lft.to/lastmile_qr_scan", "ios": "https://dc.lft.to/lastmile_qr_scan"}, "fusion_lon": 0.0, "is_reserved": 0, "is_disabled": 0, "fusion_lat": 0.0, "type": "electric_scooter", "name": "df8066179ddc48cc8d1a41ee0d91f48f", "lat": 38.90372416666666, "bike_id": "df8066179ddc48cc8d1a41ee0d91f48f"}, {"lon": -76.99386916666667, "rental_uris": {"android": "https://dc.lft.to/lastmile_qr_scan", "ios": "https://dc.lft.to/lastmile_qr_scan"}, "fusion_lon": 0.0, "is_reserved": 0, "is_disabled": 0, "fusion_lat": 0.0, "type": "electric_scooter", "name": "154556c1af2952182eb88eb2bafc6094", "lat": 38.893389, "bike_id": "154556c1af2952182eb88eb2bafc6094"}, {"lon": -77.022389, "rental_uris": {"android": "https://dc.lft.to/lastmile_qr_scan", "ios": "https://dc.lft.to/lastmile_qr_scan"}, "fusion_lon": 0.0, "is_reserved": 0, "is_disabled": 0, "fusion_lat": 0.0, "type": "electric_scooter", "name": "4091ac65c3a74903c25e0bd51c5139fa", "lat": 38.887671, "bike_id": "4091ac65c3a74903c25e0bd51c5139fa"}, {"lon": -77.05565016666667, "rental_uris": {"android": "https://dc.lft.to/lastmile_qr_scan", "ios": "https://dc.lft.to/lastmile_qr_scan"}, "fusion_lon": 0.0, "is_reserved": 0, "is_disabled": 0, "fusion_lat": 0.0, "type": "electric_scooter", "name": "5e957dd063ba71a46d10dbf6dd9a9c19", "lat": 38.930304166666666, "bike_id": "5e957dd063ba71a46d10dbf6dd9a9c19"}, {"lon": -77.03333966666666, "rental_uris": {"android": "https://dc.lft.to/lastmile_qr_scan", "ios": "https://dc.lft.to/lastmile_qr_scan"}, "fusion_lon": 0.0, "is_reserved": 0, "is_disabled": 0, "fusion_lat": 0.0, "type": "electric_bike", "name": "71b8e5a3c9e25229dc8ee00ab9e7700e", "lat": 38.961349, "bike_id": "71b8e5a3c9e25229dc8ee00ab9e7700e"}, {"lon": -77.048398, "rental_uris": {"android": "https://dc.lft.to/lastmile_qr_scan", "ios": "https://dc.lft.to/lastmile_qr_scan"}, "fusion_lon": 0.0, "is_reserved": 0, "is_disabled": 0, "fusion_lat": 0.0, "type": "electric_scooter", "name": "868c82bb88ff4356dd7fa90d588af494", "lat": 38.9095865, "bike_id": "868c82bb88ff4356dd7fa90d588af494"}, {"lon": -77.03827183333334, "rental_uris": {"android": "https://dc.lft.to/lastmile_qr_scan", "ios": "https://dc.lft.to/lastmile_qr_scan"}, "fusion_lon": 0.0, "is_reserved": 0, "is_disabled": 0, "fusion_lat": 0.0, "type": "electric_scooter", "name": "fd63a1b204bd77c7f53182bbea475c31", "lat": 38.907765, "bike_id": "fd63a1b204bd77c7f53182bbea475c31"}, {"lon": -77.04329516666667, "rental_uris": {"android": "https://dc.lft.to/lastmile_qr_scan", "ios": "https://dc.lft.to/lastmile_qr_scan"}, "fusion_lon": 0.0, "is_reserved": 0, "is_disabled": 0, "fusion_lat": 0.0, "type": "electric_scooter", "name": "c8e1887b1387646d5b84e278ccfce95d", "lat": 38.89222433333333, "bike_id": "c8e1887b1387646d5b84e278ccfce95d"}, {"lon": -76.986028, "rental_uris": {"android": "https://dc.lft.to/lastmile_qr_scan", "ios": "https://dc.lft.to/lastmile_qr_scan"}, "fusion_lon": 0.0, "is_reserved": 0, "is_disabled": 0, "fusion_lat": 0.0, "type": "electric_scooter", "name": "19029fe5c511243eaabc7694ebb69276", "lat": 38.89475016666667, "bike_id": "19029fe5c511243eaabc7694ebb69276"}, {"lon": -77.02197516666666, "rental_uris": {"android": "https://dc.lft.to/lastmile_qr_scan", "ios": "https://dc.lft.to/lastmile_qr_scan"}, "fusion_lon": 0.0, "is_reserved": 0, "is_disabled": 0, "fusion_lat": 0.0, "type": "electric_scooter", "name": "74f73beed9ff9f75f0630c383758b0fc", "lat": 38.919931, "bike_id": "74f73beed9ff9f75f0630c383758b0fc"}, {"lon": -77.03352766666667, "rental_uris": {"android": "https://dc.lft.to/lastmile_qr_scan", "ios": "https://dc.lft.to/lastmile_qr_scan"}, "fusion_lon": 0.0, "is_reserved": 0, "is_disabled": 0, "fusion_lat": 0.0, "type": "electric_scooter", "name": "e61e24cc1314a9e072d885b9526f2d6c", "lat": 38.9024065, "bike_id": "e61e24cc1314a9e072d885b9526f2d6c"}, {"lon": -77.0365855, "rental_uris": {"android": "https://dc.lft.to/lastmile_qr_scan", "ios": "https://dc.lft.to/lastmile_qr_scan"}, "fusion_lon": 0.0, "is_reserved": 0, "is_disabled": 0, "fusion_lat": 0.0, "type": "electric_scooter", "name": "3a553f54ea3fc79c610c9e26ee50e996", "lat": 38.922832, "bike_id": "3a553f54ea3fc79c610c9e26ee50e996"}, {"lon": -77.0450485, "rental_uris": {"android": "https://dc.lft.to/lastmile_qr_scan", "ios": "https://dc.lft.to/lastmile_qr_scan"}, "fusion_lon": 0.0, "is_reserved": 0, "is_disabled": 0, "fusion_lat": 0.0, "type": "electric_scooter", "name": "0df0b9e8c19277fe2b6dbe03295f3542", "lat": 38.9060705, "bike_id": "0df0b9e8c19277fe2b6dbe03295f3542"}, {"lon": -77.005816, "rental_uris": {"android": "https://dc.lft.to/lastmile_qr_scan", "ios": "https://dc.lft.to/lastmile_qr_scan"}, "fusion_lon": 0.0, "is_reserved": 0, "is_disabled": 0, "fusion_lat": 0.0, "type": "electric_scooter", "name": "5f563ce4deffe384fd553e19104ce373", "lat": 38.872343666666666, "bike_id": "5f563ce4deffe384fd553e19104ce373"}, {"lon": -77.0253565, "rental_uris": {"android": "https://dc.lft.to/lastmile_qr_scan", "ios": "https://dc.lft.to/lastmile_qr_scan"}, "fusion_lon": 0.0, "is_reserved": 0, "is_disabled": 0, "fusion_lat": 0.0, "type": "electric_scooter", "name": "ab68f440404bc25bb38c4d3f48e4c183", "lat": 38.93091533333333, "bike_id": "ab68f440404bc25bb38c4d3f48e4c183"}, {"lon": -77.0184905, "rental_uris": {"android": "https://dc.lft.to/lastmile_qr_scan", "ios": "https://dc.lft.to/lastmile_qr_scan"}, "fusion_lon": 0.0, "is_reserved": 0, "is_disabled": 0, "fusion_lat": 0.0, "type": "electric_scooter", "name": "3acbc2a1f0fd6c5c2c6c54463ea107e5", "lat": 38.95430483333333, "bike_id": "3acbc2a1f0fd6c5c2c6c54463ea107e5"}, {"lon": -77.07793166666667, "rental_uris": {"android": "https://dc.lft.to/lastmile_qr_scan", "ios": "https://dc.lft.to/lastmile_qr_scan"}, "fusion_lon": 0.0, "is_reserved": 0, "is_disabled": 0, "fusion_lat": 0.0, "type": "electric_bike", "name": "f62905ebbbfd1851cdd14351cca4e452", "lat": 38.994921166666664, "bike_id": "f62905ebbbfd1851cdd14351cca4e452"}, {"lon": -77.04344916666666, "rental_uris": {"android": "https://dc.lft.to/lastmile_qr_scan", "ios": "https://dc.lft.to/lastmile_qr_scan"}, "fusion_lon": 0.0, "is_reserved": 0, "is_disabled": 0, "fusion_lat": 0.0, "type": "electric_scooter", "name": "5c119fd12819c9a696b1148d0938ef01", "lat": 38.92148133333333, "bike_id": "5c119fd12819c9a696b1148d0938ef01"}, {"lon": -77.03876733333334, "rental_uris": {"android": "https://dc.lft.to/lastmile_qr_scan", "ios": "https://dc.lft.to/lastmile_qr_scan"}, "fusion_lon": 0.0, "is_reserved": 0, "is_disabled": 0, "fusion_lat": 0.0, "type": "electric_scooter", "name": "7c028e4398977449c63ed5530cc6f7b3", "lat": 38.90282083333334, "bike_id": "7c028e4398977449c63ed5530cc6f7b3"}, {"lon": -77.04256416666666, "rental_uris": {"android": "https://dc.lft.to/lastmile_qr_scan", "ios": "https://dc.lft.to/lastmile_qr_scan"}, "fusion_lon": 0.0, "is_reserved": 0, "is_disabled": 0, "fusion_lat": 0.0, "type": "electric_scooter", "name": "e7d9bbbe5fb1ec1ebb14678761653693", "lat": 38.92364366666666, "bike_id": "e7d9bbbe5fb1ec1ebb14678761653693"}, {"lon": -77.02634183333333, "rental_uris": {"android": "https://dc.lft.to/lastmile_qr_scan", "ios": "https://dc.lft.to/lastmile_qr_scan"}, "fusion_lon": 0.0, "is_reserved": 0, "is_disabled": 0, "fusion_lat": 0.0, "type": "electric_scooter", "name": "0e4763edb541e7ff1d009ce5bd9c0393", "lat": 38.9410535, "bike_id": "0e4763edb541e7ff1d009ce5bd9c0393"}, {"lon": -77.04121416666666, "rental_uris": {"android": "https://dc.lft.to/lastmile_qr_scan", "ios": "https://dc.lft.to/lastmile_qr_scan"}, "fusion_lon": 0.0, "is_reserved": 0, "is_disabled": 0, "fusion_lat": 0.0, "type": "electric_scooter", "name": "615d79462ff569206026618d87f8d9bc", "lat": 38.898534833333336, "bike_id": "615d79462ff569206026618d87f8d9bc"}, {"lon": -77.02002933333333, "rental_uris": {"android": "https://dc.lft.to/lastmile_qr_scan", "ios": "https://dc.lft.to/lastmile_qr_scan"}, "fusion_lon": 0.0, "is_reserved": 0, "is_disabled": 0, "fusion_lat": 0.0, "type": "electric_scooter", "name": "0f8d1e1c0d440f5bbde2bba6d674821d", "lat": 38.92413116666667, "bike_id": "0f8d1e1c0d440f5bbde2bba6d674821d"}, {"lon": -76.96914166666667, "rental_uris": {"android": "https://dc.lft.to/lastmile_qr_scan", "ios": "https://dc.lft.to/lastmile_qr_scan"}, "fusion_lon": 0.0, "is_reserved": 0, "is_disabled": 0, "fusion_lat": 0.0, "type": "electric_bike", "name": "640b706f81d42aedd3eda5b5326f7617", "lat": 38.84606633333333, "bike_id": "640b706f81d42aedd3eda5b5326f7617"}, {"lon": -77.02091416666667, "rental_uris": {"android": "https://dc.lft.to/lastmile_qr_scan", "ios": "https://dc.lft.to/lastmile_qr_scan"}, "fusion_lon": 0.0, "is_reserved": 0, "is_disabled": 0, "fusion_lat": 0.0, "type": "electric_scooter", "name": "4bf0b154e1c8f33333105166536d910e", "lat": 38.894101666666664, "bike_id": "4bf0b154e1c8f33333105166536d910e"}, {"lon": -76.99534633333333, "rental_uris": {"android": "https://dc.lft.to/lastmile_qr_scan", "ios": "https://dc.lft.to/lastmile_qr_scan"}, "fusion_lon": 0.0, "is_reserved": 0, "is_disabled": 0, "fusion_lat": 0.0, "type": "electric_scooter", "name": "356d6de70635c9c14bfcfd3162729da8", "lat": 38.8626685, "bike_id": "356d6de70635c9c14bfcfd3162729da8"}, {"lon": -77.00273733333333, "rental_uris": {"android": "https://dc.lft.to/lastmile_qr_scan", "ios": "https://dc.lft.to/lastmile_qr_scan"}, "fusion_lon": 0.0, "is_reserved": 0, "is_disabled": 0, "fusion_lat": 0.0, "type": "electric_scooter", "name": "b66da21e775efdb90a5015301a0053cb", "lat": 38.908621, "bike_id": "b66da21e775efdb90a5015301a0053cb"}, {"lon": -77.03169883333334, "rental_uris": {"android": "https://dc.lft.to/lastmile_qr_scan", "ios": "https://dc.lft.to/lastmile_qr_scan"}, "fusion_lon": 0.0, "is_reserved": 0, "is_disabled": 0, "fusion_lat": 0.0, "type": "electric_scooter", "name": "33d9c08a3d97bff96a47c79c16719c4c", "lat": 38.917751833333334, "bike_id": "33d9c08a3d97bff96a47c79c16719c4c"}, {"lon": -77.03213116666667, "rental_uris": {"android": "https://dc.lft.to/lastmile_qr_scan", "ios": "https://dc.lft.to/lastmile_qr_scan"}, "fusion_lon": 0.0, "is_reserved": 0, "is_disabled": 0, "fusion_lat": 0.0, "type": "electric_scooter", "name": "6d416a0d233a0ef7a616050d9c4707a8", "lat": 38.90852833333334, "bike_id": "6d416a0d233a0ef7a616050d9c4707a8"}, {"lon": -77.04486, "rental_uris": {"android": "https://dc.lft.to/lastmile_qr_scan", "ios": "https://dc.lft.to/lastmile_qr_scan"}, "fusion_lon": 0.0, "is_reserved": 0, "is_disabled": 0, "fusion_lat": 0.0, "type": "electric_scooter", "name": "80c00802c25e46d21a7471d238d784de", "lat": 38.89234783333333, "bike_id": "80c00802c25e46d21a7471d238d784de"}, {"lon": -77.05738933333333, "rental_uris": {"android": "https://dc.lft.to/lastmile_qr_scan", "ios": "https://dc.lft.to/lastmile_qr_scan"}, "fusion_lon": 0.0, "is_reserved": 0, "is_disabled": 0, "fusion_lat": 0.0, "type": "electric_scooter", "name": "6969739b0d8171958443a5cd1ac1b4a5", "lat": 38.934002166666666, "bike_id": "6969739b0d8171958443a5cd1ac1b4a5"}, {"lon": -77.02253583333334, "rental_uris": {"android": "https://dc.lft.to/lastmile_qr_scan", "ios": "https://dc.lft.to/lastmile_qr_scan"}, "fusion_lon": 0.0, "is_reserved": 0, "is_disabled": 0, "fusion_lat": 0.0, "type": "electric_scooter", "name": "a25d8f6036954ac441c929b5793443c2", "lat": 38.91363116666667, "bike_id": "a25d8f6036954ac441c929b5793443c2"}, {"lon": -77.02749933333334, "rental_uris": {"android": "https://dc.lft.to/lastmile_qr_scan", "ios": "https://dc.lft.to/lastmile_qr_scan"}, "fusion_lon": 0.0, "is_reserved": 0, "is_disabled": 0, "fusion_lat": 0.0, "type": "electric_scooter", "name": "c59316fa476204e64313235938db6ea7", "lat": 38.966113666666665, "bike_id": "c59316fa476204e64313235938db6ea7"}, {"lon": -77.05743833333334, "rental_uris": {"android": "https://dc.lft.to/lastmile_qr_scan", "ios": "https://dc.lft.to/lastmile_qr_scan"}, "fusion_lon": 0.0, "is_reserved": 0, "is_disabled": 0, "fusion_lat": 0.0, "type": "electric_scooter", "name": "96164fd3475ea759ff5fe744259b8a7f", "lat": 38.93396716666667, "bike_id": "96164fd3475ea759ff5fe744259b8a7f"}, {"lon": -77.03936216666666, "rental_uris": {"android": "https://dc.lft.to/lastmile_qr_scan", "ios": "https://dc.lft.to/lastmile_qr_scan"}, "fusion_lon": 0.0, "is_reserved": 0, "is_disabled": 0, "fusion_lat": 0.0, "type": "electric_scooter", "name": "6835653b1d0afb28df0f83c1b4dceba7", "lat": 38.914138, "bike_id": "6835653b1d0afb28df0f83c1b4dceba7"}, {"lon": -77.028063, "rental_uris": {"android": "https://dc.lft.to/lastmile_qr_scan", "ios": "https://dc.lft.to/lastmile_qr_scan"}, "fusion_lon": 0.0, "is_reserved": 0, "is_disabled": 0, "fusion_lat": 0.0, "type": "electric_scooter", "name": "b4cc47a7aeb38687aaa0e837659718f7", "lat": 38.916653, "bike_id": "b4cc47a7aeb38687aaa0e837659718f7"}, {"lon": -77.03127933333333, "rental_uris": {"android": "https://dc.lft.to/lastmile_qr_scan", "ios": "https://dc.lft.to/lastmile_qr_scan"}, "fusion_lon": 0.0, "is_reserved": 0, "is_disabled": 0, "fusion_lat": 0.0, "type": "electric_scooter", "name": "15cb7c518f8a10cbf9b4a18a28832ca0", "lat": 38.92024933333333, "bike_id": "15cb7c518f8a10cbf9b4a18a28832ca0"}, {"lon": -77.04274966666667, "rental_uris": {"android": "https://dc.lft.to/lastmile_qr_scan", "ios": "https://dc.lft.to/lastmile_qr_scan"}, "fusion_lon": 0.0, "is_reserved": 0, "is_disabled": 0, "fusion_lat": 0.0, "type": "electric_scooter", "name": "8db28771ccf7850713e6c93a5f2d2e28", "lat": 38.90567083333333, "bike_id": "8db28771ccf7850713e6c93a5f2d2e28"}, {"lon": -76.99888916666667, "rental_uris": {"android": "https://dc.lft.to/lastmile_qr_scan", "ios": "https://dc.lft.to/lastmile_qr_scan"}, "fusion_lon": 0.0, "is_reserved": 0, "is_disabled": 0, "fusion_lat": 0.0, "type": "electric_scooter", "name": "f4d140fa220eba4fed927e63e60a041e", "lat": 38.8960215, "bike_id": "f4d140fa220eba4fed927e63e60a041e"}, {"lon": -77.00336816666666, "rental_uris": {"android": "https://dc.lft.to/lastmile_qr_scan", "ios": "https://dc.lft.to/lastmile_qr_scan"}, "fusion_lon": 0.0, "is_reserved": 0, "is_disabled": 0, "fusion_lat": 0.0, "type": "electric_scooter", "name": "e78c38f0bc2b5572da212fd442b22510", "lat": 38.89354316666667, "bike_id": "e78c38f0bc2b5572da212fd442b22510"}, {"lon": -76.9870755, "rental_uris": {"android": "https://dc.lft.to/lastmile_qr_scan", "ios": "https://dc.lft.to/lastmile_qr_scan"}, "fusion_lon": 0.0, "is_reserved": 0, "is_disabled": 0, "fusion_lat": 0.0, "type": "electric_scooter", "name": "26d88a0eb56438ff9291f2bf6e266580", "lat": 38.865373166666664, "bike_id": "26d88a0eb56438ff9291f2bf6e266580"}, {"lon": -77.02444816666667, "rental_uris": {"android": "https://dc.lft.to/lastmile_qr_scan", "ios": "https://dc.lft.to/lastmile_qr_scan"}, "fusion_lon": 0.0, "is_reserved": 0, "is_disabled": 0, "fusion_lat": 0.0, "type": "electric_scooter", "name": "428afbdd6df79310e200b08ac00d7ca4", "lat": 38.899634, "bike_id": "428afbdd6df79310e200b08ac00d7ca4"}, {"lon": -77.02601316666667, "rental_uris": {"android": "https://dc.lft.to/lastmile_qr_scan", "ios": "https://dc.lft.to/lastmile_qr_scan"}, "fusion_lon": 0.0, "is_reserved": 0, "is_disabled": 0, "fusion_lat": 0.0, "type": "electric_scooter", "name": "86d262759536cc74296f52125f7863ab", "lat": 38.916878833333335, "bike_id": "86d262759536cc74296f52125f7863ab"}, {"lon": -77.02996733333333, "rental_uris": {"android": "https://dc.lft.to/lastmile_qr_scan", "ios": "https://dc.lft.to/lastmile_qr_scan"}, "fusion_lon": 0.0, "is_reserved": 0, "is_disabled": 0, "fusion_lat": 0.0, "type": "electric_scooter", "name": "b3889cd4a989bce15a45699e2b4563cf", "lat": 38.90514683333333, "bike_id": "b3889cd4a989bce15a45699e2b4563cf"}, {"lon": -77.02205883333333, "rental_uris": {"android": "https://dc.lft.to/lastmile_qr_scan", "ios": "https://dc.lft.to/lastmile_qr_scan"}, "fusion_lon": 0.0, "is_reserved": 0, "is_disabled": 0, "fusion_lat": 0.0, "type": "electric_scooter", "name": "8a31d4806a3608b626f25c7402e7ccb2", "lat": 38.885962166666665, "bike_id": "8a31d4806a3608b626f25c7402e7ccb2"}, {"lon": -77.00560666666667, "rental_uris": {"android": "https://dc.lft.to/lastmile_qr_scan", "ios": "https://dc.lft.to/lastmile_qr_scan"}, "fusion_lon": 0.0, "is_reserved": 0, "is_disabled": 0, "fusion_lat": 0.0, "type": "electric_scooter", "name": "ea853fe4beb5802670eaa148358f7483", "lat": 38.87562533333333, "bike_id": "ea853fe4beb5802670eaa148358f7483"}, {"lon": -77.03246983333334, "rental_uris": {"android": "https://dc.lft.to/lastmile_qr_scan", "ios": "https://dc.lft.to/lastmile_qr_scan"}, "fusion_lon": 0.0, "is_reserved": 0, "is_disabled": 0, "fusion_lat": 0.0, "type": "electric_scooter", "name": "61dd8ebf0cb1deeb89f33153f664c0a4", "lat": 38.929343833333334, "bike_id": "61dd8ebf0cb1deeb89f33153f664c0a4"}, {"lon": -77.02732366666666, "rental_uris": {"android": "https://dc.lft.to/lastmile_qr_scan", "ios": "https://dc.lft.to/lastmile_qr_scan"}, "fusion_lon": 0.0, "is_reserved": 0, "is_disabled": 0, "fusion_lat": 0.0, "type": "electric_scooter", "name": "1b448b78eca6246ebb5dfa6fc52a98b9", "lat": 38.89858, "bike_id": "1b448b78eca6246ebb5dfa6fc52a98b9"}, {"lon": -76.9984525, "rental_uris": {"android": "https://dc.lft.to/lastmile_qr_scan", "ios": "https://dc.lft.to/lastmile_qr_scan"}, "fusion_lon": 0.0, "is_reserved": 0, "is_disabled": 0, "fusion_lat": 0.0, "type": "electric_scooter", "name": "584bd5ca344ffe54d079907514ffd8e5", "lat": 38.83955383333333, "bike_id": "584bd5ca344ffe54d079907514ffd8e5"}, {"lon": -77.04628783333334, "rental_uris": {"android": "https://dc.lft.to/lastmile_qr_scan", "ios": "https://dc.lft.to/lastmile_qr_scan"}, "fusion_lon": 0.0, "is_reserved": 0, "is_disabled": 0, "fusion_lat": 0.0, "type": "electric_scooter", "name": "c7d875584ab0870c5cf9875e5b86b3e9", "lat": 38.906394166666665, "bike_id": "c7d875584ab0870c5cf9875e5b86b3e9"}, {"lon": -77.04550566666667, "rental_uris": {"android": "https://dc.lft.to/lastmile_qr_scan", "ios": "https://dc.lft.to/lastmile_qr_scan"}, "fusion_lon": 0.0, "is_reserved": 0, "is_disabled": 0, "fusion_lat": 0.0, "type": "electric_scooter", "name": "f15d60ff42472e0668c6777f7400c040", "lat": 38.911076666666666, "bike_id": "f15d60ff42472e0668c6777f7400c040"}, {"lon": -77.0324285, "rental_uris": {"android": "https://dc.lft.to/lastmile_qr_scan", "ios": "https://dc.lft.to/lastmile_qr_scan"}, "fusion_lon": 0.0, "is_reserved": 0, "is_disabled": 0, "fusion_lat": 0.0, "type": "electric_scooter", "name": "93224926229f439fd2122f2c908123cb", "lat": 38.90553833333333, "bike_id": "93224926229f439fd2122f2c908123cb"}, {"lon": -77.00913616666666, "rental_uris": {"android": "https://dc.lft.to/lastmile_qr_scan", "ios": "https://dc.lft.to/lastmile_qr_scan"}, "fusion_lon": 0.0, "is_reserved": 0, "is_disabled": 0, "fusion_lat": 0.0, "type": "electric_scooter", "name": "a80f24b3b7075690a2d0aaeeb69a1136", "lat": 38.896427333333335, "bike_id": "a80f24b3b7075690a2d0aaeeb69a1136"}, {"lon": -77.04661, "rental_uris": {"android": "https://dc.lft.to/lastmile_qr_scan", "ios": "https://dc.lft.to/lastmile_qr_scan"}, "fusion_lon": 0.0, "is_reserved": 0, "is_disabled": 0, "fusion_lat": 0.0, "type": "electric_scooter", "name": "630c9db64c6406c19bb0e1ea6a616b72", "lat": 38.892293333333335, "bike_id": "630c9db64c6406c19bb0e1ea6a616b72"}, {"lon": -77.00059533333334, "rental_uris": {"android": "https://dc.lft.to/lastmile_qr_scan", "ios": "https://dc.lft.to/lastmile_qr_scan"}, "fusion_lon": 0.0, "is_reserved": 0, "is_disabled": 0, "fusion_lat": 0.0, "type": "electric_scooter", "name": "a7f3ecf24fe723c29ca87298bfdf849a", "lat": 38.873684833333336, "bike_id": "a7f3ecf24fe723c29ca87298bfdf849a"}, {"lon": -77.05181983333334, "rental_uris": {"android": "https://dc.lft.to/lastmile_qr_scan", "ios": "https://dc.lft.to/lastmile_qr_scan"}, "fusion_lon": 0.0, "is_reserved": 0, "is_disabled": 0, "fusion_lat": 0.0, "type": "electric_scooter", "name": "4410d291e6d10588cbd93908dbf50ab9", "lat": 38.92344416666667, "bike_id": "4410d291e6d10588cbd93908dbf50ab9"}, {"lon": -77.0253775, "rental_uris": {"android": "https://dc.lft.to/lastmile_qr_scan", "ios": "https://dc.lft.to/lastmile_qr_scan"}, "fusion_lon": 0.0, "is_reserved": 0, "is_disabled": 0, "fusion_lat": 0.0, "type": "electric_scooter", "name": "e95f8302508c334a539a89a66d845be2", "lat": 38.94087416666667, "bike_id": "e95f8302508c334a539a89a66d845be2"}, {"lon": -77.02562583333334, "rental_uris": {"android": "https://dc.lft.to/lastmile_qr_scan", "ios": "https://dc.lft.to/lastmile_qr_scan"}, "fusion_lon": 0.0, "is_reserved": 0, "is_disabled": 0, "fusion_lat": 0.0, "type": "electric_scooter", "name": "bbc0bc709a426b27fd697d85fb3382a3", "lat": 38.884140333333335, "bike_id": "bbc0bc709a426b27fd697d85fb3382a3"}, {"lon": -77.0385195, "rental_uris": {"android": "https://dc.lft.to/lastmile_qr_scan", "ios": "https://dc.lft.to/lastmile_qr_scan"}, "fusion_lon": 0.0, "is_reserved": 0, "is_disabled": 0, "fusion_lat": 0.0, "type": "electric_scooter", "name": "2b6f4fbb17a160e77a9e8a350f555526", "lat": 38.90643383333333, "bike_id": "2b6f4fbb17a160e77a9e8a350f555526"}, {"lon": -76.99084283333333, "rental_uris": {"android": "https://dc.lft.to/lastmile_qr_scan", "ios": "https://dc.lft.to/lastmile_qr_scan"}, "fusion_lon": 0.0, "is_reserved": 0, "is_disabled": 0, "fusion_lat": 0.0, "type": "electric_bike", "name": "195b3244d09c1f429359059427e59c80", "lat": 38.942613, "bike_id": "195b3244d09c1f429359059427e59c80"}, {"lon": -77.02969166666666, "rental_uris": {"android": "https://dc.lft.to/lastmile_qr_scan", "ios": "https://dc.lft.to/lastmile_qr_scan"}, "fusion_lon": 0.0, "is_reserved": 0, "is_disabled": 0, "fusion_lat": 0.0, "type": "electric_scooter", "name": "fb66f23f113a9c20411773328f76eaf2", "lat": 38.916814333333335, "bike_id": "fb66f23f113a9c20411773328f76eaf2"}, {"lon": -76.97282866666667, "rental_uris": {"android": "https://dc.lft.to/lastmile_qr_scan", "ios": "https://dc.lft.to/lastmile_qr_scan"}, "fusion_lon": 0.0, "is_reserved": 0, "is_disabled": 0, "fusion_lat": 0.0, "type": "electric_scooter", "name": "63a69cf29b5674a64b725310c8499a48", "lat": 38.9171945, "bike_id": "63a69cf29b5674a64b725310c8499a48"}, {"lon": -77.04857916666667, "rental_uris": {"android": "https://dc.lft.to/lastmile_qr_scan", "ios": "https://dc.lft.to/lastmile_qr_scan"}, "fusion_lon": 0.0, "is_reserved": 0, "is_disabled": 0, "fusion_lat": 0.0, "type": "electric_scooter", "name": "3a1a468d7016610c6d63b68c92d953f3", "lat": 38.90465733333333, "bike_id": "3a1a468d7016610c6d63b68c92d953f3"}, {"lon": -77.04176083333333, "rental_uris": {"android": "https://dc.lft.to/lastmile_qr_scan", "ios": "https://dc.lft.to/lastmile_qr_scan"}, "fusion_lon": 0.0, "is_reserved": 0, "is_disabled": 0, "fusion_lat": 0.0, "type": "electric_scooter", "name": "2dce378196c6fa152fd52a5308b728cd", "lat": 38.90532783333333, "bike_id": "2dce378196c6fa152fd52a5308b728cd"}, {"lon": -77.04411133333333, "rental_uris": {"android": "https://dc.lft.to/lastmile_qr_scan", "ios": "https://dc.lft.to/lastmile_qr_scan"}, "fusion_lon": 0.0, "is_reserved": 0, "is_disabled": 0, "fusion_lat": 0.0, "type": "electric_scooter", "name": "5c0bd7301d43d0313035e7a3c2dc080a", "lat": 38.920198666666664, "bike_id": "5c0bd7301d43d0313035e7a3c2dc080a"}, {"lon": -77.1177575, "rental_uris": {"android": "https://dc.lft.to/lastmile_qr_scan", "ios": "https://dc.lft.to/lastmile_qr_scan"}, "fusion_lon": 0.0, "is_reserved": 0, "is_disabled": 0, "fusion_lat": 0.0, "type": "electric_bike", "name": "5a434d901d74d245d01d6a513e2f7d13", "lat": 38.81253316666667, "bike_id": "5a434d901d74d245d01d6a513e2f7d13"}, {"lon": -77.041829, "rental_uris": {"android": "https://dc.lft.to/lastmile_qr_scan", "ios": "https://dc.lft.to/lastmile_qr_scan"}, "fusion_lon": 0.0, "is_reserved": 0, "is_disabled": 0, "fusion_lat": 0.0, "type": "electric_scooter", "name": "93d5bd14e789747635adaad8e8927fff", "lat": 38.911336, "bike_id": "93d5bd14e789747635adaad8e8927fff"}, {"lon": -77.01777683333333, "rental_uris": {"android": "https://dc.lft.to/lastmile_qr_scan", "ios": "https://dc.lft.to/lastmile_qr_scan"}, "fusion_lon": 0.0, "is_reserved": 0, "is_disabled": 0, "fusion_lat": 0.0, "type": "electric_scooter", "name": "d011dbea47314db626ab026bcc81ecf6", "lat": 38.9211275, "bike_id": "d011dbea47314db626ab026bcc81ecf6"}, {"lon": -76.97012116666667, "rental_uris": {"android": "https://dc.lft.to/lastmile_qr_scan", "ios": "https://dc.lft.to/lastmile_qr_scan"}, "fusion_lon": 0.0, "is_reserved": 0, "is_disabled": 0, "fusion_lat": 0.0, "type": "electric_bike", "name": "49dd9ee8b08762b3c07963f58e034512", "lat": 38.86365583333333, "bike_id": "49dd9ee8b08762b3c07963f58e034512"}, {"lon": -77.006869, "rental_uris": {"android": "https://dc.lft.to/lastmile_qr_scan", "ios": "https://dc.lft.to/lastmile_qr_scan"}, "fusion_lon": 0.0, "is_reserved": 0, "is_disabled": 0, "fusion_lat": 0.0, "type": "electric_scooter", "name": "627c6f044db19083db724360a678d4f7", "lat": 38.8713975, "bike_id": "627c6f044db19083db724360a678d4f7"}, {"lon": -77.03745516666666, "rental_uris": {"android": "https://dc.lft.to/lastmile_qr_scan", "ios": "https://dc.lft.to/lastmile_qr_scan"}, "fusion_lon": 0.0, "is_reserved": 0, "is_disabled": 0, "fusion_lat": 0.0, "type": "electric_scooter", "name": "b42a364636ac2d1ff2b86c7b6688a031", "lat": 38.9076265, "bike_id": "b42a364636ac2d1ff2b86c7b6688a031"}, {"lon": -77.03416333333334, "rental_uris": {"android": "https://dc.lft.to/lastmile_qr_scan", "ios": "https://dc.lft.to/lastmile_qr_scan"}, "fusion_lon": 0.0, "is_reserved": 0, "is_disabled": 0, "fusion_lat": 0.0, "type": "electric_scooter", "name": "835be026098a164ec0bb3c18f1ab95d4", "lat": 38.90255533333333, "bike_id": "835be026098a164ec0bb3c18f1ab95d4"}, {"lon": -77.04243666666666, "rental_uris": {"android": "https://dc.lft.to/lastmile_qr_scan", "ios": "https://dc.lft.to/lastmile_qr_scan"}, "fusion_lon": 0.0, "is_reserved": 0, "is_disabled": 0, "fusion_lat": 0.0, "type": "electric_scooter", "name": "f915c70f9eccf7ed197bf6f633946016", "lat": 38.92427466666667, "bike_id": "f915c70f9eccf7ed197bf6f633946016"}, {"lon": -77.04195833333333, "rental_uris": {"android": "https://dc.lft.to/lastmile_qr_scan", "ios": "https://dc.lft.to/lastmile_qr_scan"}, "fusion_lon": 0.0, "is_reserved": 0, "is_disabled": 0, "fusion_lat": 0.0, "type": "electric_scooter", "name": "3891617f218072300aaac0651a375912", "lat": 38.926201166666665, "bike_id": "3891617f218072300aaac0651a375912"}, {"lon": -76.98370583333333, "rental_uris": {"android": "https://dc.lft.to/lastmile_qr_scan", "ios": "https://dc.lft.to/lastmile_qr_scan"}, "fusion_lon": 0.0, "is_reserved": 0, "is_disabled": 0, "fusion_lat": 0.0, "type": "electric_scooter", "name": "1939e1d106889462faa32ca8fabe2b44", "lat": 38.9154425, "bike_id": "1939e1d106889462faa32ca8fabe2b44"}, {"lon": -77.04504, "rental_uris": {"android": "https://dc.lft.to/lastmile_qr_scan", "ios": "https://dc.lft.to/lastmile_qr_scan"}, "fusion_lon": 0.0, "is_reserved": 0, "is_disabled": 0, "fusion_lat": 0.0, "type": "electric_scooter", "name": "b4415ef6bf6e653083cfc4c09aadcdac", "lat": 38.90556983333333, "bike_id": "b4415ef6bf6e653083cfc4c09aadcdac"}, {"lon": -77.02206816666667, "rental_uris": {"android": "https://dc.lft.to/lastmile_qr_scan", "ios": "https://dc.lft.to/lastmile_qr_scan"}, "fusion_lon": 0.0, "is_reserved": 0, "is_disabled": 0, "fusion_lat": 0.0, "type": "electric_scooter", "name": "a4d63fc349d3ce2572157b26c5e4ade8", "lat": 38.88716, "bike_id": "a4d63fc349d3ce2572157b26c5e4ade8"}, {"lon": -77.01516433333333, "rental_uris": {"android": "https://dc.lft.to/lastmile_qr_scan", "ios": "https://dc.lft.to/lastmile_qr_scan"}, "fusion_lon": 0.0, "is_reserved": 0, "is_disabled": 0, "fusion_lat": 0.0, "type": "electric_scooter", "name": "aaffbcbc1651230adcf85b550e37a060", "lat": 38.926704666666666, "bike_id": "aaffbcbc1651230adcf85b550e37a060"}, {"lon": -76.93392766666666, "rental_uris": {"android": "https://dc.lft.to/lastmile_qr_scan", "ios": "https://dc.lft.to/lastmile_qr_scan"}, "fusion_lon": 0.0, "is_reserved": 0, "is_disabled": 0, "fusion_lat": 0.0, "type": "electric_scooter", "name": "496860c642bdda0927db629cc14f5544", "lat": 38.902869333333335, "bike_id": "496860c642bdda0927db629cc14f5544"}, {"lon": -77.035874, "rental_uris": {"android": "https://dc.lft.to/lastmile_qr_scan", "ios": "https://dc.lft.to/lastmile_qr_scan"}, "fusion_lon": 0.0, "is_reserved": 0, "is_disabled": 0, "fusion_lat": 0.0, "type": "electric_bike", "name": "47dadd681252a39eb6d4175c0c668084", "lat": 38.9922535, "bike_id": "47dadd681252a39eb6d4175c0c668084"}, {"lon": -77.0080695, "rental_uris": {"android": "https://dc.lft.to/lastmile_qr_scan", "ios": "https://dc.lft.to/lastmile_qr_scan"}, "fusion_lon": 0.0, "is_reserved": 0, "is_disabled": 0, "fusion_lat": 0.0, "type": "electric_bike", "name": "46bd0611cde2edd94466606559e4a08e", "lat": 38.94920666666667, "bike_id": "46bd0611cde2edd94466606559e4a08e"}, {"lon": -76.928929, "rental_uris": {"android": "https://dc.lft.to/lastmile_qr_scan", "ios": "https://dc.lft.to/lastmile_qr_scan"}, "fusion_lon": 0.0, "is_reserved": 0, "is_disabled": 0, "fusion_lat": 0.0, "type": "electric_bike", "name": "daadebb2e26f740feb374a859db37231", "lat": 38.97830966666667, "bike_id": "daadebb2e26f740feb374a859db37231"}, {"lon": -77.03358833333333, "rental_uris": {"android": "https://dc.lft.to/lastmile_qr_scan", "ios": "https://dc.lft.to/lastmile_qr_scan"}, "fusion_lon": 0.0, "is_reserved": 0, "is_disabled": 0, "fusion_lat": 0.0, "type": "electric_scooter", "name": "331b41b7b4635b868286be17259813ce", "lat": 38.91916333333333, "bike_id": "331b41b7b4635b868286be17259813ce"}, {"lon": -77.01682183333334, "rental_uris": {"android": "https://dc.lft.to/lastmile_qr_scan", "ios": "https://dc.lft.to/lastmile_qr_scan"}, "fusion_lon": 0.0, "is_reserved": 0, "is_disabled": 0, "fusion_lat": 0.0, "type": "electric_scooter", "name": "eb6db2354240f31eb491dac7ade70ea4", "lat": 38.920423166666666, "bike_id": "eb6db2354240f31eb491dac7ade70ea4"}, {"lon": -76.95240383333334, "rental_uris": {"android": "https://dc.lft.to/lastmile_qr_scan", "ios": "https://dc.lft.to/lastmile_qr_scan"}, "fusion_lon": 0.0, "is_reserved": 0, "is_disabled": 0, "fusion_lat": 0.0, "type": "electric_bike", "name": "98b123cb2042fdd7052f7745c7f66282", "lat": 38.8845855, "bike_id": "98b123cb2042fdd7052f7745c7f66282"}, {"lon": -77.12732183333334, "rental_uris": {"android": "https://dc.lft.to/lastmile_qr_scan", "ios": "https://dc.lft.to/lastmile_qr_scan"}, "fusion_lon": 0.0, "is_reserved": 0, "is_disabled": 0, "fusion_lat": 0.0, "type": "electric_bike", "name": "b932018b70e12699afba951776b2260b", "lat": 38.89562433333333, "bike_id": "b932018b70e12699afba951776b2260b"}, {"lon": -77.02956766666667, "rental_uris": {"android": "https://dc.lft.to/lastmile_qr_scan", "ios": "https://dc.lft.to/lastmile_qr_scan"}, "fusion_lon": 0.0, "is_reserved": 0, "is_disabled": 0, "fusion_lat": 0.0, "type": "electric_scooter", "name": "9bf1ab9ee32a8190dedda5c48f165611", "lat": 38.91895533333334, "bike_id": "9bf1ab9ee32a8190dedda5c48f165611"}, {"lon": -77.0382145, "rental_uris": {"android": "https://dc.lft.to/lastmile_qr_scan", "ios": "https://dc.lft.to/lastmile_qr_scan"}, "fusion_lon": 0.0, "is_reserved": 0, "is_disabled": 0, "fusion_lat": 0.0, "type": "electric_scooter", "name": "dd94820158b43a4deed0cc129a6ee432", "lat": 38.9067735, "bike_id": "dd94820158b43a4deed0cc129a6ee432"}, {"lon": -77.046065, "rental_uris": {"android": "https://dc.lft.to/lastmile_qr_scan", "ios": "https://dc.lft.to/lastmile_qr_scan"}, "fusion_lon": 0.0, "is_reserved": 0, "is_disabled": 0, "fusion_lat": 0.0, "type": "electric_scooter", "name": "84b4351fbcb4e5356faa67e1bc227e62", "lat": 38.902436333333334, "bike_id": "84b4351fbcb4e5356faa67e1bc227e62"}, {"lon": -77.03482016666666, "rental_uris": {"android": "https://dc.lft.to/lastmile_qr_scan", "ios": "https://dc.lft.to/lastmile_qr_scan"}, "fusion_lon": 0.0, "is_reserved": 0, "is_disabled": 0, "fusion_lat": 0.0, "type": "electric_scooter", "name": "345bcd9ec0b8bbbfc6f07316e25d0f82", "lat": 38.92869833333334, "bike_id": "345bcd9ec0b8bbbfc6f07316e25d0f82"}, {"lon": -77.04226683333333, "rental_uris": {"android": "https://dc.lft.to/lastmile_qr_scan", "ios": "https://dc.lft.to/lastmile_qr_scan"}, "fusion_lon": 0.0, "is_reserved": 0, "is_disabled": 0, "fusion_lat": 0.0, "type": "electric_scooter", "name": "81a3b828898078b18993c452b7e300c3", "lat": 38.92103616666667, "bike_id": "81a3b828898078b18993c452b7e300c3"}, {"lon": -77.02329983333334, "rental_uris": {"android": "https://dc.lft.to/lastmile_qr_scan", "ios": "https://dc.lft.to/lastmile_qr_scan"}, "fusion_lon": 0.0, "is_reserved": 0, "is_disabled": 0, "fusion_lat": 0.0, "type": "electric_scooter", "name": "40620e38b4d7a3cc0f51c79d0d6bf9f5", "lat": 38.899938666666664, "bike_id": "40620e38b4d7a3cc0f51c79d0d6bf9f5"}, {"lon": -77.03811466666667, "rental_uris": {"android": "https://dc.lft.to/lastmile_qr_scan", "ios": "https://dc.lft.to/lastmile_qr_scan"}, "fusion_lon": 0.0, "is_reserved": 0, "is_disabled": 0, "fusion_lat": 0.0, "type": "electric_scooter", "name": "6a9bd30c6d4be5bf40d5a047883a86eb", "lat": 38.91551416666667, "bike_id": "6a9bd30c6d4be5bf40d5a047883a86eb"}, {"lon": -77.04267483333334, "rental_uris": {"android": "https://dc.lft.to/lastmile_qr_scan", "ios": "https://dc.lft.to/lastmile_qr_scan"}, "fusion_lon": 0.0, "is_reserved": 0, "is_disabled": 0, "fusion_lat": 0.0, "type": "electric_scooter", "name": "8b5eb187572bd0914c85999880ca731d", "lat": 38.9229505, "bike_id": "8b5eb187572bd0914c85999880ca731d"}, {"lon": -76.985733, "rental_uris": {"android": "https://dc.lft.to/lastmile_qr_scan", "ios": "https://dc.lft.to/lastmile_qr_scan"}, "fusion_lon": 0.0, "is_reserved": 0, "is_disabled": 0, "fusion_lat": 0.0, "type": "electric_scooter", "name": "1a01a6a49ade3859e0d0a27337d4d432", "lat": 38.89615466666667, "bike_id": "1a01a6a49ade3859e0d0a27337d4d432"}, {"lon": -77.01562083333333, "rental_uris": {"android": "https://dc.lft.to/lastmile_qr_scan", "ios": "https://dc.lft.to/lastmile_qr_scan"}, "fusion_lon": 0.0, "is_reserved": 0, "is_disabled": 0, "fusion_lat": 0.0, "type": "electric_scooter", "name": "94ed61325958ddb9bdfb2d8c2a98b81a", "lat": 38.91465216666667, "bike_id": "94ed61325958ddb9bdfb2d8c2a98b81a"}, {"lon": -77.0283145, "rental_uris": {"android": "https://dc.lft.to/lastmile_qr_scan", "ios": "https://dc.lft.to/lastmile_qr_scan"}, "fusion_lon": 0.0, "is_reserved": 0, "is_disabled": 0, "fusion_lat": 0.0, "type": "electric_scooter", "name": "fe584975cee7e6fc35e4246eff4557c6", "lat": 38.89490116666666, "bike_id": "fe584975cee7e6fc35e4246eff4557c6"}, {"lon": -77.05118366666666, "rental_uris": {"android": "https://dc.lft.to/lastmile_qr_scan", "ios": "https://dc.lft.to/lastmile_qr_scan"}, "fusion_lon": 0.0, "is_reserved": 0, "is_disabled": 0, "fusion_lat": 0.0, "type": "electric_scooter", "name": "e5f1516028d05386ac1452d57e50fcb2", "lat": 38.92340516666667, "bike_id": "e5f1516028d05386ac1452d57e50fcb2"}, {"lon": -77.03868466666667, "rental_uris": {"android": "https://dc.lft.to/lastmile_qr_scan", "ios": "https://dc.lft.to/lastmile_qr_scan"}, "fusion_lon": 0.0, "is_reserved": 0, "is_disabled": 0, "fusion_lat": 0.0, "type": "electric_scooter", "name": "34e34236803d4f51c15ae9e98359c11c", "lat": 38.912623833333335, "bike_id": "34e34236803d4f51c15ae9e98359c11c"}, {"lon": -77.04770516666666, "rental_uris": {"android": "https://dc.lft.to/lastmile_qr_scan", "ios": "https://dc.lft.to/lastmile_qr_scan"}, "fusion_lon": 0.0, "is_reserved": 0, "is_disabled": 0, "fusion_lat": 0.0, "type": "electric_scooter", "name": "56c1e89f4941086e591458b240f6bfc6", "lat": 38.918645833333336, "bike_id": "56c1e89f4941086e591458b240f6bfc6"}, {"lon": -77.01359716666667, "rental_uris": {"android": "https://dc.lft.to/lastmile_qr_scan", "ios": "https://dc.lft.to/lastmile_qr_scan"}, "fusion_lon": 0.0, "is_reserved": 0, "is_disabled": 0, "fusion_lat": 0.0, "type": "electric_scooter", "name": "299d31e1dd68ccc44238a3b0a809121e", "lat": 38.95678066666667, "bike_id": "299d31e1dd68ccc44238a3b0a809121e"}, {"lon": -77.08860033333333, "rental_uris": {"android": "https://dc.lft.to/lastmile_qr_scan", "ios": "https://dc.lft.to/lastmile_qr_scan"}, "fusion_lon": 0.0, "is_reserved": 0, "is_disabled": 0, "fusion_lat": 0.0, "type": "electric_scooter", "name": "23b41c27a2d1d491eb2b217bb0fce20b", "lat": 38.9338155, "bike_id": "23b41c27a2d1d491eb2b217bb0fce20b"}, {"lon": -77.02478333333333, "rental_uris": {"android": "https://dc.lft.to/lastmile_qr_scan", "ios": "https://dc.lft.to/lastmile_qr_scan"}, "fusion_lon": 0.0, "is_reserved": 0, "is_disabled": 0, "fusion_lat": 0.0, "type": "electric_scooter", "name": "5bd506048d2923ea75a4217c6e36cf04", "lat": 38.94194533333334, "bike_id": "5bd506048d2923ea75a4217c6e36cf04"}, {"lon": -77.04007183333333, "rental_uris": {"android": "https://dc.lft.to/lastmile_qr_scan", "ios": "https://dc.lft.to/lastmile_qr_scan"}, "fusion_lon": 0.0, "is_reserved": 0, "is_disabled": 0, "fusion_lat": 0.0, "type": "electric_scooter", "name": "bc449570ae4e047c16bf837b88a8ea83", "lat": 38.903583166666664, "bike_id": "bc449570ae4e047c16bf837b88a8ea83"}, {"lon": -77.0296265, "rental_uris": {"android": "https://dc.lft.to/lastmile_qr_scan", "ios": "https://dc.lft.to/lastmile_qr_scan"}, "fusion_lon": 0.0, "is_reserved": 0, "is_disabled": 0, "fusion_lat": 0.0, "type": "electric_scooter", "name": "c39d8b799a068d10b824eb549b335e4e", "lat": 38.942229166666664, "bike_id": "c39d8b799a068d10b824eb549b335e4e"}, {"lon": -77.03242033333333, "rental_uris": {"android": "https://dc.lft.to/lastmile_qr_scan", "ios": "https://dc.lft.to/lastmile_qr_scan"}, "fusion_lon": 0.0, "is_reserved": 0, "is_disabled": 0, "fusion_lat": 0.0, "type": "electric_scooter", "name": "2901867a34efc1c175809848fdef9e66", "lat": 38.9156155, "bike_id": "2901867a34efc1c175809848fdef9e66"}, {"lon": -77.02364616666667, "rental_uris": {"android": "https://dc.lft.to/lastmile_qr_scan", "ios": "https://dc.lft.to/lastmile_qr_scan"}, "fusion_lon": 0.0, "is_reserved": 0, "is_disabled": 0, "fusion_lat": 0.0, "type": "electric_scooter", "name": "708a6fe5cf95eb73af4d9fc3f07485d5", "lat": 38.895968, "bike_id": "708a6fe5cf95eb73af4d9fc3f07485d5"}, {"lon": -77.02656966666666, "rental_uris": {"android": "https://dc.lft.to/lastmile_qr_scan", "ios": "https://dc.lft.to/lastmile_qr_scan"}, "fusion_lon": 0.0, "is_reserved": 0, "is_disabled": 0, "fusion_lat": 0.0, "type": "electric_scooter", "name": "5bc50dedfca93be1a761de904d987b66", "lat": 38.930913833333335, "bike_id": "5bc50dedfca93be1a761de904d987b66"}, {"lon": -77.02234033333333, "rental_uris": {"android": "https://dc.lft.to/lastmile_qr_scan", "ios": "https://dc.lft.to/lastmile_qr_scan"}, "fusion_lon": 0.0, "is_reserved": 0, "is_disabled": 0, "fusion_lat": 0.0, "type": "electric_scooter", "name": "f74f29c0ae5a87009d7f80d552530d79", "lat": 38.91414816666666, "bike_id": "f74f29c0ae5a87009d7f80d552530d79"}, {"lon": -77.00347533333333, "rental_uris": {"android": "https://dc.lft.to/lastmile_qr_scan", "ios": "https://dc.lft.to/lastmile_qr_scan"}, "fusion_lon": 0.0, "is_reserved": 0, "is_disabled": 0, "fusion_lat": 0.0, "type": "electric_scooter", "name": "4411c04202aa642a3c3e6b68fd4a8d93", "lat": 38.87648166666666, "bike_id": "4411c04202aa642a3c3e6b68fd4a8d93"}, {"lon": -77.03217533333333, "rental_uris": {"android": "https://dc.lft.to/lastmile_qr_scan", "ios": "https://dc.lft.to/lastmile_qr_scan"}, "fusion_lon": 0.0, "is_reserved": 0, "is_disabled": 0, "fusion_lat": 0.0, "type": "electric_scooter", "name": "782c251df64e1b828b05a5803f7f8eec", "lat": 38.91403616666667, "bike_id": "782c251df64e1b828b05a5803f7f8eec"}, {"lon": -77.04192883333333, "rental_uris": {"android": "https://dc.lft.to/lastmile_qr_scan", "ios": "https://dc.lft.to/lastmile_qr_scan"}, "fusion_lon": 0.0, "is_reserved": 0, "is_disabled": 0, "fusion_lat": 0.0, "type": "electric_scooter", "name": "7229d3f7c255981f61aab6bdbd5e03c6", "lat": 38.90744383333333, "bike_id": "7229d3f7c255981f61aab6bdbd5e03c6"}, {"lon": -77.02202833333334, "rental_uris": {"android": "https://dc.lft.to/lastmile_qr_scan", "ios": "https://dc.lft.to/lastmile_qr_scan"}, "fusion_lon": 0.0, "is_reserved": 0, "is_disabled": 0, "fusion_lat": 0.0, "type": "electric_scooter", "name": "d0d11701f97c7dc1e21db8e94772faac", "lat": 38.903674, "bike_id": "d0d11701f97c7dc1e21db8e94772faac"}, {"lon": -77.02482033333334, "rental_uris": {"android": "https://dc.lft.to/lastmile_qr_scan", "ios": "https://dc.lft.to/lastmile_qr_scan"}, "fusion_lon": 0.0, "is_reserved": 0, "is_disabled": 0, "fusion_lat": 0.0, "type": "electric_scooter", "name": "05d5038814ca64c51ff9b6e46a614899", "lat": 38.941993833333335, "bike_id": "05d5038814ca64c51ff9b6e46a614899"}, {"lon": -77.01346433333333, "rental_uris": {"android": "https://dc.lft.to/lastmile_qr_scan", "ios": "https://dc.lft.to/lastmile_qr_scan"}, "fusion_lon": 0.0, "is_reserved": 0, "is_disabled": 0, "fusion_lat": 0.0, "type": "electric_scooter", "name": "4700eac5a70f42d4be677f3ac541c48f", "lat": 38.918586, "bike_id": "4700eac5a70f42d4be677f3ac541c48f"}, {"lon": -77.038583, "rental_uris": {"android": "https://dc.lft.to/lastmile_qr_scan", "ios": "https://dc.lft.to/lastmile_qr_scan"}, "fusion_lon": 0.0, "is_reserved": 0, "is_disabled": 0, "fusion_lat": 0.0, "type": "electric_scooter", "name": "e2f27f072867253e82bd116beb8b6efb", "lat": 38.90782133333333, "bike_id": "e2f27f072867253e82bd116beb8b6efb"}, {"lon": -76.99123416666667, "rental_uris": {"android": "https://dc.lft.to/lastmile_qr_scan", "ios": "https://dc.lft.to/lastmile_qr_scan"}, "fusion_lon": 0.0, "is_reserved": 0, "is_disabled": 0, "fusion_lat": 0.0, "type": "electric_scooter", "name": "f2d083273e1d102cd5d51d1651018e35", "lat": 38.863837333333336, "bike_id": "f2d083273e1d102cd5d51d1651018e35"}, {"lon": -77.03527416666667, "rental_uris": {"android": "https://dc.lft.to/lastmile_qr_scan", "ios": "https://dc.lft.to/lastmile_qr_scan"}, "fusion_lon": 0.0, "is_reserved": 0, "is_disabled": 0, "fusion_lat": 0.0, "type": "electric_scooter", "name": "5fe80531ade4382e2525f9bccdb15e12", "lat": 38.92330583333333, "bike_id": "5fe80531ade4382e2525f9bccdb15e12"}, {"lon": -77.0466065, "rental_uris": {"android": "https://dc.lft.to/lastmile_qr_scan", "ios": "https://dc.lft.to/lastmile_qr_scan"}, "fusion_lon": 0.0, "is_reserved": 0, "is_disabled": 0, "fusion_lat": 0.0, "type": "electric_scooter", "name": "782f0dfdd54ead7d924edc7dcfd008c4", "lat": 38.89466683333333, "bike_id": "782f0dfdd54ead7d924edc7dcfd008c4"}, {"lon": -77.0242775, "rental_uris": {"android": "https://dc.lft.to/lastmile_qr_scan", "ios": "https://dc.lft.to/lastmile_qr_scan"}, "fusion_lon": 0.0, "is_reserved": 0, "is_disabled": 0, "fusion_lat": 0.0, "type": "electric_scooter", "name": "9c5d4970f1e7867363dbea6dd210f160", "lat": 38.916948166666664, "bike_id": "9c5d4970f1e7867363dbea6dd210f160"}, {"lon": -76.910627, "rental_uris": {"android": "https://dc.lft.to/lastmile_qr_scan", "ios": "https://dc.lft.to/lastmile_qr_scan"}, "fusion_lon": 0.0, "is_reserved": 0, "is_disabled": 0, "fusion_lat": 0.0, "type": "electric_bike", "name": "f9c8efcb2a6d7a52d02688125333e74f", "lat": 39.0107705, "bike_id": "f9c8efcb2a6d7a52d02688125333e74f"},