{"data": {"bikes": [{"bike_id": "4a7eb9caba8c570e3a0fdf7a38351bce", "fusion_lon": 0.0, "type": "electric_scooter", "name": "4a7eb9caba8c570e3a0fdf7a38351bce", "rental_uris": {"android": "https://dc.lft.to/lastmile_qr_scan", "ios": "https://dc.lft.to/lastmile_qr_scan"}, "fusion_lat": 0.0, "lat": 38.916941666666666, "is_disabled": 0, "lon": -77.00524083333333, "is_reserved": 0}, {"bike_id": "9bb81d510ab344c2466a0ffb9146a1cc", "fusion_lon": 0.0, "type": "electric_bike", "name": "9bb81d510ab344c2466a0ffb9146a1cc", "rental_uris": {"android": "https://dc.lft.to/lastmile_qr_scan", "ios": "https://dc.lft.to/lastmile_qr_scan"}, "fusion_lat": 0.0, "lat": 38.895732333333335, "is_disabled": 0, "lon": -76.9762475, "is_reserved": 0}, {"bike_id": "3e1bbf5a3e3651cefaa9301f24c79f45", "fusion_lon": 0.0, "type": "electric_scooter", "name": "3e1bbf5a3e3651cefaa9301f24c79f45", "rental_uris": {"android": "https://dc.lft.to/lastmile_qr_scan", "ios": "https://dc.lft.to/lastmile_qr_scan"}, "fusion_lat": 0.0, "lat": 38.93879966666667, "is_disabled": 0, "lon": -77.02482566666667, "is_reserved": 0}, {"bike_id": "c6f8ce9bbc548e46b1d02d2c79e5a5f1", "fusion_lon": 0.0, "type": "electric_scooter", "name": "c6f8ce9bbc548e46b1d02d2c79e5a5f1", "rental_uris": {"android": "https://dc.lft.to/lastmile_qr_scan", "ios": "https://dc.lft.to/lastmile_qr_scan"}, "fusion_lat": 0.0, "lat": 38.9171915, "is_disabled": 0, "lon": -77.03842266666666, "is_reserved": 0}, {"bike_id": "595e1060f67d8279e24605815a534a87", "fusion_lon": 0.0, "type": "electric_scooter", "name": "595e1060f67d8279e24605815a534a87", "rental_uris": {"android": "https://dc.lft.to/lastmile_qr_scan", "ios": "https://dc.lft.to/lastmile_qr_scan"}, "fusion_lat": 0.0, "lat": 38.91924216666666, "is_disabled": 0, "lon": -77.07889316666666, "is_reserved": 0}, {"bike_id": "e631a623e890e874bbaf29f686869d9c", "fusion_lon": 0.0, "type": "electric_scooter", "name": "e631a623e890e874bbaf29f686869d9c", "rental_uris": {"android": "https://dc.lft.to/lastmile_qr_scan", "ios": "https://dc.lft.to/lastmile_qr_scan"}, "fusion_lat": 0.0, "lat": 38.92643666666667, "is_disabled": 0, "lon": -77.03698483333334, "is_reserved": 0}, {"bike_id": "c68b2d5b7e90a776108c95c26913bc5c", "fusion_lon": 0.0, "type": "electric_scooter", "name": "c68b2d5b7e90a776108c95c26913bc5c", "rental_uris": {"android": "https://dc.lft.to/lastmile_qr_scan", "ios": "https://dc.lft.to/lastmile_qr_scan"}, "fusion_lat": 0.0, "lat": 38.916988833333335, "is_disabled": 0, "lon": -77.00794783333333, "is_reserved": 0}, {"bike_id": "e94b276808daf3020bed5eaa1a23a259", "fusion_lon": 0.0, "type": "electric_scooter", "name": "e94b276808daf3020bed5eaa1a23a259", "rental_uris": {"android": "https://dc.lft.to/lastmile_qr_scan", "ios": "https://dc.lft.to/lastmile_qr_scan"}, "fusion_lat": 0.0, "lat": 38.92843416666667, "is_disabled": 0, "lon": -77.01588416666667, "is_reserved": 0}, {"bike_id": "19e180c6fd56e350b1ece92f886febd3", "fusion_lon": 0.0, "type": "electric_scooter", "name": "19e180c6fd56e350b1ece92f886febd3", "rental_uris": {"android": "https://dc.lft.to/lastmile_qr_scan", "ios": "https://dc.lft.to/lastmile_qr_scan"}, "fusion_lat": 0.0, "lat": 38.8724305, "is_disabled": 0, "lon": -77.0106155, "is_reserved": 0}, {"bike_id": "e15ec1a0bff0893ad641e6bdb58eddbd", "fusion_lon": 0.0, "type": "electric_scooter", "name": "e15ec1a0bff0893ad641e6bdb58eddbd", "rental_uris": {"android": "https://dc.lft.to/lastmile_qr_scan", "ios": "https://dc.lft.to/lastmile_qr_scan"}, "fusion_lat": 0.0, "lat": 38.91983916666667, "is_disabled": 0, "lon": -77.01851016666667, "is_reserved": 0}, {"bike_id": "e5ae6921f6b445cc71f1d2674c7a3441", "fusion_lon": 0.0, "type": "electric_bike", "name": "e5ae6921f6b445cc71f1d2674c7a3441", "rental_uris": {"android": "https://dc.lft.to/lastmile_qr_scan", "ios": "https://dc.lft.to/lastmile_qr_scan"}, "fusion_lat": 0.0, "lat": 38.84592766666667, "is_disabled": 0, "lon": -76.96875466666667, "is_reserved": 0}, {"bike_id": "7213ffcf5ec20a9190d9c99b59ef5da1", "fusion_lon": 0.0, "type": "electric_scooter", "name": "7213ffcf5ec20a9190d9c99b59ef5da1", "rental_uris": {"android": "https://dc.lft.to/lastmile_qr_scan", "ios": "https://dc.lft.to/lastmile_qr_scan"}, "fusion_lat": 0.0, "lat": 38.9160375, "is_disabled": 0, "lon": -77.02405633333333, "is_reserved": 0}, {"bike_id": "51f55e2c97ab619ef64557f6c9fbd759", "fusion_lon": 0.0, "type": "electric_scooter", "name": "51f55e2c97ab619ef64557f6c9fbd759", "rental_uris": {"android": "https://dc.lft.to/lastmile_qr_scan", "ios": "https://dc.lft.to/lastmile_qr_scan"}, "fusion_lat": 0.0, "lat": 38.92421266666667, "is_disabled": 0, "lon": -77.036408, "is_reserved": 0}, {"bike_id": "60c1ea55f9b67257e3bfb4c3823110c7", "fusion_lon": 0.0, "type": "electric_scooter", "name": "60c1ea55f9b67257e3bfb4c3823110c7", "rental_uris": {"android": "https://dc.lft.to/lastmile_qr_scan", "ios": "https://dc.lft.to/lastmile_qr_scan"}, "fusion_lat": 0.0, "lat": 38.900513, "is_disabled": 0, "lon": -77.013246, "is_reserved": 0}, {"bike_id": "63d4c487b9f449946d2ab7fca2e116a9", "fusion_lon": 0.0, "type": "electric_scooter", "name": "63d4c487b9f449946d2ab7fca2e116a9", "rental_uris": {"android": "https://dc.lft.to/lastmile_qr_scan", "ios": "https://dc.lft.to/lastmile_qr_scan"}, "fusion_lat": 0.0, "lat": 38.959725166666665, "is_disabled": 0, "lon": -77.00731233333333, "is_reserved": 0}, {"bike_id": "a7f6381b9382a480150e4628579c7690", "fusion_lon": 0.0, "type": "electric_bike", "name": "a7f6381b9382a480150e4628579c7690", "rental_uris": {"android": "https://dc.lft.to/lastmile_qr_scan", "ios": "https://dc.lft.to/lastmile_qr_scan"}, "fusion_lat": 0.0, "lat": 38.84479366666667, "is_disabled": 0, "lon": -76.97223666666666, "is_reserved": 0}, {"bike_id": "b79326e279521e312592a908c75fc3be", "fusion_lon": 0.0, "type": "electric_bike", "name": "b79326e279521e312592a908c75fc3be", "rental_uris": {"android": "https://dc.lft.to/lastmile_qr_scan", "ios": "https://dc.lft.to/lastmile_qr_scan"}, "fusion_lat": 0.0, "lat": 38.92222816666666, "is_disabled": 0, "lon": -77.02235733333333, "is_reserved": 0}, {"bike_id": "958c453c02e0c82516d7bd33a4ba74ec", "fusion_lon": 0.0, "type": "electric_scooter", "name": "958c453c02e0c82516d7bd33a4ba74ec", "rental_uris": {"android": "https://dc.lft.to/lastmile_qr_scan", "ios": "https://dc.lft.to/lastmile_qr_scan"}, "fusion_lat": 0.0, "lat": 38.949625166666664, "is_disabled": 0, "lon": -77.067678, "is_reserved": 0}, {"bike_id": "afc6255a9aa09c52f2ee53875f16e3f6", "fusion_lon": 0.0, "type": "electric_bike", "name": "afc6255a9aa09c52f2ee53875f16e3f6", "rental_uris": {"android": "https://dc.lft.to/lastmile_qr_scan", "ios": "https://dc.lft.to/lastmile_qr_scan"}, "fusion_lat": 0.0, "lat": 38.87669733333333, "is_disabled": 0, "lon": -77.01461066666667, "is_reserved": 0}, {"bike_id": "1faa96d509c03d50d6e4fbf6381995e3", "fusion_lon": 0.0, "type": "electric_scooter", "name": "1faa96d509c03d50d6e4fbf6381995e3", "rental_uris": {"android": "https://dc.lft.to/lastmile_qr_scan", "ios": "https://dc.lft.to/lastmile_qr_scan"}, "fusion_lat": 0.0, "lat": 38.90011533333333, "is_disabled": 0, "lon": -76.99122583333333, "is_reserved": 0}, {"bike_id": "6a6bb4663e2d0217e1bd8c35eed120fa", "fusion_lon": 0.0, "type": "electric_scooter", "name": "6a6bb4663e2d0217e1bd8c35eed120fa", "rental_uris": {"android": "https://dc.lft.to/lastmile_qr_scan", "ios": "https://dc.lft.to/lastmile_qr_scan"}, "fusion_lat": 0.0, "lat": 38.89847816666666, "is_disabled": 0, "lon": -76.99034016666667, "is_reserved": 0}, {"bike_id": "2ab0ac63fa152132db0e73508e349f49", "fusion_lon": 0.0, "type": "electric_bike", "name": "2ab0ac63fa152132db0e73508e349f49", "rental_uris": {"android": "https://dc.lft.to/lastmile_qr_scan", "ios": "https://dc.lft.to/lastmile_qr_scan"}, "fusion_lat": 0.0, "lat": 38.95063416666667, "is_disabled": 0, "lon": -77.077989, "is_reserved": 0}, {"bike_id": "afc2f6907427e5a61a950f53be626235", "fusion_lon": 0.0, "type": "electric_bike", "name": "afc2f6907427e5a61a950f53be626235", "rental_uris": {"android": "https://dc.lft.to/lastmile_qr_scan", "ios": "https://dc.lft.to/lastmile_qr_scan"}, "fusion_lat": 0.0, "lat": 38.93866283333333, "is_disabled": 0, "lon": -77.04233333333333, "is_reserved": 0}, {"bike_id": "03386148c1d9b4dc1b7172d9cfbd7b09", "fusion_lon": 0.0, "type": "electric_scooter", "name": "03386148c1d9b4dc1b7172d9cfbd7b09", "rental_uris": {"android": "https://dc.lft.to/lastmile_qr_scan", "ios": "https://dc.lft.to/lastmile_qr_scan"}, "fusion_lat": 0.0, "lat": 38.9533175, "is_disabled": 0, "lon": -77.01652583333333, "is_reserved": 0}, {"bike_id": "740cbaf09373dbde5f52b67c51a3c2aa", "fusion_lon": 0.0, "type": "electric_scooter", "name": "740cbaf09373dbde5f52b67c51a3c2aa", "rental_uris": {"android": "https://dc.lft.to/lastmile_qr_scan", "ios": "https://dc.lft.to/lastmile_qr_scan"}, "fusion_lat": 0.0, "lat": 38.915547, "is_disabled": 0, "lon": -77.0204675, "is_reserved": 0}, {"bike_id": "795533db8315f28f6fbc3c87e798368a", "fusion_lon": 0.0, "type": "electric_bike", "name": "795533db8315f28f6fbc3c87e798368a", "rental_uris": {"android": "https://dc.lft.to/lastmile_qr_scan", "ios": "https://dc.lft.to/lastmile_qr_scan"}, "fusion_lat": 0.0, "lat": 38.924563166666665, "is_disabled": 0, "lon": -76.9755695, "is_reserved": 0}, {"bike_id": "a9471e03c32f2e5df0077ef9caf3c683", "fusion_lon": 0.0, "type": "electric_scooter", "name": "a9471e03c32f2e5df0077ef9caf3c683", "rental_uris": {"android": "https://dc.lft.to/lastmile_qr_scan", "ios": "https://dc.lft.to/lastmile_qr_scan"}, "fusion_lat": 0.0, "lat": 38.938182, "is_disabled": 0, "lon": -77.03258016666666, "is_reserved": 0}, {"bike_id": "4090f1fede7e3af53041ee48fc51875c", "fusion_lon": 0.0, "type": "electric_scooter", "name": "4090f1fede7e3af53041ee48fc51875c", "rental_uris": {"android": "https://dc.lft.to/lastmile_qr_scan", "ios": "https://dc.lft.to/lastmile_qr_scan"}, "fusion_lat": 0.0, "lat": 38.9087445, "is_disabled": 0, "lon": -77.018353, "is_reserved": 0}, {"bike_id": "6d80b7ebfd4a741340a49b285ee47db3", "fusion_lon": 0.0, "type": "electric_scooter", "name": "6d80b7ebfd4a741340a49b285ee47db3", "rental_uris": {"android": "https://dc.lft.to/lastmile_qr_scan", "ios": "https://dc.lft.to/lastmile_qr_scan"}, "fusion_lat": 0.0, "lat": 38.863522833333334, "is_disabled": 0, "lon": -76.982646, "is_reserved": 0}, {"bike_id": "5593e3a66819402a585b4a4d89d92c47", "fusion_lon": 0.0, "type": "electric_scooter", "name": "5593e3a66819402a585b4a4d89d92c47", "rental_uris": {"android": "https://dc.lft.to/lastmile_qr_scan", "ios": "https://dc.lft.to/lastmile_qr_scan"}, "fusion_lat": 0.0, "lat": 38.91415166666667, "is_disabled": 0, "lon": -77.03012666666666, "is_reserved": 0}, {"bike_id": "46632dcd0012ce952e6af06d1224baee", "fusion_lon": 0.0, "type": "electric_scooter", "name": "46632dcd0012ce952e6af06d1224baee", "rental_uris": {"android": "https://dc.lft.to/lastmile_qr_scan", "ios": "https://dc.lft.to/lastmile_qr_scan"}, "fusion_lat": 0.0, "lat": 38.922847, "is_disabled": 0, "lon": -76.99762016666666, "is_reserved": 0}, {"bike_id": "bad3e295ef1fe212e3d6b0ac74499449", "fusion_lon": 0.0, "type": "electric_scooter", "name": "bad3e295ef1fe212e3d6b0ac74499449", "rental_uris": {"android": "https://dc.lft.to/lastmile_qr_scan", "ios": "https://dc.lft.to/lastmile_qr_scan"}, "fusion_lat": 0.0, "lat": 38.915622166666665, "is_disabled": 0, "lon": -77.03253466666666, "is_reserved": 0}, {"bike_id": "ad6eb931917811a8a53caa5788abe3b7", "fusion_lon": 0.0, "type": "electric_scooter", "name": "ad6eb931917811a8a53caa5788abe3b7", "rental_uris": {"android": "https://dc.lft.to/lastmile_qr_scan", "ios": "https://dc.lft.to/lastmile_qr_scan"}, "fusion_lat": 0.0, "lat": 38.899299666666664, "is_disabled": 0, "lon": -77.05521633333333, "is_reserved": 0}, {"bike_id": "078e0e2a98e13026d65ab6db2ff7e516", "fusion_lon": 0.0, "type": "electric_scooter", "name": "078e0e2a98e13026d65ab6db2ff7e516", "rental_uris": {"android": "https://dc.lft.to/lastmile_qr_scan", "ios": "https://dc.lft.to/lastmile_qr_scan"}, "fusion_lat": 0.0, "lat": 38.899999333333334, "is_disabled": 0, "lon": -77.030549, "is_reserved": 0}, {"bike_id": "59400eee153771a46fb1d4821c15a3bf", "fusion_lon": 0.0, "type": "electric_bike", "name": "59400eee153771a46fb1d4821c15a3bf", "rental_uris": {"android": "https://dc.lft.to/lastmile_qr_scan", "ios": "https://dc.lft.to/lastmile_qr_scan"}, "fusion_lat": 0.0, "lat": 38.9284715, "is_disabled": 0, "lon": -77.1050625, "is_reserved": 0}, {"bike_id": "5d11aca2096e57af81d28005ab5d60f6", "fusion_lon": 0.0, "type": "electric_scooter", "name": "5d11aca2096e57af81d28005ab5d60f6", "rental_uris": {"android": "https://dc.lft.to/lastmile_qr_scan", "ios": "https://dc.lft.to/lastmile_qr_scan"}, "fusion_lat": 0.0, "lat": 38.88856766666667, "is_disabled": 0, "lon": -76.995986, "is_reserved": 0}, {"bike_id": "467e5020f4bf1b2931aefcc13d832354", "fusion_lon": 0.0, "type": "electric_scooter", "name": "467e5020f4bf1b2931aefcc13d832354", "rental_uris": {"android": "https://dc.lft.to/lastmile_qr_scan", "ios": "https://dc.lft.to/lastmile_qr_scan"}, "fusion_lat": 0.0, "lat": 38.9282325, "is_disabled": 0, "lon": -77.02162866666667, "is_reserved": 0}, {"bike_id": "7951d115e7bd99dc261d8508efefc5c4", "fusion_lon": 0.0, "type": "electric_bike", "name": "7951d115e7bd99dc261d8508efefc5c4", "rental_uris": {"android": "https://dc.lft.to/lastmile_qr_scan", "ios": "https://dc.lft.to/lastmile_qr_scan"}, "fusion_lat": 0.0, "lat": 38.8701785, "is_disabled": 0, "lon": -77.1105285, "is_reserved": 0}, {"bike_id": "e6119bf8c58e65fdebac00f83bff8166", "fusion_lon": 0.0, "type": "electric_scooter", "name": "e6119bf8c58e65fdebac00f83bff8166", "rental_uris": {"android": "https://dc.lft.to/lastmile_qr_scan", "ios": "https://dc.lft.to/lastmile_qr_scan"}, "fusion_lat": 0.0, "lat": 38.94288616666667, "is_disabled": 0, "lon": -77.027614, "is_reserved": 0}, {"bike_id": "602d60ca30d2ee22379bae4ec7b875cf", "fusion_lon": 0.0, "type": "electric_bike", "name": "602d60ca30d2ee22379bae4ec7b875cf", "rental_uris": {"android": "https://dc.lft.to/lastmile_qr_scan", "ios": "https://dc.lft.to/lastmile_qr_scan"}, "fusion_lat": 0.0, "lat": 38.9118275, "is_disabled": 0, "lon": -77.00194366666666, "is_reserved": 0}, {"bike_id": "552d738e18fd566a47d0d6b7d9550d78", "fusion_lon": 0.0, "type": "electric_bike", "name": "552d738e18fd566a47d0d6b7d9550d78", "rental_uris": {"android": "https://dc.lft.to/lastmile_qr_scan", "ios": "https://dc.lft.to/lastmile_qr_scan"}, "fusion_lat": 0.0, "lat": 38.84107916666667, "is_disabled": 0, "lon": -77.08947566666667, "is_reserved": 0}, {"bike_id": "881f52412b7c23ef848bbc34f9de32de", "fusion_lon": 0.0, "type": "electric_scooter", "name": "881f52412b7c23ef848bbc34f9de32de", "rental_uris": {"android": "https://dc.lft.to/lastmile_qr_scan", "ios": "https://dc.lft.to/lastmile_qr_scan"}, "fusion_lat": 0.0, "lat": 38.91785083333333, "is_disabled": 0, "lon": -77.04248066666666, "is_reserved": 0}, {"bike_id": "18a74fc3af7a5b31b2be8ef27362bded", "fusion_lon": 0.0, "type": "electric_scooter", "name": "18a74fc3af7a5b31b2be8ef27362bded", "rental_uris": {"android": "https://dc.lft.to/lastmile_qr_scan", "ios": "https://dc.lft.to/lastmile_qr_scan"}, "fusion_lat": 0.0, "lat": 38.859750166666664, "is_disabled": 0, "lon": -76.98423566666666, "is_reserved": 0}, {"bike_id": "f7f449dd5716dd8bb8697e5aae283edb", "fusion_lon": 0.0, "type": "electric_scooter", "name": "f7f449dd5716dd8bb8697e5aae283edb", "rental_uris": {"android": "https://dc.lft.to/lastmile_qr_scan", "ios": "https://dc.lft.to/lastmile_qr_scan"}, "fusion_lat": 0.0, "lat": 38.907784166666666, "is_disabled": 0, "lon": -77.045023, "is_reserved": 0}, {"bike_id": "ccea2b29db68701a96472f2779d80d94", "fusion_lon": 0.0, "type": "electric_scooter", "name": "ccea2b29db68701a96472f2779d80d94", "rental_uris": {"android": "https://dc.lft.to/lastmile_qr_scan", "ios": "https://dc.lft.to/lastmile_qr_scan"}, "fusion_lat": 0.0, "lat": 38.901159166666666, "is_disabled": 0, "lon": -77.04187416666667, "is_reserved": 0}, {"bike_id": "026e560b15b6cf521bed0a208c666983", "fusion_lon": 0.0, "type": "electric_scooter", "name": "026e560b15b6cf521bed0a208c666983", "rental_uris": {"android": "https://dc.lft.to/lastmile_qr_scan", "ios": "https://dc.lft.to/lastmile_qr_scan"}, "fusion_lat": 0.0, "lat": 38.89525, "is_disabled": 0, "lon": -76.94899933333333, "is_reserved": 0}, {"bike_id": "72457ef53ebfe773118181e33b656960", "fusion_lon": 0.0, "type": "electric_scooter", "name": "72457ef53ebfe773118181e33b656960", "rental_uris": {"android": "https://dc.lft.to/lastmile_qr_scan", "ios": "https://dc.lft.to/lastmile_qr_scan"}, "fusion_lat": 0.0, "lat": 38.915981333333335, "is_disabled": 0, "lon": -77.0269355, "is_reserved": 0}, {"bike_id": "f3481fc06700e3ad4a6f3564d949333a", "fusion_lon": 0.0, "type": "electric_scooter", "name": "f3481fc06700e3ad4a6f3564d949333a", "rental_uris": {"android": "https://dc.lft.to/lastmile_qr_scan", "ios": "https://dc.lft.to/lastmile_qr_scan"}, "fusion_lat": 0.0, "lat": 38.9264735, "is_disabled": 0, "lon": -77.02476566666667, "is_reserved": 0}, {"bike_id": "3e6ac5ea0bb8d73b3e4e549f2d2a43d4", "fusion_lon": 0.0, "type": "electric_scooter", "name": "3e6ac5ea0bb8d73b3e4e549f2d2a43d4", "rental_uris": {"android": "https://dc.lft.to/lastmile_qr_scan", "ios": "https://dc.lft.to/lastmile_qr_scan"}, "fusion_lat": 0.0, "lat": 38.91144933333333, "is_disabled": 0, "lon": -77.0237035, "is_reserved": 0}, {"bike_id": "199936bbcacadf120f90a9e9aee736cc", "fusion_lon": 0.0, "type": "electric_scooter", "name": "199936bbcacadf120f90a9e9aee736cc", "rental_uris": {"android": "https://dc.lft.to/lastmile_qr_scan", "ios": "https://dc.lft.to/lastmile_qr_scan"}, "fusion_lat": 0.0, "lat": 38.8875435, "is_disabled": 0, "lon": -77.03369666666667, "is_reserved": 0}, {"bike_id": "4e861f79eb71f8eba4aba9a50e83d9c1", "fusion_lon": 0.0, "type": "electric_scooter", "name": "4e861f79eb71f8eba4aba9a50e83d9c1", "rental_uris": {"android": "https://dc.lft.to/lastmile_qr_scan", "ios": "https://dc.lft.to/lastmile_qr_scan"}, "fusion_lat": 0.0, "lat": 38.887184500000004, "is_disabled": 0, "lon": -77.0226685, "is_reserved": 0}, {"bike_id": "db96607a1fb31e7e8f9277264611c778", "fusion_lon": 0.0, "type": "electric_scooter", "name": "db96607a1fb31e7e8f9277264611c778", "rental_uris": {"android": "https://dc.lft.to/lastmile_qr_scan", "ios": "https://dc.lft.to/lastmile_qr_scan"}, "fusion_lat": 0.0, "lat": 38.900693, "is_disabled": 0, "lon": -77.0021115, "is_reserved": 0}, {"bike_id": "499ca2d6688a581c042579e7cb725da8", "fusion_lon": 0.0, "type": "electric_scooter", "name": "499ca2d6688a581c042579e7cb725da8", "rental_uris": {"android": "https://dc.lft.to/lastmile_qr_scan", "ios": "https://dc.lft.to/lastmile_qr_scan"}, "fusion_lat": 0.0, "lat": 38.885788, "is_disabled": 0, "lon": -77.02221116666666, "is_reserved": 0}, {"bike_id": "6dcada2a346fe8cdfffb970670d912d8", "fusion_lon": 0.0, "type": "electric_scooter", "name": "6dcada2a346fe8cdfffb970670d912d8", "rental_uris": {"android": "https://dc.lft.to/lastmile_qr_scan", "ios": "https://dc.lft.to/lastmile_qr_scan"}, "fusion_lat": 0.0, "lat": 38.900069, "is_disabled": 0, "lon": -76.98699866666666, "is_reserved": 0}, {"bike_id": "f34fb5b6b496ef2da96a356e7f98cfec", "fusion_lon": 0.0, "type": "electric_scooter", "name": "f34fb5b6b496ef2da96a356e7f98cfec", "rental_uris": {"android": "https://dc.lft.to/lastmile_qr_scan", "ios": "https://dc.lft.to/lastmile_qr_scan"}, "fusion_lat": 0.0, "lat": 38.9386185, "is_disabled": 0, "lon": -77.026502, "is_reserved": 0}, {"bike_id": "fe26884bd47ae002a7bebb69dc2552c1", "fusion_lon": 0.0, "type": "electric_scooter", "name": "fe26884bd47ae002a7bebb69dc2552c1", "rental_uris": {"android": "https://dc.lft.to/lastmile_qr_scan", "ios": "https://dc.lft.to/lastmile_qr_scan"}, "fusion_lat": 0.0, "lat": 38.922412666666666, "is_disabled": 0, "lon": -77.09959566666667, "is_reserved": 0}, {"bike_id": "ec1788fcc4754984678bb53e75629060", "fusion_lon": 0.0, "type": "electric_scooter", "name": "ec1788fcc4754984678bb53e75629060", "rental_uris": {"android": "https://dc.lft.to/lastmile_qr_scan", "ios": "https://dc.lft.to/lastmile_qr_scan"}, "fusion_lat": 0.0, "lat": 38.8873955, "is_disabled": 0, "lon": -77.01604716666667, "is_reserved": 0}, {"bike_id": "a09ededc50b5e9e6356f957d989c796d", "fusion_lon": 0.0, "type": "electric_scooter", "name": "a09ededc50b5e9e6356f957d989c796d", "rental_uris": {"android": "https://dc.lft.to/lastmile_qr_scan", "ios": "https://dc.lft.to/lastmile_qr_scan"}, "fusion_lat": 0.0, "lat": 38.921130833333336, "is_disabled": 0, "lon": -77.03647816666667, "is_reserved": 0}, {"bike_id": "c5cae978d09dbe43b9bf2b7d4ad01b90", "fusion_lon": 0.0, "type": "electric_scooter", "name": "c5cae978d09dbe43b9bf2b7d4ad01b90", "rental_uris": {"android": "https://dc.lft.to/lastmile_qr_scan", "ios": "https://dc.lft.to/lastmile_qr_scan"}, "fusion_lat": 0.0, "lat": 38.9222415, "is_disabled": 0, "lon": -77.04639233333333, "is_reserved": 0}, {"bike_id": "28df762d876293a46fd43494c72b72ad", "fusion_lon": 0.0, "type": "electric_bike", "name": "28df762d876293a46fd43494c72b72ad", "rental_uris": {"android": "https://dc.lft.to/lastmile_qr_scan", "ios": "https://dc.lft.to/lastmile_qr_scan"}, "fusion_lat": 0.0, "lat": 38.942046500000004, "is_disabled": 0, "lon": -76.96627483333333, "is_reserved": 0}, {"bike_id": "4e705f57d8250633a0e3ca89d3fed421", "fusion_lon": 0.0, "type": "electric_scooter", "name": "4e705f57d8250633a0e3ca89d3fed421", "rental_uris": {"android": "https://dc.lft.to/lastmile_qr_scan", "ios": "https://dc.lft.to/lastmile_qr_scan"}, "fusion_lat": 0.0, "lat": 38.9267465, "is_disabled": 0, "lon": -77.07836966666666, "is_reserved": 0}, {"bike_id": "9ea8bee0e817c71d6308833ea2a1dd11", "fusion_lon": 0.0, "type": "electric_scooter", "name": "9ea8bee0e817c71d6308833ea2a1dd11", "rental_uris": {"android": "https://dc.lft.to/lastmile_qr_scan", "ios": "https://dc.lft.to/lastmile_qr_scan"}, "fusion_lat": 0.0, "lat": 38.8940215, "is_disabled": 0, "lon": -77.02143566666666, "is_reserved": 0}, {"bike_id": "697ccb5b3a678a340a9cb3e3c3b561a2", "fusion_lon": 0.0, "type": "electric_scooter", "name": "697ccb5b3a678a340a9cb3e3c3b561a2", "rental_uris": {"android": "https://dc.lft.to/lastmile_qr_scan", "ios": "https://dc.lft.to/lastmile_qr_scan"}, "fusion_lat": 0.0, "lat": 38.918484, "is_disabled": 0, "lon": -77.03215166666666, "is_reserved": 0}, {"bike_id": "c455bab32e5a69a581b2675c9ba81aa7", "fusion_lon": 0.0, "type": "electric_scooter", "name": "c455bab32e5a69a581b2675c9ba81aa7", "rental_uris": {"android": "https://dc.lft.to/lastmile_qr_scan", "ios": "https://dc.lft.to/lastmile_qr_scan"}, "fusion_lat": 0.0, "lat": 38.94308933333333, "is_disabled": 0, "lon": -77.01541183333333, "is_reserved": 0}, {"bike_id": "634a9497e6e79be6854678b370a2e6a4", "fusion_lon": 0.0, "type": "electric_scooter", "name": "634a9497e6e79be6854678b370a2e6a4", "rental_uris": {"android": "https://dc.lft.to/lastmile_qr_scan", "ios": "https://dc.lft.to/lastmile_qr_scan"}, "fusion_lat": 0.0, "lat": 38.89525716666667, "is_disabled": 0, "lon": -76.948925, "is_reserved": 0}, {"bike_id": "cf6381aef11ef5c084193539f77c5931", "fusion_lon": 0.0, "type": "electric_scooter", "name": "cf6381aef11ef5c084193539f77c5931", "rental_uris": {"android": "https://dc.lft.to/lastmile_qr_scan", "ios": "https://dc.lft.to/lastmile_qr_scan"}, "fusion_lat": 0.0, "lat": 38.9096005, "is_disabled": 0, "lon": -77.01602833333334, "is_reserved": 0}, {"bike_id": "f56cd39c39397d011054025bbe0835d0", "fusion_lon": 0.0, "type": "electric_scooter", "name": "f56cd39c39397d011054025bbe0835d0", "rental_uris": {"android": "https://dc.lft.to/lastmile_qr_scan", "ios": "https://dc.lft.to/lastmile_qr_scan"}, "fusion_lat": 0.0, "lat": 38.90356083333333, "is_disabled": 0, "lon": -77.0005055, "is_reserved": 0}, {"bike_id": "ba48a988652ca0994552d8dd097a04cd", "fusion_lon": 0.0, "type": "electric_scooter", "name": "ba48a988652ca0994552d8dd097a04cd", "rental_uris": {"android": "https://dc.lft.to/lastmile_qr_scan", "ios": "https://dc.lft.to/lastmile_qr_scan"}, "fusion_lat": 0.0, "lat": 38.846169, "is_disabled": 0, "lon": -76.99631616666667, "is_reserved": 0}, {"bike_id": "9150d3d075fbbda7d0ae2ce58722f904", "fusion_lon": 0.0, "type": "electric_scooter", "name": "9150d3d075fbbda7d0ae2ce58722f904", "rental_uris": {"android": "https://dc.lft.to/lastmile_qr_scan", "ios": "https://dc.lft.to/lastmile_qr_scan"}, "fusion_lat": 0.0, "lat": 38.938771333333335, "is_disabled": 0, "lon": -77.02484933333334, "is_reserved": 0}, {"bike_id": "7426fd8c85f72418393f2e21630c789e", "fusion_lon": 0.0, "type": "electric_scooter", "name": "7426fd8c85f72418393f2e21630c789e", "rental_uris": {"android": "https://dc.lft.to/lastmile_qr_scan", "ios": "https://dc.lft.to/lastmile_qr_scan"}, "fusion_lat": 0.0, "lat": 38.9181935, "is_disabled": 0, "lon": -77.025341, "is_reserved": 0}, {"bike_id": "1fecdf42defddb8a38f489320a25c108", "fusion_lon": 0.0, "type": "electric_scooter", "name": "1fecdf42defddb8a38f489320a25c108", "rental_uris": {"android": "https://dc.lft.to/lastmile_qr_scan", "ios": "https://dc.lft.to/lastmile_qr_scan"}, "fusion_lat": 0.0, "lat": 38.861059833333336, "is_disabled": 0, "lon": -76.99017533333334, "is_reserved": 0}, {"bike_id": "ccc717e7cd86cf5be73accbb957aa089", "fusion_lon": 0.0, "type": "electric_scooter", "name": "ccc717e7cd86cf5be73accbb957aa089", "rental_uris": {"android": "https://dc.lft.to/lastmile_qr_scan", "ios": "https://dc.lft.to/lastmile_qr_scan"}, "fusion_lat": 0.0, "lat": 38.9245575, "is_disabled": 0, "lon": -77.02160766666667, "is_reserved": 0}, {"bike_id": "e61da3dfb002936d50bfbc26225b06c3", "fusion_lon": 0.0, "type": "electric_scooter", "name": "e61da3dfb002936d50bfbc26225b06c3", "rental_uris": {"android": "https://dc.lft.to/lastmile_qr_scan", "ios": "https://dc.lft.to/lastmile_qr_scan"}, "fusion_lat": 0.0, "lat": 38.9122545, "is_disabled": 0, "lon": -77.0380075, "is_reserved": 0}, {"bike_id": "2608d834aa419c13ceeee6a164a8c09e", "fusion_lon": 0.0, "type": "electric_scooter", "name": "2608d834aa419c13ceeee6a164a8c09e", "rental_uris": {"android": "https://dc.lft.to/lastmile_qr_scan", "ios": "https://dc.lft.to/lastmile_qr_scan"}, "fusion_lat": 0.0, "lat": 38.925710333333335, "is_disabled": 0, "lon": -77.04377333333333, "is_reserved": 0}, {"bike_id": "4295d5fb708e7e36716cca1117b78296", "fusion_lon": 0.0, "type": "electric_scooter", "name": "4295d5fb708e7e36716cca1117b78296", "rental_uris": {"android": "https://dc.lft.to/lastmile_qr_scan", "ios": "https://dc.lft.to/lastmile_qr_scan"}, "fusion_lat": 0.0, "lat": 38.935649833333336, "is_disabled": 0, "lon": -77.02138583333333, "is_reserved": 0}, {"bike_id": "7431b7fcd820db6f781fed1c4cb7f4df", "fusion_lon": 0.0, "type": "electric_scooter", "name": "7431b7fcd820db6f781fed1c4cb7f4df", "rental_uris": {"android": "https://dc.lft.to/lastmile_qr_scan", "ios": "https://dc.lft.to/lastmile_qr_scan"}, "fusion_lat": 0.0, "lat": 38.842915833333336, "is_disabled": 0, "lon": -76.99948666666667, "is_reserved": 0}, {"bike_id": "93c3a49a09f2e8fc907dfec91183d24f", "fusion_lon": 0.0, "type": "electric_scooter", "name": "93c3a49a09f2e8fc907dfec91183d24f", "rental_uris": {"android": "https://dc.lft.to/lastmile_qr_scan", "ios": "https://dc.lft.to/lastmile_qr_scan"}, "fusion_lat": 0.0, "lat": 38.900805166666665, "is_disabled": 0, "lon": -77.047924, "is_reserved": 0}, {"bike_id": "9a79a74c085166f25f1b0182d801da5e", "fusion_lon": 0.0, "type": "electric_scooter", "name": "9a79a74c085166f25f1b0182d801da5e", "rental_uris": {"android": "https://dc.lft.to/lastmile_qr_scan", "ios": "https://dc.lft.to/lastmile_qr_scan"}, "fusion_lat": 0.0, "lat": 38.930743, "is_disabled": 0, "lon": -77.03278366666666, "is_reserved": 0}, {"bike_id": "7a308ac616ead9e68f38e8a6684d76ae", "fusion_lon": 0.0, "type": "electric_scooter", "name": "7a308ac616ead9e68f38e8a6684d76ae", "rental_uris": {"android": "https://dc.lft.to/lastmile_qr_scan", "ios": "https://dc.lft.to/lastmile_qr_scan"}, "fusion_lat": 0.0, "lat": 38.92078133333333, "is_disabled": 0, "lon": -77.03819116666666, "is_reserved": 0}, {"bike_id": "7d38995a899c98656f36419d7f566bff", "fusion_lon": 0.0, "type": "electric_scooter", "name": "7d38995a899c98656f36419d7f566bff", "rental_uris": {"android": "https://dc.lft.to/lastmile_qr_scan", "ios": "https://dc.lft.to/lastmile_qr_scan"}, "fusion_lat": 0.0, "lat": 38.94925516666667, "is_disabled": 0, "lon": -77.01931466666667, "is_reserved": 0}, {"bike_id": "d86a63ff889ae213d03b342b2a05a8ec", "fusion_lon": 0.0, "type": "electric_scooter", "name": "d86a63ff889ae213d03b342b2a05a8ec", "rental_uris": {"android": "https://dc.lft.to/lastmile_qr_scan", "ios": "https://dc.lft.to/lastmile_qr_scan"}, "fusion_lat": 0.0, "lat": 38.89828933333333, "is_disabled": 0, "lon": -77.03342666666667, "is_reserved": 0}, {"bike_id": "95a8093e40d79307ee9c4f4b7c814023", "fusion_lon": 0.0, "type": "electric_scooter", "name": "95a8093e40d79307ee9c4f4b7c814023", "rental_uris": {"android": "https://dc.lft.to/lastmile_qr_scan", "ios": "https://dc.lft.to/lastmile_qr_scan"}, "fusion_lat": 0.0, "lat": 38.92914283333333, "is_disabled": 0, "lon": -77.02084016666667, "is_reserved": 0}, {"bike_id": "88c4afaa773d65e02586990ebd518462", "fusion_lon": 0.0, "type": "electric_scooter", "name": "88c4afaa773d65e02586990ebd518462", "rental_uris": {"android": "https://dc.lft.to/lastmile_qr_scan", "ios": "https://dc.lft.to/lastmile_qr_scan"}, "fusion_lat": 0.0, "lat": 38.871975166666665, "is_disabled": 0, "lon": -77.01246716666667, "is_reserved": 0}, {"bike_id": "a476952c8d943f0a00a0bebec389a8d3", "fusion_lon": 0.0, "type": "electric_scooter", "name": "a476952c8d943f0a00a0bebec389a8d3", "rental_uris": {"android": "https://dc.lft.to/lastmile_qr_scan", "ios": "https://dc.lft.to/lastmile_qr_scan"}, "fusion_lat": 0.0, "lat": 38.907858, "is_disabled": 0, "lon": -77.045139, "is_reserved": 0}, {"bike_id": "7f01646e88c318547cfdd27e5646f8bf", "fusion_lon": 0.0, "type": "electric_scooter", "name": "7f01646e88c318547cfdd27e5646f8bf", "rental_uris": {"android": "https://dc.lft.to/lastmile_qr_scan", "ios": "https://dc.lft.to/lastmile_qr_scan"}, "fusion_lat": 0.0, "lat": 38.911774333333334, "is_disabled": 0, "lon": -77.00551783333333, "is_reserved": 0}, {"bike_id": "a5e38284add26d7103244a991297ba0b", "fusion_lon": 0.0, "type": "electric_scooter", "name": "a5e38284add26d7103244a991297ba0b", "rental_uris": {"android": "https://dc.lft.to/lastmile_qr_scan", "ios": "https://dc.lft.to/lastmile_qr_scan"}, "fusion_lat": 0.0, "lat": 38.908426, "is_disabled": 0, "lon": -77.02692466666667, "is_reserved": 0}, {"bike_id": "99b1549fdff61636903e3d7581a8a4b2", "fusion_lon": 0.0, "type": "electric_scooter", "name": "99b1549fdff61636903e3d7581a8a4b2", "rental_uris": {"android": "https://dc.lft.to/lastmile_qr_scan", "ios": "https://dc.lft.to/lastmile_qr_scan"}, "fusion_lat": 0.0, "lat": 38.87710583333333, "is_disabled": 0, "lon": -77.01843166666667, "is_reserved": 0}, {"bike_id": "7f043a20c5629465a2ee5cc8f2f36b86", "fusion_lon": 0.0, "type": "electric_bike", "name": "7f043a20c5629465a2ee5cc8f2f36b86", "rental_uris": {"android": "https://dc.lft.to/lastmile_qr_scan", "ios": "https://dc.lft.to/lastmile_qr_scan"}, "fusion_lat": 0.0, "lat": 38.911262666666666, "is_disabled": 0, "lon": -77.065769, "is_reserved": 0}, {"bike_id": "33a045b571d46e962caa2a4314e85069", "fusion_lon": 0.0, "type": "electric_scooter", "name": "33a045b571d46e962caa2a4314e85069", "rental_uris": {"android": "https://dc.lft.to/lastmile_qr_scan", "ios": "https://dc.lft.to/lastmile_qr_scan"}, "fusion_lat": 0.0, "lat": 38.89975733333333, "is_disabled": 0, "lon": -76.99268816666667, "is_reserved": 0}, {"bike_id": "8bf3827ae20a39866523e695184caeaa", "fusion_lon": 0.0, "type": "electric_scooter", "name": "8bf3827ae20a39866523e695184caeaa", "rental_uris": {"android": "https://dc.lft.to/lastmile_qr_scan", "ios": "https://dc.lft.to/lastmile_qr_scan"}, "fusion_lat": 0.0, "lat": 38.88730416666667, "is_disabled": 0, "lon": -77.02314566666666, "is_reserved": 0}, {"bike_id": "7fcfa19691657dd39ed82512acb9e39c", "fusion_lon": 0.0, "type": "electric_scooter", "name": "7fcfa19691657dd39ed82512acb9e39c", "rental_uris": {"android": "https://dc.lft.to/lastmile_qr_scan", "ios": "https://dc.lft.to/lastmile_qr_scan"}, "fusion_lat": 0.0, "lat": 38.92901783333333, "is_disabled": 0, "lon": -77.03750116666667, "is_reserved": 0}, {"bike_id": "64a9c702a63e31b5dfef49e966140cb3", "fusion_lon": 0.0, "type": "electric_scooter", "name": "64a9c702a63e31b5dfef49e966140cb3", "rental_uris": {"android": "https://dc.lft.to/lastmile_qr_scan", "ios": "https://dc.lft.to/lastmile_qr_scan"}, "fusion_lat": 0.0, "lat": 38.89232333333333, "is_disabled": 0, "lon": -76.98803466666666, "is_reserved": 0}, {"bike_id": "b72496d5140919694731867c83805892", "fusion_lon": 0.0, "type": "electric_bike", "name": "b72496d5140919694731867c83805892", "rental_uris": {"android": "https://dc.lft.to/lastmile_qr_scan", "ios": "https://dc.lft.to/lastmile_qr_scan"}, "fusion_lat": 0.0, "lat": 38.953203333333335, "is_disabled": 0, "lon": -76.954418, "is_reserved": 0}, {"bike_id": "678b95051b9bfe90abcca0d2259e209d", "fusion_lon": 0.0, "type": "electric_scooter", "name": "678b95051b9bfe90abcca0d2259e209d", "rental_uris": {"android": "https://dc.lft.to/lastmile_qr_scan", "ios": "https://dc.lft.to/lastmile_qr_scan"}, "fusion_lat": 0.0, "lat": 38.917075833333335, "is_disabled": 0, "lon": -77.04036916666666, "is_reserved": 0}, {"bike_id": "c648717ee8aee742504749d7f4b5ca49", "fusion_lon": 0.0, "type": "electric_scooter", "name": "c648717ee8aee742504749d7f4b5ca49", "rental_uris": {"android": "https://dc.lft.to/lastmile_qr_scan", "ios": "https://dc.lft.to/lastmile_qr_scan"}, "fusion_lat": 0.0, "lat": 38.900098666666665, "is_disabled": 0, "lon": -77.045828, "is_reserved": 0}, {"bike_id": "3a2edd53179ee4f380ec74d388fa4ca0", "fusion_lon": 0.0, "type": "electric_scooter", "name": "3a2edd53179ee4f380ec74d388fa4ca0", "rental_uris": {"android": "https://dc.lft.to/lastmile_qr_scan", "ios": "https://dc.lft.to/lastmile_qr_scan"}, "fusion_lat": 0.0, "lat": 38.931713, "is_disabled": 0, "lon": -77.07853283333333, "is_reserved": 0}, {"bike_id": "d6971ce6cb4564fa4a8abd27df5261fc", "fusion_lon": 0.0, "type": "electric_bike", "name": "d6971ce6cb4564fa4a8abd27df5261fc", "rental_uris": {"android": "https://dc.lft.to/lastmile_qr_scan", "ios": "https://dc.lft.to/lastmile_qr_scan"}, "fusion_lat": 0.0, "lat": 39.052001, "is_disabled": 0, "lon": -77.109231, "is_reserved": 0}, {"bike_id": "c18018a69fad8bdf833695e7c3764f54", "fusion_lon": 0.0, "type": "electric_scooter", "name": "c18018a69fad8bdf833695e7c3764f54", "rental_uris": {"android": "https://dc.lft.to/lastmile_qr_scan", "ios": "https://dc.lft.to/lastmile_qr_scan"}, "fusion_lat": 0.0, "lat": 38.91482933333333, "is_disabled": 0, "lon": -77.0321615, "is_reserved": 0}, {"bike_id": "851d2d711691aa9cec55e4b99759291c", "fusion_lon": 0.0, "type": "electric_scooter", "name": "851d2d711691aa9cec55e4b99759291c", "rental_uris": {"android": "https://dc.lft.to/lastmile_qr_scan", "ios": "https://dc.lft.to/lastmile_qr_scan"}, "fusion_lat": 0.0, "lat": 38.91792516666667, "is_disabled": 0, "lon": -77.03435283333333, "is_reserved": 0}, {"bike_id": "fa121403e2ee830e79e787a10bf39723", "fusion_lon": 0.0, "type": "electric_scooter", "name": "fa121403e2ee830e79e787a10bf39723", "rental_uris": {"android": "https://dc.lft.to/lastmile_qr_scan", "ios": "https://dc.lft.to/lastmile_qr_scan"}, "fusion_lat": 0.0, "lat": 38.8764935, "is_disabled": 0, "lon": -76.96507916666667, "is_reserved": 0}, {"bike_id": "5bc9fbe58a4c36df6d3fbd1ce2515769", "fusion_lon": 0.0, "type": "electric_scooter", "name": "5bc9fbe58a4c36df6d3fbd1ce2515769", "rental_uris": {"android": "https://dc.lft.to/lastmile_qr_scan", "ios": "https://dc.lft.to/lastmile_qr_scan"}, "fusion_lat": 0.0, "lat": 38.871044833333336, "is_disabled": 0, "lon": -77.01074883333334, "is_reserved": 0}, {"bike_id": "b238fc2bb3708856afdf3bddd830f54f", "fusion_lon": 0.0, "type": "electric_scooter", "name": "b238fc2bb3708856afdf3bddd830f54f", "rental_uris": {"android": "https://dc.lft.to/lastmile_qr_scan", "ios": "https://dc.lft.to/lastmile_qr_scan"}, "fusion_lat": 0.0, "lat": 38.9004085, "is_disabled": 0, "lon": -77.0320925, "is_reserved": 0}, {"bike_id": "638d1e4852f02f65b4be74f85accc1a4", "fusion_lon": 0.0, "type": "electric_scooter", "name": "638d1e4852f02f65b4be74f85accc1a4", "rental_uris": {"android": "https://dc.lft.to/lastmile_qr_scan", "ios": "https://dc.lft.to/lastmile_qr_scan"}, "fusion_lat": 0.0, "lat": 38.90868716666667, "is_disabled": 0, "lon": -77.02362033333333, "is_reserved": 0}, {"bike_id": "f975410f57e5b2875138f9a97f48c6c2", "fusion_lon": 0.0, "type": "electric_scooter", "name": "f975410f57e5b2875138f9a97f48c6c2", "rental_uris": {"android": "https://dc.lft.to/lastmile_qr_scan", "ios": "https://dc.lft.to/lastmile_qr_scan"}, "fusion_lat": 0.0, "lat": 38.918451833333336, "is_disabled": 0, "lon": -76.9655765, "is_reserved": 0}, {"bike_id": "d815366f7b2bcb4e91c4da99f67d0d2c", "fusion_lon": 0.0, "type": "electric_scooter", "name": "d815366f7b2bcb4e91c4da99f67d0d2c", "rental_uris": {"android": "https://dc.lft.to/lastmile_qr_scan", "ios": "https://dc.lft.to/lastmile_qr_scan"}, "fusion_lat": 0.0, "lat": 38.858739166666666, "is_disabled": 0, "lon": -76.990398, "is_reserved": 0}, {"bike_id": "016720bf8a664868a6fe0a06837717ba", "fusion_lon": 0.0, "type": "electric_bike", "name": "016720bf8a664868a6fe0a06837717ba", "rental_uris": {"android": "https://dc.lft.to/lastmile_qr_scan", "ios": "https://dc.lft.to/lastmile_qr_scan"}, "fusion_lat": 0.0, "lat": 38.93700483333333, "is_disabled": 0, "lon": -77.0297585, "is_reserved": 0}, {"bike_id": "5260206d0d34adf8b45d70e9659f98d3", "fusion_lon": 0.0, "type": "electric_scooter", "name": "5260206d0d34adf8b45d70e9659f98d3", "rental_uris": {"android": "https://dc.lft.to/lastmile_qr_scan", "ios": "https://dc.lft.to/lastmile_qr_scan"}, "fusion_lat": 0.0, "lat": 38.887397666666665, "is_disabled": 0, "lon": -77.02403283333334, "is_reserved": 0}, {"bike_id": "a8b1caa5e78c6e4ef4e4345412cec9c6", "fusion_lon": 0.0, "type": "electric_scooter", "name": "a8b1caa5e78c6e4ef4e4345412cec9c6", "rental_uris": {"android": "https://dc.lft.to/lastmile_qr_scan", "ios": "https://dc.lft.to/lastmile_qr_scan"}, "fusion_lat": 0.0, "lat": 38.922753166666666, "is_disabled": 0, "lon": -77.04389466666667, "is_reserved": 0}, {"bike_id": "7d2583e5a85be9ee1fb9e6bfe5bbd1c9", "fusion_lon": 0.0, "type": "electric_scooter", "name": "7d2583e5a85be9ee1fb9e6bfe5bbd1c9", "rental_uris": {"android": "https://dc.lft.to/lastmile_qr_scan", "ios": "https://dc.lft.to/lastmile_qr_scan"}, "fusion_lat": 0.0, "lat": 38.908147, "is_disabled": 0, "lon": -77.01821416666667, "is_reserved": 0}, {"bike_id": "720b5b6feb1492074140e8d109826248", "fusion_lon": 0.0, "type": "electric_scooter", "name": "720b5b6feb1492074140e8d109826248", "rental_uris": {"android": "https://dc.lft.to/lastmile_qr_scan", "ios": "https://dc.lft.to/lastmile_qr_scan"}, "fusion_lat": 0.0, "lat": 38.89221516666667, "is_disabled": 0, "lon": -77.02959066666666, "is_reserved": 0}, {"bike_id": "011f527c5632bc9e2fa44c12d4f7fca2", "fusion_lon": 0.0, "type": "electric_scooter", "name": "011f527c5632bc9e2fa44c12d4f7fca2", "rental_uris": {"android": "https://dc.lft.to/lastmile_qr_scan", "ios": "https://dc.lft.to/lastmile_qr_scan"}, "fusion_lat": 0.0, "lat": 38.91647916666667, "is_disabled": 0, "lon": -77.02275816666666, "is_reserved": 0}, {"bike_id": "c985d34a3e9d0d97a12cc9b28f704eeb", "fusion_lon": 0.0, "type": "electric_scooter", "name": "c985d34a3e9d0d97a12cc9b28f704eeb", "rental_uris": {"android": "https://dc.lft.to/lastmile_qr_scan", "ios": "https://dc.lft.to/lastmile_qr_scan"}, "fusion_lat": 0.0, "lat": 38.91035383333333, "is_disabled": 0, "lon": -77.03141166666667, "is_reserved": 0}, {"bike_id": "f9ee735f87aff02cf3836c08213f627f", "fusion_lon": 0.0, "type": "electric_scooter", "name": "f9ee735f87aff02cf3836c08213f627f", "rental_uris": {"android": "https://dc.lft.to/lastmile_qr_scan", "ios": "https://dc.lft.to/lastmile_qr_scan"}, "fusion_lat": 0.0, "lat": 38.8442315, "is_disabled": 0, "lon": -76.998286, "is_reserved": 0}, {"bike_id": "c38d7412d1defa371c991ce569713a95", "fusion_lon": 0.0, "type": "electric_bike", "name": "c38d7412d1defa371c991ce569713a95", "rental_uris": {"android": "https://dc.lft.to/lastmile_qr_scan", "ios": "https://dc.lft.to/lastmile_qr_scan"}, "fusion_lat": 0.0, "lat": 38.95116466666666, "is_disabled": 0, "lon": -76.96546083333334, "is_reserved": 0}, {"bike_id": "faa58e039d7e891e155821f8938db463", "fusion_lon": 0.0, "type": "electric_scooter", "name": "faa58e039d7e891e155821f8938db463", "rental_uris": {"android": "https://dc.lft.to/lastmile_qr_scan", "ios": "https://dc.lft.to/lastmile_qr_scan"}, "fusion_lat": 0.0, "lat": 38.9736735, "is_disabled": 0, "lon": -77.01865383333333, "is_reserved": 0}, {"bike_id": "0451eaff2ae89c3514f22c853980ad6d", "fusion_lon": 0.0, "type": "electric_bike", "name": "0451eaff2ae89c3514f22c853980ad6d", "rental_uris": {"android": "https://dc.lft.to/lastmile_qr_scan", "ios": "https://dc.lft.to/lastmile_qr_scan"}, "fusion_lat": 0.0, "lat": 39.0581285, "is_disabled": 0, "lon": -77.12624716666667, "is_reserved": 0}, {"bike_id": "a90edada1cba6739f28f605f946d172e", "fusion_lon": 0.0, "type": "electric_bike", "name": "a90edada1cba6739f28f605f946d172e", "rental_uris": {"android": "https://dc.lft.to/lastmile_qr_scan", "ios": "https://dc.lft.to/lastmile_qr_scan"}, "fusion_lat": 0.0, "lat": 38.857891333333335, "is_disabled": 0, "lon": -76.98742683333333, "is_reserved": 0}, {"bike_id": "ce306e7ab2c888f1184a71460931be06", "fusion_lon": 0.0, "type": "electric_scooter", "name": "ce306e7ab2c888f1184a71460931be06", "rental_uris": {"android": "https://dc.lft.to/lastmile_qr_scan", "ios": "https://dc.lft.to/lastmile_qr_scan"}, "fusion_lat": 0.0, "lat": 38.931153333333334, "is_disabled": 0, "lon": -77.0380735, "is_reserved": 0}, {"bike_id": "52daef201cc82e6c025e75bd68325179", "fusion_lon": 0.0, "type": "electric_scooter", "name": "52daef201cc82e6c025e75bd68325179", "rental_uris": {"android": "https://dc.lft.to/lastmile_qr_scan", "ios": "https://dc.lft.to/lastmile_qr_scan"}, "fusion_lat": 0.0, "lat": 38.95592583333333, "is_disabled": 0, "lon": -77.03649116666666, "is_reserved": 0}, {"bike_id": "fd90006bb34eaea19a745325f7feaec8", "fusion_lon": 0.0, "type": "electric_scooter", "name": "fd90006bb34eaea19a745325f7feaec8", "rental_uris": {"android": "https://dc.lft.to/lastmile_qr_scan", "ios": "https://dc.lft.to/lastmile_qr_scan"}, "fusion_lat": 0.0, "lat": 38.906476, "is_disabled": 0, "lon": -77.05327716666666, "is_reserved": 0}, {"bike_id": "082fdab7a70dc476e33b7a73c9f20662", "fusion_lon": 0.0, "type": "electric_scooter", "name": "082fdab7a70dc476e33b7a73c9f20662", "rental_uris": {"android": "https://dc.lft.to/lastmile_qr_scan", "ios": "https://dc.lft.to/lastmile_qr_scan"}, "fusion_lat": 0.0, "lat": 38.90387033333333, "is_disabled": 0, "lon": -77.04026516666667, "is_reserved": 0}, {"bike_id": "078381990c1783615e26c5b528fcaaef", "fusion_lon": 0.0, "type": "electric_bike", "name": "078381990c1783615e26c5b528fcaaef", "rental_uris": {"android": "https://dc.lft.to/lastmile_qr_scan", "ios": "https://dc.lft.to/lastmile_qr_scan"}, "fusion_lat": 0.0, "lat": 38.92207333333333, "is_disabled": 0, "lon": -76.9879915, "is_reserved": 0}, {"bike_id": "f73c97b92408fa0baf9ee1434dc0925b", "fusion_lon": 0.0, "type": "electric_scooter", "name": "f73c97b92408fa0baf9ee1434dc0925b", "rental_uris": {"android": "https://dc.lft.to/lastmile_qr_scan", "ios": "https://dc.lft.to/lastmile_qr_scan"}, "fusion_lat": 0.0, "lat": 38.8952615, "is_disabled": 0, "lon": -77.03346566666667, "is_reserved": 0}, {"bike_id": "95d5baed179e21b060831c81f8c5e6f7", "fusion_lon": 0.0, "type": "electric_scooter", "name": "95d5baed179e21b060831c81f8c5e6f7", "rental_uris": {"android": "https://dc.lft.to/lastmile_qr_scan", "ios": "https://dc.lft.to/lastmile_qr_scan"}, "fusion_lat": 0.0, "lat": 38.88741866666667, "is_disabled": 0, "lon": -77.01868766666666, "is_reserved": 0}, {"bike_id": "2fb497490ff9cce7b3cbeb1a3bc9682a", "fusion_lon": 0.0, "type": "electric_scooter", "name": "2fb497490ff9cce7b3cbeb1a3bc9682a", "rental_uris": {"android": "https://dc.lft.to/lastmile_qr_scan", "ios": "https://dc.lft.to/lastmile_qr_scan"}, "fusion_lat": 0.0, "lat": 38.9306675, "is_disabled": 0, "lon": -77.0417465, "is_reserved": 0}, {"bike_id": "d2caba50aecc718c5707982cfb9907cb", "fusion_lon": 0.0, "type": "electric_scooter", "name": "d2caba50aecc718c5707982cfb9907cb", "rental_uris": {"android": "https://dc.lft.to/lastmile_qr_scan", "ios": "https://dc.lft.to/lastmile_qr_scan"}, "fusion_lat": 0.0, "lat": 38.909608666666664, "is_disabled": 0, "lon": -77.02386716666666, "is_reserved": 0}, {"bike_id": "e841007144f80dd70c80b41193ab0fb6", "fusion_lon": 0.0, "type": "electric_scooter", "name": "e841007144f80dd70c80b41193ab0fb6", "rental_uris": {"android": "https://dc.lft.to/lastmile_qr_scan", "ios": "https://dc.lft.to/lastmile_qr_scan"}, "fusion_lat": 0.0, "lat": 38.90264166666667, "is_disabled": 0, "lon": -77.00914383333334, "is_reserved": 0}, {"bike_id": "9f269e387b1cf2e731005861142b3aa6", "fusion_lon": 0.0, "type": "electric_bike", "name": "9f269e387b1cf2e731005861142b3aa6", "rental_uris": {"android": "https://dc.lft.to/lastmile_qr_scan", "ios": "https://dc.lft.to/lastmile_qr_scan"}, "fusion_lat": 0.0, "lat": 38.85418883333333, "is_disabled": 0, "lon": -76.9095115, "is_reserved": 0}, {"bike_id": "fa8c04f2f6e0de066db5b753fce331a0", "fusion_lon": 0.0, "type": "electric_scooter", "name": "fa8c04f2f6e0de066db5b753fce331a0", "rental_uris": {"android": "https://dc.lft.to/lastmile_qr_scan", "ios": "https://dc.lft.to/lastmile_qr_scan"}, "fusion_lat": 0.0, "lat": 38.9176075, "is_disabled": 0, "lon": -77.0269735, "is_reserved": 0}, {"bike_id": "d9c75307fa4e1c28026aff2488d279b1", "fusion_lon": 0.0, "type": "electric_scooter", "name": "d9c75307fa4e1c28026aff2488d279b1", "rental_uris": {"android": "https://dc.lft.to/lastmile_qr_scan", "ios": "https://dc.lft.to/lastmile_qr_scan"}, "fusion_lat": 0.0, "lat": 38.944571833333335, "is_disabled": 0, "lon": -77.02807033333333, "is_reserved": 0}, {"bike_id": "04622dba350fb6be1ad1bee36a52da30", "fusion_lon": 0.0, "type": "electric_scooter", "name": "04622dba350fb6be1ad1bee36a52da30", "rental_uris": {"android": "https://dc.lft.to/lastmile_qr_scan", "ios": "https://dc.lft.to/lastmile_qr_scan"}, "fusion_lat": 0.0, "lat": 38.918396, "is_disabled": 0, "lon": -77.03922366666667, "is_reserved": 0}, {"bike_id": "9c7ef5140c9ef15cf93efd35b12e7b0f", "fusion_lon": 0.0, "type": "electric_scooter", "name": "9c7ef5140c9ef15cf93efd35b12e7b0f", "rental_uris": {"android": "https://dc.lft.to/lastmile_qr_scan", "ios": "https://dc.lft.to/lastmile_qr_scan"}, "fusion_lat": 0.0, "lat": 38.91347616666667, "is_disabled": 0, "lon": -77.00343883333333, "is_reserved": 0}, {"bike_id": "1f903ea775fc89199132317df4305ede", "fusion_lon": 0.0, "type": "electric_scooter", "name": "1f903ea775fc89199132317df4305ede", "rental_uris": {"android": "https://dc.lft.to/lastmile_qr_scan", "ios": "https://dc.lft.to/lastmile_qr_scan"}, "fusion_lat": 0.0, "lat": 38.89437433333333, "is_disabled": 0, "lon": -77.0011285, "is_reserved": 0}, {"bike_id": "2c87c503635d0791fd3cdc4e7d51dd5f", "fusion_lon": 0.0, "type": "electric_scooter", "name": "2c87c503635d0791fd3cdc4e7d51dd5f", "rental_uris": {"android": "https://dc.lft.to/lastmile_qr_scan", "ios": "https://dc.lft.to/lastmile_qr_scan"}, "fusion_lat": 0.0, "lat": 38.89232533333333, "is_disabled": 0, "lon": -77.050011, "is_reserved": 0}, {"bike_id": "e42b0f30be74a84251cbeffa3676e92e", "fusion_lon": 0.0, "type": "electric_scooter", "name": "e42b0f30be74a84251cbeffa3676e92e", "rental_uris": {"android": "https://dc.lft.to/lastmile_qr_scan", "ios": "https://dc.lft.to/lastmile_qr_scan"}, "fusion_lat": 0.0, "lat": 38.892239833333335, "is_disabled": 0, "lon": -77.02721116666666, "is_reserved": 0}, {"bike_id": "6914db3514c5ea3f1e069281d019b6a6", "fusion_lon": 0.0, "type": "electric_scooter", "name": "6914db3514c5ea3f1e069281d019b6a6", "rental_uris": {"android": "https://dc.lft.to/lastmile_qr_scan", "ios": "https://dc.lft.to/lastmile_qr_scan"}, "fusion_lat": 0.0, "lat": 38.935500833333336, "is_disabled": 0, "lon": -77.08219933333334, "is_reserved": 0}, {"bike_id": "19d3ea4f91903f16f1954814655f1eb3", "fusion_lon": 0.0, "type": "electric_scooter", "name": "19d3ea4f91903f16f1954814655f1eb3", "rental_uris": {"android": "https://dc.lft.to/lastmile_qr_scan", "ios": "https://dc.lft.to/lastmile_qr_scan"}, "fusion_lat": 0.0, "lat": 38.92470433333333, "is_disabled": 0, "lon": -77.0283375, "is_reserved": 0}, {"bike_id": "0adca1e8acddf254536f1feda6566544", "fusion_lon": 0.0, "type": "electric_scooter", "name": "0adca1e8acddf254536f1feda6566544", "rental_uris": {"android": "https://dc.lft.to/lastmile_qr_scan", "ios": "https://dc.lft.to/lastmile_qr_scan"}, "fusion_lat": 0.0, "lat": 38.90255716666667, "is_disabled": 0, "lon": -77.02608016666667, "is_reserved": 0}, {"bike_id": "0cbe9767e4e123a62e0d3b555f994c35", "fusion_lon": 0.0, "type": "electric_scooter", "name": "0cbe9767e4e123a62e0d3b555f994c35", "rental_uris": {"android": "https://dc.lft.to/lastmile_qr_scan", "ios": "https://dc.lft.to/lastmile_qr_scan"}, "fusion_lat": 0.0, "lat": 38.903648, "is_disabled": 0, "lon": -77.01916333333334, "is_reserved": 0}, {"bike_id": "efcfc5ebc26e92abe580211eefcdc5e8", "fusion_lon": 0.0, "type": "electric_scooter", "name": "efcfc5ebc26e92abe580211eefcdc5e8", "rental_uris": {"android": "https://dc.lft.to/lastmile_qr_scan", "ios": "https://dc.lft.to/lastmile_qr_scan"}, "fusion_lat": 0.0, "lat": 38.855858, "is_disabled": 0, "lon": -76.98554666666666, "is_reserved": 0}, {"bike_id": "806068ac1f6647d83e06484e8ea36e5e", "fusion_lon": 0.0, "type": "electric_scooter", "name": "806068ac1f6647d83e06484e8ea36e5e", "rental_uris": {"android": "https://dc.lft.to/lastmile_qr_scan", "ios": "https://dc.lft.to/lastmile_qr_scan"}, "fusion_lat": 0.0, "lat": 38.934780833333335, "is_disabled": 0, "lon": -77.072646, "is_reserved": 0}, {"bike_id": "1d4459d11e934e3a2f3ef0a239b256f3", "fusion_lon": 0.0, "type": "electric_scooter", "name": "1d4459d11e934e3a2f3ef0a239b256f3", "rental_uris": {"android": "https://dc.lft.to/lastmile_qr_scan", "ios": "https://dc.lft.to/lastmile_qr_scan"}, "fusion_lat": 0.0, "lat": 38.908782, "is_disabled": 0, "lon": -77.03458383333333, "is_reserved": 0}, {"bike_id": "97d4f1c9435bec525dd4398cf1ba4954", "fusion_lon": 0.0, "type": "electric_scooter", "name": "97d4f1c9435bec525dd4398cf1ba4954", "rental_uris": {"android": "https://dc.lft.to/lastmile_qr_scan", "ios": "https://dc.lft.to/lastmile_qr_scan"}, "fusion_lat": 0.0, "lat": 38.908326333333335, "is_disabled": 0, "lon": -77.03674116666667, "is_reserved": 0}, {"bike_id": "233eecc8156a34e0c4e63129911a9294", "fusion_lon": 0.0, "type": "electric_scooter", "name": "233eecc8156a34e0c4e63129911a9294", "rental_uris": {"android": "https://dc.lft.to/lastmile_qr_scan", "ios": "https://dc.lft.to/lastmile_qr_scan"}, "fusion_lat": 0.0, "lat": 38.900428833333336, "is_disabled": 0, "lon": -77.02617716666667, "is_reserved": 0}, {"bike_id": "06aa32d23767faa30fdc01cea06540f9", "fusion_lon": 0.0, "type": "electric_scooter", "name": "06aa32d23767faa30fdc01cea06540f9", "rental_uris": {"android": "https://dc.lft.to/lastmile_qr_scan", "ios": "https://dc.lft.to/lastmile_qr_scan"}, "fusion_lat": 0.0, "lat": 38.922833833333335, "is_disabled": 0, "lon": -76.99460033333334, "is_reserved": 0}, {"bike_id": "45a1cb429a599e998bfbf62808747337", "fusion_lon": 0.0, "type": "electric_scooter", "name": "45a1cb429a599e998bfbf62808747337", "rental_uris": {"android": "https://dc.lft.to/lastmile_qr_scan", "ios": "https://dc.lft.to/lastmile_qr_scan"}, "fusion_lat": 0.0, "lat": 38.92355116666667, "is_disabled": 0, "lon": -77.04061816666666, "is_reserved": 0}, {"bike_id": "55fa63e1a8c38a4d0b702139f61f6398", "fusion_lon": 0.0, "type": "electric_scooter", "name": "55fa63e1a8c38a4d0b702139f61f6398", "rental_uris": {"android": "https://dc.lft.to/lastmile_qr_scan", "ios": "https://dc.lft.to/lastmile_qr_scan"}, "fusion_lat": 0.0, "lat": 38.89965816666667, "is_disabled": 0, "lon": -77.03332416666667, "is_reserved": 0}, {"bike_id": "7fc04a8b0c011e24dceb97bbcc74ff26", "fusion_lon": 0.0, "type": "electric_bike", "name": "7fc04a8b0c011e24dceb97bbcc74ff26", "rental_uris": {"android": "https://dc.lft.to/lastmile_qr_scan", "ios": "https://dc.lft.to/lastmile_qr_scan"}, "fusion_lat": 0.0, "lat": 38.82727083333333, "is_disabled": 0, "lon": -77.00859716666666, "is_reserved": 0}, {"bike_id": "5b0e6044db4e4898d3318375646802d9", "fusion_lon": 0.0, "type": "electric_scooter", "name": "5b0e6044db4e4898d3318375646802d9", "rental_uris": {"android": "https://dc.lft.to/lastmile_qr_scan", "ios": "https://dc.lft.to/lastmile_qr_scan"}, "fusion_lat": 0.0, "lat": 38.94325, "is_disabled": 0, "lon": -77.07366033333334, "is_reserved": 0}, {"bike_id": "d30de651329dadae30b1251723140d33", "fusion_lon": 0.0, "type": "electric_scooter", "name": "d30de651329dadae30b1251723140d33", "rental_uris": {"android": "https://dc.lft.to/lastmile_qr_scan", "ios": "https://dc.lft.to/lastmile_qr_scan"}, "fusion_lat": 0.0, "lat": 38.9000085, "is_disabled": 0, "lon": -77.04041133333334, "is_reserved": 0}, {"bike_id": "7a0d2bdafd453d8fc916b33e201c65c7", "fusion_lon": 0.0, "type": "electric_scooter", "name": "7a0d2bdafd453d8fc916b33e201c65c7", "rental_uris": {"android": "https://dc.lft.to/lastmile_qr_scan", "ios": "https://dc.lft.to/lastmile_qr_scan"}, "fusion_lat": 0.0, "lat": 38.87548733333333, "is_disabled": 0, "lon": -76.9649185, "is_reserved": 0}, {"bike_id": "c3fceb4266df73c5ea7cdd3852425dd8", "fusion_lon": 0.0, "type": "electric_scooter", "name": "c3fceb4266df73c5ea7cdd3852425dd8", "rental_uris": {"android": "https://dc.lft.to/lastmile_qr_scan", "ios": "https://dc.lft.to/lastmile_qr_scan"}, "fusion_lat": 0.0, "lat": 38.928769, "is_disabled": 0, "lon": -77.0138745, "is_reserved": 0}, {"bike_id": "d8779d2ca60e02948afd6cc1c886df9a", "fusion_lon": 0.0, "type": "electric_scooter", "name": "d8779d2ca60e02948afd6cc1c886df9a", "rental_uris": {"android": "https://dc.lft.to/lastmile_qr_scan", "ios": "https://dc.lft.to/lastmile_qr_scan"}, "fusion_lat": 0.0, "lat": 38.896143, "is_disabled": 0, "lon": -76.99935916666666, "is_reserved": 0}, {"bike_id": "33a7ed1241e419dfbad6afc71e4e508b", "fusion_lon": 0.0, "type": "electric_scooter", "name": "33a7ed1241e419dfbad6afc71e4e508b", "rental_uris": {"android": "https://dc.lft.to/lastmile_qr_scan", "ios": "https://dc.lft.to/lastmile_qr_scan"}, "fusion_lat": 0.0, "lat": 38.902609166666664, "is_disabled": 0, "lon": -77.0543795, "is_reserved": 0}, {"bike_id": "5add78050a8f0f8561b1ead9c754ddc6", "fusion_lon": 0.0, "type": "electric_scooter", "name": "5add78050a8f0f8561b1ead9c754ddc6", "rental_uris": {"android": "https://dc.lft.to/lastmile_qr_scan", "ios": "https://dc.lft.to/lastmile_qr_scan"}, "fusion_lat": 0.0, "lat": 38.91595783333333, "is_disabled": 0, "lon": -77.01717466666666, "is_reserved": 0}, {"bike_id": "c222c8110e63cc92bdcb4ebeb21d7f4b", "fusion_lon": 0.0, "type": "electric_bike", "name": "c222c8110e63cc92bdcb4ebeb21d7f4b", "rental_uris": {"android": "https://dc.lft.to/lastmile_qr_scan", "ios": "https://dc.lft.to/lastmile_qr_scan"}, "fusion_lat": 0.0, "lat": 38.87549716666667, "is_disabled": 0, "lon": -76.96488433333333, "is_reserved": 0}, {"bike_id": "b5e0cdcf76ce6eb017b42687788f09e9", "fusion_lon": 0.0, "type": "electric_bike", "name": "b5e0cdcf76ce6eb017b42687788f09e9", "rental_uris": {"android": "https://dc.lft.to/lastmile_qr_scan", "ios": "https://dc.lft.to/lastmile_qr_scan"}, "fusion_lat": 0.0, "lat": 38.93666616666667, "is_disabled": 0, "lon": -76.95211283333333, "is_reserved": 0}, {"bike_id": "b02c1a7ebb4b598d6f5e0ea199b14495", "fusion_lon": 0.0, "type": "electric_scooter", "name": "b02c1a7ebb4b598d6f5e0ea199b14495", "rental_uris": {"android": "https://dc.lft.to/lastmile_qr_scan", "ios": "https://dc.lft.to/lastmile_qr_scan"}, "fusion_lat": 0.0, "lat": 38.929821833333335, "is_disabled": 0, "lon": -77.0234305, "is_reserved": 0}, {"bike_id": "46267a0c7d2583520cf0b08bce80bd81", "fusion_lon": 0.0, "type": "electric_scooter", "name": "46267a0c7d2583520cf0b08bce80bd81", "rental_uris": {"android": "https://dc.lft.to/lastmile_qr_scan", "ios": "https://dc.lft.to/lastmile_qr_scan"}, "fusion_lat": 0.0, "lat": 38.91915783333334, "is_disabled": 0, "lon": -77.03417166666667, "is_reserved": 0}, {"bike_id": "352e4e89cdbbc6de7c33422fc84db2bf", "fusion_lon": 0.0, "type": "electric_scooter", "name": "352e4e89cdbbc6de7c33422fc84db2bf", "rental_uris": {"android": "https://dc.lft.to/lastmile_qr_scan", "ios": "https://dc.lft.to/lastmile_qr_scan"}, "fusion_lat": 0.0, "lat": 38.8987665, "is_disabled": 0, "lon": -76.93184066666667, "is_reserved": 0}, {"bike_id": "625e0e09d482e8068e3b684c9cdd839f", "fusion_lon": 0.0, "type": "electric_scooter", "name": "625e0e09d482e8068e3b684c9cdd839f", "rental_uris": {"android": "https://dc.lft.to/lastmile_qr_scan", "ios": "https://dc.lft.to/lastmile_qr_scan"}, "fusion_lat": 0.0, "lat": 38.927692666666665, "is_disabled": 0, "lon": -77.02789533333333, "is_reserved": 0}, {"bike_id": "f4e35c0404b34e54321963dffeb3a33f", "fusion_lon": 0.0, "type": "electric_scooter", "name": "f4e35c0404b34e54321963dffeb3a33f", "rental_uris": {"android": "https://dc.lft.to/lastmile_qr_scan", "ios": "https://dc.lft.to/lastmile_qr_scan"}, "fusion_lat": 0.0, "lat": 38.87689683333333, "is_disabled": 0, "lon": -77.01619866666667, "is_reserved": 0}, {"bike_id": "d2ad5cf6c48bd7943481502a2b88daca", "fusion_lon": 0.0, "type": "electric_scooter", "name": "d2ad5cf6c48bd7943481502a2b88daca", "rental_uris": {"android": "https://dc.lft.to/lastmile_qr_scan", "ios": "https://dc.lft.to/lastmile_qr_scan"}, "fusion_lat": 0.0, "lat": 38.904158333333335, "is_disabled": 0, "lon": -77.00122266666666, "is_reserved": 0}, {"bike_id": "d68aa531ff60af7126ed5e56697054d2", "fusion_lon": 0.0, "type": "electric_scooter", "name": "d68aa531ff60af7126ed5e56697054d2", "rental_uris": {"android": "https://dc.lft.to/lastmile_qr_scan", "ios": "https://dc.lft.to/lastmile_qr_scan"}, "fusion_lat": 0.0, "lat": 38.923699, "is_disabled": 0, "lon": -77.035287, "is_reserved": 0}, {"bike_id": "b7d202e1355891585057842220313ea3", "fusion_lon": 0.0, "type": "electric_scooter", "name": "b7d202e1355891585057842220313ea3", "rental_uris": {"android": "https://dc.lft.to/lastmile_qr_scan", "ios": "https://dc.lft.to/lastmile_qr_scan"}, "fusion_lat": 0.0, "lat": 38.918777, "is_disabled": 0, "lon": -77.0418575, "is_reserved": 0}, {"bike_id": "bf04e8bfbcb993774410d9b360a6373d", "fusion_lon": 0.0, "type": "electric_scooter", "name": "bf04e8bfbcb993774410d9b360a6373d", "rental_uris": {"android": "https://dc.lft.to/lastmile_qr_scan", "ios": "https://dc.lft.to/lastmile_qr_scan"}, "fusion_lat": 0.0, "lat": 38.90033566666666, "is_disabled": 0, "lon": -76.99513033333334, "is_reserved": 0}, {"bike_id": "d5b9b3994886ea4f2deae59d28af2be2", "fusion_lon": 0.0, "type": "electric_scooter", "name": "d5b9b3994886ea4f2deae59d28af2be2", "rental_uris": {"android": "https://dc.lft.to/lastmile_qr_scan", "ios": "https://dc.lft.to/lastmile_qr_scan"}, "fusion_lat": 0.0, "lat": 38.9562985, "is_disabled": 0, "lon": -77.02988783333333, "is_reserved": 0}, {"bike_id": "4e96acdb56f2491909b53f568f984ae4", "fusion_lon": 0.0, "type": "electric_scooter", "name": "4e96acdb56f2491909b53f568f984ae4", "rental_uris": {"android": "https://dc.lft.to/lastmile_qr_scan", "ios": "https://dc.lft.to/lastmile_qr_scan"}, "fusion_lat": 0.0, "lat": 38.90561866666667, "is_disabled": 0, "lon": -77.0279535, "is_reserved": 0}, {"bike_id": "096ef66392aef61f19f3f8360f9d3bc6", "fusion_lon": 0.0, "type": "electric_bike", "name": "096ef66392aef61f19f3f8360f9d3bc6", "rental_uris": {"android": "https://dc.lft.to/lastmile_qr_scan", "ios": "https://dc.lft.to/lastmile_qr_scan"}, "fusion_lat": 0.0, "lat": 38.8723385, "is_disabled": 0, "lon": -76.93203733333333, "is_reserved": 0}, {"bike_id": "efdb13d1c812df73ec9299789cd8895a", "fusion_lon": 0.0, "type": "electric_scooter", "name": "efdb13d1c812df73ec9299789cd8895a", "rental_uris": {"android": "https://dc.lft.to/lastmile_qr_scan", "ios": "https://dc.lft.to/lastmile_qr_scan"}, "fusion_lat": 0.0, "lat": 38.917295, "is_disabled": 0, "lon": -77.01923266666667, "is_reserved": 0}, {"bike_id": "a8bad1a32aedc5b0f0b3298bac4cf70f", "fusion_lon": 0.0, "type": "electric_scooter", "name": "a8bad1a32aedc5b0f0b3298bac4cf70f", "rental_uris": {"android": "https://dc.lft.to/lastmile_qr_scan", "ios": "https://dc.lft.to/lastmile_qr_scan"}, "fusion_lat": 0.0, "lat": 38.88672583333334, "is_disabled": 0, "lon": -76.95229816666667, "is_reserved": 0}, {"bike_id": "7f7d9140a6499a1a09ddebf09e952f5f", "fusion_lon": 0.0, "type": "electric_scooter", "name": "7f7d9140a6499a1a09ddebf09e952f5f", "rental_uris": {"android": "https://dc.lft.to/lastmile_qr_scan", "ios": "https://dc.lft.to/lastmile_qr_scan"}, "fusion_lat": 0.0, "lat": 38.9563705, "is_disabled": 0, "lon": -77.03285166666667, "is_reserved": 0}, {"bike_id": "281a147c463d003d42d1c67e56a6c5ec", "fusion_lon": 0.0, "type": "electric_bike", "name": "281a147c463d003d42d1c67e56a6c5ec", "rental_uris": {"android": "https://dc.lft.to/lastmile_qr_scan", "ios": "https://dc.lft.to/lastmile_qr_scan"}, "fusion_lat": 0.0, "lat": 38.84107216666666, "is_disabled": 0, "lon": -77.08935666666666, "is_reserved": 0}, {"bike_id": "2dc76838781fae02b8968eeb4529e4ab", "fusion_lon": 0.0, "type": "electric_scooter", "name": "2dc76838781fae02b8968eeb4529e4ab", "rental_uris": {"android": "https://dc.lft.to/lastmile_qr_scan", "ios": "https://dc.lft.to/lastmile_qr_scan"}, "fusion_lat": 0.0, "lat": 38.9499695, "is_disabled": 0, "lon": -77.02706716666667, "is_reserved": 0}, {"bike_id": "b40bd0a51146bcb2ba8cc049a7195922", "fusion_lon": 0.0, "type": "electric_scooter", "name": "b40bd0a51146bcb2ba8cc049a7195922", "rental_uris": {"android": "https://dc.lft.to/lastmile_qr_scan", "ios": "https://dc.lft.to/lastmile_qr_scan"}, "fusion_lat": 0.0, "lat": 38.9023595, "is_disabled": 0, "lon": -77.00201016666666, "is_reserved": 0}, {"bike_id": "c583c1e3e5bfefcac6d171b3df11806b", "fusion_lon": 0.0, "type": "electric_scooter", "name": "c583c1e3e5bfefcac6d171b3df11806b", "rental_uris": {"android": "https://dc.lft.to/lastmile_qr_scan", "ios": "https://dc.lft.to/lastmile_qr_scan"}, "fusion_lat": 0.0, "lat": 38.9198165, "is_disabled": 0, "lon": -77.03274383333333, "is_reserved": 0}, {"bike_id": "34f0915fd552a6b4a0d576963962740f", "fusion_lon": 0.0, "type": "electric_scooter", "name": "34f0915fd552a6b4a0d576963962740f", "rental_uris": {"android": "https://dc.lft.to/lastmile_qr_scan", "ios": "https://dc.lft.to/lastmile_qr_scan"}, "fusion_lat": 0.0, "lat": 38.904716, "is_disabled": 0, "lon": -77.03851216666666, "is_reserved": 0}, {"bike_id": "15bdd8340623a9841cb9de216bac4aa5", "fusion_lon": 0.0, "type": "electric_bike", "name": "15bdd8340623a9841cb9de216bac4aa5", "rental_uris": {"android": "https://dc.lft.to/lastmile_qr_scan", "ios": "https://dc.lft.to/lastmile_qr_scan"}, "fusion_lat": 0.0, "lat": 38.812399, "is_disabled": 0, "lon": -77.0407965, "is_reserved": 0}, {"bike_id": "0d810e853f9084ba466cedf31c976ed7", "fusion_lon": 0.0, "type": "electric_bike", "name": "0d810e853f9084ba466cedf31c976ed7", "rental_uris": {"android": "https://dc.lft.to/lastmile_qr_scan", "ios": "https://dc.lft.to/lastmile_qr_scan"}, "fusion_lat": 0.0, "lat": 38.92401616666667, "is_disabled": 0, "lon": -77.05038916666666, "is_reserved": 0}, {"bike_id": "528ecd07a6cacee92177596a69a7d7b4", "fusion_lon": 0.0, "type": "electric_scooter", "name": "528ecd07a6cacee92177596a69a7d7b4", "rental_uris": {"android": "https://dc.lft.to/lastmile_qr_scan", "ios": "https://dc.lft.to/lastmile_qr_scan"}, "fusion_lat": 0.0, "lat": 38.92497316666667, "is_disabled": 0, "lon": -77.02247066666666, "is_reserved": 0}, {"bike_id": "65980b33fa65ae8d937be40958e2c7da", "fusion_lon": 0.0, "type": "electric_scooter", "name": "65980b33fa65ae8d937be40958e2c7da", "rental_uris": {"android": "https://dc.lft.to/lastmile_qr_scan", "ios": "https://dc.lft.to/lastmile_qr_scan"}, "fusion_lat": 0.0, "lat": 38.90265083333333, "is_disabled": 0, "lon": -77.01971283333333, "is_reserved": 0}, {"bike_id": "922d2c586243195b71f303d68dd5aed9", "fusion_lon": 0.0, "type": "electric_scooter", "name": "922d2c586243195b71f303d68dd5aed9", "rental_uris": {"android": "https://dc.lft.to/lastmile_qr_scan", "ios": "https://dc.lft.to/lastmile_qr_scan"}, "fusion_lat": 0.0, "lat": 38.907228833333335, "is_disabled": 0, "lon": -77.04288933333333, "is_reserved": 0}, {"bike_id": "7887244b7e237a84487186adc971e64b", "fusion_lon": 0.0, "type": "electric_scooter", "name": "7887244b7e237a84487186adc971e64b", "rental_uris": {"android": "https://dc.lft.to/lastmile_qr_scan", "ios": "https://dc.lft.to/lastmile_qr_scan"}, "fusion_lat": 0.0, "lat": 38.893455833333334, "is_disabled": 0, "lon": -77.0115585, "is_reserved": 0}, {"bike_id": "c20f75c82f5c66c7a07c388cf15b1d0d", "fusion_lon": 0.0, "type": "electric_bike", "name": "c20f75c82f5c66c7a07c388cf15b1d0d", "rental_uris": {"android": "https://dc.lft.to/lastmile_qr_scan", "ios": "https://dc.lft.to/lastmile_qr_scan"}, "fusion_lat": 0.0, "lat": 38.83731683333333, "is_disabled": 0, "lon": -77.0954985, "is_reserved": 0}, {"bike_id": "57fa7941ab4fe06cf5c60bff75197a3e", "fusion_lon": 0.0, "type": "electric_scooter", "name": "57fa7941ab4fe06cf5c60bff75197a3e", "rental_uris": {"android": "https://dc.lft.to/lastmile_qr_scan", "ios": "https://dc.lft.to/lastmile_qr_scan"}, "fusion_lat": 0.0, "lat": 38.883159666666664, "is_disabled": 0, "lon": -76.9494665, "is_reserved": 0}, {"bike_id": "ef30e35fcbb519ee85ef426b33bc03d2", "fusion_lon": 0.0, "type": "electric_scooter", "name": "ef30e35fcbb519ee85ef426b33bc03d2", "rental_uris": {"android": "https://dc.lft.to/lastmile_qr_scan", "ios": "https://dc.lft.to/lastmile_qr_scan"}, "fusion_lat": 0.0, "lat": 38.956444833333336, "is_disabled": 0, "lon": -77.0328515, "is_reserved": 0}, {"bike_id": "f246cfd0df06e4c1b34ebc0b881db66c", "fusion_lon": 0.0, "type": "electric_scooter", "name": "f246cfd0df06e4c1b34ebc0b881db66c", "rental_uris": {"android": "https://dc.lft.to/lastmile_qr_scan", "ios": "https://dc.lft.to/lastmile_qr_scan"}, "fusion_lat": 0.0, "lat": 38.900150333333336, "is_disabled": 0, "lon": -77.00151133333334, "is_reserved": 0}, {"bike_id": "f53cfbf189db51f9032ee14a7e7d2df1", "fusion_lon": 0.0, "type": "electric_scooter", "name": "f53cfbf189db51f9032ee14a7e7d2df1", "rental_uris": {"android": "https://dc.lft.to/lastmile_qr_scan", "ios": "https://dc.lft.to/lastmile_qr_scan"}, "fusion_lat": 0.0, "lat": 38.84426216666667, "is_disabled": 0, "lon": -76.99778716666667, "is_reserved": 0}, {"bike_id": "924cbb0dde2dc17e8afdeb5fb97e2fec", "fusion_lon": 0.0, "type": "electric_scooter", "name": "924cbb0dde2dc17e8afdeb5fb97e2fec", "rental_uris": {"android": "https://dc.lft.to/lastmile_qr_scan", "ios": "https://dc.lft.to/lastmile_qr_scan"}, "fusion_lat": 0.0, "lat": 38.908687, "is_disabled": 0, "lon": -77.023938, "is_reserved": 0}, {"bike_id": "ceaddcdbbb4e073eef93e6854a01dcad", "fusion_lon": 0.0, "type": "electric_scooter", "name": "ceaddcdbbb4e073eef93e6854a01dcad", "rental_uris": {"android": "https://dc.lft.to/lastmile_qr_scan", "ios": "https://dc.lft.to/lastmile_qr_scan"}, "fusion_lat": 0.0, "lat": 38.896273, "is_disabled": 0, "lon": -76.9478175, "is_reserved": 0}, {"bike_id": "552b89d77abcb85652bc41b69e90400a", "fusion_lon": 0.0, "type": "electric_bike", "name": "552b89d77abcb85652bc41b69e90400a", "rental_uris": {"android": "https://dc.lft.to/lastmile_qr_scan", "ios": "https://dc.lft.to/lastmile_qr_scan"}, "fusion_lat": 0.0, "lat": 38.83608616666667, "is_disabled": 0, "lon": -77.00368383333333, "is_reserved": 0}, {"bike_id": "8f6b21f57a6b87e990c01d6f9570660b", "fusion_lon": 0.0, "type": "electric_bike", "name": "8f6b21f57a6b87e990c01d6f9570660b", "rental_uris": {"android": "https://dc.lft.to/lastmile_qr_scan", "ios": "https://dc.lft.to/lastmile_qr_scan"}, "fusion_lat": 0.0, "lat": 38.975814, "is_disabled": 0, "lon": -77.03513666666667, "is_reserved": 0}, {"bike_id": "99f90c92239d015b917ad072fb230958", "fusion_lon": 0.0, "type": "electric_scooter", "name": "99f90c92239d015b917ad072fb230958", "rental_uris": {"android": "https://dc.lft.to/lastmile_qr_scan", "ios": "https://dc.lft.to/lastmile_qr_scan"}, "fusion_lat": 0.0, "lat": 38.88735616666666, "is_disabled": 0, "lon": -77.02392516666667, "is_reserved": 0}, {"bike_id": "382df6003d782ac5c8137bc25e7be8cb", "fusion_lon": 0.0, "type": "electric_scooter", "name": "382df6003d782ac5c8137bc25e7be8cb", "rental_uris": {"android": "https://dc.lft.to/lastmile_qr_scan", "ios": "https://dc.lft.to/lastmile_qr_scan"}, "fusion_lat": 0.0, "lat": 38.910945, "is_disabled": 0, "lon": -77.028012, "is_reserved": 0}, {"bike_id": "1f9619f7e9f171eaaf3df1d3a76b7130", "fusion_lon": 0.0, "type": "electric_scooter", "name": "1f9619f7e9f171eaaf3df1d3a76b7130", "rental_uris": {"android": "https://dc.lft.to/lastmile_qr_scan", "ios": "https://dc.lft.to/lastmile_qr_scan"}, "fusion_lat": 0.0, "lat": 38.91467166666666, "is_disabled": 0, "lon": -77.03458683333334, "is_reserved": 0}, {"bike_id": "00969441ef3bd3ec0245d002f67bbb90", "fusion_lon": 0.0, "type": "electric_scooter", "name": "00969441ef3bd3ec0245d002f67bbb90", "rental_uris": {"android": "https://dc.lft.to/lastmile_qr_scan", "ios": "https://dc.lft.to/lastmile_qr_scan"}, "fusion_lat": 0.0, "lat": 38.94224966666667, "is_disabled": 0, "lon": -77.0616725, "is_reserved": 0}, {"bike_id": "49f8fb305aecef3ef1a648ea942e9716", "fusion_lon": 0.0, "type": "electric_bike", "name": "49f8fb305aecef3ef1a648ea942e9716", "rental_uris": {"android": "https://dc.lft.to/lastmile_qr_scan", "ios": "https://dc.lft.to/lastmile_qr_scan"}, "fusion_lat": 0.0, "lat": 38.88825083333333, "is_disabled": 0, "lon": -77.12737316666667, "is_reserved": 0}, {"bike_id": "be94e0b79d50393bb3b7f94c741a933a", "fusion_lon": 0.0, "type": "electric_scooter", "name": "be94e0b79d50393bb3b7f94c741a933a", "rental_uris": {"android": "https://dc.lft.to/lastmile_qr_scan", "ios": "https://dc.lft.to/lastmile_qr_scan"}, "fusion_lat": 0.0, "lat": 38.91849716666667, "is_disabled": 0, "lon": -77.04169866666666, "is_reserved": 0}, {"bike_id": "d17f117d90f0054e0f385dd6fbb94057", "fusion_lon": 0.0, "type": "electric_scooter", "name": "d17f117d90f0054e0f385dd6fbb94057", "rental_uris": {"android": "https://dc.lft.to/lastmile_qr_scan", "ios": "https://dc.lft.to/lastmile_qr_scan"}, "fusion_lat": 0.0, "lat": 38.911097, "is_disabled": 0, "lon": -77.03832233333333, "is_reserved": 0}, {"bike_id": "3222efb69699cf7728bba1ca7a64d6b4", "fusion_lon": 0.0, "type": "electric_scooter", "name": "3222efb69699cf7728bba1ca7a64d6b4", "rental_uris": {"android": "https://dc.lft.to/lastmile_qr_scan", "ios": "https://dc.lft.to/lastmile_qr_scan"}, "fusion_lat": 0.0, "lat": 38.9117405, "is_disabled": 0, "lon": -76.9877405, "is_reserved": 0}, {"bike_id": "5afc544f827e98137c3fec4ee0d135b7", "fusion_lon": 0.0, "type": "electric_scooter", "name": "5afc544f827e98137c3fec4ee0d135b7", "rental_uris": {"android": "https://dc.lft.to/lastmile_qr_scan", "ios": "https://dc.lft.to/lastmile_qr_scan"}, "fusion_lat": 0.0, "lat": 38.89879966666667, "is_disabled": 0, "lon": -76.931617, "is_reserved": 0}, {"bike_id": "8e02f6e5827881cdd8b1dcc59e4f7ec3", "fusion_lon": 0.0, "type": "electric_scooter", "name": "8e02f6e5827881cdd8b1dcc59e4f7ec3", "rental_uris": {"android": "https://dc.lft.to/lastmile_qr_scan", "ios": "https://dc.lft.to/lastmile_qr_scan"}, "fusion_lat": 0.0, "lat": 38.90861733333333, "is_disabled": 0, "lon": -76.99957116666667, "is_reserved": 0}, {"bike_id": "07a036c67dcd16fcb200832cc8c9a7b9", "fusion_lon": 0.0, "type": "electric_scooter", "name": "07a036c67dcd16fcb200832cc8c9a7b9", "rental_uris": {"android": "https://dc.lft.to/lastmile_qr_scan", "ios": "https://dc.lft.to/lastmile_qr_scan"}, "fusion_lat": 0.0, "lat": 38.90354683333333, "is_disabled": 0, "lon": -77.0289365, "is_reserved": 0}, {"bike_id": "3839a6808bd50e10d22481dee556dedd", "fusion_lon": 0.0, "type": "electric_scooter", "name": "3839a6808bd50e10d22481dee556dedd", "rental_uris": {"android": "https://dc.lft.to/lastmile_qr_scan", "ios": "https://dc.lft.to/lastmile_qr_scan"}, "fusion_lat": 0.0, "lat": 38.907948833333336, "is_disabled": 0, "lon": -76.94113616666667, "is_reserved": 0}, {"bike_id": "fa3a63405df31dcd446dd1dd940f3234", "fusion_lon": 0.0, "type": "electric_scooter", "name": "fa3a63405df31dcd446dd1dd940f3234", "rental_uris": {"android": "https://dc.lft.to/lastmile_qr_scan", "ios": "https://dc.lft.to/lastmile_qr_scan"}, "fusion_lat": 0.0, "lat": 38.923354, "is_disabled": 0, "lon": -77.04433516666667, "is_reserved": 0}, {"bike_id": "aa60c0493bb60c374d5ddb4095f7e842", "fusion_lon": 0.0, "type": "electric_scooter", "name": "aa60c0493bb60c374d5ddb4095f7e842", "rental_uris": {"android": "https://dc.lft.to/lastmile_qr_scan", "ios": "https://dc.lft.to/lastmile_qr_scan"}, "fusion_lat": 0.0, "lat": 38.90430516666667, "is_disabled": 0, "lon": -77.04645716666667, "is_reserved": 0}, {"bike_id": "2b609549a7311e190635f4fadc8eba8f", "fusion_lon": 0.0, "type": "electric_scooter", "name": "2b609549a7311e190635f4fadc8eba8f", "rental_uris": {"android": "https://dc.lft.to/lastmile_qr_scan", "ios": "https://dc.lft.to/lastmile_qr_scan"}, "fusion_lat": 0.0, "lat": 38.898423, "is_disabled": 0, "lon": -77.017817, "is_reserved": 0}, {"bike_id": "560a847ae05f16ee9393ba6845f5f9a6", "fusion_lon": 0.0, "type": "electric_scooter", "name": "560a847ae05f16ee9393ba6845f5f9a6", "rental_uris": {"android": "https://dc.lft.to/lastmile_qr_scan", "ios": "https://dc.lft.to/lastmile_qr_scan"}, "fusion_lat": 0.0, "lat": 38.9028465, "is_disabled": 0, "lon": -76.9365965, "is_reserved": 0}, {"bike_id": "ce6a9e7e4d73559e22738ae49f66f6d3", "fusion_lon": 0.0, "type": "electric_scooter", "name": "ce6a9e7e4d73559e22738ae49f66f6d3", "rental_uris": {"android": "https://dc.lft.to/lastmile_qr_scan", "ios": "https://dc.lft.to/lastmile_qr_scan"}, "fusion_lat": 0.0, "lat": 38.92401066666667, "is_disabled": 0, "lon": -77.02543666666666, "is_reserved": 0}, {"bike_id": "78a74585ee052fe761dc0bdd26843b5e", "fusion_lon": 0.0, "type": "electric_scooter", "name": "78a74585ee052fe761dc0bdd26843b5e", "rental_uris": {"android": "https://dc.lft.to/lastmile_qr_scan", "ios": "https://dc.lft.to/lastmile_qr_scan"}, "fusion_lat": 0.0, "lat": 38.908175666666665, "is_disabled": 0, "lon": -77.039483, "is_reserved": 0}, {"bike_id": "818e1001f2b0128fcee01e3876cb4593", "fusion_lon": 0.0, "type": "electric_scooter", "name": "818e1001f2b0128fcee01e3876cb4593", "rental_uris": {"android": "https://dc.lft.to/lastmile_qr_scan", "ios": "https://dc.lft.to/lastmile_qr_scan"}, "fusion_lat": 0.0, "lat": 38.9307985, "is_disabled": 0, "lon": -77.02793466666667, "is_reserved": 0}, {"bike_id": "be42fe4224a645aea21e284b72773060", "fusion_lon": 0.0, "type": "electric_scooter", "name": "be42fe4224a645aea21e284b72773060", "rental_uris": {"android": "https://dc.lft.to/lastmile_qr_scan", "ios": "https://dc.lft.to/lastmile_qr_scan"}, "fusion_lat": 0.0, "lat": 38.9212895, "is_disabled": 0, "lon": -77.04687366666667, "is_reserved": 0}, {"bike_id": "f7049fe448218adcfd62635c42dc9254", "fusion_lon": 0.0, "type": "electric_scooter", "name": "f7049fe448218adcfd62635c42dc9254", "rental_uris": {"android": "https://dc.lft.to/lastmile_qr_scan", "ios": "https://dc.lft.to/lastmile_qr_scan"}, "fusion_lat": 0.0, "lat": 38.91256333333333, "is_disabled": 0, "lon": -77.04743816666667, "is_reserved": 0}, {"bike_id": "e524564743d9cc44be9ff224b8f71194", "fusion_lon": 0.0, "type": "electric_scooter", "name": "e524564743d9cc44be9ff224b8f71194", "rental_uris": {"android": "https://dc.lft.to/lastmile_qr_scan", "ios": "https://dc.lft.to/lastmile_qr_scan"}, "fusion_lat": 0.0, "lat": 38.914336666666664, "is_disabled": 0, "lon": -77.00210366666667, "is_reserved": 0}, {"bike_id": "d75bebed63bb5d362fbcec9a9200edd5", "fusion_lon": 0.0, "type": "electric_scooter", "name": "d75bebed63bb5d362fbcec9a9200edd5", "rental_uris": {"android": "https://dc.lft.to/lastmile_qr_scan", "ios": "https://dc.lft.to/lastmile_qr_scan"}, "fusion_lat": 0.0, "lat": 38.898688, "is_disabled": 0, "lon": -76.9466635, "is_reserved": 0}, {"bike_id": "b0ecdc7d3e37b4725f2e1eca21d3cc13", "fusion_lon": 0.0, "type": "electric_scooter", "name": "b0ecdc7d3e37b4725f2e1eca21d3cc13", "rental_uris": {"android": "https://dc.lft.to/lastmile_qr_scan", "ios": "https://dc.lft.to/lastmile_qr_scan"}, "fusion_lat": 0.0, "lat": 38.91520833333333, "is_disabled": 0, "lon": -77.02701133333333, "is_reserved": 0}, {"bike_id": "8bc4f38acdd709858b6b5f33ddbafc4f", "fusion_lon": 0.0, "type": "electric_scooter", "name": "8bc4f38acdd709858b6b5f33ddbafc4f", "rental_uris": {"android": "https://dc.lft.to/lastmile_qr_scan", "ios": "https://dc.lft.to/lastmile_qr_scan"}, "fusion_lat": 0.0, "lat": 38.903865, "is_disabled": 0, "lon": -77.044003, "is_reserved": 0}, {"bike_id": "c11bc6f2443b570809042e2d82f98452", "fusion_lon": 0.0, "type": "electric_bike", "name": "c11bc6f2443b570809042e2d82f98452", "rental_uris": {"android": "https://dc.lft.to/lastmile_qr_scan", "ios": "https://dc.lft.to/lastmile_qr_scan"}, "fusion_lat": 0.0, "lat": 38.92503383333333, "is_disabled": 0, "lon": -77.05753516666667, "is_reserved": 0}, {"bike_id": "c22e76854bb248cadec0ebf23f331ae2", "fusion_lon": 0.0, "type": "electric_scooter", "name": "c22e76854bb248cadec0ebf23f331ae2", "rental_uris": {"android": "https://dc.lft.to/lastmile_qr_scan", "ios": "https://dc.lft.to/lastmile_qr_scan"}, "fusion_lat": 0.0, "lat": 38.891579166666666, "is_disabled": 0, "lon": -76.95413616666667, "is_reserved": 0}, {"bike_id": "38ed39721af229b1fba0a0d31e3762be", "fusion_lon": 0.0, "type": "electric_scooter", "name": "38ed39721af229b1fba0a0d31e3762be", "rental_uris": {"android": "https://dc.lft.to/lastmile_qr_scan", "ios": "https://dc.lft.to/lastmile_qr_scan"}, "fusion_lat": 0.0, "lat": 38.9091535, "is_disabled": 0, "lon": -77.072664, "is_reserved": 0}, {"bike_id": "9b4c8699940efff5f2f21836f8d064b3", "fusion_lon": 0.0, "type": "electric_bike", "name": "9b4c8699940efff5f2f21836f8d064b3", "rental_uris": {"android": "https://dc.lft.to/lastmile_qr_scan", "ios": "https://dc.lft.to/lastmile_qr_scan"}, "fusion_lat": 0.0, "lat": 38.89225883333334, "is_disabled": 0, "lon": -77.10765216666667, "is_reserved": 0}, {"bike_id": "62a39c6bfb765ad1d81c12b03933b1ff", "fusion_lon": 0.0, "type": "electric_bike", "name": "62a39c6bfb765ad1d81c12b03933b1ff", "rental_uris": {"android": "https://dc.lft.to/lastmile_qr_scan", "ios": "https://dc.lft.to/lastmile_qr_scan"}, "fusion_lat": 0.0, "lat": 38.86859366666667, "is_disabled": 0, "lon": -76.91652633333334, "is_reserved": 0}, {"bike_id": "1f58bbcc6e624baa3757a895af3e42f6", "fusion_lon": 0.0, "type": "electric_scooter", "name": "1f58bbcc6e624baa3757a895af3e42f6", "rental_uris": {"android": "https://dc.lft.to/lastmile_qr_scan", "ios": "https://dc.lft.to/lastmile_qr_scan"}, "fusion_lat": 0.0, "lat": 38.906727833333335, "is_disabled": 0, "lon": -77.036457, "is_reserved": 0}, {"bike_id": "96b52f3697a07e5eb0f3af754b808275", "fusion_lon": 0.0, "type": "electric_scooter", "name": "96b52f3697a07e5eb0f3af754b808275", "rental_uris": {"android": "https://dc.lft.to/lastmile_qr_scan", "ios": "https://dc.lft.to/lastmile_qr_scan"}, "fusion_lat": 0.0, "lat": 38.938628333333334, "is_disabled": 0, "lon": -77.02486766666667, "is_reserved": 0}, {"bike_id": "057f84e7430d9126e01cdbfd537374c6", "fusion_lon": 0.0, "type": "electric_scooter", "name": "057f84e7430d9126e01cdbfd537374c6", "rental_uris": {"android": "https://dc.lft.to/lastmile_qr_scan", "ios": "https://dc.lft.to/lastmile_qr_scan"}, "fusion_lat": 0.0, "lat": 38.8919305, "is_disabled": 0, "lon": -77.01546416666666, "is_reserved": 0}, {"bike_id": "0f1f54dfd0fefd0263152f1bfeec23d8", "fusion_lon": 0.0, "type": "electric_scooter", "name": "0f1f54dfd0fefd0263152f1bfeec23d8", "rental_uris": {"android": "https://dc.lft.to/lastmile_qr_scan", "ios": "https://dc.lft.to/lastmile_qr_scan"}, "fusion_lat": 0.0, "lat": 38.93060416666667, "is_disabled": 0, "lon": -77.03193633333333, "is_reserved": 0}, {"bike_id": "fb24f25338be600466f0f860e934208c", "fusion_lon": 0.0, "type": "electric_scooter", "name": "fb24f25338be600466f0f860e934208c", "rental_uris": {"android": "https://dc.lft.to/lastmile_qr_scan", "ios": "https://dc.lft.to/lastmile_qr_scan"}, "fusion_lat": 0.0, "lat": 38.89701916666667, "is_disabled": 0, "lon": -77.02301083333333, "is_reserved": 0}, {"bike_id": "ce391db97f21606d0b910f6135181687", "fusion_lon": 0.0, "type": "electric_scooter", "name": "ce391db97f21606d0b910f6135181687", "rental_uris": {"android": "https://dc.lft.to/lastmile_qr_scan", "ios": "https://dc.lft.to/lastmile_qr_scan"}, "fusion_lat": 0.0, "lat": 38.89219816666667, "is_disabled": 0, "lon": -77.03234083333334, "is_reserved": 0}, {"bike_id": "3603870d48f2690b4e39ce519136913d", "fusion_lon": 0.0, "type": "electric_scooter", "name": "3603870d48f2690b4e39ce519136913d", "rental_uris": {"android": "https://dc.lft.to/lastmile_qr_scan", "ios": "https://dc.lft.to/lastmile_qr_scan"}, "fusion_lat": 0.0, "lat": 38.941709333333336, "is_disabled": 0, "lon": -77.061854, "is_reserved": 0}, {"bike_id": "b82e5098c4cdb0adb0e1462d95ede46d", "fusion_lon": 0.0, "type": "electric_scooter", "name": "b82e5098c4cdb0adb0e1462d95ede46d", "rental_uris": {"android": "https://dc.lft.to/lastmile_qr_scan", "ios": "https://dc.lft.to/lastmile_qr_scan"}, "fusion_lat": 0.0, "lat": 38.919844, "is_disabled": 0, "lon": -76.97308933333333, "is_reserved": 0}, {"bike_id": "385a3d03ccde5c4cd5c69cff8ceeb478", "fusion_lon": 0.0, "type": "electric_scooter", "name": "385a3d03ccde5c4cd5c69cff8ceeb478", "rental_uris": {"android": "https://dc.lft.to/lastmile_qr_scan", "ios": "https://dc.lft.to/lastmile_qr_scan"}, "fusion_lat": 0.0, "lat": 38.94643383333333, "is_disabled": 0, "lon": -77.030439, "is_reserved": 0}, {"bike_id": "c0b1cdee023f45a1026e9ed6f3f41e6b", "fusion_lon": 0.0, "type": "electric_scooter", "name": "c0b1cdee023f45a1026e9ed6f3f41e6b", "rental_uris": {"android": "https://dc.lft.to/lastmile_qr_scan", "ios": "https://dc.lft.to/lastmile_qr_scan"}, "fusion_lat": 0.0, "lat": 38.932836333333334, "is_disabled": 0, "lon": -77.0365235, "is_reserved": 0}, {"bike_id": "6949906d4201b400165a956af73c7765", "fusion_lon": 0.0, "type": "electric_bike", "name": "6949906d4201b400165a956af73c7765", "rental_uris": {"android": "https://dc.lft.to/lastmile_qr_scan", "ios": "https://dc.lft.to/lastmile_qr_scan"}, "fusion_lat": 0.0, "lat": 38.86621733333333, "is_disabled": 0, "lon": -76.9457035, "is_reserved": 0}, {"bike_id": "070a2ca24b2f6aa167342456736406e3", "fusion_lon": 0.0, "type": "electric_scooter", "name": "070a2ca24b2f6aa167342456736406e3", "rental_uris": {"android": "https://dc.lft.to/lastmile_qr_scan", "ios": "https://dc.lft.to/lastmile_qr_scan"}, "fusion_lat": 0.0, "lat": 38.92705516666667, "is_disabled": 0, "lon": -77.02400716666666, "is_reserved": 0}, {"bike_id": "8e1a0a263466ba30126eef2bc5909c98", "fusion_lon": 0.0, "type": "electric_scooter", "name": "8e1a0a263466ba30126eef2bc5909c98", "rental_uris": {"android": "https://dc.lft.to/lastmile_qr_scan", "ios": "https://dc.lft.to/lastmile_qr_scan"}, "fusion_lat": 0.0, "lat": 38.924334333333334, "is_disabled": 0, "lon": -77.03645916666666, "is_reserved": 0}, {"bike_id": "2e40466e5847b3f1d7995cc765150c9e", "fusion_lon": 0.0, "type": "electric_scooter", "name": "2e40466e5847b3f1d7995cc765150c9e", "rental_uris": {"android": "https://dc.lft.to/lastmile_qr_scan", "ios": "https://dc.lft.to/lastmile_qr_scan"}, "fusion_lat": 0.0, "lat": 38.95760216666667, "is_disabled": 0, "lon": -77.01586516666667, "is_reserved": 0}, {"bike_id": "92c839585269f3da54c8b8818dcefebb", "fusion_lon": 0.0, "type": "electric_scooter", "name": "92c839585269f3da54c8b8818dcefebb", "rental_uris": {"android": "https://dc.lft.to/lastmile_qr_scan", "ios": "https://dc.lft.to/lastmile_qr_scan"}, "fusion_lat": 0.0, "lat": 38.89130683333333, "is_disabled": 0, "lon": -76.951818, "is_reserved": 0}, {"bike_id": "85274e31b07b7788470f3bce3c90256a", "fusion_lon": 0.0, "type": "electric_scooter", "name": "85274e31b07b7788470f3bce3c90256a", "rental_uris": {"android": "https://dc.lft.to/lastmile_qr_scan", "ios": "https://dc.lft.to/lastmile_qr_scan"}, "fusion_lat": 0.0, "lat": 38.93004, "is_disabled": 0, "lon": -77.03282316666666, "is_reserved": 0}, {"bike_id": "42ab8bf442a5f222db76e3fca80e4ea2", "fusion_lon": 0.0, "type": "electric_scooter", "name": "42ab8bf442a5f222db76e3fca80e4ea2", "rental_uris": {"android": "https://dc.lft.to/lastmile_qr_scan", "ios": "https://dc.lft.to/lastmile_qr_scan"}, "fusion_lat": 0.0, "lat": 38.87631433333333, "is_disabled": 0, "lon": -77.01244, "is_reserved": 0}, {"bike_id": "92eda23755f908c1ee18018a223c0218", "fusion_lon": 0.0, "type": "electric_scooter", "name": "92eda23755f908c1ee18018a223c0218", "rental_uris": {"android": "https://dc.lft.to/lastmile_qr_scan", "ios": "https://dc.lft.to/lastmile_qr_scan"}, "fusion_lat": 0.0, "lat": 38.890141, "is_disabled": 0, "lon": -76.93737233333333, "is_reserved": 0}, {"bike_id": "a8092c8580625f4cfd124d41ee61b029", "fusion_lon": 0.0, "type": "electric_scooter", "name": "a8092c8580625f4cfd124d41ee61b029", "rental_uris": {"android": "https://dc.lft.to/lastmile_qr_scan", "ios": "https://dc.lft.to/lastmile_qr_scan"}, "fusion_lat": 0.0, "lat": 38.915592, "is_disabled": 0, "lon": -77.02473283333333, "is_reserved": 0}, {"bike_id": "b100fa1343e3b407d937047b3d53358c", "fusion_lon": 0.0, "type": "electric_scooter", "name": "b100fa1343e3b407d937047b3d53358c", "rental_uris": {"android": "https://dc.lft.to/lastmile_qr_scan", "ios": "https://dc.lft.to/lastmile_qr_scan"}, "fusion_lat": 0.0, "lat": 38.9260255, "is_disabled": 0, "lon": -77.0242235, "is_reserved": 0}, {"bike_id": "4a2faf3df7544d9a96a4c284d4aa1281", "fusion_lon": 0.0, "type": "electric_scooter", "name": "4a2faf3df7544d9a96a4c284d4aa1281", "rental_uris": {"android": "https://dc.lft.to/lastmile_qr_scan", "ios": "https://dc.lft.to/lastmile_qr_scan"}, "fusion_lat": 0.0, "lat": 38.886278, "is_disabled": 0, "lon": -77.02164416666666, "is_reserved": 0}, {"bike_id": "ba5e134ad525cdcab24be5df7f9c3131", "fusion_lon": 0.0, "type": "electric_scooter", "name": "ba5e134ad525cdcab24be5df7f9c3131", "rental_uris": {"android": "https://dc.lft.to/lastmile_qr_scan", "ios": "https://dc.lft.to/lastmile_qr_scan"}, "fusion_lat": 0.0, "lat": 38.922339, "is_disabled": 0, "lon": -77.042524, "is_reserved": 0}, {"bike_id": "57cedb2538eeec41d471477805e00b8c", "fusion_lon": 0.0, "type": "electric_scooter", "name": "57cedb2538eeec41d471477805e00b8c", "rental_uris": {"android": "https://dc.lft.to/lastmile_qr_scan", "ios": "https://dc.lft.to/lastmile_qr_scan"}, "fusion_lat": 0.0, "lat": 38.924149666666665, "is_disabled": 0, "lon": -77.01945583333334, "is_reserved": 0}, {"bike_id": "3e0d82fef5df21316e655b44bc480270", "fusion_lon": 0.0, "type": "electric_scooter", "name": "3e0d82fef5df21316e655b44bc480270", "rental_uris": {"android": "https://dc.lft.to/lastmile_qr_scan", "ios": "https://dc.lft.to/lastmile_qr_scan"}, "fusion_lat": 0.0, "lat": 38.8461675, "is_disabled": 0, "lon": -76.99629816666666, "is_reserved": 0}, {"bike_id": "152b6bc5c725e2c594855cf550c6fef3", "fusion_lon": 0.0, "type": "electric_bike", "name": "152b6bc5c725e2c594855cf550c6fef3", "rental_uris": {"android": "https://dc.lft.to/lastmile_qr_scan", "ios": "https://dc.lft.to/lastmile_qr_scan"}, "fusion_lat": 0.0, "lat": 38.965048833333334, "is_disabled": 0, "lon": -77.0282225, "is_reserved": 0}, {"bike_id": "b0672a8ae4107a2da8c06832582ad1f1", "fusion_lon": 0.0, "type": "electric_scooter", "name": "b0672a8ae4107a2da8c06832582ad1f1", "rental_uris": {"android": "https://dc.lft.to/lastmile_qr_scan", "ios": "https://dc.lft.to/lastmile_qr_scan"}, "fusion_lat": 0.0, "lat": 38.897419166666666, "is_disabled": 0, "lon": -77.02877866666667, "is_reserved": 0}, {"bike_id": "36e354488cd1ef9329a50c02ad56c12b", "fusion_lon": 0.0, "type": "electric_scooter", "name": "36e354488cd1ef9329a50c02ad56c12b", "rental_uris": {"android": "https://dc.lft.to/lastmile_qr_scan", "ios": "https://dc.lft.to/lastmile_qr_scan"}, "fusion_lat": 0.0, "lat": 38.902261, "is_disabled": 0, "lon": -77.051436, "is_reserved": 0}, {"bike_id": "747f37ae9cf879b9b0a3f0b6dd437512", "fusion_lon": 0.0, "type": "electric_scooter", "name": "747f37ae9cf879b9b0a3f0b6dd437512", "rental_uris": {"android": "https://dc.lft.to/lastmile_qr_scan", "ios": "https://dc.lft.to/lastmile_qr_scan"}, "fusion_lat": 0.0, "lat": 38.914526333333335, "is_disabled": 0, "lon": -77.0416715, "is_reserved": 0}, {"bike_id": "c6e3d5fca36c2b18b65df1a2065dcf27", "fusion_lon": 0.0, "type": "electric_bike", "name": "c6e3d5fca36c2b18b65df1a2065dcf27", "rental_uris": {"android": "https://dc.lft.to/lastmile_qr_scan", "ios": "https://dc.lft.to/lastmile_qr_scan"}, "fusion_lat": 0.0, "lat": 38.9540815, "is_disabled": 0, "lon": -76.94291816666667, "is_reserved": 0}, {"bike_id": "a9fffa3e89535aa330045abbe3aecf20", "fusion_lon": 0.0, "type": "electric_scooter", "name": "a9fffa3e89535aa330045abbe3aecf20", "rental_uris": {"android": "https://dc.lft.to/lastmile_qr_scan", "ios": "https://dc.lft.to/lastmile_qr_scan"}, "fusion_lat": 0.0, "lat": 38.844239333333334, "is_disabled": 0, "lon": -76.9978, "is_reserved": 0}, {"bike_id": "6d47745bbf8ebe1b66e4b5bf2b7df282", "fusion_lon": 0.0, "type": "electric_scooter", "name": "6d47745bbf8ebe1b66e4b5bf2b7df282", "rental_uris": {"android": "https://dc.lft.to/lastmile_qr_scan", "ios": "https://dc.lft.to/lastmile_qr_scan"}, "fusion_lat": 0.0, "lat": 38.898858, "is_disabled": 0, "lon": -76.93176933333334, "is_reserved": 0}, {"bike_id": "dacfc5daadf5658635eba085f6ec5289", "fusion_lon": 0.0, "type": "electric_scooter", "name": "dacfc5daadf5658635eba085f6ec5289", "rental_uris": {"android": "https://dc.lft.to/lastmile_qr_scan", "ios": "https://dc.lft.to/lastmile_qr_scan"}, "fusion_lat": 0.0, "lat": 38.87975216666667, "is_disabled": 0, "lon": -76.994996, "is_reserved": 0}, {"bike_id": "bf491d63a3cc2db7e52957340fa308ea", "fusion_lon": 0.0, "type": "electric_scooter", "name": "bf491d63a3cc2db7e52957340fa308ea", "rental_uris": {"android": "https://dc.lft.to/lastmile_qr_scan", "ios": "https://dc.lft.to/lastmile_qr_scan"}, "fusion_lat": 0.0, "lat": 38.886266166666665, "is_disabled": 0, "lon": -77.03175933333333, "is_reserved": 0}, {"bike_id": "ab8ba70c5087e4470021c2689a033d43", "fusion_lon": 0.0, "type": "electric_scooter", "name": "ab8ba70c5087e4470021c2689a033d43", "rental_uris": {"android": "https://dc.lft.to/lastmile_qr_scan", "ios": "https://dc.lft.to/lastmile_qr_scan"}, "fusion_lat": 0.0, "lat": 38.893334, "is_disabled": 0, "lon": -77.0465915, "is_reserved": 0}, {"bike_id": "89d2e4c6ff1027a0a2943321de47d946", "fusion_lon": 0.0, "type": "electric_scooter", "name": "89d2e4c6ff1027a0a2943321de47d946", "rental_uris": {"android": "https://dc.lft.to/lastmile_qr_scan", "ios": "https://dc.lft.to/lastmile_qr_scan"}, "fusion_lat": 0.0, "lat": 38.90412583333333, "is_disabled": 0, "lon": -77.03259533333333, "is_reserved": 0}, {"bike_id": "5821bb11521479075003ca34cd0f5c8d", "fusion_lon": 0.0, "type": "electric_bike", "name": "5821bb11521479075003ca34cd0f5c8d", "rental_uris": {"android": "https://dc.lft.to/lastmile_qr_scan", "ios": "https://dc.lft.to/lastmile_qr_scan"}, "fusion_lat": 0.0, "lat": 38.917318333333334, "is_disabled": 0, "lon": -77.0016115, "is_reserved": 0}, {"bike_id": "b0a2a6fc05f8641417a393623ac10fd7", "fusion_lon": 0.0, "type": "electric_scooter", "name": "b0a2a6fc05f8641417a393623ac10fd7", "rental_uris": {"android": "https://dc.lft.to/lastmile_qr_scan", "ios": "https://dc.lft.to/lastmile_qr_scan"}, "fusion_lat": 0.0, "lat": 38.907767666666665, "is_disabled": 0, "lon": -77.0386365, "is_reserved": 0}, {"bike_id": "45f52a3f52c25558a6a47ba685c91c29", "fusion_lon": 0.0, "type": "electric_scooter", "name": "45f52a3f52c25558a6a47ba685c91c29", "rental_uris": {"android": "https://dc.lft.to/lastmile_qr_scan", "ios": "https://dc.lft.to/lastmile_qr_scan"}, "fusion_lat": 0.0, "lat": 38.902813, "is_disabled": 0, "lon": -77.02204083333334, "is_reserved": 0}, {"bike_id": "3698101f060fb751f531d3d967257c2d", "fusion_lon": 0.0, "type": "electric_scooter", "name": "3698101f060fb751f531d3d967257c2d", "rental_uris": {"android": "https://dc.lft.to/lastmile_qr_scan", "ios": "https://dc.lft.to/lastmile_qr_scan"}, "fusion_lat": 0.0, "lat": 38.90113383333333, "is_disabled": 0, "lon": -77.04986783333334, "is_reserved": 0}, {"bike_id": "f081de99020c372477f7e7814cab5ff0", "fusion_lon": 0.0, "type": "electric_scooter", "name": "f081de99020c372477f7e7814cab5ff0", "rental_uris": {"android": "https://dc.lft.to/lastmile_qr_scan", "ios": "https://dc.lft.to/lastmile_qr_scan"}, "fusion_lat": 0.0, "lat": 38.919058, "is_disabled": 0, "lon": -77.04165, "is_reserved": 0}, {"bike_id": "7ae74044debcfd6a161a5e9323571489", "fusion_lon": 0.0, "type": "electric_scooter", "name": "7ae74044debcfd6a161a5e9323571489", "rental_uris": {"android": "https://dc.lft.to/lastmile_qr_scan", "ios": "https://dc.lft.to/lastmile_qr_scan"}, "fusion_lat": 0.0, "lat": 38.899588666666666, "is_disabled": 0, "lon": -76.98446316666667, "is_reserved": 0}, {"bike_id": "5a0d4f7d9ed9fb2d26362df6800b45a6", "fusion_lon": 0.0, "type": "electric_scooter", "name": "5a0d4f7d9ed9fb2d26362df6800b45a6", "rental_uris": {"android": "https://dc.lft.to/lastmile_qr_scan", "ios": "https://dc.lft.to/lastmile_qr_scan"}, "fusion_lat": 0.0, "lat": 38.930773, "is_disabled": 0, "lon": -77.027968, "is_reserved": 0}, {"bike_id": "732332a7133f68759f6fdacc89842156", "fusion_lon": 0.0, "type": "electric_scooter", "name": "732332a7133f68759f6fdacc89842156", "rental_uris": {"android": "https://dc.lft.to/lastmile_qr_scan", "ios": "https://dc.lft.to/lastmile_qr_scan"}, "fusion_lat": 0.0, "lat": 38.91797366666667, "is_disabled": 0, "lon": -77.01023633333334, "is_reserved": 0}, {"bike_id": "c5c95a3dd474885c0ae3b44c48c36b7b", "fusion_lon": 0.0, "type": "electric_scooter", "name": "c5c95a3dd474885c0ae3b44c48c36b7b", "rental_uris": {"android": "https://dc.lft.to/lastmile_qr_scan", "ios": "https://dc.lft.to/lastmile_qr_scan"}, "fusion_lat": 0.0, "lat": 38.90030266666667, "is_disabled": 0, "lon": -77.02886866666667, "is_reserved": 0}, {"bike_id": "2d76b7a7d9ac82cd0978ecb080c3a5cd", "fusion_lon": 0.0, "type": "electric_scooter", "name": "2d76b7a7d9ac82cd0978ecb080c3a5cd", "rental_uris": {"android": "https://dc.lft.to/lastmile_qr_scan", "ios": "https://dc.lft.to/lastmile_qr_scan"}, "fusion_lat": 0.0, "lat": 38.92332716666667, "is_disabled": 0, "lon": -77.035629, "is_reserved": 0}, {"bike_id": "24aa4b89932ebc486c785d4f71de97a0", "fusion_lon": 0.0, "type": "electric_scooter", "name": "24aa4b89932ebc486c785d4f71de97a0", "rental_uris": {"android": "https://dc.lft.to/lastmile_qr_scan", "ios": "https://dc.lft.to/lastmile_qr_scan"}, "fusion_lat": 0.0, "lat": 38.9038515, "is_disabled": 0, "lon": -76.98998183333333, "is_reserved": 0}, {"bike_id": "d62b6443eb5fea9870ff19975c0e70e7", "fusion_lon": 0.0, "type": "electric_scooter", "name": "d62b6443eb5fea9870ff19975c0e70e7", "rental_uris": {"android": "https://dc.lft.to/lastmile_qr_scan", "ios": "https://dc.lft.to/lastmile_qr_scan"}, "fusion_lat": 0.0, "lat": 38.91863933333333, "is_disabled": 0, "lon": -77.04704583333333, "is_reserved": 0}, {"bike_id": "7d8b700dfede22a5ac21484837478e3a", "fusion_lon": 0.0, "type": "electric_scooter", "name": "7d8b700dfede22a5ac21484837478e3a", "rental_uris": {"android": "https://dc.lft.to/lastmile_qr_scan", "ios": "https://dc.lft.to/lastmile_qr_scan"}, "fusion_lat": 0.0, "lat": 38.899626833333336, "is_disabled": 0, "lon": -77.0335575, "is_reserved": 0}, {"bike_id": "d4dc418aed1163e4f5d4ea98983c3507", "fusion_lon": 0.0, "type": "electric_scooter", "name": "d4dc418aed1163e4f5d4ea98983c3507", "rental_uris": {"android": "https://dc.lft.to/lastmile_qr_scan", "ios": "https://dc.lft.to/lastmile_qr_scan"}, "fusion_lat": 0.0, "lat": 38.92624416666666, "is_disabled": 0, "lon": -77.0432475, "is_reserved": 0}, {"bike_id": "65fc6a0022330d412b46d34c11d674da", "fusion_lon": 0.0, "type": "electric_scooter", "name": "65fc6a0022330d412b46d34c11d674da", "rental_uris": {"android": "https://dc.lft.to/lastmile_qr_scan", "ios": "https://dc.lft.to/lastmile_qr_scan"}, "fusion_lat": 0.0, "lat": 38.901438666666664, "is_disabled": 0, "lon": -77.03316033333333, "is_reserved": 0}, {"bike_id": "73cc75599ed5fb707818e4e151a9a1ab", "fusion_lon": 0.0, "type": "electric_scooter", "name": "73cc75599ed5fb707818e4e151a9a1ab", "rental_uris": {"android": "https://dc.lft.to/lastmile_qr_scan", "ios": "https://dc.lft.to/lastmile_qr_scan"}, "fusion_lat": 0.0, "lat": 38.90085116666667, "is_disabled": 0, "lon": -76.93019816666667, "is_reserved": 0}, {"bike_id": "c5710d03b5efd82e8122170afb65506c", "fusion_lon": 0.0, "type": "electric_scooter", "name": "c5710d03b5efd82e8122170afb65506c", "rental_uris": {"android": "https://dc.lft.to/lastmile_qr_scan", "ios": "https://dc.lft.to/lastmile_qr_scan"}, "fusion_lat": 0.0, "lat": 38.918197166666666, "is_disabled": 0, "lon": -77.03845966666667, "is_reserved": 0}, {"bike_id": "fde7b30f5e86d4d50358a3f9c06a5f56", "fusion_lon": 0.0, "type": "electric_scooter", "name": "fde7b30f5e86d4d50358a3f9c06a5f56", "rental_uris": {"android": "https://dc.lft.to/lastmile_qr_scan", "ios": "https://dc.lft.to/lastmile_qr_scan"}, "fusion_lat": 0.0, "lat": 38.92516483333333, "is_disabled": 0, "lon": -77.036359, "is_reserved": 0}, {"bike_id": "a2e529ed73ef831fdfd44e1faebaa505", "fusion_lon": 0.0, "type": "electric_scooter", "name": "a2e529ed73ef831fdfd44e1faebaa505", "rental_uris": {"android": "https://dc.lft.to/lastmile_qr_scan", "ios": "https://dc.lft.to/lastmile_qr_scan"}, "fusion_lat": 0.0, "lat": 38.884317, "is_disabled": 0, "lon": -76.95748083333334, "is_reserved": 0}, {"bike_id": "81e8c13b5fa18d1d67bf67d2d5a93d32", "fusion_lon": 0.0, "type": "electric_scooter", "name": "81e8c13b5fa18d1d67bf67d2d5a93d32", "rental_uris": {"android": "https://dc.lft.to/lastmile_qr_scan", "ios": "https://dc.lft.to/lastmile_qr_scan"}, "fusion_lat": 0.0, "lat": 38.90610983333333, "is_disabled": 0, "lon": -77.03723566666666, "is_reserved": 0}, {"bike_id": "c0bc7ab4b608f1905ef0e496885dd665", "fusion_lon": 0.0, "type": "electric_scooter", "name": "c0bc7ab4b608f1905ef0e496885dd665", "rental_uris": {"android": "https://dc.lft.to/lastmile_qr_scan", "ios": "https://dc.lft.to/lastmile_qr_scan"}, "fusion_lat": 0.0, "lat": 38.900823333333335, "is_disabled": 0, "lon": -77.05064416666667, "is_reserved": 0}, {"bike_id": "dac21a68b03b3fb193fffc764fb1fcad", "fusion_lon": 0.0, "type": "electric_scooter", "name": "dac21a68b03b3fb193fffc764fb1fcad", "rental_uris": {"android": "https://dc.lft.to/lastmile_qr_scan", "ios": "https://dc.lft.to/lastmile_qr_scan"}, "fusion_lat": 0.0, "lat": 38.895113333333335, "is_disabled": 0, "lon": -77.01099733333334, "is_reserved": 0}, {"bike_id": "68695c1c93eeba7e65c12f2d9599057e", "fusion_lon": 0.0, "type": "electric_scooter", "name": "68695c1c93eeba7e65c12f2d9599057e", "rental_uris": {"android": "https://dc.lft.to/lastmile_qr_scan", "ios": "https://dc.lft.to/lastmile_qr_scan"}, "fusion_lat": 0.0, "lat": 38.93579666666667, "is_disabled": 0, "lon": -77.03281366666667, "is_reserved": 0}, {"bike_id": "d11574d8c770f648275c6314a323f91a", "fusion_lon": 0.0, "type": "electric_bike", "name": "d11574d8c770f648275c6314a323f91a", "rental_uris": {"android": "https://dc.lft.to/lastmile_qr_scan", "ios": "https://dc.lft.to/lastmile_qr_scan"}, "fusion_lat": 0.0, "lat": 38.85210416666666, "is_disabled": 0, "lon": -77.04646916666667, "is_reserved": 0}, {"bike_id": "58bc9205881419d9f39b4094b93e3f52", "fusion_lon": 0.0, "type": "electric_scooter", "name": "58bc9205881419d9f39b4094b93e3f52", "rental_uris": {"android": "https://dc.lft.to/lastmile_qr_scan", "ios": "https://dc.lft.to/lastmile_qr_scan"}, "fusion_lat": 0.0, "lat": 38.89689083333333, "is_disabled": 0, "lon": -76.94738183333334, "is_reserved": 0},