{"data": {"bikes": [{"name": "6fc797710c45ba9be94cb90d0452d8c1", "type": "electric_scooter", "lat": 38.896724, "is_reserved": 0, "lon": -77.02960333333333, "fusion_lon": 0.0, "is_disabled": 0, "fusion_lat": 0.0, "bike_id": "6fc797710c45ba9be94cb90d0452d8c1", "rental_uris": {"ios": "https://dc.lft.to/lastmile_qr_scan", "android": "https://dc.lft.to/lastmile_qr_scan"}}, {"name": "e3e1e10012e6e0ec09745632f5338f9a", "type": "electric_scooter", "lat": 38.925784666666665, "is_reserved": 0, "lon": -77.03927, "fusion_lon": 0.0, "is_disabled": 0, "fusion_lat": 0.0, "bike_id": "e3e1e10012e6e0ec09745632f5338f9a", "rental_uris": {"ios": "https://dc.lft.to/lastmile_qr_scan", "android": "https://dc.lft.to/lastmile_qr_scan"}}, {"name": "aee3a718a963e0bf196ecc941eda3cb9", "type": "electric_scooter", "lat": 38.92456416666667, "is_reserved": 0, "lon": -77.00212533333334, "fusion_lon": 0.0, "is_disabled": 0, "fusion_lat": 0.0, "bike_id": "aee3a718a963e0bf196ecc941eda3cb9", "rental_uris": {"ios": "https://dc.lft.to/lastmile_qr_scan", "android": "https://dc.lft.to/lastmile_qr_scan"}}, {"name": "cfb58326ba86a7670ccef0748d3ebebd", "type": "electric_scooter", "lat": 38.94442266666667, "is_reserved": 0, "lon": -77.06357033333333, "fusion_lon": 0.0, "is_disabled": 0, "fusion_lat": 0.0, "bike_id": "cfb58326ba86a7670ccef0748d3ebebd", "rental_uris": {"ios": "https://dc.lft.to/lastmile_qr_scan", "android": "https://dc.lft.to/lastmile_qr_scan"}}, {"name": "f0cf52834866a65ee046afb0e9a5b27e", "type": "electric_scooter", "lat": 38.89814766666667, "is_reserved": 0, "lon": -77.0296475, "fusion_lon": 0.0, "is_disabled": 0, "fusion_lat": 0.0, "bike_id": "f0cf52834866a65ee046afb0e9a5b27e", "rental_uris": {"ios": "https://dc.lft.to/lastmile_qr_scan", "android": "https://dc.lft.to/lastmile_qr_scan"}}, {"name": "889bfc98c74c2f733ab4e845abb58922", "type": "electric_scooter", "lat": 38.91192733333333, "is_reserved": 0, "lon": -76.9962365, "fusion_lon": 0.0, "is_disabled": 0, "fusion_lat": 0.0, "bike_id": "889bfc98c74c2f733ab4e845abb58922", "rental_uris": {"ios": "https://dc.lft.to/lastmile_qr_scan", "android": "https://dc.lft.to/lastmile_qr_scan"}}, {"name": "832f163c9afaf84b0e1886f8904d8725", "type": "electric_scooter", "lat": 38.892269166666665, "is_reserved": 0, "lon": -77.0426635, "fusion_lon": 0.0, "is_disabled": 0, "fusion_lat": 0.0, "bike_id": "832f163c9afaf84b0e1886f8904d8725", "rental_uris": {"ios": "https://dc.lft.to/lastmile_qr_scan", "android": "https://dc.lft.to/lastmile_qr_scan"}}, {"name": "ae1a628dca595d13f7bf2349329c5500", "type": "electric_scooter", "lat": 38.89796416666667, "is_reserved": 0, "lon": -77.02988, "fusion_lon": 0.0, "is_disabled": 0, "fusion_lat": 0.0, "bike_id": "ae1a628dca595d13f7bf2349329c5500", "rental_uris": {"ios": "https://dc.lft.to/lastmile_qr_scan", "android": "https://dc.lft.to/lastmile_qr_scan"}}, {"name": "5e2ef121f52b3d8db168ca4b694db854", "type": "electric_scooter", "lat": 38.92066766666667, "is_reserved": 0, "lon": -77.0291715, "fusion_lon": 0.0, "is_disabled": 0, "fusion_lat": 0.0, "bike_id": "5e2ef121f52b3d8db168ca4b694db854", "rental_uris": {"ios": "https://dc.lft.to/lastmile_qr_scan", "android": "https://dc.lft.to/lastmile_qr_scan"}}, {"name": "25b5cb81c8fe3296ca33cf4c66aa8c4f", "type": "electric_scooter", "lat": 38.8833065, "is_reserved": 0, "lon": -77.0174435, "fusion_lon": 0.0, "is_disabled": 0, "fusion_lat": 0.0, "bike_id": "25b5cb81c8fe3296ca33cf4c66aa8c4f", "rental_uris": {"ios": "https://dc.lft.to/lastmile_qr_scan", "android": "https://dc.lft.to/lastmile_qr_scan"}}, {"name": "9984033d8f831b0b9221feb9cfdefaf7", "type": "electric_scooter", "lat": 38.90361983333333, "is_reserved": 0, "lon": -77.03172183333334, "fusion_lon": 0.0, "is_disabled": 0, "fusion_lat": 0.0, "bike_id": "9984033d8f831b0b9221feb9cfdefaf7", "rental_uris": {"ios": "https://dc.lft.to/lastmile_qr_scan", "android": "https://dc.lft.to/lastmile_qr_scan"}}, {"name": "05c60dcd667fc326f180a080f787df0a", "type": "electric_scooter", "lat": 38.910085333333335, "is_reserved": 0, "lon": -76.993996, "fusion_lon": 0.0, "is_disabled": 0, "fusion_lat": 0.0, "bike_id": "05c60dcd667fc326f180a080f787df0a", "rental_uris": {"ios": "https://dc.lft.to/lastmile_qr_scan", "android": "https://dc.lft.to/lastmile_qr_scan"}}, {"name": "4586042ef39cc1028ee04fc5499f229c", "type": "electric_scooter", "lat": 38.9056265, "is_reserved": 0, "lon": -77.034692, "fusion_lon": 0.0, "is_disabled": 0, "fusion_lat": 0.0, "bike_id": "4586042ef39cc1028ee04fc5499f229c", "rental_uris": {"ios": "https://dc.lft.to/lastmile_qr_scan", "android": "https://dc.lft.to/lastmile_qr_scan"}}, {"name": "080d483c99f8e231efd1c3710ece8871", "type": "electric_scooter", "lat": 38.961156833333334, "is_reserved": 0, "lon": -77.0281665, "fusion_lon": 0.0, "is_disabled": 0, "fusion_lat": 0.0, "bike_id": "080d483c99f8e231efd1c3710ece8871", "rental_uris": {"ios": "https://dc.lft.to/lastmile_qr_scan", "android": "https://dc.lft.to/lastmile_qr_scan"}}, {"name": "9e9b052e40237a673658558945e4d05f", "type": "electric_bike", "lat": 38.85534633333333, "is_reserved": 0, "lon": -77.11329683333334, "fusion_lon": 0.0, "is_disabled": 0, "fusion_lat": 0.0, "bike_id": "9e9b052e40237a673658558945e4d05f", "rental_uris": {"ios": "https://dc.lft.to/lastmile_qr_scan", "android": "https://dc.lft.to/lastmile_qr_scan"}}, {"name": "5b23df621aec9536cf1ddf8ddcee1283", "type": "electric_scooter", "lat": 38.917082, "is_reserved": 0, "lon": -77.03105783333334, "fusion_lon": 0.0, "is_disabled": 0, "fusion_lat": 0.0, "bike_id": "5b23df621aec9536cf1ddf8ddcee1283", "rental_uris": {"ios": "https://dc.lft.to/lastmile_qr_scan", "android": "https://dc.lft.to/lastmile_qr_scan"}}, {"name": "22858ed3ac63b4a9d8c4a4bfb910e542", "type": "electric_scooter", "lat": 38.923440166666666, "is_reserved": 0, "lon": -77.05070816666667, "fusion_lon": 0.0, "is_disabled": 0, "fusion_lat": 0.0, "bike_id": "22858ed3ac63b4a9d8c4a4bfb910e542", "rental_uris": {"ios": "https://dc.lft.to/lastmile_qr_scan", "android": "https://dc.lft.to/lastmile_qr_scan"}}, {"name": "279d68559f713570f337e0a35ae1ac8d", "type": "electric_bike", "lat": 38.964982666666664, "is_reserved": 0, "lon": -77.064918, "fusion_lon": 0.0, "is_disabled": 0, "fusion_lat": 0.0, "bike_id": "279d68559f713570f337e0a35ae1ac8d", "rental_uris": {"ios": "https://dc.lft.to/lastmile_qr_scan", "android": "https://dc.lft.to/lastmile_qr_scan"}}, {"name": "434d450da175029835a393881c83887b", "type": "electric_scooter", "lat": 38.89510033333333, "is_reserved": 0, "lon": -77.0034225, "fusion_lon": 0.0, "is_disabled": 0, "fusion_lat": 0.0, "bike_id": "434d450da175029835a393881c83887b", "rental_uris": {"ios": "https://dc.lft.to/lastmile_qr_scan", "android": "https://dc.lft.to/lastmile_qr_scan"}}, {"name": "c6ea92e167d910ff3c0d3f849f1cbf45", "type": "electric_scooter", "lat": 38.9025715, "is_reserved": 0, "lon": -77.0175835, "fusion_lon": 0.0, "is_disabled": 0, "fusion_lat": 0.0, "bike_id": "c6ea92e167d910ff3c0d3f849f1cbf45", "rental_uris": {"ios": "https://dc.lft.to/lastmile_qr_scan", "android": "https://dc.lft.to/lastmile_qr_scan"}}, {"name": "ea02c04b3425fda6e70aabbde7ce25e9", "type": "electric_scooter", "lat": 38.920761166666665, "is_reserved": 0, "lon": -77.02216083333333, "fusion_lon": 0.0, "is_disabled": 0, "fusion_lat": 0.0, "bike_id": "ea02c04b3425fda6e70aabbde7ce25e9", "rental_uris": {"ios": "https://dc.lft.to/lastmile_qr_scan", "android": "https://dc.lft.to/lastmile_qr_scan"}}, {"name": "fd3c34c1e0a04f0fea60bece37963dd8", "type": "electric_scooter", "lat": 38.894759, "is_reserved": 0, "lon": -77.001375, "fusion_lon": 0.0, "is_disabled": 0, "fusion_lat": 0.0, "bike_id": "fd3c34c1e0a04f0fea60bece37963dd8", "rental_uris": {"ios": "https://dc.lft.to/lastmile_qr_scan", "android": "https://dc.lft.to/lastmile_qr_scan"}}, {"name": "8df82307940828bea96b31b1ec487d20", "type": "electric_scooter", "lat": 38.8991755, "is_reserved": 0, "lon": -77.03930033333333, "fusion_lon": 0.0, "is_disabled": 0, "fusion_lat": 0.0, "bike_id": "8df82307940828bea96b31b1ec487d20", "rental_uris": {"ios": "https://dc.lft.to/lastmile_qr_scan", "android": "https://dc.lft.to/lastmile_qr_scan"}}, {"name": "df1fbbf70ba5e6b23738533f3dc07398", "type": "electric_scooter", "lat": 38.895355333333335, "is_reserved": 0, "lon": -77.03352116666667, "fusion_lon": 0.0, "is_disabled": 0, "fusion_lat": 0.0, "bike_id": "df1fbbf70ba5e6b23738533f3dc07398", "rental_uris": {"ios": "https://dc.lft.to/lastmile_qr_scan", "android": "https://dc.lft.to/lastmile_qr_scan"}}, {"name": "d7f5bc38b58e6fa793bf024a4381b4c0", "type": "electric_scooter", "lat": 38.890395833333336, "is_reserved": 0, "lon": -77.02972683333333, "fusion_lon": 0.0, "is_disabled": 0, "fusion_lat": 0.0, "bike_id": "d7f5bc38b58e6fa793bf024a4381b4c0", "rental_uris": {"ios": "https://dc.lft.to/lastmile_qr_scan", "android": "https://dc.lft.to/lastmile_qr_scan"}}, {"name": "8d0b011c556bac30f3973a70f40a3daf", "type": "electric_scooter", "lat": 38.88434783333334, "is_reserved": 0, "lon": -76.95754033333333, "fusion_lon": 0.0, "is_disabled": 0, "fusion_lat": 0.0, "bike_id": "8d0b011c556bac30f3973a70f40a3daf", "rental_uris": {"ios": "https://dc.lft.to/lastmile_qr_scan", "android": "https://dc.lft.to/lastmile_qr_scan"}}, {"name": "3030c49c7a26eadf77eb907dce4434fb", "type": "electric_scooter", "lat": 38.935081833333335, "is_reserved": 0, "lon": -77.019979, "fusion_lon": 0.0, "is_disabled": 0, "fusion_lat": 0.0, "bike_id": "3030c49c7a26eadf77eb907dce4434fb", "rental_uris": {"ios": "https://dc.lft.to/lastmile_qr_scan", "android": "https://dc.lft.to/lastmile_qr_scan"}}, {"name": "e058924499250fe84f4473b1cd6ec47a", "type": "electric_bike", "lat": 39.054056833333334, "is_reserved": 0, "lon": -77.11940483333333, "fusion_lon": 0.0, "is_disabled": 0, "fusion_lat": 0.0, "bike_id": "e058924499250fe84f4473b1cd6ec47a", "rental_uris": {"ios": "https://dc.lft.to/lastmile_qr_scan", "android": "https://dc.lft.to/lastmile_qr_scan"}}, {"name": "7fb8a6328b0c8209759dca74bde92de6", "type": "electric_scooter", "lat": 38.92565966666667, "is_reserved": 0, "lon": -77.02977833333334, "fusion_lon": 0.0, "is_disabled": 0, "fusion_lat": 0.0, "bike_id": "7fb8a6328b0c8209759dca74bde92de6", "rental_uris": {"ios": "https://dc.lft.to/lastmile_qr_scan", "android": "https://dc.lft.to/lastmile_qr_scan"}}, {"name": "da60375575ad9d69b184c397df0a50dd", "type": "electric_scooter", "lat": 38.88407433333333, "is_reserved": 0, "lon": -76.93040966666666, "fusion_lon": 0.0, "is_disabled": 0, "fusion_lat": 0.0, "bike_id": "da60375575ad9d69b184c397df0a50dd", "rental_uris": {"ios": "https://dc.lft.to/lastmile_qr_scan", "android": "https://dc.lft.to/lastmile_qr_scan"}}, {"name": "d993c15216da86eaf67523ce9a966e2c", "type": "electric_scooter", "lat": 38.89889066666667, "is_reserved": 0, "lon": -77.03331166666666, "fusion_lon": 0.0, "is_disabled": 0, "fusion_lat": 0.0, "bike_id": "d993c15216da86eaf67523ce9a966e2c", "rental_uris": {"ios": "https://dc.lft.to/lastmile_qr_scan", "android": "https://dc.lft.to/lastmile_qr_scan"}}, {"name": "5d4ede8acf2c9acc8f11b0bf8c8eb9c2", "type": "electric_bike", "lat": 38.9221235, "is_reserved": 0, "lon": -76.98800866666667, "fusion_lon": 0.0, "is_disabled": 0, "fusion_lat": 0.0, "bike_id": "5d4ede8acf2c9acc8f11b0bf8c8eb9c2", "rental_uris": {"ios": "https://dc.lft.to/lastmile_qr_scan", "android": "https://dc.lft.to/lastmile_qr_scan"}}, {"name": "52f631b17fa752e2160d50c6ab9a7cd1", "type": "electric_scooter", "lat": 38.89472633333333, "is_reserved": 0, "lon": -77.04659166666667, "fusion_lon": 0.0, "is_disabled": 0, "fusion_lat": 0.0, "bike_id": "52f631b17fa752e2160d50c6ab9a7cd1", "rental_uris": {"ios": "https://dc.lft.to/lastmile_qr_scan", "android": "https://dc.lft.to/lastmile_qr_scan"}}, {"name": "8c9151b3e48329df2dd8f843e67789a8", "type": "electric_scooter", "lat": 38.943697, "is_reserved": 0, "lon": -77.0218025, "fusion_lon": 0.0, "is_disabled": 0, "fusion_lat": 0.0, "bike_id": "8c9151b3e48329df2dd8f843e67789a8", "rental_uris": {"ios": "https://dc.lft.to/lastmile_qr_scan", "android": "https://dc.lft.to/lastmile_qr_scan"}}, {"name": "a3d35d64dfcd06ff348f826231979e62", "type": "electric_scooter", "lat": 38.887555666666664, "is_reserved": 0, "lon": -76.97981966666667, "fusion_lon": 0.0, "is_disabled": 0, "fusion_lat": 0.0, "bike_id": "a3d35d64dfcd06ff348f826231979e62", "rental_uris": {"ios": "https://dc.lft.to/lastmile_qr_scan", "android": "https://dc.lft.to/lastmile_qr_scan"}}, {"name": "b6cb406dc599d2d556ae75a416ca3f43", "type": "electric_bike", "lat": 38.87582233333333, "is_reserved": 0, "lon": -77.10569916666667, "fusion_lon": 0.0, "is_disabled": 0, "fusion_lat": 0.0, "bike_id": "b6cb406dc599d2d556ae75a416ca3f43", "rental_uris": {"ios": "https://dc.lft.to/lastmile_qr_scan", "android": "https://dc.lft.to/lastmile_qr_scan"}}, {"name": "c34238c8cf5061f1b5f6f9d4fc396272", "type": "electric_scooter", "lat": 38.89488166666667, "is_reserved": 0, "lon": -77.01017833333333, "fusion_lon": 0.0, "is_disabled": 0, "fusion_lat": 0.0, "bike_id": "c34238c8cf5061f1b5f6f9d4fc396272", "rental_uris": {"ios": "https://dc.lft.to/lastmile_qr_scan", "android": "https://dc.lft.to/lastmile_qr_scan"}}, {"name": "a5d602fbbbd370c0c4a964877eb1cfcf", "type": "electric_scooter", "lat": 38.902933833333336, "is_reserved": 0, "lon": -77.03841516666667, "fusion_lon": 0.0, "is_disabled": 0, "fusion_lat": 0.0, "bike_id": "a5d602fbbbd370c0c4a964877eb1cfcf", "rental_uris": {"ios": "https://dc.lft.to/lastmile_qr_scan", "android": "https://dc.lft.to/lastmile_qr_scan"}}, {"name": "45d695c01b918c7d69cc6e6753c46b67", "type": "electric_scooter", "lat": 38.905085, "is_reserved": 0, "lon": -77.04167616666666, "fusion_lon": 0.0, "is_disabled": 0, "fusion_lat": 0.0, "bike_id": "45d695c01b918c7d69cc6e6753c46b67", "rental_uris": {"ios": "https://dc.lft.to/lastmile_qr_scan", "android": "https://dc.lft.to/lastmile_qr_scan"}}, {"name": "ba2c1aa7060811b83dead1632499e291", "type": "electric_scooter", "lat": 38.933546166666666, "is_reserved": 0, "lon": -77.05867583333334, "fusion_lon": 0.0, "is_disabled": 0, "fusion_lat": 0.0, "bike_id": "ba2c1aa7060811b83dead1632499e291", "rental_uris": {"ios": "https://dc.lft.to/lastmile_qr_scan", "android": "https://dc.lft.to/lastmile_qr_scan"}}, {"name": "4199d6e52838011e1a3e578bcdcc988e", "type": "electric_scooter", "lat": 38.915690833333336, "is_reserved": 0, "lon": -77.03839, "fusion_lon": 0.0, "is_disabled": 0, "fusion_lat": 0.0, "bike_id": "4199d6e52838011e1a3e578bcdcc988e", "rental_uris": {"ios": "https://dc.lft.to/lastmile_qr_scan", "android": "https://dc.lft.to/lastmile_qr_scan"}}, {"name": "cd8a70cab18e2e55345bf6259b78f16b", "type": "electric_scooter", "lat": 38.9031, "is_reserved": 0, "lon": -77.03980316666667, "fusion_lon": 0.0, "is_disabled": 0, "fusion_lat": 0.0, "bike_id": "cd8a70cab18e2e55345bf6259b78f16b", "rental_uris": {"ios": "https://dc.lft.to/lastmile_qr_scan", "android": "https://dc.lft.to/lastmile_qr_scan"}}, {"name": "6150a048094dbdafb640214b657f7519", "type": "electric_scooter", "lat": 38.9361865, "is_reserved": 0, "lon": -77.03217816666667, "fusion_lon": 0.0, "is_disabled": 0, "fusion_lat": 0.0, "bike_id": "6150a048094dbdafb640214b657f7519", "rental_uris": {"ios": "https://dc.lft.to/lastmile_qr_scan", "android": "https://dc.lft.to/lastmile_qr_scan"}}, {"name": "173833e660f0443d8a111407c56bc822", "type": "electric_scooter", "lat": 38.90508033333333, "is_reserved": 0, "lon": -77.05317733333334, "fusion_lon": 0.0, "is_disabled": 0, "fusion_lat": 0.0, "bike_id": "173833e660f0443d8a111407c56bc822", "rental_uris": {"ios": "https://dc.lft.to/lastmile_qr_scan", "android": "https://dc.lft.to/lastmile_qr_scan"}}, {"name": "85bdca7d655f8bfc636ff9cdf9e90f8f", "type": "electric_scooter", "lat": 38.8981895, "is_reserved": 0, "lon": -77.0299465, "fusion_lon": 0.0, "is_disabled": 0, "fusion_lat": 0.0, "bike_id": "85bdca7d655f8bfc636ff9cdf9e90f8f", "rental_uris": {"ios": "https://dc.lft.to/lastmile_qr_scan", "android": "https://dc.lft.to/lastmile_qr_scan"}}, {"name": "cedc5498638ca08a5831f088d53a8cfc", "type": "electric_scooter", "lat": 38.8643375, "is_reserved": 0, "lon": -76.98011433333333, "fusion_lon": 0.0, "is_disabled": 0, "fusion_lat": 0.0, "bike_id": "cedc5498638ca08a5831f088d53a8cfc", "rental_uris": {"ios": "https://dc.lft.to/lastmile_qr_scan", "android": "https://dc.lft.to/lastmile_qr_scan"}}, {"name": "1b573478a4821d2e01d19cb16ab229fb", "type": "electric_scooter", "lat": 38.9061465, "is_reserved": 0, "lon": -77.051355, "fusion_lon": 0.0, "is_disabled": 0, "fusion_lat": 0.0, "bike_id": "1b573478a4821d2e01d19cb16ab229fb", "rental_uris": {"ios": "https://dc.lft.to/lastmile_qr_scan", "android": "https://dc.lft.to/lastmile_qr_scan"}}, {"name": "1f20ce27a1d1e5ecf9ebf4710f3c24e1", "type": "electric_bike", "lat": 38.877351166666664, "is_reserved": 0, "lon": -77.118461, "fusion_lon": 0.0, "is_disabled": 0, "fusion_lat": 0.0, "bike_id": "1f20ce27a1d1e5ecf9ebf4710f3c24e1", "rental_uris": {"ios": "https://dc.lft.to/lastmile_qr_scan", "android": "https://dc.lft.to/lastmile_qr_scan"}}, {"name": "16246681b1988117b318a62d436de8ed", "type": "electric_scooter", "lat": 38.915588666666665, "is_reserved": 0, "lon": -77.041535, "fusion_lon": 0.0, "is_disabled": 0, "fusion_lat": 0.0, "bike_id": "16246681b1988117b318a62d436de8ed", "rental_uris": {"ios": "https://dc.lft.to/lastmile_qr_scan", "android": "https://dc.lft.to/lastmile_qr_scan"}}, {"name": "d31571f8c01891225738573194d443b5", "type": "electric_scooter", "lat": 38.885060833333334, "is_reserved": 0, "lon": -77.00566833333333, "fusion_lon": 0.0, "is_disabled": 0, "fusion_lat": 0.0, "bike_id": "d31571f8c01891225738573194d443b5", "rental_uris": {"ios": "https://dc.lft.to/lastmile_qr_scan", "android": "https://dc.lft.to/lastmile_qr_scan"}}, {"name": "139fa265fcc2ecd36c4d947ceb98e45c", "type": "electric_scooter", "lat": 38.87342016666667, "is_reserved": 0, "lon": -76.967894, "fusion_lon": 0.0, "is_disabled": 0, "fusion_lat": 0.0, "bike_id": "139fa265fcc2ecd36c4d947ceb98e45c", "rental_uris": {"ios": "https://dc.lft.to/lastmile_qr_scan", "android": "https://dc.lft.to/lastmile_qr_scan"}}, {"name": "cdd1c23344b5e7cea4ce25bdad166a4f", "type": "electric_scooter", "lat": 38.939684666666665, "is_reserved": 0, "lon": -77.05324666666667, "fusion_lon": 0.0, "is_disabled": 0, "fusion_lat": 0.0, "bike_id": "cdd1c23344b5e7cea4ce25bdad166a4f", "rental_uris": {"ios": "https://dc.lft.to/lastmile_qr_scan", "android": "https://dc.lft.to/lastmile_qr_scan"}}, {"name": "a113aa059f5284d1282b14dc1dc03136", "type": "electric_scooter", "lat": 38.87926383333333, "is_reserved": 0, "lon": -77.01346416666667, "fusion_lon": 0.0, "is_disabled": 0, "fusion_lat": 0.0, "bike_id": "a113aa059f5284d1282b14dc1dc03136", "rental_uris": {"ios": "https://dc.lft.to/lastmile_qr_scan", "android": "https://dc.lft.to/lastmile_qr_scan"}}, {"name": "84a1eb1cd87226e08ff3b9f5afc836bd", "type": "electric_scooter", "lat": 38.929849833333336, "is_reserved": 0, "lon": -77.034728, "fusion_lon": 0.0, "is_disabled": 0, "fusion_lat": 0.0, "bike_id": "84a1eb1cd87226e08ff3b9f5afc836bd", "rental_uris": {"ios": "https://dc.lft.to/lastmile_qr_scan", "android": "https://dc.lft.to/lastmile_qr_scan"}}, {"name": "85a869fc366ddc31b685f405058ebc69", "type": "electric_scooter", "lat": 38.903069333333335, "is_reserved": 0, "lon": -77.060245, "fusion_lon": 0.0, "is_disabled": 0, "fusion_lat": 0.0, "bike_id": "85a869fc366ddc31b685f405058ebc69", "rental_uris": {"ios": "https://dc.lft.to/lastmile_qr_scan", "android": "https://dc.lft.to/lastmile_qr_scan"}}, {"name": "79188cf9ed89f3234ec6b3987e7d794b", "type": "electric_scooter", "lat": 38.932116666666666, "is_reserved": 0, "lon": -77.02388333333333, "fusion_lon": 0.0, "is_disabled": 0, "fusion_lat": 0.0, "bike_id": "79188cf9ed89f3234ec6b3987e7d794b", "rental_uris": {"ios": "https://dc.lft.to/lastmile_qr_scan", "android": "https://dc.lft.to/lastmile_qr_scan"}}, {"name": "362a104c0cf2a40f535ed7eae369da6f", "type": "electric_bike", "lat": 38.896068166666666, "is_reserved": 0, "lon": -77.03169666666666, "fusion_lon": 0.0, "is_disabled": 0, "fusion_lat": 0.0, "bike_id": "362a104c0cf2a40f535ed7eae369da6f", "rental_uris": {"ios": "https://dc.lft.to/lastmile_qr_scan", "android": "https://dc.lft.to/lastmile_qr_scan"}}, {"name": "f244c069ced733daa7bf8d28b487294f", "type": "electric_scooter", "lat": 38.93069966666667, "is_reserved": 0, "lon": -77.038015, "fusion_lon": 0.0, "is_disabled": 0, "fusion_lat": 0.0, "bike_id": "f244c069ced733daa7bf8d28b487294f", "rental_uris": {"ios": "https://dc.lft.to/lastmile_qr_scan", "android": "https://dc.lft.to/lastmile_qr_scan"}}, {"name": "b443d12279787320c1257ef1482811e0", "type": "electric_scooter", "lat": 38.89676566666667, "is_reserved": 0, "lon": -77.05126, "fusion_lon": 0.0, "is_disabled": 0, "fusion_lat": 0.0, "bike_id": "b443d12279787320c1257ef1482811e0", "rental_uris": {"ios": "https://dc.lft.to/lastmile_qr_scan", "android": "https://dc.lft.to/lastmile_qr_scan"}}, {"name": "47164e347c1207b9eeefbf3fd6370264", "type": "electric_scooter", "lat": 38.9036245, "is_reserved": 0, "lon": -77.03392366666667, "fusion_lon": 0.0, "is_disabled": 0, "fusion_lat": 0.0, "bike_id": "47164e347c1207b9eeefbf3fd6370264", "rental_uris": {"ios": "https://dc.lft.to/lastmile_qr_scan", "android": "https://dc.lft.to/lastmile_qr_scan"}}, {"name": "0b21ab4d2bdf398641d95b58eaa6e55f", "type": "electric_scooter", "lat": 38.89959133333333, "is_reserved": 0, "lon": -76.97548516666667, "fusion_lon": 0.0, "is_disabled": 0, "fusion_lat": 0.0, "bike_id": "0b21ab4d2bdf398641d95b58eaa6e55f", "rental_uris": {"ios": "https://dc.lft.to/lastmile_qr_scan", "android": "https://dc.lft.to/lastmile_qr_scan"}}, {"name": "f427288f49f2f70f5d2d0d7eab4db61f", "type": "electric_scooter", "lat": 38.91533316666667, "is_reserved": 0, "lon": -77.046165, "fusion_lon": 0.0, "is_disabled": 0, "fusion_lat": 0.0, "bike_id": "f427288f49f2f70f5d2d0d7eab4db61f", "rental_uris": {"ios": "https://dc.lft.to/lastmile_qr_scan", "android": "https://dc.lft.to/lastmile_qr_scan"}}, {"name": "13023e47569519de35287e8da6d7d283", "type": "electric_scooter", "lat": 38.921715166666665, "is_reserved": 0, "lon": -76.99399016666666, "fusion_lon": 0.0, "is_disabled": 0, "fusion_lat": 0.0, "bike_id": "13023e47569519de35287e8da6d7d283", "rental_uris": {"ios": "https://dc.lft.to/lastmile_qr_scan", "android": "https://dc.lft.to/lastmile_qr_scan"}}, {"name": "06989ab0f6fb40d13744bc5039ea1cb5", "type": "electric_scooter", "lat": 38.914933833333336, "is_reserved": 0, "lon": -77.01854566666667, "fusion_lon": 0.0, "is_disabled": 0, "fusion_lat": 0.0, "bike_id": "06989ab0f6fb40d13744bc5039ea1cb5", "rental_uris": {"ios": "https://dc.lft.to/lastmile_qr_scan", "android": "https://dc.lft.to/lastmile_qr_scan"}}, {"name": "725832e07b6da9aca351d1354830351f", "type": "electric_scooter", "lat": 38.91266733333333, "is_reserved": 0, "lon": -77.00355966666666, "fusion_lon": 0.0, "is_disabled": 0, "fusion_lat": 0.0, "bike_id": "725832e07b6da9aca351d1354830351f", "rental_uris": {"ios": "https://dc.lft.to/lastmile_qr_scan", "android": "https://dc.lft.to/lastmile_qr_scan"}}, {"name": "088b2b1f675ad54bfa9695bfa32faee5", "type": "electric_scooter", "lat": 38.93074283333333, "is_reserved": 0, "lon": -77.04136133333333, "fusion_lon": 0.0, "is_disabled": 0, "fusion_lat": 0.0, "bike_id": "088b2b1f675ad54bfa9695bfa32faee5", "rental_uris": {"ios": "https://dc.lft.to/lastmile_qr_scan", "android": "https://dc.lft.to/lastmile_qr_scan"}}, {"name": "ac4472fa9652c1ba10522269a3c475cf", "type": "electric_scooter", "lat": 38.894860666666666, "is_reserved": 0, "lon": -76.94874816666666, "fusion_lon": 0.0, "is_disabled": 0, "fusion_lat": 0.0, "bike_id": "ac4472fa9652c1ba10522269a3c475cf", "rental_uris": {"ios": "https://dc.lft.to/lastmile_qr_scan", "android": "https://dc.lft.to/lastmile_qr_scan"}}, {"name": "90a43e356947a81666edcd7572f92055", "type": "electric_scooter", "lat": 38.91978683333333, "is_reserved": 0, "lon": -77.021719, "fusion_lon": 0.0, "is_disabled": 0, "fusion_lat": 0.0, "bike_id": "90a43e356947a81666edcd7572f92055", "rental_uris": {"ios": "https://dc.lft.to/lastmile_qr_scan", "android": "https://dc.lft.to/lastmile_qr_scan"}}, {"name": "488082991f33a5edb6fec08edd699b2b", "type": "electric_scooter", "lat": 38.912690166666664, "is_reserved": 0, "lon": -77.03148116666667, "fusion_lon": 0.0, "is_disabled": 0, "fusion_lat": 0.0, "bike_id": "488082991f33a5edb6fec08edd699b2b", "rental_uris": {"ios": "https://dc.lft.to/lastmile_qr_scan", "android": "https://dc.lft.to/lastmile_qr_scan"}}, {"name": "f410664b9db67b966661774473b14e52", "type": "electric_scooter", "lat": 38.892222333333336, "is_reserved": 0, "lon": -77.043716, "fusion_lon": 0.0, "is_disabled": 0, "fusion_lat": 0.0, "bike_id": "f410664b9db67b966661774473b14e52", "rental_uris": {"ios": "https://dc.lft.to/lastmile_qr_scan", "android": "https://dc.lft.to/lastmile_qr_scan"}}, {"name": "de68212355b69af0b1428e6ae907db1e", "type": "electric_scooter", "lat": 38.895356666666665, "is_reserved": 0, "lon": -77.048457, "fusion_lon": 0.0, "is_disabled": 0, "fusion_lat": 0.0, "bike_id": "de68212355b69af0b1428e6ae907db1e", "rental_uris": {"ios": "https://dc.lft.to/lastmile_qr_scan", "android": "https://dc.lft.to/lastmile_qr_scan"}}, {"name": "8cedf3d8046a7b9cc076cb9ae1f7e662", "type": "electric_scooter", "lat": 38.89224216666667, "is_reserved": 0, "lon": -77.0222735, "fusion_lon": 0.0, "is_disabled": 0, "fusion_lat": 0.0, "bike_id": "8cedf3d8046a7b9cc076cb9ae1f7e662", "rental_uris": {"ios": "https://dc.lft.to/lastmile_qr_scan", "android": "https://dc.lft.to/lastmile_qr_scan"}}, {"name": "0f509215d76c3b35f810122cc46c9235", "type": "electric_scooter", "lat": 38.900051166666664, "is_reserved": 0, "lon": -77.05256666666666, "fusion_lon": 0.0, "is_disabled": 0, "fusion_lat": 0.0, "bike_id": "0f509215d76c3b35f810122cc46c9235", "rental_uris": {"ios": "https://dc.lft.to/lastmile_qr_scan", "android": "https://dc.lft.to/lastmile_qr_scan"}}, {"name": "397b532b34e78e355b49e9a62a610203", "type": "electric_scooter", "lat": 38.922549, "is_reserved": 0, "lon": -77.03076633333333, "fusion_lon": 0.0, "is_disabled": 0, "fusion_lat": 0.0, "bike_id": "397b532b34e78e355b49e9a62a610203", "rental_uris": {"ios": "https://dc.lft.to/lastmile_qr_scan", "android": "https://dc.lft.to/lastmile_qr_scan"}}, {"name": "fcb29493cc515ca2df647fd044a8a467", "type": "electric_scooter", "lat": 38.87554333333333, "is_reserved": 0, "lon": -76.96493133333334, "fusion_lon": 0.0, "is_disabled": 0, "fusion_lat": 0.0, "bike_id": "fcb29493cc515ca2df647fd044a8a467", "rental_uris": {"ios": "https://dc.lft.to/lastmile_qr_scan", "android": "https://dc.lft.to/lastmile_qr_scan"}}, {"name": "2dc773cf84a0ec09d6e8f37159a900da", "type": "electric_scooter", "lat": 38.917947, "is_reserved": 0, "lon": -77.02284533333334, "fusion_lon": 0.0, "is_disabled": 0, "fusion_lat": 0.0, "bike_id": "2dc773cf84a0ec09d6e8f37159a900da", "rental_uris": {"ios": "https://dc.lft.to/lastmile_qr_scan", "android": "https://dc.lft.to/lastmile_qr_scan"}}, {"name": "f12af5f498f6d4d891dfd0b7bc6dffbb", "type": "electric_scooter", "lat": 38.896394, "is_reserved": 0, "lon": -77.03967066666667, "fusion_lon": 0.0, "is_disabled": 0, "fusion_lat": 0.0, "bike_id": "f12af5f498f6d4d891dfd0b7bc6dffbb", "rental_uris": {"ios": "https://dc.lft.to/lastmile_qr_scan", "android": "https://dc.lft.to/lastmile_qr_scan"}}, {"name": "bb55541d7d27207d5ad37d9b97fc8ff1", "type": "electric_scooter", "lat": 38.876367, "is_reserved": 0, "lon": -77.00919966666666, "fusion_lon": 0.0, "is_disabled": 0, "fusion_lat": 0.0, "bike_id": "bb55541d7d27207d5ad37d9b97fc8ff1", "rental_uris": {"ios": "https://dc.lft.to/lastmile_qr_scan", "android": "https://dc.lft.to/lastmile_qr_scan"}}, {"name": "4246a6ee3b40db957e6f15667a6f962d", "type": "electric_scooter", "lat": 38.927529166666666, "is_reserved": 0, "lon": -77.03267433333333, "fusion_lon": 0.0, "is_disabled": 0, "fusion_lat": 0.0, "bike_id": "4246a6ee3b40db957e6f15667a6f962d", "rental_uris": {"ios": "https://dc.lft.to/lastmile_qr_scan", "android": "https://dc.lft.to/lastmile_qr_scan"}}, {"name": "1e50072d46fc80c54b317fb02974e24c", "type": "electric_bike", "lat": 38.93675066666667, "is_reserved": 0, "lon": -76.95208316666667, "fusion_lon": 0.0, "is_disabled": 0, "fusion_lat": 0.0, "bike_id": "1e50072d46fc80c54b317fb02974e24c", "rental_uris": {"ios": "https://dc.lft.to/lastmile_qr_scan", "android": "https://dc.lft.to/lastmile_qr_scan"}}, {"name": "8c88e1816f364eb52171d2b3aad47829", "type": "electric_scooter", "lat": 38.92877633333333, "is_reserved": 0, "lon": -77.040488, "fusion_lon": 0.0, "is_disabled": 0, "fusion_lat": 0.0, "bike_id": "8c88e1816f364eb52171d2b3aad47829", "rental_uris": {"ios": "https://dc.lft.to/lastmile_qr_scan", "android": "https://dc.lft.to/lastmile_qr_scan"}}, {"name": "94237b50fe39a68b2673411db719f85b", "type": "electric_scooter", "lat": 38.90569416666666, "is_reserved": 0, "lon": -77.040233, "fusion_lon": 0.0, "is_disabled": 0, "fusion_lat": 0.0, "bike_id": "94237b50fe39a68b2673411db719f85b", "rental_uris": {"ios": "https://dc.lft.to/lastmile_qr_scan", "android": "https://dc.lft.to/lastmile_qr_scan"}}, {"name": "759cafc3931c1d703769a694cfc9b8cb", "type": "electric_scooter", "lat": 38.901218166666666, "is_reserved": 0, "lon": -77.04996366666667, "fusion_lon": 0.0, "is_disabled": 0, "fusion_lat": 0.0, "bike_id": "759cafc3931c1d703769a694cfc9b8cb", "rental_uris": {"ios": "https://dc.lft.to/lastmile_qr_scan", "android": "https://dc.lft.to/lastmile_qr_scan"}}, {"name": "b48fb2b89b7c28918fe0e1d8e25a3f4b", "type": "electric_bike", "lat": 38.83804583333333, "is_reserved": 0, "lon": -76.99842883333334, "fusion_lon": 0.0, "is_disabled": 0, "fusion_lat": 0.0, "bike_id": "b48fb2b89b7c28918fe0e1d8e25a3f4b", "rental_uris": {"ios": "https://dc.lft.to/lastmile_qr_scan", "android": "https://dc.lft.to/lastmile_qr_scan"}}, {"name": "3cb23330e6f8db0a9ba18efb79410aa7", "type": "electric_scooter", "lat": 38.90024416666667, "is_reserved": 0, "lon": -76.99074216666666, "fusion_lon": 0.0, "is_disabled": 0, "fusion_lat": 0.0, "bike_id": "3cb23330e6f8db0a9ba18efb79410aa7", "rental_uris": {"ios": "https://dc.lft.to/lastmile_qr_scan", "android": "https://dc.lft.to/lastmile_qr_scan"}}, {"name": "6eb27f1160f3d793981008baa9749b2c", "type": "electric_bike", "lat": 38.90297916666667, "is_reserved": 0, "lon": -76.94442416666666, "fusion_lon": 0.0, "is_disabled": 0, "fusion_lat": 0.0, "bike_id": "6eb27f1160f3d793981008baa9749b2c", "rental_uris": {"ios": "https://dc.lft.to/lastmile_qr_scan", "android": "https://dc.lft.to/lastmile_qr_scan"}}, {"name": "e29265525e62bc57643f80d8b0ceedac", "type": "electric_scooter", "lat": 38.917159166666664, "is_reserved": 0, "lon": -77.03862366666667, "fusion_lon": 0.0, "is_disabled": 0, "fusion_lat": 0.0, "bike_id": "e29265525e62bc57643f80d8b0ceedac", "rental_uris": {"ios": "https://dc.lft.to/lastmile_qr_scan", "android": "https://dc.lft.to/lastmile_qr_scan"}}, {"name": "99190f216951b93b9e5e6759a020c23d", "type": "electric_scooter", "lat": 38.90438366666667, "is_reserved": 0, "lon": -77.02803683333333, "fusion_lon": 0.0, "is_disabled": 0, "fusion_lat": 0.0, "bike_id": "99190f216951b93b9e5e6759a020c23d", "rental_uris": {"ios": "https://dc.lft.to/lastmile_qr_scan", "android": "https://dc.lft.to/lastmile_qr_scan"}}, {"name": "3747fd04065b6fb912f0e2cb6c10df6b", "type": "electric_scooter", "lat": 38.91417083333333, "is_reserved": 0, "lon": -77.03908366666667, "fusion_lon": 0.0, "is_disabled": 0, "fusion_lat": 0.0, "bike_id": "3747fd04065b6fb912f0e2cb6c10df6b", "rental_uris": {"ios": "https://dc.lft.to/lastmile_qr_scan", "android": "https://dc.lft.to/lastmile_qr_scan"}}, {"name": "819f980b8782e9a63d63274538f3495f", "type": "electric_scooter", "lat": 38.904812166666666, "is_reserved": 0, "lon": -77.00214916666667, "fusion_lon": 0.0, "is_disabled": 0, "fusion_lat": 0.0, "bike_id": "819f980b8782e9a63d63274538f3495f", "rental_uris": {"ios": "https://dc.lft.to/lastmile_qr_scan", "android": "https://dc.lft.to/lastmile_qr_scan"}}, {"name": "5d2d585bd7c2b5adfd7e08e3e1d2c155", "type": "electric_scooter", "lat": 38.88414916666667, "is_reserved": 0, "lon": -77.0178275, "fusion_lon": 0.0, "is_disabled": 0, "fusion_lat": 0.0, "bike_id": "5d2d585bd7c2b5adfd7e08e3e1d2c155", "rental_uris": {"ios": "https://dc.lft.to/lastmile_qr_scan", "android": "https://dc.lft.to/lastmile_qr_scan"}}, {"name": "eae44802788ef6a867b04a38710f7f84", "type": "electric_scooter", "lat": 38.88628083333333, "is_reserved": 0, "lon": -77.01530966666667, "fusion_lon": 0.0, "is_disabled": 0, "fusion_lat": 0.0, "bike_id": "eae44802788ef6a867b04a38710f7f84", "rental_uris": {"ios": "https://dc.lft.to/lastmile_qr_scan", "android": "https://dc.lft.to/lastmile_qr_scan"}}, {"name": "769f566209453e120d5fa00d86173283", "type": "electric_scooter", "lat": 38.894844, "is_reserved": 0, "lon": -76.99539233333333, "fusion_lon": 0.0, "is_disabled": 0, "fusion_lat": 0.0, "bike_id": "769f566209453e120d5fa00d86173283", "rental_uris": {"ios": "https://dc.lft.to/lastmile_qr_scan", "android": "https://dc.lft.to/lastmile_qr_scan"}}, {"name": "ed40cdd7279dac50e1ab77c76338235d", "type": "electric_scooter", "lat": 38.898166, "is_reserved": 0, "lon": -77.033129, "fusion_lon": 0.0, "is_disabled": 0, "fusion_lat": 0.0, "bike_id": "ed40cdd7279dac50e1ab77c76338235d", "rental_uris": {"ios": "https://dc.lft.to/lastmile_qr_scan", "android": "https://dc.lft.to/lastmile_qr_scan"}}, {"name": "472f5295cc5b816899f3fcba9dd086ba", "type": "electric_scooter", "lat": 38.900292666666665, "is_reserved": 0, "lon": -77.030197, "fusion_lon": 0.0, "is_disabled": 0, "fusion_lat": 0.0, "bike_id": "472f5295cc5b816899f3fcba9dd086ba", "rental_uris": {"ios": "https://dc.lft.to/lastmile_qr_scan", "android": "https://dc.lft.to/lastmile_qr_scan"}}, {"name": "f1af3e95c36b4edf16406d28fedf9d3b", "type": "electric_scooter", "lat": 38.932032666666665, "is_reserved": 0, "lon": -77.03853433333333, "fusion_lon": 0.0, "is_disabled": 0, "fusion_lat": 0.0, "bike_id": "f1af3e95c36b4edf16406d28fedf9d3b", "rental_uris": {"ios": "https://dc.lft.to/lastmile_qr_scan", "android": "https://dc.lft.to/lastmile_qr_scan"}}, {"name": "5f286982ea98eb296ebe650d42732751", "type": "electric_scooter", "lat": 38.928763000000004, "is_reserved": 0, "lon": -77.03479166666666, "fusion_lon": 0.0, "is_disabled": 0, "fusion_lat": 0.0, "bike_id": "5f286982ea98eb296ebe650d42732751", "rental_uris": {"ios": "https://dc.lft.to/lastmile_qr_scan", "android": "https://dc.lft.to/lastmile_qr_scan"}}, {"name": "97e0174259394f28d5e5765aba14d2c7", "type": "electric_scooter", "lat": 38.90365416666667, "is_reserved": 0, "lon": -77.03844116666667, "fusion_lon": 0.0, "is_disabled": 0, "fusion_lat": 0.0, "bike_id": "97e0174259394f28d5e5765aba14d2c7", "rental_uris": {"ios": "https://dc.lft.to/lastmile_qr_scan", "android": "https://dc.lft.to/lastmile_qr_scan"}}, {"name": "edb10ec407fa6690bf6aeb37e2b23ec3", "type": "electric_scooter", "lat": 38.9247365, "is_reserved": 0, "lon": -77.02837733333334, "fusion_lon": 0.0, "is_disabled": 0, "fusion_lat": 0.0, "bike_id": "edb10ec407fa6690bf6aeb37e2b23ec3", "rental_uris": {"ios": "https://dc.lft.to/lastmile_qr_scan", "android": "https://dc.lft.to/lastmile_qr_scan"}}, {"name": "81ebe847d31067100e1dd44a02452a6a", "type": "electric_scooter", "lat": 38.907368166666664, "is_reserved": 0, "lon": -77.03447433333334, "fusion_lon": 0.0, "is_disabled": 0, "fusion_lat": 0.0, "bike_id": "81ebe847d31067100e1dd44a02452a6a", "rental_uris": {"ios": "https://dc.lft.to/lastmile_qr_scan", "android": "https://dc.lft.to/lastmile_qr_scan"}}, {"name": "fc5bec43dec825dd39ba402f69d3f8cf", "type": "electric_bike", "lat": 38.85439233333334, "is_reserved": 0, "lon": -77.11705916666666, "fusion_lon": 0.0, "is_disabled": 0, "fusion_lat": 0.0, "bike_id": "fc5bec43dec825dd39ba402f69d3f8cf", "rental_uris": {"ios": "https://dc.lft.to/lastmile_qr_scan", "android": "https://dc.lft.to/lastmile_qr_scan"}}, {"name": "776a7ffbb20748aef8aec059a6cbaa95", "type": "electric_scooter", "lat": 38.907210166666665, "is_reserved": 0, "lon": -77.02510066666666, "fusion_lon": 0.0, "is_disabled": 0, "fusion_lat": 0.0, "bike_id": "776a7ffbb20748aef8aec059a6cbaa95", "rental_uris": {"ios": "https://dc.lft.to/lastmile_qr_scan", "android": "https://dc.lft.to/lastmile_qr_scan"}}, {"name": "3f958a78f6d9cfdcaf47e4f1c67a32a5", "type": "electric_scooter", "lat": 38.8953015, "is_reserved": 0, "lon": -77.01620316666667, "fusion_lon": 0.0, "is_disabled": 0, "fusion_lat": 0.0, "bike_id": "3f958a78f6d9cfdcaf47e4f1c67a32a5", "rental_uris": {"ios": "https://dc.lft.to/lastmile_qr_scan", "android": "https://dc.lft.to/lastmile_qr_scan"}}, {"name": "1ead3e4f6c45310e577c7516c2914564", "type": "electric_scooter", "lat": 38.905432166666664, "is_reserved": 0, "lon": -77.04499083333333, "fusion_lon": 0.0, "is_disabled": 0, "fusion_lat": 0.0, "bike_id": "1ead3e4f6c45310e577c7516c2914564", "rental_uris": {"ios": "https://dc.lft.to/lastmile_qr_scan", "android": "https://dc.lft.to/lastmile_qr_scan"}}, {"name": "ef64c21cfa4ed57e20e42d2024f8b4b9", "type": "electric_scooter", "lat": 38.9350475, "is_reserved": 0, "lon": -77.028548, "fusion_lon": 0.0, "is_disabled": 0, "fusion_lat": 0.0, "bike_id": "ef64c21cfa4ed57e20e42d2024f8b4b9", "rental_uris": {"ios": "https://dc.lft.to/lastmile_qr_scan", "android": "https://dc.lft.to/lastmile_qr_scan"}}, {"name": "a083f8bacc708fb855fa7feb1694df22", "type": "electric_scooter", "lat": 38.92685933333333, "is_reserved": 0, "lon": -77.02157383333333, "fusion_lon": 0.0, "is_disabled": 0, "fusion_lat": 0.0, "bike_id": "a083f8bacc708fb855fa7feb1694df22", "rental_uris": {"ios": "https://dc.lft.to/lastmile_qr_scan", "android": "https://dc.lft.to/lastmile_qr_scan"}}, {"name": "f98633c9ea3d56be7f6467633975c5f5", "type": "electric_scooter", "lat": 38.921715, "is_reserved": 0, "lon": -76.994013, "fusion_lon": 0.0, "is_disabled": 0, "fusion_lat": 0.0, "bike_id": "f98633c9ea3d56be7f6467633975c5f5", "rental_uris": {"ios": "https://dc.lft.to/lastmile_qr_scan", "android": "https://dc.lft.to/lastmile_qr_scan"}}, {"name": "ac1816a8781f36325621223cd653d4a7", "type": "electric_scooter", "lat": 38.9109675, "is_reserved": 0, "lon": -77.0317795, "fusion_lon": 0.0, "is_disabled": 0, "fusion_lat": 0.0, "bike_id": "ac1816a8781f36325621223cd653d4a7", "rental_uris": {"ios": "https://dc.lft.to/lastmile_qr_scan", "android": "https://dc.lft.to/lastmile_qr_scan"}}, {"name": "ff18acace2d1da293f92251876ff8450", "type": "electric_scooter", "lat": 38.88501266666667, "is_reserved": 0, "lon": -77.020989, "fusion_lon": 0.0, "is_disabled": 0, "fusion_lat": 0.0, "bike_id": "ff18acace2d1da293f92251876ff8450", "rental_uris": {"ios": "https://dc.lft.to/lastmile_qr_scan", "android": "https://dc.lft.to/lastmile_qr_scan"}}, {"name": "455dabf8e731bfb4278e7f8940269580", "type": "electric_scooter", "lat": 38.94176916666667, "is_reserved": 0, "lon": -77.03091533333334, "fusion_lon": 0.0, "is_disabled": 0, "fusion_lat": 0.0, "bike_id": "455dabf8e731bfb4278e7f8940269580", "rental_uris": {"ios": "https://dc.lft.to/lastmile_qr_scan", "android": "https://dc.lft.to/lastmile_qr_scan"}}, {"name": "a3bb84ae9b4b04fad4752d0ad4c6f277", "type": "electric_scooter", "lat": 38.9172615, "is_reserved": 0, "lon": -77.04178983333334, "fusion_lon": 0.0, "is_disabled": 0, "fusion_lat": 0.0, "bike_id": "a3bb84ae9b4b04fad4752d0ad4c6f277", "rental_uris": {"ios": "https://dc.lft.to/lastmile_qr_scan", "android": "https://dc.lft.to/lastmile_qr_scan"}}, {"name": "b820870886cd99fecaaf3bde64bbe677", "type": "electric_scooter", "lat": 38.902411666666666, "is_reserved": 0, "lon": -77.02911033333334, "fusion_lon": 0.0, "is_disabled": 0, "fusion_lat": 0.0, "bike_id": "b820870886cd99fecaaf3bde64bbe677", "rental_uris": {"ios": "https://dc.lft.to/lastmile_qr_scan", "android": "https://dc.lft.to/lastmile_qr_scan"}}, {"name": "f027a5a2c6d407c7a238c5b8885db56d", "type": "electric_scooter", "lat": 38.89956866666667, "is_reserved": 0, "lon": -77.05055333333334, "fusion_lon": 0.0, "is_disabled": 0, "fusion_lat": 0.0, "bike_id": "f027a5a2c6d407c7a238c5b8885db56d", "rental_uris": {"ios": "https://dc.lft.to/lastmile_qr_scan", "android": "https://dc.lft.to/lastmile_qr_scan"}}, {"name": "b8ce82391d7f74c2d9db2983b95eb3a8", "type": "electric_scooter", "lat": 38.90657266666667, "is_reserved": 0, "lon": -77.0384615, "fusion_lon": 0.0, "is_disabled": 0, "fusion_lat": 0.0, "bike_id": "b8ce82391d7f74c2d9db2983b95eb3a8", "rental_uris": {"ios": "https://dc.lft.to/lastmile_qr_scan", "android": "https://dc.lft.to/lastmile_qr_scan"}}, {"name": "9f510b14a97c88cc25ece9f267158d59", "type": "electric_scooter", "lat": 38.91960733333333, "is_reserved": 0, "lon": -77.03187133333333, "fusion_lon": 0.0, "is_disabled": 0, "fusion_lat": 0.0, "bike_id": "9f510b14a97c88cc25ece9f267158d59", "rental_uris": {"ios": "https://dc.lft.to/lastmile_qr_scan", "android": "https://dc.lft.to/lastmile_qr_scan"}}, {"name": "a8dbd53a65102ebf0db79a38b6e4bb90", "type": "electric_scooter", "lat": 38.90316966666666, "is_reserved": 0, "lon": -77.0345115, "fusion_lon": 0.0, "is_disabled": 0, "fusion_lat": 0.0, "bike_id": "a8dbd53a65102ebf0db79a38b6e4bb90", "rental_uris": {"ios": "https://dc.lft.to/lastmile_qr_scan", "android": "https://dc.lft.to/lastmile_qr_scan"}}, {"name": "5bc8ce497f4353c2549bda37e5ec8888", "type": "electric_scooter", "lat": 38.931245, "is_reserved": 0, "lon": -77.03829383333333, "fusion_lon": 0.0, "is_disabled": 0, "fusion_lat": 0.0, "bike_id": "5bc8ce497f4353c2549bda37e5ec8888", "rental_uris": {"ios": "https://dc.lft.to/lastmile_qr_scan", "android": "https://dc.lft.to/lastmile_qr_scan"}}, {"name": "94e0dfbcd2a7f82fed2a5c9fe04b20a6", "type": "electric_scooter", "lat": 38.8822345, "is_reserved": 0, "lon": -76.94186, "fusion_lon": 0.0, "is_disabled": 0, "fusion_lat": 0.0, "bike_id": "94e0dfbcd2a7f82fed2a5c9fe04b20a6", "rental_uris": {"ios": "https://dc.lft.to/lastmile_qr_scan", "android": "https://dc.lft.to/lastmile_qr_scan"}}, {"name": "8d67eb6622be6c9cf382bec5203f725b", "type": "electric_scooter", "lat": 38.905778, "is_reserved": 0, "lon": -77.00489066666667, "fusion_lon": 0.0, "is_disabled": 0, "fusion_lat": 0.0, "bike_id": "8d67eb6622be6c9cf382bec5203f725b", "rental_uris": {"ios": "https://dc.lft.to/lastmile_qr_scan", "android": "https://dc.lft.to/lastmile_qr_scan"}}, {"name": "207c072c8df27be8225dc9fa81580d02", "type": "electric_scooter", "lat": 38.903289, "is_reserved": 0, "lon": -76.9897575, "fusion_lon": 0.0, "is_disabled": 0, "fusion_lat": 0.0, "bike_id": "207c072c8df27be8225dc9fa81580d02", "rental_uris": {"ios": "https://dc.lft.to/lastmile_qr_scan", "android": "https://dc.lft.to/lastmile_qr_scan"}}, {"name": "3919f76fbe7c74df53098fa9992c838d", "type": "electric_scooter", "lat": 38.88613516666667, "is_reserved": 0, "lon": -76.9951235, "fusion_lon": 0.0, "is_disabled": 0, "fusion_lat": 0.0, "bike_id": "3919f76fbe7c74df53098fa9992c838d", "rental_uris": {"ios": "https://dc.lft.to/lastmile_qr_scan", "android": "https://dc.lft.to/lastmile_qr_scan"}}, {"name": "0c7ccef1a2d2f6fa2afb05dbb3a2f5f0", "type": "electric_scooter", "lat": 38.8982765, "is_reserved": 0, "lon": -77.033022, "fusion_lon": 0.0, "is_disabled": 0, "fusion_lat": 0.0, "bike_id": "0c7ccef1a2d2f6fa2afb05dbb3a2f5f0", "rental_uris": {"ios": "https://dc.lft.to/lastmile_qr_scan", "android": "https://dc.lft.to/lastmile_qr_scan"}}, {"name": "e65d0c3314d9ff922a6f462948822369", "type": "electric_scooter", "lat": 38.894820833333334, "is_reserved": 0, "lon": -77.02160133333334, "fusion_lon": 0.0, "is_disabled": 0, "fusion_lat": 0.0, "bike_id": "e65d0c3314d9ff922a6f462948822369", "rental_uris": {"ios": "https://dc.lft.to/lastmile_qr_scan", "android": "https://dc.lft.to/lastmile_qr_scan"}}, {"name": "641852b4ac2f3a1603f93f41fbf056f3", "type": "electric_scooter", "lat": 38.8962025, "is_reserved": 0, "lon": -77.022945, "fusion_lon": 0.0, "is_disabled": 0, "fusion_lat": 0.0, "bike_id": "641852b4ac2f3a1603f93f41fbf056f3", "rental_uris": {"ios": "https://dc.lft.to/lastmile_qr_scan", "android": "https://dc.lft.to/lastmile_qr_scan"}}, {"name": "0f7ee43026d590b1fd3f28b95e339059", "type": "electric_scooter", "lat": 38.906222166666666, "is_reserved": 0, "lon": -77.00056766666667, "fusion_lon": 0.0, "is_disabled": 0, "fusion_lat": 0.0, "bike_id": "0f7ee43026d590b1fd3f28b95e339059", "rental_uris": {"ios": "https://dc.lft.to/lastmile_qr_scan", "android": "https://dc.lft.to/lastmile_qr_scan"}}, {"name": "61f5c37ff6124bcdd667645166d0b96b", "type": "electric_scooter", "lat": 38.923674166666665, "is_reserved": 0, "lon": -77.05047933333333, "fusion_lon": 0.0, "is_disabled": 0, "fusion_lat": 0.0, "bike_id": "61f5c37ff6124bcdd667645166d0b96b", "rental_uris": {"ios": "https://dc.lft.to/lastmile_qr_scan", "android": "https://dc.lft.to/lastmile_qr_scan"}}, {"name": "8cccc975100efe0a0522d3b3d91faa37", "type": "electric_scooter", "lat": 38.90209883333333, "is_reserved": 0, "lon": -77.050327, "fusion_lon": 0.0, "is_disabled": 0, "fusion_lat": 0.0, "bike_id": "8cccc975100efe0a0522d3b3d91faa37", "rental_uris": {"ios": "https://dc.lft.to/lastmile_qr_scan", "android": "https://dc.lft.to/lastmile_qr_scan"}}, {"name": "ba56e8e240aaa506bd81e1303b50af2c", "type": "electric_scooter", "lat": 38.93115433333333, "is_reserved": 0, "lon": -77.03843016666667, "fusion_lon": 0.0, "is_disabled": 0, "fusion_lat": 0.0, "bike_id": "ba56e8e240aaa506bd81e1303b50af2c", "rental_uris": {"ios": "https://dc.lft.to/lastmile_qr_scan", "android": "https://dc.lft.to/lastmile_qr_scan"}}, {"name": "9359b432d3de516e466999e762859ba9", "type": "electric_scooter", "lat": 38.902956833333334, "is_reserved": 0, "lon": -77.0231245, "fusion_lon": 0.0, "is_disabled": 0, "fusion_lat": 0.0, "bike_id": "9359b432d3de516e466999e762859ba9", "rental_uris": {"ios": "https://dc.lft.to/lastmile_qr_scan", "android": "https://dc.lft.to/lastmile_qr_scan"}}, {"name": "4f36c965772ec70716654337d57f7ec4", "type": "electric_bike", "lat": 38.90491866666667, "is_reserved": 0, "lon": -77.02778033333334, "fusion_lon": 0.0, "is_disabled": 0, "fusion_lat": 0.0, "bike_id": "4f36c965772ec70716654337d57f7ec4", "rental_uris": {"ios": "https://dc.lft.to/lastmile_qr_scan", "android": "https://dc.lft.to/lastmile_qr_scan"}}, {"name": "c806f7f899433cd89c61be6104879450", "type": "electric_scooter", "lat": 38.90477583333333, "is_reserved": 0, "lon": -77.0601115, "fusion_lon": 0.0, "is_disabled": 0, "fusion_lat": 0.0, "bike_id": "c806f7f899433cd89c61be6104879450", "rental_uris": {"ios": "https://dc.lft.to/lastmile_qr_scan", "android": "https://dc.lft.to/lastmile_qr_scan"}}, {"name": "63ba32a33e3636bd4fa29461988b7fd0", "type": "electric_bike", "lat": 39.030529333333334, "is_reserved": 0, "lon": -77.094852, "fusion_lon": 0.0, "is_disabled": 0, "fusion_lat": 0.0, "bike_id": "63ba32a33e3636bd4fa29461988b7fd0", "rental_uris": {"ios": "https://dc.lft.to/lastmile_qr_scan", "android": "https://dc.lft.to/lastmile_qr_scan"}}, {"name": "aee2f550c5faab02c75a699e85eda23f", "type": "electric_scooter", "lat": 38.89359, "is_reserved": 0, "lon": -77.0033305, "fusion_lon": 0.0, "is_disabled": 0, "fusion_lat": 0.0, "bike_id": "aee2f550c5faab02c75a699e85eda23f", "rental_uris": {"ios": "https://dc.lft.to/lastmile_qr_scan", "android": "https://dc.lft.to/lastmile_qr_scan"}}, {"name": "736a9556d13667eacb1dd2c71500a097", "type": "electric_bike", "lat": 38.9135885, "is_reserved": 0, "lon": -77.02876183333333, "fusion_lon": 0.0, "is_disabled": 0, "fusion_lat": 0.0, "bike_id": "736a9556d13667eacb1dd2c71500a097", "rental_uris": {"ios": "https://dc.lft.to/lastmile_qr_scan", "android": "https://dc.lft.to/lastmile_qr_scan"}}, {"name": "317b7779d7f5a3f1f656300c29a03311", "type": "electric_bike", "lat": 38.97062233333333, "is_reserved": 0, "lon": -76.93617816666666, "fusion_lon": 0.0, "is_disabled": 0, "fusion_lat": 0.0, "bike_id": "317b7779d7f5a3f1f656300c29a03311", "rental_uris": {"ios": "https://dc.lft.to/lastmile_qr_scan", "android": "https://dc.lft.to/lastmile_qr_scan"}}, {"name": "35f78297c59ed385382ff379cdfdc37d", "type": "electric_scooter", "lat": 38.89108266666667, "is_reserved": 0, "lon": -76.98704383333333, "fusion_lon": 0.0, "is_disabled": 0, "fusion_lat": 0.0, "bike_id": "35f78297c59ed385382ff379cdfdc37d", "rental_uris": {"ios": "https://dc.lft.to/lastmile_qr_scan", "android": "https://dc.lft.to/lastmile_qr_scan"}}, {"name": "673797e61886bc07b6a4cb0088f71424", "type": "electric_scooter", "lat": 38.86095733333333, "is_reserved": 0, "lon": -76.9837745, "fusion_lon": 0.0, "is_disabled": 0, "fusion_lat": 0.0, "bike_id": "673797e61886bc07b6a4cb0088f71424", "rental_uris": {"ios": "https://dc.lft.to/lastmile_qr_scan", "android": "https://dc.lft.to/lastmile_qr_scan"}}, {"name": "a98c2b7a00557e3bd7e5588aa17b7306", "type": "electric_scooter", "lat": 38.895225833333335, "is_reserved": 0, "lon": -77.02285716666667, "fusion_lon": 0.0, "is_disabled": 0, "fusion_lat": 0.0, "bike_id": "a98c2b7a00557e3bd7e5588aa17b7306", "rental_uris": {"ios": "https://dc.lft.to/lastmile_qr_scan", "android": "https://dc.lft.to/lastmile_qr_scan"}}, {"name": "ddeedb8f346d464aebee79faeb1403ad", "type": "electric_scooter", "lat": 38.91576216666667, "is_reserved": 0, "lon": -77.04624, "fusion_lon": 0.0, "is_disabled": 0, "fusion_lat": 0.0, "bike_id": "ddeedb8f346d464aebee79faeb1403ad", "rental_uris": {"ios": "https://dc.lft.to/lastmile_qr_scan", "android": "https://dc.lft.to/lastmile_qr_scan"}}, {"name": "f967567f1e727411c8304b04882c320e", "type": "electric_scooter", "lat": 38.87702916666667, "is_reserved": 0, "lon": -77.01771266666667, "fusion_lon": 0.0, "is_disabled": 0, "fusion_lat": 0.0, "bike_id": "f967567f1e727411c8304b04882c320e", "rental_uris": {"ios": "https://dc.lft.to/lastmile_qr_scan", "android": "https://dc.lft.to/lastmile_qr_scan"}}, {"name": "54dc9a47be47c67ec4d8c4f95ddbbe57", "type": "electric_bike", "lat": 38.870884, "is_reserved": 0, "lon": -77.012146, "fusion_lon": 0.0, "is_disabled": 0, "fusion_lat": 0.0, "bike_id": "54dc9a47be47c67ec4d8c4f95ddbbe57", "rental_uris": {"ios": "https://dc.lft.to/lastmile_qr_scan", "android": "https://dc.lft.to/lastmile_qr_scan"}}, {"name": "e2ad6e04513e65d4363922a73e2929b8", "type": "electric_scooter", "lat": 38.902854, "is_reserved": 0, "lon": -77.03659766666667, "fusion_lon": 0.0, "is_disabled": 0, "fusion_lat": 0.0, "bike_id": "e2ad6e04513e65d4363922a73e2929b8", "rental_uris": {"ios": "https://dc.lft.to/lastmile_qr_scan", "android": "https://dc.lft.to/lastmile_qr_scan"}}, {"name": "0c62f82b265336197fa3cfa43c5d463e", "type": "electric_scooter", "lat": 38.904917, "is_reserved": 0, "lon": -76.98432816666667, "fusion_lon": 0.0, "is_disabled": 0, "fusion_lat": 0.0, "bike_id": "0c62f82b265336197fa3cfa43c5d463e", "rental_uris": {"ios": "https://dc.lft.to/lastmile_qr_scan", "android": "https://dc.lft.to/lastmile_qr_scan"}}, {"name": "2f1d6e6d2baa2b0fb162b8c4f40d5c31", "type": "electric_scooter", "lat": 38.896094166666664, "is_reserved": 0, "lon": -77.04499133333333, "fusion_lon": 0.0, "is_disabled": 0, "fusion_lat": 0.0, "bike_id": "2f1d6e6d2baa2b0fb162b8c4f40d5c31", "rental_uris": {"ios": "https://dc.lft.to/lastmile_qr_scan", "android": "https://dc.lft.to/lastmile_qr_scan"}}, {"name": "2e0265e3d9430921f91974f5726e721f", "type": "electric_scooter", "lat": 38.8997055, "is_reserved": 0, "lon": -77.03125066666666, "fusion_lon": 0.0, "is_disabled": 0, "fusion_lat": 0.0, "bike_id": "2e0265e3d9430921f91974f5726e721f", "rental_uris": {"ios": "https://dc.lft.to/lastmile_qr_scan", "android": "https://dc.lft.to/lastmile_qr_scan"}}, {"name": "32396ea40a053e3f5c9ca2539e6ab165", "type": "electric_scooter", "lat": 38.928794833333335, "is_reserved": 0, "lon": -77.03758616666667, "fusion_lon": 0.0, "is_disabled": 0, "fusion_lat": 0.0, "bike_id": "32396ea40a053e3f5c9ca2539e6ab165", "rental_uris": {"ios": "https://dc.lft.to/lastmile_qr_scan", "android": "https://dc.lft.to/lastmile_qr_scan"}}, {"name": "c84054243fd9064c2d9bf16515471e1c", "type": "electric_scooter", "lat": 38.8976895, "is_reserved": 0, "lon": -77.009085, "fusion_lon": 0.0, "is_disabled": 0, "fusion_lat": 0.0, "bike_id": "c84054243fd9064c2d9bf16515471e1c", "rental_uris": {"ios": "https://dc.lft.to/lastmile_qr_scan", "android": "https://dc.lft.to/lastmile_qr_scan"}}, {"name": "b06f3a62893487d14ffd51dd0ea359ab", "type": "electric_scooter", "lat": 38.90635983333333, "is_reserved": 0, "lon": -77.03965966666667, "fusion_lon": 0.0, "is_disabled": 0, "fusion_lat": 0.0, "bike_id": "b06f3a62893487d14ffd51dd0ea359ab", "rental_uris": {"ios": "https://dc.lft.to/lastmile_qr_scan", "android": "https://dc.lft.to/lastmile_qr_scan"}}, {"name": "add43d34036da4923e5712c9da085a9e", "type": "electric_scooter", "lat": 38.9303725, "is_reserved": 0, "lon": -77.03279216666667, "fusion_lon": 0.0, "is_disabled": 0, "fusion_lat": 0.0, "bike_id": "add43d34036da4923e5712c9da085a9e", "rental_uris": {"ios": "https://dc.lft.to/lastmile_qr_scan", "android": "https://dc.lft.to/lastmile_qr_scan"}}, {"name": "525dd37c6394ff098c0d4410fc8befdf", "type": "electric_scooter", "lat": 38.874631, "is_reserved": 0, "lon": -77.00548183333333, "fusion_lon": 0.0, "is_disabled": 0, "fusion_lat": 0.0, "bike_id": "525dd37c6394ff098c0d4410fc8befdf", "rental_uris": {"ios": "https://dc.lft.to/lastmile_qr_scan", "android": "https://dc.lft.to/lastmile_qr_scan"}}, {"name": "105a1a8a2d0f88fdf7a8423a911e84d5", "type": "electric_scooter", "lat": 38.92152166666666, "is_reserved": 0, "lon": -77.0345735, "fusion_lon": 0.0, "is_disabled": 0, "fusion_lat": 0.0, "bike_id": "105a1a8a2d0f88fdf7a8423a911e84d5", "rental_uris": {"ios": "https://dc.lft.to/lastmile_qr_scan", "android": "https://dc.lft.to/lastmile_qr_scan"}}, {"name": "6770a6752782e9e69b8b0db00f67483b", "type": "electric_scooter", "lat": 38.91875133333333, "is_reserved": 0, "lon": -77.04353933333333, "fusion_lon": 0.0, "is_disabled": 0, "fusion_lat": 0.0, "bike_id": "6770a6752782e9e69b8b0db00f67483b", "rental_uris": {"ios": "https://dc.lft.to/lastmile_qr_scan", "android": "https://dc.lft.to/lastmile_qr_scan"}}, {"name": "459b0091dbaf29c916bd3e762526baf7", "type": "electric_bike", "lat": 38.95911433333333, "is_reserved": 0, "lon": -77.00154133333334, "fusion_lon": 0.0, "is_disabled": 0, "fusion_lat": 0.0, "bike_id": "459b0091dbaf29c916bd3e762526baf7", "rental_uris": {"ios": "https://dc.lft.to/lastmile_qr_scan", "android": "https://dc.lft.to/lastmile_qr_scan"}}, {"name": "7edb70540fac6374a9bda517fdf20eb3", "type": "electric_scooter", "lat": 38.9215575, "is_reserved": 0, "lon": -77.03525583333334, "fusion_lon": 0.0, "is_disabled": 0, "fusion_lat": 0.0, "bike_id": "7edb70540fac6374a9bda517fdf20eb3", "rental_uris": {"ios": "https://dc.lft.to/lastmile_qr_scan", "android": "https://dc.lft.to/lastmile_qr_scan"}}, {"name": "ed01ea07308964e50306cd480b3ef76e", "type": "electric_scooter", "lat": 38.90376933333334, "is_reserved": 0, "lon": -77.03980316666667, "fusion_lon": 0.0, "is_disabled": 0, "fusion_lat": 0.0, "bike_id": "ed01ea07308964e50306cd480b3ef76e", "rental_uris": {"ios": "https://dc.lft.to/lastmile_qr_scan", "android": "https://dc.lft.to/lastmile_qr_scan"}}, {"name": "b7628a9b76bfe4e0d0fa67adf5194974", "type": "electric_scooter", "lat": 38.88507216666667, "is_reserved": 0, "lon": -77.0056695, "fusion_lon": 0.0, "is_disabled": 0, "fusion_lat": 0.0, "bike_id": "b7628a9b76bfe4e0d0fa67adf5194974", "rental_uris": {"ios": "https://dc.lft.to/lastmile_qr_scan", "android": "https://dc.lft.to/lastmile_qr_scan"}}, {"name": "671e40bfb7008112bac21c612991fbaa", "type": "electric_scooter", "lat": 38.91569583333333, "is_reserved": 0, "lon": -77.03837166666666, "fusion_lon": 0.0, "is_disabled": 0, "fusion_lat": 0.0, "bike_id": "671e40bfb7008112bac21c612991fbaa", "rental_uris": {"ios": "https://dc.lft.to/lastmile_qr_scan", "android": "https://dc.lft.to/lastmile_qr_scan"}}, {"name": "c732f4cd4d485e26ed84fcd81f6c9b37", "type": "electric_scooter", "lat": 38.900101, "is_reserved": 0, "lon": -77.01127616666666, "fusion_lon": 0.0, "is_disabled": 0, "fusion_lat": 0.0, "bike_id": "c732f4cd4d485e26ed84fcd81f6c9b37", "rental_uris": {"ios": "https://dc.lft.to/lastmile_qr_scan", "android": "https://dc.lft.to/lastmile_qr_scan"}}, {"name": "3c7b19fdb248d37846bf3c79087a8d98", "type": "electric_scooter", "lat": 38.9189715, "is_reserved": 0, "lon": -77.019737, "fusion_lon": 0.0, "is_disabled": 0, "fusion_lat": 0.0, "bike_id": "3c7b19fdb248d37846bf3c79087a8d98", "rental_uris": {"ios": "https://dc.lft.to/lastmile_qr_scan", "android": "https://dc.lft.to/lastmile_qr_scan"}}, {"name": "f0230d216f4ebe94bb0850b8897fd5c8", "type": "electric_scooter", "lat": 38.949623, "is_reserved": 0, "lon": -77.027227, "fusion_lon": 0.0, "is_disabled": 0, "fusion_lat": 0.0, "bike_id": "f0230d216f4ebe94bb0850b8897fd5c8", "rental_uris": {"ios": "https://dc.lft.to/lastmile_qr_scan", "android": "https://dc.lft.to/lastmile_qr_scan"}}, {"name": "26b1226b2b4f394aef3f4181db4d7518", "type": "electric_scooter", "lat": 38.88426916666667, "is_reserved": 0, "lon": -76.99694216666667, "fusion_lon": 0.0, "is_disabled": 0, "fusion_lat": 0.0, "bike_id": "26b1226b2b4f394aef3f4181db4d7518", "rental_uris": {"ios": "https://dc.lft.to/lastmile_qr_scan", "android": "https://dc.lft.to/lastmile_qr_scan"}}, {"name": "4674892a97f5365511739aefd0498426", "type": "electric_scooter", "lat": 38.87643583333333, "is_reserved": 0, "lon": -76.99588816666666, "fusion_lon": 0.0, "is_disabled": 0, "fusion_lat": 0.0, "bike_id": "4674892a97f5365511739aefd0498426", "rental_uris": {"ios": "https://dc.lft.to/lastmile_qr_scan", "android": "https://dc.lft.to/lastmile_qr_scan"}}, {"name": "eddff9a4d3dbcf52baede270a050f9c0", "type": "electric_scooter", "lat": 38.902913166666664, "is_reserved": 0, "lon": -77.03841316666667, "fusion_lon": 0.0, "is_disabled": 0, "fusion_lat": 0.0, "bike_id": "eddff9a4d3dbcf52baede270a050f9c0", "rental_uris": {"ios": "https://dc.lft.to/lastmile_qr_scan", "android": "https://dc.lft.to/lastmile_qr_scan"}}, {"name": "d100bdf281023a8a657c7974190997ef", "type": "electric_scooter", "lat": 38.8982425, "is_reserved": 0, "lon": -77.03318783333333, "fusion_lon": 0.0, "is_disabled": 0, "fusion_lat": 0.0, "bike_id": "d100bdf281023a8a657c7974190997ef", "rental_uris": {"ios": "https://dc.lft.to/lastmile_qr_scan", "android": "https://dc.lft.to/lastmile_qr_scan"}}, {"name": "76abd86614cc21c93470534af37e0acc", "type": "electric_scooter", "lat": 38.9023035, "is_reserved": 0, "lon": -76.97407983333333, "fusion_lon": 0.0, "is_disabled": 0, "fusion_lat": 0.0, "bike_id": "76abd86614cc21c93470534af37e0acc", "rental_uris": {"ios": "https://dc.lft.to/lastmile_qr_scan", "android": "https://dc.lft.to/lastmile_qr_scan"}}, {"name": "5ce255b83d507f69fbb732959f28d247", "type": "electric_bike", "lat": 38.89819416666667, "is_reserved": 0, "lon": -77.0060155, "fusion_lon": 0.0, "is_disabled": 0, "fusion_lat": 0.0, "bike_id": "5ce255b83d507f69fbb732959f28d247", "rental_uris": {"ios": "https://dc.lft.to/lastmile_qr_scan", "android": "https://dc.lft.to/lastmile_qr_scan"}}, {"name": "d29d42c1b99b44d3e6e0a74f2847bcd6", "type": "electric_scooter", "lat": 38.90777883333333, "is_reserved": 0, "lon": -77.06922216666666, "fusion_lon": 0.0, "is_disabled": 0, "fusion_lat": 0.0, "bike_id": "d29d42c1b99b44d3e6e0a74f2847bcd6", "rental_uris": {"ios": "https://dc.lft.to/lastmile_qr_scan", "android": "https://dc.lft.to/lastmile_qr_scan"}}, {"name": "c3c15075037927e4f93563d8dd96e1c1", "type": "electric_scooter", "lat": 38.934919666666666, "is_reserved": 0, "lon": -77.03283983333333, "fusion_lon": 0.0, "is_disabled": 0, "fusion_lat": 0.0, "bike_id": "c3c15075037927e4f93563d8dd96e1c1", "rental_uris": {"ios": "https://dc.lft.to/lastmile_qr_scan", "android": "https://dc.lft.to/lastmile_qr_scan"}}, {"name": "0096b325211926d23d619ebf7946ec69", "type": "electric_scooter", "lat": 38.917254166666666, "is_reserved": 0, "lon": -77.03660316666667, "fusion_lon": 0.0, "is_disabled": 0, "fusion_lat": 0.0, "bike_id": "0096b325211926d23d619ebf7946ec69", "rental_uris": {"ios": "https://dc.lft.to/lastmile_qr_scan", "android": "https://dc.lft.to/lastmile_qr_scan"}}, {"name": "41fcee235cb12825ac83195623e4fdac", "type": "electric_scooter", "lat": 38.90517716666667, "is_reserved": 0, "lon": -77.04868883333333, "fusion_lon": 0.0, "is_disabled": 0, "fusion_lat": 0.0, "bike_id": "41fcee235cb12825ac83195623e4fdac", "rental_uris": {"ios": "https://dc.lft.to/lastmile_qr_scan", "android": "https://dc.lft.to/lastmile_qr_scan"}}, {"name": "33c6be14faf9f120759cf61a3b10f09f", "type": "electric_scooter", "lat": 38.9003295, "is_reserved": 0, "lon": -76.99862483333334, "fusion_lon": 0.0, "is_disabled": 0, "fusion_lat": 0.0, "bike_id": "33c6be14faf9f120759cf61a3b10f09f", "rental_uris": {"ios": "https://dc.lft.to/lastmile_qr_scan", "android": "https://dc.lft.to/lastmile_qr_scan"}}, {"name": "9c09f8de932ded7ac27a31df74a3a628", "type": "electric_scooter", "lat": 38.92953516666667, "is_reserved": 0, "lon": -77.02316716666667, "fusion_lon": 0.0, "is_disabled": 0, "fusion_lat": 0.0, "bike_id": "9c09f8de932ded7ac27a31df74a3a628", "rental_uris": {"ios": "https://dc.lft.to/lastmile_qr_scan", "android": "https://dc.lft.to/lastmile_qr_scan"}}, {"name": "6673ed9a71162b551e68a1515d629c71", "type": "electric_scooter", "lat": 38.891865833333334, "is_reserved": 0, "lon": -77.01531516666667, "fusion_lon": 0.0, "is_disabled": 0, "fusion_lat": 0.0, "bike_id": "6673ed9a71162b551e68a1515d629c71", "rental_uris": {"ios": "https://dc.lft.to/lastmile_qr_scan", "android": "https://dc.lft.to/lastmile_qr_scan"}}, {"name": "9a5d984988d8d7cab2bda57d39411043", "type": "electric_scooter", "lat": 38.896428666666665, "is_reserved": 0, "lon": -77.0273365, "fusion_lon": 0.0, "is_disabled": 0, "fusion_lat": 0.0, "bike_id": "9a5d984988d8d7cab2bda57d39411043", "rental_uris": {"ios": "https://dc.lft.to/lastmile_qr_scan", "android": "https://dc.lft.to/lastmile_qr_scan"}}, {"name": "fa1e5b93463d536590ef091078994c30", "type": "electric_scooter", "lat": 38.906495166666666, "is_reserved": 0, "lon": -77.00595383333334, "fusion_lon": 0.0, "is_disabled": 0, "fusion_lat": 0.0, "bike_id": "fa1e5b93463d536590ef091078994c30", "rental_uris": {"ios": "https://dc.lft.to/lastmile_qr_scan", "android": "https://dc.lft.to/lastmile_qr_scan"}}, {"name": "ab7a3924acbd95ef3f503ad648ce8e3b", "type": "electric_bike", "lat": 38.861642833333335, "is_reserved": 0, "lon": -77.13093833333333, "fusion_lon": 0.0, "is_disabled": 0, "fusion_lat": 0.0, "bike_id": "ab7a3924acbd95ef3f503ad648ce8e3b", "rental_uris": {"ios": "https://dc.lft.to/lastmile_qr_scan", "android": "https://dc.lft.to/lastmile_qr_scan"}}, {"name": "23b2801d1968cfb5bc7bea3f2243b539", "type": "electric_scooter", "lat": 38.9001565, "is_reserved": 0, "lon": -77.043828, "fusion_lon": 0.0, "is_disabled": 0, "fusion_lat": 0.0, "bike_id": "23b2801d1968cfb5bc7bea3f2243b539", "rental_uris": {"ios": "https://dc.lft.to/lastmile_qr_scan", "android": "https://dc.lft.to/lastmile_qr_scan"}}, {"name": "196e160dca47655473760ad07ffde294", "type": "electric_scooter", "lat": 38.90573283333333, "is_reserved": 0, "lon": -77.01510333333333, "fusion_lon": 0.0, "is_disabled": 0, "fusion_lat": 0.0, "bike_id": "196e160dca47655473760ad07ffde294", "rental_uris": {"ios": "https://dc.lft.to/lastmile_qr_scan", "android": "https://dc.lft.to/lastmile_qr_scan"}}, {"name": "80af0b5622ff6c742593536899cbb110", "type": "electric_scooter", "lat": 38.928403333333335, "is_reserved": 0, "lon": -77.01400066666666, "fusion_lon": 0.0, "is_disabled": 0, "fusion_lat": 0.0, "bike_id": "80af0b5622ff6c742593536899cbb110", "rental_uris": {"ios": "https://dc.lft.to/lastmile_qr_scan", "android": "https://dc.lft.to/lastmile_qr_scan"}}, {"name": "548ee055561c57188ab56975a1024fac", "type": "electric_scooter", "lat": 38.905772666666664, "is_reserved": 0, "lon": -77.04883983333333, "fusion_lon": 0.0, "is_disabled": 0, "fusion_lat": 0.0, "bike_id": "548ee055561c57188ab56975a1024fac", "rental_uris": {"ios": "https://dc.lft.to/lastmile_qr_scan", "android": "https://dc.lft.to/lastmile_qr_scan"}}, {"name": "cbecd1a964c696c6aa08257ef220df80", "type": "electric_scooter", "lat": 38.868358666666666, "is_reserved": 0, "lon": -76.98615, "fusion_lon": 0.0, "is_disabled": 0, "fusion_lat": 0.0, "bike_id": "cbecd1a964c696c6aa08257ef220df80", "rental_uris": {"ios": "https://dc.lft.to/lastmile_qr_scan", "android": "https://dc.lft.to/lastmile_qr_scan"}}, {"name": "67a8c487b7ef8faa3e45a574736ff819", "type": "electric_scooter", "lat": 38.885317, "is_reserved": 0, "lon": -77.005803, "fusion_lon": 0.0, "is_disabled": 0, "fusion_lat": 0.0, "bike_id": "67a8c487b7ef8faa3e45a574736ff819", "rental_uris": {"ios": "https://dc.lft.to/lastmile_qr_scan", "android": "https://dc.lft.to/lastmile_qr_scan"}}, {"name": "8b98f0b21cd1e911e94798d96e90f1f5", "type": "electric_scooter", "lat": 38.932846, "is_reserved": 0, "lon": -77.02973233333333, "fusion_lon": 0.0, "is_disabled": 0, "fusion_lat": 0.0, "bike_id": "8b98f0b21cd1e911e94798d96e90f1f5", "rental_uris": {"ios": "https://dc.lft.to/lastmile_qr_scan", "android": "https://dc.lft.to/lastmile_qr_scan"}}, {"name": "218f709eaa883c94d9e215c0453356a5", "type": "electric_scooter", "lat": 38.88279266666667, "is_reserved": 0, "lon": -76.98615833333334, "fusion_lon": 0.0, "is_disabled": 0, "fusion_lat": 0.0, "bike_id": "218f709eaa883c94d9e215c0453356a5", "rental_uris": {"ios": "https://dc.lft.to/lastmile_qr_scan", "android": "https://dc.lft.to/lastmile_qr_scan"}}, {"name": "af21875e24676037887e157a732a9243", "type": "electric_scooter", "lat": 38.917266, "is_reserved": 0, "lon": -77.03667866666666, "fusion_lon": 0.0, "is_disabled": 0, "fusion_lat": 0.0, "bike_id": "af21875e24676037887e157a732a9243", "rental_uris": {"ios": "https://dc.lft.to/lastmile_qr_scan", "android": "https://dc.lft.to/lastmile_qr_scan"}}, {"name": "554cb49ea3714551b173dcb18244d1a3", "type": "electric_scooter", "lat": 38.9096105, "is_reserved": 0, "lon": -77.0241305, "fusion_lon": 0.0, "is_disabled": 0, "fusion_lat": 0.0, "bike_id": "554cb49ea3714551b173dcb18244d1a3", "rental_uris": {"ios": "https://dc.lft.to/lastmile_qr_scan", "android": "https://dc.lft.to/lastmile_qr_scan"}}, {"name": "38522d75ca6e8f225c42cb6779848304", "type": "electric_scooter", "lat": 38.899865166666665, "is_reserved": 0, "lon": -77.02114116666667, "fusion_lon": 0.0, "is_disabled": 0, "fusion_lat": 0.0, "bike_id": "38522d75ca6e8f225c42cb6779848304", "rental_uris": {"ios": "https://dc.lft.to/lastmile_qr_scan", "android": "https://dc.lft.to/lastmile_qr_scan"}}, {"name": "f650bdf0250a4061fe663866ad56f6f6", "type": "electric_scooter", "lat": 38.90806933333333, "is_reserved": 0, "lon": -77.03840533333333, "fusion_lon": 0.0, "is_disabled": 0, "fusion_lat": 0.0, "bike_id": "f650bdf0250a4061fe663866ad56f6f6", "rental_uris": {"ios": "https://dc.lft.to/lastmile_qr_scan", "android": "https://dc.lft.to/lastmile_qr_scan"}}, {"name": "95e1ac48dd188e1ff756dc9b9029f275", "type": "electric_scooter", "lat": 38.92720083333333, "is_reserved": 0, "lon": -77.0210385, "fusion_lon": 0.0, "is_disabled": 0, "fusion_lat": 0.0, "bike_id": "95e1ac48dd188e1ff756dc9b9029f275", "rental_uris": {"ios": "https://dc.lft.to/lastmile_qr_scan", "android": "https://dc.lft.to/lastmile_qr_scan"}}, {"name": "82581d84dcdb8215512487d8d55a7c81", "type": "electric_scooter", "lat": 38.90874783333334, "is_reserved": 0, "lon": -77.08594616666667, "fusion_lon": 0.0, "is_disabled": 0, "fusion_lat": 0.0, "bike_id": "82581d84dcdb8215512487d8d55a7c81", "rental_uris": {"ios": "https://dc.lft.to/lastmile_qr_scan", "android": "https://dc.lft.to/lastmile_qr_scan"}}, {"name": "a5611895630a650e9fea1585898edcea", "type": "electric_scooter", "lat": 38.956465666666666, "is_reserved": 0, "lon": -77.032826, "fusion_lon": 0.0, "is_disabled": 0, "fusion_lat": 0.0, "bike_id": "a5611895630a650e9fea1585898edcea", "rental_uris": {"ios": "https://dc.lft.to/lastmile_qr_scan", "android": "https://dc.lft.to/lastmile_qr_scan"}}, {"name": "718b1703fbb8175c88127ea108871831", "type": "electric_scooter", "lat": 38.90965, "is_reserved": 0, "lon": -77.03861883333333, "fusion_lon": 0.0, "is_disabled": 0, "fusion_lat": 0.0, "bike_id": "718b1703fbb8175c88127ea108871831", "rental_uris": {"ios": "https://dc.lft.to/lastmile_qr_scan", "android": "https://dc.lft.to/lastmile_qr_scan"}}, {"name": "e9c74ffc2b2762133096ddf33251df86", "type": "electric_bike", "lat": 38.827873, "is_reserved": 0, "lon": -77.009167, "fusion_lon": 0.0, "is_disabled": 0, "fusion_lat": 0.0, "bike_id": "e9c74ffc2b2762133096ddf33251df86", "rental_uris": {"ios": "https://dc.lft.to/lastmile_qr_scan", "android": "https://dc.lft.to/lastmile_qr_scan"}}, {"name": "3f93faac367304101eafef9334be9ba8", "type": "electric_bike", "lat": 39.0037825, "is_reserved": 0, "lon": -77.0129135, "fusion_lon": 0.0, "is_disabled": 0, "fusion_lat": 0.0, "bike_id": "3f93faac367304101eafef9334be9ba8", "rental_uris": {"ios": "https://dc.lft.to/lastmile_qr_scan", "android": "https://dc.lft.to/lastmile_qr_scan"}}, {"name": "5c0d8ab5b5d1ba45e2ff8b095ffeeaa6", "type": "electric_scooter", "lat": 38.90247883333333, "is_reserved": 0, "lon": -77.02646783333333, "fusion_lon": 0.0, "is_disabled": 0, "fusion_lat": 0.0, "bike_id": "5c0d8ab5b5d1ba45e2ff8b095ffeeaa6", "rental_uris": {"ios": "https://dc.lft.to/lastmile_qr_scan", "android": "https://dc.lft.to/lastmile_qr_scan"}}, {"name": "5bf2b75fbce726f766f32c5dd98f17cf", "type": "electric_scooter", "lat": 38.93462183333333, "is_reserved": 0, "lon": -77.07301666666666, "fusion_lon": 0.0, "is_disabled": 0, "fusion_lat": 0.0, "bike_id": "5bf2b75fbce726f766f32c5dd98f17cf", "rental_uris": {"ios": "https://dc.lft.to/lastmile_qr_scan", "android": "https://dc.lft.to/lastmile_qr_scan"}}, {"name": "8ff0bc9d6e56fb58c0e325448bb76a87", "type": "electric_scooter", "lat": 38.884960666666665, "is_reserved": 0, "lon": -77.0072655, "fusion_lon": 0.0, "is_disabled": 0, "fusion_lat": 0.0, "bike_id": "8ff0bc9d6e56fb58c0e325448bb76a87", "rental_uris": {"ios": "https://dc.lft.to/lastmile_qr_scan", "android": "https://dc.lft.to/lastmile_qr_scan"}}, {"name": "70e55975b1d127e3e6d3d9324d97e461", "type": "electric_bike", "lat": 38.80782033333333, "is_reserved": 0, "lon": -77.12951016666666, "fusion_lon": 0.0, "is_disabled": 0, "fusion_lat": 0.0, "bike_id": "70e55975b1d127e3e6d3d9324d97e461", "rental_uris": {"ios": "https://dc.lft.to/lastmile_qr_scan", "android": "https://dc.lft.to/lastmile_qr_scan"}}, {"name": "9113d182b086c7f04e878beaafa72341", "type": "electric_scooter", "lat": 38.8924435, "is_reserved": 0, "lon": -77.01535866666667, "fusion_lon": 0.0, "is_disabled": 0, "fusion_lat": 0.0, "bike_id": "9113d182b086c7f04e878beaafa72341", "rental_uris": {"ios": "https://dc.lft.to/lastmile_qr_scan", "android": "https://dc.lft.to/lastmile_qr_scan"}}, {"name": "f8bc927ffcfae36b07c0fc87e243feef", "type": "electric_scooter", "lat": 38.90615666666667, "is_reserved": 0, "lon": -77.04337116666666, "fusion_lon": 0.0, "is_disabled": 0, "fusion_lat": 0.0, "bike_id": "f8bc927ffcfae36b07c0fc87e243feef", "rental_uris": {"ios": "https://dc.lft.to/lastmile_qr_scan", "android": "https://dc.lft.to/lastmile_qr_scan"}}, {"name": "2b6fd71cc2099b04c858ce373d446ad4", "type": "electric_scooter", "lat": 38.91460766666667, "is_reserved": 0, "lon": -77.00492866666667, "fusion_lon": 0.0, "is_disabled": 0, "fusion_lat": 0.0, "bike_id": "2b6fd71cc2099b04c858ce373d446ad4", "rental_uris": {"ios": "https://dc.lft.to/lastmile_qr_scan", "android": "https://dc.lft.to/lastmile_qr_scan"}}, {"name": "0d855aa5c6f381dfe584899dc4694575", "type": "electric_scooter", "lat": 38.92669883333333, "is_reserved": 0, "lon": -77.01509133333333, "fusion_lon": 0.0, "is_disabled": 0, "fusion_lat": 0.0, "bike_id": "0d855aa5c6f381dfe584899dc4694575", "rental_uris": {"ios": "https://dc.lft.to/lastmile_qr_scan", "android": "https://dc.lft.to/lastmile_qr_scan"}}, {"name": "c74c9f88295a39de98758f4e3cf3cc43", "type": "electric_bike", "lat": 38.839349166666665, "is_reserved": 0, "lon": -77.07898966666667, "fusion_lon": 0.0, "is_disabled": 0, "fusion_lat": 0.0, "bike_id": "c74c9f88295a39de98758f4e3cf3cc43", "rental_uris": {"ios": "https://dc.lft.to/lastmile_qr_scan", "android": "https://dc.lft.to/lastmile_qr_scan"}}, {"name": "a039e75804fa4a971fcdaba4ab4e211d", "type": "electric_scooter", "lat": 38.90923083333333, "is_reserved": 0, "lon": -77.0727675, "fusion_lon": 0.0, "is_disabled": 0, "fusion_lat": 0.0, "bike_id": "a039e75804fa4a971fcdaba4ab4e211d", "rental_uris": {"ios": "https://dc.lft.to/lastmile_qr_scan", "android": "https://dc.lft.to/lastmile_qr_scan"}}, {"name": "abb1eda214628033ce6f36080f3e3924", "type": "electric_scooter", "lat": 38.88495316666667, "is_reserved": 0, "lon": -77.0072855, "fusion_lon": 0.0, "is_disabled": 0, "fusion_lat": 0.0, "bike_id": "abb1eda214628033ce6f36080f3e3924", "rental_uris": {"ios": "https://dc.lft.to/lastmile_qr_scan", "android": "https://dc.lft.to/lastmile_qr_scan"}}, {"name": "2d9aba15552eb487e0a04bfd2bcfe75b", "type": "electric_scooter", "lat": 38.915631166666664, "is_reserved": 0, "lon": -77.02175033333333, "fusion_lon": 0.0, "is_disabled": 0, "fusion_lat": 0.0, "bike_id": "2d9aba15552eb487e0a04bfd2bcfe75b", "rental_uris": {"ios": "https://dc.lft.to/lastmile_qr_scan", "android": "https://dc.lft.to/lastmile_qr_scan"}}, {"name": "162aebb29bffe7940ede63572f80ad6b", "type": "electric_scooter", "lat": 38.905904166666666, "is_reserved": 0, "lon": -77.01616783333333, "fusion_lon": 0.0, "is_disabled": 0, "fusion_lat": 0.0, "bike_id": "162aebb29bffe7940ede63572f80ad6b", "rental_uris": {"ios": "https://dc.lft.to/lastmile_qr_scan", "android": "https://dc.lft.to/lastmile_qr_scan"}}, {"name": "7b2bd8ba6c6c9f192b29e280ef6a97d2", "type": "electric_scooter", "lat": 38.900286333333334, "is_reserved": 0, "lon": -77.0116235, "fusion_lon": 0.0, "is_disabled": 0, "fusion_lat": 0.0, "bike_id": "7b2bd8ba6c6c9f192b29e280ef6a97d2", "rental_uris": {"ios": "https://dc.lft.to/lastmile_qr_scan", "android": "https://dc.lft.to/lastmile_qr_scan"}}, {"name": "6162372bb2c5d3b2e5245a58389b3ffd", "type": "electric_scooter", "lat": 38.903188666666665, "is_reserved": 0, "lon": -77.03342766666667, "fusion_lon": 0.0, "is_disabled": 0, "fusion_lat": 0.0, "bike_id": "6162372bb2c5d3b2e5245a58389b3ffd", "rental_uris": {"ios": "https://dc.lft.to/lastmile_qr_scan", "android": "https://dc.lft.to/lastmile_qr_scan"}}, {"name": "0fe4d09c4144929510423ee50cc1d03e", "type": "electric_scooter", "lat": 38.89821716666667, "is_reserved": 0, "lon": -77.03317066666666, "fusion_lon": 0.0, "is_disabled": 0, "fusion_lat": 0.0, "bike_id": "0fe4d09c4144929510423ee50cc1d03e", "rental_uris": {"ios": "https://dc.lft.to/lastmile_qr_scan", "android": "https://dc.lft.to/lastmile_qr_scan"}}, {"name": "4b453137d452af26acebe01c53dd2720", "type": "electric_bike", "lat": 38.88043616666667, "is_reserved": 0, "lon": -77.013269, "fusion_lon": 0.0, "is_disabled": 0, "fusion_lat": 0.0, "bike_id": "4b453137d452af26acebe01c53dd2720", "rental_uris": {"ios": "https://dc.lft.to/lastmile_qr_scan", "android": "https://dc.lft.to/lastmile_qr_scan"}}, {"name": "4de8a94770ed64e62575f13b22fd80fa", "type": "electric_bike", "lat": 38.90145666666667, "is_reserved": 0, "lon": -77.04484166666667, "fusion_lon": 0.0, "is_disabled": 0, "fusion_lat": 0.0, "bike_id": "4de8a94770ed64e62575f13b22fd80fa", "rental_uris": {"ios": "https://dc.lft.to/lastmile_qr_scan", "android": "https://dc.lft.to/lastmile_qr_scan"}}, {"name": "aea5370a8f056832817a22de2888e6db", "type": "electric_bike", "lat": 38.842774666666664, "is_reserved": 0, "lon": -76.9884215, "fusion_lon": 0.0, "is_disabled": 0, "fusion_lat": 0.0, "bike_id": "aea5370a8f056832817a22de2888e6db", "rental_uris": {"ios": "https://dc.lft.to/lastmile_qr_scan", "android": "https://dc.lft.to/lastmile_qr_scan"}}, {"name": "c9991d7bc813faf969026e179e5eb92d", "type": "electric_scooter", "lat": 38.906611833333336, "is_reserved": 0, "lon": -77.05151983333333, "fusion_lon": 0.0, "is_disabled": 0, "fusion_lat": 0.0, "bike_id": "c9991d7bc813faf969026e179e5eb92d", "rental_uris": {"ios": "https://dc.lft.to/lastmile_qr_scan", "android": "https://dc.lft.to/lastmile_qr_scan"}}, {"name": "6b6beb604e68f6f0a3914cde36db81f3", "type": "electric_scooter", "lat": 38.9060985, "is_reserved": 0, "lon": -77.03980316666667, "fusion_lon": 0.0, "is_disabled": 0, "fusion_lat": 0.0, "bike_id": "6b6beb604e68f6f0a3914cde36db81f3", "rental_uris": {"ios": "https://dc.lft.to/lastmile_qr_scan", "android": "https://dc.lft.to/lastmile_qr_scan"}}, {"name": "e1cb8349005494a187e7d0a476795c8c", "type": "electric_scooter", "lat": 38.9001815, "is_reserved": 0, "lon": -77.04034683333333, "fusion_lon": 0.0, "is_disabled": 0, "fusion_lat": 0.0, "bike_id": "e1cb8349005494a187e7d0a476795c8c", "rental_uris": {"ios": "https://dc.lft.to/lastmile_qr_scan", "android": "https://dc.lft.to/lastmile_qr_scan"}}, {"name": "2288103bcdc36702c3e611211f962d88", "type": "electric_scooter", "lat": 38.905629, "is_reserved": 0, "lon": -77.03461083333333, "fusion_lon": 0.0, "is_disabled": 0, "fusion_lat": 0.0, "bike_id": "2288103bcdc36702c3e611211f962d88", "rental_uris": {"ios": "https://dc.lft.to/lastmile_qr_scan", "android": "https://dc.lft.to/lastmile_qr_scan"}}, {"name": "85ed1f46bdf8563ddf93bd7769a7f642", "type": "electric_scooter", "lat": 38.897393666666666, "is_reserved": 0, "lon": -77.04340516666667, "fusion_lon": 0.0, "is_disabled": 0, "fusion_lat": 0.0, "bike_id": "85ed1f46bdf8563ddf93bd7769a7f642", "rental_uris": {"ios": "https://dc.lft.to/lastmile_qr_scan", "android": "https://dc.lft.to/lastmile_qr_scan"}}, {"name": "67aafd87cb55a03da0c0effaea011e8e", "type": "electric_scooter", "lat": 38.90745016666666, "is_reserved": 0, "lon": -77.0415645, "fusion_lon": 0.0, "is_disabled": 0, "fusion_lat": 0.0, "bike_id": "67aafd87cb55a03da0c0effaea011e8e", "rental_uris": {"ios": "https://dc.lft.to/lastmile_qr_scan", "android": "https://dc.lft.to/lastmile_qr_scan"}}, {"name": "4030b6d6dec055350b035104334fd5a8", "type": "electric_scooter", "lat": 38.90028733333333, "is_reserved": 0, "lon": -77.01185383333333, "fusion_lon": 0.0, "is_disabled": 0, "fusion_lat": 0.0, "bike_id": "4030b6d6dec055350b035104334fd5a8", "rental_uris": {"ios": "https://dc.lft.to/lastmile_qr_scan", "android": "https://dc.lft.to/lastmile_qr_scan"}}, {"name": "40269d2fbc9e69c8be4b5ebba16f6087", "type": "electric_scooter", "lat": 38.9097285, "is_reserved": 0, "lon": -77.02719783333333, "fusion_lon": 0.0, "is_disabled": 0, "fusion_lat": 0.0, "bike_id": "40269d2fbc9e69c8be4b5ebba16f6087", "rental_uris": {"ios": "https://dc.lft.to/lastmile_qr_scan", "android": "https://dc.lft.to/lastmile_qr_scan"}}, {"name": "6a538376a6ad1f7b5f7c0ad81c88ea0c", "type": "electric_scooter", "lat": 38.904628833333334, "is_reserved": 0, "lon": -77.0346545, "fusion_lon": 0.0, "is_disabled": 0, "fusion_lat": 0.0, "bike_id": "6a538376a6ad1f7b5f7c0ad81c88ea0c", "rental_uris": {"ios": "https://dc.lft.to/lastmile_qr_scan", "android": "https://dc.lft.to/lastmile_qr_scan"}}, {"name": "a5feddcfb4ca1acb403619735ec2ddb8", "type": "electric_scooter", "lat": 38.92964516666667, "is_reserved": 0, "lon": -77.0114785, "fusion_lon": 0.0, "is_disabled": 0, "fusion_lat": 0.0, "bike_id": "a5feddcfb4ca1acb403619735ec2ddb8", "rental_uris": {"ios": "https://dc.lft.to/lastmile_qr_scan", "android": "https://dc.lft.to/lastmile_qr_scan"}}, {"name": "3275c8515ab58bd7c2a5a121990af096", "type": "electric_scooter", "lat": 38.907283166666666, "is_reserved": 0, "lon": -77.043456, "fusion_lon": 0.0, "is_disabled": 0, "fusion_lat": 0.0, "bike_id": "3275c8515ab58bd7c2a5a121990af096", "rental_uris": {"ios": "https://dc.lft.to/lastmile_qr_scan", "android": "https://dc.lft.to/lastmile_qr_scan"}}, {"name": "6b6e529aa110433be597cefa7c167fe5", "type": "electric_scooter", "lat": 38.9611485, "is_reserved": 0, "lon": -77.028127, "fusion_lon": 0.0, "is_disabled": 0, "fusion_lat": 0.0, "bike_id": "6b6e529aa110433be597cefa7c167fe5", "rental_uris": {"ios": "https://dc.lft.to/lastmile_qr_scan", "android": "https://dc.lft.to/lastmile_qr_scan"}}, {"name": "f3d0095ccd5f531790169ab248fb9571", "type": "electric_bike", "lat": 38.8457455, "is_reserved": 0, "lon": -77.09626066666667, "fusion_lon": 0.0, "is_disabled": 0, "fusion_lat": 0.0, "bike_id": "f3d0095ccd5f531790169ab248fb9571", "rental_uris": {"ios": "https://dc.lft.to/lastmile_qr_scan", "android": "https://dc.lft.to/lastmile_qr_scan"}}, {"name": "0887d741230bab432c4eb6dcf5733d7f", "type": "electric_scooter", "lat": 38.91939083333333, "is_reserved": 0, "lon": -77.04488283333333, "fusion_lon": 0.0, "is_disabled": 0, "fusion_lat": 0.0, "bike_id": "0887d741230bab432c4eb6dcf5733d7f", "rental_uris": {"ios": "https://dc.lft.to/lastmile_qr_scan", "android": "https://dc.lft.to/lastmile_qr_scan"}}, {"name": "7056072d64283634aef3f9f44261bcf1", "type": "electric_scooter", "lat": 38.893501666666666, "is_reserved": 0, "lon": -76.99383916666666, "fusion_lon": 0.0, "is_disabled": 0, "fusion_lat": 0.0, "bike_id": "7056072d64283634aef3f9f44261bcf1", "rental_uris": {"ios": "https://dc.lft.to/lastmile_qr_scan", "android": "https://dc.lft.to/lastmile_qr_scan"}}, {"name": "9dbee5758b972c5e78386c1eb8676344", "type": "electric_scooter", "lat": 38.9023045, "is_reserved": 0, "lon": -77.04441916666667, "fusion_lon": 0.0, "is_disabled": 0, "fusion_lat": 0.0, "bike_id": "9dbee5758b972c5e78386c1eb8676344", "rental_uris": {"ios": "https://dc.lft.to/lastmile_qr_scan", "android": "https://dc.lft.to/lastmile_qr_scan"}}, {"name": "31bd27535afcc0a578726433f9836082", "type": "electric_bike", "lat": 38.90864933333334, "is_reserved": 0, "lon": -76.93163583333333, "fusion_lon": 0.0, "is_disabled": 0, "fusion_lat": 0.0, "bike_id": "31bd27535afcc0a578726433f9836082", "rental_uris": {"ios": "https://dc.lft.to/lastmile_qr_scan", "android": "https://dc.lft.to/lastmile_qr_scan"}}, {"name": "7c0fb0204616621d747de36a4aa239cd", "type": "electric_scooter", "lat": 38.906815, "is_reserved": 0, "lon": -77.0248965, "fusion_lon": 0.0, "is_disabled": 0, "fusion_lat": 0.0, "bike_id": "7c0fb0204616621d747de36a4aa239cd", "rental_uris": {"ios": "https://dc.lft.to/lastmile_qr_scan", "android": "https://dc.lft.to/lastmile_qr_scan"}}, {"name": "4de2953b2c59735ab17a67cc81a0b857", "type": "electric_scooter", "lat": 38.86374466666667, "is_reserved": 0, "lon": -77.01364783333334, "fusion_lon": 0.0, "is_disabled": 0, "fusion_lat": 0.0, "bike_id": "4de2953b2c59735ab17a67cc81a0b857", "rental_uris": {"ios": "https://dc.lft.to/lastmile_qr_scan", "android": "https://dc.lft.to/lastmile_qr_scan"}}, {"name": "c6dad9840ac8ec765e9209e156ef1eab", "type": "electric_scooter", "lat": 38.880416, "is_reserved": 0, "lon": -76.92727366666666, "fusion_lon": 0.0, "is_disabled": 0, "fusion_lat": 0.0, "bike_id": "c6dad9840ac8ec765e9209e156ef1eab", "rental_uris": {"ios": "https://dc.lft.to/lastmile_qr_scan", "android": "https://dc.lft.to/lastmile_qr_scan"}}, {"name": "1291894f5152318fa945cae65a5f9b75", "type": "electric_scooter", "lat": 38.897326166666666, "is_reserved": 0, "lon": -77.05525583333333, "fusion_lon": 0.0, "is_disabled": 0, "fusion_lat": 0.0, "bike_id": "1291894f5152318fa945cae65a5f9b75", "rental_uris": {"ios": "https://dc.lft.to/lastmile_qr_scan", "android": "https://dc.lft.to/lastmile_qr_scan"}}, {"name": "78ae466da12bdc951d521079cf1690db", "type": "electric_scooter", "lat": 38.924408666666665, "is_reserved": 0, "lon": -77.03405016666666, "fusion_lon": 0.0, "is_disabled": 0, "fusion_lat": 0.0, "bike_id": "78ae466da12bdc951d521079cf1690db", "rental_uris": {"ios": "https://dc.lft.to/lastmile_qr_scan", "android": "https://dc.lft.to/lastmile_qr_scan"}}, {"name": "64f2e99e0847704a777d134e06b4ce4a", "type": "electric_scooter", "lat": 38.90021016666667, "is_reserved": 0, "lon": -77.040245, "fusion_lon": 0.0, "is_disabled": 0, "fusion_lat": 0.0, "bike_id": "64f2e99e0847704a777d134e06b4ce4a", "rental_uris": {"ios": "https://dc.lft.to/lastmile_qr_scan", "android": "https://dc.lft.to/lastmile_qr_scan"}}, {"name": "9f57942d1bac0d72d2144187fdd3ed73", "type": "electric_bike", "lat": 38.924714333333334, "is_reserved": 0, "lon": -77.2084085, "fusion_lon": 0.0, "is_disabled": 0, "fusion_lat": 0.0, "bike_id": "9f57942d1bac0d72d2144187fdd3ed73", "rental_uris": {"ios": "https://dc.lft.to/lastmile_qr_scan", "android": "https://dc.lft.to/lastmile_qr_scan"}}, {"name": "f7e86dffac8ae9ca50d1dfe52f41f8b5", "type": "electric_scooter", "lat": 38.90676, "is_reserved": 0, "lon": -76.97806833333334, "fusion_lon": 0.0, "is_disabled": 0, "fusion_lat": 0.0, "bike_id": "f7e86dffac8ae9ca50d1dfe52f41f8b5", "rental_uris": {"ios": "https://dc.lft.to/lastmile_qr_scan", "android": "https://dc.lft.to/lastmile_qr_scan"}}, {"name": "a18799785c3133f1e44d07d77436e7e7", "type": "electric_scooter", "lat": 38.90374166666667, "is_reserved": 0, "lon": -77.00743883333334, "fusion_lon": 0.0, "is_disabled": 0, "fusion_lat": 0.0, "bike_id": "a18799785c3133f1e44d07d77436e7e7", "rental_uris": {"ios": "https://dc.lft.to/lastmile_qr_scan", "android": "https://dc.lft.to/lastmile_qr_scan"}}, {"name": "1f8ddcb40560a230fa343b7314858869", "type": "electric_bike", "lat": 38.89191833333334, "is_reserved": 0, "lon": -77.12261683333334, "fusion_lon": 0.0, "is_disabled": 0, "fusion_lat": 0.0, "bike_id": "1f8ddcb40560a230fa343b7314858869", "rental_uris": {"ios": "https://dc.lft.to/lastmile_qr_scan", "android": "https://dc.lft.to/lastmile_qr_scan"}}, {"name": "663981501511b654fd99c9872101cec4", "type": "electric_scooter", "lat": 38.91113433333334, "is_reserved": 0, "lon": -77.04929366666667, "fusion_lon": 0.0, "is_disabled": 0, "fusion_lat": 0.0, "bike_id": "663981501511b654fd99c9872101cec4", "rental_uris": {"ios": "https://dc.lft.to/lastmile_qr_scan", "android": "https://dc.lft.to/lastmile_qr_scan"}}, {"name": "d5c0e350e29a2963785954cbeafd6cd6", "type": "electric_scooter", "lat": 38.93423666666666, "is_reserved": 0, "lon": -77.03407183333333, "fusion_lon": 0.0, "is_disabled": 0, "fusion_lat": 0.0, "bike_id": "d5c0e350e29a2963785954cbeafd6cd6", "rental_uris": {"ios": "https://dc.lft.to/lastmile_qr_scan", "android": "https://dc.lft.to/lastmile_qr_scan"}}, {"name": "6f13957754329e0ef308747377b1c45e", "type": "electric_scooter", "lat": 38.910345666666664, "is_reserved": 0, "lon": -77.03086466666667, "fusion_lon": 0.0, "is_disabled": 0, "fusion_lat": 0.0, "bike_id": "6f13957754329e0ef308747377b1c45e", "rental_uris": {"ios": "https://dc.lft.to/lastmile_qr_scan", "android": "https://dc.lft.to/lastmile_qr_scan"}}, {"name": "2cb4a9f9560da94a4e592f42107e213a", "type": "electric_bike", "lat": 38.955596666666665, "is_reserved": 0, "lon": -76.93546533333334, "fusion_lon": 0.0, "is_disabled": 0, "fusion_lat": 0.0, "bike_id": "2cb4a9f9560da94a4e592f42107e213a", "rental_uris": {"ios": "https://dc.lft.to/lastmile_qr_scan", "android": "https://dc.lft.to/lastmile_qr_scan"}}, {"name": "ebb90355bea8e319fefb7821309f519d", "type": "electric_scooter", "lat": 38.908351333333336, "is_reserved": 0, "lon": -76.997022, "fusion_lon": 0.0, "is_disabled": 0, "fusion_lat": 0.0, "bike_id": "ebb90355bea8e319fefb7821309f519d", "rental_uris": {"ios": "https://dc.lft.to/lastmile_qr_scan", "android": "https://dc.lft.to/lastmile_qr_scan"}}, {"name": "352e33ecc564311a3ac654fe6828d718", "type": "electric_scooter", "lat": 38.94273483333333, "is_reserved": 0, "lon": -77.02505683333334, "fusion_lon": 0.0, "is_disabled": 0, "fusion_lat": 0.0, "bike_id": "352e33ecc564311a3ac654fe6828d718", "rental_uris": {"ios": "https://dc.lft.to/lastmile_qr_scan", "android": "https://dc.lft.to/lastmile_qr_scan"}}, {"name": "3f85b8e65dc3f0101b86d5da2f86273a", "type": "electric_scooter", "lat": 38.92555383333333, "is_reserved": 0, "lon": -77.00094283333334, "fusion_lon": 0.0, "is_disabled": 0, "fusion_lat": 0.0, "bike_id": "3f85b8e65dc3f0101b86d5da2f86273a", "rental_uris": {"ios": "https://dc.lft.to/lastmile_qr_scan", "android": "https://dc.lft.to/lastmile_qr_scan"}}, {"name": "5206c1026c89e431b553ea5295407252", "type": "electric_scooter", "lat": 38.9053505, "is_reserved": 0, "lon": -77.065275, "fusion_lon": 0.0, "is_disabled": 0, "fusion_lat": 0.0, "bike_id": "5206c1026c89e431b553ea5295407252", "rental_uris": {"ios": "https://dc.lft.to/lastmile_qr_scan", "android": "https://dc.lft.to/lastmile_qr_scan"}}, {"name": "acd72009c4839d04d16418e97a0ffb99", "type": "electric_scooter", "lat": 38.9038025, "is_reserved": 0, "lon": -77.04483666666667, "fusion_lon": 0.0, "is_disabled": 0, "fusion_lat": 0.0, "bike_id": "acd72009c4839d04d16418e97a0ffb99", "rental_uris": {"ios": "https://dc.lft.to/lastmile_qr_scan", "android": "https://dc.lft.to/lastmile_qr_scan"}}, {"name": "c6385492a713a4cd222d995c178e614d", "type": "electric_scooter", "lat": 38.899521666666665, "is_reserved": 0, "lon": -77.05269916666667, "fusion_lon": 0.0, "is_disabled": 0, "fusion_lat": 0.0, "bike_id": "c6385492a713a4cd222d995c178e614d", "rental_uris": {"ios": "https://dc.lft.to/lastmile_qr_scan", "android": "https://dc.lft.to/lastmile_qr_scan"}}, {"name": "a66b15a6f9317bc22e3f84fec0e70ca6", "type": "electric_scooter", "lat": 38.92713, "is_reserved": 0, "lon": -77.04048466666667, "fusion_lon": 0.0, "is_disabled": 0, "fusion_lat": 0.0, "bike_id": "a66b15a6f9317bc22e3f84fec0e70ca6", "rental_uris": {"ios": "https://dc.lft.to/lastmile_qr_scan", "android": "https://dc.lft.to/lastmile_qr_scan"}}, {"name": "64661269588e5bebfc1baef1197bb166", "type": "electric_scooter", "lat": 38.922763333333336, "is_reserved": 0, "lon": -77.01823066666667, "fusion_lon": 0.0, "is_disabled": 0, "fusion_lat": 0.0, "bike_id": "64661269588e5bebfc1baef1197bb166", "rental_uris": {"ios": "https://dc.lft.to/lastmile_qr_scan", "android": "https://dc.lft.to/lastmile_qr_scan"}}, {"name": "4096624c15984c37032b94ad4b4e9fff", "type": "electric_scooter", "lat": 38.900343, "is_reserved": 0, "lon": -76.99857533333333, "fusion_lon": 0.0, "is_disabled": 0, "fusion_lat": 0.0, "bike_id": "4096624c15984c37032b94ad4b4e9fff", "rental_uris": {"ios": "https://dc.lft.to/lastmile_qr_scan", "android": "https://dc.lft.to/lastmile_qr_scan"}}, {"name": "b656abc15491fa8a66e27f88191042a2", "type": "electric_scooter", "lat": 38.92252633333333, "is_reserved": 0, "lon": -77.030886, "fusion_lon": 0.0, "is_disabled": 0, "fusion_lat": 0.0, "bike_id": "b656abc15491fa8a66e27f88191042a2", "rental_uris": {"ios": "https://dc.lft.to/lastmile_qr_scan", "android": "https://dc.lft.to/lastmile_qr_scan"}}, {"name": "663f076c0473f5958dab40a288156dce", "type": "electric_scooter", "lat": 38.9066645, "is_reserved": 0, "lon": -77.03860633333333, "fusion_lon": 0.0, "is_disabled": 0, "fusion_lat": 0.0, "bike_id": "663f076c0473f5958dab40a288156dce", "rental_uris": {"ios": "https://dc.lft.to/lastmile_qr_scan", "android": "https://dc.lft.to/lastmile_qr_scan"}}, {"name": "0c6b4883f82c6f79ccde9e85879c4062", "type": "electric_scooter", "lat": 38.920129333333335, "is_reserved": 0, "lon": -77.03871266666667, "fusion_lon": 0.0, "is_disabled": 0, "fusion_lat": 0.0, "bike_id": "0c6b4883f82c6f79ccde9e85879c4062", "rental_uris": {"ios": "https://dc.lft.to/lastmile_qr_scan", "android": "https://dc.lft.to/lastmile_qr_scan"}}, {"name": "13807e30102be4a21336f5aaa5d0c88a", "type": "electric_scooter", "lat": 38.8851495, "is_reserved": 0, "lon": -77.03352916666667, "fusion_lon": 0.0, "is_disabled": 0, "fusion_lat": 0.0, "bike_id": "13807e30102be4a21336f5aaa5d0c88a", "rental_uris": {"ios": "https://dc.lft.to/lastmile_qr_scan", "android": "https://dc.lft.to/lastmile_qr_scan"}}, {"name": "608059a93a1ad22cea56cddf420d0956", "type": "electric_scooter", "lat": 38.905417166666666, "is_reserved": 0, "lon": -77.03986733333333, "fusion_lon": 0.0, "is_disabled": 0, "fusion_lat": 0.0, "bike_id": "608059a93a1ad22cea56cddf420d0956", "rental_uris": {"ios": "https://dc.lft.to/lastmile_qr_scan", "android": "https://dc.lft.to/lastmile_qr_scan"}}, {"name": "c2322340c96799d97a35dea0978d95f0", "type": "electric_scooter", "lat": 38.885221333333334, "is_reserved": 0, "lon": -76.97713516666667, "fusion_lon": 0.0, "is_disabled": 0, "fusion_lat": 0.0, "bike_id": "c2322340c96799d97a35dea0978d95f0", "rental_uris": {"ios": "https://dc.lft.to/lastmile_qr_scan", "android": "https://dc.lft.to/lastmile_qr_scan"}}, {"name": "230ad903fc1d3b4f9455732dcb15a908", "type": "electric_scooter", "lat": 38.9036665, "is_reserved": 0, "lon": -77.04195066666666, "fusion_lon": 0.0, "is_disabled": 0, "fusion_lat": 0.0, "bike_id": "230ad903fc1d3b4f9455732dcb15a908", "rental_uris": {"ios": "https://dc.lft.to/lastmile_qr_scan", "android": "https://dc.lft.to/lastmile_qr_scan"}}, {"name": "cd5255084b73b00c7f00ad7e89d307ab", "type": "electric_scooter", "lat": 38.918081666666666, "is_reserved": 0, "lon": -77.02784633333333, "fusion_lon": 0.0, "is_disabled": 0, "fusion_lat": 0.0, "bike_id": "cd5255084b73b00c7f00ad7e89d307ab", "rental_uris": {"ios": "https://dc.lft.to/lastmile_qr_scan", "android": "https://dc.lft.to/lastmile_qr_scan"}}, {"name": "5619ef3b27f8b48e6e82c4e900b71565", "type": "electric_scooter", "lat": 38.8922595, "is_reserved": 0, "lon": -77.03214583333333, "fusion_lon": 0.0, "is_disabled": 0, "fusion_lat": 0.0, "bike_id": "5619ef3b27f8b48e6e82c4e900b71565", "rental_uris": {"ios": "https://dc.lft.to/lastmile_qr_scan", "android": "https://dc.lft.to/lastmile_qr_scan"}}, {"name": "70a84386750debf33455e6291f408ccb", "type": "electric_scooter", "lat": 38.9057495, "is_reserved": 0, "lon": -77.04350283333333, "fusion_lon": 0.0, "is_disabled": 0, "fusion_lat": 0.0, "bike_id": "70a84386750debf33455e6291f408ccb", "rental_uris": {"ios": "https://dc.lft.to/lastmile_qr_scan", "android": "https://dc.lft.to/lastmile_qr_scan"}}, {"name": "43daa49046ca8320c3c7a2fe253171fe", "type": "electric_scooter", "lat": 38.931754833333336, "is_reserved": 0, "lon": -77.02845033333334, "fusion_lon": 0.0, "is_disabled": 0, "fusion_lat": 0.0, "bike_id": "43daa49046ca8320c3c7a2fe253171fe", "rental_uris": {"ios": "https://dc.lft.to/lastmile_qr_scan", "android": "https://dc.lft.to/lastmile_qr_scan"}}, {"name": "e014c57b80b1a496b0546c2d94ab3ca3", "type": "electric_scooter", "lat": 38.94016516666667, "is_reserved": 0, "lon": -77.0717315, "fusion_lon": 0.0, "is_disabled": 0, "fusion_lat": 0.0, "bike_id": "e014c57b80b1a496b0546c2d94ab3ca3", "rental_uris": {"ios": "https://dc.lft.to/lastmile_qr_scan", "android": "https://dc.lft.to/lastmile_qr_scan"}}, {"name": "7b2ba829b9691d12f6bf6bef11dc1a42", "type": "electric_scooter", "lat": 38.904422, "is_reserved": 0, "lon": -76.98500833333334, "fusion_lon": 0.0, "is_disabled": 0, "fusion_lat": 0.0, "bike_id": "7b2ba829b9691d12f6bf6bef11dc1a42", "rental_uris": {"ios": "https://dc.lft.to/lastmile_qr_scan", "android": "https://dc.lft.to/lastmile_qr_scan"}}, {"name": "2ac64cc73c4b2b19c10e9e4ce04d45ee", "type": "electric_scooter", "lat": 38.90410833333333, "is_reserved": 0, "lon": -76.97331016666666, "fusion_lon": 0.0, "is_disabled": 0, "fusion_lat": 0.0, "bike_id": "2ac64cc73c4b2b19c10e9e4ce04d45ee", "rental_uris": {"ios": "https://dc.lft.to/lastmile_qr_scan", "android": "https://dc.lft.to/lastmile_qr_scan"}}, {"name": "9b652420ec81b38ca6a18b50748277e1", "type": "electric_scooter", "lat": 38.92937033333333, "is_reserved": 0, "lon": -77.032689, "fusion_lon": 0.0, "is_disabled": 0, "fusion_lat": 0.0, "bike_id": "9b652420ec81b38ca6a18b50748277e1", "rental_uris": {"ios": "https://dc.lft.to/lastmile_qr_scan", "android": "https://dc.lft.to/lastmile_qr_scan"}}, {"name": "a845a05e679371fc98b9381fdae59a95", "type": "electric_scooter", "lat": 38.9066535, "is_reserved": 0, "lon": -77.026935, "fusion_lon": 0.0, "is_disabled": 0, "fusion_lat": 0.0, "bike_id": "a845a05e679371fc98b9381fdae59a95", "rental_uris": {"ios": "https://dc.lft.to/lastmile_qr_scan", "android": "https://dc.lft.to/lastmile_qr_scan"}}, {"name": "529b8b54870772760370d02888976f6c", "type": "electric_scooter", "lat": 38.905834666666664, "is_reserved": 0, "lon": -77.0386335, "fusion_lon": 0.0, "is_disabled": 0, "fusion_lat": 0.0, "bike_id": "529b8b54870772760370d02888976f6c", "rental_uris": {"ios": "https://dc.lft.to/lastmile_qr_scan", "android": "https://dc.lft.to/lastmile_qr_scan"}}, {"name": "820cddf6d55c4cb0e24c9912a925cc0b", "type": "electric_scooter", "lat": 38.877856, "is_reserved": 0, "lon": -76.99410416666667, "fusion_lon": 0.0, "is_disabled": 0, "fusion_lat": 0.0, "bike_id": "820cddf6d55c4cb0e24c9912a925cc0b", "rental_uris": {"ios": "https://dc.lft.to/lastmile_qr_scan", "android": "https://dc.lft.to/lastmile_qr_scan"}}, {"name": "d4c8eeadd29585f88fc43b230da603af", "type": "electric_scooter", "lat": 38.90382683333333, "is_reserved": 0, "lon": -77.04160383333334, "fusion_lon": 0.0, "is_disabled": 0, "fusion_lat": 0.0, "bike_id": "d4c8eeadd29585f88fc43b230da603af", "rental_uris": {"ios": "https://dc.lft.to/lastmile_qr_scan", "android": "https://dc.lft.to/lastmile_qr_scan"}}, {"name": "299236af214d076009f5cb2f4dbd6394", "type": "electric_scooter", "lat": 38.927183666666664, "is_reserved": 0, "lon": -77.02101433333333, "fusion_lon": 0.0, "is_disabled": 0, "fusion_lat": 0.0, "bike_id": "299236af214d076009f5cb2f4dbd6394", "rental_uris": {"ios": "https://dc.lft.to/lastmile_qr_scan", "android": "https://dc.lft.to/lastmile_qr_scan"}}, {"name": "40477ca95488eb37956241ec3ca56558", "type": "electric_scooter", "lat": 38.866584333333336, "is_reserved": 0, "lon": -76.9888665, "fusion_lon": 0.0, "is_disabled": 0, "fusion_lat": 0.0, "bike_id": "40477ca95488eb37956241ec3ca56558", "rental_uris": {"ios": "https://dc.lft.to/lastmile_qr_scan", "android": "https://dc.lft.to/lastmile_qr_scan"}}, {"name": "fa1bf9d1d9596316f4598940dff36758", "type": "electric_scooter", "lat": 38.942794166666665, "is_reserved": 0, "lon": -77.02503616666667, "fusion_lon": 0.0, "is_disabled": 0, "fusion_lat": 0.0, "bike_id": "fa1bf9d1d9596316f4598940dff36758", "rental_uris": {"ios": "https://dc.lft.to/lastmile_qr_scan", "android": "https://dc.lft.to/lastmile_qr_scan"}}, {"name": "6f800f0daaaa560f9292509c42e81a10", "type": "electric_bike", "lat": 38.96508033333333, "is_reserved": 0, "lon": -77.10336083333333, "fusion_lon": 0.0, "is_disabled": 0, "fusion_lat": 0.0, "bike_id": "6f800f0daaaa560f9292509c42e81a10", "rental_uris": {"ios": "https://dc.lft.to/lastmile_qr_scan", "android": "https://dc.lft.to/lastmile_qr_scan"}}, {"name": "49ed6bf5fdd7cc057bba9f3c23c8fbcf", "type": "electric_scooter", "lat": 38.90561, "is_reserved": 0, "lon": -77.03469783333334, "fusion_lon": 0.0, "is_disabled": 0, "fusion_lat": 0.0, "bike_id": "49ed6bf5fdd7cc057bba9f3c23c8fbcf", "rental_uris": {"ios": "https://dc.lft.to/lastmile_qr_scan", "android": "https://dc.lft.to/lastmile_qr_scan"}}, {"name": "a48d6a23c87ed7362a2fc9783639216f", "type": "electric_scooter", "lat": 38.900335, "is_reserved": 0, "lon": -77.04666283333333, "fusion_lon": 0.0, "is_disabled": 0, "fusion_lat": 0.0, "bike_id": "a48d6a23c87ed7362a2fc9783639216f", "rental_uris": {"ios": "https://dc.lft.to/lastmile_qr_scan", "android": "https://dc.lft.to/lastmile_qr_scan"}}, {"name": "36a686f0566e94aa9f1295a35363f11c", "type": "electric_scooter", "lat": 38.90558133333333, "is_reserved": 0, "lon": -77.0449415, "fusion_lon": 0.0, "is_disabled": 0, "fusion_lat": 0.0, "bike_id": "36a686f0566e94aa9f1295a35363f11c", "rental_uris": {"ios": "https://dc.lft.to/lastmile_qr_scan", "android": "https://dc.lft.to/lastmile_qr_scan"}}, {"name": "05c49e5df47392f347f118526c344765", "type": "electric_scooter", "lat": 38.94307533333333, "is_reserved": 0, "lon": -77.0613175, "fusion_lon": 0.0, "is_disabled": 0, "fusion_lat": 0.0, "bike_id": "05c49e5df47392f347f118526c344765", "rental_uris": {"ios": "https://dc.lft.to/lastmile_qr_scan", "android": "https://dc.lft.to/lastmile_qr_scan"}}, {"name": "f82348271608e716830b9361559c7c61", "type": "electric_scooter", "lat": 38.914302, "is_reserved": 0, "lon": -77.04494566666666, "fusion_lon": 0.0, "is_disabled": 0, "fusion_lat": 0.0, "bike_id": "f82348271608e716830b9361559c7c61", "rental_uris": {"ios": "https://dc.lft.to/lastmile_qr_scan", "android": "https://dc.lft.to/lastmile_qr_scan"}}, {"name": "f05597b4740c95f82294ae3785215234", "type": "electric_scooter", "lat": 38.9157785, "is_reserved": 0, "lon": -77.04501633333334, "fusion_lon": 0.0, "is_disabled": 0, "fusion_lat": 0.0, "bike_id": "f05597b4740c95f82294ae3785215234", "rental_uris": {"ios": "https://dc.lft.to/lastmile_qr_scan", "android": "https://dc.lft.to/lastmile_qr_scan"}},