{"data": {"bikes": [{"lat": 38.83683283333333, "is_disabled": 0, "type": "electric_scooter", "lon": -77.10312166666667, "bike_id": "f6f7e6afbb3c1f55d0ff1ad8aac65d63", "fusion_lat": 0.0, "name": "f6f7e6afbb3c1f55d0ff1ad8aac65d63", "is_reserved": 0, "rental_uris": {"android": "https://dc.lft.to/lastmile_qr_scan", "ios": "https://dc.lft.to/lastmile_qr_scan"}, "fusion_lon": 0.0}, {"lat": 38.902264, "is_disabled": 0, "type": "electric_scooter", "lon": -77.05336966666667, "bike_id": "58a137a8f71ed76e2790e9e33b46eb8e", "fusion_lat": 0.0, "name": "58a137a8f71ed76e2790e9e33b46eb8e", "is_reserved": 0, "rental_uris": {"android": "https://dc.lft.to/lastmile_qr_scan", "ios": "https://dc.lft.to/lastmile_qr_scan"}, "fusion_lon": 0.0}, {"lat": 38.867092166666666, "is_disabled": 0, "type": "electric_scooter", "lon": -76.98723183333334, "bike_id": "30a18d11eed96e59e7749d347288d788", "fusion_lat": 0.0, "name": "30a18d11eed96e59e7749d347288d788", "is_reserved": 0, "rental_uris": {"android": "https://dc.lft.to/lastmile_qr_scan", "ios": "https://dc.lft.to/lastmile_qr_scan"}, "fusion_lon": 0.0}, {"lat": 38.920715666666666, "is_disabled": 0, "type": "electric_scooter", "lon": -77.0242225, "bike_id": "366b72d5a2e5ce0d00db794a5c47c668", "fusion_lat": 0.0, "name": "366b72d5a2e5ce0d00db794a5c47c668", "is_reserved": 0, "rental_uris": {"android": "https://dc.lft.to/lastmile_qr_scan", "ios": "https://dc.lft.to/lastmile_qr_scan"}, "fusion_lon": 0.0}, {"lat": 38.87142983333333, "is_disabled": 0, "type": "electric_bike", "lon": -76.93705366666667, "bike_id": "35d08291e381c2da21fabaee2c76b6bd", "fusion_lat": 0.0, "name": "35d08291e381c2da21fabaee2c76b6bd", "is_reserved": 0, "rental_uris": {"android": "https://dc.lft.to/lastmile_qr_scan", "ios": "https://dc.lft.to/lastmile_qr_scan"}, "fusion_lon": 0.0}, {"lat": 38.90459766666667, "is_disabled": 0, "type": "electric_scooter", "lon": -77.00723566666667, "bike_id": "27bc59c74c813f70923316552f0b9cb9", "fusion_lat": 0.0, "name": "27bc59c74c813f70923316552f0b9cb9", "is_reserved": 0, "rental_uris": {"android": "https://dc.lft.to/lastmile_qr_scan", "ios": "https://dc.lft.to/lastmile_qr_scan"}, "fusion_lon": 0.0}, {"lat": 38.88429283333333, "is_disabled": 0, "type": "electric_bike", "lon": -76.957521, "bike_id": "54c8145e55695d9ec85dba0c1107fbff", "fusion_lat": 0.0, "name": "54c8145e55695d9ec85dba0c1107fbff", "is_reserved": 0, "rental_uris": {"android": "https://dc.lft.to/lastmile_qr_scan", "ios": "https://dc.lft.to/lastmile_qr_scan"}, "fusion_lon": 0.0}, {"lat": 38.900153333333336, "is_disabled": 0, "type": "electric_scooter", "lon": -76.9880385, "bike_id": "ca80dd9bc2a3743cf39e1ce37039ad15", "fusion_lat": 0.0, "name": "ca80dd9bc2a3743cf39e1ce37039ad15", "is_reserved": 0, "rental_uris": {"android": "https://dc.lft.to/lastmile_qr_scan", "ios": "https://dc.lft.to/lastmile_qr_scan"}, "fusion_lon": 0.0}, {"lat": 38.911511, "is_disabled": 0, "type": "electric_bike", "lon": -77.00285, "bike_id": "821c7e3454dde57dba67b353aa926688", "fusion_lat": 0.0, "name": "821c7e3454dde57dba67b353aa926688", "is_reserved": 0, "rental_uris": {"android": "https://dc.lft.to/lastmile_qr_scan", "ios": "https://dc.lft.to/lastmile_qr_scan"}, "fusion_lon": 0.0}, {"lat": 38.91606766666666, "is_disabled": 0, "type": "electric_scooter", "lon": -77.03291283333333, "bike_id": "e0252b5a95bbc069cc891d63ba7f1778", "fusion_lat": 0.0, "name": "e0252b5a95bbc069cc891d63ba7f1778", "is_reserved": 0, "rental_uris": {"android": "https://dc.lft.to/lastmile_qr_scan", "ios": "https://dc.lft.to/lastmile_qr_scan"}, "fusion_lon": 0.0}, {"lat": 38.931032, "is_disabled": 0, "type": "electric_scooter", "lon": -77.03466833333333, "bike_id": "1d852f1cb1904547d77b527d3f917ddc", "fusion_lat": 0.0, "name": "1d852f1cb1904547d77b527d3f917ddc", "is_reserved": 0, "rental_uris": {"android": "https://dc.lft.to/lastmile_qr_scan", "ios": "https://dc.lft.to/lastmile_qr_scan"}, "fusion_lon": 0.0}, {"lat": 38.93084133333333, "is_disabled": 0, "type": "electric_scooter", "lon": -77.02503616666667, "bike_id": "75711d1ad8854c31b2dfb4916d7a2be2", "fusion_lat": 0.0, "name": "75711d1ad8854c31b2dfb4916d7a2be2", "is_reserved": 0, "rental_uris": {"android": "https://dc.lft.to/lastmile_qr_scan", "ios": "https://dc.lft.to/lastmile_qr_scan"}, "fusion_lon": 0.0}, {"lat": 38.901592, "is_disabled": 0, "type": "electric_scooter", "lon": -76.98071216666666, "bike_id": "8e9d662ea7a65e1584c93e413cab353c", "fusion_lat": 0.0, "name": "8e9d662ea7a65e1584c93e413cab353c", "is_reserved": 0, "rental_uris": {"android": "https://dc.lft.to/lastmile_qr_scan", "ios": "https://dc.lft.to/lastmile_qr_scan"}, "fusion_lon": 0.0}, {"lat": 38.8715235, "is_disabled": 0, "type": "electric_scooter", "lon": -77.01316366666667, "bike_id": "683c3700779770f06bb00b538b757b20", "fusion_lat": 0.0, "name": "683c3700779770f06bb00b538b757b20", "is_reserved": 0, "rental_uris": {"android": "https://dc.lft.to/lastmile_qr_scan", "ios": "https://dc.lft.to/lastmile_qr_scan"}, "fusion_lon": 0.0}, {"lat": 38.84571066666667, "is_disabled": 0, "type": "electric_bike", "lon": -77.09625533333333, "bike_id": "1217266587ca9e41c2b9a006c606dc2e", "fusion_lat": 0.0, "name": "1217266587ca9e41c2b9a006c606dc2e", "is_reserved": 0, "rental_uris": {"android": "https://dc.lft.to/lastmile_qr_scan", "ios": "https://dc.lft.to/lastmile_qr_scan"}, "fusion_lon": 0.0}, {"lat": 38.934425833333336, "is_disabled": 0, "type": "electric_scooter", "lon": -77.03872316666667, "bike_id": "b1d092121261e788d897bee5d64edaf2", "fusion_lat": 0.0, "name": "b1d092121261e788d897bee5d64edaf2", "is_reserved": 0, "rental_uris": {"android": "https://dc.lft.to/lastmile_qr_scan", "ios": "https://dc.lft.to/lastmile_qr_scan"}, "fusion_lon": 0.0}, {"lat": 38.911007166666664, "is_disabled": 0, "type": "electric_scooter", "lon": -77.00760666666666, "bike_id": "94aedbff6d04b0cbb7abd393405f0e30", "fusion_lat": 0.0, "name": "94aedbff6d04b0cbb7abd393405f0e30", "is_reserved": 0, "rental_uris": {"android": "https://dc.lft.to/lastmile_qr_scan", "ios": "https://dc.lft.to/lastmile_qr_scan"}, "fusion_lon": 0.0}, {"lat": 38.892178, "is_disabled": 0, "type": "electric_bike", "lon": -77.10780516666667, "bike_id": "c18f3da137bc0f53c45a8765b76595d4", "fusion_lat": 0.0, "name": "c18f3da137bc0f53c45a8765b76595d4", "is_reserved": 0, "rental_uris": {"android": "https://dc.lft.to/lastmile_qr_scan", "ios": "https://dc.lft.to/lastmile_qr_scan"}, "fusion_lon": 0.0}, {"lat": 38.91681883333333, "is_disabled": 0, "type": "electric_scooter", "lon": -77.0414715, "bike_id": "61244bba8088306b9029220a331b2119", "fusion_lat": 0.0, "name": "61244bba8088306b9029220a331b2119", "is_reserved": 0, "rental_uris": {"android": "https://dc.lft.to/lastmile_qr_scan", "ios": "https://dc.lft.to/lastmile_qr_scan"}, "fusion_lon": 0.0}, {"lat": 38.92889183333333, "is_disabled": 0, "type": "electric_scooter", "lon": -77.033383, "bike_id": "ffae74c15b630ebe21d730e55b7b7149", "fusion_lat": 0.0, "name": "ffae74c15b630ebe21d730e55b7b7149", "is_reserved": 0, "rental_uris": {"android": "https://dc.lft.to/lastmile_qr_scan", "ios": "https://dc.lft.to/lastmile_qr_scan"}, "fusion_lon": 0.0}, {"lat": 38.88460383333334, "is_disabled": 0, "type": "electric_scooter", "lon": -77.01537016666667, "bike_id": "51bc8af9c28f187998d8075faa9d79f4", "fusion_lat": 0.0, "name": "51bc8af9c28f187998d8075faa9d79f4", "is_reserved": 0, "rental_uris": {"android": "https://dc.lft.to/lastmile_qr_scan", "ios": "https://dc.lft.to/lastmile_qr_scan"}, "fusion_lon": 0.0}, {"lat": 38.8914175, "is_disabled": 0, "type": "electric_bike", "lon": -77.11305933333334, "bike_id": "193784ee2079b077c4f3f270acbbff0c", "fusion_lat": 0.0, "name": "193784ee2079b077c4f3f270acbbff0c", "is_reserved": 0, "rental_uris": {"android": "https://dc.lft.to/lastmile_qr_scan", "ios": "https://dc.lft.to/lastmile_qr_scan"}, "fusion_lon": 0.0}, {"lat": 38.92677583333333, "is_disabled": 0, "type": "electric_scooter", "lon": -77.00743133333333, "bike_id": "7e880b6beee08f4619c76ea3d6fdd47c", "fusion_lat": 0.0, "name": "7e880b6beee08f4619c76ea3d6fdd47c", "is_reserved": 0, "rental_uris": {"android": "https://dc.lft.to/lastmile_qr_scan", "ios": "https://dc.lft.to/lastmile_qr_scan"}, "fusion_lon": 0.0}, {"lat": 38.909593, "is_disabled": 0, "type": "electric_scooter", "lon": -77.04056383333334, "bike_id": "e838545b61d25c242877c44020d46ae8", "fusion_lat": 0.0, "name": "e838545b61d25c242877c44020d46ae8", "is_reserved": 0, "rental_uris": {"android": "https://dc.lft.to/lastmile_qr_scan", "ios": "https://dc.lft.to/lastmile_qr_scan"}, "fusion_lon": 0.0}, {"lat": 38.92485683333334, "is_disabled": 0, "type": "electric_scooter", "lon": -77.02547516666667, "bike_id": "4ae214400cc90ae8c3c81bf34ef6cf43", "fusion_lat": 0.0, "name": "4ae214400cc90ae8c3c81bf34ef6cf43", "is_reserved": 0, "rental_uris": {"android": "https://dc.lft.to/lastmile_qr_scan", "ios": "https://dc.lft.to/lastmile_qr_scan"}, "fusion_lon": 0.0}, {"lat": 38.90034933333333, "is_disabled": 0, "type": "electric_scooter", "lon": -77.005375, "bike_id": "641bacbce29c3273696934648539710b", "fusion_lat": 0.0, "name": "641bacbce29c3273696934648539710b", "is_reserved": 0, "rental_uris": {"android": "https://dc.lft.to/lastmile_qr_scan", "ios": "https://dc.lft.to/lastmile_qr_scan"}, "fusion_lon": 0.0}, {"lat": 38.902502166666665, "is_disabled": 0, "type": "electric_scooter", "lon": -77.019325, "bike_id": "b9a7812be0b046ec89a0905d0e2c5722", "fusion_lat": 0.0, "name": "b9a7812be0b046ec89a0905d0e2c5722", "is_reserved": 0, "rental_uris": {"android": "https://dc.lft.to/lastmile_qr_scan", "ios": "https://dc.lft.to/lastmile_qr_scan"}, "fusion_lon": 0.0}, {"lat": 38.92255216666667, "is_disabled": 0, "type": "electric_scooter", "lon": -77.038961, "bike_id": "a96233243db3c32459350eb6ff552dd0", "fusion_lat": 0.0, "name": "a96233243db3c32459350eb6ff552dd0", "is_reserved": 0, "rental_uris": {"android": "https://dc.lft.to/lastmile_qr_scan", "ios": "https://dc.lft.to/lastmile_qr_scan"}, "fusion_lon": 0.0}, {"lat": 38.95329666666667, "is_disabled": 0, "type": "electric_bike", "lon": -76.98822116666666, "bike_id": "c448523b2f54dcdfb88acec764d6419b", "fusion_lat": 0.0, "name": "c448523b2f54dcdfb88acec764d6419b", "is_reserved": 0, "rental_uris": {"android": "https://dc.lft.to/lastmile_qr_scan", "ios": "https://dc.lft.to/lastmile_qr_scan"}, "fusion_lon": 0.0}, {"lat": 38.90764016666667, "is_disabled": 0, "type": "electric_scooter", "lon": -77.02064066666667, "bike_id": "b98aecf110c45b14670e73b6fe500e7b", "fusion_lat": 0.0, "name": "b98aecf110c45b14670e73b6fe500e7b", "is_reserved": 0, "rental_uris": {"android": "https://dc.lft.to/lastmile_qr_scan", "ios": "https://dc.lft.to/lastmile_qr_scan"}, "fusion_lon": 0.0}, {"lat": 38.906856166666664, "is_disabled": 0, "type": "electric_bike", "lon": -76.9519745, "bike_id": "27d776eec64b4b4e49018b14ab7405d4", "fusion_lat": 0.0, "name": "27d776eec64b4b4e49018b14ab7405d4", "is_reserved": 0, "rental_uris": {"android": "https://dc.lft.to/lastmile_qr_scan", "ios": "https://dc.lft.to/lastmile_qr_scan"}, "fusion_lon": 0.0}, {"lat": 38.80753933333333, "is_disabled": 0, "type": "electric_bike", "lon": -77.09453066666667, "bike_id": "bd9170f7efd677733165166c3cb647e6", "fusion_lat": 0.0, "name": "bd9170f7efd677733165166c3cb647e6", "is_reserved": 0, "rental_uris": {"android": "https://dc.lft.to/lastmile_qr_scan", "ios": "https://dc.lft.to/lastmile_qr_scan"}, "fusion_lon": 0.0}, {"lat": 38.890889666666666, "is_disabled": 0, "type": "electric_scooter", "lon": -76.98680766666666, "bike_id": "ed6941f298c008006bd9a82fb8c32c9e", "fusion_lat": 0.0, "name": "ed6941f298c008006bd9a82fb8c32c9e", "is_reserved": 0, "rental_uris": {"android": "https://dc.lft.to/lastmile_qr_scan", "ios": "https://dc.lft.to/lastmile_qr_scan"}, "fusion_lon": 0.0}, {"lat": 38.91554, "is_disabled": 0, "type": "electric_scooter", "lon": -77.03244483333333, "bike_id": "59c7ca91e1d9dc2c40178e87f174c3e6", "fusion_lat": 0.0, "name": "59c7ca91e1d9dc2c40178e87f174c3e6", "is_reserved": 0, "rental_uris": {"android": "https://dc.lft.to/lastmile_qr_scan", "ios": "https://dc.lft.to/lastmile_qr_scan"}, "fusion_lon": 0.0}, {"lat": 38.8661915, "is_disabled": 0, "type": "electric_scooter", "lon": -76.9865135, "bike_id": "e392a8df8cfd07d874c014df3d823c3c", "fusion_lat": 0.0, "name": "e392a8df8cfd07d874c014df3d823c3c", "is_reserved": 0, "rental_uris": {"android": "https://dc.lft.to/lastmile_qr_scan", "ios": "https://dc.lft.to/lastmile_qr_scan"}, "fusion_lon": 0.0}, {"lat": 38.909432333333335, "is_disabled": 0, "type": "electric_scooter", "lon": -77.0442795, "bike_id": "7118653dcfd9ac44271b9b6bb431c81f", "fusion_lat": 0.0, "name": "7118653dcfd9ac44271b9b6bb431c81f", "is_reserved": 0, "rental_uris": {"android": "https://dc.lft.to/lastmile_qr_scan", "ios": "https://dc.lft.to/lastmile_qr_scan"}, "fusion_lon": 0.0}, {"lat": 38.9149595, "is_disabled": 0, "type": "electric_scooter", "lon": -77.01998516666667, "bike_id": "dd5f1ba96fa4a17696d2c5925ae48ef7", "fusion_lat": 0.0, "name": "dd5f1ba96fa4a17696d2c5925ae48ef7", "is_reserved": 0, "rental_uris": {"android": "https://dc.lft.to/lastmile_qr_scan", "ios": "https://dc.lft.to/lastmile_qr_scan"}, "fusion_lon": 0.0}, {"lat": 38.9186725, "is_disabled": 0, "type": "electric_scooter", "lon": -76.96557716666666, "bike_id": "872aa9f78c1efbffb02ce9f53809333c", "fusion_lat": 0.0, "name": "872aa9f78c1efbffb02ce9f53809333c", "is_reserved": 0, "rental_uris": {"android": "https://dc.lft.to/lastmile_qr_scan", "ios": "https://dc.lft.to/lastmile_qr_scan"}, "fusion_lon": 0.0}, {"lat": 38.84426666666667, "is_disabled": 0, "type": "electric_scooter", "lon": -76.99779616666666, "bike_id": "287a2c7512e149151af979a3e162d172", "fusion_lat": 0.0, "name": "287a2c7512e149151af979a3e162d172", "is_reserved": 0, "rental_uris": {"android": "https://dc.lft.to/lastmile_qr_scan", "ios": "https://dc.lft.to/lastmile_qr_scan"}, "fusion_lon": 0.0}, {"lat": 38.91281733333334, "is_disabled": 0, "type": "electric_scooter", "lon": -77.02265116666666, "bike_id": "3f8b5ec1a942d42735e6d2faac02a998", "fusion_lat": 0.0, "name": "3f8b5ec1a942d42735e6d2faac02a998", "is_reserved": 0, "rental_uris": {"android": "https://dc.lft.to/lastmile_qr_scan", "ios": "https://dc.lft.to/lastmile_qr_scan"}, "fusion_lon": 0.0}, {"lat": 38.93173766666666, "is_disabled": 0, "type": "electric_scooter", "lon": -77.02821683333333, "bike_id": "d692168e49ebcdde3af50433264a896f", "fusion_lat": 0.0, "name": "d692168e49ebcdde3af50433264a896f", "is_reserved": 0, "rental_uris": {"android": "https://dc.lft.to/lastmile_qr_scan", "ios": "https://dc.lft.to/lastmile_qr_scan"}, "fusion_lon": 0.0}, {"lat": 38.89043983333333, "is_disabled": 0, "type": "electric_scooter", "lon": -76.95142566666667, "bike_id": "f87001752c06e09b31c32ba8da30896f", "fusion_lat": 0.0, "name": "f87001752c06e09b31c32ba8da30896f", "is_reserved": 0, "rental_uris": {"android": "https://dc.lft.to/lastmile_qr_scan", "ios": "https://dc.lft.to/lastmile_qr_scan"}, "fusion_lon": 0.0}, {"lat": 38.894891333333334, "is_disabled": 0, "type": "electric_scooter", "lon": -77.0229995, "bike_id": "c51990304de4cebdbafada9cb6e5b8cf", "fusion_lat": 0.0, "name": "c51990304de4cebdbafada9cb6e5b8cf", "is_reserved": 0, "rental_uris": {"android": "https://dc.lft.to/lastmile_qr_scan", "ios": "https://dc.lft.to/lastmile_qr_scan"}, "fusion_lon": 0.0}, {"lat": 38.90567383333333, "is_disabled": 0, "type": "electric_scooter", "lon": -77.03396316666667, "bike_id": "6506b1b29c4f755e85547f80ea1b0d6b", "fusion_lat": 0.0, "name": "6506b1b29c4f755e85547f80ea1b0d6b", "is_reserved": 0, "rental_uris": {"android": "https://dc.lft.to/lastmile_qr_scan", "ios": "https://dc.lft.to/lastmile_qr_scan"}, "fusion_lon": 0.0}, {"lat": 38.903006833333336, "is_disabled": 0, "type": "electric_scooter", "lon": -77.025988, "bike_id": "34905658bcbae9b125a3a022921bc7c0", "fusion_lat": 0.0, "name": "34905658bcbae9b125a3a022921bc7c0", "is_reserved": 0, "rental_uris": {"android": "https://dc.lft.to/lastmile_qr_scan", "ios": "https://dc.lft.to/lastmile_qr_scan"}, "fusion_lon": 0.0}, {"lat": 38.9416995, "is_disabled": 0, "type": "electric_scooter", "lon": -77.0234395, "bike_id": "9f72c0f4859ef76e04e608cb25556812", "fusion_lat": 0.0, "name": "9f72c0f4859ef76e04e608cb25556812", "is_reserved": 0, "rental_uris": {"android": "https://dc.lft.to/lastmile_qr_scan", "ios": "https://dc.lft.to/lastmile_qr_scan"}, "fusion_lon": 0.0}, {"lat": 38.846570666666665, "is_disabled": 0, "type": "electric_bike", "lon": -76.97933183333333, "bike_id": "15ce27ccb7fac1ecafad7aa7f423510b", "fusion_lat": 0.0, "name": "15ce27ccb7fac1ecafad7aa7f423510b", "is_reserved": 0, "rental_uris": {"android": "https://dc.lft.to/lastmile_qr_scan", "ios": "https://dc.lft.to/lastmile_qr_scan"}, "fusion_lon": 0.0}, {"lat": 38.905599, "is_disabled": 0, "type": "electric_scooter", "lon": -77.0338945, "bike_id": "1443913f7e8d7b76e18eb0aed9a08f6f", "fusion_lat": 0.0, "name": "1443913f7e8d7b76e18eb0aed9a08f6f", "is_reserved": 0, "rental_uris": {"android": "https://dc.lft.to/lastmile_qr_scan", "ios": "https://dc.lft.to/lastmile_qr_scan"}, "fusion_lon": 0.0}, {"lat": 38.89477216666667, "is_disabled": 0, "type": "electric_scooter", "lon": -77.02118716666666, "bike_id": "572e314622eba73fc54e8b6caa553cc6", "fusion_lat": 0.0, "name": "572e314622eba73fc54e8b6caa553cc6", "is_reserved": 0, "rental_uris": {"android": "https://dc.lft.to/lastmile_qr_scan", "ios": "https://dc.lft.to/lastmile_qr_scan"}, "fusion_lon": 0.0}, {"lat": 38.869061333333335, "is_disabled": 0, "type": "electric_bike", "lon": -77.13176966666667, "bike_id": "b8557fd4f9fa59d66653515cd3e2c181", "fusion_lat": 0.0, "name": "b8557fd4f9fa59d66653515cd3e2c181", "is_reserved": 0, "rental_uris": {"android": "https://dc.lft.to/lastmile_qr_scan", "ios": "https://dc.lft.to/lastmile_qr_scan"}, "fusion_lon": 0.0}, {"lat": 38.920046166666665, "is_disabled": 0, "type": "electric_scooter", "lon": -77.03234483333334, "bike_id": "e7922a89441f13f264783ef2008daf68", "fusion_lat": 0.0, "name": "e7922a89441f13f264783ef2008daf68", "is_reserved": 0, "rental_uris": {"android": "https://dc.lft.to/lastmile_qr_scan", "ios": "https://dc.lft.to/lastmile_qr_scan"}, "fusion_lon": 0.0}, {"lat": 38.91046883333333, "is_disabled": 0, "type": "electric_scooter", "lon": -77.01507416666666, "bike_id": "d816b3d096cacc7c09889212313969d4", "fusion_lat": 0.0, "name": "d816b3d096cacc7c09889212313969d4", "is_reserved": 0, "rental_uris": {"android": "https://dc.lft.to/lastmile_qr_scan", "ios": "https://dc.lft.to/lastmile_qr_scan"}, "fusion_lon": 0.0}, {"lat": 38.9328905, "is_disabled": 0, "type": "electric_scooter", "lon": -77.03971583333333, "bike_id": "70160270dfb27f0fe18f8a009d44e2ba", "fusion_lat": 0.0, "name": "70160270dfb27f0fe18f8a009d44e2ba", "is_reserved": 0, "rental_uris": {"android": "https://dc.lft.to/lastmile_qr_scan", "ios": "https://dc.lft.to/lastmile_qr_scan"}, "fusion_lon": 0.0}, {"lat": 38.92479516666667, "is_disabled": 0, "type": "electric_scooter", "lon": -77.052146, "bike_id": "7036c764f7f980faa9d97e4eb7e84868", "fusion_lat": 0.0, "name": "7036c764f7f980faa9d97e4eb7e84868", "is_reserved": 0, "rental_uris": {"android": "https://dc.lft.to/lastmile_qr_scan", "ios": "https://dc.lft.to/lastmile_qr_scan"}, "fusion_lon": 0.0}, {"lat": 38.966026166666666, "is_disabled": 0, "type": "electric_scooter", "lon": -77.02319783333333, "bike_id": "45a2502a7d3f1d1e9f8464b960c277db", "fusion_lat": 0.0, "name": "45a2502a7d3f1d1e9f8464b960c277db", "is_reserved": 0, "rental_uris": {"android": "https://dc.lft.to/lastmile_qr_scan", "ios": "https://dc.lft.to/lastmile_qr_scan"}, "fusion_lon": 0.0}, {"lat": 38.8809115, "is_disabled": 0, "type": "electric_scooter", "lon": -76.99253016666667, "bike_id": "6feab58815782f0c65816646a5168154", "fusion_lat": 0.0, "name": "6feab58815782f0c65816646a5168154", "is_reserved": 0, "rental_uris": {"android": "https://dc.lft.to/lastmile_qr_scan", "ios": "https://dc.lft.to/lastmile_qr_scan"}, "fusion_lon": 0.0}, {"lat": 38.922516, "is_disabled": 0, "type": "electric_scooter", "lon": -77.0197515, "bike_id": "9ad28c54a5ae1f0c1123296a3aac7da9", "fusion_lat": 0.0, "name": "9ad28c54a5ae1f0c1123296a3aac7da9", "is_reserved": 0, "rental_uris": {"android": "https://dc.lft.to/lastmile_qr_scan", "ios": "https://dc.lft.to/lastmile_qr_scan"}, "fusion_lon": 0.0}, {"lat": 38.9389195, "is_disabled": 0, "type": "electric_scooter", "lon": -77.0333235, "bike_id": "5cb5440003494e22d777652d1008dc22", "fusion_lat": 0.0, "name": "5cb5440003494e22d777652d1008dc22", "is_reserved": 0, "rental_uris": {"android": "https://dc.lft.to/lastmile_qr_scan", "ios": "https://dc.lft.to/lastmile_qr_scan"}, "fusion_lon": 0.0}, {"lat": 38.900446, "is_disabled": 0, "type": "electric_scooter", "lon": -77.00771383333333, "bike_id": "ea904aac9a70be61b288598e769d92e0", "fusion_lat": 0.0, "name": "ea904aac9a70be61b288598e769d92e0", "is_reserved": 0, "rental_uris": {"android": "https://dc.lft.to/lastmile_qr_scan", "ios": "https://dc.lft.to/lastmile_qr_scan"}, "fusion_lon": 0.0}, {"lat": 38.92721183333333, "is_disabled": 0, "type": "electric_bike", "lon": -77.01358483333334, "bike_id": "aa7ddb989ccfe069e4369848d0c161b8", "fusion_lat": 0.0, "name": "aa7ddb989ccfe069e4369848d0c161b8", "is_reserved": 0, "rental_uris": {"android": "https://dc.lft.to/lastmile_qr_scan", "ios": "https://dc.lft.to/lastmile_qr_scan"}, "fusion_lon": 0.0}, {"lat": 38.984309333333336, "is_disabled": 0, "type": "electric_scooter", "lon": -77.026733, "bike_id": "b0bef796e75e09518358b7e26f486c1c", "fusion_lat": 0.0, "name": "b0bef796e75e09518358b7e26f486c1c", "is_reserved": 0, "rental_uris": {"android": "https://dc.lft.to/lastmile_qr_scan", "ios": "https://dc.lft.to/lastmile_qr_scan"}, "fusion_lon": 0.0}, {"lat": 38.956628, "is_disabled": 0, "type": "electric_bike", "lon": -77.01154033333333, "bike_id": "7588090be282c310548312442c2dc6b6", "fusion_lat": 0.0, "name": "7588090be282c310548312442c2dc6b6", "is_reserved": 0, "rental_uris": {"android": "https://dc.lft.to/lastmile_qr_scan", "ios": "https://dc.lft.to/lastmile_qr_scan"}, "fusion_lon": 0.0}, {"lat": 38.91859983333333, "is_disabled": 0, "type": "electric_scooter", "lon": -76.96550216666667, "bike_id": "882466da4f6fc7d592fd22cf08e5867a", "fusion_lat": 0.0, "name": "882466da4f6fc7d592fd22cf08e5867a", "is_reserved": 0, "rental_uris": {"android": "https://dc.lft.to/lastmile_qr_scan", "ios": "https://dc.lft.to/lastmile_qr_scan"}, "fusion_lon": 0.0}, {"lat": 38.90976466666667, "is_disabled": 0, "type": "electric_scooter", "lon": -77.0480105, "bike_id": "abbcd5bd7bc36b90cda8251851e9764b", "fusion_lat": 0.0, "name": "abbcd5bd7bc36b90cda8251851e9764b", "is_reserved": 0, "rental_uris": {"android": "https://dc.lft.to/lastmile_qr_scan", "ios": "https://dc.lft.to/lastmile_qr_scan"}, "fusion_lon": 0.0}, {"lat": 38.931919, "is_disabled": 0, "type": "electric_scooter", "lon": -77.02565983333334, "bike_id": "96f3b479c299b2817efd9510fb2d8134", "fusion_lat": 0.0, "name": "96f3b479c299b2817efd9510fb2d8134", "is_reserved": 0, "rental_uris": {"android": "https://dc.lft.to/lastmile_qr_scan", "ios": "https://dc.lft.to/lastmile_qr_scan"}, "fusion_lon": 0.0}, {"lat": 38.8963475, "is_disabled": 0, "type": "electric_scooter", "lon": -77.03298316666667, "bike_id": "5ffbebb8c11ab145194da0cb0fc5f64f", "fusion_lat": 0.0, "name": "5ffbebb8c11ab145194da0cb0fc5f64f", "is_reserved": 0, "rental_uris": {"android": "https://dc.lft.to/lastmile_qr_scan", "ios": "https://dc.lft.to/lastmile_qr_scan"}, "fusion_lon": 0.0}, {"lat": 38.89699533333334, "is_disabled": 0, "type": "electric_scooter", "lon": -77.02826316666666, "bike_id": "ad4e3fbad26c57f6b212ef77a04b76c7", "fusion_lat": 0.0, "name": "ad4e3fbad26c57f6b212ef77a04b76c7", "is_reserved": 0, "rental_uris": {"android": "https://dc.lft.to/lastmile_qr_scan", "ios": "https://dc.lft.to/lastmile_qr_scan"}, "fusion_lon": 0.0}, {"lat": 38.88796166666667, "is_disabled": 0, "type": "electric_scooter", "lon": -76.93360466666667, "bike_id": "0e07514a691dfe347ad65a963663d649", "fusion_lat": 0.0, "name": "0e07514a691dfe347ad65a963663d649", "is_reserved": 0, "rental_uris": {"android": "https://dc.lft.to/lastmile_qr_scan", "ios": "https://dc.lft.to/lastmile_qr_scan"}, "fusion_lon": 0.0}, {"lat": 38.8836325, "is_disabled": 0, "type": "electric_scooter", "lon": -76.99520083333333, "bike_id": "8fb5198b0c824020c5f86347ece0253a", "fusion_lat": 0.0, "name": "8fb5198b0c824020c5f86347ece0253a", "is_reserved": 0, "rental_uris": {"android": "https://dc.lft.to/lastmile_qr_scan", "ios": "https://dc.lft.to/lastmile_qr_scan"}, "fusion_lon": 0.0}, {"lat": 38.82787016666666, "is_disabled": 0, "type": "electric_bike", "lon": -77.009133, "bike_id": "b45a41f1fc83e1f90501755c003b158d", "fusion_lat": 0.0, "name": "b45a41f1fc83e1f90501755c003b158d", "is_reserved": 0, "rental_uris": {"android": "https://dc.lft.to/lastmile_qr_scan", "ios": "https://dc.lft.to/lastmile_qr_scan"}, "fusion_lon": 0.0}, {"lat": 38.90257916666667, "is_disabled": 0, "type": "electric_scooter", "lon": -77.03195433333333, "bike_id": "d5b417c8151360e36dc6abf33b4195b8", "fusion_lat": 0.0, "name": "d5b417c8151360e36dc6abf33b4195b8", "is_reserved": 0, "rental_uris": {"android": "https://dc.lft.to/lastmile_qr_scan", "ios": "https://dc.lft.to/lastmile_qr_scan"}, "fusion_lon": 0.0}, {"lat": 39.052028666666665, "is_disabled": 0, "type": "electric_bike", "lon": -77.109146, "bike_id": "ae86e670b3a3dd21b7cb3db34b048e47", "fusion_lat": 0.0, "name": "ae86e670b3a3dd21b7cb3db34b048e47", "is_reserved": 0, "rental_uris": {"android": "https://dc.lft.to/lastmile_qr_scan", "ios": "https://dc.lft.to/lastmile_qr_scan"}, "fusion_lon": 0.0}, {"lat": 38.9089665, "is_disabled": 0, "type": "electric_scooter", "lon": -77.036595, "bike_id": "3666c8ed463156d23736620019ac8b30", "fusion_lat": 0.0, "name": "3666c8ed463156d23736620019ac8b30", "is_reserved": 0, "rental_uris": {"android": "https://dc.lft.to/lastmile_qr_scan", "ios": "https://dc.lft.to/lastmile_qr_scan"}, "fusion_lon": 0.0}, {"lat": 38.9056825, "is_disabled": 0, "type": "electric_scooter", "lon": -77.02793583333333, "bike_id": "05b84770e07b333a1917e8d14aa86056", "fusion_lat": 0.0, "name": "05b84770e07b333a1917e8d14aa86056", "is_reserved": 0, "rental_uris": {"android": "https://dc.lft.to/lastmile_qr_scan", "ios": "https://dc.lft.to/lastmile_qr_scan"}, "fusion_lon": 0.0}, {"lat": 38.86651033333333, "is_disabled": 0, "type": "electric_scooter", "lon": -76.9808735, "bike_id": "cebaffa19da352f0146961519ff62fd0", "fusion_lat": 0.0, "name": "cebaffa19da352f0146961519ff62fd0", "is_reserved": 0, "rental_uris": {"android": "https://dc.lft.to/lastmile_qr_scan", "ios": "https://dc.lft.to/lastmile_qr_scan"}, "fusion_lon": 0.0}, {"lat": 38.90054633333333, "is_disabled": 0, "type": "electric_scooter", "lon": -77.0261195, "bike_id": "e109708cac09e54d0737fa0422f736f1", "fusion_lat": 0.0, "name": "e109708cac09e54d0737fa0422f736f1", "is_reserved": 0, "rental_uris": {"android": "https://dc.lft.to/lastmile_qr_scan", "ios": "https://dc.lft.to/lastmile_qr_scan"}, "fusion_lon": 0.0}, {"lat": 38.919641666666664, "is_disabled": 0, "type": "electric_scooter", "lon": -77.0134345, "bike_id": "790dc17137ab9891d7b83e1b6322c339", "fusion_lat": 0.0, "name": "790dc17137ab9891d7b83e1b6322c339", "is_reserved": 0, "rental_uris": {"android": "https://dc.lft.to/lastmile_qr_scan", "ios": "https://dc.lft.to/lastmile_qr_scan"}, "fusion_lon": 0.0}, {"lat": 38.929495, "is_disabled": 0, "type": "electric_scooter", "lon": -77.01889216666666, "bike_id": "b2b509775b1e5e24048962e065ff90cf", "fusion_lat": 0.0, "name": "b2b509775b1e5e24048962e065ff90cf", "is_reserved": 0, "rental_uris": {"android": "https://dc.lft.to/lastmile_qr_scan", "ios": "https://dc.lft.to/lastmile_qr_scan"}, "fusion_lon": 0.0}, {"lat": 38.907165166666665, "is_disabled": 0, "type": "electric_scooter", "lon": -77.03436766666667, "bike_id": "ef9ff450de080f51ad00b70e0229b1b1", "fusion_lat": 0.0, "name": "ef9ff450de080f51ad00b70e0229b1b1", "is_reserved": 0, "rental_uris": {"android": "https://dc.lft.to/lastmile_qr_scan", "ios": "https://dc.lft.to/lastmile_qr_scan"}, "fusion_lon": 0.0}, {"lat": 38.8922165, "is_disabled": 0, "type": "electric_scooter", "lon": -77.04362216666667, "bike_id": "0bb725357dff6f2d20b1bcd9c745b67f", "fusion_lat": 0.0, "name": "0bb725357dff6f2d20b1bcd9c745b67f", "is_reserved": 0, "rental_uris": {"android": "https://dc.lft.to/lastmile_qr_scan", "ios": "https://dc.lft.to/lastmile_qr_scan"}, "fusion_lon": 0.0}, {"lat": 38.9038885, "is_disabled": 0, "type": "electric_scooter", "lon": -77.05380533333333, "bike_id": "2db3b7389130efbf98050e60fe788709", "fusion_lat": 0.0, "name": "2db3b7389130efbf98050e60fe788709", "is_reserved": 0, "rental_uris": {"android": "https://dc.lft.to/lastmile_qr_scan", "ios": "https://dc.lft.to/lastmile_qr_scan"}, "fusion_lon": 0.0}, {"lat": 38.909600833333336, "is_disabled": 0, "type": "electric_scooter", "lon": -77.047809, "bike_id": "9471761a49c9667b7a69ebdd17725961", "fusion_lat": 0.0, "name": "9471761a49c9667b7a69ebdd17725961", "is_reserved": 0, "rental_uris": {"android": "https://dc.lft.to/lastmile_qr_scan", "ios": "https://dc.lft.to/lastmile_qr_scan"}, "fusion_lon": 0.0}, {"lat": 38.91750866666667, "is_disabled": 0, "type": "electric_scooter", "lon": -77.03667316666667, "bike_id": "5b8a75dfb270a318302c11ad3211ec91", "fusion_lat": 0.0, "name": "5b8a75dfb270a318302c11ad3211ec91", "is_reserved": 0, "rental_uris": {"android": "https://dc.lft.to/lastmile_qr_scan", "ios": "https://dc.lft.to/lastmile_qr_scan"}, "fusion_lon": 0.0}, {"lat": 38.936405, "is_disabled": 0, "type": "electric_bike", "lon": -77.0328045, "bike_id": "d5cfa380c19d719da3dde404db2be5e1", "fusion_lat": 0.0, "name": "d5cfa380c19d719da3dde404db2be5e1", "is_reserved": 0, "rental_uris": {"android": "https://dc.lft.to/lastmile_qr_scan", "ios": "https://dc.lft.to/lastmile_qr_scan"}, "fusion_lon": 0.0}, {"lat": 38.938174, "is_disabled": 0, "type": "electric_scooter", "lon": -77.06046466666666, "bike_id": "dc433b9c031afe33da9d304b93105d7d", "fusion_lat": 0.0, "name": "dc433b9c031afe33da9d304b93105d7d", "is_reserved": 0, "rental_uris": {"android": "https://dc.lft.to/lastmile_qr_scan", "ios": "https://dc.lft.to/lastmile_qr_scan"}, "fusion_lon": 0.0}, {"lat": 38.93315783333333, "is_disabled": 0, "type": "electric_scooter", "lon": -77.05697833333333, "bike_id": "dec71768fbc2e09b29463fdd2fa20b1e", "fusion_lat": 0.0, "name": "dec71768fbc2e09b29463fdd2fa20b1e", "is_reserved": 0, "rental_uris": {"android": "https://dc.lft.to/lastmile_qr_scan", "ios": "https://dc.lft.to/lastmile_qr_scan"}, "fusion_lon": 0.0}, {"lat": 38.92690366666667, "is_disabled": 0, "type": "electric_scooter", "lon": -77.02575183333333, "bike_id": "af177d47c8846055ba5558d48d43bb44", "fusion_lat": 0.0, "name": "af177d47c8846055ba5558d48d43bb44", "is_reserved": 0, "rental_uris": {"android": "https://dc.lft.to/lastmile_qr_scan", "ios": "https://dc.lft.to/lastmile_qr_scan"}, "fusion_lon": 0.0}, {"lat": 38.92318933333333, "is_disabled": 0, "type": "electric_scooter", "lon": -77.029696, "bike_id": "bfbe1f93627e8ace5eaa88f44c5caaab", "fusion_lat": 0.0, "name": "bfbe1f93627e8ace5eaa88f44c5caaab", "is_reserved": 0, "rental_uris": {"android": "https://dc.lft.to/lastmile_qr_scan", "ios": "https://dc.lft.to/lastmile_qr_scan"}, "fusion_lon": 0.0}, {"lat": 38.9023015, "is_disabled": 0, "type": "electric_scooter", "lon": -77.05346666666667, "bike_id": "abfe8d2a65b520e4910fa3b0525e9efe", "fusion_lat": 0.0, "name": "abfe8d2a65b520e4910fa3b0525e9efe", "is_reserved": 0, "rental_uris": {"android": "https://dc.lft.to/lastmile_qr_scan", "ios": "https://dc.lft.to/lastmile_qr_scan"}, "fusion_lon": 0.0}, {"lat": 38.899771333333334, "is_disabled": 0, "type": "electric_bike", "lon": -76.98545483333334, "bike_id": "4ca36a724a3af27dd550c84b2ffc6144", "fusion_lat": 0.0, "name": "4ca36a724a3af27dd550c84b2ffc6144", "is_reserved": 0, "rental_uris": {"android": "https://dc.lft.to/lastmile_qr_scan", "ios": "https://dc.lft.to/lastmile_qr_scan"}, "fusion_lon": 0.0}, {"lat": 38.8983825, "is_disabled": 0, "type": "electric_scooter", "lon": -76.93101983333334, "bike_id": "a7512790247af1939b418c2adb5ac7aa", "fusion_lat": 0.0, "name": "a7512790247af1939b418c2adb5ac7aa", "is_reserved": 0, "rental_uris": {"android": "https://dc.lft.to/lastmile_qr_scan", "ios": "https://dc.lft.to/lastmile_qr_scan"}, "fusion_lon": 0.0}, {"lat": 38.93355583333334, "is_disabled": 0, "type": "electric_scooter", "lon": -77.073768, "bike_id": "3aef62463d8b225816b9962a3ad46856", "fusion_lat": 0.0, "name": "3aef62463d8b225816b9962a3ad46856", "is_reserved": 0, "rental_uris": {"android": "https://dc.lft.to/lastmile_qr_scan", "ios": "https://dc.lft.to/lastmile_qr_scan"}, "fusion_lon": 0.0}, {"lat": 38.9256965, "is_disabled": 0, "type": "electric_scooter", "lon": -76.97007316666667, "bike_id": "d85417fe13a90f519d494719a8ef7e43", "fusion_lat": 0.0, "name": "d85417fe13a90f519d494719a8ef7e43", "is_reserved": 0, "rental_uris": {"android": "https://dc.lft.to/lastmile_qr_scan", "ios": "https://dc.lft.to/lastmile_qr_scan"}, "fusion_lon": 0.0}, {"lat": 38.892461833333336, "is_disabled": 0, "type": "electric_scooter", "lon": -77.04896316666667, "bike_id": "c607be1f7f31f95d20b335ba25f64772", "fusion_lat": 0.0, "name": "c607be1f7f31f95d20b335ba25f64772", "is_reserved": 0, "rental_uris": {"android": "https://dc.lft.to/lastmile_qr_scan", "ios": "https://dc.lft.to/lastmile_qr_scan"}, "fusion_lon": 0.0}, {"lat": 38.966045333333334, "is_disabled": 0, "type": "electric_bike", "lon": -76.98333333333333, "bike_id": "91ab01ab87ad5dfb0cb58a2a48be986d", "fusion_lat": 0.0, "name": "91ab01ab87ad5dfb0cb58a2a48be986d", "is_reserved": 0, "rental_uris": {"android": "https://dc.lft.to/lastmile_qr_scan", "ios": "https://dc.lft.to/lastmile_qr_scan"}, "fusion_lon": 0.0}, {"lat": 38.951355, "is_disabled": 0, "type": "electric_scooter", "lon": -77.013309, "bike_id": "faf59073eacfc967ee4e315096da2224", "fusion_lat": 0.0, "name": "faf59073eacfc967ee4e315096da2224", "is_reserved": 0, "rental_uris": {"android": "https://dc.lft.to/lastmile_qr_scan", "ios": "https://dc.lft.to/lastmile_qr_scan"}, "fusion_lon": 0.0}, {"lat": 38.9709525, "is_disabled": 0, "type": "electric_bike", "lon": -77.0696355, "bike_id": "5418dcd7fb0caad7ad96542ee2543a44", "fusion_lat": 0.0, "name": "5418dcd7fb0caad7ad96542ee2543a44", "is_reserved": 0, "rental_uris": {"android": "https://dc.lft.to/lastmile_qr_scan", "ios": "https://dc.lft.to/lastmile_qr_scan"}, "fusion_lon": 0.0}, {"lat": 38.918929166666665, "is_disabled": 0, "type": "electric_scooter", "lon": -77.04735483333333, "bike_id": "d678644b967665559549dfe18e90d426", "fusion_lat": 0.0, "name": "d678644b967665559549dfe18e90d426", "is_reserved": 0, "rental_uris": {"android": "https://dc.lft.to/lastmile_qr_scan", "ios": "https://dc.lft.to/lastmile_qr_scan"}, "fusion_lon": 0.0}, {"lat": 38.91557316666667, "is_disabled": 0, "type": "electric_scooter", "lon": -77.04873683333334, "bike_id": "f735e7837a73688b16ba0aa88833b81c", "fusion_lat": 0.0, "name": "f735e7837a73688b16ba0aa88833b81c", "is_reserved": 0, "rental_uris": {"android": "https://dc.lft.to/lastmile_qr_scan", "ios": "https://dc.lft.to/lastmile_qr_scan"}, "fusion_lon": 0.0}, {"lat": 38.90121883333333, "is_disabled": 0, "type": "electric_scooter", "lon": -76.99747133333334, "bike_id": "e8a733509da2f512986bd8aa0f3a1b62", "fusion_lat": 0.0, "name": "e8a733509da2f512986bd8aa0f3a1b62", "is_reserved": 0, "rental_uris": {"android": "https://dc.lft.to/lastmile_qr_scan", "ios": "https://dc.lft.to/lastmile_qr_scan"}, "fusion_lon": 0.0}, {"lat": 38.90651416666667, "is_disabled": 0, "type": "electric_scooter", "lon": -77.025084, "bike_id": "31699253ae78a40fdbcfc0def9d501c9", "fusion_lat": 0.0, "name": "31699253ae78a40fdbcfc0def9d501c9", "is_reserved": 0, "rental_uris": {"android": "https://dc.lft.to/lastmile_qr_scan", "ios": "https://dc.lft.to/lastmile_qr_scan"}, "fusion_lon": 0.0}, {"lat": 38.90311483333333, "is_disabled": 0, "type": "electric_scooter", "lon": -76.97804033333334, "bike_id": "7b7ee67ebabd1192ddac18553e6dcc82", "fusion_lat": 0.0, "name": "7b7ee67ebabd1192ddac18553e6dcc82", "is_reserved": 0, "rental_uris": {"android": "https://dc.lft.to/lastmile_qr_scan", "ios": "https://dc.lft.to/lastmile_qr_scan"}, "fusion_lon": 0.0}, {"lat": 38.90733016666667, "is_disabled": 0, "type": "electric_scooter", "lon": -77.047579, "bike_id": "bc34287cc76d077808db5c4be06daca2", "fusion_lat": 0.0, "name": "bc34287cc76d077808db5c4be06daca2", "is_reserved": 0, "rental_uris": {"android": "https://dc.lft.to/lastmile_qr_scan", "ios": "https://dc.lft.to/lastmile_qr_scan"}, "fusion_lon": 0.0}, {"lat": 38.925847, "is_disabled": 0, "type": "electric_scooter", "lon": -77.00477433333333, "bike_id": "b93cf1fc646c071f6efdd0c98e2da4d3", "fusion_lat": 0.0, "name": "b93cf1fc646c071f6efdd0c98e2da4d3", "is_reserved": 0, "rental_uris": {"android": "https://dc.lft.to/lastmile_qr_scan", "ios": "https://dc.lft.to/lastmile_qr_scan"}, "fusion_lon": 0.0}, {"lat": 38.90227616666667, "is_disabled": 0, "type": "electric_scooter", "lon": -77.02171133333333, "bike_id": "9482f43c5f08470f9fad26085352cd80", "fusion_lat": 0.0, "name": "9482f43c5f08470f9fad26085352cd80", "is_reserved": 0, "rental_uris": {"android": "https://dc.lft.to/lastmile_qr_scan", "ios": "https://dc.lft.to/lastmile_qr_scan"}, "fusion_lon": 0.0}, {"lat": 38.922368666666664, "is_disabled": 0, "type": "electric_scooter", "lon": -77.029856, "bike_id": "f78646f1af4c9bbf9adc81fa285578ba", "fusion_lat": 0.0, "name": "f78646f1af4c9bbf9adc81fa285578ba", "is_reserved": 0, "rental_uris": {"android": "https://dc.lft.to/lastmile_qr_scan", "ios": "https://dc.lft.to/lastmile_qr_scan"}, "fusion_lon": 0.0}, {"lat": 38.88505133333334, "is_disabled": 0, "type": "electric_scooter", "lon": -77.0156355, "bike_id": "8a07ef2d15523acc674eff7d93c84f58", "fusion_lat": 0.0, "name": "8a07ef2d15523acc674eff7d93c84f58", "is_reserved": 0, "rental_uris": {"android": "https://dc.lft.to/lastmile_qr_scan", "ios": "https://dc.lft.to/lastmile_qr_scan"}, "fusion_lon": 0.0}, {"lat": 38.913345166666666, "is_disabled": 0, "type": "electric_scooter", "lon": -77.03128183333334, "bike_id": "48777e4d7994238572f94b35e9095534", "fusion_lat": 0.0, "name": "48777e4d7994238572f94b35e9095534", "is_reserved": 0, "rental_uris": {"android": "https://dc.lft.to/lastmile_qr_scan", "ios": "https://dc.lft.to/lastmile_qr_scan"}, "fusion_lon": 0.0}, {"lat": 38.89875133333334, "is_disabled": 0, "type": "electric_scooter", "lon": -76.931848, "bike_id": "aceaf3fb70c3a6cb7bb7411ed8d1b87c", "fusion_lat": 0.0, "name": "aceaf3fb70c3a6cb7bb7411ed8d1b87c", "is_reserved": 0, "rental_uris": {"android": "https://dc.lft.to/lastmile_qr_scan", "ios": "https://dc.lft.to/lastmile_qr_scan"}, "fusion_lon": 0.0}, {"lat": 38.89485283333333, "is_disabled": 0, "type": "electric_scooter", "lon": -77.021942, "bike_id": "0303d6c240b06fa75a15a7b996f01cc6", "fusion_lat": 0.0, "name": "0303d6c240b06fa75a15a7b996f01cc6", "is_reserved": 0, "rental_uris": {"android": "https://dc.lft.to/lastmile_qr_scan", "ios": "https://dc.lft.to/lastmile_qr_scan"}, "fusion_lon": 0.0}, {"lat": 38.92543916666666, "is_disabled": 0, "type": "electric_scooter", "lon": -77.03297116666667, "bike_id": "151caaf3b4f92f8da08851406544225d", "fusion_lat": 0.0, "name": "151caaf3b4f92f8da08851406544225d", "is_reserved": 0, "rental_uris": {"android": "https://dc.lft.to/lastmile_qr_scan", "ios": "https://dc.lft.to/lastmile_qr_scan"}, "fusion_lon": 0.0}, {"lat": 38.928310333333336, "is_disabled": 0, "type": "electric_scooter", "lon": -77.0219525, "bike_id": "23e2393b512072eb4a9f047dff0c654c", "fusion_lat": 0.0, "name": "23e2393b512072eb4a9f047dff0c654c", "is_reserved": 0, "rental_uris": {"android": "https://dc.lft.to/lastmile_qr_scan", "ios": "https://dc.lft.to/lastmile_qr_scan"}, "fusion_lon": 0.0}, {"lat": 38.90779333333333, "is_disabled": 0, "type": "electric_scooter", "lon": -77.03669616666667, "bike_id": "0504306fea3fe8aaa8f0b2328722566e", "fusion_lat": 0.0, "name": "0504306fea3fe8aaa8f0b2328722566e", "is_reserved": 0, "rental_uris": {"android": "https://dc.lft.to/lastmile_qr_scan", "ios": "https://dc.lft.to/lastmile_qr_scan"}, "fusion_lon": 0.0}, {"lat": 38.922943833333335, "is_disabled": 0, "type": "electric_scooter", "lon": -77.03658683333333, "bike_id": "7f2bdac7c3e2432a053127e7a12745b1", "fusion_lat": 0.0, "name": "7f2bdac7c3e2432a053127e7a12745b1", "is_reserved": 0, "rental_uris": {"android": "https://dc.lft.to/lastmile_qr_scan", "ios": "https://dc.lft.to/lastmile_qr_scan"}, "fusion_lon": 0.0}, {"lat": 38.869916833333335, "is_disabled": 0, "type": "electric_bike", "lon": -76.9598745, "bike_id": "3deb6c731f5416dfeed4a303f2dc7e45", "fusion_lat": 0.0, "name": "3deb6c731f5416dfeed4a303f2dc7e45", "is_reserved": 0, "rental_uris": {"android": "https://dc.lft.to/lastmile_qr_scan", "ios": "https://dc.lft.to/lastmile_qr_scan"}, "fusion_lon": 0.0}, {"lat": 38.9731075, "is_disabled": 0, "type": "electric_scooter", "lon": -77.0270075, "bike_id": "b5058012c8e7dcc2d827fb55f058a03f", "fusion_lat": 0.0, "name": "b5058012c8e7dcc2d827fb55f058a03f", "is_reserved": 0, "rental_uris": {"android": "https://dc.lft.to/lastmile_qr_scan", "ios": "https://dc.lft.to/lastmile_qr_scan"}, "fusion_lon": 0.0}, {"lat": 38.895067, "is_disabled": 0, "type": "electric_scooter", "lon": -77.01119916666667, "bike_id": "54321ce05b6a4e96750cbf909bdead01", "fusion_lat": 0.0, "name": "54321ce05b6a4e96750cbf909bdead01", "is_reserved": 0, "rental_uris": {"android": "https://dc.lft.to/lastmile_qr_scan", "ios": "https://dc.lft.to/lastmile_qr_scan"}, "fusion_lon": 0.0}, {"lat": 38.898425333333336, "is_disabled": 0, "type": "electric_scooter", "lon": -77.03954166666666, "bike_id": "3d6e5ef6d1945b634b0aa46a83fa181d", "fusion_lat": 0.0, "name": "3d6e5ef6d1945b634b0aa46a83fa181d", "is_reserved": 0, "rental_uris": {"android": "https://dc.lft.to/lastmile_qr_scan", "ios": "https://dc.lft.to/lastmile_qr_scan"}, "fusion_lon": 0.0}, {"lat": 38.98508983333333, "is_disabled": 0, "type": "electric_bike", "lon": -76.9821975, "bike_id": "88e2b803478fa9e7f253ee5564c9a806", "fusion_lat": 0.0, "name": "88e2b803478fa9e7f253ee5564c9a806", "is_reserved": 0, "rental_uris": {"android": "https://dc.lft.to/lastmile_qr_scan", "ios": "https://dc.lft.to/lastmile_qr_scan"}, "fusion_lon": 0.0}, {"lat": 38.938822, "is_disabled": 0, "type": "electric_scooter", "lon": -77.03286416666667, "bike_id": "b59bbcf0cdef5ea07833e8e8a21ceb01", "fusion_lat": 0.0, "name": "b59bbcf0cdef5ea07833e8e8a21ceb01", "is_reserved": 0, "rental_uris": {"android": "https://dc.lft.to/lastmile_qr_scan", "ios": "https://dc.lft.to/lastmile_qr_scan"}, "fusion_lon": 0.0}, {"lat": 38.89967, "is_disabled": 0, "type": "electric_scooter", "lon": -77.02096533333334, "bike_id": "d39616c98b371ec582e18e43e6360cca", "fusion_lat": 0.0, "name": "d39616c98b371ec582e18e43e6360cca", "is_reserved": 0, "rental_uris": {"android": "https://dc.lft.to/lastmile_qr_scan", "ios": "https://dc.lft.to/lastmile_qr_scan"}, "fusion_lon": 0.0}, {"lat": 38.858958666666666, "is_disabled": 0, "type": "electric_scooter", "lon": -76.994338, "bike_id": "eabb0c2eeb47d961a20d9b721c3acb35", "fusion_lat": 0.0, "name": "eabb0c2eeb47d961a20d9b721c3acb35", "is_reserved": 0, "rental_uris": {"android": "https://dc.lft.to/lastmile_qr_scan", "ios": "https://dc.lft.to/lastmile_qr_scan"}, "fusion_lon": 0.0}, {"lat": 38.822675333333336, "is_disabled": 0, "type": "electric_bike", "lon": -77.05814516666666, "bike_id": "7547cb585b33772a283023c6efb941cd", "fusion_lat": 0.0, "name": "7547cb585b33772a283023c6efb941cd", "is_reserved": 0, "rental_uris": {"android": "https://dc.lft.to/lastmile_qr_scan", "ios": "https://dc.lft.to/lastmile_qr_scan"}, "fusion_lon": 0.0}, {"lat": 38.9023465, "is_disabled": 0, "type": "electric_scooter", "lon": -77.053328, "bike_id": "874682c05845abf89bcdf495eb905609", "fusion_lat": 0.0, "name": "874682c05845abf89bcdf495eb905609", "is_reserved": 0, "rental_uris": {"android": "https://dc.lft.to/lastmile_qr_scan", "ios": "https://dc.lft.to/lastmile_qr_scan"}, "fusion_lon": 0.0}, {"lat": 38.883956, "is_disabled": 0, "type": "electric_scooter", "lon": -77.0175215, "bike_id": "9b5ad0a6f29cf620d5db42274c1bbbf6", "fusion_lat": 0.0, "name": "9b5ad0a6f29cf620d5db42274c1bbbf6", "is_reserved": 0, "rental_uris": {"android": "https://dc.lft.to/lastmile_qr_scan", "ios": "https://dc.lft.to/lastmile_qr_scan"}, "fusion_lon": 0.0}, {"lat": 38.898237333333334, "is_disabled": 0, "type": "electric_scooter", "lon": -77.03153966666666, "bike_id": "f94b0a2d208df3f8f24c6f4cfa791a4e", "fusion_lat": 0.0, "name": "f94b0a2d208df3f8f24c6f4cfa791a4e", "is_reserved": 0, "rental_uris": {"android": "https://dc.lft.to/lastmile_qr_scan", "ios": "https://dc.lft.to/lastmile_qr_scan"}, "fusion_lon": 0.0}, {"lat": 38.88316316666667, "is_disabled": 0, "type": "electric_scooter", "lon": -77.00938383333333, "bike_id": "207856196d4983b74ff7ad02bd118571", "fusion_lat": 0.0, "name": "207856196d4983b74ff7ad02bd118571", "is_reserved": 0, "rental_uris": {"android": "https://dc.lft.to/lastmile_qr_scan", "ios": "https://dc.lft.to/lastmile_qr_scan"}, "fusion_lon": 0.0}, {"lat": 38.950766, "is_disabled": 0, "type": "electric_bike", "lon": -77.01195283333334, "bike_id": "38fd5bd5fef5f2af9423b82e1bb15f88", "fusion_lat": 0.0, "name": "38fd5bd5fef5f2af9423b82e1bb15f88", "is_reserved": 0, "rental_uris": {"android": "https://dc.lft.to/lastmile_qr_scan", "ios": "https://dc.lft.to/lastmile_qr_scan"}, "fusion_lon": 0.0}, {"lat": 38.906887166666664, "is_disabled": 0, "type": "electric_scooter", "lon": -77.04361766666666, "bike_id": "e7de9133456b139db1beb1baa3f63c39", "fusion_lat": 0.0, "name": "e7de9133456b139db1beb1baa3f63c39", "is_reserved": 0, "rental_uris": {"android": "https://dc.lft.to/lastmile_qr_scan", "ios": "https://dc.lft.to/lastmile_qr_scan"}, "fusion_lon": 0.0}, {"lat": 38.905240666666664, "is_disabled": 0, "type": "electric_scooter", "lon": -77.06445966666666, "bike_id": "8091f0fa626b58de16f2b5e6eac5dd4e", "fusion_lat": 0.0, "name": "8091f0fa626b58de16f2b5e6eac5dd4e", "is_reserved": 0, "rental_uris": {"android": "https://dc.lft.to/lastmile_qr_scan", "ios": "https://dc.lft.to/lastmile_qr_scan"}, "fusion_lon": 0.0}, {"lat": 38.902470666666666, "is_disabled": 0, "type": "electric_scooter", "lon": -77.02027016666666, "bike_id": "c83885e5ef01f299a44c5b4985a141e8", "fusion_lat": 0.0, "name": "c83885e5ef01f299a44c5b4985a141e8", "is_reserved": 0, "rental_uris": {"android": "https://dc.lft.to/lastmile_qr_scan", "ios": "https://dc.lft.to/lastmile_qr_scan"}, "fusion_lon": 0.0}, {"lat": 38.923583666666666, "is_disabled": 0, "type": "electric_scooter", "lon": -77.05097916666666, "bike_id": "f685c846088641a33bf9c0e7c953e974", "fusion_lat": 0.0, "name": "f685c846088641a33bf9c0e7c953e974", "is_reserved": 0, "rental_uris": {"android": "https://dc.lft.to/lastmile_qr_scan", "ios": "https://dc.lft.to/lastmile_qr_scan"}, "fusion_lon": 0.0}, {"lat": 38.952021333333334, "is_disabled": 0, "type": "electric_scooter", "lon": -77.06874866666666, "bike_id": "d0015c57a364f263337cef8d14c59551", "fusion_lat": 0.0, "name": "d0015c57a364f263337cef8d14c59551", "is_reserved": 0, "rental_uris": {"android": "https://dc.lft.to/lastmile_qr_scan", "ios": "https://dc.lft.to/lastmile_qr_scan"}, "fusion_lon": 0.0}, {"lat": 38.934085833333334, "is_disabled": 0, "type": "electric_scooter", "lon": -77.020366, "bike_id": "960c32263e323d0f32df58c5eda4eb7e", "fusion_lat": 0.0, "name": "960c32263e323d0f32df58c5eda4eb7e", "is_reserved": 0, "rental_uris": {"android": "https://dc.lft.to/lastmile_qr_scan", "ios": "https://dc.lft.to/lastmile_qr_scan"}, "fusion_lon": 0.0}, {"lat": 38.93173, "is_disabled": 0, "type": "electric_scooter", "lon": -77.02817133333333, "bike_id": "69fa91d274aa8bfbb7bc922050ae6de6", "fusion_lat": 0.0, "name": "69fa91d274aa8bfbb7bc922050ae6de6", "is_reserved": 0, "rental_uris": {"android": "https://dc.lft.to/lastmile_qr_scan", "ios": "https://dc.lft.to/lastmile_qr_scan"}, "fusion_lon": 0.0}, {"lat": 38.90814483333333, "is_disabled": 0, "type": "electric_scooter", "lon": -76.99708816666667, "bike_id": "d2b5f15257a2160fe5e645dd26078727", "fusion_lat": 0.0, "name": "d2b5f15257a2160fe5e645dd26078727", "is_reserved": 0, "rental_uris": {"android": "https://dc.lft.to/lastmile_qr_scan", "ios": "https://dc.lft.to/lastmile_qr_scan"}, "fusion_lon": 0.0}, {"lat": 38.899993, "is_disabled": 0, "type": "electric_scooter", "lon": -77.00642716666667, "bike_id": "f9e8e3986af6bc47d9264ae1de002bb7", "fusion_lat": 0.0, "name": "f9e8e3986af6bc47d9264ae1de002bb7", "is_reserved": 0, "rental_uris": {"android": "https://dc.lft.to/lastmile_qr_scan", "ios": "https://dc.lft.to/lastmile_qr_scan"}, "fusion_lon": 0.0}, {"lat": 38.923570166666664, "is_disabled": 0, "type": "electric_scooter", "lon": -77.0414325, "bike_id": "1805c29c77edc252b6aa70cb5b613c5a", "fusion_lat": 0.0, "name": "1805c29c77edc252b6aa70cb5b613c5a", "is_reserved": 0, "rental_uris": {"android": "https://dc.lft.to/lastmile_qr_scan", "ios": "https://dc.lft.to/lastmile_qr_scan"}, "fusion_lon": 0.0}, {"lat": 38.905570833333336, "is_disabled": 0, "type": "electric_scooter", "lon": -76.9838095, "bike_id": "3437078869793ab3d8f085b90820d036", "fusion_lat": 0.0, "name": "3437078869793ab3d8f085b90820d036", "is_reserved": 0, "rental_uris": {"android": "https://dc.lft.to/lastmile_qr_scan", "ios": "https://dc.lft.to/lastmile_qr_scan"}, "fusion_lon": 0.0}, {"lat": 38.922510333333335, "is_disabled": 0, "type": "electric_scooter", "lon": -77.01969083333333, "bike_id": "2b3682680cbb9853f71cc27657d8511f", "fusion_lat": 0.0, "name": "2b3682680cbb9853f71cc27657d8511f", "is_reserved": 0, "rental_uris": {"android": "https://dc.lft.to/lastmile_qr_scan", "ios": "https://dc.lft.to/lastmile_qr_scan"}, "fusion_lon": 0.0}, {"lat": 38.87149266666667, "is_disabled": 0, "type": "electric_bike", "lon": -76.93666533333334, "bike_id": "fbce14d4d3cc9b72f4cde7b8e8b9a7ea", "fusion_lat": 0.0, "name": "fbce14d4d3cc9b72f4cde7b8e8b9a7ea", "is_reserved": 0, "rental_uris": {"android": "https://dc.lft.to/lastmile_qr_scan", "ios": "https://dc.lft.to/lastmile_qr_scan"}, "fusion_lon": 0.0}, {"lat": 38.94434916666667, "is_disabled": 0, "type": "electric_scooter", "lon": -77.0630265, "bike_id": "45930b030f0c2bbcb9e7a5297a9b6c34", "fusion_lat": 0.0, "name": "45930b030f0c2bbcb9e7a5297a9b6c34", "is_reserved": 0, "rental_uris": {"android": "https://dc.lft.to/lastmile_qr_scan", "ios": "https://dc.lft.to/lastmile_qr_scan"}, "fusion_lon": 0.0}, {"lat": 38.88884316666667, "is_disabled": 0, "type": "electric_scooter", "lon": -76.931553, "bike_id": "9f3c9a76ed836e539a3970b5f8f97054", "fusion_lat": 0.0, "name": "9f3c9a76ed836e539a3970b5f8f97054", "is_reserved": 0, "rental_uris": {"android": "https://dc.lft.to/lastmile_qr_scan", "ios": "https://dc.lft.to/lastmile_qr_scan"}, "fusion_lon": 0.0}, {"lat": 38.91857783333333, "is_disabled": 0, "type": "electric_scooter", "lon": -76.965507, "bike_id": "c928800c6f00615aee09642640f91ad0", "fusion_lat": 0.0, "name": "c928800c6f00615aee09642640f91ad0", "is_reserved": 0, "rental_uris": {"android": "https://dc.lft.to/lastmile_qr_scan", "ios": "https://dc.lft.to/lastmile_qr_scan"}, "fusion_lon": 0.0}, {"lat": 38.91987833333334, "is_disabled": 0, "type": "electric_scooter", "lon": -77.01200083333333, "bike_id": "70d5adcce7dd4c23ad60ff3a56ed1c0e", "fusion_lat": 0.0, "name": "70d5adcce7dd4c23ad60ff3a56ed1c0e", "is_reserved": 0, "rental_uris": {"android": "https://dc.lft.to/lastmile_qr_scan", "ios": "https://dc.lft.to/lastmile_qr_scan"}, "fusion_lon": 0.0}, {"lat": 38.966242, "is_disabled": 0, "type": "electric_bike", "lon": -76.97667833333334, "bike_id": "66de1cc0872e66a94a8e4d2623df5599", "fusion_lat": 0.0, "name": "66de1cc0872e66a94a8e4d2623df5599", "is_reserved": 0, "rental_uris": {"android": "https://dc.lft.to/lastmile_qr_scan", "ios": "https://dc.lft.to/lastmile_qr_scan"}, "fusion_lon": 0.0}, {"lat": 38.935861, "is_disabled": 0, "type": "electric_bike", "lon": -77.1068785, "bike_id": "ff1ee22fcb7cd6b3c6cc716b2a33569e", "fusion_lat": 0.0, "name": "ff1ee22fcb7cd6b3c6cc716b2a33569e", "is_reserved": 0, "rental_uris": {"android": "https://dc.lft.to/lastmile_qr_scan", "ios": "https://dc.lft.to/lastmile_qr_scan"}, "fusion_lon": 0.0}, {"lat": 38.89833733333333, "is_disabled": 0, "type": "electric_scooter", "lon": -77.0303925, "bike_id": "22e92e7430bf85d3b32c12c1a47c1ba3", "fusion_lat": 0.0, "name": "22e92e7430bf85d3b32c12c1a47c1ba3", "is_reserved": 0, "rental_uris": {"android": "https://dc.lft.to/lastmile_qr_scan", "ios": "https://dc.lft.to/lastmile_qr_scan"}, "fusion_lon": 0.0}, {"lat": 38.94084816666667, "is_disabled": 0, "type": "electric_scooter", "lon": -77.06132733333334, "bike_id": "fb60d5d442ebb0e278772c60697b3322", "fusion_lat": 0.0, "name": "fb60d5d442ebb0e278772c60697b3322", "is_reserved": 0, "rental_uris": {"android": "https://dc.lft.to/lastmile_qr_scan", "ios": "https://dc.lft.to/lastmile_qr_scan"}, "fusion_lon": 0.0}, {"lat": 38.91638016666667, "is_disabled": 0, "type": "electric_scooter", "lon": -77.03135383333333, "bike_id": "7a4ce67f53c6a04f5dad78b88eea88ce", "fusion_lat": 0.0, "name": "7a4ce67f53c6a04f5dad78b88eea88ce", "is_reserved": 0, "rental_uris": {"android": "https://dc.lft.to/lastmile_qr_scan", "ios": "https://dc.lft.to/lastmile_qr_scan"}, "fusion_lon": 0.0}, {"lat": 38.93063433333333, "is_disabled": 0, "type": "electric_scooter", "lon": -77.031208, "bike_id": "9dcc316314ee9b4af498b831b92fbe09", "fusion_lat": 0.0, "name": "9dcc316314ee9b4af498b831b92fbe09", "is_reserved": 0, "rental_uris": {"android": "https://dc.lft.to/lastmile_qr_scan", "ios": "https://dc.lft.to/lastmile_qr_scan"}, "fusion_lon": 0.0}, {"lat": 38.939916, "is_disabled": 0, "type": "electric_scooter", "lon": -77.02890816666667, "bike_id": "f97aac529aba8e0809fdcc1cb4b0d91c", "fusion_lat": 0.0, "name": "f97aac529aba8e0809fdcc1cb4b0d91c", "is_reserved": 0, "rental_uris": {"android": "https://dc.lft.to/lastmile_qr_scan", "ios": "https://dc.lft.to/lastmile_qr_scan"}, "fusion_lon": 0.0}, {"lat": 38.949037, "is_disabled": 0, "type": "electric_bike", "lon": -76.972377, "bike_id": "593bc1b7e46fb13feebdd2d2d8e359e5", "fusion_lat": 0.0, "name": "593bc1b7e46fb13feebdd2d2d8e359e5", "is_reserved": 0, "rental_uris": {"android": "https://dc.lft.to/lastmile_qr_scan", "ios": "https://dc.lft.to/lastmile_qr_scan"}, "fusion_lon": 0.0}, {"lat": 38.92394633333333, "is_disabled": 0, "type": "electric_scooter", "lon": -77.02697733333333, "bike_id": "11724fd78078f96644ddf1bba2a5db3f", "fusion_lat": 0.0, "name": "11724fd78078f96644ddf1bba2a5db3f", "is_reserved": 0, "rental_uris": {"android": "https://dc.lft.to/lastmile_qr_scan", "ios": "https://dc.lft.to/lastmile_qr_scan"}, "fusion_lon": 0.0}, {"lat": 38.937371166666665, "is_disabled": 0, "type": "electric_scooter", "lon": -77.03614966666666, "bike_id": "70a918414d7e7fd02f24078470ca8598", "fusion_lat": 0.0, "name": "70a918414d7e7fd02f24078470ca8598", "is_reserved": 0, "rental_uris": {"android": "https://dc.lft.to/lastmile_qr_scan", "ios": "https://dc.lft.to/lastmile_qr_scan"}, "fusion_lon": 0.0}, {"lat": 38.91889966666667, "is_disabled": 0, "type": "electric_scooter", "lon": -77.03906933333333, "bike_id": "0b48b6ebe3fdcdf76d12b0a8ce290681", "fusion_lat": 0.0, "name": "0b48b6ebe3fdcdf76d12b0a8ce290681", "is_reserved": 0, "rental_uris": {"android": "https://dc.lft.to/lastmile_qr_scan", "ios": "https://dc.lft.to/lastmile_qr_scan"}, "fusion_lon": 0.0}, {"lat": 38.9084, "is_disabled": 0, "type": "electric_scooter", "lon": -77.0282155, "bike_id": "2d80b842bd87ca2101a1cf7aff04d5b3", "fusion_lat": 0.0, "name": "2d80b842bd87ca2101a1cf7aff04d5b3", "is_reserved": 0, "rental_uris": {"android": "https://dc.lft.to/lastmile_qr_scan", "ios": "https://dc.lft.to/lastmile_qr_scan"}, "fusion_lon": 0.0}, {"lat": 38.901469, "is_disabled": 0, "type": "electric_scooter", "lon": -77.04158283333334, "bike_id": "42276ef00cf9c62d42b72301c20080c9", "fusion_lat": 0.0, "name": "42276ef00cf9c62d42b72301c20080c9", "is_reserved": 0, "rental_uris": {"android": "https://dc.lft.to/lastmile_qr_scan", "ios": "https://dc.lft.to/lastmile_qr_scan"}, "fusion_lon": 0.0}, {"lat": 38.928596, "is_disabled": 0, "type": "electric_scooter", "lon": -77.01397316666667, "bike_id": "8cfa8c73e980f066d6a7e3e6b3c1219f", "fusion_lat": 0.0, "name": "8cfa8c73e980f066d6a7e3e6b3c1219f", "is_reserved": 0, "rental_uris": {"android": "https://dc.lft.to/lastmile_qr_scan", "ios": "https://dc.lft.to/lastmile_qr_scan"}, "fusion_lon": 0.0}, {"lat": 38.88660733333333, "is_disabled": 0, "type": "electric_bike", "lon": -77.16234333333334, "bike_id": "e72d9219684ca9846e40fad637063567", "fusion_lat": 0.0, "name": "e72d9219684ca9846e40fad637063567", "is_reserved": 0, "rental_uris": {"android": "https://dc.lft.to/lastmile_qr_scan", "ios": "https://dc.lft.to/lastmile_qr_scan"}, "fusion_lon": 0.0}, {"lat": 38.91399716666667, "is_disabled": 0, "type": "electric_scooter", "lon": -77.03061183333334, "bike_id": "c9e79f4483c4f3f04afc3a7fd4a63ecd", "fusion_lat": 0.0, "name": "c9e79f4483c4f3f04afc3a7fd4a63ecd", "is_reserved": 0, "rental_uris": {"android": "https://dc.lft.to/lastmile_qr_scan", "ios": "https://dc.lft.to/lastmile_qr_scan"}, "fusion_lon": 0.0}, {"lat": 38.9020595, "is_disabled": 0, "type": "electric_scooter", "lon": -77.04652666666667, "bike_id": "07602383b7b822c23e072d4077d4e378", "fusion_lat": 0.0, "name": "07602383b7b822c23e072d4077d4e378", "is_reserved": 0, "rental_uris": {"android": "https://dc.lft.to/lastmile_qr_scan", "ios": "https://dc.lft.to/lastmile_qr_scan"}, "fusion_lon": 0.0}, {"lat": 38.917116166666666, "is_disabled": 0, "type": "electric_scooter", "lon": -77.03856883333333, "bike_id": "a4bb0fa7a74cd5884b4f6b765aa508a1", "fusion_lat": 0.0, "name": "a4bb0fa7a74cd5884b4f6b765aa508a1", "is_reserved": 0, "rental_uris": {"android": "https://dc.lft.to/lastmile_qr_scan", "ios": "https://dc.lft.to/lastmile_qr_scan"}, "fusion_lon": 0.0}, {"lat": 38.90477683333334, "is_disabled": 0, "type": "electric_scooter", "lon": -77.007743, "bike_id": "4a2c3e7432d06ad64988b04f929926fd", "fusion_lat": 0.0, "name": "4a2c3e7432d06ad64988b04f929926fd", "is_reserved": 0, "rental_uris": {"android": "https://dc.lft.to/lastmile_qr_scan", "ios": "https://dc.lft.to/lastmile_qr_scan"}, "fusion_lon": 0.0}, {"lat": 38.896179833333335, "is_disabled": 0, "type": "electric_scooter", "lon": -76.9558805, "bike_id": "cd656d43094931006782c143c0eb2432", "fusion_lat": 0.0, "name": "cd656d43094931006782c143c0eb2432", "is_reserved": 0, "rental_uris": {"android": "https://dc.lft.to/lastmile_qr_scan", "ios": "https://dc.lft.to/lastmile_qr_scan"}, "fusion_lon": 0.0}, {"lat": 38.94272933333333, "is_disabled": 0, "type": "electric_scooter", "lon": -77.03260116666667, "bike_id": "cf370c5a49375249fdb840a9bafb333a", "fusion_lat": 0.0, "name": "cf370c5a49375249fdb840a9bafb333a", "is_reserved": 0, "rental_uris": {"android": "https://dc.lft.to/lastmile_qr_scan", "ios": "https://dc.lft.to/lastmile_qr_scan"}, "fusion_lon": 0.0}, {"lat": 38.910555, "is_disabled": 0, "type": "electric_scooter", "lon": -77.04571066666666, "bike_id": "cfefa1e5175ac6a33a3f399a40b45a53", "fusion_lat": 0.0, "name": "cfefa1e5175ac6a33a3f399a40b45a53", "is_reserved": 0, "rental_uris": {"android": "https://dc.lft.to/lastmile_qr_scan", "ios": "https://dc.lft.to/lastmile_qr_scan"}, "fusion_lon": 0.0}, {"lat": 38.9262745, "is_disabled": 0, "type": "electric_scooter", "lon": -77.03615733333334, "bike_id": "a8be39668de62fbf3ef57e076a548973", "fusion_lat": 0.0, "name": "a8be39668de62fbf3ef57e076a548973", "is_reserved": 0, "rental_uris": {"android": "https://dc.lft.to/lastmile_qr_scan", "ios": "https://dc.lft.to/lastmile_qr_scan"}, "fusion_lon": 0.0}, {"lat": 38.92410266666667, "is_disabled": 0, "type": "electric_scooter", "lon": -77.03537816666666, "bike_id": "634b3a95b71e2107be6fd60f914c44b5", "fusion_lat": 0.0, "name": "634b3a95b71e2107be6fd60f914c44b5", "is_reserved": 0, "rental_uris": {"android": "https://dc.lft.to/lastmile_qr_scan", "ios": "https://dc.lft.to/lastmile_qr_scan"}, "fusion_lon": 0.0}, {"lat": 38.933461, "is_disabled": 0, "type": "electric_scooter", "lon": -77.05701983333333, "bike_id": "a1bbc97d01c375c1491a44491d45942d", "fusion_lat": 0.0, "name": "a1bbc97d01c375c1491a44491d45942d", "is_reserved": 0, "rental_uris": {"android": "https://dc.lft.to/lastmile_qr_scan", "ios": "https://dc.lft.to/lastmile_qr_scan"}, "fusion_lon": 0.0}, {"lat": 38.95886333333333, "is_disabled": 0, "type": "electric_bike", "lon": -76.92489083333334, "bike_id": "b3e2a4e83ffd47826fd4ea3a78b8c5a9", "fusion_lat": 0.0, "name": "b3e2a4e83ffd47826fd4ea3a78b8c5a9", "is_reserved": 0, "rental_uris": {"android": "https://dc.lft.to/lastmile_qr_scan", "ios": "https://dc.lft.to/lastmile_qr_scan"}, "fusion_lon": 0.0}, {"lat": 38.92341416666667, "is_disabled": 0, "type": "electric_scooter", "lon": -77.0511395, "bike_id": "26d5ba2b18bcdbb45a12f29f2643076d", "fusion_lat": 0.0, "name": "26d5ba2b18bcdbb45a12f29f2643076d", "is_reserved": 0, "rental_uris": {"android": "https://dc.lft.to/lastmile_qr_scan", "ios": "https://dc.lft.to/lastmile_qr_scan"}, "fusion_lon": 0.0}, {"lat": 38.95746616666667, "is_disabled": 0, "type": "electric_scooter", "lon": -77.02074783333333, "bike_id": "4fd245ffaaeefb2eba8a20de28ea04f1", "fusion_lat": 0.0, "name": "4fd245ffaaeefb2eba8a20de28ea04f1", "is_reserved": 0, "rental_uris": {"android": "https://dc.lft.to/lastmile_qr_scan", "ios": "https://dc.lft.to/lastmile_qr_scan"}, "fusion_lon": 0.0}, {"lat": 38.91681483333333, "is_disabled": 0, "type": "electric_scooter", "lon": -77.00204833333333, "bike_id": "69b5bab11c189bc74bb1242f828d272d", "fusion_lat": 0.0, "name": "69b5bab11c189bc74bb1242f828d272d", "is_reserved": 0, "rental_uris": {"android": "https://dc.lft.to/lastmile_qr_scan", "ios": "https://dc.lft.to/lastmile_qr_scan"}, "fusion_lon": 0.0}, {"lat": 38.9732285, "is_disabled": 0, "type": "electric_bike", "lon": -77.02149016666667, "bike_id": "ab787511213c374449f016052f54c22b", "fusion_lat": 0.0, "name": "ab787511213c374449f016052f54c22b", "is_reserved": 0, "rental_uris": {"android": "https://dc.lft.to/lastmile_qr_scan", "ios": "https://dc.lft.to/lastmile_qr_scan"}, "fusion_lon": 0.0}, {"lat": 38.9273575, "is_disabled": 0, "type": "electric_scooter", "lon": -77.04288916666667, "bike_id": "97e4ea6071c5e586b33dc31fb538d0dc", "fusion_lat": 0.0, "name": "97e4ea6071c5e586b33dc31fb538d0dc", "is_reserved": 0, "rental_uris": {"android": "https://dc.lft.to/lastmile_qr_scan", "ios": "https://dc.lft.to/lastmile_qr_scan"}, "fusion_lon": 0.0}, {"lat": 38.92199033333333, "is_disabled": 0, "type": "electric_scooter", "lon": -76.9836785, "bike_id": "c0223420a50a007fd8da598f9ba1c306", "fusion_lat": 0.0, "name": "c0223420a50a007fd8da598f9ba1c306", "is_reserved": 0, "rental_uris": {"android": "https://dc.lft.to/lastmile_qr_scan", "ios": "https://dc.lft.to/lastmile_qr_scan"}, "fusion_lon": 0.0}, {"lat": 38.9262085, "is_disabled": 0, "type": "electric_scooter", "lon": -77.03784916666666, "bike_id": "2b0f628fb4cac10758d06300d767a3df", "fusion_lat": 0.0, "name": "2b0f628fb4cac10758d06300d767a3df", "is_reserved": 0, "rental_uris": {"android": "https://dc.lft.to/lastmile_qr_scan", "ios": "https://dc.lft.to/lastmile_qr_scan"}, "fusion_lon": 0.0}, {"lat": 38.883070000000004, "is_disabled": 0, "type": "electric_bike", "lon": -77.03160533333333, "bike_id": "c5a817c257f2e7430b64d99a19ed6774", "fusion_lat": 0.0, "name": "c5a817c257f2e7430b64d99a19ed6774", "is_reserved": 0, "rental_uris": {"android": "https://dc.lft.to/lastmile_qr_scan", "ios": "https://dc.lft.to/lastmile_qr_scan"}, "fusion_lon": 0.0}, {"lat": 38.883652, "is_disabled": 0, "type": "electric_scooter", "lon": -76.9415565, "bike_id": "08d363742d67269e84279b23775745ff", "fusion_lat": 0.0, "name": "08d363742d67269e84279b23775745ff", "is_reserved": 0, "rental_uris": {"android": "https://dc.lft.to/lastmile_qr_scan", "ios": "https://dc.lft.to/lastmile_qr_scan"}, "fusion_lon": 0.0}, {"lat": 38.92485383333333, "is_disabled": 0, "type": "electric_scooter", "lon": -77.05211983333334, "bike_id": "b9e109fa6ec462c85d2fec9682d2b4bf", "fusion_lat": 0.0, "name": "b9e109fa6ec462c85d2fec9682d2b4bf", "is_reserved": 0, "rental_uris": {"android": "https://dc.lft.to/lastmile_qr_scan", "ios": "https://dc.lft.to/lastmile_qr_scan"}, "fusion_lon": 0.0}, {"lat": 38.899162833333335, "is_disabled": 0, "type": "electric_scooter", "lon": -77.0216535, "bike_id": "1800312905c09c3c5cec269a47ef9f69", "fusion_lat": 0.0, "name": "1800312905c09c3c5cec269a47ef9f69", "is_reserved": 0, "rental_uris": {"android": "https://dc.lft.to/lastmile_qr_scan", "ios": "https://dc.lft.to/lastmile_qr_scan"}, "fusion_lon": 0.0}, {"lat": 38.91172483333333, "is_disabled": 0, "type": "electric_scooter", "lon": -77.038569, "bike_id": "7edc648185ec5e6acbf00a5d26e5da55", "fusion_lat": 0.0, "name": "7edc648185ec5e6acbf00a5d26e5da55", "is_reserved": 0, "rental_uris": {"android": "https://dc.lft.to/lastmile_qr_scan", "ios": "https://dc.lft.to/lastmile_qr_scan"}, "fusion_lon": 0.0}, {"lat": 38.9056895, "is_disabled": 0, "type": "electric_scooter", "lon": -76.98872466666667, "bike_id": "ee6b1d3ca3f4614355d4e71c764c5277", "fusion_lat": 0.0, "name": "ee6b1d3ca3f4614355d4e71c764c5277", "is_reserved": 0, "rental_uris": {"android": "https://dc.lft.to/lastmile_qr_scan", "ios": "https://dc.lft.to/lastmile_qr_scan"}, "fusion_lon": 0.0}, {"lat": 38.866489333333334, "is_disabled": 0, "type": "electric_scooter", "lon": -76.98883016666667, "bike_id": "51e91f3ee426b80923080d0455a3c990", "fusion_lat": 0.0, "name": "51e91f3ee426b80923080d0455a3c990", "is_reserved": 0, "rental_uris": {"android": "https://dc.lft.to/lastmile_qr_scan", "ios": "https://dc.lft.to/lastmile_qr_scan"}, "fusion_lon": 0.0}, {"lat": 38.91715583333333, "is_disabled": 0, "type": "electric_scooter", "lon": -77.03860433333334, "bike_id": "cc8ff1fed912172d97a950eb638900c4", "fusion_lat": 0.0, "name": "cc8ff1fed912172d97a950eb638900c4", "is_reserved": 0, "rental_uris": {"android": "https://dc.lft.to/lastmile_qr_scan", "ios": "https://dc.lft.to/lastmile_qr_scan"}, "fusion_lon": 0.0}, {"lat": 38.933464666666666, "is_disabled": 0, "type": "electric_scooter", "lon": -77.05862416666666, "bike_id": "9b05511588e9f8c605a5082380aaac66", "fusion_lat": 0.0, "name": "9b05511588e9f8c605a5082380aaac66", "is_reserved": 0, "rental_uris": {"android": "https://dc.lft.to/lastmile_qr_scan", "ios": "https://dc.lft.to/lastmile_qr_scan"}, "fusion_lon": 0.0}, {"lat": 38.89769483333333, "is_disabled": 0, "type": "electric_scooter", "lon": -77.05164733333334, "bike_id": "e2770ad9c7b27c53c3039e521c4ce775", "fusion_lat": 0.0, "name": "e2770ad9c7b27c53c3039e521c4ce775", "is_reserved": 0, "rental_uris": {"android": "https://dc.lft.to/lastmile_qr_scan", "ios": "https://dc.lft.to/lastmile_qr_scan"}, "fusion_lon": 0.0}, {"lat": 38.92298483333333, "is_disabled": 0, "type": "electric_scooter", "lon": -77.04143566666667, "bike_id": "c4e1fcc061d669a020141696e9757b81", "fusion_lat": 0.0, "name": "c4e1fcc061d669a020141696e9757b81", "is_reserved": 0, "rental_uris": {"android": "https://dc.lft.to/lastmile_qr_scan", "ios": "https://dc.lft.to/lastmile_qr_scan"}, "fusion_lon": 0.0}, {"lat": 38.878895166666666, "is_disabled": 0, "type": "electric_scooter", "lon": -77.01977016666666, "bike_id": "4b458f300085755cd613d23482f00dd4", "fusion_lat": 0.0, "name": "4b458f300085755cd613d23482f00dd4", "is_reserved": 0, "rental_uris": {"android": "https://dc.lft.to/lastmile_qr_scan", "ios": "https://dc.lft.to/lastmile_qr_scan"}, "fusion_lon": 0.0}, {"lat": 38.923057166666666, "is_disabled": 0, "type": "electric_scooter", "lon": -77.03962316666667, "bike_id": "674d1bc00c0e949f0f7026c45aa8b65e", "fusion_lat": 0.0, "name": "674d1bc00c0e949f0f7026c45aa8b65e", "is_reserved": 0, "rental_uris": {"android": "https://dc.lft.to/lastmile_qr_scan", "ios": "https://dc.lft.to/lastmile_qr_scan"}, "fusion_lon": 0.0}, {"lat": 38.9243155, "is_disabled": 0, "type": "electric_scooter", "lon": -77.0425005, "bike_id": "4078be5443fe399591e4b1db3a770972", "fusion_lat": 0.0, "name": "4078be5443fe399591e4b1db3a770972", "is_reserved": 0, "rental_uris": {"android": "https://dc.lft.to/lastmile_qr_scan", "ios": "https://dc.lft.to/lastmile_qr_scan"}, "fusion_lon": 0.0}, {"lat": 38.86920383333333, "is_disabled": 0, "type": "electric_scooter", "lon": -76.98303033333333, "bike_id": "9a7dc77ee8fd6ba29c768c1298620e72", "fusion_lat": 0.0, "name": "9a7dc77ee8fd6ba29c768c1298620e72", "is_reserved": 0, "rental_uris": {"android": "https://dc.lft.to/lastmile_qr_scan", "ios": "https://dc.lft.to/lastmile_qr_scan"}, "fusion_lon": 0.0}, {"lat": 38.878039666666666, "is_disabled": 0, "type": "electric_bike", "lon": -76.9607485, "bike_id": "ac1b240bb72b08954aeee4780fb365b6", "fusion_lat": 0.0, "name": "ac1b240bb72b08954aeee4780fb365b6", "is_reserved": 0, "rental_uris": {"android": "https://dc.lft.to/lastmile_qr_scan", "ios": "https://dc.lft.to/lastmile_qr_scan"}, "fusion_lon": 0.0}, {"lat": 38.923319666666664, "is_disabled": 0, "type": "electric_scooter", "lon": -77.03567, "bike_id": "0119971b98ee72fab6f6cee4c745e7fb", "fusion_lat": 0.0, "name": "0119971b98ee72fab6f6cee4c745e7fb", "is_reserved": 0, "rental_uris": {"android": "https://dc.lft.to/lastmile_qr_scan", "ios": "https://dc.lft.to/lastmile_qr_scan"}, "fusion_lon": 0.0}, {"lat": 38.928897666666664, "is_disabled": 0, "type": "electric_scooter", "lon": -77.03339933333334, "bike_id": "d27e87e799dbe6d2a5766ed7761efd53", "fusion_lat": 0.0, "name": "d27e87e799dbe6d2a5766ed7761efd53", "is_reserved": 0, "rental_uris": {"android": "https://dc.lft.to/lastmile_qr_scan", "ios": "https://dc.lft.to/lastmile_qr_scan"}, "fusion_lon": 0.0}, {"lat": 38.913347333333334, "is_disabled": 0, "type": "electric_scooter", "lon": -77.03130233333333, "bike_id": "64753d9e2f1fb5995bf811a9086329a7", "fusion_lat": 0.0, "name": "64753d9e2f1fb5995bf811a9086329a7", "is_reserved": 0, "rental_uris": {"android": "https://dc.lft.to/lastmile_qr_scan", "ios": "https://dc.lft.to/lastmile_qr_scan"}, "fusion_lon": 0.0}, {"lat": 38.844254166666666, "is_disabled": 0, "type": "electric_scooter", "lon": -76.99779916666667, "bike_id": "86aa39b5bf07bd1dada0223dc1704e49", "fusion_lat": 0.0, "name": "86aa39b5bf07bd1dada0223dc1704e49", "is_reserved": 0, "rental_uris": {"android": "https://dc.lft.to/lastmile_qr_scan", "ios": "https://dc.lft.to/lastmile_qr_scan"}, "fusion_lon": 0.0}, {"lat": 38.906551, "is_disabled": 0, "type": "electric_scooter", "lon": -77.02962033333333, "bike_id": "84041f88711971dd602cc3777000cfdf", "fusion_lat": 0.0, "name": "84041f88711971dd602cc3777000cfdf", "is_reserved": 0, "rental_uris": {"android": "https://dc.lft.to/lastmile_qr_scan", "ios": "https://dc.lft.to/lastmile_qr_scan"}, "fusion_lon": 0.0}, {"lat": 38.88419283333333, "is_disabled": 0, "type": "electric_scooter", "lon": -77.0002725, "bike_id": "848c6d99c072355dd2479ca70b77307d", "fusion_lat": 0.0, "name": "848c6d99c072355dd2479ca70b77307d", "is_reserved": 0, "rental_uris": {"android": "https://dc.lft.to/lastmile_qr_scan", "ios": "https://dc.lft.to/lastmile_qr_scan"}, "fusion_lon": 0.0}, {"lat": 38.905902833333336, "is_disabled": 0, "type": "electric_scooter", "lon": -77.06517083333334, "bike_id": "9fb9b58e90eeede8b6af9a84bdce807a", "fusion_lat": 0.0, "name": "9fb9b58e90eeede8b6af9a84bdce807a", "is_reserved": 0, "rental_uris": {"android": "https://dc.lft.to/lastmile_qr_scan", "ios": "https://dc.lft.to/lastmile_qr_scan"}, "fusion_lon": 0.0}, {"lat": 38.98655383333333, "is_disabled": 0, "type": "electric_bike", "lon": -77.05645966666667, "bike_id": "ba6f622d9da2078299f0032a44c74bef", "fusion_lat": 0.0, "name": "ba6f622d9da2078299f0032a44c74bef", "is_reserved": 0, "rental_uris": {"android": "https://dc.lft.to/lastmile_qr_scan", "ios": "https://dc.lft.to/lastmile_qr_scan"}, "fusion_lon": 0.0}, {"lat": 38.963939, "is_disabled": 0, "type": "electric_scooter", "lon": -77.02593, "bike_id": "9066182af159fc5ed50f661a92552a99", "fusion_lat": 0.0, "name": "9066182af159fc5ed50f661a92552a99", "is_reserved": 0, "rental_uris": {"android": "https://dc.lft.to/lastmile_qr_scan", "ios": "https://dc.lft.to/lastmile_qr_scan"}, "fusion_lon": 0.0}, {"lat": 38.89085933333333, "is_disabled": 0, "type": "electric_scooter", "lon": -76.94292983333334, "bike_id": "12ea596a9c37db62e759cef90d6f95e3", "fusion_lat": 0.0, "name": "12ea596a9c37db62e759cef90d6f95e3", "is_reserved": 0, "rental_uris": {"android": "https://dc.lft.to/lastmile_qr_scan", "ios": "https://dc.lft.to/lastmile_qr_scan"}, "fusion_lon": 0.0}, {"lat": 38.9079005, "is_disabled": 0, "type": "electric_scooter", "lon": -77.034751, "bike_id": "4471273de968cd6bf5eced9c283f921e", "fusion_lat": 0.0, "name": "4471273de968cd6bf5eced9c283f921e", "is_reserved": 0, "rental_uris": {"android": "https://dc.lft.to/lastmile_qr_scan", "ios": "https://dc.lft.to/lastmile_qr_scan"}, "fusion_lon": 0.0}, {"lat": 38.902325166666664, "is_disabled": 0, "type": "electric_scooter", "lon": -77.00532416666667, "bike_id": "7532ead9ce6ba0a97261344351ee4b76", "fusion_lat": 0.0, "name": "7532ead9ce6ba0a97261344351ee4b76", "is_reserved": 0, "rental_uris": {"android": "https://dc.lft.to/lastmile_qr_scan", "ios": "https://dc.lft.to/lastmile_qr_scan"}, "fusion_lon": 0.0}, {"lat": 38.92419866666667, "is_disabled": 0, "type": "electric_bike", "lon": -77.05043816666667, "bike_id": "7957ad6f8226a55a6a90f27d3956884e", "fusion_lat": 0.0, "name": "7957ad6f8226a55a6a90f27d3956884e", "is_reserved": 0, "rental_uris": {"android": "https://dc.lft.to/lastmile_qr_scan", "ios": "https://dc.lft.to/lastmile_qr_scan"}, "fusion_lon": 0.0}, {"lat": 38.9363095, "is_disabled": 0, "type": "electric_scooter", "lon": -77.0366195, "bike_id": "7d68a4241052339990484fe5edd6106e", "fusion_lat": 0.0, "name": "7d68a4241052339990484fe5edd6106e", "is_reserved": 0, "rental_uris": {"android": "https://dc.lft.to/lastmile_qr_scan", "ios": "https://dc.lft.to/lastmile_qr_scan"}, "fusion_lon": 0.0}, {"lat": 38.92702766666667, "is_disabled": 0, "type": "electric_scooter", "lon": -77.02092416666666, "bike_id": "8bd5f391cfda0299a36109356fc954ca", "fusion_lat": 0.0, "name": "8bd5f391cfda0299a36109356fc954ca", "is_reserved": 0, "rental_uris": {"android": "https://dc.lft.to/lastmile_qr_scan", "ios": "https://dc.lft.to/lastmile_qr_scan"}, "fusion_lon": 0.0}, {"lat": 38.918991, "is_disabled": 0, "type": "electric_scooter", "lon": -77.03448516666667, "bike_id": "b06b3a111b02cc2471d2f73bc9b607ba", "fusion_lat": 0.0, "name": "b06b3a111b02cc2471d2f73bc9b607ba", "is_reserved": 0, "rental_uris": {"android": "https://dc.lft.to/lastmile_qr_scan", "ios": "https://dc.lft.to/lastmile_qr_scan"}, "fusion_lon": 0.0}, {"lat": 38.9003635, "is_disabled": 0, "type": "electric_scooter", "lon": -77.00576983333333, "bike_id": "d97e69640f9c144a638a428b82f2bd44", "fusion_lat": 0.0, "name": "d97e69640f9c144a638a428b82f2bd44", "is_reserved": 0, "rental_uris": {"android": "https://dc.lft.to/lastmile_qr_scan", "ios": "https://dc.lft.to/lastmile_qr_scan"}, "fusion_lon": 0.0}, {"lat": 38.92475233333333, "is_disabled": 0, "type": "electric_bike", "lon": -77.20838583333334, "bike_id": "5ba7f5ec624fcdfdbb885f82f67fc5b1", "fusion_lat": 0.0, "name": "5ba7f5ec624fcdfdbb885f82f67fc5b1", "is_reserved": 0, "rental_uris": {"android": "https://dc.lft.to/lastmile_qr_scan", "ios": "https://dc.lft.to/lastmile_qr_scan"}, "fusion_lon": 0.0}, {"lat": 38.94464683333333, "is_disabled": 0, "type": "electric_scooter", "lon": -77.06045366666666, "bike_id": "a09587b9e0646871e50cbe773d31f3f3", "fusion_lat": 0.0, "name": "a09587b9e0646871e50cbe773d31f3f3", "is_reserved": 0, "rental_uris": {"android": "https://dc.lft.to/lastmile_qr_scan", "ios": "https://dc.lft.to/lastmile_qr_scan"}, "fusion_lon": 0.0}, {"lat": 38.952793666666665, "is_disabled": 0, "type": "electric_scooter", "lon": -77.036551, "bike_id": "397a58a085041b7375d7e90acd4b79c6", "fusion_lat": 0.0, "name": "397a58a085041b7375d7e90acd4b79c6", "is_reserved": 0, "rental_uris": {"android": "https://dc.lft.to/lastmile_qr_scan", "ios": "https://dc.lft.to/lastmile_qr_scan"}, "fusion_lon": 0.0}, {"lat": 38.8938025, "is_disabled": 0, "type": "electric_scooter", "lon": -77.04781666666666, "bike_id": "b991838c02ba3d7c9f8ebc407f96220d", "fusion_lat": 0.0, "name": "b991838c02ba3d7c9f8ebc407f96220d", "is_reserved": 0, "rental_uris": {"android": "https://dc.lft.to/lastmile_qr_scan", "ios": "https://dc.lft.to/lastmile_qr_scan"}, "fusion_lon": 0.0}, {"lat": 38.858080333333334, "is_disabled": 0, "type": "electric_scooter", "lon": -76.986543, "bike_id": "f166b7eb0ef4953a8f1c04fc21a772fb", "fusion_lat": 0.0, "name": "f166b7eb0ef4953a8f1c04fc21a772fb", "is_reserved": 0, "rental_uris": {"android": "https://dc.lft.to/lastmile_qr_scan", "ios": "https://dc.lft.to/lastmile_qr_scan"}, "fusion_lon": 0.0}, {"lat": 38.944466, "is_disabled": 0, "type": "electric_scooter", "lon": -77.03284016666667, "bike_id": "54752254f5f2e7d101ae31a55e8a97be", "fusion_lat": 0.0, "name": "54752254f5f2e7d101ae31a55e8a97be", "is_reserved": 0, "rental_uris": {"android": "https://dc.lft.to/lastmile_qr_scan", "ios": "https://dc.lft.to/lastmile_qr_scan"}, "fusion_lon": 0.0}, {"lat": 38.91701583333333, "is_disabled": 0, "type": "electric_scooter", "lon": -77.04336166666667, "bike_id": "32ac6519be17b1d5841d71f1fba888a8", "fusion_lat": 0.0, "name": "32ac6519be17b1d5841d71f1fba888a8", "is_reserved": 0, "rental_uris": {"android": "https://dc.lft.to/lastmile_qr_scan", "ios": "https://dc.lft.to/lastmile_qr_scan"}, "fusion_lon": 0.0}, {"lat": 38.916004, "is_disabled": 0, "type": "electric_scooter", "lon": -77.07562066666667, "bike_id": "799826eb45e7f9d100e6b4198c3ded70", "fusion_lat": 0.0, "name": "799826eb45e7f9d100e6b4198c3ded70", "is_reserved": 0, "rental_uris": {"android": "https://dc.lft.to/lastmile_qr_scan", "ios": "https://dc.lft.to/lastmile_qr_scan"}, "fusion_lon": 0.0}, {"lat": 38.87447083333333, "is_disabled": 0, "type": "electric_bike", "lon": -77.10815933333333, "bike_id": "276e1c752718d0a9ecc145a9acebb206", "fusion_lat": 0.0, "name": "276e1c752718d0a9ecc145a9acebb206", "is_reserved": 0, "rental_uris": {"android": "https://dc.lft.to/lastmile_qr_scan", "ios": "https://dc.lft.to/lastmile_qr_scan"}, "fusion_lon": 0.0}, {"lat": 38.887336833333336, "is_disabled": 0, "type": "electric_scooter", "lon": -77.032192, "bike_id": "00959a2485aea017f2347650536cf4fc", "fusion_lat": 0.0, "name": "00959a2485aea017f2347650536cf4fc", "is_reserved": 0, "rental_uris": {"android": "https://dc.lft.to/lastmile_qr_scan", "ios": "https://dc.lft.to/lastmile_qr_scan"}, "fusion_lon": 0.0}, {"lat": 38.88088316666666, "is_disabled": 0, "type": "electric_scooter", "lon": -76.99506766666667, "bike_id": "6322c401b8fa0ef4b3632de2dd6276dc", "fusion_lat": 0.0, "name": "6322c401b8fa0ef4b3632de2dd6276dc", "is_reserved": 0, "rental_uris": {"android": "https://dc.lft.to/lastmile_qr_scan", "ios": "https://dc.lft.to/lastmile_qr_scan"}, "fusion_lon": 0.0}, {"lat": 38.95561083333333, "is_disabled": 0, "type": "electric_scooter", "lon": -77.0224005, "bike_id": "1c472f6dd87bddee3b9610110efd6ddd", "fusion_lat": 0.0, "name": "1c472f6dd87bddee3b9610110efd6ddd", "is_reserved": 0, "rental_uris": {"android": "https://dc.lft.to/lastmile_qr_scan", "ios": "https://dc.lft.to/lastmile_qr_scan"}, "fusion_lon": 0.0}, {"lat": 38.9091695, "is_disabled": 0, "type": "electric_scooter", "lon": -77.03638466666666, "bike_id": "8513e49c50e57139097a5ceff897b7d3", "fusion_lat": 0.0, "name": "8513e49c50e57139097a5ceff897b7d3", "is_reserved": 0, "rental_uris": {"android": "https://dc.lft.to/lastmile_qr_scan", "ios": "https://dc.lft.to/lastmile_qr_scan"}, "fusion_lon": 0.0}, {"lat": 38.9387275, "is_disabled": 0, "type": "electric_scooter", "lon": -77.02437183333333, "bike_id": "6e4a5d4d7c25326fecb73c1a44d03a29", "fusion_lat": 0.0, "name": "6e4a5d4d7c25326fecb73c1a44d03a29", "is_reserved": 0, "rental_uris": {"android": "https://dc.lft.to/lastmile_qr_scan", "ios": "https://dc.lft.to/lastmile_qr_scan"}, "fusion_lon": 0.0}, {"lat": 38.8656615, "is_disabled": 0, "type": "electric_scooter", "lon": -76.98955266666667, "bike_id": "66e19d98a89d461f9df741cc3d4b1149", "fusion_lat": 0.0, "name": "66e19d98a89d461f9df741cc3d4b1149", "is_reserved": 0, "rental_uris": {"android": "https://dc.lft.to/lastmile_qr_scan", "ios": "https://dc.lft.to/lastmile_qr_scan"}, "fusion_lon": 0.0}, {"lat": 38.9098505, "is_disabled": 0, "type": "electric_scooter", "lon": -77.0226735, "bike_id": "c0ce21f071cfbc84c8442f88951ce687", "fusion_lat": 0.0, "name": "c0ce21f071cfbc84c8442f88951ce687", "is_reserved": 0, "rental_uris": {"android": "https://dc.lft.to/lastmile_qr_scan", "ios": "https://dc.lft.to/lastmile_qr_scan"}, "fusion_lon": 0.0}, {"lat": 38.93490233333333, "is_disabled": 0, "type": "electric_bike", "lon": -77.03015983333333, "bike_id": "5f6d0668e5bc2275d6d2e92e124e5d81", "fusion_lat": 0.0, "name": "5f6d0668e5bc2275d6d2e92e124e5d81", "is_reserved": 0, "rental_uris": {"android": "https://dc.lft.to/lastmile_qr_scan", "ios": "https://dc.lft.to/lastmile_qr_scan"}, "fusion_lon": 0.0}, {"lat": 38.89279166666667, "is_disabled": 0, "type": "electric_scooter", "lon": -77.05031416666667, "bike_id": "476b18caff0d76c25f9397d6b3093780", "fusion_lat": 0.0, "name": "476b18caff0d76c25f9397d6b3093780", "is_reserved": 0, "rental_uris": {"android": "https://dc.lft.to/lastmile_qr_scan", "ios": "https://dc.lft.to/lastmile_qr_scan"}, "fusion_lon": 0.0}, {"lat": 38.8462705, "is_disabled": 0, "type": "electric_bike", "lon": -77.06937066666667, "bike_id": "b656ba14eebc04583aa0771d939820cb", "fusion_lat": 0.0, "name": "b656ba14eebc04583aa0771d939820cb", "is_reserved": 0, "rental_uris": {"android": "https://dc.lft.to/lastmile_qr_scan", "ios": "https://dc.lft.to/lastmile_qr_scan"}, "fusion_lon": 0.0}, {"lat": 38.92413583333333, "is_disabled": 0, "type": "electric_scooter", "lon": -77.0297425, "bike_id": "74ccd842fad8d9b3e1d479a7525560c5", "fusion_lat": 0.0, "name": "74ccd842fad8d9b3e1d479a7525560c5", "is_reserved": 0, "rental_uris": {"android": "https://dc.lft.to/lastmile_qr_scan", "ios": "https://dc.lft.to/lastmile_qr_scan"}, "fusion_lon": 0.0}, {"lat": 38.918611, "is_disabled": 0, "type": "electric_scooter", "lon": -76.965513, "bike_id": "099ba9bcfbf1faa6790e8272d38407c0", "fusion_lat": 0.0, "name": "099ba9bcfbf1faa6790e8272d38407c0", "is_reserved": 0, "rental_uris": {"android": "https://dc.lft.to/lastmile_qr_scan", "ios": "https://dc.lft.to/lastmile_qr_scan"}, "fusion_lon": 0.0}, {"lat": 38.9184065, "is_disabled": 0, "type": "electric_scooter", "lon": -76.96539433333334, "bike_id": "53029caa189850ac206ca313a1e35a6c", "fusion_lat": 0.0, "name": "53029caa189850ac206ca313a1e35a6c", "is_reserved": 0, "rental_uris": {"android": "https://dc.lft.to/lastmile_qr_scan", "ios": "https://dc.lft.to/lastmile_qr_scan"}, "fusion_lon": 0.0}, {"lat": 38.9238, "is_disabled": 0, "type": "electric_scooter", "lon": -77.030746, "bike_id": "9ee94a4abd95f96a0718e3aa968d9e1b", "fusion_lat": 0.0, "name": "9ee94a4abd95f96a0718e3aa968d9e1b", "is_reserved": 0, "rental_uris": {"android": "https://dc.lft.to/lastmile_qr_scan", "ios": "https://dc.lft.to/lastmile_qr_scan"}, "fusion_lon": 0.0}, {"lat": 38.929744166666666, "is_disabled": 0, "type": "electric_scooter", "lon": -77.03206966666667, "bike_id": "2843276c89d470ba738f7588245bd00a", "fusion_lat": 0.0, "name": "2843276c89d470ba738f7588245bd00a", "is_reserved": 0, "rental_uris": {"android": "https://dc.lft.to/lastmile_qr_scan", "ios": "https://dc.lft.to/lastmile_qr_scan"}, "fusion_lon": 0.0}, {"lat": 38.92312016666666, "is_disabled": 0, "type": "electric_bike", "lon": -77.03664766666667, "bike_id": "c053c9caa904d467389887e846d6fcb0", "fusion_lat": 0.0, "name": "c053c9caa904d467389887e846d6fcb0", "is_reserved": 0, "rental_uris": {"android": "https://dc.lft.to/lastmile_qr_scan", "ios": "https://dc.lft.to/lastmile_qr_scan"}, "fusion_lon": 0.0}, {"lat": 38.9171485, "is_disabled": 0, "type": "electric_scooter", "lon": -77.03463233333333, "bike_id": "037f2762d5149df48aeb7ed7a3f983ed", "fusion_lat": 0.0, "name": "037f2762d5149df48aeb7ed7a3f983ed", "is_reserved": 0, "rental_uris": {"android": "https://dc.lft.to/lastmile_qr_scan", "ios": "https://dc.lft.to/lastmile_qr_scan"}, "fusion_lon": 0.0}, {"lat": 38.89504633333333, "is_disabled": 0, "type": "electric_scooter", "lon": -77.02747033333333, "bike_id": "08b0ae5bd0397041b3909a6db08acf7c", "fusion_lat": 0.0, "name": "08b0ae5bd0397041b3909a6db08acf7c", "is_reserved": 0, "rental_uris": {"android": "https://dc.lft.to/lastmile_qr_scan", "ios": "https://dc.lft.to/lastmile_qr_scan"}, "fusion_lon": 0.0}, {"lat": 39.09438516666667, "is_disabled": 0, "type": "electric_bike", "lon": -77.13458716666666, "bike_id": "0c8d9cf97d9443ec37c2a18ea0283cd7", "fusion_lat": 0.0, "name": "0c8d9cf97d9443ec37c2a18ea0283cd7", "is_reserved": 0, "rental_uris": {"android": "https://dc.lft.to/lastmile_qr_scan", "ios": "https://dc.lft.to/lastmile_qr_scan"}, "fusion_lon": 0.0}, {"lat": 38.8628445, "is_disabled": 0, "type": "electric_scooter", "lon": -76.99237033333333, "bike_id": "64682e9827c2f0a4046664284c02ce29", "fusion_lat": 0.0, "name": "64682e9827c2f0a4046664284c02ce29", "is_reserved": 0, "rental_uris": {"android": "https://dc.lft.to/lastmile_qr_scan", "ios": "https://dc.lft.to/lastmile_qr_scan"}, "fusion_lon": 0.0}, {"lat": 38.939503333333334, "is_disabled": 0, "type": "electric_scooter", "lon": -77.02185033333333, "bike_id": "bf06fec9df781676ea3b1b6c1f92b254", "fusion_lat": 0.0, "name": "bf06fec9df781676ea3b1b6c1f92b254", "is_reserved": 0, "rental_uris": {"android": "https://dc.lft.to/lastmile_qr_scan", "ios": "https://dc.lft.to/lastmile_qr_scan"}, "fusion_lon": 0.0}, {"lat": 38.898459333333335, "is_disabled": 0, "type": "electric_scooter", "lon": -76.94475666666666, "bike_id": "1b66ba06180d1f3a9c2e0179043abd2c", "fusion_lat": 0.0, "name": "1b66ba06180d1f3a9c2e0179043abd2c", "is_reserved": 0, "rental_uris": {"android": "https://dc.lft.to/lastmile_qr_scan", "ios": "https://dc.lft.to/lastmile_qr_scan"}, "fusion_lon": 0.0}, {"lat": 38.924428, "is_disabled": 0, "type": "electric_scooter", "lon": -77.03376083333333, "bike_id": "f91a4d926bb89fd2cbe57f7f18d1ab48", "fusion_lat": 0.0, "name": "f91a4d926bb89fd2cbe57f7f18d1ab48", "is_reserved": 0, "rental_uris": {"android": "https://dc.lft.to/lastmile_qr_scan", "ios": "https://dc.lft.to/lastmile_qr_scan"}, "fusion_lon": 0.0}, {"lat": 38.92333283333333, "is_disabled": 0, "type": "electric_scooter", "lon": -77.04451383333334, "bike_id": "f078382db5aaf9e5649d0b003218488c", "fusion_lat": 0.0, "name": "f078382db5aaf9e5649d0b003218488c", "is_reserved": 0, "rental_uris": {"android": "https://dc.lft.to/lastmile_qr_scan", "ios": "https://dc.lft.to/lastmile_qr_scan"}, "fusion_lon": 0.0}, {"lat": 38.91984166666667, "is_disabled": 0, "type": "electric_scooter", "lon": -77.04102883333333, "bike_id": "011823e56c575f908ae5094f3d5bbaac", "fusion_lat": 0.0, "name": "011823e56c575f908ae5094f3d5bbaac", "is_reserved": 0, "rental_uris": {"android": "https://dc.lft.to/lastmile_qr_scan", "ios": "https://dc.lft.to/lastmile_qr_scan"}, "fusion_lon": 0.0}, {"lat": 38.94125116666667, "is_disabled": 0, "type": "electric_bike", "lon": -76.99627583333333, "bike_id": "94c7098ae29a82fbf90155563b8457c4", "fusion_lat": 0.0, "name": "94c7098ae29a82fbf90155563b8457c4", "is_reserved": 0, "rental_uris": {"android": "https://dc.lft.to/lastmile_qr_scan", "ios": "https://dc.lft.to/lastmile_qr_scan"}, "fusion_lon": 0.0}, {"lat": 38.89516883333334, "is_disabled": 0, "type": "electric_scooter", "lon": -77.04367366666666, "bike_id": "7e18e0cb446aa2a9403d7267d6f746e5", "fusion_lat": 0.0, "name": "7e18e0cb446aa2a9403d7267d6f746e5", "is_reserved": 0, "rental_uris": {"android": "https://dc.lft.to/lastmile_qr_scan", "ios": "https://dc.lft.to/lastmile_qr_scan"}, "fusion_lon": 0.0}, {"lat": 38.90676666666667, "is_disabled": 0, "type": "electric_scooter", "lon": -77.03636016666667, "bike_id": "5008f0e972d6d492b92bb6afdbbe89cd", "fusion_lat": 0.0, "name": "5008f0e972d6d492b92bb6afdbbe89cd", "is_reserved": 0, "rental_uris": {"android": "https://dc.lft.to/lastmile_qr_scan", "ios": "https://dc.lft.to/lastmile_qr_scan"}, "fusion_lon": 0.0}, {"lat": 38.9095305, "is_disabled": 0, "type": "electric_scooter", "lon": -77.0467855, "bike_id": "f57bafd5039fee01b8287b33723397fa", "fusion_lat": 0.0, "name": "f57bafd5039fee01b8287b33723397fa", "is_reserved": 0, "rental_uris": {"android": "https://dc.lft.to/lastmile_qr_scan", "ios": "https://dc.lft.to/lastmile_qr_scan"}, "fusion_lon": 0.0}, {"lat": 38.89222216666667, "is_disabled": 0, "type": "electric_scooter", "lon": -77.03976716666666, "bike_id": "2bff6d6fa7e5c6e5a3aa0f30e81e41c5", "fusion_lat": 0.0, "name": "2bff6d6fa7e5c6e5a3aa0f30e81e41c5", "is_reserved": 0, "rental_uris": {"android": "https://dc.lft.to/lastmile_qr_scan", "ios": "https://dc.lft.to/lastmile_qr_scan"}, "fusion_lon": 0.0}, {"lat": 38.91708833333333, "is_disabled": 0, "type": "electric_scooter", "lon": -77.0309935, "bike_id": "79b06feec80aebd346d2e98c217e3f85", "fusion_lat": 0.0, "name": "79b06feec80aebd346d2e98c217e3f85", "is_reserved": 0, "rental_uris": {"android": "https://dc.lft.to/lastmile_qr_scan", "ios": "https://dc.lft.to/lastmile_qr_scan"}, "fusion_lon": 0.0}, {"lat": 38.88742, "is_disabled": 0, "type": "electric_scooter", "lon": -77.020672, "bike_id": "414c9ee95399e19115f0df385efe5910", "fusion_lat": 0.0, "name": "414c9ee95399e19115f0df385efe5910", "is_reserved": 0, "rental_uris": {"android": "https://dc.lft.to/lastmile_qr_scan", "ios": "https://dc.lft.to/lastmile_qr_scan"}, "fusion_lon": 0.0}, {"lat": 38.920354, "is_disabled": 0, "type": "electric_scooter", "lon": -76.97804133333334, "bike_id": "cf26230e4ca49f098f6b5c9ff83f0032", "fusion_lat": 0.0, "name": "cf26230e4ca49f098f6b5c9ff83f0032", "is_reserved": 0, "rental_uris": {"android": "https://dc.lft.to/lastmile_qr_scan", "ios": "https://dc.lft.to/lastmile_qr_scan"}, "fusion_lon": 0.0}, {"lat": 38.86712266666667, "is_disabled": 0, "type": "electric_scooter", "lon": -76.98728533333333, "bike_id": "bca07923bd32d5d2f45834bb6529a51d", "fusion_lat": 0.0, "name": "bca07923bd32d5d2f45834bb6529a51d", "is_reserved": 0, "rental_uris": {"android": "https://dc.lft.to/lastmile_qr_scan", "ios": "https://dc.lft.to/lastmile_qr_scan"}, "fusion_lon": 0.0}, {"lat": 38.944396833333336, "is_disabled": 0, "type": "electric_scooter", "lon": -77.06408116666667, "bike_id": "3312f9b7bfd229d78e9f8857cf13e3c2", "fusion_lat": 0.0, "name": "3312f9b7bfd229d78e9f8857cf13e3c2", "is_reserved": 0, "rental_uris": {"android": "https://dc.lft.to/lastmile_qr_scan", "ios": "https://dc.lft.to/lastmile_qr_scan"}, "fusion_lon": 0.0}, {"lat": 38.91867966666667, "is_disabled": 0, "type": "electric_scooter", "lon": -76.96552716666666, "bike_id": "3af3c958e0010b7af23f0cde84ac2ccf", "fusion_lat": 0.0, "name": "3af3c958e0010b7af23f0cde84ac2ccf", "is_reserved": 0, "rental_uris": {"android": "https://dc.lft.to/lastmile_qr_scan", "ios": "https://dc.lft.to/lastmile_qr_scan"}, "fusion_lon": 0.0}, {"lat": 38.895544, "is_disabled": 0, "type": "electric_scooter", "lon": -76.933737, "bike_id": "a4a06e4326057e3fc43f7b40843de012", "fusion_lat": 0.0, "name": "a4a06e4326057e3fc43f7b40843de012", "is_reserved": 0, "rental_uris": {"android": "https://dc.lft.to/lastmile_qr_scan", "ios": "https://dc.lft.to/lastmile_qr_scan"}, "fusion_lon": 0.0}, {"lat": 38.9185945, "is_disabled": 0, "type": "electric_scooter", "lon": -76.96551416666667, "bike_id": "ce3fc3e3d4e59fc5ef90c32039b58461", "fusion_lat": 0.0, "name": "ce3fc3e3d4e59fc5ef90c32039b58461", "is_reserved": 0, "rental_uris": {"android": "https://dc.lft.to/lastmile_qr_scan", "ios": "https://dc.lft.to/lastmile_qr_scan"}, "fusion_lon": 0.0}, {"lat": 38.91967316666667, "is_disabled": 0, "type": "electric_scooter", "lon": -77.03963, "bike_id": "104d4d83da920655f363960bcf2a2886", "fusion_lat": 0.0, "name": "104d4d83da920655f363960bcf2a2886", "is_reserved": 0, "rental_uris": {"android": "https://dc.lft.to/lastmile_qr_scan", "ios": "https://dc.lft.to/lastmile_qr_scan"}, "fusion_lon": 0.0}, {"lat": 38.905097, "is_disabled": 0, "type": "electric_scooter", "lon": -77.03482616666666, "bike_id": "80baa9ebfd362a31807709816c709523", "fusion_lat": 0.0, "name": "80baa9ebfd362a31807709816c709523", "is_reserved": 0, "rental_uris": {"android": "https://dc.lft.to/lastmile_qr_scan", "ios": "https://dc.lft.to/lastmile_qr_scan"}, "fusion_lon": 0.0}, {"lat": 38.90471216666667, "is_disabled": 0, "type": "electric_scooter", "lon": -77.00783583333333, "bike_id": "9bbc6abb0157c1129dec88058d04cd62", "fusion_lat": 0.0, "name": "9bbc6abb0157c1129dec88058d04cd62", "is_reserved": 0, "rental_uris": {"android": "https://dc.lft.to/lastmile_qr_scan", "ios": "https://dc.lft.to/lastmile_qr_scan"}, "fusion_lon": 0.0}, {"lat": 38.79305566666667, "is_disabled": 0, "type": "electric_bike", "lon": -77.049265, "bike_id": "e66ef3cfc13d8f916a40375e56c26970", "fusion_lat": 0.0, "name": "e66ef3cfc13d8f916a40375e56c26970", "is_reserved": 0, "rental_uris": {"android": "https://dc.lft.to/lastmile_qr_scan", "ios": "https://dc.lft.to/lastmile_qr_scan"}, "fusion_lon": 0.0}, {"lat": 38.902037666666665, "is_disabled": 0, "type": "electric_scooter", "lon": -76.98848966666667, "bike_id": "4956deae3d504c37ef9f5bbf7c877697", "fusion_lat": 0.0, "name": "4956deae3d504c37ef9f5bbf7c877697", "is_reserved": 0, "rental_uris": {"android": "https://dc.lft.to/lastmile_qr_scan", "ios": "https://dc.lft.to/lastmile_qr_scan"}, "fusion_lon": 0.0}, {"lat": 38.92466666666667, "is_disabled": 0, "type": "electric_scooter", "lon": -77.05236883333333, "bike_id": "6e129738950bbfa202ec796c34ce8fc6", "fusion_lat": 0.0, "name": "6e129738950bbfa202ec796c34ce8fc6", "is_reserved": 0, "rental_uris": {"android": "https://dc.lft.to/lastmile_qr_scan", "ios": "https://dc.lft.to/lastmile_qr_scan"}, "fusion_lon": 0.0}, {"lat": 38.920131166666664, "is_disabled": 0, "type": "electric_scooter", "lon": -77.0194375, "bike_id": "d5109b107d4b62a81bbf4077726d0abc", "fusion_lat": 0.0, "name": "d5109b107d4b62a81bbf4077726d0abc", "is_reserved": 0, "rental_uris": {"android": "https://dc.lft.to/lastmile_qr_scan", "ios": "https://dc.lft.to/lastmile_qr_scan"}, "fusion_lon": 0.0}, {"lat": 38.90456133333333, "is_disabled": 0, "type": "electric_scooter", "lon": -77.01772416666667, "bike_id": "22067c6e34c99d8f8e8b6fce36c8eae1", "fusion_lat": 0.0, "name": "22067c6e34c99d8f8e8b6fce36c8eae1", "is_reserved": 0, "rental_uris": {"android": "https://dc.lft.to/lastmile_qr_scan", "ios": "https://dc.lft.to/lastmile_qr_scan"}, "fusion_lon": 0.0}, {"lat": 38.9043045, "is_disabled": 0, "type": "electric_scooter", "lon": -77.0434855, "bike_id": "26bda4bfc881493bd1d67d97cbb931b0", "fusion_lat": 0.0, "name": "26bda4bfc881493bd1d67d97cbb931b0", "is_reserved": 0, "rental_uris": {"android": "https://dc.lft.to/lastmile_qr_scan", "ios": "https://dc.lft.to/lastmile_qr_scan"}, "fusion_lon": 0.0}, {"lat": 38.88029016666667, "is_disabled": 0, "type": "electric_scooter", "lon": -76.931293, "bike_id": "0a07c2c23cb03129fc092e6ffc7fdd68", "fusion_lat": 0.0, "name": "0a07c2c23cb03129fc092e6ffc7fdd68", "is_reserved": 0, "rental_uris": {"android": "https://dc.lft.to/lastmile_qr_scan", "ios": "https://dc.lft.to/lastmile_qr_scan"}, "fusion_lon": 0.0}, {"lat": 38.9036265, "is_disabled": 0, "type": "electric_scooter", "lon": -76.97655266666666, "bike_id": "ad19e2cc6ca1b60759a5fe7b217eb985", "fusion_lat": 0.0, "name": "ad19e2cc6ca1b60759a5fe7b217eb985", "is_reserved": 0, "rental_uris": {"android": "https://dc.lft.to/lastmile_qr_scan", "ios": "https://dc.lft.to/lastmile_qr_scan"}, "fusion_lon": 0.0}, {"lat": 38.92662416666667, "is_disabled": 0, "type": "electric_scooter", "lon": -77.05606616666667, "bike_id": "8d840717cbe611a2f7edd7375874ee8c", "fusion_lat": 0.0, "name": "8d840717cbe611a2f7edd7375874ee8c", "is_reserved": 0, "rental_uris": {"android": "https://dc.lft.to/lastmile_qr_scan", "ios": "https://dc.lft.to/lastmile_qr_scan"}, "fusion_lon": 0.0}, {"lat": 38.9141095, "is_disabled": 0, "type": "electric_scooter", "lon": -77.0407075, "bike_id": "ecb8894de4775e70b0f9ef864da5b469", "fusion_lat": 0.0, "name": "ecb8894de4775e70b0f9ef864da5b469", "is_reserved": 0, "rental_uris": {"android": "https://dc.lft.to/lastmile_qr_scan", "ios": "https://dc.lft.to/lastmile_qr_scan"}, "fusion_lon": 0.0}, {"lat": 38.92581916666666, "is_disabled": 0, "type": "electric_scooter", "lon": -77.05755366666666, "bike_id": "fca8e51bd754ee565e3d307b5f177683", "fusion_lat": 0.0, "name": "fca8e51bd754ee565e3d307b5f177683", "is_reserved": 0, "rental_uris": {"android": "https://dc.lft.to/lastmile_qr_scan", "ios": "https://dc.lft.to/lastmile_qr_scan"}, "fusion_lon": 0.0}, {"lat": 38.928930666666666, "is_disabled": 0, "type": "electric_scooter", "lon": -77.03327466666667, "bike_id": "b47e06c0561bfd408f6331caca961cfc", "fusion_lat": 0.0, "name": "b47e06c0561bfd408f6331caca961cfc", "is_reserved": 0, "rental_uris": {"android": "https://dc.lft.to/lastmile_qr_scan", "ios": "https://dc.lft.to/lastmile_qr_scan"}, "fusion_lon": 0.0}, {"lat": 38.8787725, "is_disabled": 0, "type": "electric_scooter", "lon": -77.0231565, "bike_id": "2a46a5b0992f848cf89e929a8ce4f224", "fusion_lat": 0.0, "name": "2a46a5b0992f848cf89e929a8ce4f224", "is_reserved": 0, "rental_uris": {"android": "https://dc.lft.to/lastmile_qr_scan", "ios": "https://dc.lft.to/lastmile_qr_scan"}, "fusion_lon": 0.0}, {"lat": 38.876236166666665, "is_disabled": 0, "type": "electric_scooter", "lon": -77.01483133333333, "bike_id": "4d264c021a5f891b0441ad02ff7ef4e8", "fusion_lat": 0.0, "name": "4d264c021a5f891b0441ad02ff7ef4e8", "is_reserved": 0, "rental_uris": {"android": "https://dc.lft.to/lastmile_qr_scan", "ios": "https://dc.lft.to/lastmile_qr_scan"}, "fusion_lon": 0.0}, {"lat": 38.9030875, "is_disabled": 0, "type": "electric_scooter", "lon": -77.02057216666667, "bike_id": "908013b0dd52bd11e05a13f18ab9a986", "fusion_lat": 0.0, "name": "908013b0dd52bd11e05a13f18ab9a986", "is_reserved": 0, "rental_uris": {"android": "https://dc.lft.to/lastmile_qr_scan", "ios": "https://dc.lft.to/lastmile_qr_scan"}, "fusion_lon": 0.0}, {"lat": 38.8843955, "is_disabled": 0, "type": "electric_scooter", "lon": -77.03037666666667, "bike_id": "e40d80de301b656492e7d53ae1a630ce", "fusion_lat": 0.0, "name": "e40d80de301b656492e7d53ae1a630ce", "is_reserved": 0, "rental_uris": {"android": "https://dc.lft.to/lastmile_qr_scan", "ios": "https://dc.lft.to/lastmile_qr_scan"}, "fusion_lon": 0.0}, {"lat": 38.92280516666667, "is_disabled": 0, "type": "electric_scooter", "lon": -77.0297415, "bike_id": "46b299bf0da8b72d54606d87d8ebaed3", "fusion_lat": 0.0, "name": "46b299bf0da8b72d54606d87d8ebaed3", "is_reserved": 0, "rental_uris": {"android": "https://dc.lft.to/lastmile_qr_scan", "ios": "https://dc.lft.to/lastmile_qr_scan"}, "fusion_lon": 0.0}, {"lat": 38.928976166666665, "is_disabled": 0, "type": "electric_scooter", "lon": -77.07447, "bike_id": "8085e8e9f2d0d66250fdf3e9f2762a80", "fusion_lat": 0.0, "name": "8085e8e9f2d0d66250fdf3e9f2762a80", "is_reserved": 0, "rental_uris": {"android": "https://dc.lft.to/lastmile_qr_scan", "ios": "https://dc.lft.to/lastmile_qr_scan"}, "fusion_lon": 0.0}, {"lat": 38.91921166666667, "is_disabled": 0, "type": "electric_scooter", "lon": -77.01296783333333, "bike_id": "6a2f56fb7148bc25c82bf54b5bbded85", "fusion_lat": 0.0, "name": "6a2f56fb7148bc25c82bf54b5bbded85", "is_reserved": 0, "rental_uris": {"android": "https://dc.lft.to/lastmile_qr_scan", "ios": "https://dc.lft.to/lastmile_qr_scan"}, "fusion_lon": 0.0}, {"lat": 38.897694333333334, "is_disabled": 0, "type": "electric_bike", "lon": -76.9043825, "bike_id": "12e859f6e7d62db3b9bfb37fef527361", "fusion_lat": 0.0, "name": "12e859f6e7d62db3b9bfb37fef527361", "is_reserved": 0, "rental_uris": {"android": "https://dc.lft.to/lastmile_qr_scan", "ios": "https://dc.lft.to/lastmile_qr_scan"}, "fusion_lon": 0.0}, {"lat": 38.885154, "is_disabled": 0, "type": "electric_scooter", "lon": -77.002721, "bike_id": "43f6872741194242932c2e3246f86155", "fusion_lat": 0.0, "name": "43f6872741194242932c2e3246f86155", "is_reserved": 0, "rental_uris": {"android": "https://dc.lft.to/lastmile_qr_scan", "ios": "https://dc.lft.to/lastmile_qr_scan"}, "fusion_lon": 0.0},