{"data": {"bikes": [{"rental_uris": {"ios": "https://dc.lft.to/lastmile_qr_scan", "android": "https://dc.lft.to/lastmile_qr_scan"}, "lon": -77.0592395, "type": "electric_scooter", "fusion_lat": 0.0, "lat": 38.909583, "name": "0e87b3dc65d34644d4668c5fabbbf92f", "fusion_lon": 0.0, "bike_id": "0e87b3dc65d34644d4668c5fabbbf92f", "is_disabled": 0, "is_reserved": 0}, {"rental_uris": {"ios": "https://dc.lft.to/lastmile_qr_scan", "android": "https://dc.lft.to/lastmile_qr_scan"}, "lon": -76.990031, "type": "electric_scooter", "fusion_lat": 0.0, "lat": 38.903870166666664, "name": "ff62de7bd20c3dccd7f35488fe51c4e2", "fusion_lon": 0.0, "bike_id": "ff62de7bd20c3dccd7f35488fe51c4e2", "is_disabled": 0, "is_reserved": 0}, {"rental_uris": {"ios": "https://dc.lft.to/lastmile_qr_scan", "android": "https://dc.lft.to/lastmile_qr_scan"}, "lon": -77.035638, "type": "electric_scooter", "fusion_lat": 0.0, "lat": 38.927473666666664, "name": "8c2eb8d87eb5c6cc28d2dbd96288f26d", "fusion_lon": 0.0, "bike_id": "8c2eb8d87eb5c6cc28d2dbd96288f26d", "is_disabled": 0, "is_reserved": 0}, {"rental_uris": {"ios": "https://dc.lft.to/lastmile_qr_scan", "android": "https://dc.lft.to/lastmile_qr_scan"}, "lon": -77.01018166666667, "type": "electric_scooter", "fusion_lat": 0.0, "lat": 38.91810316666667, "name": "a0efada054712a2f3947f865bd26413f", "fusion_lon": 0.0, "bike_id": "a0efada054712a2f3947f865bd26413f", "is_disabled": 0, "is_reserved": 0}, {"rental_uris": {"ios": "https://dc.lft.to/lastmile_qr_scan", "android": "https://dc.lft.to/lastmile_qr_scan"}, "lon": -77.03516633333334, "type": "electric_scooter", "fusion_lat": 0.0, "lat": 38.93594683333333, "name": "6805f9358f88d8eae30a964b8a1e2669", "fusion_lon": 0.0, "bike_id": "6805f9358f88d8eae30a964b8a1e2669", "is_disabled": 0, "is_reserved": 0}, {"rental_uris": {"ios": "https://dc.lft.to/lastmile_qr_scan", "android": "https://dc.lft.to/lastmile_qr_scan"}, "lon": -77.0506855, "type": "electric_bike", "fusion_lat": 0.0, "lat": 39.061312, "name": "1a09ea3048f520b2a315b835bf77bc54", "fusion_lon": 0.0, "bike_id": "1a09ea3048f520b2a315b835bf77bc54", "is_disabled": 0, "is_reserved": 0}, {"rental_uris": {"ios": "https://dc.lft.to/lastmile_qr_scan", "android": "https://dc.lft.to/lastmile_qr_scan"}, "lon": -77.01995216666667, "type": "electric_scooter", "fusion_lat": 0.0, "lat": 38.93778833333333, "name": "4956fd4e022046a8c1f74a3c84531b1f", "fusion_lon": 0.0, "bike_id": "4956fd4e022046a8c1f74a3c84531b1f", "is_disabled": 0, "is_reserved": 0}, {"rental_uris": {"ios": "https://dc.lft.to/lastmile_qr_scan", "android": "https://dc.lft.to/lastmile_qr_scan"}, "lon": -77.028423, "type": "electric_scooter", "fusion_lat": 0.0, "lat": 38.92857633333333, "name": "b06cf845cda070f89bd1f51e7af05968", "fusion_lon": 0.0, "bike_id": "b06cf845cda070f89bd1f51e7af05968", "is_disabled": 0, "is_reserved": 0}, {"rental_uris": {"ios": "https://dc.lft.to/lastmile_qr_scan", "android": "https://dc.lft.to/lastmile_qr_scan"}, "lon": -77.0326955, "type": "electric_scooter", "fusion_lat": 0.0, "lat": 38.92544216666667, "name": "d32a1771e4e8a18e7818c465eef55a0e", "fusion_lon": 0.0, "bike_id": "d32a1771e4e8a18e7818c465eef55a0e", "is_disabled": 0, "is_reserved": 0}, {"rental_uris": {"ios": "https://dc.lft.to/lastmile_qr_scan", "android": "https://dc.lft.to/lastmile_qr_scan"}, "lon": -77.0403235, "type": "electric_scooter", "fusion_lat": 0.0, "lat": 38.918047, "name": "c572cefb4d57e8f28cad7859eb6c1577", "fusion_lon": 0.0, "bike_id": "c572cefb4d57e8f28cad7859eb6c1577", "is_disabled": 0, "is_reserved": 0}, {"rental_uris": {"ios": "https://dc.lft.to/lastmile_qr_scan", "android": "https://dc.lft.to/lastmile_qr_scan"}, "lon": -77.0919585, "type": "electric_scooter", "fusion_lat": 0.0, "lat": 38.91367566666667, "name": "f0bac121bd63f899da12a6292cb8dde4", "fusion_lon": 0.0, "bike_id": "f0bac121bd63f899da12a6292cb8dde4", "is_disabled": 0, "is_reserved": 0}, {"rental_uris": {"ios": "https://dc.lft.to/lastmile_qr_scan", "android": "https://dc.lft.to/lastmile_qr_scan"}, "lon": -77.03466116666667, "type": "electric_scooter", "fusion_lat": 0.0, "lat": 38.91686283333333, "name": "5ced22a2a321b5d493c1027f9e5c3a83", "fusion_lon": 0.0, "bike_id": "5ced22a2a321b5d493c1027f9e5c3a83", "is_disabled": 0, "is_reserved": 0}, {"rental_uris": {"ios": "https://dc.lft.to/lastmile_qr_scan", "android": "https://dc.lft.to/lastmile_qr_scan"}, "lon": -77.006121, "type": "electric_bike", "fusion_lat": 0.0, "lat": 38.905901666666665, "name": "9cace221879ef8779e04c552ca68c3f3", "fusion_lon": 0.0, "bike_id": "9cace221879ef8779e04c552ca68c3f3", "is_disabled": 0, "is_reserved": 0}, {"rental_uris": {"ios": "https://dc.lft.to/lastmile_qr_scan", "android": "https://dc.lft.to/lastmile_qr_scan"}, "lon": -77.0467145, "type": "electric_scooter", "fusion_lat": 0.0, "lat": 38.914786666666664, "name": "9a6f873914267167a21426d889e34ea2", "fusion_lon": 0.0, "bike_id": "9a6f873914267167a21426d889e34ea2", "is_disabled": 0, "is_reserved": 0}, {"rental_uris": {"ios": "https://dc.lft.to/lastmile_qr_scan", "android": "https://dc.lft.to/lastmile_qr_scan"}, "lon": -77.10682966666667, "type": "electric_bike", "fusion_lat": 0.0, "lat": 38.93581366666667, "name": "3c764b4ff6f072ea784935eb137cd938", "fusion_lon": 0.0, "bike_id": "3c764b4ff6f072ea784935eb137cd938", "is_disabled": 0, "is_reserved": 0}, {"rental_uris": {"ios": "https://dc.lft.to/lastmile_qr_scan", "android": "https://dc.lft.to/lastmile_qr_scan"}, "lon": -77.03508583333333, "type": "electric_scooter", "fusion_lat": 0.0, "lat": 38.921562333333334, "name": "f15376c66c01957e9b7a8db13a89c883", "fusion_lon": 0.0, "bike_id": "f15376c66c01957e9b7a8db13a89c883", "is_disabled": 0, "is_reserved": 0}, {"rental_uris": {"ios": "https://dc.lft.to/lastmile_qr_scan", "android": "https://dc.lft.to/lastmile_qr_scan"}, "lon": -76.948802, "type": "electric_scooter", "fusion_lat": 0.0, "lat": 38.895033166666664, "name": "698ffb6ccf5b3beae8f6aaac29df5a85", "fusion_lon": 0.0, "bike_id": "698ffb6ccf5b3beae8f6aaac29df5a85", "is_disabled": 0, "is_reserved": 0}, {"rental_uris": {"ios": "https://dc.lft.to/lastmile_qr_scan", "android": "https://dc.lft.to/lastmile_qr_scan"}, "lon": -77.02960766666666, "type": "electric_scooter", "fusion_lat": 0.0, "lat": 38.90529, "name": "450fc7c22d8435b29a11d94f43cab86f", "fusion_lon": 0.0, "bike_id": "450fc7c22d8435b29a11d94f43cab86f", "is_disabled": 0, "is_reserved": 0}, {"rental_uris": {"ios": "https://dc.lft.to/lastmile_qr_scan", "android": "https://dc.lft.to/lastmile_qr_scan"}, "lon": -77.0065655, "type": "electric_scooter", "fusion_lat": 0.0, "lat": 38.94461666666667, "name": "9e65d056619731c729505cb2f53299c4", "fusion_lon": 0.0, "bike_id": "9e65d056619731c729505cb2f53299c4", "is_disabled": 0, "is_reserved": 0}, {"rental_uris": {"ios": "https://dc.lft.to/lastmile_qr_scan", "android": "https://dc.lft.to/lastmile_qr_scan"}, "lon": -77.0427855, "type": "electric_scooter", "fusion_lat": 0.0, "lat": 38.9028285, "name": "3cc05ab3540866567554d2ff79c3bbfa", "fusion_lon": 0.0, "bike_id": "3cc05ab3540866567554d2ff79c3bbfa", "is_disabled": 0, "is_reserved": 0}, {"rental_uris": {"ios": "https://dc.lft.to/lastmile_qr_scan", "android": "https://dc.lft.to/lastmile_qr_scan"}, "lon": -77.03190783333334, "type": "electric_scooter", "fusion_lat": 0.0, "lat": 38.91927033333333, "name": "89b4ea95726cd62e828ccb4772366b80", "fusion_lon": 0.0, "bike_id": "89b4ea95726cd62e828ccb4772366b80", "is_disabled": 0, "is_reserved": 0}, {"rental_uris": {"ios": "https://dc.lft.to/lastmile_qr_scan", "android": "https://dc.lft.to/lastmile_qr_scan"}, "lon": -77.03861666666667, "type": "electric_scooter", "fusion_lat": 0.0, "lat": 38.907734, "name": "ee419f65fd5c7498cca3d701ea9938fe", "fusion_lon": 0.0, "bike_id": "ee419f65fd5c7498cca3d701ea9938fe", "is_disabled": 0, "is_reserved": 0}, {"rental_uris": {"ios": "https://dc.lft.to/lastmile_qr_scan", "android": "https://dc.lft.to/lastmile_qr_scan"}, "lon": -77.03191766666667, "type": "electric_scooter", "fusion_lat": 0.0, "lat": 38.918010833333334, "name": "a9e78a616abc9acfb7188f4f645ac46b", "fusion_lon": 0.0, "bike_id": "a9e78a616abc9acfb7188f4f645ac46b", "is_disabled": 0, "is_reserved": 0}, {"rental_uris": {"ios": "https://dc.lft.to/lastmile_qr_scan", "android": "https://dc.lft.to/lastmile_qr_scan"}, "lon": -77.04335266666666, "type": "electric_scooter", "fusion_lat": 0.0, "lat": 38.895860666666664, "name": "b9dc133439f0a426988616a366a6e93c", "fusion_lon": 0.0, "bike_id": "b9dc133439f0a426988616a366a6e93c", "is_disabled": 0, "is_reserved": 0}, {"rental_uris": {"ios": "https://dc.lft.to/lastmile_qr_scan", "android": "https://dc.lft.to/lastmile_qr_scan"}, "lon": -77.01535133333333, "type": "electric_scooter", "fusion_lat": 0.0, "lat": 38.887306833333334, "name": "04593f51771b33a1f49ce06209ecb79e", "fusion_lon": 0.0, "bike_id": "04593f51771b33a1f49ce06209ecb79e", "is_disabled": 0, "is_reserved": 0}, {"rental_uris": {"ios": "https://dc.lft.to/lastmile_qr_scan", "android": "https://dc.lft.to/lastmile_qr_scan"}, "lon": -77.02439866666667, "type": "electric_scooter", "fusion_lat": 0.0, "lat": 38.920407833333336, "name": "f371416496f84129691f1329348632c1", "fusion_lon": 0.0, "bike_id": "f371416496f84129691f1329348632c1", "is_disabled": 0, "is_reserved": 0}, {"rental_uris": {"ios": "https://dc.lft.to/lastmile_qr_scan", "android": "https://dc.lft.to/lastmile_qr_scan"}, "lon": -76.97315433333333, "type": "electric_scooter", "fusion_lat": 0.0, "lat": 38.91786333333334, "name": "ea326379c79abd2770b7ea0f0ba11e72", "fusion_lon": 0.0, "bike_id": "ea326379c79abd2770b7ea0f0ba11e72", "is_disabled": 0, "is_reserved": 0}, {"rental_uris": {"ios": "https://dc.lft.to/lastmile_qr_scan", "android": "https://dc.lft.to/lastmile_qr_scan"}, "lon": -77.0058105, "type": "electric_scooter", "fusion_lat": 0.0, "lat": 38.84494266666667, "name": "7ad960e72f6349f83e03a96b8ceb71d8", "fusion_lon": 0.0, "bike_id": "7ad960e72f6349f83e03a96b8ceb71d8", "is_disabled": 0, "is_reserved": 0}, {"rental_uris": {"ios": "https://dc.lft.to/lastmile_qr_scan", "android": "https://dc.lft.to/lastmile_qr_scan"}, "lon": -77.0315685, "type": "electric_scooter", "fusion_lat": 0.0, "lat": 38.94537, "name": "cd23a883ee04316d53957ffd8eb5ed34", "fusion_lon": 0.0, "bike_id": "cd23a883ee04316d53957ffd8eb5ed34", "is_disabled": 0, "is_reserved": 0}, {"rental_uris": {"ios": "https://dc.lft.to/lastmile_qr_scan", "android": "https://dc.lft.to/lastmile_qr_scan"}, "lon": -77.04520233333334, "type": "electric_scooter", "fusion_lat": 0.0, "lat": 38.91287783333333, "name": "9c2f468c46066c272ee1f12c842905ca", "fusion_lon": 0.0, "bike_id": "9c2f468c46066c272ee1f12c842905ca", "is_disabled": 0, "is_reserved": 0}, {"rental_uris": {"ios": "https://dc.lft.to/lastmile_qr_scan", "android": "https://dc.lft.to/lastmile_qr_scan"}, "lon": -77.0129265, "type": "electric_bike", "fusion_lat": 0.0, "lat": 38.881265166666665, "name": "c340798c8d3227dbabbdc650700d0cbc", "fusion_lon": 0.0, "bike_id": "c340798c8d3227dbabbdc650700d0cbc", "is_disabled": 0, "is_reserved": 0}, {"rental_uris": {"ios": "https://dc.lft.to/lastmile_qr_scan", "android": "https://dc.lft.to/lastmile_qr_scan"}, "lon": -77.02432383333333, "type": "electric_scooter", "fusion_lat": 0.0, "lat": 38.902321666666666, "name": "b6c85539c6c6ba8a182cfcbf8f80d31d", "fusion_lon": 0.0, "bike_id": "b6c85539c6c6ba8a182cfcbf8f80d31d", "is_disabled": 0, "is_reserved": 0}, {"rental_uris": {"ios": "https://dc.lft.to/lastmile_qr_scan", "android": "https://dc.lft.to/lastmile_qr_scan"}, "lon": -77.043156, "type": "electric_scooter", "fusion_lat": 0.0, "lat": 38.91879933333333, "name": "ac6312c5c69482557fe44dc04c35b967", "fusion_lon": 0.0, "bike_id": "ac6312c5c69482557fe44dc04c35b967", "is_disabled": 0, "is_reserved": 0}, {"rental_uris": {"ios": "https://dc.lft.to/lastmile_qr_scan", "android": "https://dc.lft.to/lastmile_qr_scan"}, "lon": -77.01015383333333, "type": "electric_scooter", "fusion_lat": 0.0, "lat": 38.90685366666666, "name": "39879fb4db0d3738286a7cbdd6b4810e", "fusion_lon": 0.0, "bike_id": "39879fb4db0d3738286a7cbdd6b4810e", "is_disabled": 0, "is_reserved": 0}, {"rental_uris": {"ios": "https://dc.lft.to/lastmile_qr_scan", "android": "https://dc.lft.to/lastmile_qr_scan"}, "lon": -77.02452166666667, "type": "electric_scooter", "fusion_lat": 0.0, "lat": 38.9085285, "name": "a9f2c225fa117dd8c3b6ce6e80000795", "fusion_lon": 0.0, "bike_id": "a9f2c225fa117dd8c3b6ce6e80000795", "is_disabled": 0, "is_reserved": 0}, {"rental_uris": {"ios": "https://dc.lft.to/lastmile_qr_scan", "android": "https://dc.lft.to/lastmile_qr_scan"}, "lon": -77.03434516666667, "type": "electric_scooter", "fusion_lat": 0.0, "lat": 38.902848666666664, "name": "4fac5395e118ac1437dc3da6ea9fe947", "fusion_lon": 0.0, "bike_id": "4fac5395e118ac1437dc3da6ea9fe947", "is_disabled": 0, "is_reserved": 0}, {"rental_uris": {"ios": "https://dc.lft.to/lastmile_qr_scan", "android": "https://dc.lft.to/lastmile_qr_scan"}, "lon": -77.033479, "type": "electric_scooter", "fusion_lat": 0.0, "lat": 38.9171135, "name": "28ae6e94e5a0aef87d383dae58e9e869", "fusion_lon": 0.0, "bike_id": "28ae6e94e5a0aef87d383dae58e9e869", "is_disabled": 0, "is_reserved": 0}, {"rental_uris": {"ios": "https://dc.lft.to/lastmile_qr_scan", "android": "https://dc.lft.to/lastmile_qr_scan"}, "lon": -77.04578683333334, "type": "electric_scooter", "fusion_lat": 0.0, "lat": 38.921246833333335, "name": "a1de657940c287593a5a09aa74a6ca5b", "fusion_lon": 0.0, "bike_id": "a1de657940c287593a5a09aa74a6ca5b", "is_disabled": 0, "is_reserved": 0}, {"rental_uris": {"ios": "https://dc.lft.to/lastmile_qr_scan", "android": "https://dc.lft.to/lastmile_qr_scan"}, "lon": -77.02978833333333, "type": "electric_scooter", "fusion_lat": 0.0, "lat": 38.916257, "name": "df125e39e9ee05e731f7f0258d638102", "fusion_lon": 0.0, "bike_id": "df125e39e9ee05e731f7f0258d638102", "is_disabled": 0, "is_reserved": 0}, {"rental_uris": {"ios": "https://dc.lft.to/lastmile_qr_scan", "android": "https://dc.lft.to/lastmile_qr_scan"}, "lon": -77.03891533333334, "type": "electric_scooter", "fusion_lat": 0.0, "lat": 38.9183585, "name": "fa34baa545fa74693d82686ee7a0db3f", "fusion_lon": 0.0, "bike_id": "fa34baa545fa74693d82686ee7a0db3f", "is_disabled": 0, "is_reserved": 0}, {"rental_uris": {"ios": "https://dc.lft.to/lastmile_qr_scan", "android": "https://dc.lft.to/lastmile_qr_scan"}, "lon": -76.9844225, "type": "electric_scooter", "fusion_lat": 0.0, "lat": 38.9145765, "name": "983159b595a74308277c26560d2a55e6", "fusion_lon": 0.0, "bike_id": "983159b595a74308277c26560d2a55e6", "is_disabled": 0, "is_reserved": 0}, {"rental_uris": {"ios": "https://dc.lft.to/lastmile_qr_scan", "android": "https://dc.lft.to/lastmile_qr_scan"}, "lon": -77.05764333333333, "type": "electric_scooter", "fusion_lat": 0.0, "lat": 38.924612333333336, "name": "b1ae43c566d7af55347b1e34415bf97a", "fusion_lon": 0.0, "bike_id": "b1ae43c566d7af55347b1e34415bf97a", "is_disabled": 0, "is_reserved": 0}, {"rental_uris": {"ios": "https://dc.lft.to/lastmile_qr_scan", "android": "https://dc.lft.to/lastmile_qr_scan"}, "lon": -76.99791183333333, "type": "electric_scooter", "fusion_lat": 0.0, "lat": 38.9000165, "name": "e171e7bbb3c8af1edbb7b801df12033c", "fusion_lon": 0.0, "bike_id": "e171e7bbb3c8af1edbb7b801df12033c", "is_disabled": 0, "is_reserved": 0}, {"rental_uris": {"ios": "https://dc.lft.to/lastmile_qr_scan", "android": "https://dc.lft.to/lastmile_qr_scan"}, "lon": -76.9937985, "type": "electric_scooter", "fusion_lat": 0.0, "lat": 38.90041633333333, "name": "88037f0d361aade62469a9a68dfe24b1", "fusion_lon": 0.0, "bike_id": "88037f0d361aade62469a9a68dfe24b1", "is_disabled": 0, "is_reserved": 0}, {"rental_uris": {"ios": "https://dc.lft.to/lastmile_qr_scan", "android": "https://dc.lft.to/lastmile_qr_scan"}, "lon": -77.03451483333333, "type": "electric_scooter", "fusion_lat": 0.0, "lat": 38.907378666666666, "name": "b44b388f296c5c8efba040e2224bdcb2", "fusion_lon": 0.0, "bike_id": "b44b388f296c5c8efba040e2224bdcb2", "is_disabled": 0, "is_reserved": 0}, {"rental_uris": {"ios": "https://dc.lft.to/lastmile_qr_scan", "android": "https://dc.lft.to/lastmile_qr_scan"}, "lon": -77.0444685, "type": "electric_scooter", "fusion_lat": 0.0, "lat": 38.90561366666667, "name": "01af5760a72ac0e2cca79bcba4a31c93", "fusion_lon": 0.0, "bike_id": "01af5760a72ac0e2cca79bcba4a31c93", "is_disabled": 0, "is_reserved": 0}, {"rental_uris": {"ios": "https://dc.lft.to/lastmile_qr_scan", "android": "https://dc.lft.to/lastmile_qr_scan"}, "lon": -77.027164, "type": "electric_scooter", "fusion_lat": 0.0, "lat": 38.91811766666667, "name": "0383ec6e15b2d3f730c60d63ee65a2d8", "fusion_lon": 0.0, "bike_id": "0383ec6e15b2d3f730c60d63ee65a2d8", "is_disabled": 0, "is_reserved": 0}, {"rental_uris": {"ios": "https://dc.lft.to/lastmile_qr_scan", "android": "https://dc.lft.to/lastmile_qr_scan"}, "lon": -77.0246485, "type": "electric_scooter", "fusion_lat": 0.0, "lat": 38.902507666666665, "name": "fa289a303cc0d6864712fbd3ed32c156", "fusion_lon": 0.0, "bike_id": "fa289a303cc0d6864712fbd3ed32c156", "is_disabled": 0, "is_reserved": 0}, {"rental_uris": {"ios": "https://dc.lft.to/lastmile_qr_scan", "android": "https://dc.lft.to/lastmile_qr_scan"}, "lon": -77.011239, "type": "electric_scooter", "fusion_lat": 0.0, "lat": 38.911842666666665, "name": "5d25a5b3c944beae3c47cc195b48b5f8", "fusion_lon": 0.0, "bike_id": "5d25a5b3c944beae3c47cc195b48b5f8", "is_disabled": 0, "is_reserved": 0}, {"rental_uris": {"ios": "https://dc.lft.to/lastmile_qr_scan", "android": "https://dc.lft.to/lastmile_qr_scan"}, "lon": -77.05514933333333, "type": "electric_scooter", "fusion_lat": 0.0, "lat": 38.910618166666666, "name": "5ef1252b66bc903bbb68ed5ba9a354c7", "fusion_lon": 0.0, "bike_id": "5ef1252b66bc903bbb68ed5ba9a354c7", "is_disabled": 0, "is_reserved": 0}, {"rental_uris": {"ios": "https://dc.lft.to/lastmile_qr_scan", "android": "https://dc.lft.to/lastmile_qr_scan"}, "lon": -77.04865783333334, "type": "electric_scooter", "fusion_lat": 0.0, "lat": 38.90946133333333, "name": "d88716053e7e9d2da7968fab55dabbcf", "fusion_lon": 0.0, "bike_id": "d88716053e7e9d2da7968fab55dabbcf", "is_disabled": 0, "is_reserved": 0}, {"rental_uris": {"ios": "https://dc.lft.to/lastmile_qr_scan", "android": "https://dc.lft.to/lastmile_qr_scan"}, "lon": -77.02701533333334, "type": "electric_scooter", "fusion_lat": 0.0, "lat": 38.918648, "name": "035ac7ba32837ecaf622fcebf6f3e558", "fusion_lon": 0.0, "bike_id": "035ac7ba32837ecaf622fcebf6f3e558", "is_disabled": 0, "is_reserved": 0}, {"rental_uris": {"ios": "https://dc.lft.to/lastmile_qr_scan", "android": "https://dc.lft.to/lastmile_qr_scan"}, "lon": -77.02973633333333, "type": "electric_scooter", "fusion_lat": 0.0, "lat": 38.92521133333334, "name": "c360ca6dadf965071f0932ce7ca2d402", "fusion_lon": 0.0, "bike_id": "c360ca6dadf965071f0932ce7ca2d402", "is_disabled": 0, "is_reserved": 0}, {"rental_uris": {"ios": "https://dc.lft.to/lastmile_qr_scan", "android": "https://dc.lft.to/lastmile_qr_scan"}, "lon": -76.9916465, "type": "electric_scooter", "fusion_lat": 0.0, "lat": 38.89341266666667, "name": "45dd800569eb630f3db31f205680473e", "fusion_lon": 0.0, "bike_id": "45dd800569eb630f3db31f205680473e", "is_disabled": 0, "is_reserved": 0}, {"rental_uris": {"ios": "https://dc.lft.to/lastmile_qr_scan", "android": "https://dc.lft.to/lastmile_qr_scan"}, "lon": -76.89538466666667, "type": "electric_bike", "fusion_lat": 0.0, "lat": 38.9455245, "name": "0011d58542e8c0405d5ee21ab5da996b", "fusion_lon": 0.0, "bike_id": "0011d58542e8c0405d5ee21ab5da996b", "is_disabled": 0, "is_reserved": 0}, {"rental_uris": {"ios": "https://dc.lft.to/lastmile_qr_scan", "android": "https://dc.lft.to/lastmile_qr_scan"}, "lon": -77.04537233333333, "type": "electric_scooter", "fusion_lat": 0.0, "lat": 38.903803, "name": "e3086454a6acbe4f25d1d83bf1ebd37b", "fusion_lon": 0.0, "bike_id": "e3086454a6acbe4f25d1d83bf1ebd37b", "is_disabled": 0, "is_reserved": 0}, {"rental_uris": {"ios": "https://dc.lft.to/lastmile_qr_scan", "android": "https://dc.lft.to/lastmile_qr_scan"}, "lon": -77.02760933333333, "type": "electric_scooter", "fusion_lat": 0.0, "lat": 38.916949, "name": "363e84d651eb0d0963467d39bf3c2959", "fusion_lon": 0.0, "bike_id": "363e84d651eb0d0963467d39bf3c2959", "is_disabled": 0, "is_reserved": 0}, {"rental_uris": {"ios": "https://dc.lft.to/lastmile_qr_scan", "android": "https://dc.lft.to/lastmile_qr_scan"}, "lon": -77.04806183333334, "type": "electric_scooter", "fusion_lat": 0.0, "lat": 38.897289666666666, "name": "091176785d9ea2e023546a58c4bacac7", "fusion_lon": 0.0, "bike_id": "091176785d9ea2e023546a58c4bacac7", "is_disabled": 0, "is_reserved": 0}, {"rental_uris": {"ios": "https://dc.lft.to/lastmile_qr_scan", "android": "https://dc.lft.to/lastmile_qr_scan"}, "lon": -77.01223033333333, "type": "electric_scooter", "fusion_lat": 0.0, "lat": 38.92035216666667, "name": "be7a1607077f8993380cd0374abd88fe", "fusion_lon": 0.0, "bike_id": "be7a1607077f8993380cd0374abd88fe", "is_disabled": 0, "is_reserved": 0}, {"rental_uris": {"ios": "https://dc.lft.to/lastmile_qr_scan", "android": "https://dc.lft.to/lastmile_qr_scan"}, "lon": -77.02367866666667, "type": "electric_scooter", "fusion_lat": 0.0, "lat": 38.91977716666667, "name": "31465f65da6dbeeec89a3271be6316a9", "fusion_lon": 0.0, "bike_id": "31465f65da6dbeeec89a3271be6316a9", "is_disabled": 0, "is_reserved": 0}, {"rental_uris": {"ios": "https://dc.lft.to/lastmile_qr_scan", "android": "https://dc.lft.to/lastmile_qr_scan"}, "lon": -77.05089983333333, "type": "electric_scooter", "fusion_lat": 0.0, "lat": 38.9007025, "name": "55d62f4f3504e7926189131eb568edd2", "fusion_lon": 0.0, "bike_id": "55d62f4f3504e7926189131eb568edd2", "is_disabled": 0, "is_reserved": 0}, {"rental_uris": {"ios": "https://dc.lft.to/lastmile_qr_scan", "android": "https://dc.lft.to/lastmile_qr_scan"}, "lon": -77.053243, "type": "electric_scooter", "fusion_lat": 0.0, "lat": 38.902973, "name": "c9058f9bb125d0c07fdfafa67b269a53", "fusion_lon": 0.0, "bike_id": "c9058f9bb125d0c07fdfafa67b269a53", "is_disabled": 0, "is_reserved": 0}, {"rental_uris": {"ios": "https://dc.lft.to/lastmile_qr_scan", "android": "https://dc.lft.to/lastmile_qr_scan"}, "lon": -77.13177983333334, "type": "electric_bike", "fusion_lat": 0.0, "lat": 38.869074499999996, "name": "75a57b1de8ed5382d8327a67e8bd4f1b", "fusion_lon": 0.0, "bike_id": "75a57b1de8ed5382d8327a67e8bd4f1b", "is_disabled": 0, "is_reserved": 0}, {"rental_uris": {"ios": "https://dc.lft.to/lastmile_qr_scan", "android": "https://dc.lft.to/lastmile_qr_scan"}, "lon": -76.974344, "type": "electric_bike", "fusion_lat": 0.0, "lat": 38.86402, "name": "679e4a1c7febb9a4000009d114428cfe", "fusion_lon": 0.0, "bike_id": "679e4a1c7febb9a4000009d114428cfe", "is_disabled": 0, "is_reserved": 0}, {"rental_uris": {"ios": "https://dc.lft.to/lastmile_qr_scan", "android": "https://dc.lft.to/lastmile_qr_scan"}, "lon": -77.03801766666666, "type": "electric_bike", "fusion_lat": 0.0, "lat": 38.99674366666667, "name": "9aef637961aec4dfba026d142619933f", "fusion_lon": 0.0, "bike_id": "9aef637961aec4dfba026d142619933f", "is_disabled": 0, "is_reserved": 0}, {"rental_uris": {"ios": "https://dc.lft.to/lastmile_qr_scan", "android": "https://dc.lft.to/lastmile_qr_scan"}, "lon": -76.99773866666666, "type": "electric_scooter", "fusion_lat": 0.0, "lat": 38.844242, "name": "dbd715de017af15743712efcc5f231db", "fusion_lon": 0.0, "bike_id": "dbd715de017af15743712efcc5f231db", "is_disabled": 0, "is_reserved": 0}, {"rental_uris": {"ios": "https://dc.lft.to/lastmile_qr_scan", "android": "https://dc.lft.to/lastmile_qr_scan"}, "lon": -77.01523916666666, "type": "electric_scooter", "fusion_lat": 0.0, "lat": 38.898304333333336, "name": "5143ef968bf808a6da021e968614ce70", "fusion_lon": 0.0, "bike_id": "5143ef968bf808a6da021e968614ce70", "is_disabled": 0, "is_reserved": 0}, {"rental_uris": {"ios": "https://dc.lft.to/lastmile_qr_scan", "android": "https://dc.lft.to/lastmile_qr_scan"}, "lon": -77.04114, "type": "electric_scooter", "fusion_lat": 0.0, "lat": 38.906002, "name": "4a0e43cc2c77c0a4dccce0590ca1c1e8", "fusion_lon": 0.0, "bike_id": "4a0e43cc2c77c0a4dccce0590ca1c1e8", "is_disabled": 0, "is_reserved": 0}, {"rental_uris": {"ios": "https://dc.lft.to/lastmile_qr_scan", "android": "https://dc.lft.to/lastmile_qr_scan"}, "lon": -76.94985566666666, "type": "electric_scooter", "fusion_lat": 0.0, "lat": 38.89360166666667, "name": "83dedbe141bc7360de34132f6b3a8900", "fusion_lon": 0.0, "bike_id": "83dedbe141bc7360de34132f6b3a8900", "is_disabled": 0, "is_reserved": 0}, {"rental_uris": {"ios": "https://dc.lft.to/lastmile_qr_scan", "android": "https://dc.lft.to/lastmile_qr_scan"}, "lon": -77.0295615, "type": "electric_scooter", "fusion_lat": 0.0, "lat": 38.90061083333333, "name": "1d4e701a65663de281348ab4601b85fe", "fusion_lon": 0.0, "bike_id": "1d4e701a65663de281348ab4601b85fe", "is_disabled": 0, "is_reserved": 0}, {"rental_uris": {"ios": "https://dc.lft.to/lastmile_qr_scan", "android": "https://dc.lft.to/lastmile_qr_scan"}, "lon": -77.00216766666667, "type": "electric_scooter", "fusion_lat": 0.0, "lat": 38.90843666666667, "name": "96fe7ca34d8336e7552ab7da841d9386", "fusion_lon": 0.0, "bike_id": "96fe7ca34d8336e7552ab7da841d9386", "is_disabled": 0, "is_reserved": 0}, {"rental_uris": {"ios": "https://dc.lft.to/lastmile_qr_scan", "android": "https://dc.lft.to/lastmile_qr_scan"}, "lon": -77.01868516666667, "type": "electric_scooter", "fusion_lat": 0.0, "lat": 38.915752, "name": "664e6179b8fccc57716ab55b1beba168", "fusion_lon": 0.0, "bike_id": "664e6179b8fccc57716ab55b1beba168", "is_disabled": 0, "is_reserved": 0}, {"rental_uris": {"ios": "https://dc.lft.to/lastmile_qr_scan", "android": "https://dc.lft.to/lastmile_qr_scan"}, "lon": -76.95742983333334, "type": "electric_scooter", "fusion_lat": 0.0, "lat": 38.89219883333333, "name": "bb6c19ad5d6bf9cd9a725a2b2a7beae3", "fusion_lon": 0.0, "bike_id": "bb6c19ad5d6bf9cd9a725a2b2a7beae3", "is_disabled": 0, "is_reserved": 0}, {"rental_uris": {"ios": "https://dc.lft.to/lastmile_qr_scan", "android": "https://dc.lft.to/lastmile_qr_scan"}, "lon": -77.0, "type": "electric_bike", "fusion_lat": 0.0, "lat": 38.923916, "name": "e3ee89e5805bc11f03a888fee6a99a07", "fusion_lon": 0.0, "bike_id": "e3ee89e5805bc11f03a888fee6a99a07", "is_disabled": 0, "is_reserved": 0}, {"rental_uris": {"ios": "https://dc.lft.to/lastmile_qr_scan", "android": "https://dc.lft.to/lastmile_qr_scan"}, "lon": -77.03509983333333, "type": "electric_scooter", "fusion_lat": 0.0, "lat": 38.921498, "name": "f9352619bc294f815f18e42300fd16a8", "fusion_lon": 0.0, "bike_id": "f9352619bc294f815f18e42300fd16a8", "is_disabled": 0, "is_reserved": 0}, {"rental_uris": {"ios": "https://dc.lft.to/lastmile_qr_scan", "android": "https://dc.lft.to/lastmile_qr_scan"}, "lon": -77.0489065, "type": "electric_scooter", "fusion_lat": 0.0, "lat": 38.903080833333334, "name": "00c7485c9f5d177825ec9f77386f34d5", "fusion_lon": 0.0, "bike_id": "00c7485c9f5d177825ec9f77386f34d5", "is_disabled": 0, "is_reserved": 0}, {"rental_uris": {"ios": "https://dc.lft.to/lastmile_qr_scan", "android": "https://dc.lft.to/lastmile_qr_scan"}, "lon": -77.03586766666666, "type": "electric_scooter", "fusion_lat": 0.0, "lat": 38.932475, "name": "114a036867195b59756cd648c9e1dcac", "fusion_lon": 0.0, "bike_id": "114a036867195b59756cd648c9e1dcac", "is_disabled": 0, "is_reserved": 0}, {"rental_uris": {"ios": "https://dc.lft.to/lastmile_qr_scan", "android": "https://dc.lft.to/lastmile_qr_scan"}, "lon": -77.03629766666667, "type": "electric_scooter", "fusion_lat": 0.0, "lat": 38.936845166666664, "name": "ea1abe6e11cc5326441fcf30990e75df", "fusion_lon": 0.0, "bike_id": "ea1abe6e11cc5326441fcf30990e75df", "is_disabled": 0, "is_reserved": 0}, {"rental_uris": {"ios": "https://dc.lft.to/lastmile_qr_scan", "android": "https://dc.lft.to/lastmile_qr_scan"}, "lon": -77.01117183333334, "type": "electric_scooter", "fusion_lat": 0.0, "lat": 38.90361166666667, "name": "c9c09619193f19ab821902d47bda83ca", "fusion_lon": 0.0, "bike_id": "c9c09619193f19ab821902d47bda83ca", "is_disabled": 0, "is_reserved": 0}, {"rental_uris": {"ios": "https://dc.lft.to/lastmile_qr_scan", "android": "https://dc.lft.to/lastmile_qr_scan"}, "lon": -77.055313, "type": "electric_scooter", "fusion_lat": 0.0, "lat": 38.9279295, "name": "e654b045b2ee613fabdd7ffa27fb679d", "fusion_lon": 0.0, "bike_id": "e654b045b2ee613fabdd7ffa27fb679d", "is_disabled": 0, "is_reserved": 0}, {"rental_uris": {"ios": "https://dc.lft.to/lastmile_qr_scan", "android": "https://dc.lft.to/lastmile_qr_scan"}, "lon": -77.03899783333334, "type": "electric_scooter", "fusion_lat": 0.0, "lat": 38.921936333333335, "name": "1b462164ba478d23566aec6c35f5d000", "fusion_lon": 0.0, "bike_id": "1b462164ba478d23566aec6c35f5d000", "is_disabled": 0, "is_reserved": 0}, {"rental_uris": {"ios": "https://dc.lft.to/lastmile_qr_scan", "android": "https://dc.lft.to/lastmile_qr_scan"}, "lon": -77.01343266666667, "type": "electric_bike", "fusion_lat": 0.0, "lat": 38.99994483333333, "name": "85f36cb063ef5a961d9d6a1fa5d93dea", "fusion_lon": 0.0, "bike_id": "85f36cb063ef5a961d9d6a1fa5d93dea", "is_disabled": 0, "is_reserved": 0}, {"rental_uris": {"ios": "https://dc.lft.to/lastmile_qr_scan", "android": "https://dc.lft.to/lastmile_qr_scan"}, "lon": -77.01895566666667, "type": "electric_scooter", "fusion_lat": 0.0, "lat": 38.87663116666667, "name": "3a4f11a6bbd6177953991cfef08b1755", "fusion_lon": 0.0, "bike_id": "3a4f11a6bbd6177953991cfef08b1755", "is_disabled": 0, "is_reserved": 0}, {"rental_uris": {"ios": "https://dc.lft.to/lastmile_qr_scan", "android": "https://dc.lft.to/lastmile_qr_scan"}, "lon": -77.03464116666666, "type": "electric_scooter", "fusion_lat": 0.0, "lat": 38.921553833333334, "name": "cd156c78ca252e651355d61baf23e8a2", "fusion_lon": 0.0, "bike_id": "cd156c78ca252e651355d61baf23e8a2", "is_disabled": 0, "is_reserved": 0}, {"rental_uris": {"ios": "https://dc.lft.to/lastmile_qr_scan", "android": "https://dc.lft.to/lastmile_qr_scan"}, "lon": -77.02873616666666, "type": "electric_scooter", "fusion_lat": 0.0, "lat": 38.90432883333333, "name": "dc1ac24f93db14fb240de9640e390e4f", "fusion_lon": 0.0, "bike_id": "dc1ac24f93db14fb240de9640e390e4f", "is_disabled": 0, "is_reserved": 0}, {"rental_uris": {"ios": "https://dc.lft.to/lastmile_qr_scan", "android": "https://dc.lft.to/lastmile_qr_scan"}, "lon": -77.11522266666667, "type": "electric_bike", "fusion_lat": 0.0, "lat": 38.854930333333336, "name": "4f5756aa2987bf11294511be12e80424", "fusion_lon": 0.0, "bike_id": "4f5756aa2987bf11294511be12e80424", "is_disabled": 0, "is_reserved": 0}, {"rental_uris": {"ios": "https://dc.lft.to/lastmile_qr_scan", "android": "https://dc.lft.to/lastmile_qr_scan"}, "lon": -77.032164, "type": "electric_scooter", "fusion_lat": 0.0, "lat": 38.91995, "name": "dd3818f2a21b194a4dab9d0f33cf0311", "fusion_lon": 0.0, "bike_id": "dd3818f2a21b194a4dab9d0f33cf0311", "is_disabled": 0, "is_reserved": 0}, {"rental_uris": {"ios": "https://dc.lft.to/lastmile_qr_scan", "android": "https://dc.lft.to/lastmile_qr_scan"}, "lon": -77.03179366666667, "type": "electric_scooter", "fusion_lat": 0.0, "lat": 38.91487383333333, "name": "ee6b90c951a4cd073b8e988613616a21", "fusion_lon": 0.0, "bike_id": "ee6b90c951a4cd073b8e988613616a21", "is_disabled": 0, "is_reserved": 0}, {"rental_uris": {"ios": "https://dc.lft.to/lastmile_qr_scan", "android": "https://dc.lft.to/lastmile_qr_scan"}, "lon": -76.9820395, "type": "electric_scooter", "fusion_lat": 0.0, "lat": 38.903905, "name": "3cc4b9d22e0028d3d39a855e2e0ed5e1", "fusion_lon": 0.0, "bike_id": "3cc4b9d22e0028d3d39a855e2e0ed5e1", "is_disabled": 0, "is_reserved": 0}, {"rental_uris": {"ios": "https://dc.lft.to/lastmile_qr_scan", "android": "https://dc.lft.to/lastmile_qr_scan"}, "lon": -77.03199616666667, "type": "electric_scooter", "fusion_lat": 0.0, "lat": 38.8857455, "name": "f770f0cefbbea0562cad432d567b17bf", "fusion_lon": 0.0, "bike_id": "f770f0cefbbea0562cad432d567b17bf", "is_disabled": 0, "is_reserved": 0}, {"rental_uris": {"ios": "https://dc.lft.to/lastmile_qr_scan", "android": "https://dc.lft.to/lastmile_qr_scan"}, "lon": -76.99258083333334, "type": "electric_scooter", "fusion_lat": 0.0, "lat": 38.9197165, "name": "5d859a078279b9e46266d623ec25b288", "fusion_lon": 0.0, "bike_id": "5d859a078279b9e46266d623ec25b288", "is_disabled": 0, "is_reserved": 0}, {"rental_uris": {"ios": "https://dc.lft.to/lastmile_qr_scan", "android": "https://dc.lft.to/lastmile_qr_scan"}, "lon": -77.00706633333333, "type": "electric_scooter", "fusion_lat": 0.0, "lat": 38.87839483333333, "name": "33374ce06c28a18b1b69dcc9bc3480d2", "fusion_lon": 0.0, "bike_id": "33374ce06c28a18b1b69dcc9bc3480d2", "is_disabled": 0, "is_reserved": 0}, {"rental_uris": {"ios": "https://dc.lft.to/lastmile_qr_scan", "android": "https://dc.lft.to/lastmile_qr_scan"}, "lon": -77.04794433333333, "type": "electric_scooter", "fusion_lat": 0.0, "lat": 38.916260333333334, "name": "5b855097623afe18d51896cadcdfbebd", "fusion_lon": 0.0, "bike_id": "5b855097623afe18d51896cadcdfbebd", "is_disabled": 0, "is_reserved": 0}, {"rental_uris": {"ios": "https://dc.lft.to/lastmile_qr_scan", "android": "https://dc.lft.to/lastmile_qr_scan"}, "lon": -77.023833, "type": "electric_scooter", "fusion_lat": 0.0, "lat": 38.9377115, "name": "5b9675f6e1df826ef4f6a95569f071e9", "fusion_lon": 0.0, "bike_id": "5b9675f6e1df826ef4f6a95569f071e9", "is_disabled": 0, "is_reserved": 0}, {"rental_uris": {"ios": "https://dc.lft.to/lastmile_qr_scan", "android": "https://dc.lft.to/lastmile_qr_scan"}, "lon": -77.012105, "type": "electric_scooter", "fusion_lat": 0.0, "lat": 38.92118033333333, "name": "2d7e8456973021666a69f4d39056e397", "fusion_lon": 0.0, "bike_id": "2d7e8456973021666a69f4d39056e397", "is_disabled": 0, "is_reserved": 0}, {"rental_uris": {"ios": "https://dc.lft.to/lastmile_qr_scan", "android": "https://dc.lft.to/lastmile_qr_scan"}, "lon": -77.05745916666666, "type": "electric_scooter", "fusion_lat": 0.0, "lat": 38.933979666666666, "name": "c05d5014cd9963fb0db89dbddb87de56", "fusion_lon": 0.0, "bike_id": "c05d5014cd9963fb0db89dbddb87de56", "is_disabled": 0, "is_reserved": 0}, {"rental_uris": {"ios": "https://dc.lft.to/lastmile_qr_scan", "android": "https://dc.lft.to/lastmile_qr_scan"}, "lon": -77.03073833333333, "type": "electric_scooter", "fusion_lat": 0.0, "lat": 38.89462066666667, "name": "4231acde3232876f7b3f4025fb0cf59f", "fusion_lon": 0.0, "bike_id": "4231acde3232876f7b3f4025fb0cf59f", "is_disabled": 0, "is_reserved": 0}, {"rental_uris": {"ios": "https://dc.lft.to/lastmile_qr_scan", "android": "https://dc.lft.to/lastmile_qr_scan"}, "lon": -77.0278475, "type": "electric_scooter", "fusion_lat": 0.0, "lat": 38.9308775, "name": "c92b32e9b5ccaf88e718a59dad6e355d", "fusion_lon": 0.0, "bike_id": "c92b32e9b5ccaf88e718a59dad6e355d", "is_disabled": 0, "is_reserved": 0}, {"rental_uris": {"ios": "https://dc.lft.to/lastmile_qr_scan", "android": "https://dc.lft.to/lastmile_qr_scan"}, "lon": -76.99002383333334, "type": "electric_scooter", "fusion_lat": 0.0, "lat": 38.86503316666666, "name": "9e13b551a8965477db38079001bb6e09", "fusion_lon": 0.0, "bike_id": "9e13b551a8965477db38079001bb6e09", "is_disabled": 0, "is_reserved": 0}, {"rental_uris": {"ios": "https://dc.lft.to/lastmile_qr_scan", "android": "https://dc.lft.to/lastmile_qr_scan"}, "lon": -77.02370533333334, "type": "electric_scooter", "fusion_lat": 0.0, "lat": 38.9030715, "name": "f00800fd71f810f68c7d8d2c1149206b", "fusion_lon": 0.0, "bike_id": "f00800fd71f810f68c7d8d2c1149206b", "is_disabled": 0, "is_reserved": 0}, {"rental_uris": {"ios": "https://dc.lft.to/lastmile_qr_scan", "android": "https://dc.lft.to/lastmile_qr_scan"}, "lon": -77.0110545, "type": "electric_scooter", "fusion_lat": 0.0, "lat": 38.907789, "name": "fb6dc4fa37147a072042d737a84a0c6a", "fusion_lon": 0.0, "bike_id": "fb6dc4fa37147a072042d737a84a0c6a", "is_disabled": 0, "is_reserved": 0}, {"rental_uris": {"ios": "https://dc.lft.to/lastmile_qr_scan", "android": "https://dc.lft.to/lastmile_qr_scan"}, "lon": -77.00634183333334, "type": "electric_scooter", "fusion_lat": 0.0, "lat": 38.829282666666664, "name": "53ed6ec93c7f3066c3e78b6f57ef344c", "fusion_lon": 0.0, "bike_id": "53ed6ec93c7f3066c3e78b6f57ef344c", "is_disabled": 0, "is_reserved": 0}, {"rental_uris": {"ios": "https://dc.lft.to/lastmile_qr_scan", "android": "https://dc.lft.to/lastmile_qr_scan"}, "lon": -77.02965466666667, "type": "electric_bike", "fusion_lat": 0.0, "lat": 38.927143, "name": "572ae95278fcbf29f26605f5389c0697", "fusion_lon": 0.0, "bike_id": "572ae95278fcbf29f26605f5389c0697", "is_disabled": 0, "is_reserved": 0}, {"rental_uris": {"ios": "https://dc.lft.to/lastmile_qr_scan", "android": "https://dc.lft.to/lastmile_qr_scan"}, "lon": -77.001223, "type": "electric_scooter", "fusion_lat": 0.0, "lat": 38.924535166666665, "name": "2e23f7e7aa21319637a4064bae5b4fc1", "fusion_lon": 0.0, "bike_id": "2e23f7e7aa21319637a4064bae5b4fc1", "is_disabled": 0, "is_reserved": 0}, {"rental_uris": {"ios": "https://dc.lft.to/lastmile_qr_scan", "android": "https://dc.lft.to/lastmile_qr_scan"}, "lon": -77.0962335, "type": "electric_bike", "fusion_lat": 0.0, "lat": 38.84573533333333, "name": "0de65d80477563e315ebc20c9f15caf8", "fusion_lon": 0.0, "bike_id": "0de65d80477563e315ebc20c9f15caf8", "is_disabled": 0, "is_reserved": 0}, {"rental_uris": {"ios": "https://dc.lft.to/lastmile_qr_scan", "android": "https://dc.lft.to/lastmile_qr_scan"}, "lon": -77.027017, "type": "electric_scooter", "fusion_lat": 0.0, "lat": 38.90666083333333, "name": "9ec7c4e65f486186393fbf47eb296afb", "fusion_lon": 0.0, "bike_id": "9ec7c4e65f486186393fbf47eb296afb", "is_disabled": 0, "is_reserved": 0}, {"rental_uris": {"ios": "https://dc.lft.to/lastmile_qr_scan", "android": "https://dc.lft.to/lastmile_qr_scan"}, "lon": -77.04626816666666, "type": "electric_bike", "fusion_lat": 0.0, "lat": 38.99909383333333, "name": "ca62b3b32ba07c7ba27291f4e199fe50", "fusion_lon": 0.0, "bike_id": "ca62b3b32ba07c7ba27291f4e199fe50", "is_disabled": 0, "is_reserved": 0}, {"rental_uris": {"ios": "https://dc.lft.to/lastmile_qr_scan", "android": "https://dc.lft.to/lastmile_qr_scan"}, "lon": -77.0318805, "type": "electric_scooter", "fusion_lat": 0.0, "lat": 38.92022266666667, "name": "dcb10c7b507498b392ce2fa1f492248e", "fusion_lon": 0.0, "bike_id": "dcb10c7b507498b392ce2fa1f492248e", "is_disabled": 0, "is_reserved": 0}, {"rental_uris": {"ios": "https://dc.lft.to/lastmile_qr_scan", "android": "https://dc.lft.to/lastmile_qr_scan"}, "lon": -77.03812733333334, "type": "electric_scooter", "fusion_lat": 0.0, "lat": 38.931129166666665, "name": "52a6c2eb41d95e449f5ddda1e9b00f02", "fusion_lon": 0.0, "bike_id": "52a6c2eb41d95e449f5ddda1e9b00f02", "is_disabled": 0, "is_reserved": 0}, {"rental_uris": {"ios": "https://dc.lft.to/lastmile_qr_scan", "android": "https://dc.lft.to/lastmile_qr_scan"}, "lon": -77.06472, "type": "electric_bike", "fusion_lat": 0.0, "lat": 38.97382483333333, "name": "9dbf6abc5fc8573eea3db2a54bf2330e", "fusion_lon": 0.0, "bike_id": "9dbf6abc5fc8573eea3db2a54bf2330e", "is_disabled": 0, "is_reserved": 0}, {"rental_uris": {"ios": "https://dc.lft.to/lastmile_qr_scan", "android": "https://dc.lft.to/lastmile_qr_scan"}, "lon": -77.081984, "type": "electric_bike", "fusion_lat": 0.0, "lat": 38.922047666666664, "name": "a5dfd1e2efa890f3a0a652cbb8c109e5", "fusion_lon": 0.0, "bike_id": "a5dfd1e2efa890f3a0a652cbb8c109e5", "is_disabled": 0, "is_reserved": 0}, {"rental_uris": {"ios": "https://dc.lft.to/lastmile_qr_scan", "android": "https://dc.lft.to/lastmile_qr_scan"}, "lon": -77.02861316666667, "type": "electric_scooter", "fusion_lat": 0.0, "lat": 38.92390116666667, "name": "eafb09fc938071b2613e1a55e746d36c", "fusion_lon": 0.0, "bike_id": "eafb09fc938071b2613e1a55e746d36c", "is_disabled": 0, "is_reserved": 0}, {"rental_uris": {"ios": "https://dc.lft.to/lastmile_qr_scan", "android": "https://dc.lft.to/lastmile_qr_scan"}, "lon": -77.04714716666666, "type": "electric_scooter", "fusion_lat": 0.0, "lat": 38.908614, "name": "8bc10866deafc012b2aed266e13e6d63", "fusion_lon": 0.0, "bike_id": "8bc10866deafc012b2aed266e13e6d63", "is_disabled": 0, "is_reserved": 0}, {"rental_uris": {"ios": "https://dc.lft.to/lastmile_qr_scan", "android": "https://dc.lft.to/lastmile_qr_scan"}, "lon": -76.976115, "type": "electric_bike", "fusion_lat": 0.0, "lat": 38.9130845, "name": "2aa306c5474da331baa6946103645629", "fusion_lon": 0.0, "bike_id": "2aa306c5474da331baa6946103645629", "is_disabled": 0, "is_reserved": 0}, {"rental_uris": {"ios": "https://dc.lft.to/lastmile_qr_scan", "android": "https://dc.lft.to/lastmile_qr_scan"}, "lon": -77.06604533333334, "type": "electric_bike", "fusion_lat": 0.0, "lat": 38.911331, "name": "d928f414be53a35f3efed1d76efd7512", "fusion_lon": 0.0, "bike_id": "d928f414be53a35f3efed1d76efd7512", "is_disabled": 0, "is_reserved": 0}, {"rental_uris": {"ios": "https://dc.lft.to/lastmile_qr_scan", "android": "https://dc.lft.to/lastmile_qr_scan"}, "lon": -77.03869266666666, "type": "electric_scooter", "fusion_lat": 0.0, "lat": 38.9156365, "name": "535f24581fec64bf3b7f1a8f42826a01", "fusion_lon": 0.0, "bike_id": "535f24581fec64bf3b7f1a8f42826a01", "is_disabled": 0, "is_reserved": 0}, {"rental_uris": {"ios": "https://dc.lft.to/lastmile_qr_scan", "android": "https://dc.lft.to/lastmile_qr_scan"}, "lon": -77.0669345, "type": "electric_scooter", "fusion_lat": 0.0, "lat": 38.909727333333336, "name": "595c12b5082ba9574637dcff1e4dbcd8", "fusion_lon": 0.0, "bike_id": "595c12b5082ba9574637dcff1e4dbcd8", "is_disabled": 0, "is_reserved": 0}, {"rental_uris": {"ios": "https://dc.lft.to/lastmile_qr_scan", "android": "https://dc.lft.to/lastmile_qr_scan"}, "lon": -77.03526333333333, "type": "electric_scooter", "fusion_lat": 0.0, "lat": 38.92341583333334, "name": "996bcfa7ca08b01d5a0416680261f4e8", "fusion_lon": 0.0, "bike_id": "996bcfa7ca08b01d5a0416680261f4e8", "is_disabled": 0, "is_reserved": 0}, {"rental_uris": {"ios": "https://dc.lft.to/lastmile_qr_scan", "android": "https://dc.lft.to/lastmile_qr_scan"}, "lon": -77.03959433333333, "type": "electric_scooter", "fusion_lat": 0.0, "lat": 38.91627616666667, "name": "42ceaf5481bb415ccbee6ef7e8bdde4e", "fusion_lon": 0.0, "bike_id": "42ceaf5481bb415ccbee6ef7e8bdde4e", "is_disabled": 0, "is_reserved": 0}, {"rental_uris": {"ios": "https://dc.lft.to/lastmile_qr_scan", "android": "https://dc.lft.to/lastmile_qr_scan"}, "lon": -76.990373, "type": "electric_scooter", "fusion_lat": 0.0, "lat": 38.8586885, "name": "46606999a51a38bdd10b7d3b3f9fe233", "fusion_lon": 0.0, "bike_id": "46606999a51a38bdd10b7d3b3f9fe233", "is_disabled": 0, "is_reserved": 0}, {"rental_uris": {"ios": "https://dc.lft.to/lastmile_qr_scan", "android": "https://dc.lft.to/lastmile_qr_scan"}, "lon": -77.009266, "type": "electric_scooter", "fusion_lat": 0.0, "lat": 38.912406833333335, "name": "0ed2f1ecabe4a6bd8347a687be461782", "fusion_lon": 0.0, "bike_id": "0ed2f1ecabe4a6bd8347a687be461782", "is_disabled": 0, "is_reserved": 0}, {"rental_uris": {"ios": "https://dc.lft.to/lastmile_qr_scan", "android": "https://dc.lft.to/lastmile_qr_scan"}, "lon": -77.0296905, "type": "electric_scooter", "fusion_lat": 0.0, "lat": 38.905281, "name": "375d5c616cd404a87c14776bbf1f7015", "fusion_lon": 0.0, "bike_id": "375d5c616cd404a87c14776bbf1f7015", "is_disabled": 0, "is_reserved": 0}, {"rental_uris": {"ios": "https://dc.lft.to/lastmile_qr_scan", "android": "https://dc.lft.to/lastmile_qr_scan"}, "lon": -77.02451583333334, "type": "electric_scooter", "fusion_lat": 0.0, "lat": 38.93654083333333, "name": "ce872e158aa5e2d4850ab006bde4deb6", "fusion_lon": 0.0, "bike_id": "ce872e158aa5e2d4850ab006bde4deb6", "is_disabled": 0, "is_reserved": 0}, {"rental_uris": {"ios": "https://dc.lft.to/lastmile_qr_scan", "android": "https://dc.lft.to/lastmile_qr_scan"}, "lon": -77.01669816666667, "type": "electric_bike", "fusion_lat": 0.0, "lat": 38.88110316666667, "name": "8491c2a85a1d5a3b79a92726fef7ebeb", "fusion_lon": 0.0, "bike_id": "8491c2a85a1d5a3b79a92726fef7ebeb", "is_disabled": 0, "is_reserved": 0}, {"rental_uris": {"ios": "https://dc.lft.to/lastmile_qr_scan", "android": "https://dc.lft.to/lastmile_qr_scan"}, "lon": -77.01602216666667, "type": "electric_scooter", "fusion_lat": 0.0, "lat": 38.9100735, "name": "2d1bfb3a887b1d34c3092b9d8fe5acf9", "fusion_lon": 0.0, "bike_id": "2d1bfb3a887b1d34c3092b9d8fe5acf9", "is_disabled": 0, "is_reserved": 0}, {"rental_uris": {"ios": "https://dc.lft.to/lastmile_qr_scan", "android": "https://dc.lft.to/lastmile_qr_scan"}, "lon": -77.076014, "type": "electric_scooter", "fusion_lat": 0.0, "lat": 38.9121595, "name": "ce5e614f01bbc4902e9b0086efa8d4e3", "fusion_lon": 0.0, "bike_id": "ce5e614f01bbc4902e9b0086efa8d4e3", "is_disabled": 0, "is_reserved": 0}, {"rental_uris": {"ios": "https://dc.lft.to/lastmile_qr_scan", "android": "https://dc.lft.to/lastmile_qr_scan"}, "lon": -77.0487565, "type": "electric_scooter", "fusion_lat": 0.0, "lat": 38.90074716666667, "name": "36a8beaf858b208bedd48ea2d01afe9a", "fusion_lon": 0.0, "bike_id": "36a8beaf858b208bedd48ea2d01afe9a", "is_disabled": 0, "is_reserved": 0}, {"rental_uris": {"ios": "https://dc.lft.to/lastmile_qr_scan", "android": "https://dc.lft.to/lastmile_qr_scan"}, "lon": -77.10719016666667, "type": "electric_bike", "fusion_lat": 0.0, "lat": 38.85531116666667, "name": "85855fd3dff57474d210105f3f7bdb3a", "fusion_lon": 0.0, "bike_id": "85855fd3dff57474d210105f3f7bdb3a", "is_disabled": 0, "is_reserved": 0}, {"rental_uris": {"ios": "https://dc.lft.to/lastmile_qr_scan", "android": "https://dc.lft.to/lastmile_qr_scan"}, "lon": -77.00747166666666, "type": "electric_scooter", "fusion_lat": 0.0, "lat": 38.90734633333334, "name": "990d2127a086132de08fc802e04477e9", "fusion_lon": 0.0, "bike_id": "990d2127a086132de08fc802e04477e9", "is_disabled": 0, "is_reserved": 0}, {"rental_uris": {"ios": "https://dc.lft.to/lastmile_qr_scan", "android": "https://dc.lft.to/lastmile_qr_scan"}, "lon": -77.0236385, "type": "electric_scooter", "fusion_lat": 0.0, "lat": 38.93772366666666, "name": "fa0338d5a7068c4c0ed7a13e27df789c", "fusion_lon": 0.0, "bike_id": "fa0338d5a7068c4c0ed7a13e27df789c", "is_disabled": 0, "is_reserved": 0}, {"rental_uris": {"ios": "https://dc.lft.to/lastmile_qr_scan", "android": "https://dc.lft.to/lastmile_qr_scan"}, "lon": -77.03643233333334, "type": "electric_scooter", "fusion_lat": 0.0, "lat": 38.9079335, "name": "cecccb9ab406e117c8bae5fe42b5b10a", "fusion_lon": 0.0, "bike_id": "cecccb9ab406e117c8bae5fe42b5b10a", "is_disabled": 0, "is_reserved": 0}, {"rental_uris": {"ios": "https://dc.lft.to/lastmile_qr_scan", "android": "https://dc.lft.to/lastmile_qr_scan"}, "lon": -77.07126483333333, "type": "electric_scooter", "fusion_lat": 0.0, "lat": 38.9146395, "name": "9870a8de93e7cda70f779ce6e73ac5b2", "fusion_lon": 0.0, "bike_id": "9870a8de93e7cda70f779ce6e73ac5b2", "is_disabled": 0, "is_reserved": 0}, {"rental_uris": {"ios": "https://dc.lft.to/lastmile_qr_scan", "android": "https://dc.lft.to/lastmile_qr_scan"}, "lon": -77.0412505, "type": "electric_scooter", "fusion_lat": 0.0, "lat": 38.906272666666666, "name": "c569a8baa87103bc9272543ef7ee7a7c", "fusion_lon": 0.0, "bike_id": "c569a8baa87103bc9272543ef7ee7a7c", "is_disabled": 0, "is_reserved": 0}, {"rental_uris": {"ios": "https://dc.lft.to/lastmile_qr_scan", "android": "https://dc.lft.to/lastmile_qr_scan"}, "lon": -77.02311466666667, "type": "electric_scooter", "fusion_lat": 0.0, "lat": 38.927166, "name": "e2506204bc5b29f9a9785849cbd13e03", "fusion_lon": 0.0, "bike_id": "e2506204bc5b29f9a9785849cbd13e03", "is_disabled": 0, "is_reserved": 0}, {"rental_uris": {"ios": "https://dc.lft.to/lastmile_qr_scan", "android": "https://dc.lft.to/lastmile_qr_scan"}, "lon": -77.022032, "type": "electric_scooter", "fusion_lat": 0.0, "lat": 38.90543866666667, "name": "361dbaec6916d3d77a2f4bcd05d77bfd", "fusion_lon": 0.0, "bike_id": "361dbaec6916d3d77a2f4bcd05d77bfd", "is_disabled": 0, "is_reserved": 0}, {"rental_uris": {"ios": "https://dc.lft.to/lastmile_qr_scan", "android": "https://dc.lft.to/lastmile_qr_scan"}, "lon": -76.9541125, "type": "electric_scooter", "fusion_lat": 0.0, "lat": 38.889945166666664, "name": "345907888182432484fbacb427c05cef", "fusion_lon": 0.0, "bike_id": "345907888182432484fbacb427c05cef", "is_disabled": 0, "is_reserved": 0}, {"rental_uris": {"ios": "https://dc.lft.to/lastmile_qr_scan", "android": "https://dc.lft.to/lastmile_qr_scan"}, "lon": -76.9465775, "type": "electric_scooter", "fusion_lat": 0.0, "lat": 38.9033955, "name": "7ac12b1080b20044eb4cdedd6a879aee", "fusion_lon": 0.0, "bike_id": "7ac12b1080b20044eb4cdedd6a879aee", "is_disabled": 0, "is_reserved": 0}, {"rental_uris": {"ios": "https://dc.lft.to/lastmile_qr_scan", "android": "https://dc.lft.to/lastmile_qr_scan"}, "lon": -77.03791683333333, "type": "electric_scooter", "fusion_lat": 0.0, "lat": 38.926373, "name": "d924c7321b16fe2d6dcaa2129e91c70d", "fusion_lon": 0.0, "bike_id": "d924c7321b16fe2d6dcaa2129e91c70d", "is_disabled": 0, "is_reserved": 0}, {"rental_uris": {"ios": "https://dc.lft.to/lastmile_qr_scan", "android": "https://dc.lft.to/lastmile_qr_scan"}, "lon": -76.99519216666667, "type": "electric_scooter", "fusion_lat": 0.0, "lat": 38.89482, "name": "52bc913987f4fe7e583859d4aede324a", "fusion_lon": 0.0, "bike_id": "52bc913987f4fe7e583859d4aede324a", "is_disabled": 0, "is_reserved": 0}, {"rental_uris": {"ios": "https://dc.lft.to/lastmile_qr_scan", "android": "https://dc.lft.to/lastmile_qr_scan"}, "lon": -76.99365533333334, "type": "electric_scooter", "fusion_lat": 0.0, "lat": 38.9003875, "name": "ae8fbb04457a108d7d2660f8a0b96a4f", "fusion_lon": 0.0, "bike_id": "ae8fbb04457a108d7d2660f8a0b96a4f", "is_disabled": 0, "is_reserved": 0}, {"rental_uris": {"ios": "https://dc.lft.to/lastmile_qr_scan", "android": "https://dc.lft.to/lastmile_qr_scan"}, "lon": -76.97742733333334, "type": "electric_scooter", "fusion_lat": 0.0, "lat": 38.900072, "name": "1c848f8a6159c224edc2e77c9fb7ac2c", "fusion_lon": 0.0, "bike_id": "1c848f8a6159c224edc2e77c9fb7ac2c", "is_disabled": 0, "is_reserved": 0}, {"rental_uris": {"ios": "https://dc.lft.to/lastmile_qr_scan", "android": "https://dc.lft.to/lastmile_qr_scan"}, "lon": -76.87825433333333, "type": "electric_bike", "fusion_lat": 0.0, "lat": 38.992347333333335, "name": "b7f2febd4c62a163074a5856caa95e32", "fusion_lon": 0.0, "bike_id": "b7f2febd4c62a163074a5856caa95e32", "is_disabled": 0, "is_reserved": 0}, {"rental_uris": {"ios": "https://dc.lft.to/lastmile_qr_scan", "android": "https://dc.lft.to/lastmile_qr_scan"}, "lon": -76.97611616666667, "type": "electric_scooter", "fusion_lat": 0.0, "lat": 38.9038725, "name": "4e245a025d8faad729f253cf49e7e078", "fusion_lon": 0.0, "bike_id": "4e245a025d8faad729f253cf49e7e078", "is_disabled": 0, "is_reserved": 0}, {"rental_uris": {"ios": "https://dc.lft.to/lastmile_qr_scan", "android": "https://dc.lft.to/lastmile_qr_scan"}, "lon": -77.002954, "type": "electric_bike", "fusion_lat": 0.0, "lat": 38.9161215, "name": "82392d4be7264a47f1417fb9594a5c9e", "fusion_lon": 0.0, "bike_id": "82392d4be7264a47f1417fb9594a5c9e", "is_disabled": 0, "is_reserved": 0}, {"rental_uris": {"ios": "https://dc.lft.to/lastmile_qr_scan", "android": "https://dc.lft.to/lastmile_qr_scan"}, "lon": -77.0322435, "type": "electric_scooter", "fusion_lat": 0.0, "lat": 38.92889516666666, "name": "ed8de4c9d0f208609174157d694c4db5", "fusion_lon": 0.0, "bike_id": "ed8de4c9d0f208609174157d694c4db5", "is_disabled": 0, "is_reserved": 0}, {"rental_uris": {"ios": "https://dc.lft.to/lastmile_qr_scan", "android": "https://dc.lft.to/lastmile_qr_scan"}, "lon": -77.0286535, "type": "electric_scooter", "fusion_lat": 0.0, "lat": 38.90463033333333, "name": "056f2d9cbea09b0a6236fca2199a77da", "fusion_lon": 0.0, "bike_id": "056f2d9cbea09b0a6236fca2199a77da", "is_disabled": 0, "is_reserved": 0}, {"rental_uris": {"ios": "https://dc.lft.to/lastmile_qr_scan", "android": "https://dc.lft.to/lastmile_qr_scan"}, "lon": -77.027318, "type": "electric_scooter", "fusion_lat": 0.0, "lat": 38.8998885, "name": "bf4d8ce3ff61501ded82d38fbc477c92", "fusion_lon": 0.0, "bike_id": "bf4d8ce3ff61501ded82d38fbc477c92", "is_disabled": 0, "is_reserved": 0}, {"rental_uris": {"ios": "https://dc.lft.to/lastmile_qr_scan", "android": "https://dc.lft.to/lastmile_qr_scan"}, "lon": -76.96376766666667, "type": "electric_bike", "fusion_lat": 0.0, "lat": 38.94895133333333, "name": "e489bfe5a0016caab51cd38ccfccb5d4", "fusion_lon": 0.0, "bike_id": "e489bfe5a0016caab51cd38ccfccb5d4", "is_disabled": 0, "is_reserved": 0}, {"rental_uris": {"ios": "https://dc.lft.to/lastmile_qr_scan", "android": "https://dc.lft.to/lastmile_qr_scan"}, "lon": -77.03222033333333, "type": "electric_scooter", "fusion_lat": 0.0, "lat": 38.9258715, "name": "1c3480d33f136006beda3d9e84c67725", "fusion_lon": 0.0, "bike_id": "1c3480d33f136006beda3d9e84c67725", "is_disabled": 0, "is_reserved": 0}, {"rental_uris": {"ios": "https://dc.lft.to/lastmile_qr_scan", "android": "https://dc.lft.to/lastmile_qr_scan"}, "lon": -77.01111183333333, "type": "electric_scooter", "fusion_lat": 0.0, "lat": 38.903699, "name": "14a83acc88f2ccbcdd2fb30e2b10f22f", "fusion_lon": 0.0, "bike_id": "14a83acc88f2ccbcdd2fb30e2b10f22f", "is_disabled": 0, "is_reserved": 0}, {"rental_uris": {"ios": "https://dc.lft.to/lastmile_qr_scan", "android": "https://dc.lft.to/lastmile_qr_scan"}, "lon": -77.02481033333333, "type": "electric_scooter", "fusion_lat": 0.0, "lat": 38.93825783333333, "name": "bc8a5ed1847411635b8ae17f3577f92f", "fusion_lon": 0.0, "bike_id": "bc8a5ed1847411635b8ae17f3577f92f", "is_disabled": 0, "is_reserved": 0}, {"rental_uris": {"ios": "https://dc.lft.to/lastmile_qr_scan", "android": "https://dc.lft.to/lastmile_qr_scan"}, "lon": -77.036451, "type": "electric_scooter", "fusion_lat": 0.0, "lat": 38.91736316666667, "name": "2d16dfc4753e35d83bd1a7ed70584800", "fusion_lon": 0.0, "bike_id": "2d16dfc4753e35d83bd1a7ed70584800", "is_disabled": 0, "is_reserved": 0}, {"rental_uris": {"ios": "https://dc.lft.to/lastmile_qr_scan", "android": "https://dc.lft.to/lastmile_qr_scan"}, "lon": -76.96528983333333, "type": "electric_scooter", "fusion_lat": 0.0, "lat": 38.87627583333333, "name": "dfafa303b09a8c8473dbd35d2f3f5f6a", "fusion_lon": 0.0, "bike_id": "dfafa303b09a8c8473dbd35d2f3f5f6a", "is_disabled": 0, "is_reserved": 0}, {"rental_uris": {"ios": "https://dc.lft.to/lastmile_qr_scan", "android": "https://dc.lft.to/lastmile_qr_scan"}, "lon": -76.94759, "type": "electric_scooter", "fusion_lat": 0.0, "lat": 38.90054883333333, "name": "4e0f29c92500c608dd43e70ae5f0ef1d", "fusion_lon": 0.0, "bike_id": "4e0f29c92500c608dd43e70ae5f0ef1d", "is_disabled": 0, "is_reserved": 0}, {"rental_uris": {"ios": "https://dc.lft.to/lastmile_qr_scan", "android": "https://dc.lft.to/lastmile_qr_scan"}, "lon": -77.03193683333333, "type": "electric_scooter", "fusion_lat": 0.0, "lat": 38.917985, "name": "9ddd7a3888ee3bd84ab82009367a6651", "fusion_lon": 0.0, "bike_id": "9ddd7a3888ee3bd84ab82009367a6651", "is_disabled": 0, "is_reserved": 0}, {"rental_uris": {"ios": "https://dc.lft.to/lastmile_qr_scan", "android": "https://dc.lft.to/lastmile_qr_scan"}, "lon": -77.04497016666667, "type": "electric_scooter", "fusion_lat": 0.0, "lat": 38.908683, "name": "d145764bbe48023c5a593b89cd8172b3", "fusion_lon": 0.0, "bike_id": "d145764bbe48023c5a593b89cd8172b3", "is_disabled": 0, "is_reserved": 0}, {"rental_uris": {"ios": "https://dc.lft.to/lastmile_qr_scan", "android": "https://dc.lft.to/lastmile_qr_scan"}, "lon": -77.00109483333334, "type": "electric_scooter", "fusion_lat": 0.0, "lat": 38.908397666666666, "name": "85e09b093c8a7403e9ebafc1f851bb4f", "fusion_lon": 0.0, "bike_id": "85e09b093c8a7403e9ebafc1f851bb4f", "is_disabled": 0, "is_reserved": 0}, {"rental_uris": {"ios": "https://dc.lft.to/lastmile_qr_scan", "android": "https://dc.lft.to/lastmile_qr_scan"}, "lon": -77.04545983333334, "type": "electric_scooter", "fusion_lat": 0.0, "lat": 38.9340495, "name": "0d3942493c206113091e29fb234dec9d", "fusion_lon": 0.0, "bike_id": "0d3942493c206113091e29fb234dec9d", "is_disabled": 0, "is_reserved": 0}, {"rental_uris": {"ios": "https://dc.lft.to/lastmile_qr_scan", "android": "https://dc.lft.to/lastmile_qr_scan"}, "lon": -77.04443616666667, "type": "electric_scooter", "fusion_lat": 0.0, "lat": 38.910128, "name": "da7d9931956dec59ae70f1523518a559", "fusion_lon": 0.0, "bike_id": "da7d9931956dec59ae70f1523518a559", "is_disabled": 0, "is_reserved": 0}, {"rental_uris": {"ios": "https://dc.lft.to/lastmile_qr_scan", "android": "https://dc.lft.to/lastmile_qr_scan"}, "lon": -77.10458183333333, "type": "electric_bike", "fusion_lat": 0.0, "lat": 38.896377333333334, "name": "8209b438c5e0e9b61b70dd2abbbe7f49", "fusion_lon": 0.0, "bike_id": "8209b438c5e0e9b61b70dd2abbbe7f49", "is_disabled": 0, "is_reserved": 0}, {"rental_uris": {"ios": "https://dc.lft.to/lastmile_qr_scan", "android": "https://dc.lft.to/lastmile_qr_scan"}, "lon": -77.0259345, "type": "electric_scooter", "fusion_lat": 0.0, "lat": 38.929859666666665, "name": "c9229be2d937e65b6a94036ae4770a9a", "fusion_lon": 0.0, "bike_id": "c9229be2d937e65b6a94036ae4770a9a", "is_disabled": 0, "is_reserved": 0}, {"rental_uris": {"ios": "https://dc.lft.to/lastmile_qr_scan", "android": "https://dc.lft.to/lastmile_qr_scan"}, "lon": -77.0282505, "type": "electric_scooter", "fusion_lat": 0.0, "lat": 38.91116383333333, "name": "d55a436031a321199bb2d437cd93719f", "fusion_lon": 0.0, "bike_id": "d55a436031a321199bb2d437cd93719f", "is_disabled": 0, "is_reserved": 0}, {"rental_uris": {"ios": "https://dc.lft.to/lastmile_qr_scan", "android": "https://dc.lft.to/lastmile_qr_scan"}, "lon": -76.946354, "type": "electric_scooter", "fusion_lat": 0.0, "lat": 38.89830883333333, "name": "191d2881824fda71288e6af15a87d395", "fusion_lon": 0.0, "bike_id": "191d2881824fda71288e6af15a87d395", "is_disabled": 0, "is_reserved": 0}, {"rental_uris": {"ios": "https://dc.lft.to/lastmile_qr_scan", "android": "https://dc.lft.to/lastmile_qr_scan"}, "lon": -77.03292716666667, "type": "electric_scooter", "fusion_lat": 0.0, "lat": 38.9235525, "name": "faae4aaf9739a660fd552f0ef519dd1d", "fusion_lon": 0.0, "bike_id": "faae4aaf9739a660fd552f0ef519dd1d", "is_disabled": 0, "is_reserved": 0}, {"rental_uris": {"ios": "https://dc.lft.to/lastmile_qr_scan", "android": "https://dc.lft.to/lastmile_qr_scan"}, "lon": -77.05044083333334, "type": "electric_scooter", "fusion_lat": 0.0, "lat": 38.90065666666667, "name": "9f11959439867c99db3bd70fddc037ab", "fusion_lon": 0.0, "bike_id": "9f11959439867c99db3bd70fddc037ab", "is_disabled": 0, "is_reserved": 0}, {"rental_uris": {"ios": "https://dc.lft.to/lastmile_qr_scan", "android": "https://dc.lft.to/lastmile_qr_scan"}, "lon": -77.03171266666666, "type": "electric_scooter", "fusion_lat": 0.0, "lat": 38.8997285, "name": "a017fd115ac5653403506b70be6f981e", "fusion_lon": 0.0, "bike_id": "a017fd115ac5653403506b70be6f981e", "is_disabled": 0, "is_reserved": 0}, {"rental_uris": {"ios": "https://dc.lft.to/lastmile_qr_scan", "android": "https://dc.lft.to/lastmile_qr_scan"}, "lon": -77.01194666666666, "type": "electric_scooter", "fusion_lat": 0.0, "lat": 38.900103666666666, "name": "d05a46dbd25379d1f27a8e51327a0a83", "fusion_lon": 0.0, "bike_id": "d05a46dbd25379d1f27a8e51327a0a83", "is_disabled": 0, "is_reserved": 0}, {"rental_uris": {"ios": "https://dc.lft.to/lastmile_qr_scan", "android": "https://dc.lft.to/lastmile_qr_scan"}, "lon": -77.00521533333334, "type": "electric_scooter", "fusion_lat": 0.0, "lat": 38.9290815, "name": "fca40f466dc94abdf1defc42e76f7641", "fusion_lon": 0.0, "bike_id": "fca40f466dc94abdf1defc42e76f7641", "is_disabled": 0, "is_reserved": 0}, {"rental_uris": {"ios": "https://dc.lft.to/lastmile_qr_scan", "android": "https://dc.lft.to/lastmile_qr_scan"}, "lon": -77.0450345, "type": "electric_scooter", "fusion_lat": 0.0, "lat": 38.908592166666665, "name": "9597ef40ef001271abf3661bd6e677d9", "fusion_lon": 0.0, "bike_id": "9597ef40ef001271abf3661bd6e677d9", "is_disabled": 0, "is_reserved": 0}, {"rental_uris": {"ios": "https://dc.lft.to/lastmile_qr_scan", "android": "https://dc.lft.to/lastmile_qr_scan"}, "lon": -77.077108, "type": "electric_scooter", "fusion_lat": 0.0, "lat": 38.956139, "name": "2ecbb5786e8536f520b2ac0eae2180da", "fusion_lon": 0.0, "bike_id": "2ecbb5786e8536f520b2ac0eae2180da", "is_disabled": 0, "is_reserved": 0}, {"rental_uris": {"ios": "https://dc.lft.to/lastmile_qr_scan", "android": "https://dc.lft.to/lastmile_qr_scan"}, "lon": -77.13100983333334, "type": "electric_bike", "fusion_lat": 0.0, "lat": 38.876289666666665, "name": "66e6b447ec77838a45e0d44a741c2424", "fusion_lon": 0.0, "bike_id": "66e6b447ec77838a45e0d44a741c2424", "is_disabled": 0, "is_reserved": 0}, {"rental_uris": {"ios": "https://dc.lft.to/lastmile_qr_scan", "android": "https://dc.lft.to/lastmile_qr_scan"}, "lon": -77.0395215, "type": "electric_scooter", "fusion_lat": 0.0, "lat": 38.899162833333335, "name": "2ea694b24ae91129e9469bcb2602b763", "fusion_lon": 0.0, "bike_id": "2ea694b24ae91129e9469bcb2602b763", "is_disabled": 0, "is_reserved": 0}, {"rental_uris": {"ios": "https://dc.lft.to/lastmile_qr_scan", "android": "https://dc.lft.to/lastmile_qr_scan"}, "lon": -77.02714916666666, "type": "electric_scooter", "fusion_lat": 0.0, "lat": 38.91761316666667, "name": "f3a19bb55cfc12de383237d0f89fad07", "fusion_lon": 0.0, "bike_id": "f3a19bb55cfc12de383237d0f89fad07", "is_disabled": 0, "is_reserved": 0}, {"rental_uris": {"ios": "https://dc.lft.to/lastmile_qr_scan", "android": "https://dc.lft.to/lastmile_qr_scan"}, "lon": -77.0586245, "type": "electric_scooter", "fusion_lat": 0.0, "lat": 38.93425666666667, "name": "f3b0bfc7423b353fbe01d53d2d236bcf", "fusion_lon": 0.0, "bike_id": "f3b0bfc7423b353fbe01d53d2d236bcf", "is_disabled": 0, "is_reserved": 0}, {"rental_uris": {"ios": "https://dc.lft.to/lastmile_qr_scan", "android": "https://dc.lft.to/lastmile_qr_scan"}, "lon": -77.0377365, "type": "electric_scooter", "fusion_lat": 0.0, "lat": 38.92902316666667, "name": "7273132d6a471cb7c55e1e6b7f50fee2", "fusion_lon": 0.0, "bike_id": "7273132d6a471cb7c55e1e6b7f50fee2", "is_disabled": 0, "is_reserved": 0}, {"rental_uris": {"ios": "https://dc.lft.to/lastmile_qr_scan", "android": "https://dc.lft.to/lastmile_qr_scan"}, "lon": -76.987113, "type": "electric_scooter", "fusion_lat": 0.0, "lat": 38.86538683333333, "name": "f0db2927933c67530cc4a85a33dd4554", "fusion_lon": 0.0, "bike_id": "f0db2927933c67530cc4a85a33dd4554", "is_disabled": 0, "is_reserved": 0}, {"rental_uris": {"ios": "https://dc.lft.to/lastmile_qr_scan", "android": "https://dc.lft.to/lastmile_qr_scan"}, "lon": -77.0312395, "type": "electric_scooter", "fusion_lat": 0.0, "lat": 38.91339583333333, "name": "35916c15ae47067b18e41fb5933235a5", "fusion_lon": 0.0, "bike_id": "35916c15ae47067b18e41fb5933235a5", "is_disabled": 0, "is_reserved": 0}, {"rental_uris": {"ios": "https://dc.lft.to/lastmile_qr_scan", "android": "https://dc.lft.to/lastmile_qr_scan"}, "lon": -77.00204166666667, "type": "electric_bike", "fusion_lat": 0.0, "lat": 38.883075166666664, "name": "848abec140ea05dd91b9f6847b54a8cf", "fusion_lon": 0.0, "bike_id": "848abec140ea05dd91b9f6847b54a8cf", "is_disabled": 0, "is_reserved": 0}, {"rental_uris": {"ios": "https://dc.lft.to/lastmile_qr_scan", "android": "https://dc.lft.to/lastmile_qr_scan"}, "lon": -76.97631516666667, "type": "electric_scooter", "fusion_lat": 0.0, "lat": 38.905714, "name": "1c932ef5b3875c5615f5df8318a9ae60", "fusion_lon": 0.0, "bike_id": "1c932ef5b3875c5615f5df8318a9ae60", "is_disabled": 0, "is_reserved": 0}, {"rental_uris": {"ios": "https://dc.lft.to/lastmile_qr_scan", "android": "https://dc.lft.to/lastmile_qr_scan"}, "lon": -77.05887616666666, "type": "electric_scooter", "fusion_lat": 0.0, "lat": 38.93634766666667, "name": "9a3becd4e34a8f6680d7d988ecb6d387", "fusion_lon": 0.0, "bike_id": "9a3becd4e34a8f6680d7d988ecb6d387", "is_disabled": 0, "is_reserved": 0}, {"rental_uris": {"ios": "https://dc.lft.to/lastmile_qr_scan", "android": "https://dc.lft.to/lastmile_qr_scan"}, "lon": -77.05198966666667, "type": "electric_scooter", "fusion_lat": 0.0, "lat": 38.92435233333333, "name": "88911d4300bffebb6734d00862cc37e9", "fusion_lon": 0.0, "bike_id": "88911d4300bffebb6734d00862cc37e9", "is_disabled": 0, "is_reserved": 0}, {"rental_uris": {"ios": "https://dc.lft.to/lastmile_qr_scan", "android": "https://dc.lft.to/lastmile_qr_scan"}, "lon": -77.02947866666666, "type": "electric_scooter", "fusion_lat": 0.0, "lat": 38.916791, "name": "e21c138e9791e8ad452076a1ecf5d498", "fusion_lon": 0.0, "bike_id": "e21c138e9791e8ad452076a1ecf5d498", "is_disabled": 0, "is_reserved": 0}, {"rental_uris": {"ios": "https://dc.lft.to/lastmile_qr_scan", "android": "https://dc.lft.to/lastmile_qr_scan"}, "lon": -76.99496133333334, "type": "electric_bike", "fusion_lat": 0.0, "lat": 38.89987083333333, "name": "6f1203a4c3fe22be895f530562aa1d98", "fusion_lon": 0.0, "bike_id": "6f1203a4c3fe22be895f530562aa1d98", "is_disabled": 0, "is_reserved": 0}, {"rental_uris": {"ios": "https://dc.lft.to/lastmile_qr_scan", "android": "https://dc.lft.to/lastmile_qr_scan"}, "lon": -77.0387535, "type": "electric_scooter", "fusion_lat": 0.0, "lat": 38.91559433333333, "name": "4c6abf575d97b88838ff9feae8ceaecc", "fusion_lon": 0.0, "bike_id": "4c6abf575d97b88838ff9feae8ceaecc", "is_disabled": 0, "is_reserved": 0}, {"rental_uris": {"ios": "https://dc.lft.to/lastmile_qr_scan", "android": "https://dc.lft.to/lastmile_qr_scan"}, "lon": -77.02894366666666, "type": "electric_scooter", "fusion_lat": 0.0, "lat": 38.92568683333333, "name": "061a1d8b80a9ed218148f481a8950351", "fusion_lon": 0.0, "bike_id": "061a1d8b80a9ed218148f481a8950351", "is_disabled": 0, "is_reserved": 0}, {"rental_uris": {"ios": "https://dc.lft.to/lastmile_qr_scan", "android": "https://dc.lft.to/lastmile_qr_scan"}, "lon": -77.019879, "type": "electric_scooter", "fusion_lat": 0.0, "lat": 38.902542833333335, "name": "dca01614650408f379b3b0cc5005fd67", "fusion_lon": 0.0, "bike_id": "dca01614650408f379b3b0cc5005fd67", "is_disabled": 0, "is_reserved": 0}, {"rental_uris": {"ios": "https://dc.lft.to/lastmile_qr_scan", "android": "https://dc.lft.to/lastmile_qr_scan"}, "lon": -77.047903, "type": "electric_scooter", "fusion_lat": 0.0, "lat": 38.9085215, "name": "13b66aa6c1c950a4dc76544e05384056", "fusion_lon": 0.0, "bike_id": "13b66aa6c1c950a4dc76544e05384056", "is_disabled": 0, "is_reserved": 0}, {"rental_uris": {"ios": "https://dc.lft.to/lastmile_qr_scan", "android": "https://dc.lft.to/lastmile_qr_scan"}, "lon": -76.98679133333333, "type": "electric_scooter", "fusion_lat": 0.0, "lat": 38.88212516666667, "name": "5e096c232804dff2e95b196a5eefee68", "fusion_lon": 0.0, "bike_id": "5e096c232804dff2e95b196a5eefee68", "is_disabled": 0, "is_reserved": 0}, {"rental_uris": {"ios": "https://dc.lft.to/lastmile_qr_scan", "android": "https://dc.lft.to/lastmile_qr_scan"}, "lon": -77.00887133333333, "type": "electric_scooter", "fusion_lat": 0.0, "lat": 38.916788833333335, "name": "79b3cbf3e9ac1042676daa76040877e8", "fusion_lon": 0.0, "bike_id": "79b3cbf3e9ac1042676daa76040877e8", "is_disabled": 0, "is_reserved": 0}, {"rental_uris": {"ios": "https://dc.lft.to/lastmile_qr_scan", "android": "https://dc.lft.to/lastmile_qr_scan"}, "lon": -76.98317283333333, "type": "electric_scooter", "fusion_lat": 0.0, "lat": 38.868890666666665, "name": "db05761da253a5a7b841fc09cbdfeeb4", "fusion_lon": 0.0, "bike_id": "db05761da253a5a7b841fc09cbdfeeb4", "is_disabled": 0, "is_reserved": 0}, {"rental_uris": {"ios": "https://dc.lft.to/lastmile_qr_scan", "android": "https://dc.lft.to/lastmile_qr_scan"}, "lon": -77.03870633333334, "type": "electric_scooter", "fusion_lat": 0.0, "lat": 38.9156915, "name": "96369b0e2dd2cd81f0129fcea9fe63d2", "fusion_lon": 0.0, "bike_id": "96369b0e2dd2cd81f0129fcea9fe63d2", "is_disabled": 0, "is_reserved": 0}, {"rental_uris": {"ios": "https://dc.lft.to/lastmile_qr_scan", "android": "https://dc.lft.to/lastmile_qr_scan"}, "lon": -76.98719216666667, "type": "electric_scooter", "fusion_lat": 0.0, "lat": 38.86257666666667, "name": "aa635fd18360d4cb244ae6f67c3aaacd", "fusion_lon": 0.0, "bike_id": "aa635fd18360d4cb244ae6f67c3aaacd", "is_disabled": 0, "is_reserved": 0}, {"rental_uris": {"ios": "https://dc.lft.to/lastmile_qr_scan", "android": "https://dc.lft.to/lastmile_qr_scan"}, "lon": -77.03613216666666, "type": "electric_scooter", "fusion_lat": 0.0, "lat": 38.932560333333335, "name": "a31623f948ea9145ca735ac1f5cc6a08", "fusion_lon": 0.0, "bike_id": "a31623f948ea9145ca735ac1f5cc6a08", "is_disabled": 0, "is_reserved": 0}, {"rental_uris": {"ios": "https://dc.lft.to/lastmile_qr_scan", "android": "https://dc.lft.to/lastmile_qr_scan"}, "lon": -76.94179566666666, "type": "electric_scooter", "fusion_lat": 0.0, "lat": 38.882191, "name": "9a6a749f3dd2bc2f0e339ddca5e02afb", "fusion_lon": 0.0, "bike_id": "9a6a749f3dd2bc2f0e339ddca5e02afb", "is_disabled": 0, "is_reserved": 0}, {"rental_uris": {"ios": "https://dc.lft.to/lastmile_qr_scan", "android": "https://dc.lft.to/lastmile_qr_scan"}, "lon": -77.0346255, "type": "electric_scooter", "fusion_lat": 0.0, "lat": 38.907371, "name": "be433417cf2ae8704016380eafc79d78", "fusion_lon": 0.0, "bike_id": "be433417cf2ae8704016380eafc79d78", "is_disabled": 0, "is_reserved": 0}, {"rental_uris": {"ios": "https://dc.lft.to/lastmile_qr_scan", "android": "https://dc.lft.to/lastmile_qr_scan"}, "lon": -77.02716166666667, "type": "electric_scooter", "fusion_lat": 0.0, "lat": 38.924654333333336, "name": "9df24bfcc4cb55c365f15cae9ecb3cd9", "fusion_lon": 0.0, "bike_id": "9df24bfcc4cb55c365f15cae9ecb3cd9", "is_disabled": 0, "is_reserved": 0}, {"rental_uris": {"ios": "https://dc.lft.to/lastmile_qr_scan", "android": "https://dc.lft.to/lastmile_qr_scan"}, "lon": -77.054711, "type": "electric_scooter", "fusion_lat": 0.0, "lat": 38.92095, "name": "691bdb0615e47b59d71ebf710b1af4ab", "fusion_lon": 0.0, "bike_id": "691bdb0615e47b59d71ebf710b1af4ab", "is_disabled": 0, "is_reserved": 0}, {"rental_uris": {"ios": "https://dc.lft.to/lastmile_qr_scan", "android": "https://dc.lft.to/lastmile_qr_scan"}, "lon": -76.95534516666666, "type": "electric_scooter", "fusion_lat": 0.0, "lat": 38.88781383333333, "name": "ae9be3c01bca26e7aaca656627733ccc", "fusion_lon": 0.0, "bike_id": "ae9be3c01bca26e7aaca656627733ccc", "is_disabled": 0, "is_reserved": 0}, {"rental_uris": {"ios": "https://dc.lft.to/lastmile_qr_scan", "android": "https://dc.lft.to/lastmile_qr_scan"}, "lon": -77.0374795, "type": "electric_scooter", "fusion_lat": 0.0, "lat": 38.9290275, "name": "1d63962ec4b7da881b07c2ea6a3921cd", "fusion_lon": 0.0, "bike_id": "1d63962ec4b7da881b07c2ea6a3921cd", "is_disabled": 0, "is_reserved": 0}, {"rental_uris": {"ios": "https://dc.lft.to/lastmile_qr_scan", "android": "https://dc.lft.to/lastmile_qr_scan"}, "lon": -77.06016583333333, "type": "electric_scooter", "fusion_lat": 0.0, "lat": 38.912583833333336, "name": "cf6a1cdad5650f011134e13146e6a74b", "fusion_lon": 0.0, "bike_id": "cf6a1cdad5650f011134e13146e6a74b", "is_disabled": 0, "is_reserved": 0}, {"rental_uris": {"ios": "https://dc.lft.to/lastmile_qr_scan", "android": "https://dc.lft.to/lastmile_qr_scan"}, "lon": -77.02095883333334, "type": "electric_scooter", "fusion_lat": 0.0, "lat": 38.914203666666666, "name": "685de473cec17f5cbc54c7d4723251e9", "fusion_lon": 0.0, "bike_id": "685de473cec17f5cbc54c7d4723251e9", "is_disabled": 0, "is_reserved": 0}, {"rental_uris": {"ios": "https://dc.lft.to/lastmile_qr_scan", "android": "https://dc.lft.to/lastmile_qr_scan"}, "lon": -77.024923, "type": "electric_scooter", "fusion_lat": 0.0, "lat": 38.941841333333336, "name": "96905995e8a0bb3e782532636ff268d0", "fusion_lon": 0.0, "bike_id": "96905995e8a0bb3e782532636ff268d0", "is_disabled": 0, "is_reserved": 0}, {"rental_uris": {"ios": "https://dc.lft.to/lastmile_qr_scan", "android": "https://dc.lft.to/lastmile_qr_scan"}, "lon": -77.03165016666667, "type": "electric_scooter", "fusion_lat": 0.0, "lat": 38.8996275, "name": "199ca2038b44950ede6fd88825b7bb06", "fusion_lon": 0.0, "bike_id": "199ca2038b44950ede6fd88825b7bb06", "is_disabled": 0, "is_reserved": 0}, {"rental_uris": {"ios": "https://dc.lft.to/lastmile_qr_scan", "android": "https://dc.lft.to/lastmile_qr_scan"}, "lon": -77.01720283333333, "type": "electric_scooter", "fusion_lat": 0.0, "lat": 38.9117105, "name": "989ed94eb9c29c49e200ca92f903cad3", "fusion_lon": 0.0, "bike_id": "989ed94eb9c29c49e200ca92f903cad3", "is_disabled": 0, "is_reserved": 0}, {"rental_uris": {"ios": "https://dc.lft.to/lastmile_qr_scan", "android": "https://dc.lft.to/lastmile_qr_scan"}, "lon": -77.152664, "type": "electric_bike", "fusion_lat": 0.0, "lat": 39.105644166666664, "name": "20760713e3d4974d2c36315e5b2fdc22", "fusion_lon": 0.0, "bike_id": "20760713e3d4974d2c36315e5b2fdc22", "is_disabled": 0, "is_reserved": 0}, {"rental_uris": {"ios": "https://dc.lft.to/lastmile_qr_scan", "android": "https://dc.lft.to/lastmile_qr_scan"}, "lon": -77.0222835, "type": "electric_scooter", "fusion_lat": 0.0, "lat": 38.893568333333334, "name": "b9ea71defe6717b35a53f30797b3b244", "fusion_lon": 0.0, "bike_id": "b9ea71defe6717b35a53f30797b3b244", "is_disabled": 0, "is_reserved": 0}, {"rental_uris": {"ios": "https://dc.lft.to/lastmile_qr_scan", "android": "https://dc.lft.to/lastmile_qr_scan"}, "lon": -77.038981, "type": "electric_scooter", "fusion_lat": 0.0, "lat": 38.9219065, "name": "aef3010b415ae5e8c91fb49271dd2f03", "fusion_lon": 0.0, "bike_id": "aef3010b415ae5e8c91fb49271dd2f03", "is_disabled": 0, "is_reserved": 0}, {"rental_uris": {"ios": "https://dc.lft.to/lastmile_qr_scan", "android": "https://dc.lft.to/lastmile_qr_scan"}, "lon": -76.93174983333333, "type": "electric_scooter", "fusion_lat": 0.0, "lat": 38.8988125, "name": "2b9c9a2613f348f3ae3ac8e96a69da22", "fusion_lon": 0.0, "bike_id": "2b9c9a2613f348f3ae3ac8e96a69da22", "is_disabled": 0, "is_reserved": 0}, {"rental_uris": {"ios": "https://dc.lft.to/lastmile_qr_scan", "android": "https://dc.lft.to/lastmile_qr_scan"}, "lon": -77.01108883333333, "type": "electric_scooter", "fusion_lat": 0.0, "lat": 38.8950805, "name": "d2df6d72d7ac3c3fb15ae415fcf4cb3f", "fusion_lon": 0.0, "bike_id": "d2df6d72d7ac3c3fb15ae415fcf4cb3f", "is_disabled": 0, "is_reserved": 0}, {"rental_uris": {"ios": "https://dc.lft.to/lastmile_qr_scan", "android": "https://dc.lft.to/lastmile_qr_scan"}, "lon": -76.93794916666667, "type": "electric_scooter", "fusion_lat": 0.0, "lat": 38.890827333333334, "name": "0f6edbdf5dbb3c62dbe1cea5dc0ad3f5", "fusion_lon": 0.0, "bike_id": "0f6edbdf5dbb3c62dbe1cea5dc0ad3f5", "is_disabled": 0, "is_reserved": 0}, {"rental_uris": {"ios": "https://dc.lft.to/lastmile_qr_scan", "android": "https://dc.lft.to/lastmile_qr_scan"}, "lon": -76.9575505, "type": "electric_scooter", "fusion_lat": 0.0, "lat": 38.8842715, "name": "647858dd45fa39813b03568631d9f6f4", "fusion_lon": 0.0, "bike_id": "647858dd45fa39813b03568631d9f6f4", "is_disabled": 0, "is_reserved": 0}, {"rental_uris": {"ios": "https://dc.lft.to/lastmile_qr_scan", "android": "https://dc.lft.to/lastmile_qr_scan"}, "lon": -77.03083133333334, "type": "electric_scooter", "fusion_lat": 0.0, "lat": 38.880330666666666, "name": "3e7d99d716c9887c283846c74c061b79", "fusion_lon": 0.0, "bike_id": "3e7d99d716c9887c283846c74c061b79", "is_disabled": 0, "is_reserved": 0}, {"rental_uris": {"ios": "https://dc.lft.to/lastmile_qr_scan", "android": "https://dc.lft.to/lastmile_qr_scan"}, "lon": -76.965058, "type": "electric_scooter", "fusion_lat": 0.0, "lat": 38.87647183333333, "name": "ce446ef563bb84bc5185d8d0b177946c", "fusion_lon": 0.0, "bike_id": "ce446ef563bb84bc5185d8d0b177946c", "is_disabled": 0, "is_reserved": 0}, {"rental_uris": {"ios": "https://dc.lft.to/lastmile_qr_scan", "android": "https://dc.lft.to/lastmile_qr_scan"}, "lon": -77.0085795, "type": "electric_bike", "fusion_lat": 0.0, "lat": 38.827340166666666, "name": "7a055a75a9244e2276f40a48ac019152", "fusion_lon": 0.0, "bike_id": "7a055a75a9244e2276f40a48ac019152", "is_disabled": 0, "is_reserved": 0}, {"rental_uris": {"ios": "https://dc.lft.to/lastmile_qr_scan", "android": "https://dc.lft.to/lastmile_qr_scan"}, "lon": -77.03792333333334, "type": "electric_scooter", "fusion_lat": 0.0, "lat": 38.90120566666667, "name": "fb8a67ab414b0943b9dfdd56b4e41a56", "fusion_lon": 0.0, "bike_id": "fb8a67ab414b0943b9dfdd56b4e41a56", "is_disabled": 0, "is_reserved": 0}, {"rental_uris": {"ios": "https://dc.lft.to/lastmile_qr_scan", "android": "https://dc.lft.to/lastmile_qr_scan"}, "lon": -77.0219135, "type": "electric_scooter", "fusion_lat": 0.0, "lat": 38.90541533333333, "name": "8a6223b09998917b828b565137592c2f", "fusion_lon": 0.0, "bike_id": "8a6223b09998917b828b565137592c2f", "is_disabled": 0, "is_reserved": 0}, {"rental_uris": {"ios": "https://dc.lft.to/lastmile_qr_scan", "android": "https://dc.lft.to/lastmile_qr_scan"}, "lon": -77.05293483333334, "type": "electric_scooter", "fusion_lat": 0.0, "lat": 38.9189385, "name": "6ad94bbb0f11a30172090115b4599898", "fusion_lon": 0.0, "bike_id": "6ad94bbb0f11a30172090115b4599898", "is_disabled": 0, "is_reserved": 0}, {"rental_uris": {"ios": "https://dc.lft.to/lastmile_qr_scan", "android": "https://dc.lft.to/lastmile_qr_scan"}, "lon": -77.03276933333333, "type": "electric_scooter", "fusion_lat": 0.0, "lat": 38.892193, "name": "e8a0a3f1565348b0cce179cda76839e4", "fusion_lon": 0.0, "bike_id": "e8a0a3f1565348b0cce179cda76839e4", "is_disabled": 0, "is_reserved": 0}, {"rental_uris": {"ios": "https://dc.lft.to/lastmile_qr_scan", "android": "https://dc.lft.to/lastmile_qr_scan"}, "lon": -77.02734, "type": "electric_scooter", "fusion_lat": 0.0, "lat": 38.916927333333334, "name": "9ccf0e6e44d68b79660958e544c9bb6b", "fusion_lon": 0.0, "bike_id": "9ccf0e6e44d68b79660958e544c9bb6b", "is_disabled": 0, "is_reserved": 0}, {"rental_uris": {"ios": "https://dc.lft.to/lastmile_qr_scan", "android": "https://dc.lft.to/lastmile_qr_scan"}, "lon": -77.05509233333333, "type": "electric_scooter", "fusion_lat": 0.0, "lat": 38.9297285, "name": "aa1ebb984c7a2872dd05f16a3b367495", "fusion_lon": 0.0, "bike_id": "aa1ebb984c7a2872dd05f16a3b367495", "is_disabled": 0, "is_reserved": 0}, {"rental_uris": {"ios": "https://dc.lft.to/lastmile_qr_scan", "android": "https://dc.lft.to/lastmile_qr_scan"}, "lon": -77.07066716666667, "type": "electric_scooter", "fusion_lat": 0.0, "lat": 38.95216883333333, "name": "6659e2eb0cc02212842a50ac1bd9d929", "fusion_lon": 0.0, "bike_id": "6659e2eb0cc02212842a50ac1bd9d929", "is_disabled": 0, "is_reserved": 0}, {"rental_uris": {"ios": "https://dc.lft.to/lastmile_qr_scan", "android": "https://dc.lft.to/lastmile_qr_scan"}, "lon": -76.98565533333333, "type": "electric_scooter", "fusion_lat": 0.0, "lat": 38.85586883333333, "name": "069c60cf40b78a91db07d28c4156b5c0", "fusion_lon": 0.0, "bike_id": "069c60cf40b78a91db07d28c4156b5c0", "is_disabled": 0, "is_reserved": 0}, {"rental_uris": {"ios": "https://dc.lft.to/lastmile_qr_scan", "android": "https://dc.lft.to/lastmile_qr_scan"}, "lon": -76.99001133333333, "type": "electric_scooter", "fusion_lat": 0.0, "lat": 38.86503883333334, "name": "b815aa3c0caa6dd857e3e02f69a07b4b", "fusion_lon": 0.0, "bike_id": "b815aa3c0caa6dd857e3e02f69a07b4b", "is_disabled": 0, "is_reserved": 0}, {"rental_uris": {"ios": "https://dc.lft.to/lastmile_qr_scan", "android": "https://dc.lft.to/lastmile_qr_scan"}, "lon": -76.9489315, "type": "electric_scooter", "fusion_lat": 0.0, "lat": 38.895292166666664, "name": "6c61b08e45281ecfd492e1739c5158d4", "fusion_lon": 0.0, "bike_id": "6c61b08e45281ecfd492e1739c5158d4", "is_disabled": 0, "is_reserved": 0}, {"rental_uris": {"ios": "https://dc.lft.to/lastmile_qr_scan", "android": "https://dc.lft.to/lastmile_qr_scan"}, "lon": -77.04187866666666, "type": "electric_scooter", "fusion_lat": 0.0, "lat": 38.90351016666666, "name": "51834f7e397c0efdde847cf4a8fc4536", "fusion_lon": 0.0, "bike_id": "51834f7e397c0efdde847cf4a8fc4536", "is_disabled": 0, "is_reserved": 0}, {"rental_uris": {"ios": "https://dc.lft.to/lastmile_qr_scan", "android": "https://dc.lft.to/lastmile_qr_scan"}, "lon": -77.05416366666667, "type": "electric_scooter", "fusion_lat": 0.0, "lat": 38.90254133333333, "name": "9a3a02ac2b27d106ec9be215ca56cdbb", "fusion_lon": 0.0, "bike_id": "9a3a02ac2b27d106ec9be215ca56cdbb", "is_disabled": 0, "is_reserved": 0}, {"rental_uris": {"ios": "https://dc.lft.to/lastmile_qr_scan", "android": "https://dc.lft.to/lastmile_qr_scan"}, "lon": -77.019469, "type": "electric_scooter", "fusion_lat": 0.0, "lat": 38.92417366666667, "name": "3725f9c293073d3c9f472e2b17aaa08d", "fusion_lon": 0.0, "bike_id": "3725f9c293073d3c9f472e2b17aaa08d", "is_disabled": 0, "is_reserved": 0}, {"rental_uris": {"ios": "https://dc.lft.to/lastmile_qr_scan", "android": "https://dc.lft.to/lastmile_qr_scan"}, "lon": -77.047219, "type": "electric_scooter", "fusion_lat": 0.0, "lat": 38.92233516666667, "name": "ad8b715376b885f9ec852819debae828", "fusion_lon": 0.0, "bike_id": "ad8b715376b885f9ec852819debae828", "is_disabled": 0, "is_reserved": 0}, {"rental_uris": {"ios": "https://dc.lft.to/lastmile_qr_scan", "android": "https://dc.lft.to/lastmile_qr_scan"}, "lon": -77.0350085, "type": "electric_scooter", "fusion_lat": 0.0, "lat": 38.92149583333333, "name": "41b39f8ee62a2b5a1b2e0d21ab1fd194", "fusion_lon": 0.0, "bike_id": "41b39f8ee62a2b5a1b2e0d21ab1fd194", "is_disabled": 0, "is_reserved": 0}, {"rental_uris": {"ios": "https://dc.lft.to/lastmile_qr_scan", "android": "https://dc.lft.to/lastmile_qr_scan"}, "lon": -77.03150266666667, "type": "electric_scooter", "fusion_lat": 0.0, "lat": 38.914187166666665, "name": "bf9d27b3f0ee4ab630dd6a61cca40362", "fusion_lon": 0.0, "bike_id": "bf9d27b3f0ee4ab630dd6a61cca40362", "is_disabled": 0, "is_reserved": 0}, {"rental_uris": {"ios": "https://dc.lft.to/lastmile_qr_scan", "android": "https://dc.lft.to/lastmile_qr_scan"}, "lon": -77.0175755, "type": "electric_scooter", "fusion_lat": 0.0, "lat": 38.921071166666664, "name": "5502c770cf588251b3b8699d67e47ba0", "fusion_lon": 0.0, "bike_id": "5502c770cf588251b3b8699d67e47ba0", "is_disabled": 0, "is_reserved": 0}, {"rental_uris": {"ios": "https://dc.lft.to/lastmile_qr_scan", "android": "https://dc.lft.to/lastmile_qr_scan"}, "lon": -76.9871515, "type": "electric_scooter", "fusion_lat": 0.0, "lat": 38.866984333333335, "name": "b5370804a36f95bf759b9ae18deb7bfe", "fusion_lon": 0.0, "bike_id": "b5370804a36f95bf759b9ae18deb7bfe", "is_disabled": 0, "is_reserved": 0}, {"rental_uris": {"ios": "https://dc.lft.to/lastmile_qr_scan", "android": "https://dc.lft.to/lastmile_qr_scan"}, "lon": -77.03185533333334, "type": "electric_scooter", "fusion_lat": 0.0, "lat": 38.8959755, "name": "c1f97528ef752d8d7d0d12206e01b092", "fusion_lon": 0.0, "bike_id": "c1f97528ef752d8d7d0d12206e01b092", "is_disabled": 0, "is_reserved": 0}, {"rental_uris": {"ios": "https://dc.lft.to/lastmile_qr_scan", "android": "https://dc.lft.to/lastmile_qr_scan"}, "lon": -77.0090455, "type": "electric_scooter", "fusion_lat": 0.0, "lat": 38.91232566666667, "name": "3e0a3743e869aa3143c440366a880efb", "fusion_lon": 0.0, "bike_id": "3e0a3743e869aa3143c440366a880efb", "is_disabled": 0, "is_reserved": 0}, {"rental_uris": {"ios": "https://dc.lft.to/lastmile_qr_scan", "android": "https://dc.lft.to/lastmile_qr_scan"}, "lon": -76.93179016666667, "type": "electric_scooter", "fusion_lat": 0.0, "lat": 38.8988525, "name": "820dfabdbdc7eaeab7f0ccbd42a43d8e", "fusion_lon": 0.0, "bike_id": "820dfabdbdc7eaeab7f0ccbd42a43d8e", "is_disabled": 0, "is_reserved": 0}, {"rental_uris": {"ios": "https://dc.lft.to/lastmile_qr_scan", "android": "https://dc.lft.to/lastmile_qr_scan"}, "lon": -76.927108, "type": "electric_scooter", "fusion_lat": 0.0, "lat": 38.887705, "name": "7c1cf7ee97d46b2e08c8f908fb290d63", "fusion_lon": 0.0, "bike_id": "7c1cf7ee97d46b2e08c8f908fb290d63", "is_disabled": 0, "is_reserved": 0}, {"rental_uris": {"ios": "https://dc.lft.to/lastmile_qr_scan", "android": "https://dc.lft.to/lastmile_qr_scan"}, "lon": -77.01579983333333, "type": "electric_scooter", "fusion_lat": 0.0, "lat": 38.916829666666665, "name": "a08c871795ee9dd61ea519ab5b4e24ff", "fusion_lon": 0.0, "bike_id": "a08c871795ee9dd61ea519ab5b4e24ff", "is_disabled": 0, "is_reserved": 0}, {"rental_uris": {"ios": "https://dc.lft.to/lastmile_qr_scan", "android": "https://dc.lft.to/lastmile_qr_scan"}, "lon": -77.03135666666667, "type": "electric_scooter", "fusion_lat": 0.0, "lat": 38.923699666666664, "name": "2933660a120b0119754ed3f7e8fbbc67", "fusion_lon": 0.0, "bike_id": "2933660a120b0119754ed3f7e8fbbc67", "is_disabled": 0, "is_reserved": 0}, {"rental_uris": {"ios": "https://dc.lft.to/lastmile_qr_scan", "android": "https://dc.lft.to/lastmile_qr_scan"}, "lon": -77.04809383333334, "type": "electric_scooter", "fusion_lat": 0.0, "lat": 38.916258666666664, "name": "96f4784068277d1ec274bef4d6faa418", "fusion_lon": 0.0, "bike_id": "96f4784068277d1ec274bef4d6faa418", "is_disabled": 0, "is_reserved": 0}, {"rental_uris": {"ios": "https://dc.lft.to/lastmile_qr_scan", "android": "https://dc.lft.to/lastmile_qr_scan"}, "lon": -76.99776383333334, "type": "electric_scooter", "fusion_lat": 0.0, "lat": 38.844271166666665, "name": "178f5a2f75cee682ef35a8b10b277c7e", "fusion_lon": 0.0, "bike_id": "178f5a2f75cee682ef35a8b10b277c7e", "is_disabled": 0, "is_reserved": 0}, {"rental_uris": {"ios": "https://dc.lft.to/lastmile_qr_scan", "android": "https://dc.lft.to/lastmile_qr_scan"}, "lon": -77.03033216666667, "type": "electric_scooter", "fusion_lat": 0.0, "lat": 38.92250583333333, "name": "6d8b9d18bb1c6f54f68375f5076e74e9", "fusion_lon": 0.0, "bike_id": "6d8b9d18bb1c6f54f68375f5076e74e9", "is_disabled": 0, "is_reserved": 0}, {"rental_uris": {"ios": "https://dc.lft.to/lastmile_qr_scan", "android": "https://dc.lft.to/lastmile_qr_scan"}, "lon": -77.03263816666667, "type": "electric_scooter", "fusion_lat": 0.0, "lat": 38.9442025, "name": "bdf04c8ef498f17aa9d01aaa37f1cbed", "fusion_lon": 0.0, "bike_id": "bdf04c8ef498f17aa9d01aaa37f1cbed", "is_disabled": 0, "is_reserved": 0}, {"rental_uris": {"ios": "https://dc.lft.to/lastmile_qr_scan", "android": "https://dc.lft.to/lastmile_qr_scan"}, "lon": -77.0179395, "type": "electric_scooter", "fusion_lat": 0.0, "lat": 38.941139666666665, "name": "21b0c42861715a217b981a3c6dd0cb3f", "fusion_lon": 0.0, "bike_id": "21b0c42861715a217b981a3c6dd0cb3f", "is_disabled": 0, "is_reserved": 0}, {"rental_uris": {"ios": "https://dc.lft.to/lastmile_qr_scan", "android": "https://dc.lft.to/lastmile_qr_scan"}, "lon": -77.03320583333333, "type": "electric_scooter", "fusion_lat": 0.0, "lat": 38.898123166666664, "name": "8653b0e09ffed866dbab2200268a8d2a", "fusion_lon": 0.0, "bike_id": "8653b0e09ffed866dbab2200268a8d2a", "is_disabled": 0, "is_reserved": 0}, {"rental_uris": {"ios": "https://dc.lft.to/lastmile_qr_scan", "android": "https://dc.lft.to/lastmile_qr_scan"}, "lon": -77.06605933333333, "type": "electric_scooter", "fusion_lat": 0.0, "lat": 38.90527266666667, "name": "ea5d00118aced1d2980130c2f4735ca9", "fusion_lon": 0.0, "bike_id": "ea5d00118aced1d2980130c2f4735ca9", "is_disabled": 0, "is_reserved": 0}, {"rental_uris": {"ios": "https://dc.lft.to/lastmile_qr_scan", "android": "https://dc.lft.to/lastmile_qr_scan"}, "lon": -77.03149716666667, "type": "electric_scooter", "fusion_lat": 0.0, "lat": 38.9156385, "name": "90a8548c37075a590474ade9d5e9320d", "fusion_lon": 0.0, "bike_id": "90a8548c37075a590474ade9d5e9320d", "is_disabled": 0, "is_reserved": 0}, {"rental_uris": {"ios": "https://dc.lft.to/lastmile_qr_scan", "android": "https://dc.lft.to/lastmile_qr_scan"}, "lon": -77.01392733333333, "type": "electric_scooter", "fusion_lat": 0.0, "lat": 38.97016583333333, "name": "12d0104d7abc6e5cfea78fed2aa2e2f9", "fusion_lon": 0.0, "bike_id": "12d0104d7abc6e5cfea78fed2aa2e2f9", "is_disabled": 0, "is_reserved": 0}, {"rental_uris": {"ios": "https://dc.lft.to/lastmile_qr_scan", "android": "https://dc.lft.to/lastmile_qr_scan"}, "lon": -77.01533833333333, "type": "electric_scooter", "fusion_lat": 0.0, "lat": 38.90199, "name": "4b43026d6abfff7e9dc57e1851a51e55", "fusion_lon": 0.0, "bike_id": "4b43026d6abfff7e9dc57e1851a51e55", "is_disabled": 0, "is_reserved": 0}, {"rental_uris": {"ios": "https://dc.lft.to/lastmile_qr_scan", "android": "https://dc.lft.to/lastmile_qr_scan"}, "lon": -77.0344255, "type": "electric_scooter", "fusion_lat": 0.0, "lat": 38.902644, "name": "7fd5f48442d743ccfa21434e098133a7", "fusion_lon": 0.0, "bike_id": "7fd5f48442d743ccfa21434e098133a7", "is_disabled": 0, "is_reserved": 0}, {"rental_uris": {"ios": "https://dc.lft.to/lastmile_qr_scan", "android": "https://dc.lft.to/lastmile_qr_scan"}, "lon": -76.9979575, "type": "electric_scooter", "fusion_lat": 0.0, "lat": 38.921791999999996, "name": "c4b33f4ec8bd56a081340f4ce215acc2", "fusion_lon": 0.0, "bike_id": "c4b33f4ec8bd56a081340f4ce215acc2", "is_disabled": 0, "is_reserved": 0}, {"rental_uris": {"ios": "https://dc.lft.to/lastmile_qr_scan", "android": "https://dc.lft.to/lastmile_qr_scan"}, "lon": -77.03663333333333, "type": "electric_scooter", "fusion_lat": 0.0, "lat": 38.918149, "name": "622a2b3702e59d95a673942bebf096ef", "fusion_lon": 0.0, "bike_id": "622a2b3702e59d95a673942bebf096ef", "is_disabled": 0, "is_reserved": 0}, {"rental_uris": {"ios": "https://dc.lft.to/lastmile_qr_scan", "android": "https://dc.lft.to/lastmile_qr_scan"}, "lon": -76.99599216666667, "type": "electric_scooter", "fusion_lat": 0.0, "lat": 38.84542233333333, "name": "b8bd21f5c894609b27e40d079378c64c", "fusion_lon": 0.0, "bike_id": "b8bd21f5c894609b27e40d079378c64c", "is_disabled": 0, "is_reserved": 0}, {"rental_uris": {"ios": "https://dc.lft.to/lastmile_qr_scan", "android": "https://dc.lft.to/lastmile_qr_scan"}, "lon": -77.02970066666667, "type": "electric_scooter", "fusion_lat": 0.0, "lat": 38.90524666666666, "name": "ca9143ba1a1d14edfc9f549bbdf31299", "fusion_lon": 0.0, "bike_id": "ca9143ba1a1d14edfc9f549bbdf31299", "is_disabled": 0, "is_reserved": 0}, {"rental_uris": {"ios": "https://dc.lft.to/lastmile_qr_scan", "android": "https://dc.lft.to/lastmile_qr_scan"}, "lon": -76.987428, "type": "electric_bike", "fusion_lat": 0.0, "lat": 38.8579215, "name": "8d4d4f97a85bef617f7caa67255f5066", "fusion_lon": 0.0, "bike_id": "8d4d4f97a85bef617f7caa67255f5066", "is_disabled": 0, "is_reserved": 0}, {"rental_uris": {"ios": "https://dc.lft.to/lastmile_qr_scan", "android": "https://dc.lft.to/lastmile_qr_scan"}, "lon": -77.04708916666667, "type": "electric_scooter", "fusion_lat": 0.0, "lat": 38.921736, "name": "34798cf97247aa28a1d8e5001f336973", "fusion_lon": 0.0, "bike_id": "34798cf97247aa28a1d8e5001f336973", "is_disabled": 0, "is_reserved": 0}, {"rental_uris": {"ios": "https://dc.lft.to/lastmile_qr_scan", "android": "https://dc.lft.to/lastmile_qr_scan"}, "lon": -77.02715733333334, "type": "electric_scooter", "fusion_lat": 0.0, "lat": 38.91804316666666, "name": "75d3ffea9cb91d401ccb44f3f786ccdb", "fusion_lon": 0.0, "bike_id": "75d3ffea9cb91d401ccb44f3f786ccdb", "is_disabled": 0, "is_reserved": 0}, {"rental_uris": {"ios": "https://dc.lft.to/lastmile_qr_scan", "android": "https://dc.lft.to/lastmile_qr_scan"}, "lon": -76.984981, "type": "electric_scooter", "fusion_lat": 0.0, "lat": 38.86045766666667, "name": "d4422d9b6ba076ba06e4d9a01fc60d65", "fusion_lon": 0.0, "bike_id": "d4422d9b6ba076ba06e4d9a01fc60d65", "is_disabled": 0, "is_reserved": 0}, {"rental_uris": {"ios": "https://dc.lft.to/lastmile_qr_scan", "android": "https://dc.lft.to/lastmile_qr_scan"}, "lon": -77.03934366666667, "type": "electric_scooter", "fusion_lat": 0.0, "lat": 38.89928883333333, "name": "dc490efa7deed471788f6636f1636595", "fusion_lon": 0.0, "bike_id": "dc490efa7deed471788f6636f1636595", "is_disabled": 0, "is_reserved": 0}, {"rental_uris": {"ios": "https://dc.lft.to/lastmile_qr_scan", "android": "https://dc.lft.to/lastmile_qr_scan"}, "lon": -77.04237633333334, "type": "electric_scooter", "fusion_lat": 0.0, "lat": 38.90607383333333, "name": "87645d3855b5ddaa2e143f184ba44873", "fusion_lon": 0.0, "bike_id": "87645d3855b5ddaa2e143f184ba44873", "is_disabled": 0, "is_reserved": 0}, {"rental_uris": {"ios": "https://dc.lft.to/lastmile_qr_scan", "android": "https://dc.lft.to/lastmile_qr_scan"}, "lon": -76.97890233333334, "type": "electric_scooter", "fusion_lat": 0.0, "lat": 38.904213, "name": "7a181a51883a2f559e63d215ceeaf5ff", "fusion_lon": 0.0, "bike_id": "7a181a51883a2f559e63d215ceeaf5ff", "is_disabled": 0, "is_reserved": 0}, {"rental_uris": {"ios": "https://dc.lft.to/lastmile_qr_scan", "android": "https://dc.lft.to/lastmile_qr_scan"}, "lon": -77.100922, "type": "electric_bike", "fusion_lat": 0.0, "lat": 38.959594, "name": "a3ada7b3f4a92af47e797b1116099e3a", "fusion_lon": 0.0, "bike_id": "a3ada7b3f4a92af47e797b1116099e3a", "is_disabled": 0, "is_reserved": 0}, {"rental_uris": {"ios": "https://dc.lft.to/lastmile_qr_scan", "android": "https://dc.lft.to/lastmile_qr_scan"}, "lon": -77.039098, "type": "electric_scooter", "fusion_lat": 0.0, "lat": 38.89198316666667, "name": "8b74b903c510a6f6715749cd20d38015", "fusion_lon": 0.0, "bike_id": "8b74b903c510a6f6715749cd20d38015", "is_disabled": 0, "is_reserved": 0}, {"rental_uris": {"ios": "https://dc.lft.to/lastmile_qr_scan", "android": "https://dc.lft.to/lastmile_qr_scan"}, "lon": -76.94631983333333, "type": "electric_scooter", "fusion_lat": 0.0, "lat": 38.898421666666664, "name": "dc5a7cb9f402210e396f899f4ec86120", "fusion_lon": 0.0, "bike_id": "dc5a7cb9f402210e396f899f4ec86120", "is_disabled": 0, "is_reserved": 0}, {"rental_uris": {"ios": "https://dc.lft.to/lastmile_qr_scan", "android": "https://dc.lft.to/lastmile_qr_scan"}, "lon": -77.01372666666667, "type": "electric_scooter", "fusion_lat": 0.0, "lat": 38.86371166666667, "name": "924b1f655ee462fba9f0819cc1e9b407", "fusion_lon": 0.0, "bike_id": "924b1f655ee462fba9f0819cc1e9b407", "is_disabled": 0, "is_reserved": 0}, {"rental_uris": {"ios": "https://dc.lft.to/lastmile_qr_scan", "android": "https://dc.lft.to/lastmile_qr_scan"}, "lon": -77.05860316666667, "type": "electric_scooter", "fusion_lat": 0.0, "lat": 38.93604166666667, "name": "8ad22c35c0042495ec7b433e750f05b3", "fusion_lon": 0.0, "bike_id": "8ad22c35c0042495ec7b433e750f05b3", "is_disabled": 0, "is_reserved": 0}, {"rental_uris": {"ios": "https://dc.lft.to/lastmile_qr_scan", "android": "https://dc.lft.to/lastmile_qr_scan"}, "lon": -77.0604735, "type": "electric_scooter", "fusion_lat": 0.0, "lat": 38.9391235, "name": "eef210bf3b884ca2098652ff48c047e4", "fusion_lon": 0.0, "bike_id": "eef210bf3b884ca2098652ff48c047e4", "is_disabled": 0, "is_reserved": 0}, {"rental_uris": {"ios": "https://dc.lft.to/lastmile_qr_scan", "android": "https://dc.lft.to/lastmile_qr_scan"}, "lon": -77.03586233333333, "type": "electric_scooter", "fusion_lat": 0.0, "lat": 38.932396, "name": "88be1896ff36639f2c67456c3595a8e0", "fusion_lon": 0.0, "bike_id": "88be1896ff36639f2c67456c3595a8e0", "is_disabled": 0, "is_reserved": 0}, {"rental_uris": {"ios": "https://dc.lft.to/lastmile_qr_scan", "android": "https://dc.lft.to/lastmile_qr_scan"}, "lon": -77.0156575, "type": "electric_scooter", "fusion_lat": 0.0, "lat": 38.900352833333336, "name": "5e9c2764b4c5d893e42edbf2bbfaa243", "fusion_lon": 0.0, "bike_id": "5e9c2764b4c5d893e42edbf2bbfaa243", "is_disabled": 0, "is_reserved": 0}, {"rental_uris": {"ios": "https://dc.lft.to/lastmile_qr_scan", "android": "https://dc.lft.to/lastmile_qr_scan"}, "lon": -77.063295, "type": "electric_bike", "fusion_lat": 0.0, "lat": 38.92106916666667, "name": "ee09dd5c5a81688627db77f06521ff60", "fusion_lon": 0.0, "bike_id": "ee09dd5c5a81688627db77f06521ff60", "is_disabled": 0, "is_reserved": 0}, {"rental_uris": {"ios": "https://dc.lft.to/lastmile_qr_scan", "android": "https://dc.lft.to/lastmile_qr_scan"}, "lon": -77.0321945, "type": "electric_scooter", "fusion_lat": 0.0, "lat": 38.91692716666667, "name": "200fa59911c26a31ce8c6db3ef993bcc", "fusion_lon": 0.0, "bike_id": "200fa59911c26a31ce8c6db3ef993bcc", "is_disabled": 0, "is_reserved": 0}, {"rental_uris": {"ios": "https://dc.lft.to/lastmile_qr_scan", "android": "https://dc.lft.to/lastmile_qr_scan"}, "lon": -77.048315, "type": "electric_scooter", "fusion_lat": 0.0, "lat": 38.9079705, "name": "48b149748a43fa147ebb8382d521560f", "fusion_lon": 0.0, "bike_id": "48b149748a43fa147ebb8382d521560f", "is_disabled": 0, "is_reserved": 0}, {"rental_uris": {"ios": "https://dc.lft.to/lastmile_qr_scan", "android": "https://dc.lft.to/lastmile_qr_scan"}, "lon": -77.02171816666667, "type": "electric_scooter", "fusion_lat": 0.0, "lat": 38.9429455, "name": "b51f3cab798f970eaf23723138198eaf", "fusion_lon": 0.0, "bike_id": "b51f3cab798f970eaf23723138198eaf", "is_disabled": 0, "is_reserved": 0}, {"rental_uris": {"ios": "https://dc.lft.to/lastmile_qr_scan", "android": "https://dc.lft.to/lastmile_qr_scan"}, "lon": -77.08273466666667, "type": "electric_scooter", "fusion_lat": 0.0, "lat": 38.935862, "name": "2130aadde23bdc2dcc320ba11766dba4", "fusion_lon": 0.0, "bike_id": "2130aadde23bdc2dcc320ba11766dba4", "is_disabled": 0, "is_reserved": 0}, {"rental_uris": {"ios": "https://dc.lft.to/lastmile_qr_scan", "android": "https://dc.lft.to/lastmile_qr_scan"}, "lon": -77.03287216666666, "type": "electric_scooter", "fusion_lat": 0.0, "lat": 38.928753666666665, "name": "1f5acac349e1598d3e0b94c2dfc0c1a5", "fusion_lon": 0.0, "bike_id": "1f5acac349e1598d3e0b94c2dfc0c1a5", "is_disabled": 0, "is_reserved": 0}, {"rental_uris": {"ios": "https://dc.lft.to/lastmile_qr_scan", "android": "https://dc.lft.to/lastmile_qr_scan"}, "lon": -77.03189983333333, "type": "electric_scooter", "fusion_lat": 0.0, "lat": 38.9296075, "name": "763531ac69023e0f5164dabd1a166bca", "fusion_lon": 0.0, "bike_id": "763531ac69023e0f5164dabd1a166bca", "is_disabled": 0, "is_reserved": 0}, {"rental_uris": {"ios": "https://dc.lft.to/lastmile_qr_scan", "android": "https://dc.lft.to/lastmile_qr_scan"}, "lon": -76.9727475, "type": "electric_bike", "fusion_lat": 0.0, "lat": 38.91969, "name": "fb15ff320d8d7a211ab3f83fbd0bf531", "fusion_lon": 0.0, "bike_id": "fb15ff320d8d7a211ab3f83fbd0bf531", "is_disabled": 0, "is_reserved": 0}, {"rental_uris": {"ios": "https://dc.lft.to/lastmile_qr_scan", "android": "https://dc.lft.to/lastmile_qr_scan"}, "lon": -77.031586, "type": "electric_scooter", "fusion_lat": 0.0, "lat": 38.9156575, "name": "61b760582a9cf8796cbbed044e651b4f", "fusion_lon": 0.0, "bike_id": "61b760582a9cf8796cbbed044e651b4f", "is_disabled": 0, "is_reserved": 0}, {"rental_uris": {"ios": "https://dc.lft.to/lastmile_qr_scan", "android": "https://dc.lft.to/lastmile_qr_scan"}, "lon": -77.02385683333334, "type": "electric_scooter", "fusion_lat": 0.0, "lat": 38.93698333333333, "name": "5db4d586454668bfb26ce5be79f436c5", "fusion_lon": 0.0, "bike_id": "5db4d586454668bfb26ce5be79f436c5", "is_disabled": 0, "is_reserved": 0}, {"rental_uris": {"ios": "https://dc.lft.to/lastmile_qr_scan", "android": "https://dc.lft.to/lastmile_qr_scan"}, "lon": -77.040428, "type": "electric_scooter", "fusion_lat": 0.0, "lat": 38.9247025, "name": "1a3602b44666add78ad2220c187380be", "fusion_lon": 0.0, "bike_id": "1a3602b44666add78ad2220c187380be", "is_disabled": 0, "is_reserved": 0}, {"rental_uris": {"ios": "https://dc.lft.to/lastmile_qr_scan", "android": "https://dc.lft.to/lastmile_qr_scan"}, "lon": -77.1105535, "type": "electric_bike", "fusion_lat": 0.0, "lat": 38.87081883333333, "name": "58623ab9152ba38591abfe77e03994af", "fusion_lon": 0.0, "bike_id": "58623ab9152ba38591abfe77e03994af", "is_disabled": 0, "is_reserved": 0}, {"rental_uris": {"ios": "https://dc.lft.to/lastmile_qr_scan", "android": "https://dc.lft.to/lastmile_qr_scan"}, "lon": -76.990002, "type": "electric_scooter", "fusion_lat": 0.0, "lat": 38.865046, "name": "821415690eb5d7fb0e190635db3dda39", "fusion_lon": 0.0, "bike_id": "821415690eb5d7fb0e190635db3dda39", "is_disabled": 0, "is_reserved": 0}, {"rental_uris": {"ios": "https://dc.lft.to/lastmile_qr_scan", "android": "https://dc.lft.to/lastmile_qr_scan"}, "lon": -77.00691433333333, "type": "electric_scooter", "fusion_lat": 0.0, "lat": 38.906176333333335, "name": "95685b61a43d34a9d621b882e702395f", "fusion_lon": 0.0, "bike_id": "95685b61a43d34a9d621b882e702395f", "is_disabled": 0, "is_reserved": 0}, {"rental_uris": {"ios": "https://dc.lft.to/lastmile_qr_scan", "android": "https://dc.lft.to/lastmile_qr_scan"}, "lon": -77.00735516666667, "type": "electric_scooter", "fusion_lat": 0.0, "lat": 38.91623833333333, "name": "c487075cee6b13486fb329cbcfd44123", "fusion_lon": 0.0, "bike_id": "c487075cee6b13486fb329cbcfd44123", "is_disabled": 0, "is_reserved": 0},