{"data": {"bikes": [{"is_disabled": 0, "fusion_lon": 0.0, "fusion_lat": 0.0, "lat": 38.8937545, "type": "electric_scooter", "lon": -76.95002033333333, "bike_id": "ef98a1075931768bfa961b56e7d7a712", "rental_uris": {"android": "https://dc.lft.to/lastmile_qr_scan", "ios": "https://dc.lft.to/lastmile_qr_scan"}, "name": "ef98a1075931768bfa961b56e7d7a712", "is_reserved": 0}, {"is_disabled": 0, "fusion_lon": 0.0, "fusion_lat": 0.0, "lat": 38.911845, "type": "electric_scooter", "lon": -77.03504316666667, "bike_id": "f67d65e5b8fe098235c2d834663a9acc", "rental_uris": {"android": "https://dc.lft.to/lastmile_qr_scan", "ios": "https://dc.lft.to/lastmile_qr_scan"}, "name": "f67d65e5b8fe098235c2d834663a9acc", "is_reserved": 0}, {"is_disabled": 0, "fusion_lon": 0.0, "fusion_lat": 0.0, "lat": 38.90034716666667, "type": "electric_scooter", "lon": -77.01190483333333, "bike_id": "d410406072f4c302de24b99a510b9b65", "rental_uris": {"android": "https://dc.lft.to/lastmile_qr_scan", "ios": "https://dc.lft.to/lastmile_qr_scan"}, "name": "d410406072f4c302de24b99a510b9b65", "is_reserved": 0}, {"is_disabled": 0, "fusion_lon": 0.0, "fusion_lat": 0.0, "lat": 38.88766016666667, "type": "electric_bike", "lon": -76.900793, "bike_id": "d781e0dc10f1384572c6143e19b125c0", "rental_uris": {"android": "https://dc.lft.to/lastmile_qr_scan", "ios": "https://dc.lft.to/lastmile_qr_scan"}, "name": "d781e0dc10f1384572c6143e19b125c0", "is_reserved": 0}, {"is_disabled": 0, "fusion_lon": 0.0, "fusion_lat": 0.0, "lat": 38.92707083333333, "type": "electric_scooter", "lon": -77.02329866666666, "bike_id": "f79e9a98a0c18762c28b85928fb5de09", "rental_uris": {"android": "https://dc.lft.to/lastmile_qr_scan", "ios": "https://dc.lft.to/lastmile_qr_scan"}, "name": "f79e9a98a0c18762c28b85928fb5de09", "is_reserved": 0}, {"is_disabled": 0, "fusion_lon": 0.0, "fusion_lat": 0.0, "lat": 38.86127033333333, "type": "electric_scooter", "lon": -76.9856855, "bike_id": "e442f116a0b897548ac219f94267a468", "rental_uris": {"android": "https://dc.lft.to/lastmile_qr_scan", "ios": "https://dc.lft.to/lastmile_qr_scan"}, "name": "e442f116a0b897548ac219f94267a468", "is_reserved": 0}, {"is_disabled": 0, "fusion_lon": 0.0, "fusion_lat": 0.0, "lat": 38.91188983333333, "type": "electric_scooter", "lon": -77.03828933333334, "bike_id": "695fa88d142788825f3f1519d4b55e56", "rental_uris": {"android": "https://dc.lft.to/lastmile_qr_scan", "ios": "https://dc.lft.to/lastmile_qr_scan"}, "name": "695fa88d142788825f3f1519d4b55e56", "is_reserved": 0}, {"is_disabled": 0, "fusion_lon": 0.0, "fusion_lat": 0.0, "lat": 38.9286215, "type": "electric_scooter", "lon": -77.01415, "bike_id": "d109a6ed29159c1eeb38200e568f2e10", "rental_uris": {"android": "https://dc.lft.to/lastmile_qr_scan", "ios": "https://dc.lft.to/lastmile_qr_scan"}, "name": "d109a6ed29159c1eeb38200e568f2e10", "is_reserved": 0}, {"is_disabled": 0, "fusion_lon": 0.0, "fusion_lat": 0.0, "lat": 38.9272525, "type": "electric_scooter", "lon": -77.02241866666667, "bike_id": "2956e4307c4b633deb69d8f94107a621", "rental_uris": {"android": "https://dc.lft.to/lastmile_qr_scan", "ios": "https://dc.lft.to/lastmile_qr_scan"}, "name": "2956e4307c4b633deb69d8f94107a621", "is_reserved": 0}, {"is_disabled": 0, "fusion_lon": 0.0, "fusion_lat": 0.0, "lat": 38.909682333333336, "type": "electric_scooter", "lon": -77.02307916666666, "bike_id": "411f8053034edb36fc5c580c50c34cf2", "rental_uris": {"android": "https://dc.lft.to/lastmile_qr_scan", "ios": "https://dc.lft.to/lastmile_qr_scan"}, "name": "411f8053034edb36fc5c580c50c34cf2", "is_reserved": 0}, {"is_disabled": 0, "fusion_lon": 0.0, "fusion_lat": 0.0, "lat": 38.90042733333333, "type": "electric_scooter", "lon": -76.92272066666666, "bike_id": "07dddd1b154a4dea795cf9f8df31d9ce", "rental_uris": {"android": "https://dc.lft.to/lastmile_qr_scan", "ios": "https://dc.lft.to/lastmile_qr_scan"}, "name": "07dddd1b154a4dea795cf9f8df31d9ce", "is_reserved": 0}, {"is_disabled": 0, "fusion_lon": 0.0, "fusion_lat": 0.0, "lat": 38.895276333333335, "type": "electric_scooter", "lon": -76.97714333333333, "bike_id": "c580ab79db95490ec49a35dc712c64a3", "rental_uris": {"android": "https://dc.lft.to/lastmile_qr_scan", "ios": "https://dc.lft.to/lastmile_qr_scan"}, "name": "c580ab79db95490ec49a35dc712c64a3", "is_reserved": 0}, {"is_disabled": 0, "fusion_lon": 0.0, "fusion_lat": 0.0, "lat": 38.93366316666667, "type": "electric_scooter", "lon": -77.02384566666667, "bike_id": "0e39987ccd103a51d0abbb1322baee47", "rental_uris": {"android": "https://dc.lft.to/lastmile_qr_scan", "ios": "https://dc.lft.to/lastmile_qr_scan"}, "name": "0e39987ccd103a51d0abbb1322baee47", "is_reserved": 0}, {"is_disabled": 0, "fusion_lon": 0.0, "fusion_lat": 0.0, "lat": 38.86693666666667, "type": "electric_scooter", "lon": -76.98702533333334, "bike_id": "95a44c9178ad20b5d490504cc2940324", "rental_uris": {"android": "https://dc.lft.to/lastmile_qr_scan", "ios": "https://dc.lft.to/lastmile_qr_scan"}, "name": "95a44c9178ad20b5d490504cc2940324", "is_reserved": 0}, {"is_disabled": 0, "fusion_lon": 0.0, "fusion_lat": 0.0, "lat": 38.919928166666665, "type": "electric_scooter", "lon": -77.03186333333333, "bike_id": "f220b7b28cd26eb58e88ac2ec927a0b4", "rental_uris": {"android": "https://dc.lft.to/lastmile_qr_scan", "ios": "https://dc.lft.to/lastmile_qr_scan"}, "name": "f220b7b28cd26eb58e88ac2ec927a0b4", "is_reserved": 0}, {"is_disabled": 0, "fusion_lon": 0.0, "fusion_lat": 0.0, "lat": 38.90643566666667, "type": "electric_scooter", "lon": -77.045418, "bike_id": "a3b820c0a563fbac21b86b3826ca2aab", "rental_uris": {"android": "https://dc.lft.to/lastmile_qr_scan", "ios": "https://dc.lft.to/lastmile_qr_scan"}, "name": "a3b820c0a563fbac21b86b3826ca2aab", "is_reserved": 0}, {"is_disabled": 0, "fusion_lon": 0.0, "fusion_lat": 0.0, "lat": 38.9193315, "type": "electric_scooter", "lon": -77.07094183333334, "bike_id": "5d42d5ba027a6e619a1c4d9884d45804", "rental_uris": {"android": "https://dc.lft.to/lastmile_qr_scan", "ios": "https://dc.lft.to/lastmile_qr_scan"}, "name": "5d42d5ba027a6e619a1c4d9884d45804", "is_reserved": 0}, {"is_disabled": 0, "fusion_lon": 0.0, "fusion_lat": 0.0, "lat": 38.939607333333335, "type": "electric_scooter", "lon": -77.0326255, "bike_id": "c7551b329dbdbf23500ba1f3dc2f4c41", "rental_uris": {"android": "https://dc.lft.to/lastmile_qr_scan", "ios": "https://dc.lft.to/lastmile_qr_scan"}, "name": "c7551b329dbdbf23500ba1f3dc2f4c41", "is_reserved": 0}, {"is_disabled": 0, "fusion_lon": 0.0, "fusion_lat": 0.0, "lat": 39.00780666666667, "type": "electric_bike", "lon": -76.99564533333333, "bike_id": "c8751ca6d36930b67aacb39aec162843", "rental_uris": {"android": "https://dc.lft.to/lastmile_qr_scan", "ios": "https://dc.lft.to/lastmile_qr_scan"}, "name": "c8751ca6d36930b67aacb39aec162843", "is_reserved": 0}, {"is_disabled": 0, "fusion_lon": 0.0, "fusion_lat": 0.0, "lat": 38.94782, "type": "electric_bike", "lon": -77.08064, "bike_id": "126ff000ea068e9768fca6f92ae9753e", "rental_uris": {"android": "https://dc.lft.to/lastmile_qr_scan", "ios": "https://dc.lft.to/lastmile_qr_scan"}, "name": "126ff000ea068e9768fca6f92ae9753e", "is_reserved": 0}, {"is_disabled": 0, "fusion_lon": 0.0, "fusion_lat": 0.0, "lat": 38.90442566666667, "type": "electric_scooter", "lon": -77.02255633333333, "bike_id": "dcce4593371fad3878daddb04ef8caee", "rental_uris": {"android": "https://dc.lft.to/lastmile_qr_scan", "ios": "https://dc.lft.to/lastmile_qr_scan"}, "name": "dcce4593371fad3878daddb04ef8caee", "is_reserved": 0}, {"is_disabled": 0, "fusion_lon": 0.0, "fusion_lat": 0.0, "lat": 38.8960465, "type": "electric_scooter", "lon": -77.02657966666666, "bike_id": "9cda26405b3f03bee1f5eea6a3c5451e", "rental_uris": {"android": "https://dc.lft.to/lastmile_qr_scan", "ios": "https://dc.lft.to/lastmile_qr_scan"}, "name": "9cda26405b3f03bee1f5eea6a3c5451e", "is_reserved": 0}, {"is_disabled": 0, "fusion_lon": 0.0, "fusion_lat": 0.0, "lat": 38.9428385, "type": "electric_bike", "lon": -77.0692275, "bike_id": "b8931e84ea9c14212b045b291811fe18", "rental_uris": {"android": "https://dc.lft.to/lastmile_qr_scan", "ios": "https://dc.lft.to/lastmile_qr_scan"}, "name": "b8931e84ea9c14212b045b291811fe18", "is_reserved": 0}, {"is_disabled": 0, "fusion_lon": 0.0, "fusion_lat": 0.0, "lat": 38.91729816666667, "type": "electric_scooter", "lon": -77.00515083333333, "bike_id": "50aa2afc3117ff54ad7dc6ae60d03de7", "rental_uris": {"android": "https://dc.lft.to/lastmile_qr_scan", "ios": "https://dc.lft.to/lastmile_qr_scan"}, "name": "50aa2afc3117ff54ad7dc6ae60d03de7", "is_reserved": 0}, {"is_disabled": 0, "fusion_lon": 0.0, "fusion_lat": 0.0, "lat": 38.981299166666666, "type": "electric_bike", "lon": -77.00769183333334, "bike_id": "c57ec304f43ec89434b7b2f118d4a99c", "rental_uris": {"android": "https://dc.lft.to/lastmile_qr_scan", "ios": "https://dc.lft.to/lastmile_qr_scan"}, "name": "c57ec304f43ec89434b7b2f118d4a99c", "is_reserved": 0}, {"is_disabled": 0, "fusion_lon": 0.0, "fusion_lat": 0.0, "lat": 38.9062045, "type": "electric_scooter", "lon": -77.02411083333334, "bike_id": "95b51596a742943ef067d1a23ba03ec6", "rental_uris": {"android": "https://dc.lft.to/lastmile_qr_scan", "ios": "https://dc.lft.to/lastmile_qr_scan"}, "name": "95b51596a742943ef067d1a23ba03ec6", "is_reserved": 0}, {"is_disabled": 0, "fusion_lon": 0.0, "fusion_lat": 0.0, "lat": 38.905823166666664, "type": "electric_scooter", "lon": -77.05128033333334, "bike_id": "27dad905aedb1fa8246fba0622609c54", "rental_uris": {"android": "https://dc.lft.to/lastmile_qr_scan", "ios": "https://dc.lft.to/lastmile_qr_scan"}, "name": "27dad905aedb1fa8246fba0622609c54", "is_reserved": 0}, {"is_disabled": 0, "fusion_lon": 0.0, "fusion_lat": 0.0, "lat": 38.90061716666666, "type": "electric_scooter", "lon": -77.00756233333334, "bike_id": "04b7845724e6f66c11ccb0b8e14594ad", "rental_uris": {"android": "https://dc.lft.to/lastmile_qr_scan", "ios": "https://dc.lft.to/lastmile_qr_scan"}, "name": "04b7845724e6f66c11ccb0b8e14594ad", "is_reserved": 0}, {"is_disabled": 0, "fusion_lon": 0.0, "fusion_lat": 0.0, "lat": 38.9118055, "type": "electric_scooter", "lon": -77.04178, "bike_id": "6bdb09e164321628d1eab8bad93a2f44", "rental_uris": {"android": "https://dc.lft.to/lastmile_qr_scan", "ios": "https://dc.lft.to/lastmile_qr_scan"}, "name": "6bdb09e164321628d1eab8bad93a2f44", "is_reserved": 0}, {"is_disabled": 0, "fusion_lon": 0.0, "fusion_lat": 0.0, "lat": 38.877738, "type": "electric_scooter", "lon": -77.01430333333333, "bike_id": "834d4f8d5ecd951425bf63acdbe0eec4", "rental_uris": {"android": "https://dc.lft.to/lastmile_qr_scan", "ios": "https://dc.lft.to/lastmile_qr_scan"}, "name": "834d4f8d5ecd951425bf63acdbe0eec4", "is_reserved": 0}, {"is_disabled": 0, "fusion_lon": 0.0, "fusion_lat": 0.0, "lat": 38.9369625, "type": "electric_scooter", "lon": -77.06104566666667, "bike_id": "e736ee97ed4b97bb2df8ef3dad3e1558", "rental_uris": {"android": "https://dc.lft.to/lastmile_qr_scan", "ios": "https://dc.lft.to/lastmile_qr_scan"}, "name": "e736ee97ed4b97bb2df8ef3dad3e1558", "is_reserved": 0}, {"is_disabled": 0, "fusion_lon": 0.0, "fusion_lat": 0.0, "lat": 38.897330333333336, "type": "electric_scooter", "lon": -77.007519, "bike_id": "0bd973170dcee2d9b5565579f8b6341f", "rental_uris": {"android": "https://dc.lft.to/lastmile_qr_scan", "ios": "https://dc.lft.to/lastmile_qr_scan"}, "name": "0bd973170dcee2d9b5565579f8b6341f", "is_reserved": 0}, {"is_disabled": 0, "fusion_lon": 0.0, "fusion_lat": 0.0, "lat": 38.902199333333336, "type": "electric_scooter", "lon": -77.02368683333333, "bike_id": "4ecc22bd7558e267776a74b12090eec2", "rental_uris": {"android": "https://dc.lft.to/lastmile_qr_scan", "ios": "https://dc.lft.to/lastmile_qr_scan"}, "name": "4ecc22bd7558e267776a74b12090eec2", "is_reserved": 0}, {"is_disabled": 0, "fusion_lon": 0.0, "fusion_lat": 0.0, "lat": 38.84878233333333, "type": "electric_scooter", "lon": -77.00515516666667, "bike_id": "ef08aed8f2d3390438ac8e49dbba879f", "rental_uris": {"android": "https://dc.lft.to/lastmile_qr_scan", "ios": "https://dc.lft.to/lastmile_qr_scan"}, "name": "ef08aed8f2d3390438ac8e49dbba879f", "is_reserved": 0}, {"is_disabled": 0, "fusion_lon": 0.0, "fusion_lat": 0.0, "lat": 38.9259105, "type": "electric_bike", "lon": -76.88904183333334, "bike_id": "d69e85ae3091dd06dbc3a975572e2c32", "rental_uris": {"android": "https://dc.lft.to/lastmile_qr_scan", "ios": "https://dc.lft.to/lastmile_qr_scan"}, "name": "d69e85ae3091dd06dbc3a975572e2c32", "is_reserved": 0}, {"is_disabled": 0, "fusion_lon": 0.0, "fusion_lat": 0.0, "lat": 38.954136, "type": "electric_scooter", "lon": -77.02843016666667, "bike_id": "e91989d5d7fee001b2b3849dfa8b3fe1", "rental_uris": {"android": "https://dc.lft.to/lastmile_qr_scan", "ios": "https://dc.lft.to/lastmile_qr_scan"}, "name": "e91989d5d7fee001b2b3849dfa8b3fe1", "is_reserved": 0}, {"is_disabled": 0, "fusion_lon": 0.0, "fusion_lat": 0.0, "lat": 38.97673316666667, "type": "electric_bike", "lon": -76.9717085, "bike_id": "40eab75943e1ef4712c47213abea338a", "rental_uris": {"android": "https://dc.lft.to/lastmile_qr_scan", "ios": "https://dc.lft.to/lastmile_qr_scan"}, "name": "40eab75943e1ef4712c47213abea338a", "is_reserved": 0}, {"is_disabled": 0, "fusion_lon": 0.0, "fusion_lat": 0.0, "lat": 38.91871116666667, "type": "electric_scooter", "lon": -77.02384116666667, "bike_id": "eca463701eb72ebdf07453624ff8244a", "rental_uris": {"android": "https://dc.lft.to/lastmile_qr_scan", "ios": "https://dc.lft.to/lastmile_qr_scan"}, "name": "eca463701eb72ebdf07453624ff8244a", "is_reserved": 0}, {"is_disabled": 0, "fusion_lon": 0.0, "fusion_lat": 0.0, "lat": 38.895996, "type": "electric_scooter", "lon": -77.0092395, "bike_id": "88d57df40e6516fa0dfa70b293eccd8c", "rental_uris": {"android": "https://dc.lft.to/lastmile_qr_scan", "ios": "https://dc.lft.to/lastmile_qr_scan"}, "name": "88d57df40e6516fa0dfa70b293eccd8c", "is_reserved": 0}, {"is_disabled": 0, "fusion_lon": 0.0, "fusion_lat": 0.0, "lat": 38.91414483333333, "type": "electric_scooter", "lon": -77.03233616666667, "bike_id": "a0782481305c6fba09e4ef9db6c635e4", "rental_uris": {"android": "https://dc.lft.to/lastmile_qr_scan", "ios": "https://dc.lft.to/lastmile_qr_scan"}, "name": "a0782481305c6fba09e4ef9db6c635e4", "is_reserved": 0}, {"is_disabled": 0, "fusion_lon": 0.0, "fusion_lat": 0.0, "lat": 38.89237833333333, "type": "electric_bike", "lon": -76.95225416666666, "bike_id": "4182b450350d263a58d2b6bbc4021022", "rental_uris": {"android": "https://dc.lft.to/lastmile_qr_scan", "ios": "https://dc.lft.to/lastmile_qr_scan"}, "name": "4182b450350d263a58d2b6bbc4021022", "is_reserved": 0}, {"is_disabled": 0, "fusion_lon": 0.0, "fusion_lat": 0.0, "lat": 39.105644833333336, "type": "electric_bike", "lon": -77.15268383333333, "bike_id": "036c8d3413bb948e8ba557d2b8ec628b", "rental_uris": {"android": "https://dc.lft.to/lastmile_qr_scan", "ios": "https://dc.lft.to/lastmile_qr_scan"}, "name": "036c8d3413bb948e8ba557d2b8ec628b", "is_reserved": 0}, {"is_disabled": 0, "fusion_lon": 0.0, "fusion_lat": 0.0, "lat": 38.89371916666666, "type": "electric_scooter", "lon": -76.949988, "bike_id": "49fe72e5d3ff2392d3b9b82ed9511e5e", "rental_uris": {"android": "https://dc.lft.to/lastmile_qr_scan", "ios": "https://dc.lft.to/lastmile_qr_scan"}, "name": "49fe72e5d3ff2392d3b9b82ed9511e5e", "is_reserved": 0}, {"is_disabled": 0, "fusion_lon": 0.0, "fusion_lat": 0.0, "lat": 38.91976016666667, "type": "electric_scooter", "lon": -77.00022833333334, "bike_id": "993430a6ec01e6008c511156ca8fd9b2", "rental_uris": {"android": "https://dc.lft.to/lastmile_qr_scan", "ios": "https://dc.lft.to/lastmile_qr_scan"}, "name": "993430a6ec01e6008c511156ca8fd9b2", "is_reserved": 0}, {"is_disabled": 0, "fusion_lon": 0.0, "fusion_lat": 0.0, "lat": 38.898728166666665, "type": "electric_scooter", "lon": -77.02043933333333, "bike_id": "e9992dbe87409b62266d2c7a5dcd1f03", "rental_uris": {"android": "https://dc.lft.to/lastmile_qr_scan", "ios": "https://dc.lft.to/lastmile_qr_scan"}, "name": "e9992dbe87409b62266d2c7a5dcd1f03", "is_reserved": 0}, {"is_disabled": 0, "fusion_lon": 0.0, "fusion_lat": 0.0, "lat": 38.8875625, "type": "electric_bike", "lon": -76.9008985, "bike_id": "dfeabe216122bf85014ed4a4691b5a85", "rental_uris": {"android": "https://dc.lft.to/lastmile_qr_scan", "ios": "https://dc.lft.to/lastmile_qr_scan"}, "name": "dfeabe216122bf85014ed4a4691b5a85", "is_reserved": 0}, {"is_disabled": 0, "fusion_lon": 0.0, "fusion_lat": 0.0, "lat": 38.929652833333336, "type": "electric_scooter", "lon": -77.032892, "bike_id": "e4727400dcded88b700c6951b64c1da8", "rental_uris": {"android": "https://dc.lft.to/lastmile_qr_scan", "ios": "https://dc.lft.to/lastmile_qr_scan"}, "name": "e4727400dcded88b700c6951b64c1da8", "is_reserved": 0}, {"is_disabled": 0, "fusion_lon": 0.0, "fusion_lat": 0.0, "lat": 38.9209455, "type": "electric_scooter", "lon": -76.99421116666667, "bike_id": "5e02357607a93596aeb25a9eda202bce", "rental_uris": {"android": "https://dc.lft.to/lastmile_qr_scan", "ios": "https://dc.lft.to/lastmile_qr_scan"}, "name": "5e02357607a93596aeb25a9eda202bce", "is_reserved": 0}, {"is_disabled": 0, "fusion_lon": 0.0, "fusion_lat": 0.0, "lat": 38.91331433333333, "type": "electric_scooter", "lon": -77.03043416666667, "bike_id": "421d603f5c044eda56335c0cd44da4d3", "rental_uris": {"android": "https://dc.lft.to/lastmile_qr_scan", "ios": "https://dc.lft.to/lastmile_qr_scan"}, "name": "421d603f5c044eda56335c0cd44da4d3", "is_reserved": 0}, {"is_disabled": 0, "fusion_lon": 0.0, "fusion_lat": 0.0, "lat": 38.928634, "type": "electric_scooter", "lon": -77.03292916666666, "bike_id": "e2bb909360921316a95b92a728155187", "rental_uris": {"android": "https://dc.lft.to/lastmile_qr_scan", "ios": "https://dc.lft.to/lastmile_qr_scan"}, "name": "e2bb909360921316a95b92a728155187", "is_reserved": 0}, {"is_disabled": 0, "fusion_lon": 0.0, "fusion_lat": 0.0, "lat": 38.924448, "type": "electric_bike", "lon": -76.9683385, "bike_id": "fa8d4f7e927edf0104a2295cf9f5e73b", "rental_uris": {"android": "https://dc.lft.to/lastmile_qr_scan", "ios": "https://dc.lft.to/lastmile_qr_scan"}, "name": "fa8d4f7e927edf0104a2295cf9f5e73b", "is_reserved": 0}, {"is_disabled": 0, "fusion_lon": 0.0, "fusion_lat": 0.0, "lat": 38.902333166666665, "type": "electric_scooter", "lon": -77.04261716666667, "bike_id": "710743580e8e621744a7bad752c88f3f", "rental_uris": {"android": "https://dc.lft.to/lastmile_qr_scan", "ios": "https://dc.lft.to/lastmile_qr_scan"}, "name": "710743580e8e621744a7bad752c88f3f", "is_reserved": 0}, {"is_disabled": 0, "fusion_lon": 0.0, "fusion_lat": 0.0, "lat": 38.929011333333335, "type": "electric_scooter", "lon": -77.03178233333334, "bike_id": "9e7fe4401bd1c1aad91f012657d1a98e", "rental_uris": {"android": "https://dc.lft.to/lastmile_qr_scan", "ios": "https://dc.lft.to/lastmile_qr_scan"}, "name": "9e7fe4401bd1c1aad91f012657d1a98e", "is_reserved": 0}, {"is_disabled": 0, "fusion_lon": 0.0, "fusion_lat": 0.0, "lat": 38.92589366666667, "type": "electric_scooter", "lon": -77.0228915, "bike_id": "2c1687b589934d861571b252eacd886c", "rental_uris": {"android": "https://dc.lft.to/lastmile_qr_scan", "ios": "https://dc.lft.to/lastmile_qr_scan"}, "name": "2c1687b589934d861571b252eacd886c", "is_reserved": 0}, {"is_disabled": 0, "fusion_lon": 0.0, "fusion_lat": 0.0, "lat": 38.918166666666664, "type": "electric_scooter", "lon": -77.03999966666667, "bike_id": "4b1faf06d88d61230ffe42cfc7635e56", "rental_uris": {"android": "https://dc.lft.to/lastmile_qr_scan", "ios": "https://dc.lft.to/lastmile_qr_scan"}, "name": "4b1faf06d88d61230ffe42cfc7635e56", "is_reserved": 0}, {"is_disabled": 0, "fusion_lon": 0.0, "fusion_lat": 0.0, "lat": 38.9417775, "type": "electric_scooter", "lon": -77.036551, "bike_id": "7685e6cc4e9e80523e9f883034ed715f", "rental_uris": {"android": "https://dc.lft.to/lastmile_qr_scan", "ios": "https://dc.lft.to/lastmile_qr_scan"}, "name": "7685e6cc4e9e80523e9f883034ed715f", "is_reserved": 0}, {"is_disabled": 0, "fusion_lon": 0.0, "fusion_lat": 0.0, "lat": 38.897679833333335, "type": "electric_scooter", "lon": -77.0247655, "bike_id": "337dca85de19387ef42d1a570b9e1801", "rental_uris": {"android": "https://dc.lft.to/lastmile_qr_scan", "ios": "https://dc.lft.to/lastmile_qr_scan"}, "name": "337dca85de19387ef42d1a570b9e1801", "is_reserved": 0}, {"is_disabled": 0, "fusion_lon": 0.0, "fusion_lat": 0.0, "lat": 38.95643916666667, "type": "electric_scooter", "lon": -77.01493516666666, "bike_id": "e148a3795e060786043a295adec0942f", "rental_uris": {"android": "https://dc.lft.to/lastmile_qr_scan", "ios": "https://dc.lft.to/lastmile_qr_scan"}, "name": "e148a3795e060786043a295adec0942f", "is_reserved": 0}, {"is_disabled": 0, "fusion_lon": 0.0, "fusion_lat": 0.0, "lat": 38.90212316666667, "type": "electric_scooter", "lon": -77.04773916666667, "bike_id": "b81fd660f265c3f7862ecc46601762d1", "rental_uris": {"android": "https://dc.lft.to/lastmile_qr_scan", "ios": "https://dc.lft.to/lastmile_qr_scan"}, "name": "b81fd660f265c3f7862ecc46601762d1", "is_reserved": 0}, {"is_disabled": 0, "fusion_lon": 0.0, "fusion_lat": 0.0, "lat": 38.921634, "type": "electric_scooter", "lon": -77.03381866666666, "bike_id": "4e579fd8ecad21cc7a703d403c920c8b", "rental_uris": {"android": "https://dc.lft.to/lastmile_qr_scan", "ios": "https://dc.lft.to/lastmile_qr_scan"}, "name": "4e579fd8ecad21cc7a703d403c920c8b", "is_reserved": 0}, {"is_disabled": 0, "fusion_lon": 0.0, "fusion_lat": 0.0, "lat": 38.9001665, "type": "electric_scooter", "lon": -76.99867316666666, "bike_id": "35e07ed893bef7f3b16026936ef15070", "rental_uris": {"android": "https://dc.lft.to/lastmile_qr_scan", "ios": "https://dc.lft.to/lastmile_qr_scan"}, "name": "35e07ed893bef7f3b16026936ef15070", "is_reserved": 0}, {"is_disabled": 0, "fusion_lon": 0.0, "fusion_lat": 0.0, "lat": 38.869086833333334, "type": "electric_scooter", "lon": -77.01369583333333, "bike_id": "f729239caeafc997b3fd0660e8a8a7c8", "rental_uris": {"android": "https://dc.lft.to/lastmile_qr_scan", "ios": "https://dc.lft.to/lastmile_qr_scan"}, "name": "f729239caeafc997b3fd0660e8a8a7c8", "is_reserved": 0}, {"is_disabled": 0, "fusion_lon": 0.0, "fusion_lat": 0.0, "lat": 38.86844283333333, "type": "electric_bike", "lon": -77.09737083333333, "bike_id": "2e50ad53d8477158e33f6ebd5a7fc816", "rental_uris": {"android": "https://dc.lft.to/lastmile_qr_scan", "ios": "https://dc.lft.to/lastmile_qr_scan"}, "name": "2e50ad53d8477158e33f6ebd5a7fc816", "is_reserved": 0}, {"is_disabled": 0, "fusion_lon": 0.0, "fusion_lat": 0.0, "lat": 38.9012285, "type": "electric_scooter", "lon": -77.0304375, "bike_id": "5a23d19418595881bf492810022fc239", "rental_uris": {"android": "https://dc.lft.to/lastmile_qr_scan", "ios": "https://dc.lft.to/lastmile_qr_scan"}, "name": "5a23d19418595881bf492810022fc239", "is_reserved": 0}, {"is_disabled": 0, "fusion_lon": 0.0, "fusion_lat": 0.0, "lat": 38.9630525, "type": "electric_bike", "lon": -77.05760983333333, "bike_id": "87bf1771be0030ac9c5557a2e4ee53e6", "rental_uris": {"android": "https://dc.lft.to/lastmile_qr_scan", "ios": "https://dc.lft.to/lastmile_qr_scan"}, "name": "87bf1771be0030ac9c5557a2e4ee53e6", "is_reserved": 0}, {"is_disabled": 0, "fusion_lon": 0.0, "fusion_lat": 0.0, "lat": 38.922475, "type": "electric_scooter", "lon": -77.03074166666667, "bike_id": "c6168b46bb4f75a35fa9f9732c9ce6c2", "rental_uris": {"android": "https://dc.lft.to/lastmile_qr_scan", "ios": "https://dc.lft.to/lastmile_qr_scan"}, "name": "c6168b46bb4f75a35fa9f9732c9ce6c2", "is_reserved": 0}, {"is_disabled": 0, "fusion_lon": 0.0, "fusion_lat": 0.0, "lat": 38.94550433333333, "type": "electric_scooter", "lon": -77.0424575, "bike_id": "adf7d0293550bffdf6531ca9d5f1758e", "rental_uris": {"android": "https://dc.lft.to/lastmile_qr_scan", "ios": "https://dc.lft.to/lastmile_qr_scan"}, "name": "adf7d0293550bffdf6531ca9d5f1758e", "is_reserved": 0}, {"is_disabled": 0, "fusion_lon": 0.0, "fusion_lat": 0.0, "lat": 38.879209333333336, "type": "electric_scooter", "lon": -77.00052416666666, "bike_id": "2c8c2ac91fb327b472e40000bc9e44fb", "rental_uris": {"android": "https://dc.lft.to/lastmile_qr_scan", "ios": "https://dc.lft.to/lastmile_qr_scan"}, "name": "2c8c2ac91fb327b472e40000bc9e44fb", "is_reserved": 0}, {"is_disabled": 0, "fusion_lon": 0.0, "fusion_lat": 0.0, "lat": 38.9047865, "type": "electric_scooter", "lon": -77.038505, "bike_id": "a120c02af9597e78ab0aa9ec1fc9f260", "rental_uris": {"android": "https://dc.lft.to/lastmile_qr_scan", "ios": "https://dc.lft.to/lastmile_qr_scan"}, "name": "a120c02af9597e78ab0aa9ec1fc9f260", "is_reserved": 0}, {"is_disabled": 0, "fusion_lon": 0.0, "fusion_lat": 0.0, "lat": 38.83344233333333, "type": "electric_bike", "lon": -76.96551083333334, "bike_id": "c39e83af6d775a722124da7b4297cb5f", "rental_uris": {"android": "https://dc.lft.to/lastmile_qr_scan", "ios": "https://dc.lft.to/lastmile_qr_scan"}, "name": "c39e83af6d775a722124da7b4297cb5f", "is_reserved": 0}, {"is_disabled": 0, "fusion_lon": 0.0, "fusion_lat": 0.0, "lat": 38.950578666666665, "type": "electric_bike", "lon": -76.96736333333334, "bike_id": "f4e37e7f51fb2c363fec8374aa34ed6a", "rental_uris": {"android": "https://dc.lft.to/lastmile_qr_scan", "ios": "https://dc.lft.to/lastmile_qr_scan"}, "name": "f4e37e7f51fb2c363fec8374aa34ed6a", "is_reserved": 0}, {"is_disabled": 0, "fusion_lon": 0.0, "fusion_lat": 0.0, "lat": 38.8923585, "type": "electric_scooter", "lon": -77.031787, "bike_id": "ffcf4aa6a507d5816547c66b1ad26017", "rental_uris": {"android": "https://dc.lft.to/lastmile_qr_scan", "ios": "https://dc.lft.to/lastmile_qr_scan"}, "name": "ffcf4aa6a507d5816547c66b1ad26017", "is_reserved": 0}, {"is_disabled": 0, "fusion_lon": 0.0, "fusion_lat": 0.0, "lat": 38.91849466666667, "type": "electric_bike", "lon": -76.960896, "bike_id": "5d36e7c05a7048ac7d2c54318efb881a", "rental_uris": {"android": "https://dc.lft.to/lastmile_qr_scan", "ios": "https://dc.lft.to/lastmile_qr_scan"}, "name": "5d36e7c05a7048ac7d2c54318efb881a", "is_reserved": 0}, {"is_disabled": 0, "fusion_lon": 0.0, "fusion_lat": 0.0, "lat": 38.882515166666664, "type": "electric_scooter", "lon": -77.00345266666666, "bike_id": "1538c17517a2e04b776e39904a616e05", "rental_uris": {"android": "https://dc.lft.to/lastmile_qr_scan", "ios": "https://dc.lft.to/lastmile_qr_scan"}, "name": "1538c17517a2e04b776e39904a616e05", "is_reserved": 0}, {"is_disabled": 0, "fusion_lon": 0.0, "fusion_lat": 0.0, "lat": 38.91718133333333, "type": "electric_scooter", "lon": -77.03457483333334, "bike_id": "bacd7b88cfc88c01f21a4d2ec5e74522", "rental_uris": {"android": "https://dc.lft.to/lastmile_qr_scan", "ios": "https://dc.lft.to/lastmile_qr_scan"}, "name": "bacd7b88cfc88c01f21a4d2ec5e74522", "is_reserved": 0}, {"is_disabled": 0, "fusion_lon": 0.0, "fusion_lat": 0.0, "lat": 38.92121233333334, "type": "electric_scooter", "lon": -77.03659733333333, "bike_id": "37ac60c2f1da088d0cc3a45376602e64", "rental_uris": {"android": "https://dc.lft.to/lastmile_qr_scan", "ios": "https://dc.lft.to/lastmile_qr_scan"}, "name": "37ac60c2f1da088d0cc3a45376602e64", "is_reserved": 0}, {"is_disabled": 0, "fusion_lon": 0.0, "fusion_lat": 0.0, "lat": 38.895279333333335, "type": "electric_scooter", "lon": -77.033508, "bike_id": "b45de6c0d014f94f4df843d49be79cf6", "rental_uris": {"android": "https://dc.lft.to/lastmile_qr_scan", "ios": "https://dc.lft.to/lastmile_qr_scan"}, "name": "b45de6c0d014f94f4df843d49be79cf6", "is_reserved": 0}, {"is_disabled": 0, "fusion_lon": 0.0, "fusion_lat": 0.0, "lat": 38.909341833333336, "type": "electric_scooter", "lon": -77.03201333333334, "bike_id": "6165f88678a17358c5acd98128ded4f6", "rental_uris": {"android": "https://dc.lft.to/lastmile_qr_scan", "ios": "https://dc.lft.to/lastmile_qr_scan"}, "name": "6165f88678a17358c5acd98128ded4f6", "is_reserved": 0}, {"is_disabled": 0, "fusion_lon": 0.0, "fusion_lat": 0.0, "lat": 38.91755116666667, "type": "electric_scooter", "lon": -77.03204116666667, "bike_id": "bc7555db67136eaf0456cf30dc254e1e", "rental_uris": {"android": "https://dc.lft.to/lastmile_qr_scan", "ios": "https://dc.lft.to/lastmile_qr_scan"}, "name": "bc7555db67136eaf0456cf30dc254e1e", "is_reserved": 0}, {"is_disabled": 0, "fusion_lon": 0.0, "fusion_lat": 0.0, "lat": 38.94034516666667, "type": "electric_scooter", "lon": -77.02503566666667, "bike_id": "db24e09f62ae5b9991d9182dcf4cc479", "rental_uris": {"android": "https://dc.lft.to/lastmile_qr_scan", "ios": "https://dc.lft.to/lastmile_qr_scan"}, "name": "db24e09f62ae5b9991d9182dcf4cc479", "is_reserved": 0}, {"is_disabled": 0, "fusion_lon": 0.0, "fusion_lat": 0.0, "lat": 38.911810333333335, "type": "electric_scooter", "lon": -77.0188015, "bike_id": "6fc27ed7eb7087a3a595833471460a43", "rental_uris": {"android": "https://dc.lft.to/lastmile_qr_scan", "ios": "https://dc.lft.to/lastmile_qr_scan"}, "name": "6fc27ed7eb7087a3a595833471460a43", "is_reserved": 0}, {"is_disabled": 0, "fusion_lon": 0.0, "fusion_lat": 0.0, "lat": 39.029969666666666, "type": "electric_bike", "lon": -77.106527, "bike_id": "88d50ad27e249650010ae93bd62d6792", "rental_uris": {"android": "https://dc.lft.to/lastmile_qr_scan", "ios": "https://dc.lft.to/lastmile_qr_scan"}, "name": "88d50ad27e249650010ae93bd62d6792", "is_reserved": 0}, {"is_disabled": 0, "fusion_lon": 0.0, "fusion_lat": 0.0, "lat": 38.908309833333334, "type": "electric_scooter", "lon": -76.99697483333334, "bike_id": "566d421abd78b77a390fb752373937b7", "rental_uris": {"android": "https://dc.lft.to/lastmile_qr_scan", "ios": "https://dc.lft.to/lastmile_qr_scan"}, "name": "566d421abd78b77a390fb752373937b7", "is_reserved": 0}, {"is_disabled": 0, "fusion_lon": 0.0, "fusion_lat": 0.0, "lat": 38.92882816666667, "type": "electric_scooter", "lon": -77.03259016666667, "bike_id": "0f8abc1514912a22d5e8210c262207ab", "rental_uris": {"android": "https://dc.lft.to/lastmile_qr_scan", "ios": "https://dc.lft.to/lastmile_qr_scan"}, "name": "0f8abc1514912a22d5e8210c262207ab", "is_reserved": 0}, {"is_disabled": 0, "fusion_lon": 0.0, "fusion_lat": 0.0, "lat": 38.899533, "type": "electric_scooter", "lon": -77.05225516666667, "bike_id": "6f6f672159bccb2dc131adee01f4823b", "rental_uris": {"android": "https://dc.lft.to/lastmile_qr_scan", "ios": "https://dc.lft.to/lastmile_qr_scan"}, "name": "6f6f672159bccb2dc131adee01f4823b", "is_reserved": 0}, {"is_disabled": 0, "fusion_lon": 0.0, "fusion_lat": 0.0, "lat": 38.90528966666667, "type": "electric_scooter", "lon": -77.05011016666667, "bike_id": "234f6e6fa5db82516972fc5524790feb", "rental_uris": {"android": "https://dc.lft.to/lastmile_qr_scan", "ios": "https://dc.lft.to/lastmile_qr_scan"}, "name": "234f6e6fa5db82516972fc5524790feb", "is_reserved": 0}, {"is_disabled": 0, "fusion_lon": 0.0, "fusion_lat": 0.0, "lat": 38.9040565, "type": "electric_bike", "lon": -77.048734, "bike_id": "06414471c23b0939e70ca4db515f4316", "rental_uris": {"android": "https://dc.lft.to/lastmile_qr_scan", "ios": "https://dc.lft.to/lastmile_qr_scan"}, "name": "06414471c23b0939e70ca4db515f4316", "is_reserved": 0}, {"is_disabled": 0, "fusion_lon": 0.0, "fusion_lat": 0.0, "lat": 38.903655666666666, "type": "electric_scooter", "lon": -77.04193983333333, "bike_id": "e41a215a8a5d59fcefa3470918d89782", "rental_uris": {"android": "https://dc.lft.to/lastmile_qr_scan", "ios": "https://dc.lft.to/lastmile_qr_scan"}, "name": "e41a215a8a5d59fcefa3470918d89782", "is_reserved": 0}, {"is_disabled": 0, "fusion_lon": 0.0, "fusion_lat": 0.0, "lat": 38.98560366666667, "type": "electric_bike", "lon": -76.988305, "bike_id": "98ef4d94d2b6ec70dcc61add54a8d49f", "rental_uris": {"android": "https://dc.lft.to/lastmile_qr_scan", "ios": "https://dc.lft.to/lastmile_qr_scan"}, "name": "98ef4d94d2b6ec70dcc61add54a8d49f", "is_reserved": 0}, {"is_disabled": 0, "fusion_lon": 0.0, "fusion_lat": 0.0, "lat": 38.84292683333334, "type": "electric_scooter", "lon": -76.9994495, "bike_id": "c4e0d9cfccfce1a251923177f19807e6", "rental_uris": {"android": "https://dc.lft.to/lastmile_qr_scan", "ios": "https://dc.lft.to/lastmile_qr_scan"}, "name": "c4e0d9cfccfce1a251923177f19807e6", "is_reserved": 0}, {"is_disabled": 0, "fusion_lon": 0.0, "fusion_lat": 0.0, "lat": 38.90539666666667, "type": "electric_scooter", "lon": -77.04908566666667, "bike_id": "bf3af3acf8dcbe2cc6193c740d972d05", "rental_uris": {"android": "https://dc.lft.to/lastmile_qr_scan", "ios": "https://dc.lft.to/lastmile_qr_scan"}, "name": "bf3af3acf8dcbe2cc6193c740d972d05", "is_reserved": 0}, {"is_disabled": 0, "fusion_lon": 0.0, "fusion_lat": 0.0, "lat": 38.904747666666665, "type": "electric_scooter", "lon": -77.0485315, "bike_id": "4089c6de0d8ac80f294990bd66c5f127", "rental_uris": {"android": "https://dc.lft.to/lastmile_qr_scan", "ios": "https://dc.lft.to/lastmile_qr_scan"}, "name": "4089c6de0d8ac80f294990bd66c5f127", "is_reserved": 0}, {"is_disabled": 0, "fusion_lon": 0.0, "fusion_lat": 0.0, "lat": 38.911189666666665, "type": "electric_scooter", "lon": -77.022385, "bike_id": "811b4052da2f5ba8917c021db547f22e", "rental_uris": {"android": "https://dc.lft.to/lastmile_qr_scan", "ios": "https://dc.lft.to/lastmile_qr_scan"}, "name": "811b4052da2f5ba8917c021db547f22e", "is_reserved": 0}, {"is_disabled": 0, "fusion_lon": 0.0, "fusion_lat": 0.0, "lat": 38.89229433333333, "type": "electric_scooter", "lon": -77.03195316666667, "bike_id": "dd277f945ed3bf7baccbf7d7a0e22e42", "rental_uris": {"android": "https://dc.lft.to/lastmile_qr_scan", "ios": "https://dc.lft.to/lastmile_qr_scan"}, "name": "dd277f945ed3bf7baccbf7d7a0e22e42", "is_reserved": 0}, {"is_disabled": 0, "fusion_lon": 0.0, "fusion_lat": 0.0, "lat": 38.941968833333334, "type": "electric_scooter", "lon": -77.025753, "bike_id": "6570917beee8cc04c797ee57efed2a7e", "rental_uris": {"android": "https://dc.lft.to/lastmile_qr_scan", "ios": "https://dc.lft.to/lastmile_qr_scan"}, "name": "6570917beee8cc04c797ee57efed2a7e", "is_reserved": 0}, {"is_disabled": 0, "fusion_lon": 0.0, "fusion_lat": 0.0, "lat": 38.91680216666666, "type": "electric_scooter", "lon": -77.03688016666666, "bike_id": "01b6029cc075bed882f0409e9c587e39", "rental_uris": {"android": "https://dc.lft.to/lastmile_qr_scan", "ios": "https://dc.lft.to/lastmile_qr_scan"}, "name": "01b6029cc075bed882f0409e9c587e39", "is_reserved": 0}, {"is_disabled": 0, "fusion_lon": 0.0, "fusion_lat": 0.0, "lat": 38.94977633333333, "type": "electric_scooter", "lon": -77.06760233333334, "bike_id": "bbe27c1749b11cda8039ce95d1071ae3", "rental_uris": {"android": "https://dc.lft.to/lastmile_qr_scan", "ios": "https://dc.lft.to/lastmile_qr_scan"}, "name": "bbe27c1749b11cda8039ce95d1071ae3", "is_reserved": 0}, {"is_disabled": 0, "fusion_lon": 0.0, "fusion_lat": 0.0, "lat": 38.999934, "type": "electric_bike", "lon": -76.91805233333334, "bike_id": "895c7f91326bf9153c7abe19fcdefa09", "rental_uris": {"android": "https://dc.lft.to/lastmile_qr_scan", "ios": "https://dc.lft.to/lastmile_qr_scan"}, "name": "895c7f91326bf9153c7abe19fcdefa09", "is_reserved": 0}, {"is_disabled": 0, "fusion_lon": 0.0, "fusion_lat": 0.0, "lat": 38.9198375, "type": "electric_scooter", "lon": -76.97318666666666, "bike_id": "f092ab038f170ec838d6275c4044222c", "rental_uris": {"android": "https://dc.lft.to/lastmile_qr_scan", "ios": "https://dc.lft.to/lastmile_qr_scan"}, "name": "f092ab038f170ec838d6275c4044222c", "is_reserved": 0}, {"is_disabled": 0, "fusion_lon": 0.0, "fusion_lat": 0.0, "lat": 38.93319366666667, "type": "electric_scooter", "lon": -77.029246, "bike_id": "511cb6432c5b0c6a6849a8000b44a08b", "rental_uris": {"android": "https://dc.lft.to/lastmile_qr_scan", "ios": "https://dc.lft.to/lastmile_qr_scan"}, "name": "511cb6432c5b0c6a6849a8000b44a08b", "is_reserved": 0}, {"is_disabled": 0, "fusion_lon": 0.0, "fusion_lat": 0.0, "lat": 38.935298, "type": "electric_scooter", "lon": -77.0207095, "bike_id": "6816cabf062988cee147195619fffe89", "rental_uris": {"android": "https://dc.lft.to/lastmile_qr_scan", "ios": "https://dc.lft.to/lastmile_qr_scan"}, "name": "6816cabf062988cee147195619fffe89", "is_reserved": 0}, {"is_disabled": 0, "fusion_lon": 0.0, "fusion_lat": 0.0, "lat": 38.8953805, "type": "electric_scooter", "lon": -77.01528266666666, "bike_id": "570b6fc5f6ffab0346329142ded7cf10", "rental_uris": {"android": "https://dc.lft.to/lastmile_qr_scan", "ios": "https://dc.lft.to/lastmile_qr_scan"}, "name": "570b6fc5f6ffab0346329142ded7cf10", "is_reserved": 0}, {"is_disabled": 0, "fusion_lon": 0.0, "fusion_lat": 0.0, "lat": 38.907994, "type": "electric_scooter", "lon": -77.02381966666667, "bike_id": "e739c82f31e425f931f731b8a9df1158", "rental_uris": {"android": "https://dc.lft.to/lastmile_qr_scan", "ios": "https://dc.lft.to/lastmile_qr_scan"}, "name": "e739c82f31e425f931f731b8a9df1158", "is_reserved": 0}, {"is_disabled": 0, "fusion_lon": 0.0, "fusion_lat": 0.0, "lat": 38.9432935, "type": "electric_bike", "lon": -77.01477583333333, "bike_id": "87b26a559ff310617701a791724d2500", "rental_uris": {"android": "https://dc.lft.to/lastmile_qr_scan", "ios": "https://dc.lft.to/lastmile_qr_scan"}, "name": "87b26a559ff310617701a791724d2500", "is_reserved": 0}, {"is_disabled": 0, "fusion_lon": 0.0, "fusion_lat": 0.0, "lat": 38.899973833333334, "type": "electric_scooter", "lon": -77.03364783333333, "bike_id": "f5d6b85bc5f750c519ba43ca443b392d", "rental_uris": {"android": "https://dc.lft.to/lastmile_qr_scan", "ios": "https://dc.lft.to/lastmile_qr_scan"}, "name": "f5d6b85bc5f750c519ba43ca443b392d", "is_reserved": 0}, {"is_disabled": 0, "fusion_lon": 0.0, "fusion_lat": 0.0, "lat": 38.916161833333334, "type": "electric_scooter", "lon": -77.03178833333334, "bike_id": "7cd8c121bd5e5874737f2f60f400012a", "rental_uris": {"android": "https://dc.lft.to/lastmile_qr_scan", "ios": "https://dc.lft.to/lastmile_qr_scan"}, "name": "7cd8c121bd5e5874737f2f60f400012a", "is_reserved": 0}, {"is_disabled": 0, "fusion_lon": 0.0, "fusion_lat": 0.0, "lat": 38.852813833333336, "type": "electric_bike", "lon": -76.9815445, "bike_id": "8c50129dd6e0b53eccb527246ce44bd7", "rental_uris": {"android": "https://dc.lft.to/lastmile_qr_scan", "ios": "https://dc.lft.to/lastmile_qr_scan"}, "name": "8c50129dd6e0b53eccb527246ce44bd7", "is_reserved": 0}, {"is_disabled": 0, "fusion_lon": 0.0, "fusion_lat": 0.0, "lat": 38.857913, "type": "electric_bike", "lon": -76.9874955, "bike_id": "30981ecb0de97439f1c6ef70f87db6e3", "rental_uris": {"android": "https://dc.lft.to/lastmile_qr_scan", "ios": "https://dc.lft.to/lastmile_qr_scan"}, "name": "30981ecb0de97439f1c6ef70f87db6e3", "is_reserved": 0}, {"is_disabled": 0, "fusion_lon": 0.0, "fusion_lat": 0.0, "lat": 38.8948035, "type": "electric_scooter", "lon": -76.9487445, "bike_id": "089ba242c76024324c4ccbeb72f71e68", "rental_uris": {"android": "https://dc.lft.to/lastmile_qr_scan", "ios": "https://dc.lft.to/lastmile_qr_scan"}, "name": "089ba242c76024324c4ccbeb72f71e68", "is_reserved": 0}, {"is_disabled": 0, "fusion_lon": 0.0, "fusion_lat": 0.0, "lat": 38.9140275, "type": "electric_scooter", "lon": -77.03166483333334, "bike_id": "98482afe7d2929af44fc0006d2114ea5", "rental_uris": {"android": "https://dc.lft.to/lastmile_qr_scan", "ios": "https://dc.lft.to/lastmile_qr_scan"}, "name": "98482afe7d2929af44fc0006d2114ea5", "is_reserved": 0}, {"is_disabled": 0, "fusion_lon": 0.0, "fusion_lat": 0.0, "lat": 38.91560666666667, "type": "electric_scooter", "lon": -77.0080895, "bike_id": "0cdcb58e6c6020206d46b06a9e5f4efa", "rental_uris": {"android": "https://dc.lft.to/lastmile_qr_scan", "ios": "https://dc.lft.to/lastmile_qr_scan"}, "name": "0cdcb58e6c6020206d46b06a9e5f4efa", "is_reserved": 0}, {"is_disabled": 0, "fusion_lon": 0.0, "fusion_lat": 0.0, "lat": 38.92134, "type": "electric_scooter", "lon": -77.0443635, "bike_id": "c13bbe30124f9966a3b21d1fb4d702ce", "rental_uris": {"android": "https://dc.lft.to/lastmile_qr_scan", "ios": "https://dc.lft.to/lastmile_qr_scan"}, "name": "c13bbe30124f9966a3b21d1fb4d702ce", "is_reserved": 0}, {"is_disabled": 0, "fusion_lon": 0.0, "fusion_lat": 0.0, "lat": 38.88426883333333, "type": "electric_scooter", "lon": -77.024832, "bike_id": "7ba73106b82fb389f04ed078b7b11dd8", "rental_uris": {"android": "https://dc.lft.to/lastmile_qr_scan", "ios": "https://dc.lft.to/lastmile_qr_scan"}, "name": "7ba73106b82fb389f04ed078b7b11dd8", "is_reserved": 0}, {"is_disabled": 0, "fusion_lon": 0.0, "fusion_lat": 0.0, "lat": 38.9035805, "type": "electric_scooter", "lon": -77.01110633333333, "bike_id": "676c756fbb74441240bdcd3c410bd43b", "rental_uris": {"android": "https://dc.lft.to/lastmile_qr_scan", "ios": "https://dc.lft.to/lastmile_qr_scan"}, "name": "676c756fbb74441240bdcd3c410bd43b", "is_reserved": 0}, {"is_disabled": 0, "fusion_lon": 0.0, "fusion_lat": 0.0, "lat": 38.944547, "type": "electric_scooter", "lon": -77.06026683333333, "bike_id": "4d8b54a7cb2d9856a08c654d58360ca3", "rental_uris": {"android": "https://dc.lft.to/lastmile_qr_scan", "ios": "https://dc.lft.to/lastmile_qr_scan"}, "name": "4d8b54a7cb2d9856a08c654d58360ca3", "is_reserved": 0}, {"is_disabled": 0, "fusion_lon": 0.0, "fusion_lat": 0.0, "lat": 38.99667066666667, "type": "electric_bike", "lon": -76.99145516666667, "bike_id": "a4da741ce13b07686855cf5ef58b7ab6", "rental_uris": {"android": "https://dc.lft.to/lastmile_qr_scan", "ios": "https://dc.lft.to/lastmile_qr_scan"}, "name": "a4da741ce13b07686855cf5ef58b7ab6", "is_reserved": 0}, {"is_disabled": 0, "fusion_lon": 0.0, "fusion_lat": 0.0, "lat": 38.928785833333336, "type": "electric_scooter", "lon": -77.03329683333334, "bike_id": "db17e46a9e8f0de2cc915931623443b0", "rental_uris": {"android": "https://dc.lft.to/lastmile_qr_scan", "ios": "https://dc.lft.to/lastmile_qr_scan"}, "name": "db17e46a9e8f0de2cc915931623443b0", "is_reserved": 0}, {"is_disabled": 0, "fusion_lon": 0.0, "fusion_lat": 0.0, "lat": 38.902192666666664, "type": "electric_scooter", "lon": -77.04770883333333, "bike_id": "fb79cbb5dcb0ff1110ca245b5b1e2532", "rental_uris": {"android": "https://dc.lft.to/lastmile_qr_scan", "ios": "https://dc.lft.to/lastmile_qr_scan"}, "name": "fb79cbb5dcb0ff1110ca245b5b1e2532", "is_reserved": 0}, {"is_disabled": 0, "fusion_lon": 0.0, "fusion_lat": 0.0, "lat": 38.926538, "type": "electric_scooter", "lon": -77.022876, "bike_id": "173498bbc12675f94930ea149ee57c78", "rental_uris": {"android": "https://dc.lft.to/lastmile_qr_scan", "ios": "https://dc.lft.to/lastmile_qr_scan"}, "name": "173498bbc12675f94930ea149ee57c78", "is_reserved": 0}, {"is_disabled": 0, "fusion_lon": 0.0, "fusion_lat": 0.0, "lat": 38.915656166666665, "type": "electric_scooter", "lon": -77.020792, "bike_id": "c574b53b52ba494595d2f11f475ede38", "rental_uris": {"android": "https://dc.lft.to/lastmile_qr_scan", "ios": "https://dc.lft.to/lastmile_qr_scan"}, "name": "c574b53b52ba494595d2f11f475ede38", "is_reserved": 0}, {"is_disabled": 0, "fusion_lon": 0.0, "fusion_lat": 0.0, "lat": 38.935947, "type": "electric_scooter", "lon": -77.0830995, "bike_id": "044fbef12cc5175a4ae1315e775aa21b", "rental_uris": {"android": "https://dc.lft.to/lastmile_qr_scan", "ios": "https://dc.lft.to/lastmile_qr_scan"}, "name": "044fbef12cc5175a4ae1315e775aa21b", "is_reserved": 0}, {"is_disabled": 0, "fusion_lon": 0.0, "fusion_lat": 0.0, "lat": 38.875688833333335, "type": "electric_scooter", "lon": -77.020692, "bike_id": "1b33dab35bd308cb7b332fa3259bb3ad", "rental_uris": {"android": "https://dc.lft.to/lastmile_qr_scan", "ios": "https://dc.lft.to/lastmile_qr_scan"}, "name": "1b33dab35bd308cb7b332fa3259bb3ad", "is_reserved": 0}, {"is_disabled": 0, "fusion_lon": 0.0, "fusion_lat": 0.0, "lat": 38.92099183333333, "type": "electric_scooter", "lon": -77.01764966666667, "bike_id": "4c02fc5b0b9328d8b2f15eb49d4171ed", "rental_uris": {"android": "https://dc.lft.to/lastmile_qr_scan", "ios": "https://dc.lft.to/lastmile_qr_scan"}, "name": "4c02fc5b0b9328d8b2f15eb49d4171ed", "is_reserved": 0}, {"is_disabled": 0, "fusion_lon": 0.0, "fusion_lat": 0.0, "lat": 38.962118, "type": "electric_scooter", "lon": -77.02803133333333, "bike_id": "52b7406c3accb221e4a5bea6dbc515f6", "rental_uris": {"android": "https://dc.lft.to/lastmile_qr_scan", "ios": "https://dc.lft.to/lastmile_qr_scan"}, "name": "52b7406c3accb221e4a5bea6dbc515f6", "is_reserved": 0}, {"is_disabled": 0, "fusion_lon": 0.0, "fusion_lat": 0.0, "lat": 38.88743016666667, "type": "electric_scooter", "lon": -77.01740566666666, "bike_id": "9307fe169d8df3badabf0c35f95d516e", "rental_uris": {"android": "https://dc.lft.to/lastmile_qr_scan", "ios": "https://dc.lft.to/lastmile_qr_scan"}, "name": "9307fe169d8df3badabf0c35f95d516e", "is_reserved": 0}, {"is_disabled": 0, "fusion_lon": 0.0, "fusion_lat": 0.0, "lat": 38.893153, "type": "electric_scooter", "lon": -77.02116233333334, "bike_id": "efdc24191792eead024ebe083353ed8e", "rental_uris": {"android": "https://dc.lft.to/lastmile_qr_scan", "ios": "https://dc.lft.to/lastmile_qr_scan"}, "name": "efdc24191792eead024ebe083353ed8e", "is_reserved": 0}, {"is_disabled": 0, "fusion_lon": 0.0, "fusion_lat": 0.0, "lat": 38.85811, "type": "electric_scooter", "lon": -76.9896535, "bike_id": "ee7423d3c5b267f8f29ef0bd4b1d956c", "rental_uris": {"android": "https://dc.lft.to/lastmile_qr_scan", "ios": "https://dc.lft.to/lastmile_qr_scan"}, "name": "ee7423d3c5b267f8f29ef0bd4b1d956c", "is_reserved": 0}, {"is_disabled": 0, "fusion_lon": 0.0, "fusion_lat": 0.0, "lat": 38.949839, "type": "electric_scooter", "lon": -77.02702216666667, "bike_id": "44d82a2885ac3dc806681911eb64aa92", "rental_uris": {"android": "https://dc.lft.to/lastmile_qr_scan", "ios": "https://dc.lft.to/lastmile_qr_scan"}, "name": "44d82a2885ac3dc806681911eb64aa92", "is_reserved": 0}, {"is_disabled": 0, "fusion_lon": 0.0, "fusion_lat": 0.0, "lat": 38.86514283333333, "type": "electric_scooter", "lon": -76.97330016666666, "bike_id": "25805ed0c2f8334bc7ea97fcba8654e1", "rental_uris": {"android": "https://dc.lft.to/lastmile_qr_scan", "ios": "https://dc.lft.to/lastmile_qr_scan"}, "name": "25805ed0c2f8334bc7ea97fcba8654e1", "is_reserved": 0}, {"is_disabled": 0, "fusion_lon": 0.0, "fusion_lat": 0.0, "lat": 38.94280633333333, "type": "electric_scooter", "lon": -77.03629116666667, "bike_id": "7dc3b8435401bd3736e29674e428b706", "rental_uris": {"android": "https://dc.lft.to/lastmile_qr_scan", "ios": "https://dc.lft.to/lastmile_qr_scan"}, "name": "7dc3b8435401bd3736e29674e428b706", "is_reserved": 0}, {"is_disabled": 0, "fusion_lon": 0.0, "fusion_lat": 0.0, "lat": 38.956088, "type": "electric_scooter", "lon": -77.02760933333333, "bike_id": "59a0b9f4960444b7329deda77a6dbf33", "rental_uris": {"android": "https://dc.lft.to/lastmile_qr_scan", "ios": "https://dc.lft.to/lastmile_qr_scan"}, "name": "59a0b9f4960444b7329deda77a6dbf33", "is_reserved": 0}, {"is_disabled": 0, "fusion_lon": 0.0, "fusion_lat": 0.0, "lat": 38.894731166666666, "type": "electric_scooter", "lon": -76.99527616666667, "bike_id": "4dc80544532494dfac267819db69ba3c", "rental_uris": {"android": "https://dc.lft.to/lastmile_qr_scan", "ios": "https://dc.lft.to/lastmile_qr_scan"}, "name": "4dc80544532494dfac267819db69ba3c", "is_reserved": 0}, {"is_disabled": 0, "fusion_lon": 0.0, "fusion_lat": 0.0, "lat": 38.91689983333333, "type": "electric_scooter", "lon": -77.02852016666667, "bike_id": "d107c93b020ca8157465de79a05e56b9", "rental_uris": {"android": "https://dc.lft.to/lastmile_qr_scan", "ios": "https://dc.lft.to/lastmile_qr_scan"}, "name": "d107c93b020ca8157465de79a05e56b9", "is_reserved": 0}, {"is_disabled": 0, "fusion_lon": 0.0, "fusion_lat": 0.0, "lat": 38.9422885, "type": "electric_scooter", "lon": -77.02155816666667, "bike_id": "f851153200d233accabe3389e14f3391", "rental_uris": {"android": "https://dc.lft.to/lastmile_qr_scan", "ios": "https://dc.lft.to/lastmile_qr_scan"}, "name": "f851153200d233accabe3389e14f3391", "is_reserved": 0}, {"is_disabled": 0, "fusion_lon": 0.0, "fusion_lat": 0.0, "lat": 38.921284, "type": "electric_scooter", "lon": -77.02515433333333, "bike_id": "1c21bdb5527c85c9bdc4695c37ba6989", "rental_uris": {"android": "https://dc.lft.to/lastmile_qr_scan", "ios": "https://dc.lft.to/lastmile_qr_scan"}, "name": "1c21bdb5527c85c9bdc4695c37ba6989", "is_reserved": 0}, {"is_disabled": 0, "fusion_lon": 0.0, "fusion_lat": 0.0, "lat": 38.959208333333336, "type": "electric_bike", "lon": -77.03116116666666, "bike_id": "95e88337b0acb3a5e3e270cadc7fb5a9", "rental_uris": {"android": "https://dc.lft.to/lastmile_qr_scan", "ios": "https://dc.lft.to/lastmile_qr_scan"}, "name": "95e88337b0acb3a5e3e270cadc7fb5a9", "is_reserved": 0}, {"is_disabled": 0, "fusion_lon": 0.0, "fusion_lat": 0.0, "lat": 38.905448, "type": "electric_scooter", "lon": -77.02957483333333, "bike_id": "9e74719eaa992d99615eab45361bf759", "rental_uris": {"android": "https://dc.lft.to/lastmile_qr_scan", "ios": "https://dc.lft.to/lastmile_qr_scan"}, "name": "9e74719eaa992d99615eab45361bf759", "is_reserved": 0}, {"is_disabled": 0, "fusion_lon": 0.0, "fusion_lat": 0.0, "lat": 38.90024183333333, "type": "electric_scooter", "lon": -76.99874183333333, "bike_id": "bca36ef6c7280178372dd29a0f81b5e8", "rental_uris": {"android": "https://dc.lft.to/lastmile_qr_scan", "ios": "https://dc.lft.to/lastmile_qr_scan"}, "name": "bca36ef6c7280178372dd29a0f81b5e8", "is_reserved": 0}, {"is_disabled": 0, "fusion_lon": 0.0, "fusion_lat": 0.0, "lat": 38.895343833333335, "type": "electric_scooter", "lon": -77.04132016666667, "bike_id": "05bcd374e28257708a03192099842a20", "rental_uris": {"android": "https://dc.lft.to/lastmile_qr_scan", "ios": "https://dc.lft.to/lastmile_qr_scan"}, "name": "05bcd374e28257708a03192099842a20", "is_reserved": 0}, {"is_disabled": 0, "fusion_lon": 0.0, "fusion_lat": 0.0, "lat": 38.89834333333334, "type": "electric_scooter", "lon": -76.94632683333333, "bike_id": "75315df1a8558dc2d7e119ec3bca6cec", "rental_uris": {"android": "https://dc.lft.to/lastmile_qr_scan", "ios": "https://dc.lft.to/lastmile_qr_scan"}, "name": "75315df1a8558dc2d7e119ec3bca6cec", "is_reserved": 0}, {"is_disabled": 0, "fusion_lon": 0.0, "fusion_lat": 0.0, "lat": 38.89597083333334, "type": "electric_scooter", "lon": -77.00922416666667, "bike_id": "941414cbdbb98446b4cc80874581bbb0", "rental_uris": {"android": "https://dc.lft.to/lastmile_qr_scan", "ios": "https://dc.lft.to/lastmile_qr_scan"}, "name": "941414cbdbb98446b4cc80874581bbb0", "is_reserved": 0}, {"is_disabled": 0, "fusion_lon": 0.0, "fusion_lat": 0.0, "lat": 38.911277166666665, "type": "electric_scooter", "lon": -77.05934016666667, "bike_id": "ffe44e83a7cc46a86ad229ac958e45f5", "rental_uris": {"android": "https://dc.lft.to/lastmile_qr_scan", "ios": "https://dc.lft.to/lastmile_qr_scan"}, "name": "ffe44e83a7cc46a86ad229ac958e45f5", "is_reserved": 0}, {"is_disabled": 0, "fusion_lon": 0.0, "fusion_lat": 0.0, "lat": 38.925248333333336, "type": "electric_scooter", "lon": -77.04428483333334, "bike_id": "6b94dc8e2f924b556f377f33d8c4cbbc", "rental_uris": {"android": "https://dc.lft.to/lastmile_qr_scan", "ios": "https://dc.lft.to/lastmile_qr_scan"}, "name": "6b94dc8e2f924b556f377f33d8c4cbbc", "is_reserved": 0}, {"is_disabled": 0, "fusion_lon": 0.0, "fusion_lat": 0.0, "lat": 38.88481816666667, "type": "electric_scooter", "lon": -76.929809, "bike_id": "db06f50b3dd005281c2d5caba86b93c7", "rental_uris": {"android": "https://dc.lft.to/lastmile_qr_scan", "ios": "https://dc.lft.to/lastmile_qr_scan"}, "name": "db06f50b3dd005281c2d5caba86b93c7", "is_reserved": 0}, {"is_disabled": 0, "fusion_lon": 0.0, "fusion_lat": 0.0, "lat": 38.89311516666667, "type": "electric_scooter", "lon": -77.01974766666666, "bike_id": "11ba602b48f37882915d69361135f1ad", "rental_uris": {"android": "https://dc.lft.to/lastmile_qr_scan", "ios": "https://dc.lft.to/lastmile_qr_scan"}, "name": "11ba602b48f37882915d69361135f1ad", "is_reserved": 0}, {"is_disabled": 0, "fusion_lon": 0.0, "fusion_lat": 0.0, "lat": 38.919099833333334, "type": "electric_scooter", "lon": -77.04176916666667, "bike_id": "4ede3d425871f624206a2741386e8293", "rental_uris": {"android": "https://dc.lft.to/lastmile_qr_scan", "ios": "https://dc.lft.to/lastmile_qr_scan"}, "name": "4ede3d425871f624206a2741386e8293", "is_reserved": 0}, {"is_disabled": 0, "fusion_lon": 0.0, "fusion_lat": 0.0, "lat": 38.91627966666667, "type": "electric_scooter", "lon": -77.0402335, "bike_id": "9c19ac6af8c4873e2b4b401112cd2778", "rental_uris": {"android": "https://dc.lft.to/lastmile_qr_scan", "ios": "https://dc.lft.to/lastmile_qr_scan"}, "name": "9c19ac6af8c4873e2b4b401112cd2778", "is_reserved": 0}, {"is_disabled": 0, "fusion_lon": 0.0, "fusion_lat": 0.0, "lat": 38.90270116666667, "type": "electric_scooter", "lon": -77.053188, "bike_id": "12640d1cd1e27b33ab0283c958f5b59d", "rental_uris": {"android": "https://dc.lft.to/lastmile_qr_scan", "ios": "https://dc.lft.to/lastmile_qr_scan"}, "name": "12640d1cd1e27b33ab0283c958f5b59d", "is_reserved": 0}, {"is_disabled": 0, "fusion_lon": 0.0, "fusion_lat": 0.0, "lat": 38.91563033333333, "type": "electric_scooter", "lon": -77.03144866666666, "bike_id": "6677309007114f2d22f2087ee605da59", "rental_uris": {"android": "https://dc.lft.to/lastmile_qr_scan", "ios": "https://dc.lft.to/lastmile_qr_scan"}, "name": "6677309007114f2d22f2087ee605da59", "is_reserved": 0}, {"is_disabled": 0, "fusion_lon": 0.0, "fusion_lat": 0.0, "lat": 38.86974033333333, "type": "electric_scooter", "lon": -77.01237483333334, "bike_id": "0893ecfd92072d26c350752136d02621", "rental_uris": {"android": "https://dc.lft.to/lastmile_qr_scan", "ios": "https://dc.lft.to/lastmile_qr_scan"}, "name": "0893ecfd92072d26c350752136d02621", "is_reserved": 0}, {"is_disabled": 0, "fusion_lon": 0.0, "fusion_lat": 0.0, "lat": 38.9327265, "type": "electric_scooter", "lon": -76.97422683333333, "bike_id": "a44ee619a3ba1fce988873a5658f5777", "rental_uris": {"android": "https://dc.lft.to/lastmile_qr_scan", "ios": "https://dc.lft.to/lastmile_qr_scan"}, "name": "a44ee619a3ba1fce988873a5658f5777", "is_reserved": 0}, {"is_disabled": 0, "fusion_lon": 0.0, "fusion_lat": 0.0, "lat": 38.905317333333336, "type": "electric_scooter", "lon": -77.04986566666666, "bike_id": "68f0752f291edf4bc5d0199d7e65e26b", "rental_uris": {"android": "https://dc.lft.to/lastmile_qr_scan", "ios": "https://dc.lft.to/lastmile_qr_scan"}, "name": "68f0752f291edf4bc5d0199d7e65e26b", "is_reserved": 0}, {"is_disabled": 0, "fusion_lon": 0.0, "fusion_lat": 0.0, "lat": 38.93199933333333, "type": "electric_scooter", "lon": -77.02348366666666, "bike_id": "258e520ce23aae882d288b3a5fb43b3f", "rental_uris": {"android": "https://dc.lft.to/lastmile_qr_scan", "ios": "https://dc.lft.to/lastmile_qr_scan"}, "name": "258e520ce23aae882d288b3a5fb43b3f", "is_reserved": 0}, {"is_disabled": 0, "fusion_lon": 0.0, "fusion_lat": 0.0, "lat": 38.90833216666667, "type": "electric_bike", "lon": -76.99697383333333, "bike_id": "0cf444207a1947ff07d583e381f64e85", "rental_uris": {"android": "https://dc.lft.to/lastmile_qr_scan", "ios": "https://dc.lft.to/lastmile_qr_scan"}, "name": "0cf444207a1947ff07d583e381f64e85", "is_reserved": 0}, {"is_disabled": 0, "fusion_lon": 0.0, "fusion_lat": 0.0, "lat": 38.887707666666664, "type": "electric_scooter", "lon": -77.01547216666667, "bike_id": "f9073049dbf18ff795eced0d850eaa65", "rental_uris": {"android": "https://dc.lft.to/lastmile_qr_scan", "ios": "https://dc.lft.to/lastmile_qr_scan"}, "name": "f9073049dbf18ff795eced0d850eaa65", "is_reserved": 0}, {"is_disabled": 0, "fusion_lon": 0.0, "fusion_lat": 0.0, "lat": 38.90566, "type": "electric_scooter", "lon": -77.00575966666666, "bike_id": "3f18a92049a33117459866faae28ab8e", "rental_uris": {"android": "https://dc.lft.to/lastmile_qr_scan", "ios": "https://dc.lft.to/lastmile_qr_scan"}, "name": "3f18a92049a33117459866faae28ab8e", "is_reserved": 0}, {"is_disabled": 0, "fusion_lon": 0.0, "fusion_lat": 0.0, "lat": 38.990896166666666, "type": "electric_bike", "lon": -76.87495783333334, "bike_id": "7ca4b14615b563f1b9196d83b7fcdedb", "rental_uris": {"android": "https://dc.lft.to/lastmile_qr_scan", "ios": "https://dc.lft.to/lastmile_qr_scan"}, "name": "7ca4b14615b563f1b9196d83b7fcdedb", "is_reserved": 0}, {"is_disabled": 0, "fusion_lon": 0.0, "fusion_lat": 0.0, "lat": 38.94571933333334, "type": "electric_bike", "lon": -76.96028933333334, "bike_id": "fc9a9d5566b6b1cad0ce563af59bc500", "rental_uris": {"android": "https://dc.lft.to/lastmile_qr_scan", "ios": "https://dc.lft.to/lastmile_qr_scan"}, "name": "fc9a9d5566b6b1cad0ce563af59bc500", "is_reserved": 0}, {"is_disabled": 0, "fusion_lon": 0.0, "fusion_lat": 0.0, "lat": 38.990612666666664, "type": "electric_bike", "lon": -77.10027966666667, "bike_id": "ca3e418513a40ec958197b824be24358", "rental_uris": {"android": "https://dc.lft.to/lastmile_qr_scan", "ios": "https://dc.lft.to/lastmile_qr_scan"}, "name": "ca3e418513a40ec958197b824be24358", "is_reserved": 0}, {"is_disabled": 0, "fusion_lon": 0.0, "fusion_lat": 0.0, "lat": 38.90532816666666, "type": "electric_scooter", "lon": -77.0653065, "bike_id": "1c7068e59b3f374695508efb4fc72f70", "rental_uris": {"android": "https://dc.lft.to/lastmile_qr_scan", "ios": "https://dc.lft.to/lastmile_qr_scan"}, "name": "1c7068e59b3f374695508efb4fc72f70", "is_reserved": 0}, {"is_disabled": 0, "fusion_lon": 0.0, "fusion_lat": 0.0, "lat": 38.91131416666666, "type": "electric_scooter", "lon": -77.03735416666666, "bike_id": "091d33d57e73f4e03260bbdf683d8cc1", "rental_uris": {"android": "https://dc.lft.to/lastmile_qr_scan", "ios": "https://dc.lft.to/lastmile_qr_scan"}, "name": "091d33d57e73f4e03260bbdf683d8cc1", "is_reserved": 0}, {"is_disabled": 0, "fusion_lon": 0.0, "fusion_lat": 0.0, "lat": 38.9621245, "type": "electric_scooter", "lon": -77.028004, "bike_id": "e736304af03b07348b635662666b7671", "rental_uris": {"android": "https://dc.lft.to/lastmile_qr_scan", "ios": "https://dc.lft.to/lastmile_qr_scan"}, "name": "e736304af03b07348b635662666b7671", "is_reserved": 0}, {"is_disabled": 0, "fusion_lon": 0.0, "fusion_lat": 0.0, "lat": 38.928001333333334, "type": "electric_scooter", "lon": -77.01412766666667, "bike_id": "9f646a2958c3dde9cbbfc1a46222d6ce", "rental_uris": {"android": "https://dc.lft.to/lastmile_qr_scan", "ios": "https://dc.lft.to/lastmile_qr_scan"}, "name": "9f646a2958c3dde9cbbfc1a46222d6ce", "is_reserved": 0}, {"is_disabled": 0, "fusion_lon": 0.0, "fusion_lat": 0.0, "lat": 38.874948, "type": "electric_bike", "lon": -77.049021, "bike_id": "0e11ecd5aac6f4c33d6010720c68d08e", "rental_uris": {"android": "https://dc.lft.to/lastmile_qr_scan", "ios": "https://dc.lft.to/lastmile_qr_scan"}, "name": "0e11ecd5aac6f4c33d6010720c68d08e", "is_reserved": 0}, {"is_disabled": 0, "fusion_lon": 0.0, "fusion_lat": 0.0, "lat": 38.863549666666664, "type": "electric_scooter", "lon": -76.99072116666666, "bike_id": "0f29db7e47f0869c7952b5a24de2d0b2", "rental_uris": {"android": "https://dc.lft.to/lastmile_qr_scan", "ios": "https://dc.lft.to/lastmile_qr_scan"}, "name": "0f29db7e47f0869c7952b5a24de2d0b2", "is_reserved": 0}, {"is_disabled": 0, "fusion_lon": 0.0, "fusion_lat": 0.0, "lat": 38.9559975, "type": "electric_scooter", "lon": -77.009804, "bike_id": "39838bc2ac7caac860a374b3e4f75759", "rental_uris": {"android": "https://dc.lft.to/lastmile_qr_scan", "ios": "https://dc.lft.to/lastmile_qr_scan"}, "name": "39838bc2ac7caac860a374b3e4f75759", "is_reserved": 0}, {"is_disabled": 0, "fusion_lon": 0.0, "fusion_lat": 0.0, "lat": 38.845080833333334, "type": "electric_bike", "lon": -76.97213083333334, "bike_id": "ba3ffdccdb86bffcc58bd08f1d13ff0a", "rental_uris": {"android": "https://dc.lft.to/lastmile_qr_scan", "ios": "https://dc.lft.to/lastmile_qr_scan"}, "name": "ba3ffdccdb86bffcc58bd08f1d13ff0a", "is_reserved": 0}, {"is_disabled": 0, "fusion_lon": 0.0, "fusion_lat": 0.0, "lat": 38.909017666666664, "type": "electric_scooter", "lon": -77.02708116666666, "bike_id": "3acffe3acd09eb64a54ffb3059f4b516", "rental_uris": {"android": "https://dc.lft.to/lastmile_qr_scan", "ios": "https://dc.lft.to/lastmile_qr_scan"}, "name": "3acffe3acd09eb64a54ffb3059f4b516", "is_reserved": 0}, {"is_disabled": 0, "fusion_lon": 0.0, "fusion_lat": 0.0, "lat": 38.924063, "type": "electric_bike", "lon": -77.04263833333333, "bike_id": "773795f5217dc1d15a3c7ff4a5f80a96", "rental_uris": {"android": "https://dc.lft.to/lastmile_qr_scan", "ios": "https://dc.lft.to/lastmile_qr_scan"}, "name": "773795f5217dc1d15a3c7ff4a5f80a96", "is_reserved": 0}, {"is_disabled": 0, "fusion_lon": 0.0, "fusion_lat": 0.0, "lat": 38.916571833333336, "type": "electric_scooter", "lon": -77.02816016666667, "bike_id": "eb2b816aeccb9e818d4e980e9af96256", "rental_uris": {"android": "https://dc.lft.to/lastmile_qr_scan", "ios": "https://dc.lft.to/lastmile_qr_scan"}, "name": "eb2b816aeccb9e818d4e980e9af96256", "is_reserved": 0}, {"is_disabled": 0, "fusion_lon": 0.0, "fusion_lat": 0.0, "lat": 38.90010933333333, "type": "electric_scooter", "lon": -77.041654, "bike_id": "159ec509f2a7e0231d32a7822a696297", "rental_uris": {"android": "https://dc.lft.to/lastmile_qr_scan", "ios": "https://dc.lft.to/lastmile_qr_scan"}, "name": "159ec509f2a7e0231d32a7822a696297", "is_reserved": 0}, {"is_disabled": 0, "fusion_lon": 0.0, "fusion_lat": 0.0, "lat": 38.9071325, "type": "electric_scooter", "lon": -77.02714816666666, "bike_id": "14ca86382fe078697efcae9f13752f9e", "rental_uris": {"android": "https://dc.lft.to/lastmile_qr_scan", "ios": "https://dc.lft.to/lastmile_qr_scan"}, "name": "14ca86382fe078697efcae9f13752f9e", "is_reserved": 0}, {"is_disabled": 0, "fusion_lon": 0.0, "fusion_lat": 0.0, "lat": 38.919619833333336, "type": "electric_scooter", "lon": -77.0248675, "bike_id": "aebb2410adae6eb3648a016a195a7e9e", "rental_uris": {"android": "https://dc.lft.to/lastmile_qr_scan", "ios": "https://dc.lft.to/lastmile_qr_scan"}, "name": "aebb2410adae6eb3648a016a195a7e9e", "is_reserved": 0}, {"is_disabled": 0, "fusion_lon": 0.0, "fusion_lat": 0.0, "lat": 38.95121366666667, "type": "electric_scooter", "lon": -77.01392516666667, "bike_id": "41313e538fad9a1652cf355da837c308", "rental_uris": {"android": "https://dc.lft.to/lastmile_qr_scan", "ios": "https://dc.lft.to/lastmile_qr_scan"}, "name": "41313e538fad9a1652cf355da837c308", "is_reserved": 0}, {"is_disabled": 0, "fusion_lon": 0.0, "fusion_lat": 0.0, "lat": 38.90880166666667, "type": "electric_scooter", "lon": -77.02689883333333, "bike_id": "ba9a09851aeee340b245e3da85a43165", "rental_uris": {"android": "https://dc.lft.to/lastmile_qr_scan", "ios": "https://dc.lft.to/lastmile_qr_scan"}, "name": "ba9a09851aeee340b245e3da85a43165", "is_reserved": 0}, {"is_disabled": 0, "fusion_lon": 0.0, "fusion_lat": 0.0, "lat": 38.884479666666664, "type": "electric_scooter", "lon": -76.95097066666666, "bike_id": "7cfb92d0741a83d3dbc7f45881f990fd", "rental_uris": {"android": "https://dc.lft.to/lastmile_qr_scan", "ios": "https://dc.lft.to/lastmile_qr_scan"}, "name": "7cfb92d0741a83d3dbc7f45881f990fd", "is_reserved": 0}, {"is_disabled": 0, "fusion_lon": 0.0, "fusion_lat": 0.0, "lat": 38.923466166666664, "type": "electric_scooter", "lon": -77.03897316666666, "bike_id": "06a4803fdeda29cb5c43d25887ea48d8", "rental_uris": {"android": "https://dc.lft.to/lastmile_qr_scan", "ios": "https://dc.lft.to/lastmile_qr_scan"}, "name": "06a4803fdeda29cb5c43d25887ea48d8", "is_reserved": 0}, {"is_disabled": 0, "fusion_lon": 0.0, "fusion_lat": 0.0, "lat": 38.90066816666667, "type": "electric_scooter", "lon": -77.04765466666667, "bike_id": "46712dc07cf4a375c68221a38864275c", "rental_uris": {"android": "https://dc.lft.to/lastmile_qr_scan", "ios": "https://dc.lft.to/lastmile_qr_scan"}, "name": "46712dc07cf4a375c68221a38864275c", "is_reserved": 0}, {"is_disabled": 0, "fusion_lon": 0.0, "fusion_lat": 0.0, "lat": 38.892120166666665, "type": "electric_scooter", "lon": -76.99575466666667, "bike_id": "3286c24c9c95345df3928b3a45966da7", "rental_uris": {"android": "https://dc.lft.to/lastmile_qr_scan", "ios": "https://dc.lft.to/lastmile_qr_scan"}, "name": "3286c24c9c95345df3928b3a45966da7", "is_reserved": 0}, {"is_disabled": 0, "fusion_lon": 0.0, "fusion_lat": 0.0, "lat": 38.93411783333333, "type": "electric_scooter", "lon": -77.04266133333333, "bike_id": "bfd9245d3803870ad7ec718025c80fd1", "rental_uris": {"android": "https://dc.lft.to/lastmile_qr_scan", "ios": "https://dc.lft.to/lastmile_qr_scan"}, "name": "bfd9245d3803870ad7ec718025c80fd1", "is_reserved": 0}, {"is_disabled": 0, "fusion_lon": 0.0, "fusion_lat": 0.0, "lat": 38.9087025, "type": "electric_scooter", "lon": -77.042753, "bike_id": "e51d44b7b05435b6c6980d1179942984", "rental_uris": {"android": "https://dc.lft.to/lastmile_qr_scan", "ios": "https://dc.lft.to/lastmile_qr_scan"}, "name": "e51d44b7b05435b6c6980d1179942984", "is_reserved": 0}, {"is_disabled": 0, "fusion_lon": 0.0, "fusion_lat": 0.0, "lat": 38.900414, "type": "electric_scooter", "lon": -77.002072, "bike_id": "e22bd33639c72d9d9aa308f31c582067", "rental_uris": {"android": "https://dc.lft.to/lastmile_qr_scan", "ios": "https://dc.lft.to/lastmile_qr_scan"}, "name": "e22bd33639c72d9d9aa308f31c582067", "is_reserved": 0}, {"is_disabled": 0, "fusion_lon": 0.0, "fusion_lat": 0.0, "lat": 38.89574833333333, "type": "electric_bike", "lon": -76.97617266666667, "bike_id": "144850b8d725265eeb66d41c4d00cc13", "rental_uris": {"android": "https://dc.lft.to/lastmile_qr_scan", "ios": "https://dc.lft.to/lastmile_qr_scan"}, "name": "144850b8d725265eeb66d41c4d00cc13", "is_reserved": 0}, {"is_disabled": 0, "fusion_lon": 0.0, "fusion_lat": 0.0, "lat": 38.917099666666665, "type": "electric_scooter", "lon": -77.04143733333333, "bike_id": "07b81cd32050b93130602aaf1960db84", "rental_uris": {"android": "https://dc.lft.to/lastmile_qr_scan", "ios": "https://dc.lft.to/lastmile_qr_scan"}, "name": "07b81cd32050b93130602aaf1960db84", "is_reserved": 0}, {"is_disabled": 0, "fusion_lon": 0.0, "fusion_lat": 0.0, "lat": 38.910981666666665, "type": "electric_scooter", "lon": -77.00372483333334, "bike_id": "5331f80aa8044633f44aeb6c4711b67d", "rental_uris": {"android": "https://dc.lft.to/lastmile_qr_scan", "ios": "https://dc.lft.to/lastmile_qr_scan"}, "name": "5331f80aa8044633f44aeb6c4711b67d", "is_reserved": 0}, {"is_disabled": 0, "fusion_lon": 0.0, "fusion_lat": 0.0, "lat": 38.9057975, "type": "electric_scooter", "lon": -77.02951966666667, "bike_id": "ad074cd4364dc1ec2530af6c74df9d13", "rental_uris": {"android": "https://dc.lft.to/lastmile_qr_scan", "ios": "https://dc.lft.to/lastmile_qr_scan"}, "name": "ad074cd4364dc1ec2530af6c74df9d13", "is_reserved": 0}, {"is_disabled": 0, "fusion_lon": 0.0, "fusion_lat": 0.0, "lat": 38.920921, "type": "electric_scooter", "lon": -77.02593566666667, "bike_id": "1d4dcb63b6be8210b9ec7f77bc947ffc", "rental_uris": {"android": "https://dc.lft.to/lastmile_qr_scan", "ios": "https://dc.lft.to/lastmile_qr_scan"}, "name": "1d4dcb63b6be8210b9ec7f77bc947ffc", "is_reserved": 0}, {"is_disabled": 0, "fusion_lon": 0.0, "fusion_lat": 0.0, "lat": 38.9156535, "type": "electric_scooter", "lon": -77.01017116666667, "bike_id": "52eb92348016f38789a16fe7f28b4024", "rental_uris": {"android": "https://dc.lft.to/lastmile_qr_scan", "ios": "https://dc.lft.to/lastmile_qr_scan"}, "name": "52eb92348016f38789a16fe7f28b4024", "is_reserved": 0}, {"is_disabled": 0, "fusion_lon": 0.0, "fusion_lat": 0.0, "lat": 38.905416, "type": "electric_scooter", "lon": -77.032533, "bike_id": "c70ac19f1067f993b484d4125be598fd", "rental_uris": {"android": "https://dc.lft.to/lastmile_qr_scan", "ios": "https://dc.lft.to/lastmile_qr_scan"}, "name": "c70ac19f1067f993b484d4125be598fd", "is_reserved": 0}, {"is_disabled": 0, "fusion_lon": 0.0, "fusion_lat": 0.0, "lat": 38.98492066666667, "type": "electric_bike", "lon": -76.98202983333333, "bike_id": "28f4ebc0ddd163162f0c70f3bb6a700e", "rental_uris": {"android": "https://dc.lft.to/lastmile_qr_scan", "ios": "https://dc.lft.to/lastmile_qr_scan"}, "name": "28f4ebc0ddd163162f0c70f3bb6a700e", "is_reserved": 0}, {"is_disabled": 0, "fusion_lon": 0.0, "fusion_lat": 0.0, "lat": 38.91710716666667, "type": "electric_scooter", "lon": -77.03170266666666, "bike_id": "4c07ec534563b7806676e6b93a4169f5", "rental_uris": {"android": "https://dc.lft.to/lastmile_qr_scan", "ios": "https://dc.lft.to/lastmile_qr_scan"}, "name": "4c07ec534563b7806676e6b93a4169f5", "is_reserved": 0}, {"is_disabled": 0, "fusion_lon": 0.0, "fusion_lat": 0.0, "lat": 38.905083833333336, "type": "electric_scooter", "lon": -77.02519783333334, "bike_id": "ab832609b3c35a809fd244125609c149", "rental_uris": {"android": "https://dc.lft.to/lastmile_qr_scan", "ios": "https://dc.lft.to/lastmile_qr_scan"}, "name": "ab832609b3c35a809fd244125609c149", "is_reserved": 0}, {"is_disabled": 0, "fusion_lon": 0.0, "fusion_lat": 0.0, "lat": 38.909161833333336, "type": "electric_scooter", "lon": -77.02291833333334, "bike_id": "b0926ea4c05d90110e40cd2aa460e0dc", "rental_uris": {"android": "https://dc.lft.to/lastmile_qr_scan", "ios": "https://dc.lft.to/lastmile_qr_scan"}, "name": "b0926ea4c05d90110e40cd2aa460e0dc", "is_reserved": 0}, {"is_disabled": 0, "fusion_lon": 0.0, "fusion_lat": 0.0, "lat": 38.900117, "type": "electric_scooter", "lon": -77.01191483333334, "bike_id": "8ae8a486f2236c87298a8e4f4d2e43b7", "rental_uris": {"android": "https://dc.lft.to/lastmile_qr_scan", "ios": "https://dc.lft.to/lastmile_qr_scan"}, "name": "8ae8a486f2236c87298a8e4f4d2e43b7", "is_reserved": 0}, {"is_disabled": 0, "fusion_lon": 0.0, "fusion_lat": 0.0, "lat": 38.93276216666667, "type": "electric_scooter", "lon": -76.99688666666667, "bike_id": "bfed42ae05ad3e7ac144a6ae901e9bd1", "rental_uris": {"android": "https://dc.lft.to/lastmile_qr_scan", "ios": "https://dc.lft.to/lastmile_qr_scan"}, "name": "bfed42ae05ad3e7ac144a6ae901e9bd1", "is_reserved": 0}, {"is_disabled": 0, "fusion_lon": 0.0, "fusion_lat": 0.0, "lat": 38.8997425, "type": "electric_scooter", "lon": -77.026913, "bike_id": "7ce6f20bfe69cfcfacc24005d543c568", "rental_uris": {"android": "https://dc.lft.to/lastmile_qr_scan", "ios": "https://dc.lft.to/lastmile_qr_scan"}, "name": "7ce6f20bfe69cfcfacc24005d543c568", "is_reserved": 0}, {"is_disabled": 0, "fusion_lon": 0.0, "fusion_lat": 0.0, "lat": 38.89902383333333, "type": "electric_scooter", "lon": -76.93386833333334, "bike_id": "cae5011f589fa8128df2f7251133cb41", "rental_uris": {"android": "https://dc.lft.to/lastmile_qr_scan", "ios": "https://dc.lft.to/lastmile_qr_scan"}, "name": "cae5011f589fa8128df2f7251133cb41", "is_reserved": 0}, {"is_disabled": 0, "fusion_lon": 0.0, "fusion_lat": 0.0, "lat": 38.887535666666665, "type": "electric_scooter", "lon": -76.99616416666667, "bike_id": "9dd6fb7e0072ab785ae196a10e2df87f", "rental_uris": {"android": "https://dc.lft.to/lastmile_qr_scan", "ios": "https://dc.lft.to/lastmile_qr_scan"}, "name": "9dd6fb7e0072ab785ae196a10e2df87f", "is_reserved": 0}, {"is_disabled": 0, "fusion_lon": 0.0, "fusion_lat": 0.0, "lat": 38.8873435, "type": "electric_scooter", "lon": -77.015305, "bike_id": "8b820fce509951c70e6648a42aef0cec", "rental_uris": {"android": "https://dc.lft.to/lastmile_qr_scan", "ios": "https://dc.lft.to/lastmile_qr_scan"}, "name": "8b820fce509951c70e6648a42aef0cec", "is_reserved": 0}, {"is_disabled": 0, "fusion_lon": 0.0, "fusion_lat": 0.0, "lat": 38.9004825, "type": "electric_scooter", "lon": -77.00071066666666, "bike_id": "d91b29b48273fba31d3c26bc60174f5d", "rental_uris": {"android": "https://dc.lft.to/lastmile_qr_scan", "ios": "https://dc.lft.to/lastmile_qr_scan"}, "name": "d91b29b48273fba31d3c26bc60174f5d", "is_reserved": 0}, {"is_disabled": 0, "fusion_lon": 0.0, "fusion_lat": 0.0, "lat": 38.9355875, "type": "electric_scooter", "lon": -77.02960183333333, "bike_id": "cee24287a052a717b461faf0a05db34d", "rental_uris": {"android": "https://dc.lft.to/lastmile_qr_scan", "ios": "https://dc.lft.to/lastmile_qr_scan"}, "name": "cee24287a052a717b461faf0a05db34d", "is_reserved": 0}, {"is_disabled": 0, "fusion_lon": 0.0, "fusion_lat": 0.0, "lat": 38.87992366666667, "type": "electric_scooter", "lon": -76.9853145, "bike_id": "87daf693eed4bec3f35cb3062a09524b", "rental_uris": {"android": "https://dc.lft.to/lastmile_qr_scan", "ios": "https://dc.lft.to/lastmile_qr_scan"}, "name": "87daf693eed4bec3f35cb3062a09524b", "is_reserved": 0}, {"is_disabled": 0, "fusion_lon": 0.0, "fusion_lat": 0.0, "lat": 38.924178166666664, "type": "electric_scooter", "lon": -77.056221, "bike_id": "4b82fa36a6178ed3171fea8bd066cbff", "rental_uris": {"android": "https://dc.lft.to/lastmile_qr_scan", "ios": "https://dc.lft.to/lastmile_qr_scan"}, "name": "4b82fa36a6178ed3171fea8bd066cbff", "is_reserved": 0}, {"is_disabled": 0, "fusion_lon": 0.0, "fusion_lat": 0.0, "lat": 38.96921, "type": "electric_bike", "lon": -77.026152, "bike_id": "d058f7e059ccf842627278809ec9035f", "rental_uris": {"android": "https://dc.lft.to/lastmile_qr_scan", "ios": "https://dc.lft.to/lastmile_qr_scan"}, "name": "d058f7e059ccf842627278809ec9035f", "is_reserved": 0}, {"is_disabled": 0, "fusion_lon": 0.0, "fusion_lat": 0.0, "lat": 38.907408333333336, "type": "electric_scooter", "lon": -77.03455833333334, "bike_id": "ff65d11ef4c7e707cd9d95e27f310fa9", "rental_uris": {"android": "https://dc.lft.to/lastmile_qr_scan", "ios": "https://dc.lft.to/lastmile_qr_scan"}, "name": "ff65d11ef4c7e707cd9d95e27f310fa9", "is_reserved": 0}, {"is_disabled": 0, "fusion_lon": 0.0, "fusion_lat": 0.0, "lat": 38.98666033333333, "type": "electric_scooter", "lon": -77.02643816666667, "bike_id": "bbfca32db2bc8d3ebbd99ff52039c679", "rental_uris": {"android": "https://dc.lft.to/lastmile_qr_scan", "ios": "https://dc.lft.to/lastmile_qr_scan"}, "name": "bbfca32db2bc8d3ebbd99ff52039c679", "is_reserved": 0}, {"is_disabled": 0, "fusion_lon": 0.0, "fusion_lat": 0.0, "lat": 38.91477233333333, "type": "electric_scooter", "lon": -77.0439075, "bike_id": "10de2921ed9faee102e5b70d16bbcbdd", "rental_uris": {"android": "https://dc.lft.to/lastmile_qr_scan", "ios": "https://dc.lft.to/lastmile_qr_scan"}, "name": "10de2921ed9faee102e5b70d16bbcbdd", "is_reserved": 0}, {"is_disabled": 0, "fusion_lon": 0.0, "fusion_lat": 0.0, "lat": 38.9169405, "type": "electric_scooter", "lon": -77.03217583333333, "bike_id": "adf2843de721bfb9f88ebbbe952ba460", "rental_uris": {"android": "https://dc.lft.to/lastmile_qr_scan", "ios": "https://dc.lft.to/lastmile_qr_scan"}, "name": "adf2843de721bfb9f88ebbbe952ba460", "is_reserved": 0}, {"is_disabled": 0, "fusion_lon": 0.0, "fusion_lat": 0.0, "lat": 38.8921035, "type": "electric_scooter", "lon": -76.98794766666667, "bike_id": "e339aa5e8f583fae6e42e235477ed42c", "rental_uris": {"android": "https://dc.lft.to/lastmile_qr_scan", "ios": "https://dc.lft.to/lastmile_qr_scan"}, "name": "e339aa5e8f583fae6e42e235477ed42c", "is_reserved": 0}, {"is_disabled": 0, "fusion_lon": 0.0, "fusion_lat": 0.0, "lat": 38.9185505, "type": "electric_bike", "lon": -76.9617495, "bike_id": "6e6ea68a3c2d92c74e12ef7660f64dc8", "rental_uris": {"android": "https://dc.lft.to/lastmile_qr_scan", "ios": "https://dc.lft.to/lastmile_qr_scan"}, "name": "6e6ea68a3c2d92c74e12ef7660f64dc8", "is_reserved": 0}, {"is_disabled": 0, "fusion_lon": 0.0, "fusion_lat": 0.0, "lat": 38.914897, "type": "electric_scooter", "lon": -77.01989283333333, "bike_id": "eb85ced27655ce53e3f9e6efeaeafa1d", "rental_uris": {"android": "https://dc.lft.to/lastmile_qr_scan", "ios": "https://dc.lft.to/lastmile_qr_scan"}, "name": "eb85ced27655ce53e3f9e6efeaeafa1d", "is_reserved": 0}, {"is_disabled": 0, "fusion_lon": 0.0, "fusion_lat": 0.0, "lat": 38.8429225, "type": "electric_scooter", "lon": -76.99946333333334, "bike_id": "4403bf6dfbe4bce0f9d93ad957bab288", "rental_uris": {"android": "https://dc.lft.to/lastmile_qr_scan", "ios": "https://dc.lft.to/lastmile_qr_scan"}, "name": "4403bf6dfbe4bce0f9d93ad957bab288", "is_reserved": 0}, {"is_disabled": 0, "fusion_lon": 0.0, "fusion_lat": 0.0, "lat": 38.89731716666667, "type": "electric_scooter", "lon": -77.007537, "bike_id": "e95e593c4121c70da3c7a6585a6d22cd", "rental_uris": {"android": "https://dc.lft.to/lastmile_qr_scan", "ios": "https://dc.lft.to/lastmile_qr_scan"}, "name": "e95e593c4121c70da3c7a6585a6d22cd", "is_reserved": 0}, {"is_disabled": 0, "fusion_lon": 0.0, "fusion_lat": 0.0, "lat": 38.886972166666666, "type": "electric_scooter", "lon": -76.95363033333334, "bike_id": "4656e8c0293db5e2cc9cf6a2222a86d8", "rental_uris": {"android": "https://dc.lft.to/lastmile_qr_scan", "ios": "https://dc.lft.to/lastmile_qr_scan"}, "name": "4656e8c0293db5e2cc9cf6a2222a86d8", "is_reserved": 0}, {"is_disabled": 0, "fusion_lon": 0.0, "fusion_lat": 0.0, "lat": 38.918099833333336, "type": "electric_scooter", "lon": -77.04154216666667, "bike_id": "4ed982d47558238e26998334eabf55f4", "rental_uris": {"android": "https://dc.lft.to/lastmile_qr_scan", "ios": "https://dc.lft.to/lastmile_qr_scan"}, "name": "4ed982d47558238e26998334eabf55f4", "is_reserved": 0}, {"is_disabled": 0, "fusion_lon": 0.0, "fusion_lat": 0.0, "lat": 38.904686833333336, "type": "electric_scooter", "lon": -76.99210516666666, "bike_id": "908afb6d00845e4973f205e8551c2f89", "rental_uris": {"android": "https://dc.lft.to/lastmile_qr_scan", "ios": "https://dc.lft.to/lastmile_qr_scan"}, "name": "908afb6d00845e4973f205e8551c2f89", "is_reserved": 0}, {"is_disabled": 0, "fusion_lon": 0.0, "fusion_lat": 0.0, "lat": 38.913445833333334, "type": "electric_scooter", "lon": -77.031841, "bike_id": "4d1bd29b64133304fab56b3ccafa9c25", "rental_uris": {"android": "https://dc.lft.to/lastmile_qr_scan", "ios": "https://dc.lft.to/lastmile_qr_scan"}, "name": "4d1bd29b64133304fab56b3ccafa9c25", "is_reserved": 0}, {"is_disabled": 0, "fusion_lon": 0.0, "fusion_lat": 0.0, "lat": 38.911509333333335, "type": "electric_scooter", "lon": -76.98501083333333, "bike_id": "d0edc6bf4a5527a2027f467b10588a50", "rental_uris": {"android": "https://dc.lft.to/lastmile_qr_scan", "ios": "https://dc.lft.to/lastmile_qr_scan"}, "name": "d0edc6bf4a5527a2027f467b10588a50", "is_reserved": 0}, {"is_disabled": 0, "fusion_lon": 0.0, "fusion_lat": 0.0, "lat": 38.8948585, "type": "electric_scooter", "lon": -77.02279166666666, "bike_id": "5dced52a2e23c6afb14a9474c12d70fe", "rental_uris": {"android": "https://dc.lft.to/lastmile_qr_scan", "ios": "https://dc.lft.to/lastmile_qr_scan"}, "name": "5dced52a2e23c6afb14a9474c12d70fe", "is_reserved": 0}, {"is_disabled": 0, "fusion_lon": 0.0, "fusion_lat": 0.0, "lat": 38.905344, "type": "electric_scooter", "lon": -77.0297385, "bike_id": "fbf29e92739c424989b0bedb9639c439", "rental_uris": {"android": "https://dc.lft.to/lastmile_qr_scan", "ios": "https://dc.lft.to/lastmile_qr_scan"}, "name": "fbf29e92739c424989b0bedb9639c439", "is_reserved": 0}, {"is_disabled": 0, "fusion_lon": 0.0, "fusion_lat": 0.0, "lat": 38.89473433333333, "type": "electric_scooter", "lon": -76.977213, "bike_id": "67f2164790f6a7baa7720a3b308798b3", "rental_uris": {"android": "https://dc.lft.to/lastmile_qr_scan", "ios": "https://dc.lft.to/lastmile_qr_scan"}, "name": "67f2164790f6a7baa7720a3b308798b3", "is_reserved": 0}, {"is_disabled": 0, "fusion_lon": 0.0, "fusion_lat": 0.0, "lat": 38.94446633333333, "type": "electric_scooter", "lon": -77.0604495, "bike_id": "f7543fc41f3d8ecffc58a00e3803fced", "rental_uris": {"android": "https://dc.lft.to/lastmile_qr_scan", "ios": "https://dc.lft.to/lastmile_qr_scan"}, "name": "f7543fc41f3d8ecffc58a00e3803fced", "is_reserved": 0}, {"is_disabled": 0, "fusion_lon": 0.0, "fusion_lat": 0.0, "lat": 38.91636, "type": "electric_scooter", "lon": -77.05061616666667, "bike_id": "8707fc8ccd56dea32aa2080c3ec37ec5", "rental_uris": {"android": "https://dc.lft.to/lastmile_qr_scan", "ios": "https://dc.lft.to/lastmile_qr_scan"}, "name": "8707fc8ccd56dea32aa2080c3ec37ec5", "is_reserved": 0}, {"is_disabled": 0, "fusion_lon": 0.0, "fusion_lat": 0.0, "lat": 38.8689, "type": "electric_scooter", "lon": -76.98318066666667, "bike_id": "5e5dd4456a3dcc61539314f2a0be8df9", "rental_uris": {"android": "https://dc.lft.to/lastmile_qr_scan", "ios": "https://dc.lft.to/lastmile_qr_scan"}, "name": "5e5dd4456a3dcc61539314f2a0be8df9", "is_reserved": 0}, {"is_disabled": 0, "fusion_lon": 0.0, "fusion_lat": 0.0, "lat": 38.89036266666667, "type": "electric_scooter", "lon": -76.93754683333333, "bike_id": "cc5f09bba51fff53e4014223743de5e3", "rental_uris": {"android": "https://dc.lft.to/lastmile_qr_scan", "ios": "https://dc.lft.to/lastmile_qr_scan"}, "name": "cc5f09bba51fff53e4014223743de5e3", "is_reserved": 0}, {"is_disabled": 0, "fusion_lon": 0.0, "fusion_lat": 0.0, "lat": 38.8598905, "type": "electric_bike", "lon": -76.97054783333333, "bike_id": "595ada79c49fa26cdaa0a2ac4009b867", "rental_uris": {"android": "https://dc.lft.to/lastmile_qr_scan", "ios": "https://dc.lft.to/lastmile_qr_scan"}, "name": "595ada79c49fa26cdaa0a2ac4009b867", "is_reserved": 0}, {"is_disabled": 0, "fusion_lon": 0.0, "fusion_lat": 0.0, "lat": 38.883029666666665, "type": "electric_scooter", "lon": -77.01630033333333, "bike_id": "53889fc031be9cf25d8ec660054a6628", "rental_uris": {"android": "https://dc.lft.to/lastmile_qr_scan", "ios": "https://dc.lft.to/lastmile_qr_scan"}, "name": "53889fc031be9cf25d8ec660054a6628", "is_reserved": 0}, {"is_disabled": 0, "fusion_lon": 0.0, "fusion_lat": 0.0, "lat": 38.994514, "type": "electric_bike", "lon": -76.90816966666667, "bike_id": "ed6cb616a256e8f439631562a6f9144f", "rental_uris": {"android": "https://dc.lft.to/lastmile_qr_scan", "ios": "https://dc.lft.to/lastmile_qr_scan"}, "name": "ed6cb616a256e8f439631562a6f9144f", "is_reserved": 0}, {"is_disabled": 0, "fusion_lon": 0.0, "fusion_lat": 0.0, "lat": 38.88590083333333, "type": "electric_scooter", "lon": -77.00582766666666, "bike_id": "84528e1c3cf1cf24436ae3fe6d084355", "rental_uris": {"android": "https://dc.lft.to/lastmile_qr_scan", "ios": "https://dc.lft.to/lastmile_qr_scan"}, "name": "84528e1c3cf1cf24436ae3fe6d084355", "is_reserved": 0}, {"is_disabled": 0, "fusion_lon": 0.0, "fusion_lat": 0.0, "lat": 38.9146425, "type": "electric_scooter", "lon": -77.02790933333333, "bike_id": "07a923241b92e7b84933b013cae50306", "rental_uris": {"android": "https://dc.lft.to/lastmile_qr_scan", "ios": "https://dc.lft.to/lastmile_qr_scan"}, "name": "07a923241b92e7b84933b013cae50306", "is_reserved": 0}, {"is_disabled": 0, "fusion_lon": 0.0, "fusion_lat": 0.0, "lat": 38.90192483333333, "type": "electric_scooter", "lon": -77.02405666666667, "bike_id": "83645bbc48fa695696fd412bd73b8f67", "rental_uris": {"android": "https://dc.lft.to/lastmile_qr_scan", "ios": "https://dc.lft.to/lastmile_qr_scan"}, "name": "83645bbc48fa695696fd412bd73b8f67", "is_reserved": 0}, {"is_disabled": 0, "fusion_lon": 0.0, "fusion_lat": 0.0, "lat": 38.880090333333335, "type": "electric_bike", "lon": -76.91594033333334, "bike_id": "2d34df32c6ff4786a616c4b46dbab899", "rental_uris": {"android": "https://dc.lft.to/lastmile_qr_scan", "ios": "https://dc.lft.to/lastmile_qr_scan"}, "name": "2d34df32c6ff4786a616c4b46dbab899", "is_reserved": 0}, {"is_disabled": 0, "fusion_lon": 0.0, "fusion_lat": 0.0, "lat": 38.923886833333334, "type": "electric_scooter", "lon": -77.04081266666667, "bike_id": "74a48ddb54098877e2bb12751439259f", "rental_uris": {"android": "https://dc.lft.to/lastmile_qr_scan", "ios": "https://dc.lft.to/lastmile_qr_scan"}, "name": "74a48ddb54098877e2bb12751439259f", "is_reserved": 0}, {"is_disabled": 0, "fusion_lon": 0.0, "fusion_lat": 0.0, "lat": 38.82876983333333, "type": "electric_bike", "lon": -77.112204, "bike_id": "c627ebbd743e02b3526a467d9619f9a5", "rental_uris": {"android": "https://dc.lft.to/lastmile_qr_scan", "ios": "https://dc.lft.to/lastmile_qr_scan"}, "name": "c627ebbd743e02b3526a467d9619f9a5", "is_reserved": 0}, {"is_disabled": 0, "fusion_lon": 0.0, "fusion_lat": 0.0, "lat": 38.91333566666667, "type": "electric_scooter", "lon": -77.0486295, "bike_id": "f661c396b780540779288af2655bdc20", "rental_uris": {"android": "https://dc.lft.to/lastmile_qr_scan", "ios": "https://dc.lft.to/lastmile_qr_scan"}, "name": "f661c396b780540779288af2655bdc20", "is_reserved": 0}, {"is_disabled": 0, "fusion_lon": 0.0, "fusion_lat": 0.0, "lat": 38.83322283333333, "type": "electric_scooter", "lon": -77.00006366666666, "bike_id": "a9364488b686dd3e08261b394daeaf64", "rental_uris": {"android": "https://dc.lft.to/lastmile_qr_scan", "ios": "https://dc.lft.to/lastmile_qr_scan"}, "name": "a9364488b686dd3e08261b394daeaf64", "is_reserved": 0}, {"is_disabled": 0, "fusion_lon": 0.0, "fusion_lat": 0.0, "lat": 38.87028, "type": "electric_scooter", "lon": -77.010733, "bike_id": "456205bc5bc625e648036c678bb3eef2", "rental_uris": {"android": "https://dc.lft.to/lastmile_qr_scan", "ios": "https://dc.lft.to/lastmile_qr_scan"}, "name": "456205bc5bc625e648036c678bb3eef2", "is_reserved": 0}, {"is_disabled": 0, "fusion_lon": 0.0, "fusion_lat": 0.0, "lat": 38.92823116666667, "type": "electric_scooter", "lon": -77.03715883333334, "bike_id": "783b474dc0144cf16b08f483c1a6a2ae", "rental_uris": {"android": "https://dc.lft.to/lastmile_qr_scan", "ios": "https://dc.lft.to/lastmile_qr_scan"}, "name": "783b474dc0144cf16b08f483c1a6a2ae", "is_reserved": 0}, {"is_disabled": 0, "fusion_lon": 0.0, "fusion_lat": 0.0, "lat": 38.91702316666667, "type": "electric_scooter", "lon": -77.02435866666667, "bike_id": "09c5f8dd93835dac8ecec603afa8855a", "rental_uris": {"android": "https://dc.lft.to/lastmile_qr_scan", "ios": "https://dc.lft.to/lastmile_qr_scan"}, "name": "09c5f8dd93835dac8ecec603afa8855a", "is_reserved": 0}, {"is_disabled": 0, "fusion_lon": 0.0, "fusion_lat": 0.0, "lat": 38.92585833333333, "type": "electric_scooter", "lon": -77.05528833333334, "bike_id": "d479c1c08d3fbe3c5231f173d882ec63", "rental_uris": {"android": "https://dc.lft.to/lastmile_qr_scan", "ios": "https://dc.lft.to/lastmile_qr_scan"}, "name": "d479c1c08d3fbe3c5231f173d882ec63", "is_reserved": 0}, {"is_disabled": 0, "fusion_lon": 0.0, "fusion_lat": 0.0, "lat": 38.90741283333333, "type": "electric_scooter", "lon": -77.03453666666667, "bike_id": "3aae165d1c9d05e7f19f5764e97b00b5", "rental_uris": {"android": "https://dc.lft.to/lastmile_qr_scan", "ios": "https://dc.lft.to/lastmile_qr_scan"}, "name": "3aae165d1c9d05e7f19f5764e97b00b5", "is_reserved": 0}, {"is_disabled": 0, "fusion_lon": 0.0, "fusion_lat": 0.0, "lat": 38.951761833333336, "type": "electric_scooter", "lon": -77.05657483333333, "bike_id": "32422edd8fdd6717b279a58b76d59085", "rental_uris": {"android": "https://dc.lft.to/lastmile_qr_scan", "ios": "https://dc.lft.to/lastmile_qr_scan"}, "name": "32422edd8fdd6717b279a58b76d59085", "is_reserved": 0}, {"is_disabled": 0, "fusion_lon": 0.0, "fusion_lat": 0.0, "lat": 38.83193216666667, "type": "electric_bike", "lon": -77.07682466666667, "bike_id": "dacd9d0700f625914eae11736ea71dc0", "rental_uris": {"android": "https://dc.lft.to/lastmile_qr_scan", "ios": "https://dc.lft.to/lastmile_qr_scan"}, "name": "dacd9d0700f625914eae11736ea71dc0", "is_reserved": 0}, {"is_disabled": 0, "fusion_lon": 0.0, "fusion_lat": 0.0, "lat": 38.955473166666664, "type": "electric_bike", "lon": -76.9353175, "bike_id": "0f852813c33d158d954b4bf8ea0739f0", "rental_uris": {"android": "https://dc.lft.to/lastmile_qr_scan", "ios": "https://dc.lft.to/lastmile_qr_scan"}, "name": "0f852813c33d158d954b4bf8ea0739f0", "is_reserved": 0}, {"is_disabled": 0, "fusion_lon": 0.0, "fusion_lat": 0.0, "lat": 38.866052333333336, "type": "electric_scooter", "lon": -77.01078183333334, "bike_id": "723c9d41194baa2abd586011e6da87e6", "rental_uris": {"android": "https://dc.lft.to/lastmile_qr_scan", "ios": "https://dc.lft.to/lastmile_qr_scan"}, "name": "723c9d41194baa2abd586011e6da87e6", "is_reserved": 0}, {"is_disabled": 0, "fusion_lon": 0.0, "fusion_lat": 0.0, "lat": 38.93699866666667, "type": "electric_scooter", "lon": -77.05596083333333, "bike_id": "7126473372f5dbd5997cb57191ca6ec7", "rental_uris": {"android": "https://dc.lft.to/lastmile_qr_scan", "ios": "https://dc.lft.to/lastmile_qr_scan"}, "name": "7126473372f5dbd5997cb57191ca6ec7", "is_reserved": 0}, {"is_disabled": 0, "fusion_lon": 0.0, "fusion_lat": 0.0, "lat": 38.89731166666667, "type": "electric_scooter", "lon": -77.022763, "bike_id": "9c6b7c26665aaf80bb74da421cdb819b", "rental_uris": {"android": "https://dc.lft.to/lastmile_qr_scan", "ios": "https://dc.lft.to/lastmile_qr_scan"}, "name": "9c6b7c26665aaf80bb74da421cdb819b", "is_reserved": 0}, {"is_disabled": 0, "fusion_lon": 0.0, "fusion_lat": 0.0, "lat": 38.91696433333333, "type": "electric_scooter", "lon": -77.011717, "bike_id": "97e9a378fb77f23d585bdbf294a31758", "rental_uris": {"android": "https://dc.lft.to/lastmile_qr_scan", "ios": "https://dc.lft.to/lastmile_qr_scan"}, "name": "97e9a378fb77f23d585bdbf294a31758", "is_reserved": 0}, {"is_disabled": 0, "fusion_lon": 0.0, "fusion_lat": 0.0, "lat": 38.8705345, "type": "electric_scooter", "lon": -76.9808185, "bike_id": "10b4dd1b6e98d1fe4088b9e487050d6c", "rental_uris": {"android": "https://dc.lft.to/lastmile_qr_scan", "ios": "https://dc.lft.to/lastmile_qr_scan"}, "name": "10b4dd1b6e98d1fe4088b9e487050d6c", "is_reserved": 0}, {"is_disabled": 0, "fusion_lon": 0.0, "fusion_lat": 0.0, "lat": 38.886788833333334, "type": "electric_scooter", "lon": -76.988018, "bike_id": "f9e3c3dc6acb1b910e33d73a92854b72", "rental_uris": {"android": "https://dc.lft.to/lastmile_qr_scan", "ios": "https://dc.lft.to/lastmile_qr_scan"}, "name": "f9e3c3dc6acb1b910e33d73a92854b72", "is_reserved": 0}, {"is_disabled": 0, "fusion_lon": 0.0, "fusion_lat": 0.0, "lat": 38.8861605, "type": "electric_scooter", "lon": -77.00580116666667, "bike_id": "e6eebb692e35adc7a4329b76f45cc745", "rental_uris": {"android": "https://dc.lft.to/lastmile_qr_scan", "ios": "https://dc.lft.to/lastmile_qr_scan"}, "name": "e6eebb692e35adc7a4329b76f45cc745", "is_reserved": 0}, {"is_disabled": 0, "fusion_lon": 0.0, "fusion_lat": 0.0, "lat": 38.95638, "type": "electric_scooter", "lon": -77.09103816666666, "bike_id": "c392cd5073511205c1dd2f28cb3a12da", "rental_uris": {"android": "https://dc.lft.to/lastmile_qr_scan", "ios": "https://dc.lft.to/lastmile_qr_scan"}, "name": "c392cd5073511205c1dd2f28cb3a12da", "is_reserved": 0}, {"is_disabled": 0, "fusion_lon": 0.0, "fusion_lat": 0.0, "lat": 38.911829, "type": "electric_scooter", "lon": -77.041704, "bike_id": "89111032517c879c621dea54509015f7", "rental_uris": {"android": "https://dc.lft.to/lastmile_qr_scan", "ios": "https://dc.lft.to/lastmile_qr_scan"}, "name": "89111032517c879c621dea54509015f7", "is_reserved": 0}, {"is_disabled": 0, "fusion_lon": 0.0, "fusion_lat": 0.0, "lat": 38.856468, "type": "electric_bike", "lon": -77.0852495, "bike_id": "8ba1c3c27dfb678b7604a45a600b1c15", "rental_uris": {"android": "https://dc.lft.to/lastmile_qr_scan", "ios": "https://dc.lft.to/lastmile_qr_scan"}, "name": "8ba1c3c27dfb678b7604a45a600b1c15", "is_reserved": 0}, {"is_disabled": 0, "fusion_lon": 0.0, "fusion_lat": 0.0, "lat": 38.849327333333335, "type": "electric_bike", "lon": -77.10011033333333, "bike_id": "3101c2e8289f99cb22422206cdd0838b", "rental_uris": {"android": "https://dc.lft.to/lastmile_qr_scan", "ios": "https://dc.lft.to/lastmile_qr_scan"}, "name": "3101c2e8289f99cb22422206cdd0838b", "is_reserved": 0}, {"is_disabled": 0, "fusion_lon": 0.0, "fusion_lat": 0.0, "lat": 38.89481116666666, "type": "electric_scooter", "lon": -76.948743, "bike_id": "c3f14a5f9a426b416b6abeee2134c1f7", "rental_uris": {"android": "https://dc.lft.to/lastmile_qr_scan", "ios": "https://dc.lft.to/lastmile_qr_scan"}, "name": "c3f14a5f9a426b416b6abeee2134c1f7", "is_reserved": 0}, {"is_disabled": 0, "fusion_lon": 0.0, "fusion_lat": 0.0, "lat": 38.9054415, "type": "electric_scooter", "lon": -77.03255516666667, "bike_id": "9be8230d74b5c05903ad681ff3f80cc6", "rental_uris": {"android": "https://dc.lft.to/lastmile_qr_scan", "ios": "https://dc.lft.to/lastmile_qr_scan"}, "name": "9be8230d74b5c05903ad681ff3f80cc6", "is_reserved": 0}, {"is_disabled": 0, "fusion_lon": 0.0, "fusion_lat": 0.0, "lat": 38.90944266666666, "type": "electric_bike", "lon": -76.997466, "bike_id": "2a4bb5db05a235f617aa71eab6b7eea6", "rental_uris": {"android": "https://dc.lft.to/lastmile_qr_scan", "ios": "https://dc.lft.to/lastmile_qr_scan"}, "name": "2a4bb5db05a235f617aa71eab6b7eea6", "is_reserved": 0}, {"is_disabled": 0, "fusion_lon": 0.0, "fusion_lat": 0.0, "lat": 38.85063533333334, "type": "electric_bike", "lon": -76.97330383333333, "bike_id": "e2b673591662da6b9b203eebaa1b26e1", "rental_uris": {"android": "https://dc.lft.to/lastmile_qr_scan", "ios": "https://dc.lft.to/lastmile_qr_scan"}, "name": "e2b673591662da6b9b203eebaa1b26e1", "is_reserved": 0}, {"is_disabled": 0, "fusion_lon": 0.0, "fusion_lat": 0.0, "lat": 38.90357233333334, "type": "electric_scooter", "lon": -77.035009, "bike_id": "7bf22494ea55cc6974d1b5c926532ff1", "rental_uris": {"android": "https://dc.lft.to/lastmile_qr_scan", "ios": "https://dc.lft.to/lastmile_qr_scan"}, "name": "7bf22494ea55cc6974d1b5c926532ff1", "is_reserved": 0}, {"is_disabled": 0, "fusion_lon": 0.0, "fusion_lat": 0.0, "lat": 38.90947383333334, "type": "electric_scooter", "lon": -77.04659933333333, "bike_id": "fc2c8b11f65951988b7583ed731b9eb2", "rental_uris": {"android": "https://dc.lft.to/lastmile_qr_scan", "ios": "https://dc.lft.to/lastmile_qr_scan"}, "name": "fc2c8b11f65951988b7583ed731b9eb2", "is_reserved": 0}, {"is_disabled": 0, "fusion_lon": 0.0, "fusion_lat": 0.0, "lat": 38.92115966666667, "type": "electric_scooter", "lon": -77.03642266666667, "bike_id": "5cdf53ff9d973064e9323c1cb391b445", "rental_uris": {"android": "https://dc.lft.to/lastmile_qr_scan", "ios": "https://dc.lft.to/lastmile_qr_scan"}, "name": "5cdf53ff9d973064e9323c1cb391b445", "is_reserved": 0}, {"is_disabled": 0, "fusion_lon": 0.0, "fusion_lat": 0.0, "lat": 38.91396316666667, "type": "electric_scooter", "lon": -77.03849283333334, "bike_id": "dd6a3b2de7b7d790d4dadd5752d80d6a", "rental_uris": {"android": "https://dc.lft.to/lastmile_qr_scan", "ios": "https://dc.lft.to/lastmile_qr_scan"}, "name": "dd6a3b2de7b7d790d4dadd5752d80d6a", "is_reserved": 0}, {"is_disabled": 0, "fusion_lon": 0.0, "fusion_lat": 0.0, "lat": 38.95632166666667, "type": "electric_scooter", "lon": -77.02980366666667, "bike_id": "36874c818c4eb2e62fc94ab21e03dd46", "rental_uris": {"android": "https://dc.lft.to/lastmile_qr_scan", "ios": "https://dc.lft.to/lastmile_qr_scan"}, "name": "36874c818c4eb2e62fc94ab21e03dd46", "is_reserved": 0}, {"is_disabled": 0, "fusion_lon": 0.0, "fusion_lat": 0.0, "lat": 38.905841333333335, "type": "electric_scooter", "lon": -77.007175, "bike_id": "bbf9395921ff6d88a6b6ea7954a46704", "rental_uris": {"android": "https://dc.lft.to/lastmile_qr_scan", "ios": "https://dc.lft.to/lastmile_qr_scan"}, "name": "bbf9395921ff6d88a6b6ea7954a46704", "is_reserved": 0}, {"is_disabled": 0, "fusion_lon": 0.0, "fusion_lat": 0.0, "lat": 38.89601716666667, "type": "electric_scooter", "lon": -77.01116966666666, "bike_id": "73fba201ff1d76b130ab51014b859016", "rental_uris": {"android": "https://dc.lft.to/lastmile_qr_scan", "ios": "https://dc.lft.to/lastmile_qr_scan"}, "name": "73fba201ff1d76b130ab51014b859016", "is_reserved": 0}, {"is_disabled": 0, "fusion_lon": 0.0, "fusion_lat": 0.0, "lat": 38.95203133333333, "type": "electric_bike", "lon": -77.02368666666666, "bike_id": "fb90ba619ddfe16192e7132c76998120", "rental_uris": {"android": "https://dc.lft.to/lastmile_qr_scan", "ios": "https://dc.lft.to/lastmile_qr_scan"}, "name": "fb90ba619ddfe16192e7132c76998120", "is_reserved": 0}, {"is_disabled": 0, "fusion_lon": 0.0, "fusion_lat": 0.0, "lat": 38.90126383333333, "type": "electric_scooter", "lon": -77.01754366666667, "bike_id": "b8e60b7052018f16abac8a15905953d9", "rental_uris": {"android": "https://dc.lft.to/lastmile_qr_scan", "ios": "https://dc.lft.to/lastmile_qr_scan"}, "name": "b8e60b7052018f16abac8a15905953d9", "is_reserved": 0}, {"is_disabled": 0, "fusion_lon": 0.0, "fusion_lat": 0.0, "lat": 39.11506266666667, "type": "electric_bike", "lon": -77.19544883333333, "bike_id": "10b33aee2a922687f544fb8538db02fa", "rental_uris": {"android": "https://dc.lft.to/lastmile_qr_scan", "ios": "https://dc.lft.to/lastmile_qr_scan"}, "name": "10b33aee2a922687f544fb8538db02fa", "is_reserved": 0}, {"is_disabled": 0, "fusion_lon": 0.0, "fusion_lat": 0.0, "lat": 38.930463333333336, "type": "electric_scooter", "lon": -77.00417033333333, "bike_id": "82dc51297c606f0f1165b615359cac18", "rental_uris": {"android": "https://dc.lft.to/lastmile_qr_scan", "ios": "https://dc.lft.to/lastmile_qr_scan"}, "name": "82dc51297c606f0f1165b615359cac18", "is_reserved": 0}, {"is_disabled": 0, "fusion_lon": 0.0, "fusion_lat": 0.0, "lat": 38.85715066666667, "type": "electric_bike", "lon": -76.981165, "bike_id": "a346b50ae62b839d632da63bb9a8b240", "rental_uris": {"android": "https://dc.lft.to/lastmile_qr_scan", "ios": "https://dc.lft.to/lastmile_qr_scan"}, "name": "a346b50ae62b839d632da63bb9a8b240", "is_reserved": 0}, {"is_disabled": 0, "fusion_lon": 0.0, "fusion_lat": 0.0, "lat": 38.915554, "type": "electric_scooter", "lon": -77.03873733333333, "bike_id": "92d22d43893efd60f5a2b85681bd4e30", "rental_uris": {"android": "https://dc.lft.to/lastmile_qr_scan", "ios": "https://dc.lft.to/lastmile_qr_scan"}, "name": "92d22d43893efd60f5a2b85681bd4e30", "is_reserved": 0}, {"is_disabled": 0, "fusion_lon": 0.0, "fusion_lat": 0.0, "lat": 38.928666666666665, "type": "electric_scooter", "lon": -77.0342725, "bike_id": "fdbd98ef125d3179305e1914cd1523b3", "rental_uris": {"android": "https://dc.lft.to/lastmile_qr_scan", "ios": "https://dc.lft.to/lastmile_qr_scan"}, "name": "fdbd98ef125d3179305e1914cd1523b3", "is_reserved": 0}, {"is_disabled": 0, "fusion_lon": 0.0, "fusion_lat": 0.0, "lat": 38.8956555, "type": "electric_bike", "lon": -77.1273725, "bike_id": "97128af0c3adb1f7f17a3ea2eee9ff6b", "rental_uris": {"android": "https://dc.lft.to/lastmile_qr_scan", "ios": "https://dc.lft.to/lastmile_qr_scan"}, "name": "97128af0c3adb1f7f17a3ea2eee9ff6b", "is_reserved": 0}, {"is_disabled": 0, "fusion_lon": 0.0, "fusion_lat": 0.0, "lat": 38.91090833333333, "type": "electric_scooter", "lon": -77.02200633333334, "bike_id": "094080a1cf6dec84f90bfba6ec012929", "rental_uris": {"android": "https://dc.lft.to/lastmile_qr_scan", "ios": "https://dc.lft.to/lastmile_qr_scan"}, "name": "094080a1cf6dec84f90bfba6ec012929", "is_reserved": 0}, {"is_disabled": 0, "fusion_lon": 0.0, "fusion_lat": 0.0, "lat": 38.90795816666667, "type": "electric_scooter", "lon": -77.04989483333334, "bike_id": "8b1e084ef180429b32d8e1a42446bd24", "rental_uris": {"android": "https://dc.lft.to/lastmile_qr_scan", "ios": "https://dc.lft.to/lastmile_qr_scan"}, "name": "8b1e084ef180429b32d8e1a42446bd24", "is_reserved": 0}, {"is_disabled": 0, "fusion_lon": 0.0, "fusion_lat": 0.0, "lat": 38.9257525, "type": "electric_scooter", "lon": -76.99499983333334, "bike_id": "5fb8d25aef38f7d80403e68126631774", "rental_uris": {"android": "https://dc.lft.to/lastmile_qr_scan", "ios": "https://dc.lft.to/lastmile_qr_scan"}, "name": "5fb8d25aef38f7d80403e68126631774", "is_reserved": 0}, {"is_disabled": 0, "fusion_lon": 0.0, "fusion_lat": 0.0, "lat": 38.92313383333333, "type": "electric_scooter", "lon": -77.04207816666667, "bike_id": "31b08636d016af2d44487635c9bde172", "rental_uris": {"android": "https://dc.lft.to/lastmile_qr_scan", "ios": "https://dc.lft.to/lastmile_qr_scan"}, "name": "31b08636d016af2d44487635c9bde172", "is_reserved": 0}, {"is_disabled": 0, "fusion_lon": 0.0, "fusion_lat": 0.0, "lat": 38.896410833333334, "type": "electric_scooter", "lon": -77.01177016666666, "bike_id": "a020f0aee7ecb0987e5c7ed5b81a8193", "rental_uris": {"android": "https://dc.lft.to/lastmile_qr_scan", "ios": "https://dc.lft.to/lastmile_qr_scan"}, "name": "a020f0aee7ecb0987e5c7ed5b81a8193", "is_reserved": 0}, {"is_disabled": 0, "fusion_lon": 0.0, "fusion_lat": 0.0, "lat": 38.920033833333335, "type": "electric_scooter", "lon": -77.02520916666667, "bike_id": "7fbe9eefd65c3d697028db345c192621", "rental_uris": {"android": "https://dc.lft.to/lastmile_qr_scan", "ios": "https://dc.lft.to/lastmile_qr_scan"}, "name": "7fbe9eefd65c3d697028db345c192621", "is_reserved": 0}, {"is_disabled": 0, "fusion_lon": 0.0, "fusion_lat": 0.0, "lat": 38.90560633333333, "type": "electric_scooter", "lon": -77.03642616666667, "bike_id": "67c05178723e9f5cd570b3e052015e66", "rental_uris": {"android": "https://dc.lft.to/lastmile_qr_scan", "ios": "https://dc.lft.to/lastmile_qr_scan"}, "name": "67c05178723e9f5cd570b3e052015e66", "is_reserved": 0}, {"is_disabled": 0, "fusion_lon": 0.0, "fusion_lat": 0.0, "lat": 38.89224183333333, "type": "electric_scooter", "lon": -77.02592066666666, "bike_id": "64553544b5309ee4c28d413469af16df", "rental_uris": {"android": "https://dc.lft.to/lastmile_qr_scan", "ios": "https://dc.lft.to/lastmile_qr_scan"}, "name": "64553544b5309ee4c28d413469af16df", "is_reserved": 0},