{"data": {"bikes": [{"rental_uris": {"ios": "https://dc.lft.to/lastmile_qr_scan", "android": "https://dc.lft.to/lastmile_qr_scan"}, "type": "electric_scooter", "name": "88efed8fd7a77b278a8811c1431b6156", "is_reserved": 0, "lon": -77.01957666666667, "is_disabled": 0, "fusion_lat": 0.0, "lat": 38.8928505, "bike_id": "88efed8fd7a77b278a8811c1431b6156", "fusion_lon": 0.0}, {"rental_uris": {"ios": "https://dc.lft.to/lastmile_qr_scan", "android": "https://dc.lft.to/lastmile_qr_scan"}, "type": "electric_scooter", "name": "ecbe1e3b30b6f6198fd0d435ee50076e", "is_reserved": 0, "lon": -77.02407416666667, "is_disabled": 0, "fusion_lat": 0.0, "lat": 38.94510183333333, "bike_id": "ecbe1e3b30b6f6198fd0d435ee50076e", "fusion_lon": 0.0}, {"rental_uris": {"ios": "https://dc.lft.to/lastmile_qr_scan", "android": "https://dc.lft.to/lastmile_qr_scan"}, "type": "electric_bike", "name": "bf1905ff0a24042d0568f8ac972636e6", "is_reserved": 0, "lon": -76.9805855, "is_disabled": 0, "fusion_lat": 0.0, "lat": 38.97252833333334, "bike_id": "bf1905ff0a24042d0568f8ac972636e6", "fusion_lon": 0.0}, {"rental_uris": {"ios": "https://dc.lft.to/lastmile_qr_scan", "android": "https://dc.lft.to/lastmile_qr_scan"}, "type": "electric_scooter", "name": "aeec4700cad2a76ca899653437cabdd1", "is_reserved": 0, "lon": -77.039838, "is_disabled": 0, "fusion_lat": 0.0, "lat": 38.901492166666664, "bike_id": "aeec4700cad2a76ca899653437cabdd1", "fusion_lon": 0.0}, {"rental_uris": {"ios": "https://dc.lft.to/lastmile_qr_scan", "android": "https://dc.lft.to/lastmile_qr_scan"}, "type": "electric_scooter", "name": "118839908ea129af1c0ace075d7c5f7d", "is_reserved": 0, "lon": -77.04357016666667, "is_disabled": 0, "fusion_lat": 0.0, "lat": 38.91570433333333, "bike_id": "118839908ea129af1c0ace075d7c5f7d", "fusion_lon": 0.0}, {"rental_uris": {"ios": "https://dc.lft.to/lastmile_qr_scan", "android": "https://dc.lft.to/lastmile_qr_scan"}, "type": "electric_bike", "name": "5be02ab4f0e0321cb3eedad89d420a4b", "is_reserved": 0, "lon": -77.0039325, "is_disabled": 0, "fusion_lat": 0.0, "lat": 38.92107416666666, "bike_id": "5be02ab4f0e0321cb3eedad89d420a4b", "fusion_lon": 0.0}, {"rental_uris": {"ios": "https://dc.lft.to/lastmile_qr_scan", "android": "https://dc.lft.to/lastmile_qr_scan"}, "type": "electric_scooter", "name": "b965a6bcd7cf209e56866aae758ac302", "is_reserved": 0, "lon": -77.04412166666667, "is_disabled": 0, "fusion_lat": 0.0, "lat": 38.911353, "bike_id": "b965a6bcd7cf209e56866aae758ac302", "fusion_lon": 0.0}, {"rental_uris": {"ios": "https://dc.lft.to/lastmile_qr_scan", "android": "https://dc.lft.to/lastmile_qr_scan"}, "type": "electric_scooter", "name": "c29558d6340d4db4f672169d17107d0b", "is_reserved": 0, "lon": -77.012103, "is_disabled": 0, "fusion_lat": 0.0, "lat": 38.9212225, "bike_id": "c29558d6340d4db4f672169d17107d0b", "fusion_lon": 0.0}, {"rental_uris": {"ios": "https://dc.lft.to/lastmile_qr_scan", "android": "https://dc.lft.to/lastmile_qr_scan"}, "type": "electric_scooter", "name": "d4e7f4db567fdc473057bb74823f48a2", "is_reserved": 0, "lon": -77.0404225, "is_disabled": 0, "fusion_lat": 0.0, "lat": 38.90377466666666, "bike_id": "d4e7f4db567fdc473057bb74823f48a2", "fusion_lon": 0.0}, {"rental_uris": {"ios": "https://dc.lft.to/lastmile_qr_scan", "android": "https://dc.lft.to/lastmile_qr_scan"}, "type": "electric_scooter", "name": "1eb7a6990d28eeef53b3b321c5a1022f", "is_reserved": 0, "lon": -77.009267, "is_disabled": 0, "fusion_lat": 0.0, "lat": 38.88189066666666, "bike_id": "1eb7a6990d28eeef53b3b321c5a1022f", "fusion_lon": 0.0}, {"rental_uris": {"ios": "https://dc.lft.to/lastmile_qr_scan", "android": "https://dc.lft.to/lastmile_qr_scan"}, "type": "electric_scooter", "name": "8cd914ea7989e01d4b7ff2fb497f9aae", "is_reserved": 0, "lon": -77.03264333333334, "is_disabled": 0, "fusion_lat": 0.0, "lat": 38.919930666666666, "bike_id": "8cd914ea7989e01d4b7ff2fb497f9aae", "fusion_lon": 0.0}, {"rental_uris": {"ios": "https://dc.lft.to/lastmile_qr_scan", "android": "https://dc.lft.to/lastmile_qr_scan"}, "type": "electric_scooter", "name": "8193e88a1b7933f4e97da644e06e0fc6", "is_reserved": 0, "lon": -77.02091016666667, "is_disabled": 0, "fusion_lat": 0.0, "lat": 38.88188366666667, "bike_id": "8193e88a1b7933f4e97da644e06e0fc6", "fusion_lon": 0.0}, {"rental_uris": {"ios": "https://dc.lft.to/lastmile_qr_scan", "android": "https://dc.lft.to/lastmile_qr_scan"}, "type": "electric_scooter", "name": "6283c6d3ababed1f39cbdfae71bfe0e8", "is_reserved": 0, "lon": -77.01928733333334, "is_disabled": 0, "fusion_lat": 0.0, "lat": 38.928811333333336, "bike_id": "6283c6d3ababed1f39cbdfae71bfe0e8", "fusion_lon": 0.0}, {"rental_uris": {"ios": "https://dc.lft.to/lastmile_qr_scan", "android": "https://dc.lft.to/lastmile_qr_scan"}, "type": "electric_scooter", "name": "980d31072f1a1bc045ae47595a4263a3", "is_reserved": 0, "lon": -77.01951066666666, "is_disabled": 0, "fusion_lat": 0.0, "lat": 38.924186166666665, "bike_id": "980d31072f1a1bc045ae47595a4263a3", "fusion_lon": 0.0}, {"rental_uris": {"ios": "https://dc.lft.to/lastmile_qr_scan", "android": "https://dc.lft.to/lastmile_qr_scan"}, "type": "electric_scooter", "name": "1742b1625152e75ac9216fb85c3cc5b6", "is_reserved": 0, "lon": -77.04652183333333, "is_disabled": 0, "fusion_lat": 0.0, "lat": 38.9197065, "bike_id": "1742b1625152e75ac9216fb85c3cc5b6", "fusion_lon": 0.0}, {"rental_uris": {"ios": "https://dc.lft.to/lastmile_qr_scan", "android": "https://dc.lft.to/lastmile_qr_scan"}, "type": "electric_scooter", "name": "b8a894f77d761b552f5ff9915d68f189", "is_reserved": 0, "lon": -77.01826433333333, "is_disabled": 0, "fusion_lat": 0.0, "lat": 38.904795, "bike_id": "b8a894f77d761b552f5ff9915d68f189", "fusion_lon": 0.0}, {"rental_uris": {"ios": "https://dc.lft.to/lastmile_qr_scan", "android": "https://dc.lft.to/lastmile_qr_scan"}, "type": "electric_scooter", "name": "1921466ffeb8e25290c15c6235dfb888", "is_reserved": 0, "lon": -76.994227, "is_disabled": 0, "fusion_lat": 0.0, "lat": 38.9168765, "bike_id": "1921466ffeb8e25290c15c6235dfb888", "fusion_lon": 0.0}, {"rental_uris": {"ios": "https://dc.lft.to/lastmile_qr_scan", "android": "https://dc.lft.to/lastmile_qr_scan"}, "type": "electric_scooter", "name": "790276f09dc205f3f80653701824e345", "is_reserved": 0, "lon": -77.04732733333333, "is_disabled": 0, "fusion_lat": 0.0, "lat": 38.89555466666667, "bike_id": "790276f09dc205f3f80653701824e345", "fusion_lon": 0.0}, {"rental_uris": {"ios": "https://dc.lft.to/lastmile_qr_scan", "android": "https://dc.lft.to/lastmile_qr_scan"}, "type": "electric_scooter", "name": "4ddf9189f0d994383f2a345d4e4a0d4c", "is_reserved": 0, "lon": -77.03824333333333, "is_disabled": 0, "fusion_lat": 0.0, "lat": 38.962619, "bike_id": "4ddf9189f0d994383f2a345d4e4a0d4c", "fusion_lon": 0.0}, {"rental_uris": {"ios": "https://dc.lft.to/lastmile_qr_scan", "android": "https://dc.lft.to/lastmile_qr_scan"}, "type": "electric_scooter", "name": "7ade40569e6755e1af3ea4781f08669f", "is_reserved": 0, "lon": -77.031752, "is_disabled": 0, "fusion_lat": 0.0, "lat": 38.91552033333333, "bike_id": "7ade40569e6755e1af3ea4781f08669f", "fusion_lon": 0.0}, {"rental_uris": {"ios": "https://dc.lft.to/lastmile_qr_scan", "android": "https://dc.lft.to/lastmile_qr_scan"}, "type": "electric_scooter", "name": "21c60cabae7ab44088d6c2bb81772e86", "is_reserved": 0, "lon": -77.024877, "is_disabled": 0, "fusion_lat": 0.0, "lat": 38.918171, "bike_id": "21c60cabae7ab44088d6c2bb81772e86", "fusion_lon": 0.0}, {"rental_uris": {"ios": "https://dc.lft.to/lastmile_qr_scan", "android": "https://dc.lft.to/lastmile_qr_scan"}, "type": "electric_scooter", "name": "acf5179ba09ec27fbb2939f0507d6592", "is_reserved": 0, "lon": -77.00068916666666, "is_disabled": 0, "fusion_lat": 0.0, "lat": 38.90685383333334, "bike_id": "acf5179ba09ec27fbb2939f0507d6592", "fusion_lon": 0.0}, {"rental_uris": {"ios": "https://dc.lft.to/lastmile_qr_scan", "android": "https://dc.lft.to/lastmile_qr_scan"}, "type": "electric_scooter", "name": "938ffb9fa6b825c3281d821f4bed35f9", "is_reserved": 0, "lon": -77.01312416666667, "is_disabled": 0, "fusion_lat": 0.0, "lat": 38.920224833333336, "bike_id": "938ffb9fa6b825c3281d821f4bed35f9", "fusion_lon": 0.0}, {"rental_uris": {"ios": "https://dc.lft.to/lastmile_qr_scan", "android": "https://dc.lft.to/lastmile_qr_scan"}, "type": "electric_scooter", "name": "2c9efb2676212f44ff6061269eeac70a", "is_reserved": 0, "lon": -76.99942633333333, "is_disabled": 0, "fusion_lat": 0.0, "lat": 38.90055616666667, "bike_id": "2c9efb2676212f44ff6061269eeac70a", "fusion_lon": 0.0}, {"rental_uris": {"ios": "https://dc.lft.to/lastmile_qr_scan", "android": "https://dc.lft.to/lastmile_qr_scan"}, "type": "electric_bike", "name": "386757290e7ebde0b5262163964ec92d", "is_reserved": 0, "lon": -76.945322, "is_disabled": 0, "fusion_lat": 0.0, "lat": 38.867482333333335, "bike_id": "386757290e7ebde0b5262163964ec92d", "fusion_lon": 0.0}, {"rental_uris": {"ios": "https://dc.lft.to/lastmile_qr_scan", "android": "https://dc.lft.to/lastmile_qr_scan"}, "type": "electric_scooter", "name": "7f56954984e18c76433ef86a90950251", "is_reserved": 0, "lon": -76.99555133333334, "is_disabled": 0, "fusion_lat": 0.0, "lat": 38.8623195, "bike_id": "7f56954984e18c76433ef86a90950251", "fusion_lon": 0.0}, {"rental_uris": {"ios": "https://dc.lft.to/lastmile_qr_scan", "android": "https://dc.lft.to/lastmile_qr_scan"}, "type": "electric_scooter", "name": "ca6bcc04f74b6ff0d6641be871e74844", "is_reserved": 0, "lon": -76.99922083333334, "is_disabled": 0, "fusion_lat": 0.0, "lat": 38.900765666666665, "bike_id": "ca6bcc04f74b6ff0d6641be871e74844", "fusion_lon": 0.0}, {"rental_uris": {"ios": "https://dc.lft.to/lastmile_qr_scan", "android": "https://dc.lft.to/lastmile_qr_scan"}, "type": "electric_bike", "name": "d1e323df4b3f8377edf71bf6dd368d9e", "is_reserved": 0, "lon": -76.94154066666667, "is_disabled": 0, "fusion_lat": 0.0, "lat": 38.89034233333334, "bike_id": "d1e323df4b3f8377edf71bf6dd368d9e", "fusion_lon": 0.0}, {"rental_uris": {"ios": "https://dc.lft.to/lastmile_qr_scan", "android": "https://dc.lft.to/lastmile_qr_scan"}, "type": "electric_bike", "name": "dcf03a4dedc999762fab6b4e816f94a3", "is_reserved": 0, "lon": -77.12940183333333, "is_disabled": 0, "fusion_lat": 0.0, "lat": 38.86593383333334, "bike_id": "dcf03a4dedc999762fab6b4e816f94a3", "fusion_lon": 0.0}, {"rental_uris": {"ios": "https://dc.lft.to/lastmile_qr_scan", "android": "https://dc.lft.to/lastmile_qr_scan"}, "type": "electric_scooter", "name": "8d008300040cbef88ee77388d046a3f3", "is_reserved": 0, "lon": -76.98732683333333, "is_disabled": 0, "fusion_lat": 0.0, "lat": 38.8782535, "bike_id": "8d008300040cbef88ee77388d046a3f3", "fusion_lon": 0.0}, {"rental_uris": {"ios": "https://dc.lft.to/lastmile_qr_scan", "android": "https://dc.lft.to/lastmile_qr_scan"}, "type": "electric_scooter", "name": "90b68d4c251be002684d541ae7662a47", "is_reserved": 0, "lon": -77.00045833333333, "is_disabled": 0, "fusion_lat": 0.0, "lat": 38.87458516666667, "bike_id": "90b68d4c251be002684d541ae7662a47", "fusion_lon": 0.0}, {"rental_uris": {"ios": "https://dc.lft.to/lastmile_qr_scan", "android": "https://dc.lft.to/lastmile_qr_scan"}, "type": "electric_scooter", "name": "d6bb3d58aa53ce28adb609a982bd8cb5", "is_reserved": 0, "lon": -77.02480133333333, "is_disabled": 0, "fusion_lat": 0.0, "lat": 38.931017, "bike_id": "d6bb3d58aa53ce28adb609a982bd8cb5", "fusion_lon": 0.0}, {"rental_uris": {"ios": "https://dc.lft.to/lastmile_qr_scan", "android": "https://dc.lft.to/lastmile_qr_scan"}, "type": "electric_scooter", "name": "d72486af1404a47c9729960bfb5165e5", "is_reserved": 0, "lon": -77.04566533333333, "is_disabled": 0, "fusion_lat": 0.0, "lat": 38.909244, "bike_id": "d72486af1404a47c9729960bfb5165e5", "fusion_lon": 0.0}, {"rental_uris": {"ios": "https://dc.lft.to/lastmile_qr_scan", "android": "https://dc.lft.to/lastmile_qr_scan"}, "type": "electric_scooter", "name": "a313c93a9163699c65928a0b0c68d497", "is_reserved": 0, "lon": -77.03829333333333, "is_disabled": 0, "fusion_lat": 0.0, "lat": 38.962688, "bike_id": "a313c93a9163699c65928a0b0c68d497", "fusion_lon": 0.0}, {"rental_uris": {"ios": "https://dc.lft.to/lastmile_qr_scan", "android": "https://dc.lft.to/lastmile_qr_scan"}, "type": "electric_scooter", "name": "5c0558164ab453a06f590a5a2d351eeb", "is_reserved": 0, "lon": -77.039543, "is_disabled": 0, "fusion_lat": 0.0, "lat": 38.90099133333333, "bike_id": "5c0558164ab453a06f590a5a2d351eeb", "fusion_lon": 0.0}, {"rental_uris": {"ios": "https://dc.lft.to/lastmile_qr_scan", "android": "https://dc.lft.to/lastmile_qr_scan"}, "type": "electric_scooter", "name": "9f827245815a6a84aefc60cca7e4968d", "is_reserved": 0, "lon": -77.0500115, "is_disabled": 0, "fusion_lat": 0.0, "lat": 38.89236983333333, "bike_id": "9f827245815a6a84aefc60cca7e4968d", "fusion_lon": 0.0}, {"rental_uris": {"ios": "https://dc.lft.to/lastmile_qr_scan", "android": "https://dc.lft.to/lastmile_qr_scan"}, "type": "electric_scooter", "name": "4a8e7549ef9354860749d7a03a9ec319", "is_reserved": 0, "lon": -77.07013316666666, "is_disabled": 0, "fusion_lat": 0.0, "lat": 38.89376383333333, "bike_id": "4a8e7549ef9354860749d7a03a9ec319", "fusion_lon": 0.0}, {"rental_uris": {"ios": "https://dc.lft.to/lastmile_qr_scan", "android": "https://dc.lft.to/lastmile_qr_scan"}, "type": "electric_scooter", "name": "a413a9e92e3f9381fb468e7549b1f618", "is_reserved": 0, "lon": -76.988862, "is_disabled": 0, "fusion_lat": 0.0, "lat": 38.899596333333335, "bike_id": "a413a9e92e3f9381fb468e7549b1f618", "fusion_lon": 0.0}, {"rental_uris": {"ios": "https://dc.lft.to/lastmile_qr_scan", "android": "https://dc.lft.to/lastmile_qr_scan"}, "type": "electric_scooter", "name": "ed22efed7be0f9568a5aa165a88f9da4", "is_reserved": 0, "lon": -77.041557, "is_disabled": 0, "fusion_lat": 0.0, "lat": 38.90110933333333, "bike_id": "ed22efed7be0f9568a5aa165a88f9da4", "fusion_lon": 0.0}, {"rental_uris": {"ios": "https://dc.lft.to/lastmile_qr_scan", "android": "https://dc.lft.to/lastmile_qr_scan"}, "type": "electric_scooter", "name": "7b900716811c976a0850d145554f525e", "is_reserved": 0, "lon": -77.03185666666667, "is_disabled": 0, "fusion_lat": 0.0, "lat": 38.924872666666666, "bike_id": "7b900716811c976a0850d145554f525e", "fusion_lon": 0.0}, {"rental_uris": {"ios": "https://dc.lft.to/lastmile_qr_scan", "android": "https://dc.lft.to/lastmile_qr_scan"}, "type": "electric_scooter", "name": "428f047f9349cafa02a4d4195bb41d08", "is_reserved": 0, "lon": -76.99098166666667, "is_disabled": 0, "fusion_lat": 0.0, "lat": 38.857235, "bike_id": "428f047f9349cafa02a4d4195bb41d08", "fusion_lon": 0.0}, {"rental_uris": {"ios": "https://dc.lft.to/lastmile_qr_scan", "android": "https://dc.lft.to/lastmile_qr_scan"}, "type": "electric_scooter", "name": "4b48742b7a20d005e6cd36c9c44553e3", "is_reserved": 0, "lon": -77.04433616666667, "is_disabled": 0, "fusion_lat": 0.0, "lat": 38.91083533333333, "bike_id": "4b48742b7a20d005e6cd36c9c44553e3", "fusion_lon": 0.0}, {"rental_uris": {"ios": "https://dc.lft.to/lastmile_qr_scan", "android": "https://dc.lft.to/lastmile_qr_scan"}, "type": "electric_scooter", "name": "966af09d05dc19e851c1adf87d7e721a", "is_reserved": 0, "lon": -77.02207083333333, "is_disabled": 0, "fusion_lat": 0.0, "lat": 38.89230216666667, "bike_id": "966af09d05dc19e851c1adf87d7e721a", "fusion_lon": 0.0}, {"rental_uris": {"ios": "https://dc.lft.to/lastmile_qr_scan", "android": "https://dc.lft.to/lastmile_qr_scan"}, "type": "electric_scooter", "name": "c93b4f5a787555b9618cdc2f86bd81a3", "is_reserved": 0, "lon": -77.053227, "is_disabled": 0, "fusion_lat": 0.0, "lat": 38.902619333333334, "bike_id": "c93b4f5a787555b9618cdc2f86bd81a3", "fusion_lon": 0.0}, {"rental_uris": {"ios": "https://dc.lft.to/lastmile_qr_scan", "android": "https://dc.lft.to/lastmile_qr_scan"}, "type": "electric_scooter", "name": "441ac179c10ff4560ebd7b6c76fea71a", "is_reserved": 0, "lon": -77.03116633333333, "is_disabled": 0, "fusion_lat": 0.0, "lat": 38.918692, "bike_id": "441ac179c10ff4560ebd7b6c76fea71a", "fusion_lon": 0.0}, {"rental_uris": {"ios": "https://dc.lft.to/lastmile_qr_scan", "android": "https://dc.lft.to/lastmile_qr_scan"}, "type": "electric_scooter", "name": "5229a5d0e81cddf26c70a4fa0f4b9e32", "is_reserved": 0, "lon": -77.03478316666667, "is_disabled": 0, "fusion_lat": 0.0, "lat": 38.90710116666666, "bike_id": "5229a5d0e81cddf26c70a4fa0f4b9e32", "fusion_lon": 0.0}, {"rental_uris": {"ios": "https://dc.lft.to/lastmile_qr_scan", "android": "https://dc.lft.to/lastmile_qr_scan"}, "type": "electric_scooter", "name": "dcd2f1ce28f2294a15287c979868547c", "is_reserved": 0, "lon": -77.03838466666667, "is_disabled": 0, "fusion_lat": 0.0, "lat": 38.91233116666667, "bike_id": "dcd2f1ce28f2294a15287c979868547c", "fusion_lon": 0.0}, {"rental_uris": {"ios": "https://dc.lft.to/lastmile_qr_scan", "android": "https://dc.lft.to/lastmile_qr_scan"}, "type": "electric_scooter", "name": "424c38f41eb0c4a6263d7fb386c0bb1b", "is_reserved": 0, "lon": -76.9963375, "is_disabled": 0, "fusion_lat": 0.0, "lat": 38.87736116666667, "bike_id": "424c38f41eb0c4a6263d7fb386c0bb1b", "fusion_lon": 0.0}, {"rental_uris": {"ios": "https://dc.lft.to/lastmile_qr_scan", "android": "https://dc.lft.to/lastmile_qr_scan"}, "type": "electric_scooter", "name": "972fb4ee611e26fd8e1d72b2b3e0cd9b", "is_reserved": 0, "lon": -77.00047566666667, "is_disabled": 0, "fusion_lat": 0.0, "lat": 38.874983666666665, "bike_id": "972fb4ee611e26fd8e1d72b2b3e0cd9b", "fusion_lon": 0.0}, {"rental_uris": {"ios": "https://dc.lft.to/lastmile_qr_scan", "android": "https://dc.lft.to/lastmile_qr_scan"}, "type": "electric_scooter", "name": "9e9877c410ab6eea5aedf541ce3ffd0e", "is_reserved": 0, "lon": -77.03802566666667, "is_disabled": 0, "fusion_lat": 0.0, "lat": 38.910283666666665, "bike_id": "9e9877c410ab6eea5aedf541ce3ffd0e", "fusion_lon": 0.0}, {"rental_uris": {"ios": "https://dc.lft.to/lastmile_qr_scan", "android": "https://dc.lft.to/lastmile_qr_scan"}, "type": "electric_bike", "name": "055ec9b5729b752053dfcb94d5e80b48", "is_reserved": 0, "lon": -76.93327283333333, "is_disabled": 0, "fusion_lat": 0.0, "lat": 38.9515125, "bike_id": "055ec9b5729b752053dfcb94d5e80b48", "fusion_lon": 0.0}, {"rental_uris": {"ios": "https://dc.lft.to/lastmile_qr_scan", "android": "https://dc.lft.to/lastmile_qr_scan"}, "type": "electric_scooter", "name": "78f48fb5b4600bcb3b01d896ba1cef7b", "is_reserved": 0, "lon": -77.039079, "is_disabled": 0, "fusion_lat": 0.0, "lat": 38.903733, "bike_id": "78f48fb5b4600bcb3b01d896ba1cef7b", "fusion_lon": 0.0}, {"rental_uris": {"ios": "https://dc.lft.to/lastmile_qr_scan", "android": "https://dc.lft.to/lastmile_qr_scan"}, "type": "electric_bike", "name": "2d5dde3ea2b8dfbe1b53e3ebb4347b32", "is_reserved": 0, "lon": -77.0053915, "is_disabled": 0, "fusion_lat": 0.0, "lat": 38.896850666666666, "bike_id": "2d5dde3ea2b8dfbe1b53e3ebb4347b32", "fusion_lon": 0.0}, {"rental_uris": {"ios": "https://dc.lft.to/lastmile_qr_scan", "android": "https://dc.lft.to/lastmile_qr_scan"}, "type": "electric_scooter", "name": "db934cd53e2a88bb978b32f0abfa0093", "is_reserved": 0, "lon": -77.053226, "is_disabled": 0, "fusion_lat": 0.0, "lat": 38.90636683333334, "bike_id": "db934cd53e2a88bb978b32f0abfa0093", "fusion_lon": 0.0}, {"rental_uris": {"ios": "https://dc.lft.to/lastmile_qr_scan", "android": "https://dc.lft.to/lastmile_qr_scan"}, "type": "electric_scooter", "name": "dc923ad38423b15dd81c3cf64acd4688", "is_reserved": 0, "lon": -77.03287583333334, "is_disabled": 0, "fusion_lat": 0.0, "lat": 38.90379633333333, "bike_id": "dc923ad38423b15dd81c3cf64acd4688", "fusion_lon": 0.0}, {"rental_uris": {"ios": "https://dc.lft.to/lastmile_qr_scan", "android": "https://dc.lft.to/lastmile_qr_scan"}, "type": "electric_scooter", "name": "5edbe555f06009d8703e4fcd0c96001f", "is_reserved": 0, "lon": -77.04149166666667, "is_disabled": 0, "fusion_lat": 0.0, "lat": 38.907562666666664, "bike_id": "5edbe555f06009d8703e4fcd0c96001f", "fusion_lon": 0.0}, {"rental_uris": {"ios": "https://dc.lft.to/lastmile_qr_scan", "android": "https://dc.lft.to/lastmile_qr_scan"}, "type": "electric_scooter", "name": "face816925664b31a09f3ab99c8c5aea", "is_reserved": 0, "lon": -77.02335383333333, "is_disabled": 0, "fusion_lat": 0.0, "lat": 38.9222905, "bike_id": "face816925664b31a09f3ab99c8c5aea", "fusion_lon": 0.0}, {"rental_uris": {"ios": "https://dc.lft.to/lastmile_qr_scan", "android": "https://dc.lft.to/lastmile_qr_scan"}, "type": "electric_scooter", "name": "c2aabaf27e7605122437cdd82b5d1ff3", "is_reserved": 0, "lon": -77.03837883333334, "is_disabled": 0, "fusion_lat": 0.0, "lat": 38.910957333333336, "bike_id": "c2aabaf27e7605122437cdd82b5d1ff3", "fusion_lon": 0.0}, {"rental_uris": {"ios": "https://dc.lft.to/lastmile_qr_scan", "android": "https://dc.lft.to/lastmile_qr_scan"}, "type": "electric_scooter", "name": "d7270bdd439d5ee497e7287cd24c30cd", "is_reserved": 0, "lon": -77.0280245, "is_disabled": 0, "fusion_lat": 0.0, "lat": 38.907303666666664, "bike_id": "d7270bdd439d5ee497e7287cd24c30cd", "fusion_lon": 0.0}, {"rental_uris": {"ios": "https://dc.lft.to/lastmile_qr_scan", "android": "https://dc.lft.to/lastmile_qr_scan"}, "type": "electric_scooter", "name": "5f629d0d7642935c09a1edacaf9b4c13", "is_reserved": 0, "lon": -77.03155016666666, "is_disabled": 0, "fusion_lat": 0.0, "lat": 38.9189715, "bike_id": "5f629d0d7642935c09a1edacaf9b4c13", "fusion_lon": 0.0}, {"rental_uris": {"ios": "https://dc.lft.to/lastmile_qr_scan", "android": "https://dc.lft.to/lastmile_qr_scan"}, "type": "electric_scooter", "name": "ec02c3038f89290856340b9238f2a495", "is_reserved": 0, "lon": -77.00540233333334, "is_disabled": 0, "fusion_lat": 0.0, "lat": 38.9002715, "bike_id": "ec02c3038f89290856340b9238f2a495", "fusion_lon": 0.0}, {"rental_uris": {"ios": "https://dc.lft.to/lastmile_qr_scan", "android": "https://dc.lft.to/lastmile_qr_scan"}, "type": "electric_scooter", "name": "273816e42adfd451747b4ebd45308d19", "is_reserved": 0, "lon": -77.04050916666667, "is_disabled": 0, "fusion_lat": 0.0, "lat": 38.903896, "bike_id": "273816e42adfd451747b4ebd45308d19", "fusion_lon": 0.0}, {"rental_uris": {"ios": "https://dc.lft.to/lastmile_qr_scan", "android": "https://dc.lft.to/lastmile_qr_scan"}, "type": "electric_scooter", "name": "f4d84549095967e5f369155fbe36235f", "is_reserved": 0, "lon": -77.02800483333333, "is_disabled": 0, "fusion_lat": 0.0, "lat": 38.90732783333333, "bike_id": "f4d84549095967e5f369155fbe36235f", "fusion_lon": 0.0}, {"rental_uris": {"ios": "https://dc.lft.to/lastmile_qr_scan", "android": "https://dc.lft.to/lastmile_qr_scan"}, "type": "electric_scooter", "name": "4b32db95d6b00abac098c4de7a7bdbff", "is_reserved": 0, "lon": -77.02531783333333, "is_disabled": 0, "fusion_lat": 0.0, "lat": 38.94529933333333, "bike_id": "4b32db95d6b00abac098c4de7a7bdbff", "fusion_lon": 0.0}, {"rental_uris": {"ios": "https://dc.lft.to/lastmile_qr_scan", "android": "https://dc.lft.to/lastmile_qr_scan"}, "type": "electric_scooter", "name": "b7cb314b642fcadb3a618096fe4c2167", "is_reserved": 0, "lon": -77.00651716666667, "is_disabled": 0, "fusion_lat": 0.0, "lat": 38.90093366666667, "bike_id": "b7cb314b642fcadb3a618096fe4c2167", "fusion_lon": 0.0}, {"rental_uris": {"ios": "https://dc.lft.to/lastmile_qr_scan", "android": "https://dc.lft.to/lastmile_qr_scan"}, "type": "electric_scooter", "name": "5eff579cbae9bb988cb10d9f30882a56", "is_reserved": 0, "lon": -77.02956716666667, "is_disabled": 0, "fusion_lat": 0.0, "lat": 38.91677216666667, "bike_id": "5eff579cbae9bb988cb10d9f30882a56", "fusion_lon": 0.0}, {"rental_uris": {"ios": "https://dc.lft.to/lastmile_qr_scan", "android": "https://dc.lft.to/lastmile_qr_scan"}, "type": "electric_scooter", "name": "7bc160a811558e35e34ec199df67b4ec", "is_reserved": 0, "lon": -77.04576883333333, "is_disabled": 0, "fusion_lat": 0.0, "lat": 38.91343533333333, "bike_id": "7bc160a811558e35e34ec199df67b4ec", "fusion_lon": 0.0}, {"rental_uris": {"ios": "https://dc.lft.to/lastmile_qr_scan", "android": "https://dc.lft.to/lastmile_qr_scan"}, "type": "electric_scooter", "name": "a0fbb8100a0d4e7ea27ce33aa6d6ef17", "is_reserved": 0, "lon": -77.04625116666666, "is_disabled": 0, "fusion_lat": 0.0, "lat": 38.897344833333335, "bike_id": "a0fbb8100a0d4e7ea27ce33aa6d6ef17", "fusion_lon": 0.0}, {"rental_uris": {"ios": "https://dc.lft.to/lastmile_qr_scan", "android": "https://dc.lft.to/lastmile_qr_scan"}, "type": "electric_scooter", "name": "a71d56b594b13d42515e6b17f01d3c55", "is_reserved": 0, "lon": -77.03438666666666, "is_disabled": 0, "fusion_lat": 0.0, "lat": 38.90984133333333, "bike_id": "a71d56b594b13d42515e6b17f01d3c55", "fusion_lon": 0.0}, {"rental_uris": {"ios": "https://dc.lft.to/lastmile_qr_scan", "android": "https://dc.lft.to/lastmile_qr_scan"}, "type": "electric_scooter", "name": "8c3ab11dcd061604d60e1bd00d12b2ff", "is_reserved": 0, "lon": -77.03168783333334, "is_disabled": 0, "fusion_lat": 0.0, "lat": 38.92108233333333, "bike_id": "8c3ab11dcd061604d60e1bd00d12b2ff", "fusion_lon": 0.0}, {"rental_uris": {"ios": "https://dc.lft.to/lastmile_qr_scan", "android": "https://dc.lft.to/lastmile_qr_scan"}, "type": "electric_scooter", "name": "feaf3c914ce2c63528cffbaf8e97bb54", "is_reserved": 0, "lon": -77.0380355, "is_disabled": 0, "fusion_lat": 0.0, "lat": 38.9323055, "bike_id": "feaf3c914ce2c63528cffbaf8e97bb54", "fusion_lon": 0.0}, {"rental_uris": {"ios": "https://dc.lft.to/lastmile_qr_scan", "android": "https://dc.lft.to/lastmile_qr_scan"}, "type": "electric_scooter", "name": "c99e2f1cd057cd5972654244a8a957b3", "is_reserved": 0, "lon": -77.063997, "is_disabled": 0, "fusion_lat": 0.0, "lat": 38.908515666666666, "bike_id": "c99e2f1cd057cd5972654244a8a957b3", "fusion_lon": 0.0}, {"rental_uris": {"ios": "https://dc.lft.to/lastmile_qr_scan", "android": "https://dc.lft.to/lastmile_qr_scan"}, "type": "electric_scooter", "name": "15ed04150fbe265514a12220fe912532", "is_reserved": 0, "lon": -77.03865733333333, "is_disabled": 0, "fusion_lat": 0.0, "lat": 38.91108416666667, "bike_id": "15ed04150fbe265514a12220fe912532", "fusion_lon": 0.0}, {"rental_uris": {"ios": "https://dc.lft.to/lastmile_qr_scan", "android": "https://dc.lft.to/lastmile_qr_scan"}, "type": "electric_scooter", "name": "4d164ef80e5e04161fa5b39c439e18d3", "is_reserved": 0, "lon": -77.04658283333333, "is_disabled": 0, "fusion_lat": 0.0, "lat": 38.90754866666666, "bike_id": "4d164ef80e5e04161fa5b39c439e18d3", "fusion_lon": 0.0}, {"rental_uris": {"ios": "https://dc.lft.to/lastmile_qr_scan", "android": "https://dc.lft.to/lastmile_qr_scan"}, "type": "electric_scooter", "name": "99100d7d41addfbbda45d1f572935cc0", "is_reserved": 0, "lon": -77.01375033333333, "is_disabled": 0, "fusion_lat": 0.0, "lat": 38.894702333333335, "bike_id": "99100d7d41addfbbda45d1f572935cc0", "fusion_lon": 0.0}, {"rental_uris": {"ios": "https://dc.lft.to/lastmile_qr_scan", "android": "https://dc.lft.to/lastmile_qr_scan"}, "type": "electric_scooter", "name": "dd005d365bde6d11decf1e7b7b54ed69", "is_reserved": 0, "lon": -76.928254, "is_disabled": 0, "fusion_lat": 0.0, "lat": 38.901771, "bike_id": "dd005d365bde6d11decf1e7b7b54ed69", "fusion_lon": 0.0}, {"rental_uris": {"ios": "https://dc.lft.to/lastmile_qr_scan", "android": "https://dc.lft.to/lastmile_qr_scan"}, "type": "electric_scooter", "name": "568a5680aa3c24bc1e7c1160b933be9e", "is_reserved": 0, "lon": -77.06372683333333, "is_disabled": 0, "fusion_lat": 0.0, "lat": 38.935582, "bike_id": "568a5680aa3c24bc1e7c1160b933be9e", "fusion_lon": 0.0}, {"rental_uris": {"ios": "https://dc.lft.to/lastmile_qr_scan", "android": "https://dc.lft.to/lastmile_qr_scan"}, "type": "electric_scooter", "name": "9de3fff97eda6bf1b53ba2e4a16164ab", "is_reserved": 0, "lon": -77.04520533333333, "is_disabled": 0, "fusion_lat": 0.0, "lat": 38.916275166666665, "bike_id": "9de3fff97eda6bf1b53ba2e4a16164ab", "fusion_lon": 0.0}, {"rental_uris": {"ios": "https://dc.lft.to/lastmile_qr_scan", "android": "https://dc.lft.to/lastmile_qr_scan"}, "type": "electric_bike", "name": "8e6b2793d8ea779a1a553db6fd843d04", "is_reserved": 0, "lon": -76.95252516666666, "is_disabled": 0, "fusion_lat": 0.0, "lat": 38.907020333333335, "bike_id": "8e6b2793d8ea779a1a553db6fd843d04", "fusion_lon": 0.0}, {"rental_uris": {"ios": "https://dc.lft.to/lastmile_qr_scan", "android": "https://dc.lft.to/lastmile_qr_scan"}, "type": "electric_scooter", "name": "f33cfaaf714fd330ada6fb1cd2597f11", "is_reserved": 0, "lon": -76.94702283333334, "is_disabled": 0, "fusion_lat": 0.0, "lat": 38.892974833333334, "bike_id": "f33cfaaf714fd330ada6fb1cd2597f11", "fusion_lon": 0.0}, {"rental_uris": {"ios": "https://dc.lft.to/lastmile_qr_scan", "android": "https://dc.lft.to/lastmile_qr_scan"}, "type": "electric_bike", "name": "da5201b8ce277b84889141334193d0fc", "is_reserved": 0, "lon": -77.126488, "is_disabled": 0, "fusion_lat": 0.0, "lat": 38.81907533333333, "bike_id": "da5201b8ce277b84889141334193d0fc", "fusion_lon": 0.0}, {"rental_uris": {"ios": "https://dc.lft.to/lastmile_qr_scan", "android": "https://dc.lft.to/lastmile_qr_scan"}, "type": "electric_scooter", "name": "26c1596b821e99a1772d0ff5c323c91a", "is_reserved": 0, "lon": -77.03832583333333, "is_disabled": 0, "fusion_lat": 0.0, "lat": 38.91183216666667, "bike_id": "26c1596b821e99a1772d0ff5c323c91a", "fusion_lon": 0.0}, {"rental_uris": {"ios": "https://dc.lft.to/lastmile_qr_scan", "android": "https://dc.lft.to/lastmile_qr_scan"}, "type": "electric_scooter", "name": "9d7f3463c05c5693ac85b913975ed3c8", "is_reserved": 0, "lon": -77.01321566666667, "is_disabled": 0, "fusion_lat": 0.0, "lat": 38.901952, "bike_id": "9d7f3463c05c5693ac85b913975ed3c8", "fusion_lon": 0.0}, {"rental_uris": {"ios": "https://dc.lft.to/lastmile_qr_scan", "android": "https://dc.lft.to/lastmile_qr_scan"}, "type": "electric_bike", "name": "20447c61c396cd323df024e6f67fdafb", "is_reserved": 0, "lon": -76.98687566666666, "is_disabled": 0, "fusion_lat": 0.0, "lat": 38.944727666666665, "bike_id": "20447c61c396cd323df024e6f67fdafb", "fusion_lon": 0.0}, {"rental_uris": {"ios": "https://dc.lft.to/lastmile_qr_scan", "android": "https://dc.lft.to/lastmile_qr_scan"}, "type": "electric_bike", "name": "5d72f0439c6b04b237cbb37df5962728", "is_reserved": 0, "lon": -76.94176, "is_disabled": 0, "fusion_lat": 0.0, "lat": 38.96064833333333, "bike_id": "5d72f0439c6b04b237cbb37df5962728", "fusion_lon": 0.0}, {"rental_uris": {"ios": "https://dc.lft.to/lastmile_qr_scan", "android": "https://dc.lft.to/lastmile_qr_scan"}, "type": "electric_scooter", "name": "5f4e49b8f405df80bc4fe3f40211d9e9", "is_reserved": 0, "lon": -77.0326885, "is_disabled": 0, "fusion_lat": 0.0, "lat": 38.912511333333335, "bike_id": "5f4e49b8f405df80bc4fe3f40211d9e9", "fusion_lon": 0.0}, {"rental_uris": {"ios": "https://dc.lft.to/lastmile_qr_scan", "android": "https://dc.lft.to/lastmile_qr_scan"}, "type": "electric_bike", "name": "a4b5ce3a74b5490a7c6e4b8a73c13a95", "is_reserved": 0, "lon": -77.0761805, "is_disabled": 0, "fusion_lat": 0.0, "lat": 38.90604233333333, "bike_id": "a4b5ce3a74b5490a7c6e4b8a73c13a95", "fusion_lon": 0.0}, {"rental_uris": {"ios": "https://dc.lft.to/lastmile_qr_scan", "android": "https://dc.lft.to/lastmile_qr_scan"}, "type": "electric_scooter", "name": "ab0b7a8b29630718c4f63b1fbbdb3db7", "is_reserved": 0, "lon": -77.02487883333333, "is_disabled": 0, "fusion_lat": 0.0, "lat": 38.924004333333336, "bike_id": "ab0b7a8b29630718c4f63b1fbbdb3db7", "fusion_lon": 0.0}, {"rental_uris": {"ios": "https://dc.lft.to/lastmile_qr_scan", "android": "https://dc.lft.to/lastmile_qr_scan"}, "type": "electric_scooter", "name": "6cce4174a1a736cef2d64a4dfd5241c6", "is_reserved": 0, "lon": -77.03472833333333, "is_disabled": 0, "fusion_lat": 0.0, "lat": 38.93536683333333, "bike_id": "6cce4174a1a736cef2d64a4dfd5241c6", "fusion_lon": 0.0}, {"rental_uris": {"ios": "https://dc.lft.to/lastmile_qr_scan", "android": "https://dc.lft.to/lastmile_qr_scan"}, "type": "electric_scooter", "name": "c9c5a14e4b3661ebb96e83b69e0d3915", "is_reserved": 0, "lon": -76.95203183333334, "is_disabled": 0, "fusion_lat": 0.0, "lat": 38.90516133333333, "bike_id": "c9c5a14e4b3661ebb96e83b69e0d3915", "fusion_lon": 0.0}, {"rental_uris": {"ios": "https://dc.lft.to/lastmile_qr_scan", "android": "https://dc.lft.to/lastmile_qr_scan"}, "type": "electric_scooter", "name": "b3585760862686be25c00b053afac99c", "is_reserved": 0, "lon": -77.00507616666667, "is_disabled": 0, "fusion_lat": 0.0, "lat": 38.9604815, "bike_id": "b3585760862686be25c00b053afac99c", "fusion_lon": 0.0}, {"rental_uris": {"ios": "https://dc.lft.to/lastmile_qr_scan", "android": "https://dc.lft.to/lastmile_qr_scan"}, "type": "electric_bike", "name": "ddb77c5885a4a7e635e1403fe8ef1f99", "is_reserved": 0, "lon": -77.12697666666666, "is_disabled": 0, "fusion_lat": 0.0, "lat": 38.895604166666665, "bike_id": "ddb77c5885a4a7e635e1403fe8ef1f99", "fusion_lon": 0.0}, {"rental_uris": {"ios": "https://dc.lft.to/lastmile_qr_scan", "android": "https://dc.lft.to/lastmile_qr_scan"}, "type": "electric_scooter", "name": "f4d5a3f0c35b417e44aa767ca4b2e2e8", "is_reserved": 0, "lon": -77.03212383333333, "is_disabled": 0, "fusion_lat": 0.0, "lat": 38.916298833333336, "bike_id": "f4d5a3f0c35b417e44aa767ca4b2e2e8", "fusion_lon": 0.0}, {"rental_uris": {"ios": "https://dc.lft.to/lastmile_qr_scan", "android": "https://dc.lft.to/lastmile_qr_scan"}, "type": "electric_scooter", "name": "a4f426e332f9379f93628c40c93c4a08", "is_reserved": 0, "lon": -77.03206833333333, "is_disabled": 0, "fusion_lat": 0.0, "lat": 38.912031666666664, "bike_id": "a4f426e332f9379f93628c40c93c4a08", "fusion_lon": 0.0}, {"rental_uris": {"ios": "https://dc.lft.to/lastmile_qr_scan", "android": "https://dc.lft.to/lastmile_qr_scan"}, "type": "electric_scooter", "name": "32c2aebfdf19ed4a6f8325cb628b9d28", "is_reserved": 0, "lon": -77.0135985, "is_disabled": 0, "fusion_lat": 0.0, "lat": 38.895948, "bike_id": "32c2aebfdf19ed4a6f8325cb628b9d28", "fusion_lon": 0.0}, {"rental_uris": {"ios": "https://dc.lft.to/lastmile_qr_scan", "android": "https://dc.lft.to/lastmile_qr_scan"}, "type": "electric_scooter", "name": "a1e1b537654f876d6bc28d3618946626", "is_reserved": 0, "lon": -77.044029, "is_disabled": 0, "fusion_lat": 0.0, "lat": 38.929532333333334, "bike_id": "a1e1b537654f876d6bc28d3618946626", "fusion_lon": 0.0}, {"rental_uris": {"ios": "https://dc.lft.to/lastmile_qr_scan", "android": "https://dc.lft.to/lastmile_qr_scan"}, "type": "electric_scooter", "name": "2b406dcb07876ad63ed902c04f0f3b6f", "is_reserved": 0, "lon": -77.0492045, "is_disabled": 0, "fusion_lat": 0.0, "lat": 38.89975283333333, "bike_id": "2b406dcb07876ad63ed902c04f0f3b6f", "fusion_lon": 0.0}, {"rental_uris": {"ios": "https://dc.lft.to/lastmile_qr_scan", "android": "https://dc.lft.to/lastmile_qr_scan"}, "type": "electric_scooter", "name": "ea9986a15ac94f79ec0d7ea4ecbb9eed", "is_reserved": 0, "lon": -77.04274183333334, "is_disabled": 0, "fusion_lat": 0.0, "lat": 38.904233, "bike_id": "ea9986a15ac94f79ec0d7ea4ecbb9eed", "fusion_lon": 0.0}, {"rental_uris": {"ios": "https://dc.lft.to/lastmile_qr_scan", "android": "https://dc.lft.to/lastmile_qr_scan"}, "type": "electric_scooter", "name": "36f27c207d108b76705c4ca4a06be624", "is_reserved": 0, "lon": -77.0058625, "is_disabled": 0, "fusion_lat": 0.0, "lat": 38.90039183333333, "bike_id": "36f27c207d108b76705c4ca4a06be624", "fusion_lon": 0.0}, {"rental_uris": {"ios": "https://dc.lft.to/lastmile_qr_scan", "android": "https://dc.lft.to/lastmile_qr_scan"}, "type": "electric_scooter", "name": "a04278b8450129d50cfdf60605a30c19", "is_reserved": 0, "lon": -77.04598133333333, "is_disabled": 0, "fusion_lat": 0.0, "lat": 38.91922866666667, "bike_id": "a04278b8450129d50cfdf60605a30c19", "fusion_lon": 0.0}, {"rental_uris": {"ios": "https://dc.lft.to/lastmile_qr_scan", "android": "https://dc.lft.to/lastmile_qr_scan"}, "type": "electric_scooter", "name": "143d1863fd9df41e0458155dcb9ee043", "is_reserved": 0, "lon": -77.0223635, "is_disabled": 0, "fusion_lat": 0.0, "lat": 38.911089833333335, "bike_id": "143d1863fd9df41e0458155dcb9ee043", "fusion_lon": 0.0}, {"rental_uris": {"ios": "https://dc.lft.to/lastmile_qr_scan", "android": "https://dc.lft.to/lastmile_qr_scan"}, "type": "electric_scooter", "name": "260e0062650f25db84eb95dfc37d15ad", "is_reserved": 0, "lon": -77.05495716666667, "is_disabled": 0, "fusion_lat": 0.0, "lat": 38.929539166666665, "bike_id": "260e0062650f25db84eb95dfc37d15ad", "fusion_lon": 0.0}, {"rental_uris": {"ios": "https://dc.lft.to/lastmile_qr_scan", "android": "https://dc.lft.to/lastmile_qr_scan"}, "type": "electric_scooter", "name": "62ae5431e0f6807ba913b7081e22aabf", "is_reserved": 0, "lon": -77.02569216666667, "is_disabled": 0, "fusion_lat": 0.0, "lat": 38.93524133333333, "bike_id": "62ae5431e0f6807ba913b7081e22aabf", "fusion_lon": 0.0}, {"rental_uris": {"ios": "https://dc.lft.to/lastmile_qr_scan", "android": "https://dc.lft.to/lastmile_qr_scan"}, "type": "electric_scooter", "name": "e51882bafcd7d68af5c6d88432d13b45", "is_reserved": 0, "lon": -77.0215575, "is_disabled": 0, "fusion_lat": 0.0, "lat": 38.92602133333333, "bike_id": "e51882bafcd7d68af5c6d88432d13b45", "fusion_lon": 0.0}, {"rental_uris": {"ios": "https://dc.lft.to/lastmile_qr_scan", "android": "https://dc.lft.to/lastmile_qr_scan"}, "type": "electric_scooter", "name": "3216dc554b97081ec685da738ce5b956", "is_reserved": 0, "lon": -77.0627405, "is_disabled": 0, "fusion_lat": 0.0, "lat": 38.91245766666667, "bike_id": "3216dc554b97081ec685da738ce5b956", "fusion_lon": 0.0}, {"rental_uris": {"ios": "https://dc.lft.to/lastmile_qr_scan", "android": "https://dc.lft.to/lastmile_qr_scan"}, "type": "electric_scooter", "name": "079d3db333d26d0812c2d135030bb6b1", "is_reserved": 0, "lon": -77.01375066666667, "is_disabled": 0, "fusion_lat": 0.0, "lat": 38.869675666666666, "bike_id": "079d3db333d26d0812c2d135030bb6b1", "fusion_lon": 0.0}, {"rental_uris": {"ios": "https://dc.lft.to/lastmile_qr_scan", "android": "https://dc.lft.to/lastmile_qr_scan"}, "type": "electric_bike", "name": "9c54452513687a91267a61bf3e3a78d9", "is_reserved": 0, "lon": -76.99500033333334, "is_disabled": 0, "fusion_lat": 0.0, "lat": 38.88177916666667, "bike_id": "9c54452513687a91267a61bf3e3a78d9", "fusion_lon": 0.0}, {"rental_uris": {"ios": "https://dc.lft.to/lastmile_qr_scan", "android": "https://dc.lft.to/lastmile_qr_scan"}, "type": "electric_scooter", "name": "5a865c4026bfb1697ebb3912c5b7d698", "is_reserved": 0, "lon": -77.01211116666667, "is_disabled": 0, "fusion_lat": 0.0, "lat": 38.9170175, "bike_id": "5a865c4026bfb1697ebb3912c5b7d698", "fusion_lon": 0.0}, {"rental_uris": {"ios": "https://dc.lft.to/lastmile_qr_scan", "android": "https://dc.lft.to/lastmile_qr_scan"}, "type": "electric_scooter", "name": "eb1c322cb8bc9a0b4de27f5d944d56f8", "is_reserved": 0, "lon": -77.066051, "is_disabled": 0, "fusion_lat": 0.0, "lat": 38.906051, "bike_id": "eb1c322cb8bc9a0b4de27f5d944d56f8", "fusion_lon": 0.0}, {"rental_uris": {"ios": "https://dc.lft.to/lastmile_qr_scan", "android": "https://dc.lft.to/lastmile_qr_scan"}, "type": "electric_scooter", "name": "9d02cb2b2b704d374512d2d1652203fa", "is_reserved": 0, "lon": -77.05526583333334, "is_disabled": 0, "fusion_lat": 0.0, "lat": 38.89728866666667, "bike_id": "9d02cb2b2b704d374512d2d1652203fa", "fusion_lon": 0.0}, {"rental_uris": {"ios": "https://dc.lft.to/lastmile_qr_scan", "android": "https://dc.lft.to/lastmile_qr_scan"}, "type": "electric_scooter", "name": "5a02f30f9c0ab06e174cce993989e4e3", "is_reserved": 0, "lon": -76.99027083333333, "is_disabled": 0, "fusion_lat": 0.0, "lat": 38.863742333333334, "bike_id": "5a02f30f9c0ab06e174cce993989e4e3", "fusion_lon": 0.0}, {"rental_uris": {"ios": "https://dc.lft.to/lastmile_qr_scan", "android": "https://dc.lft.to/lastmile_qr_scan"}, "type": "electric_scooter", "name": "ed5981c46b84ad7c4a446b57e2401377", "is_reserved": 0, "lon": -77.004367, "is_disabled": 0, "fusion_lat": 0.0, "lat": 38.92096183333334, "bike_id": "ed5981c46b84ad7c4a446b57e2401377", "fusion_lon": 0.0}, {"rental_uris": {"ios": "https://dc.lft.to/lastmile_qr_scan", "android": "https://dc.lft.to/lastmile_qr_scan"}, "type": "electric_scooter", "name": "4b09002c0546d371275288c94b3a4de8", "is_reserved": 0, "lon": -77.03192133333333, "is_disabled": 0, "fusion_lat": 0.0, "lat": 38.93066833333334, "bike_id": "4b09002c0546d371275288c94b3a4de8", "fusion_lon": 0.0}, {"rental_uris": {"ios": "https://dc.lft.to/lastmile_qr_scan", "android": "https://dc.lft.to/lastmile_qr_scan"}, "type": "electric_scooter", "name": "ca8221498fb22babec9f3495a74e2095", "is_reserved": 0, "lon": -77.02146483333334, "is_disabled": 0, "fusion_lat": 0.0, "lat": 38.9242755, "bike_id": "ca8221498fb22babec9f3495a74e2095", "fusion_lon": 0.0}, {"rental_uris": {"ios": "https://dc.lft.to/lastmile_qr_scan", "android": "https://dc.lft.to/lastmile_qr_scan"}, "type": "electric_scooter", "name": "08dde9c7a1979cae13a00c074051ee02", "is_reserved": 0, "lon": -77.0195985, "is_disabled": 0, "fusion_lat": 0.0, "lat": 38.92909483333333, "bike_id": "08dde9c7a1979cae13a00c074051ee02", "fusion_lon": 0.0}, {"rental_uris": {"ios": "https://dc.lft.to/lastmile_qr_scan", "android": "https://dc.lft.to/lastmile_qr_scan"}, "type": "electric_scooter", "name": "084b1ffeb3937d440a28bfd5519ad9ef", "is_reserved": 0, "lon": -76.94196283333333, "is_disabled": 0, "fusion_lat": 0.0, "lat": 38.9022755, "bike_id": "084b1ffeb3937d440a28bfd5519ad9ef", "fusion_lon": 0.0}, {"rental_uris": {"ios": "https://dc.lft.to/lastmile_qr_scan", "android": "https://dc.lft.to/lastmile_qr_scan"}, "type": "electric_scooter", "name": "fa5949f008b76fd084236c6f0f090445", "is_reserved": 0, "lon": -77.03219866666667, "is_disabled": 0, "fusion_lat": 0.0, "lat": 38.91688933333333, "bike_id": "fa5949f008b76fd084236c6f0f090445", "fusion_lon": 0.0}, {"rental_uris": {"ios": "https://dc.lft.to/lastmile_qr_scan", "android": "https://dc.lft.to/lastmile_qr_scan"}, "type": "electric_scooter", "name": "248add480c3d62960b35adf84c7aa50d", "is_reserved": 0, "lon": -77.07551666666667, "is_disabled": 0, "fusion_lat": 0.0, "lat": 38.920844833333334, "bike_id": "248add480c3d62960b35adf84c7aa50d", "fusion_lon": 0.0}, {"rental_uris": {"ios": "https://dc.lft.to/lastmile_qr_scan", "android": "https://dc.lft.to/lastmile_qr_scan"}, "type": "electric_scooter", "name": "4aaa91e6be457281ded101ebc55c79a4", "is_reserved": 0, "lon": -77.03275433333333, "is_disabled": 0, "fusion_lat": 0.0, "lat": 38.9056775, "bike_id": "4aaa91e6be457281ded101ebc55c79a4", "fusion_lon": 0.0}, {"rental_uris": {"ios": "https://dc.lft.to/lastmile_qr_scan", "android": "https://dc.lft.to/lastmile_qr_scan"}, "type": "electric_scooter", "name": "a8ada6cb3b6174cfeb4e3304b4c8e80c", "is_reserved": 0, "lon": -77.0020005, "is_disabled": 0, "fusion_lat": 0.0, "lat": 38.9023615, "bike_id": "a8ada6cb3b6174cfeb4e3304b4c8e80c", "fusion_lon": 0.0}, {"rental_uris": {"ios": "https://dc.lft.to/lastmile_qr_scan", "android": "https://dc.lft.to/lastmile_qr_scan"}, "type": "electric_scooter", "name": "07135f341f7b5474b43b033f088383b8", "is_reserved": 0, "lon": -77.018279, "is_disabled": 0, "fusion_lat": 0.0, "lat": 38.9221765, "bike_id": "07135f341f7b5474b43b033f088383b8", "fusion_lon": 0.0}, {"rental_uris": {"ios": "https://dc.lft.to/lastmile_qr_scan", "android": "https://dc.lft.to/lastmile_qr_scan"}, "type": "electric_scooter", "name": "4406825c732564edf91e38d832080e8b", "is_reserved": 0, "lon": -76.99469166666667, "is_disabled": 0, "fusion_lat": 0.0, "lat": 38.905514, "bike_id": "4406825c732564edf91e38d832080e8b", "fusion_lon": 0.0}, {"rental_uris": {"ios": "https://dc.lft.to/lastmile_qr_scan", "android": "https://dc.lft.to/lastmile_qr_scan"}, "type": "electric_scooter", "name": "4bb88dc87f0b808acb8529adf75a996a", "is_reserved": 0, "lon": -77.060163, "is_disabled": 0, "fusion_lat": 0.0, "lat": 38.9037745, "bike_id": "4bb88dc87f0b808acb8529adf75a996a", "fusion_lon": 0.0}, {"rental_uris": {"ios": "https://dc.lft.to/lastmile_qr_scan", "android": "https://dc.lft.to/lastmile_qr_scan"}, "type": "electric_scooter", "name": "f49df56b29ec5a1134e4b69fc4e2edb5", "is_reserved": 0, "lon": -77.0215575, "is_disabled": 0, "fusion_lat": 0.0, "lat": 38.9030855, "bike_id": "f49df56b29ec5a1134e4b69fc4e2edb5", "fusion_lon": 0.0}, {"rental_uris": {"ios": "https://dc.lft.to/lastmile_qr_scan", "android": "https://dc.lft.to/lastmile_qr_scan"}, "type": "electric_scooter", "name": "ee9c18566a175c51c72ffbfb2b3cd12f", "is_reserved": 0, "lon": -77.02200083333334, "is_disabled": 0, "fusion_lat": 0.0, "lat": 38.89407516666667, "bike_id": "ee9c18566a175c51c72ffbfb2b3cd12f", "fusion_lon": 0.0}, {"rental_uris": {"ios": "https://dc.lft.to/lastmile_qr_scan", "android": "https://dc.lft.to/lastmile_qr_scan"}, "type": "electric_scooter", "name": "3c9d32edb5a6aeb20ef20abbe8167009", "is_reserved": 0, "lon": -77.0233375, "is_disabled": 0, "fusion_lat": 0.0, "lat": 38.9297165, "bike_id": "3c9d32edb5a6aeb20ef20abbe8167009", "fusion_lon": 0.0}, {"rental_uris": {"ios": "https://dc.lft.to/lastmile_qr_scan", "android": "https://dc.lft.to/lastmile_qr_scan"}, "type": "electric_scooter", "name": "112daddecd94c9595f5e6a99859d0fd7", "is_reserved": 0, "lon": -76.992103, "is_disabled": 0, "fusion_lat": 0.0, "lat": 38.889724, "bike_id": "112daddecd94c9595f5e6a99859d0fd7", "fusion_lon": 0.0}, {"rental_uris": {"ios": "https://dc.lft.to/lastmile_qr_scan", "android": "https://dc.lft.to/lastmile_qr_scan"}, "type": "electric_scooter", "name": "b05df70c4c82a8593479e6bbbfc664a6", "is_reserved": 0, "lon": -76.994795, "is_disabled": 0, "fusion_lat": 0.0, "lat": 38.86215966666666, "bike_id": "b05df70c4c82a8593479e6bbbfc664a6", "fusion_lon": 0.0}, {"rental_uris": {"ios": "https://dc.lft.to/lastmile_qr_scan", "android": "https://dc.lft.to/lastmile_qr_scan"}, "type": "electric_scooter", "name": "2d719bf3339f048d8b2316a5d17deda5", "is_reserved": 0, "lon": -77.06142, "is_disabled": 0, "fusion_lat": 0.0, "lat": 38.91295983333333, "bike_id": "2d719bf3339f048d8b2316a5d17deda5", "fusion_lon": 0.0}, {"rental_uris": {"ios": "https://dc.lft.to/lastmile_qr_scan", "android": "https://dc.lft.to/lastmile_qr_scan"}, "type": "electric_scooter", "name": "18f80279ff423881693d03491e36acb4", "is_reserved": 0, "lon": -77.03049833333333, "is_disabled": 0, "fusion_lat": 0.0, "lat": 38.908226166666665, "bike_id": "18f80279ff423881693d03491e36acb4", "fusion_lon": 0.0}, {"rental_uris": {"ios": "https://dc.lft.to/lastmile_qr_scan", "android": "https://dc.lft.to/lastmile_qr_scan"}, "type": "electric_bike", "name": "b40360d2cf409ab1e599009137c7c1f2", "is_reserved": 0, "lon": -77.02371583333333, "is_disabled": 0, "fusion_lat": 0.0, "lat": 38.88504666666667, "bike_id": "b40360d2cf409ab1e599009137c7c1f2", "fusion_lon": 0.0}, {"rental_uris": {"ios": "https://dc.lft.to/lastmile_qr_scan", "android": "https://dc.lft.to/lastmile_qr_scan"}, "type": "electric_scooter", "name": "2dbc606ba8a7dff4b3f86e5946672d11", "is_reserved": 0, "lon": -77.00609166666666, "is_disabled": 0, "fusion_lat": 0.0, "lat": 38.871796, "bike_id": "2dbc606ba8a7dff4b3f86e5946672d11", "fusion_lon": 0.0}, {"rental_uris": {"ios": "https://dc.lft.to/lastmile_qr_scan", "android": "https://dc.lft.to/lastmile_qr_scan"}, "type": "electric_scooter", "name": "acecb1b434782a3e1f7c78f9bd213e3b", "is_reserved": 0, "lon": -77.0218365, "is_disabled": 0, "fusion_lat": 0.0, "lat": 38.906769, "bike_id": "acecb1b434782a3e1f7c78f9bd213e3b", "fusion_lon": 0.0}, {"rental_uris": {"ios": "https://dc.lft.to/lastmile_qr_scan", "android": "https://dc.lft.to/lastmile_qr_scan"}, "type": "electric_scooter", "name": "2a3d3a3616ac78ffe1d9fda215ee57e1", "is_reserved": 0, "lon": -76.98109433333333, "is_disabled": 0, "fusion_lat": 0.0, "lat": 38.90250433333333, "bike_id": "2a3d3a3616ac78ffe1d9fda215ee57e1", "fusion_lon": 0.0}, {"rental_uris": {"ios": "https://dc.lft.to/lastmile_qr_scan", "android": "https://dc.lft.to/lastmile_qr_scan"}, "type": "electric_scooter", "name": "655e9648eae914fd5d3cb7a6368bf444", "is_reserved": 0, "lon": -76.999138, "is_disabled": 0, "fusion_lat": 0.0, "lat": 38.921707, "bike_id": "655e9648eae914fd5d3cb7a6368bf444", "fusion_lon": 0.0}, {"rental_uris": {"ios": "https://dc.lft.to/lastmile_qr_scan", "android": "https://dc.lft.to/lastmile_qr_scan"}, "type": "electric_scooter", "name": "d254dd9262ea310eabd0e33384750e89", "is_reserved": 0, "lon": -77.03849, "is_disabled": 0, "fusion_lat": 0.0, "lat": 38.911700833333335, "bike_id": "d254dd9262ea310eabd0e33384750e89", "fusion_lon": 0.0}, {"rental_uris": {"ios": "https://dc.lft.to/lastmile_qr_scan", "android": "https://dc.lft.to/lastmile_qr_scan"}, "type": "electric_scooter", "name": "fe36bd55ff3fe6ba97126c96a305ec10", "is_reserved": 0, "lon": -77.00556733333333, "is_disabled": 0, "fusion_lat": 0.0, "lat": 38.87467016666667, "bike_id": "fe36bd55ff3fe6ba97126c96a305ec10", "fusion_lon": 0.0}, {"rental_uris": {"ios": "https://dc.lft.to/lastmile_qr_scan", "android": "https://dc.lft.to/lastmile_qr_scan"}, "type": "electric_scooter", "name": "97fea5232e9240e3355d900e5446d343", "is_reserved": 0, "lon": -77.02072983333333, "is_disabled": 0, "fusion_lat": 0.0, "lat": 38.90864366666667, "bike_id": "97fea5232e9240e3355d900e5446d343", "fusion_lon": 0.0}, {"rental_uris": {"ios": "https://dc.lft.to/lastmile_qr_scan", "android": "https://dc.lft.to/lastmile_qr_scan"}, "type": "electric_scooter", "name": "19d1b7c67d86b3e918d1837554320469", "is_reserved": 0, "lon": -76.99345516666666, "is_disabled": 0, "fusion_lat": 0.0, "lat": 38.876881833333336, "bike_id": "19d1b7c67d86b3e918d1837554320469", "fusion_lon": 0.0}, {"rental_uris": {"ios": "https://dc.lft.to/lastmile_qr_scan", "android": "https://dc.lft.to/lastmile_qr_scan"}, "type": "electric_scooter", "name": "a08555a237f65742ea1b669174fe53e2", "is_reserved": 0, "lon": -77.01772883333334, "is_disabled": 0, "fusion_lat": 0.0, "lat": 38.9005115, "bike_id": "a08555a237f65742ea1b669174fe53e2", "fusion_lon": 0.0}, {"rental_uris": {"ios": "https://dc.lft.to/lastmile_qr_scan", "android": "https://dc.lft.to/lastmile_qr_scan"}, "type": "electric_scooter", "name": "80d9a2d3492325101ffeb9cc772bfa32", "is_reserved": 0, "lon": -76.98925416666667, "is_disabled": 0, "fusion_lat": 0.0, "lat": 38.8785985, "bike_id": "80d9a2d3492325101ffeb9cc772bfa32", "fusion_lon": 0.0}, {"rental_uris": {"ios": "https://dc.lft.to/lastmile_qr_scan", "android": "https://dc.lft.to/lastmile_qr_scan"}, "type": "electric_scooter", "name": "f5e130fd43ebfe5eb2c205e00e0a091f", "is_reserved": 0, "lon": -77.03125816666666, "is_disabled": 0, "fusion_lat": 0.0, "lat": 38.91552566666667, "bike_id": "f5e130fd43ebfe5eb2c205e00e0a091f", "fusion_lon": 0.0}, {"rental_uris": {"ios": "https://dc.lft.to/lastmile_qr_scan", "android": "https://dc.lft.to/lastmile_qr_scan"}, "type": "electric_scooter", "name": "4a38949bdd580460c3d654656766b974", "is_reserved": 0, "lon": -77.05922416666667, "is_disabled": 0, "fusion_lat": 0.0, "lat": 38.9014935, "bike_id": "4a38949bdd580460c3d654656766b974", "fusion_lon": 0.0}, {"rental_uris": {"ios": "https://dc.lft.to/lastmile_qr_scan", "android": "https://dc.lft.to/lastmile_qr_scan"}, "type": "electric_scooter", "name": "3eb57ae850184597a27b9ac9cf3a8e3b", "is_reserved": 0, "lon": -76.99537866666667, "is_disabled": 0, "fusion_lat": 0.0, "lat": 38.877505166666666, "bike_id": "3eb57ae850184597a27b9ac9cf3a8e3b", "fusion_lon": 0.0}, {"rental_uris": {"ios": "https://dc.lft.to/lastmile_qr_scan", "android": "https://dc.lft.to/lastmile_qr_scan"}, "type": "electric_scooter", "name": "c4a317740a96e33421af247ddf2625db", "is_reserved": 0, "lon": -77.04127366666667, "is_disabled": 0, "fusion_lat": 0.0, "lat": 38.93281233333333, "bike_id": "c4a317740a96e33421af247ddf2625db", "fusion_lon": 0.0}, {"rental_uris": {"ios": "https://dc.lft.to/lastmile_qr_scan", "android": "https://dc.lft.to/lastmile_qr_scan"}, "type": "electric_scooter", "name": "5c182bb3b464ed84861c29b43c96fb49", "is_reserved": 0, "lon": -77.03166933333334, "is_disabled": 0, "fusion_lat": 0.0, "lat": 38.914138666666666, "bike_id": "5c182bb3b464ed84861c29b43c96fb49", "fusion_lon": 0.0}, {"rental_uris": {"ios": "https://dc.lft.to/lastmile_qr_scan", "android": "https://dc.lft.to/lastmile_qr_scan"}, "type": "electric_scooter", "name": "b189a07b7d1cd8b378b6b0721e423321", "is_reserved": 0, "lon": -77.03850966666667, "is_disabled": 0, "fusion_lat": 0.0, "lat": 38.911034666666666, "bike_id": "b189a07b7d1cd8b378b6b0721e423321", "fusion_lon": 0.0}, {"rental_uris": {"ios": "https://dc.lft.to/lastmile_qr_scan", "android": "https://dc.lft.to/lastmile_qr_scan"}, "type": "electric_bike", "name": "6afe78aeabdafdd7233280212a98da02", "is_reserved": 0, "lon": -77.0503535, "is_disabled": 0, "fusion_lat": 0.0, "lat": 39.0389955, "bike_id": "6afe78aeabdafdd7233280212a98da02", "fusion_lon": 0.0}, {"rental_uris": {"ios": "https://dc.lft.to/lastmile_qr_scan", "android": "https://dc.lft.to/lastmile_qr_scan"}, "type": "electric_bike", "name": "6c89dab2c5eccb0d828ab630e709fbb2", "is_reserved": 0, "lon": -77.11356183333334, "is_disabled": 0, "fusion_lat": 0.0, "lat": 38.841879, "bike_id": "6c89dab2c5eccb0d828ab630e709fbb2", "fusion_lon": 0.0}, {"rental_uris": {"ios": "https://dc.lft.to/lastmile_qr_scan", "android": "https://dc.lft.to/lastmile_qr_scan"}, "type": "electric_scooter", "name": "c6271fd89706206852e003709dbde1d7", "is_reserved": 0, "lon": -77.07449866666667, "is_disabled": 0, "fusion_lat": 0.0, "lat": 38.937816166666664, "bike_id": "c6271fd89706206852e003709dbde1d7", "fusion_lon": 0.0}, {"rental_uris": {"ios": "https://dc.lft.to/lastmile_qr_scan", "android": "https://dc.lft.to/lastmile_qr_scan"}, "type": "electric_scooter", "name": "6b67e805e8c67c7754b16eac702f6735", "is_reserved": 0, "lon": -77.044885, "is_disabled": 0, "fusion_lat": 0.0, "lat": 38.91092366666667, "bike_id": "6b67e805e8c67c7754b16eac702f6735", "fusion_lon": 0.0}, {"rental_uris": {"ios": "https://dc.lft.to/lastmile_qr_scan", "android": "https://dc.lft.to/lastmile_qr_scan"}, "type": "electric_scooter", "name": "bb4b52b7d43c92ec30e37c1a18e56434", "is_reserved": 0, "lon": -77.038136, "is_disabled": 0, "fusion_lat": 0.0, "lat": 38.90381333333333, "bike_id": "bb4b52b7d43c92ec30e37c1a18e56434", "fusion_lon": 0.0}, {"rental_uris": {"ios": "https://dc.lft.to/lastmile_qr_scan", "android": "https://dc.lft.to/lastmile_qr_scan"}, "type": "electric_scooter", "name": "de2ed639c3487ef53f67916a233be72b", "is_reserved": 0, "lon": -76.98555683333333, "is_disabled": 0, "fusion_lat": 0.0, "lat": 38.88995533333333, "bike_id": "de2ed639c3487ef53f67916a233be72b", "fusion_lon": 0.0}, {"rental_uris": {"ios": "https://dc.lft.to/lastmile_qr_scan", "android": "https://dc.lft.to/lastmile_qr_scan"}, "type": "electric_scooter", "name": "cab4342f319a6c1cf30562553230d222", "is_reserved": 0, "lon": -76.98450866666667, "is_disabled": 0, "fusion_lat": 0.0, "lat": 38.91468583333333, "bike_id": "cab4342f319a6c1cf30562553230d222", "fusion_lon": 0.0}, {"rental_uris": {"ios": "https://dc.lft.to/lastmile_qr_scan", "android": "https://dc.lft.to/lastmile_qr_scan"}, "type": "electric_bike", "name": "46994fb3e179759a91960fbe7f00315a", "is_reserved": 0, "lon": -77.11410283333333, "is_disabled": 0, "fusion_lat": 0.0, "lat": 38.873306, "bike_id": "46994fb3e179759a91960fbe7f00315a", "fusion_lon": 0.0}, {"rental_uris": {"ios": "https://dc.lft.to/lastmile_qr_scan", "android": "https://dc.lft.to/lastmile_qr_scan"}, "type": "electric_scooter", "name": "b48e4f2b65f21dd1b0382c569ec16b68", "is_reserved": 0, "lon": -77.03497316666666, "is_disabled": 0, "fusion_lat": 0.0, "lat": 38.928558833333334, "bike_id": "b48e4f2b65f21dd1b0382c569ec16b68", "fusion_lon": 0.0}, {"rental_uris": {"ios": "https://dc.lft.to/lastmile_qr_scan", "android": "https://dc.lft.to/lastmile_qr_scan"}, "type": "electric_scooter", "name": "eedc264ed68c87088b06044bac65c336", "is_reserved": 0, "lon": -77.02828766666667, "is_disabled": 0, "fusion_lat": 0.0, "lat": 38.938819, "bike_id": "eedc264ed68c87088b06044bac65c336", "fusion_lon": 0.0}, {"rental_uris": {"ios": "https://dc.lft.to/lastmile_qr_scan", "android": "https://dc.lft.to/lastmile_qr_scan"}, "type": "electric_scooter", "name": "79fbedb0af94d1d9693af19fa39a2ba9", "is_reserved": 0, "lon": -77.0432625, "is_disabled": 0, "fusion_lat": 0.0, "lat": 38.934260333333334, "bike_id": "79fbedb0af94d1d9693af19fa39a2ba9", "fusion_lon": 0.0}, {"rental_uris": {"ios": "https://dc.lft.to/lastmile_qr_scan", "android": "https://dc.lft.to/lastmile_qr_scan"}, "type": "electric_scooter", "name": "91ee138acd667e28a0d143eb696d5a34", "is_reserved": 0, "lon": -77.02443683333334, "is_disabled": 0, "fusion_lat": 0.0, "lat": 38.937608833333336, "bike_id": "91ee138acd667e28a0d143eb696d5a34", "fusion_lon": 0.0}, {"rental_uris": {"ios": "https://dc.lft.to/lastmile_qr_scan", "android": "https://dc.lft.to/lastmile_qr_scan"}, "type": "electric_scooter", "name": "f9afe1a749e85a017557bd51ebd60062", "is_reserved": 0, "lon": -77.0765665, "is_disabled": 0, "fusion_lat": 0.0, "lat": 38.910819000000004, "bike_id": "f9afe1a749e85a017557bd51ebd60062", "fusion_lon": 0.0}, {"rental_uris": {"ios": "https://dc.lft.to/lastmile_qr_scan", "android": "https://dc.lft.to/lastmile_qr_scan"}, "type": "electric_scooter", "name": "16d6237e688e74d454844d01e7f7e4a4", "is_reserved": 0, "lon": -77.06330933333334, "is_disabled": 0, "fusion_lat": 0.0, "lat": 38.90686, "bike_id": "16d6237e688e74d454844d01e7f7e4a4", "fusion_lon": 0.0}, {"rental_uris": {"ios": "https://dc.lft.to/lastmile_qr_scan", "android": "https://dc.lft.to/lastmile_qr_scan"}, "type": "electric_scooter", "name": "836b9c007d4cb43fcbac26bf520bfd44", "is_reserved": 0, "lon": -77.03309983333334, "is_disabled": 0, "fusion_lat": 0.0, "lat": 38.904050833333336, "bike_id": "836b9c007d4cb43fcbac26bf520bfd44", "fusion_lon": 0.0}, {"rental_uris": {"ios": "https://dc.lft.to/lastmile_qr_scan", "android": "https://dc.lft.to/lastmile_qr_scan"}, "type": "electric_scooter", "name": "9af72f187697a78f773a0be3ad85e6b4", "is_reserved": 0, "lon": -76.97667133333333, "is_disabled": 0, "fusion_lat": 0.0, "lat": 38.926374, "bike_id": "9af72f187697a78f773a0be3ad85e6b4", "fusion_lon": 0.0}, {"rental_uris": {"ios": "https://dc.lft.to/lastmile_qr_scan", "android": "https://dc.lft.to/lastmile_qr_scan"}, "type": "electric_scooter", "name": "60265fff74a34aeb19236acfcc3768fb", "is_reserved": 0, "lon": -77.02951916666666, "is_disabled": 0, "fusion_lat": 0.0, "lat": 38.91684683333333, "bike_id": "60265fff74a34aeb19236acfcc3768fb", "fusion_lon": 0.0}, {"rental_uris": {"ios": "https://dc.lft.to/lastmile_qr_scan", "android": "https://dc.lft.to/lastmile_qr_scan"}, "type": "electric_scooter", "name": "a65551c6e53ed8ce59e8d20101bab13e", "is_reserved": 0, "lon": -77.06243516666666, "is_disabled": 0, "fusion_lat": 0.0, "lat": 38.905148833333335, "bike_id": "a65551c6e53ed8ce59e8d20101bab13e", "fusion_lon": 0.0}, {"rental_uris": {"ios": "https://dc.lft.to/lastmile_qr_scan", "android": "https://dc.lft.to/lastmile_qr_scan"}, "type": "electric_scooter", "name": "0cacbfd5b3860d3eb32699ce9ca65d42", "is_reserved": 0, "lon": -77.03385866666666, "is_disabled": 0, "fusion_lat": 0.0, "lat": 38.88663316666667, "bike_id": "0cacbfd5b3860d3eb32699ce9ca65d42", "fusion_lon": 0.0}, {"rental_uris": {"ios": "https://dc.lft.to/lastmile_qr_scan", "android": "https://dc.lft.to/lastmile_qr_scan"}, "type": "electric_bike", "name": "8a63d17e5919549dc296a1bf203b143f", "is_reserved": 0, "lon": -77.00003, "is_disabled": 0, "fusion_lat": 0.0, "lat": 38.92388533333333, "bike_id": "8a63d17e5919549dc296a1bf203b143f", "fusion_lon": 0.0}, {"rental_uris": {"ios": "https://dc.lft.to/lastmile_qr_scan", "android": "https://dc.lft.to/lastmile_qr_scan"}, "type": "electric_scooter", "name": "86cc50a177e978bd34b6d9e1720810bd", "is_reserved": 0, "lon": -77.046813, "is_disabled": 0, "fusion_lat": 0.0, "lat": 38.8922275, "bike_id": "86cc50a177e978bd34b6d9e1720810bd", "fusion_lon": 0.0}, {"rental_uris": {"ios": "https://dc.lft.to/lastmile_qr_scan", "android": "https://dc.lft.to/lastmile_qr_scan"}, "type": "electric_scooter", "name": "16ce8e498777620e4c0fde29c027f255", "is_reserved": 0, "lon": -77.02711566666666, "is_disabled": 0, "fusion_lat": 0.0, "lat": 38.906033, "bike_id": "16ce8e498777620e4c0fde29c027f255", "fusion_lon": 0.0}, {"rental_uris": {"ios": "https://dc.lft.to/lastmile_qr_scan", "android": "https://dc.lft.to/lastmile_qr_scan"}, "type": "electric_scooter", "name": "8e63e96c646201bfaf84e14b61af1bb5", "is_reserved": 0, "lon": -77.0339015, "is_disabled": 0, "fusion_lat": 0.0, "lat": 38.920553166666664, "bike_id": "8e63e96c646201bfaf84e14b61af1bb5", "fusion_lon": 0.0}, {"rental_uris": {"ios": "https://dc.lft.to/lastmile_qr_scan", "android": "https://dc.lft.to/lastmile_qr_scan"}, "type": "electric_scooter", "name": "ed3a648e6460fb41eac1098683fdc0fe", "is_reserved": 0, "lon": -77.032072, "is_disabled": 0, "fusion_lat": 0.0, "lat": 38.916126, "bike_id": "ed3a648e6460fb41eac1098683fdc0fe", "fusion_lon": 0.0}, {"rental_uris": {"ios": "https://dc.lft.to/lastmile_qr_scan", "android": "https://dc.lft.to/lastmile_qr_scan"}, "type": "electric_bike", "name": "97805fda25ab915132ce3aff828171f3", "is_reserved": 0, "lon": -77.01225666666667, "is_disabled": 0, "fusion_lat": 0.0, "lat": 38.950922166666665, "bike_id": "97805fda25ab915132ce3aff828171f3", "fusion_lon": 0.0}, {"rental_uris": {"ios": "https://dc.lft.to/lastmile_qr_scan", "android": "https://dc.lft.to/lastmile_qr_scan"}, "type": "electric_scooter", "name": "689f30d398321404396b1732f360c88b", "is_reserved": 0, "lon": -77.02844833333333, "is_disabled": 0, "fusion_lat": 0.0, "lat": 38.902907166666665, "bike_id": "689f30d398321404396b1732f360c88b", "fusion_lon": 0.0}, {"rental_uris": {"ios": "https://dc.lft.to/lastmile_qr_scan", "android": "https://dc.lft.to/lastmile_qr_scan"}, "type": "electric_scooter", "name": "3eb3fcdcfd9d5fda81f54ab9de8880f9", "is_reserved": 0, "lon": -77.04122466666666, "is_disabled": 0, "fusion_lat": 0.0, "lat": 38.93104916666667, "bike_id": "3eb3fcdcfd9d5fda81f54ab9de8880f9", "fusion_lon": 0.0}, {"rental_uris": {"ios": "https://dc.lft.to/lastmile_qr_scan", "android": "https://dc.lft.to/lastmile_qr_scan"}, "type": "electric_scooter", "name": "412c0454de5dfcb136b9d568ea05f9c1", "is_reserved": 0, "lon": -76.985798, "is_disabled": 0, "fusion_lat": 0.0, "lat": 38.854495166666666, "bike_id": "412c0454de5dfcb136b9d568ea05f9c1", "fusion_lon": 0.0}, {"rental_uris": {"ios": "https://dc.lft.to/lastmile_qr_scan", "android": "https://dc.lft.to/lastmile_qr_scan"}, "type": "electric_scooter", "name": "bc44808d4d225638bb7fa413f690a783", "is_reserved": 0, "lon": -77.0342795, "is_disabled": 0, "fusion_lat": 0.0, "lat": 38.9097745, "bike_id": "bc44808d4d225638bb7fa413f690a783", "fusion_lon": 0.0}, {"rental_uris": {"ios": "https://dc.lft.to/lastmile_qr_scan", "android": "https://dc.lft.to/lastmile_qr_scan"}, "type": "electric_scooter", "name": "175b779191f52c83d77f0b634ba354ff", "is_reserved": 0, "lon": -77.0307635, "is_disabled": 0, "fusion_lat": 0.0, "lat": 38.938879, "bike_id": "175b779191f52c83d77f0b634ba354ff", "fusion_lon": 0.0}, {"rental_uris": {"ios": "https://dc.lft.to/lastmile_qr_scan", "android": "https://dc.lft.to/lastmile_qr_scan"}, "type": "electric_scooter", "name": "5c13c2d32492512bb9b375cab90bd439", "is_reserved": 0, "lon": -77.04377433333333, "is_disabled": 0, "fusion_lat": 0.0, "lat": 38.920662666666665, "bike_id": "5c13c2d32492512bb9b375cab90bd439", "fusion_lon": 0.0}, {"rental_uris": {"ios": "https://dc.lft.to/lastmile_qr_scan", "android": "https://dc.lft.to/lastmile_qr_scan"}, "type": "electric_bike", "name": "46e496f7f8fc4d55c1050130475263c1", "is_reserved": 0, "lon": -77.012191, "is_disabled": 0, "fusion_lat": 0.0, "lat": 38.87198766666667, "bike_id": "46e496f7f8fc4d55c1050130475263c1", "fusion_lon": 0.0}, {"rental_uris": {"ios": "https://dc.lft.to/lastmile_qr_scan", "android": "https://dc.lft.to/lastmile_qr_scan"}, "type": "electric_scooter", "name": "a36cd1e346b451671a12f99353c46fe0", "is_reserved": 0, "lon": -76.988201, "is_disabled": 0, "fusion_lat": 0.0, "lat": 38.88164833333333, "bike_id": "a36cd1e346b451671a12f99353c46fe0", "fusion_lon": 0.0}, {"rental_uris": {"ios": "https://dc.lft.to/lastmile_qr_scan", "android": "https://dc.lft.to/lastmile_qr_scan"}, "type": "electric_bike", "name": "d3d540178829eecc060171ac45ad1043", "is_reserved": 0, "lon": -77.06528616666667, "is_disabled": 0, "fusion_lat": 0.0, "lat": 38.99231916666667, "bike_id": "d3d540178829eecc060171ac45ad1043", "fusion_lon": 0.0}, {"rental_uris": {"ios": "https://dc.lft.to/lastmile_qr_scan", "android": "https://dc.lft.to/lastmile_qr_scan"}, "type": "electric_scooter", "name": "86a5681e10e0ee20a038ec011c400ec1", "is_reserved": 0, "lon": -77.03487033333333, "is_disabled": 0, "fusion_lat": 0.0, "lat": 38.931074333333335, "bike_id": "86a5681e10e0ee20a038ec011c400ec1", "fusion_lon": 0.0}, {"rental_uris": {"ios": "https://dc.lft.to/lastmile_qr_scan", "android": "https://dc.lft.to/lastmile_qr_scan"}, "type": "electric_bike", "name": "acb94b7e5323a41af890c99adf000a24", "is_reserved": 0, "lon": -77.09721566666667, "is_disabled": 0, "fusion_lat": 0.0, "lat": 38.807384666666664, "bike_id": "acb94b7e5323a41af890c99adf000a24", "fusion_lon": 0.0}, {"rental_uris": {"ios": "https://dc.lft.to/lastmile_qr_scan", "android": "https://dc.lft.to/lastmile_qr_scan"}, "type": "electric_scooter", "name": "1c6297aaec3c4d2b7f7c367b280471be", "is_reserved": 0, "lon": -77.04632816666667, "is_disabled": 0, "fusion_lat": 0.0, "lat": 38.90131566666667, "bike_id": "1c6297aaec3c4d2b7f7c367b280471be", "fusion_lon": 0.0}, {"rental_uris": {"ios": "https://dc.lft.to/lastmile_qr_scan", "android": "https://dc.lft.to/lastmile_qr_scan"}, "type": "electric_bike", "name": "297c9a7f95e91496cfbdb6cd094cac3d", "is_reserved": 0, "lon": -77.02340216666667, "is_disabled": 0, "fusion_lat": 0.0, "lat": 38.879205666666664, "bike_id": "297c9a7f95e91496cfbdb6cd094cac3d", "fusion_lon": 0.0}, {"rental_uris": {"ios": "https://dc.lft.to/lastmile_qr_scan", "android": "https://dc.lft.to/lastmile_qr_scan"}, "type": "electric_scooter", "name": "3fb28b281ddfa4bc66cd9e3da8a910f4", "is_reserved": 0, "lon": -77.05504816666667, "is_disabled": 0, "fusion_lat": 0.0, "lat": 38.928394833333336, "bike_id": "3fb28b281ddfa4bc66cd9e3da8a910f4", "fusion_lon": 0.0}, {"rental_uris": {"ios": "https://dc.lft.to/lastmile_qr_scan", "android": "https://dc.lft.to/lastmile_qr_scan"}, "type": "electric_bike", "name": "ddee83218a10feb99e09f0fc9a2e3025", "is_reserved": 0, "lon": -77.2166525, "is_disabled": 0, "fusion_lat": 0.0, "lat": 38.89509116666667, "bike_id": "ddee83218a10feb99e09f0fc9a2e3025", "fusion_lon": 0.0}, {"rental_uris": {"ios": "https://dc.lft.to/lastmile_qr_scan", "android": "https://dc.lft.to/lastmile_qr_scan"}, "type": "electric_scooter", "name": "eaa2b4755ad1db8a8e8b7c52dfa99539", "is_reserved": 0, "lon": -77.02688416666666, "is_disabled": 0, "fusion_lat": 0.0, "lat": 38.916918333333335, "bike_id": "eaa2b4755ad1db8a8e8b7c52dfa99539", "fusion_lon": 0.0}, {"rental_uris": {"ios": "https://dc.lft.to/lastmile_qr_scan", "android": "https://dc.lft.to/lastmile_qr_scan"}, "type": "electric_scooter", "name": "1dd9161d70af51a8b3f43aee55fcf006", "is_reserved": 0, "lon": -77.043057, "is_disabled": 0, "fusion_lat": 0.0, "lat": 38.908948333333335, "bike_id": "1dd9161d70af51a8b3f43aee55fcf006", "fusion_lon": 0.0}, {"rental_uris": {"ios": "https://dc.lft.to/lastmile_qr_scan", "android": "https://dc.lft.to/lastmile_qr_scan"}, "type": "electric_scooter", "name": "f331fe7d92e8200525db0c301b8c8d8e", "is_reserved": 0, "lon": -76.9485275, "is_disabled": 0, "fusion_lat": 0.0, "lat": 38.88309816666667, "bike_id": "f331fe7d92e8200525db0c301b8c8d8e", "fusion_lon": 0.0}, {"rental_uris": {"ios": "https://dc.lft.to/lastmile_qr_scan", "android": "https://dc.lft.to/lastmile_qr_scan"}, "type": "electric_scooter", "name": "40d71913c2beeab275c56d84295146a5", "is_reserved": 0, "lon": -77.02083516666667, "is_disabled": 0, "fusion_lat": 0.0, "lat": 38.92404666666667, "bike_id": "40d71913c2beeab275c56d84295146a5", "fusion_lon": 0.0}, {"rental_uris": {"ios": "https://dc.lft.to/lastmile_qr_scan", "android": "https://dc.lft.to/lastmile_qr_scan"}, "type": "electric_scooter", "name": "b9eae7f15385977d13611078bdc0187f", "is_reserved": 0, "lon": -77.0035845, "is_disabled": 0, "fusion_lat": 0.0, "lat": 38.89266666666666, "bike_id": "b9eae7f15385977d13611078bdc0187f", "fusion_lon": 0.0}, {"rental_uris": {"ios": "https://dc.lft.to/lastmile_qr_scan", "android": "https://dc.lft.to/lastmile_qr_scan"}, "type": "electric_scooter", "name": "15004f8d319cff89493ef71e0b88614e", "is_reserved": 0, "lon": -77.023888, "is_disabled": 0, "fusion_lat": 0.0, "lat": 38.932002833333335, "bike_id": "15004f8d319cff89493ef71e0b88614e", "fusion_lon": 0.0}, {"rental_uris": {"ios": "https://dc.lft.to/lastmile_qr_scan", "android": "https://dc.lft.to/lastmile_qr_scan"}, "type": "electric_scooter", "name": "d519748bf99f3dc6aea0de09a82448cc", "is_reserved": 0, "lon": -77.02121766666667, "is_disabled": 0, "fusion_lat": 0.0, "lat": 38.923713666666664, "bike_id": "d519748bf99f3dc6aea0de09a82448cc", "fusion_lon": 0.0}, {"rental_uris": {"ios": "https://dc.lft.to/lastmile_qr_scan", "android": "https://dc.lft.to/lastmile_qr_scan"}, "type": "electric_scooter", "name": "4936d12b73fe999282ef255854da2b94", "is_reserved": 0, "lon": -76.9810025, "is_disabled": 0, "fusion_lat": 0.0, "lat": 38.903982166666665, "bike_id": "4936d12b73fe999282ef255854da2b94", "fusion_lon": 0.0}, {"rental_uris": {"ios": "https://dc.lft.to/lastmile_qr_scan", "android": "https://dc.lft.to/lastmile_qr_scan"}, "type": "electric_scooter", "name": "be8d68c06297b15573518009eaa8dc08", "is_reserved": 0, "lon": -77.04057416666667, "is_disabled": 0, "fusion_lat": 0.0, "lat": 38.91739616666667, "bike_id": "be8d68c06297b15573518009eaa8dc08", "fusion_lon": 0.0}, {"rental_uris": {"ios": "https://dc.lft.to/lastmile_qr_scan", "android": "https://dc.lft.to/lastmile_qr_scan"}, "type": "electric_scooter", "name": "d414bd17455b9d422daa4a82cedb98b4", "is_reserved": 0, "lon": -77.02660216666666, "is_disabled": 0, "fusion_lat": 0.0, "lat": 38.938612, "bike_id": "d414bd17455b9d422daa4a82cedb98b4", "fusion_lon": 0.0}, {"rental_uris": {"ios": "https://dc.lft.to/lastmile_qr_scan", "android": "https://dc.lft.to/lastmile_qr_scan"}, "type": "electric_scooter", "name": "38c5603cc606bc1a0b4089db1b71f80f", "is_reserved": 0, "lon": -77.03872716666666, "is_disabled": 0, "fusion_lat": 0.0, "lat": 38.918813, "bike_id": "38c5603cc606bc1a0b4089db1b71f80f", "fusion_lon": 0.0}, {"rental_uris": {"ios": "https://dc.lft.to/lastmile_qr_scan", "android": "https://dc.lft.to/lastmile_qr_scan"}, "type": "electric_scooter", "name": "366cd516a41407627b184d161ae02e61", "is_reserved": 0, "lon": -77.02180883333334, "is_disabled": 0, "fusion_lat": 0.0, "lat": 38.894981333333334, "bike_id": "366cd516a41407627b184d161ae02e61", "fusion_lon": 0.0}, {"rental_uris": {"ios": "https://dc.lft.to/lastmile_qr_scan", "android": "https://dc.lft.to/lastmile_qr_scan"}, "type": "electric_scooter", "name": "5042a503ce43e73f612fa6f9a1411bbc", "is_reserved": 0, "lon": -77.05239633333333, "is_disabled": 0, "fusion_lat": 0.0, "lat": 38.924668, "bike_id": "5042a503ce43e73f612fa6f9a1411bbc", "fusion_lon": 0.0}, {"rental_uris": {"ios": "https://dc.lft.to/lastmile_qr_scan", "android": "https://dc.lft.to/lastmile_qr_scan"}, "type": "electric_scooter", "name": "d034f210229545e1006a3e85f8849798", "is_reserved": 0, "lon": -77.02131816666666, "is_disabled": 0, "fusion_lat": 0.0, "lat": 38.92412816666667, "bike_id": "d034f210229545e1006a3e85f8849798", "fusion_lon": 0.0}, {"rental_uris": {"ios": "https://dc.lft.to/lastmile_qr_scan", "android": "https://dc.lft.to/lastmile_qr_scan"}, "type": "electric_scooter", "name": "6332ce050845829a38c5eac583199e92", "is_reserved": 0, "lon": -77.01179183333333, "is_disabled": 0, "fusion_lat": 0.0, "lat": 38.89678983333334, "bike_id": "6332ce050845829a38c5eac583199e92", "fusion_lon": 0.0}, {"rental_uris": {"ios": "https://dc.lft.to/lastmile_qr_scan", "android": "https://dc.lft.to/lastmile_qr_scan"}, "type": "electric_scooter", "name": "e4cdf3e01b450149b750b2c18a89683e", "is_reserved": 0, "lon": -77.03069233333333, "is_disabled": 0, "fusion_lat": 0.0, "lat": 38.905568333333335, "bike_id": "e4cdf3e01b450149b750b2c18a89683e", "fusion_lon": 0.0}, {"rental_uris": {"ios": "https://dc.lft.to/lastmile_qr_scan", "android": "https://dc.lft.to/lastmile_qr_scan"}, "type": "electric_scooter", "name": "91269d6f5a2ac12a37f2fa1773deb458", "is_reserved": 0, "lon": -77.01612916666667, "is_disabled": 0, "fusion_lat": 0.0, "lat": 38.884904166666665, "bike_id": "91269d6f5a2ac12a37f2fa1773deb458", "fusion_lon": 0.0}, {"rental_uris": {"ios": "https://dc.lft.to/lastmile_qr_scan", "android": "https://dc.lft.to/lastmile_qr_scan"}, "type": "electric_bike", "name": "0f2e933db4ad4d5b0c53e9544cf0c5fb", "is_reserved": 0, "lon": -76.93668283333334, "is_disabled": 0, "fusion_lat": 0.0, "lat": 38.89454, "bike_id": "0f2e933db4ad4d5b0c53e9544cf0c5fb", "fusion_lon": 0.0}, {"rental_uris": {"ios": "https://dc.lft.to/lastmile_qr_scan", "android": "https://dc.lft.to/lastmile_qr_scan"}, "type": "electric_scooter", "name": "893b9ced1ed62d3b4004765b53224361", "is_reserved": 0, "lon": -77.02203566666667, "is_disabled": 0, "fusion_lat": 0.0, "lat": 38.92471, "bike_id": "893b9ced1ed62d3b4004765b53224361", "fusion_lon": 0.0}, {"rental_uris": {"ios": "https://dc.lft.to/lastmile_qr_scan", "android": "https://dc.lft.to/lastmile_qr_scan"}, "type": "electric_scooter", "name": "f1cc60c63d6d44e5441da0939adb1545", "is_reserved": 0, "lon": -76.98372166666667, "is_disabled": 0, "fusion_lat": 0.0, "lat": 38.860308, "bike_id": "f1cc60c63d6d44e5441da0939adb1545", "fusion_lon": 0.0}, {"rental_uris": {"ios": "https://dc.lft.to/lastmile_qr_scan", "android": "https://dc.lft.to/lastmile_qr_scan"}, "type": "electric_scooter", "name": "b9da85a6cb86d83e2ef9edd3c1a37072", "is_reserved": 0, "lon": -77.02485533333333, "is_disabled": 0, "fusion_lat": 0.0, "lat": 38.9197425, "bike_id": "b9da85a6cb86d83e2ef9edd3c1a37072", "fusion_lon": 0.0}, {"rental_uris": {"ios": "https://dc.lft.to/lastmile_qr_scan", "android": "https://dc.lft.to/lastmile_qr_scan"}, "type": "electric_scooter", "name": "dc1b6edefbac45c376622aadedb46c07", "is_reserved": 0, "lon": -77.000568, "is_disabled": 0, "fusion_lat": 0.0, "lat": 38.873406, "bike_id": "dc1b6edefbac45c376622aadedb46c07", "fusion_lon": 0.0}, {"rental_uris": {"ios": "https://dc.lft.to/lastmile_qr_scan", "android": "https://dc.lft.to/lastmile_qr_scan"}, "type": "electric_scooter", "name": "2a653bfff38dd7c81542943a86d9d833", "is_reserved": 0, "lon": -77.03246866666667, "is_disabled": 0, "fusion_lat": 0.0, "lat": 38.89228216666667, "bike_id": "2a653bfff38dd7c81542943a86d9d833", "fusion_lon": 0.0}, {"rental_uris": {"ios": "https://dc.lft.to/lastmile_qr_scan", "android": "https://dc.lft.to/lastmile_qr_scan"}, "type": "electric_scooter", "name": "9561fb145d3b8d3677b3da970146729a", "is_reserved": 0, "lon": -77.0477385, "is_disabled": 0, "fusion_lat": 0.0, "lat": 38.897924333333336, "bike_id": "9561fb145d3b8d3677b3da970146729a", "fusion_lon": 0.0}, {"rental_uris": {"ios": "https://dc.lft.to/lastmile_qr_scan", "android": "https://dc.lft.to/lastmile_qr_scan"}, "type": "electric_scooter", "name": "36681fa0f341dca2f85705215726ce84", "is_reserved": 0, "lon": -77.02551883333334, "is_disabled": 0, "fusion_lat": 0.0, "lat": 38.93088766666666, "bike_id": "36681fa0f341dca2f85705215726ce84", "fusion_lon": 0.0}, {"rental_uris": {"ios": "https://dc.lft.to/lastmile_qr_scan", "android": "https://dc.lft.to/lastmile_qr_scan"}, "type": "electric_scooter", "name": "e23c11e644ea1eb894f0466118c7ce53", "is_reserved": 0, "lon": -77.037736, "is_disabled": 0, "fusion_lat": 0.0, "lat": 38.901605833333335, "bike_id": "e23c11e644ea1eb894f0466118c7ce53", "fusion_lon": 0.0}, {"rental_uris": {"ios": "https://dc.lft.to/lastmile_qr_scan", "android": "https://dc.lft.to/lastmile_qr_scan"}, "type": "electric_scooter", "name": "c25cb5ca760dbdd8468b2cbde5528309", "is_reserved": 0, "lon": -77.04190283333334, "is_disabled": 0, "fusion_lat": 0.0, "lat": 38.91669483333333, "bike_id": "c25cb5ca760dbdd8468b2cbde5528309", "fusion_lon": 0.0}, {"rental_uris": {"ios": "https://dc.lft.to/lastmile_qr_scan", "android": "https://dc.lft.to/lastmile_qr_scan"}, "type": "electric_scooter", "name": "2dc9eab9c48c4170e82ff7f5d23533b8", "is_reserved": 0, "lon": -77.0179545, "is_disabled": 0, "fusion_lat": 0.0, "lat": 38.886017333333335, "bike_id": "2dc9eab9c48c4170e82ff7f5d23533b8", "fusion_lon": 0.0}, {"rental_uris": {"ios": "https://dc.lft.to/lastmile_qr_scan", "android": "https://dc.lft.to/lastmile_qr_scan"}, "type": "electric_scooter", "name": "9fdd5da44041ddada7c2c07460b3d6c8", "is_reserved": 0, "lon": -77.05914783333333, "is_disabled": 0, "fusion_lat": 0.0, "lat": 38.90250666666667, "bike_id": "9fdd5da44041ddada7c2c07460b3d6c8", "fusion_lon": 0.0}, {"rental_uris": {"ios": "https://dc.lft.to/lastmile_qr_scan", "android": "https://dc.lft.to/lastmile_qr_scan"}, "type": "electric_scooter", "name": "a966064b23868c8e8b3239351c183d60", "is_reserved": 0, "lon": -77.02804033333334, "is_disabled": 0, "fusion_lat": 0.0, "lat": 38.9055585, "bike_id": "a966064b23868c8e8b3239351c183d60", "fusion_lon": 0.0}, {"rental_uris": {"ios": "https://dc.lft.to/lastmile_qr_scan", "android": "https://dc.lft.to/lastmile_qr_scan"}, "type": "electric_bike", "name": "468a2ba2a169854e3ab2f2c578088cb6", "is_reserved": 0, "lon": -76.98346333333333, "is_disabled": 0, "fusion_lat": 0.0, "lat": 38.86259283333333, "bike_id": "468a2ba2a169854e3ab2f2c578088cb6", "fusion_lon": 0.0}, {"rental_uris": {"ios": "https://dc.lft.to/lastmile_qr_scan", "android": "https://dc.lft.to/lastmile_qr_scan"}, "type": "electric_bike", "name": "cb614f64e573ae036b5c9f5028e3f2ec", "is_reserved": 0, "lon": -77.12985183333333, "is_disabled": 0, "fusion_lat": 0.0, "lat": 38.799809333333336, "bike_id": "cb614f64e573ae036b5c9f5028e3f2ec", "fusion_lon": 0.0}, {"rental_uris": {"ios": "https://dc.lft.to/lastmile_qr_scan", "android": "https://dc.lft.to/lastmile_qr_scan"}, "type": "electric_scooter", "name": "a24076ca1fd9a54940c20fbed22b44a2", "is_reserved": 0, "lon": -76.93211316666667, "is_disabled": 0, "fusion_lat": 0.0, "lat": 38.89665816666667, "bike_id": "a24076ca1fd9a54940c20fbed22b44a2", "fusion_lon": 0.0}, {"rental_uris": {"ios": "https://dc.lft.to/lastmile_qr_scan", "android": "https://dc.lft.to/lastmile_qr_scan"}, "type": "electric_scooter", "name": "9f2febcabe396418d2aed5d297ffc8ea", "is_reserved": 0, "lon": -77.04863383333333, "is_disabled": 0, "fusion_lat": 0.0, "lat": 38.89222566666667, "bike_id": "9f2febcabe396418d2aed5d297ffc8ea", "fusion_lon": 0.0}, {"rental_uris": {"ios": "https://dc.lft.to/lastmile_qr_scan", "android": "https://dc.lft.to/lastmile_qr_scan"}, "type": "electric_scooter", "name": "b2c1497a1cd1acd8fdd2aa1a3dcca914", "is_reserved": 0, "lon": -77.0612045, "is_disabled": 0, "fusion_lat": 0.0, "lat": 38.905992166666664, "bike_id": "b2c1497a1cd1acd8fdd2aa1a3dcca914", "fusion_lon": 0.0}, {"rental_uris": {"ios": "https://dc.lft.to/lastmile_qr_scan", "android": "https://dc.lft.to/lastmile_qr_scan"}, "type": "electric_bike", "name": "b5ab3c5a7e442be69ffb343a4930c7e0", "is_reserved": 0, "lon": -76.91803333333333, "is_disabled": 0, "fusion_lat": 0.0, "lat": 39.00000633333333, "bike_id": "b5ab3c5a7e442be69ffb343a4930c7e0", "fusion_lon": 0.0}, {"rental_uris": {"ios": "https://dc.lft.to/lastmile_qr_scan", "android": "https://dc.lft.to/lastmile_qr_scan"}, "type": "electric_scooter", "name": "9ed6fbb1ff5445f0f4e12844a5614aeb", "is_reserved": 0, "lon": -77.0055545, "is_disabled": 0, "fusion_lat": 0.0, "lat": 38.875276, "bike_id": "9ed6fbb1ff5445f0f4e12844a5614aeb", "fusion_lon": 0.0}, {"rental_uris": {"ios": "https://dc.lft.to/lastmile_qr_scan", "android": "https://dc.lft.to/lastmile_qr_scan"}, "type": "electric_scooter", "name": "05ad52604d29ccd4689dcedf654ed76d", "is_reserved": 0, "lon": -77.01220483333333, "is_disabled": 0, "fusion_lat": 0.0, "lat": 38.9203285, "bike_id": "05ad52604d29ccd4689dcedf654ed76d", "fusion_lon": 0.0}, {"rental_uris": {"ios": "https://dc.lft.to/lastmile_qr_scan", "android": "https://dc.lft.to/lastmile_qr_scan"}, "type": "electric_bike", "name": "4da5596a52563a75c9059b771c8828f3", "is_reserved": 0, "lon": -77.07161716666667, "is_disabled": 0, "fusion_lat": 0.0, "lat": 38.907912, "bike_id": "4da5596a52563a75c9059b771c8828f3", "fusion_lon": 0.0}, {"rental_uris": {"ios": "https://dc.lft.to/lastmile_qr_scan", "android": "https://dc.lft.to/lastmile_qr_scan"}, "type": "electric_scooter", "name": "b19899564958f6bb9d5360cb65b3400c", "is_reserved": 0, "lon": -77.05220066666666, "is_disabled": 0, "fusion_lat": 0.0, "lat": 38.9250045, "bike_id": "b19899564958f6bb9d5360cb65b3400c", "fusion_lon": 0.0}, {"rental_uris": {"ios": "https://dc.lft.to/lastmile_qr_scan", "android": "https://dc.lft.to/lastmile_qr_scan"}, "type": "electric_bike", "name": "cba4b29ba4112fb6d18b3ffbe1f909c6", "is_reserved": 0, "lon": -76.96103266666667, "is_disabled": 0, "fusion_lat": 0.0, "lat": 38.94963033333333, "bike_id": "cba4b29ba4112fb6d18b3ffbe1f909c6", "fusion_lon": 0.0}, {"rental_uris": {"ios": "https://dc.lft.to/lastmile_qr_scan", "android": "https://dc.lft.to/lastmile_qr_scan"}, "type": "electric_scooter", "name": "094720ad12aff28d5fc4cb59d0c80674", "is_reserved": 0, "lon": -77.0110125, "is_disabled": 0, "fusion_lat": 0.0, "lat": 38.885371, "bike_id": "094720ad12aff28d5fc4cb59d0c80674", "fusion_lon": 0.0}, {"rental_uris": {"ios": "https://dc.lft.to/lastmile_qr_scan", "android": "https://dc.lft.to/lastmile_qr_scan"}, "type": "electric_scooter", "name": "96bc807f0f4b6aeb3cef98f902ca9265", "is_reserved": 0, "lon": -77.02684716666667, "is_disabled": 0, "fusion_lat": 0.0, "lat": 38.899569666666665, "bike_id": "96bc807f0f4b6aeb3cef98f902ca9265", "fusion_lon": 0.0}, {"rental_uris": {"ios": "https://dc.lft.to/lastmile_qr_scan", "android": "https://dc.lft.to/lastmile_qr_scan"}, "type": "electric_scooter", "name": "5eae4a244d01cc104a13f419437b843f", "is_reserved": 0, "lon": -77.04061883333334, "is_disabled": 0, "fusion_lat": 0.0, "lat": 38.917664333333335, "bike_id": "5eae4a244d01cc104a13f419437b843f", "fusion_lon": 0.0}, {"rental_uris": {"ios": "https://dc.lft.to/lastmile_qr_scan", "android": "https://dc.lft.to/lastmile_qr_scan"}, "type": "electric_scooter", "name": "4ebde3cec0478a60cc2385a5283bc2b4", "is_reserved": 0, "lon": -77.03582266666666, "is_disabled": 0, "fusion_lat": 0.0, "lat": 38.906296, "bike_id": "4ebde3cec0478a60cc2385a5283bc2b4", "fusion_lon": 0.0}, {"rental_uris": {"ios": "https://dc.lft.to/lastmile_qr_scan", "android": "https://dc.lft.to/lastmile_qr_scan"}, "type": "electric_scooter", "name": "caf88be3df79d6945af7f11f2d8a0dd9", "is_reserved": 0, "lon": -77.03145483333333, "is_disabled": 0, "fusion_lat": 0.0, "lat": 38.92016383333333, "bike_id": "caf88be3df79d6945af7f11f2d8a0dd9", "fusion_lon": 0.0}, {"rental_uris": {"ios": "https://dc.lft.to/lastmile_qr_scan", "android": "https://dc.lft.to/lastmile_qr_scan"}, "type": "electric_scooter", "name": "dac51e69864ccbfcc14e99a31eed5162", "is_reserved": 0, "lon": -77.02579216666666, "is_disabled": 0, "fusion_lat": 0.0, "lat": 38.88091516666667, "bike_id": "dac51e69864ccbfcc14e99a31eed5162", "fusion_lon": 0.0}, {"rental_uris": {"ios": "https://dc.lft.to/lastmile_qr_scan", "android": "https://dc.lft.to/lastmile_qr_scan"}, "type": "electric_scooter", "name": "7cdd06b244b907003171f2f4ddfcc4cc", "is_reserved": 0, "lon": -77.057861, "is_disabled": 0, "fusion_lat": 0.0, "lat": 38.90512233333333, "bike_id": "7cdd06b244b907003171f2f4ddfcc4cc", "fusion_lon": 0.0}, {"rental_uris": {"ios": "https://dc.lft.to/lastmile_qr_scan", "android": "https://dc.lft.to/lastmile_qr_scan"}, "type": "electric_scooter", "name": "56e1f464899251cad70155c823988809", "is_reserved": 0, "lon": -77.046218, "is_disabled": 0, "fusion_lat": 0.0, "lat": 38.900209833333335, "bike_id": "56e1f464899251cad70155c823988809", "fusion_lon": 0.0}, {"rental_uris": {"ios": "https://dc.lft.to/lastmile_qr_scan", "android": "https://dc.lft.to/lastmile_qr_scan"}, "type": "electric_scooter", "name": "c09b548ec1e36c8804205aad5329b186", "is_reserved": 0, "lon": -77.005291, "is_disabled": 0, "fusion_lat": 0.0, "lat": 38.88512633333333, "bike_id": "c09b548ec1e36c8804205aad5329b186", "fusion_lon": 0.0}, {"rental_uris": {"ios": "https://dc.lft.to/lastmile_qr_scan", "android": "https://dc.lft.to/lastmile_qr_scan"}, "type": "electric_scooter", "name": "061a260f76a5cc51698416551dbe8a38", "is_reserved": 0, "lon": -77.04866683333333, "is_disabled": 0, "fusion_lat": 0.0, "lat": 38.892196, "bike_id": "061a260f76a5cc51698416551dbe8a38", "fusion_lon": 0.0}, {"rental_uris": {"ios": "https://dc.lft.to/lastmile_qr_scan", "android": "https://dc.lft.to/lastmile_qr_scan"}, "type": "electric_scooter", "name": "178d3a9547e4b5652dcdf49b0c00e9b8", "is_reserved": 0, "lon": -77.025385, "is_disabled": 0, "fusion_lat": 0.0, "lat": 38.919907333333335, "bike_id": "178d3a9547e4b5652dcdf49b0c00e9b8", "fusion_lon": 0.0}, {"rental_uris": {"ios": "https://dc.lft.to/lastmile_qr_scan", "android": "https://dc.lft.to/lastmile_qr_scan"}, "type": "electric_scooter", "name": "63657841c4bee1bc4a34621c4f9e92d8", "is_reserved": 0, "lon": -77.03128183333334, "is_disabled": 0, "fusion_lat": 0.0, "lat": 38.920434666666665, "bike_id": "63657841c4bee1bc4a34621c4f9e92d8", "fusion_lon": 0.0}, {"rental_uris": {"ios": "https://dc.lft.to/lastmile_qr_scan", "android": "https://dc.lft.to/lastmile_qr_scan"}, "type": "electric_scooter", "name": "dfbde44d8278ed1cc55197d73743e468", "is_reserved": 0, "lon": -77.03815116666667, "is_disabled": 0, "fusion_lat": 0.0, "lat": 38.91524, "bike_id": "dfbde44d8278ed1cc55197d73743e468", "fusion_lon": 0.0}, {"rental_uris": {"ios": "https://dc.lft.to/lastmile_qr_scan", "android": "https://dc.lft.to/lastmile_qr_scan"}, "type": "electric_scooter", "name": "1bb1d8e67f8d7c5a687ada612e2d117e", "is_reserved": 0, "lon": -77.00744866666666, "is_disabled": 0, "fusion_lat": 0.0, "lat": 38.87621583333333, "bike_id": "1bb1d8e67f8d7c5a687ada612e2d117e", "fusion_lon": 0.0}, {"rental_uris": {"ios": "https://dc.lft.to/lastmile_qr_scan", "android": "https://dc.lft.to/lastmile_qr_scan"}, "type": "electric_scooter", "name": "999cd1aacda4604ae2fee404720060e8", "is_reserved": 0, "lon": -77.04533083333334, "is_disabled": 0, "fusion_lat": 0.0, "lat": 38.90057433333333, "bike_id": "999cd1aacda4604ae2fee404720060e8", "fusion_lon": 0.0}, {"rental_uris": {"ios": "https://dc.lft.to/lastmile_qr_scan", "android": "https://dc.lft.to/lastmile_qr_scan"}, "type": "electric_scooter", "name": "960d2d1ebac3ccd8940fb68d59e585ab", "is_reserved": 0, "lon": -77.032614, "is_disabled": 0, "fusion_lat": 0.0, "lat": 38.92957166666667, "bike_id": "960d2d1ebac3ccd8940fb68d59e585ab", "fusion_lon": 0.0}, {"rental_uris": {"ios": "https://dc.lft.to/lastmile_qr_scan", "android": "https://dc.lft.to/lastmile_qr_scan"}, "type": "electric_scooter", "name": "1f4b567dfd63390678e80e154c828550", "is_reserved": 0, "lon": -77.03126416666667, "is_disabled": 0, "fusion_lat": 0.0, "lat": 38.9169225, "bike_id": "1f4b567dfd63390678e80e154c828550", "fusion_lon": 0.0}, {"rental_uris": {"ios": "https://dc.lft.to/lastmile_qr_scan", "android": "https://dc.lft.to/lastmile_qr_scan"}, "type": "electric_scooter", "name": "2a717471ee9d62c897e8db34c078b160", "is_reserved": 0, "lon": -77.0185155, "is_disabled": 0, "fusion_lat": 0.0, "lat": 38.954317, "bike_id": "2a717471ee9d62c897e8db34c078b160", "fusion_lon": 0.0}, {"rental_uris": {"ios": "https://dc.lft.to/lastmile_qr_scan", "android": "https://dc.lft.to/lastmile_qr_scan"}, "type": "electric_scooter", "name": "3093e5696babd9a6d3f2c1cce8cfb485", "is_reserved": 0, "lon": -77.02403033333333, "is_disabled": 0, "fusion_lat": 0.0, "lat": 38.915817, "bike_id": "3093e5696babd9a6d3f2c1cce8cfb485", "fusion_lon": 0.0}, {"rental_uris": {"ios": "https://dc.lft.to/lastmile_qr_scan", "android": "https://dc.lft.to/lastmile_qr_scan"}, "type": "electric_scooter", "name": "7615052e84d6ed3b71e526d1ffd9668c", "is_reserved": 0, "lon": -77.01186333333334, "is_disabled": 0, "fusion_lat": 0.0, "lat": 38.89659116666667, "bike_id": "7615052e84d6ed3b71e526d1ffd9668c", "fusion_lon": 0.0}, {"rental_uris": {"ios": "https://dc.lft.to/lastmile_qr_scan", "android": "https://dc.lft.to/lastmile_qr_scan"}, "type": "electric_scooter", "name": "8330bf77556e075fa28d09613a8abc3b", "is_reserved": 0, "lon": -76.99915533333333, "is_disabled": 0, "fusion_lat": 0.0, "lat": 38.92459366666667, "bike_id": "8330bf77556e075fa28d09613a8abc3b", "fusion_lon": 0.0}, {"rental_uris": {"ios": "https://dc.lft.to/lastmile_qr_scan", "android": "https://dc.lft.to/lastmile_qr_scan"}, "type": "electric_scooter", "name": "c4744d7ac2af548633a7c97548f6f125", "is_reserved": 0, "lon": -76.98988333333334, "is_disabled": 0, "fusion_lat": 0.0, "lat": 38.91755033333333, "bike_id": "c4744d7ac2af548633a7c97548f6f125", "fusion_lon": 0.0}, {"rental_uris": {"ios": "https://dc.lft.to/lastmile_qr_scan", "android": "https://dc.lft.to/lastmile_qr_scan"}, "type": "electric_scooter", "name": "b75f951c52302bc2989ac7af4752ea0d", "is_reserved": 0, "lon": -77.041561, "is_disabled": 0, "fusion_lat": 0.0, "lat": 38.91932583333333, "bike_id": "b75f951c52302bc2989ac7af4752ea0d", "fusion_lon": 0.0}, {"rental_uris": {"ios": "https://dc.lft.to/lastmile_qr_scan", "android": "https://dc.lft.to/lastmile_qr_scan"}, "type": "electric_scooter", "name": "31a1ac3b42fdaa88e2eab3779c206c92", "is_reserved": 0, "lon": -77.05114216666666, "is_disabled": 0, "fusion_lat": 0.0, "lat": 38.90373783333333, "bike_id": "31a1ac3b42fdaa88e2eab3779c206c92", "fusion_lon": 0.0}, {"rental_uris": {"ios": "https://dc.lft.to/lastmile_qr_scan", "android": "https://dc.lft.to/lastmile_qr_scan"}, "type": "electric_scooter", "name": "98d67c8bd71a40c068eb6cd79241b232", "is_reserved": 0, "lon": -77.03022766666666, "is_disabled": 0, "fusion_lat": 0.0, "lat": 38.87848183333333, "bike_id": "98d67c8bd71a40c068eb6cd79241b232", "fusion_lon": 0.0}, {"rental_uris": {"ios": "https://dc.lft.to/lastmile_qr_scan", "android": "https://dc.lft.to/lastmile_qr_scan"}, "type": "electric_scooter", "name": "4cbbe39532f8d64d0b81f72ea8c63de4", "is_reserved": 0, "lon": -77.0290475, "is_disabled": 0, "fusion_lat": 0.0, "lat": 38.917148833333336, "bike_id": "4cbbe39532f8d64d0b81f72ea8c63de4", "fusion_lon": 0.0}, {"rental_uris": {"ios": "https://dc.lft.to/lastmile_qr_scan", "android": "https://dc.lft.to/lastmile_qr_scan"}, "type": "electric_scooter", "name": "fad24b0512f189a006253cf6f3ea769d", "is_reserved": 0, "lon": -77.04638333333334, "is_disabled": 0, "fusion_lat": 0.0, "lat": 38.91605083333334, "bike_id": "fad24b0512f189a006253cf6f3ea769d", "fusion_lon": 0.0}, {"rental_uris": {"ios": "https://dc.lft.to/lastmile_qr_scan", "android": "https://dc.lft.to/lastmile_qr_scan"}, "type": "electric_scooter", "name": "a7dc70c7a243bd3a94fcb70085ecc605", "is_reserved": 0, "lon": -76.92661416666667, "is_disabled": 0, "fusion_lat": 0.0, "lat": 38.8823155, "bike_id": "a7dc70c7a243bd3a94fcb70085ecc605", "fusion_lon": 0.0}, {"rental_uris": {"ios": "https://dc.lft.to/lastmile_qr_scan", "android": "https://dc.lft.to/lastmile_qr_scan"}, "type": "electric_scooter", "name": "92acedf622d99c0cc648e2ce738cb375", "is_reserved": 0, "lon": -76.9949345, "is_disabled": 0, "fusion_lat": 0.0, "lat": 38.86221716666667, "bike_id": "92acedf622d99c0cc648e2ce738cb375", "fusion_lon": 0.0}, {"rental_uris": {"ios": "https://dc.lft.to/lastmile_qr_scan", "android": "https://dc.lft.to/lastmile_qr_scan"}, "type": "electric_scooter", "name": "174c0f92caf0a58e468c711df9d3fce8", "is_reserved": 0, "lon": -77.0104045, "is_disabled": 0, "fusion_lat": 0.0, "lat": 38.91105983333333, "bike_id": "174c0f92caf0a58e468c711df9d3fce8", "fusion_lon": 0.0}, {"rental_uris": {"ios": "https://dc.lft.to/lastmile_qr_scan", "android": "https://dc.lft.to/lastmile_qr_scan"}, "type": "electric_scooter", "name": "f4428d9f73d74356af497dc6e83d54cb", "is_reserved": 0, "lon": -77.03482566666666, "is_disabled": 0, "fusion_lat": 0.0, "lat": 38.905829833333335, "bike_id": "f4428d9f73d74356af497dc6e83d54cb", "fusion_lon": 0.0}, {"rental_uris": {"ios": "https://dc.lft.to/lastmile_qr_scan", "android": "https://dc.lft.to/lastmile_qr_scan"}, "type": "electric_scooter", "name": "885d9d1eb3689a9fa0d6ce8ec883ba13", "is_reserved": 0, "lon": -77.04504666666666, "is_disabled": 0, "fusion_lat": 0.0, "lat": 38.900831, "bike_id": "885d9d1eb3689a9fa0d6ce8ec883ba13", "fusion_lon": 0.0}, {"rental_uris": {"ios": "https://dc.lft.to/lastmile_qr_scan", "android": "https://dc.lft.to/lastmile_qr_scan"}, "type": "electric_scooter", "name": "4e6f040341a73f2b40c11490df608b60", "is_reserved": 0, "lon": -77.04346316666667, "is_disabled": 0, "fusion_lat": 0.0, "lat": 38.907493, "bike_id": "4e6f040341a73f2b40c11490df608b60", "fusion_lon": 0.0}, {"rental_uris": {"ios": "https://dc.lft.to/lastmile_qr_scan", "android": "https://dc.lft.to/lastmile_qr_scan"}, "type": "electric_scooter", "name": "c5e59cdeacc66e71314fff72f98b660d", "is_reserved": 0, "lon": -76.994845, "is_disabled": 0, "fusion_lat": 0.0, "lat": 38.862181666666665, "bike_id": "c5e59cdeacc66e71314fff72f98b660d", "fusion_lon": 0.0}, {"rental_uris": {"ios": "https://dc.lft.to/lastmile_qr_scan", "android": "https://dc.lft.to/lastmile_qr_scan"}, "type": "electric_scooter", "name": "39d9b7f8e7877f2fe7b9841621f5768d", "is_reserved": 0, "lon": -76.99148766666667, "is_disabled": 0, "fusion_lat": 0.0, "lat": 38.90024616666667, "bike_id": "39d9b7f8e7877f2fe7b9841621f5768d", "fusion_lon": 0.0}, {"rental_uris": {"ios": "https://dc.lft.to/lastmile_qr_scan", "android": "https://dc.lft.to/lastmile_qr_scan"}, "type": "electric_scooter", "name": "6a8275f80ec5a96b84d53d4ca818d826", "is_reserved": 0, "lon": -77.072785, "is_disabled": 0, "fusion_lat": 0.0, "lat": 38.935398, "bike_id": "6a8275f80ec5a96b84d53d4ca818d826", "fusion_lon": 0.0}, {"rental_uris": {"ios": "https://dc.lft.to/lastmile_qr_scan", "android": "https://dc.lft.to/lastmile_qr_scan"}, "type": "electric_bike", "name": "62d71fcbfa0e8c03201544d9ee158117", "is_reserved": 0, "lon": -77.05309766666667, "is_disabled": 0, "fusion_lat": 0.0, "lat": 38.820372666666664, "bike_id": "62d71fcbfa0e8c03201544d9ee158117", "fusion_lon": 0.0}, {"rental_uris": {"ios": "https://dc.lft.to/lastmile_qr_scan", "android": "https://dc.lft.to/lastmile_qr_scan"}, "type": "electric_scooter", "name": "7bc07ab924f5bfb831c07a50c0098818", "is_reserved": 0, "lon": -77.03263166666666, "is_disabled": 0, "fusion_lat": 0.0, "lat": 38.93715366666667, "bike_id": "7bc07ab924f5bfb831c07a50c0098818", "fusion_lon": 0.0}, {"rental_uris": {"ios": "https://dc.lft.to/lastmile_qr_scan", "android": "https://dc.lft.to/lastmile_qr_scan"}, "type": "electric_scooter", "name": "d47a7cadc58da50bbd46e7de8b670243", "is_reserved": 0, "lon": -77.0337305, "is_disabled": 0, "fusion_lat": 0.0, "lat": 38.938779333333336, "bike_id": "d47a7cadc58da50bbd46e7de8b670243", "fusion_lon": 0.0}, {"rental_uris": {"ios": "https://dc.lft.to/lastmile_qr_scan", "android": "https://dc.lft.to/lastmile_qr_scan"}, "type": "electric_scooter", "name": "0f6067d0ae7ed68d5587ec3518bcd142", "is_reserved": 0, "lon": -77.0317935, "is_disabled": 0, "fusion_lat": 0.0, "lat": 38.921120333333334, "bike_id": "0f6067d0ae7ed68d5587ec3518bcd142", "fusion_lon": 0.0}, {"rental_uris": {"ios": "https://dc.lft.to/lastmile_qr_scan", "android": "https://dc.lft.to/lastmile_qr_scan"}, "type": "electric_scooter", "name": "e860c420e24e2dcda5ba341b9750f834", "is_reserved": 0, "lon": -77.04782266666666, "is_disabled": 0, "fusion_lat": 0.0, "lat": 38.908734333333335, "bike_id": "e860c420e24e2dcda5ba341b9750f834", "fusion_lon": 0.0}, {"rental_uris": {"ios": "https://dc.lft.to/lastmile_qr_scan", "android": "https://dc.lft.to/lastmile_qr_scan"}, "type": "electric_scooter", "name": "53220525739e383427214164b4adddbb", "is_reserved": 0, "lon": -76.99676083333334, "is_disabled": 0, "fusion_lat": 0.0, "lat": 38.927083833333334, "bike_id": "53220525739e383427214164b4adddbb", "fusion_lon": 0.0}, {"rental_uris": {"ios": "https://dc.lft.to/lastmile_qr_scan", "android": "https://dc.lft.to/lastmile_qr_scan"}, "type": "electric_scooter", "name": "45384002fd1b003945b5037b184d798d", "is_reserved": 0, "lon": -77.00220816666666, "is_disabled": 0, "fusion_lat": 0.0, "lat": 38.89456766666667, "bike_id": "45384002fd1b003945b5037b184d798d", "fusion_lon": 0.0}, {"rental_uris": {"ios": "https://dc.lft.to/lastmile_qr_scan", "android": "https://dc.lft.to/lastmile_qr_scan"}, "type": "electric_scooter", "name": "e810006ef43d575cc2e5c161c7ad0281", "is_reserved": 0, "lon": -77.00738816666667, "is_disabled": 0, "fusion_lat": 0.0, "lat": 38.898394833333334, "bike_id": "e810006ef43d575cc2e5c161c7ad0281", "fusion_lon": 0.0}, {"rental_uris": {"ios": "https://dc.lft.to/lastmile_qr_scan", "android": "https://dc.lft.to/lastmile_qr_scan"}, "type": "electric_scooter", "name": "068c7e9861b3a8530f3e473d9a171d03", "is_reserved": 0, "lon": -77.01759183333333, "is_disabled": 0, "fusion_lat": 0.0, "lat": 38.876733333333334, "bike_id": "068c7e9861b3a8530f3e473d9a171d03", "fusion_lon": 0.0}, {"rental_uris": {"ios": "https://dc.lft.to/lastmile_qr_scan", "android": "https://dc.lft.to/lastmile_qr_scan"}, "type": "electric_scooter", "name": "bc4bfbd60d9c9d1279a4ba904c1f2f80", "is_reserved": 0, "lon": -77.031795, "is_disabled": 0, "fusion_lat": 0.0, "lat": 38.9142185, "bike_id": "bc4bfbd60d9c9d1279a4ba904c1f2f80", "fusion_lon": 0.0}, {"rental_uris": {"ios": "https://dc.lft.to/lastmile_qr_scan", "android": "https://dc.lft.to/lastmile_qr_scan"}, "type": "electric_scooter", "name": "32e5e4efef4896f4aaec2834c9570da7", "is_reserved": 0, "lon": -77.02889616666667, "is_disabled": 0, "fusion_lat": 0.0, "lat": 38.90314333333333, "bike_id": "32e5e4efef4896f4aaec2834c9570da7", "fusion_lon": 0.0}, {"rental_uris": {"ios": "https://dc.lft.to/lastmile_qr_scan", "android": "https://dc.lft.to/lastmile_qr_scan"}, "type": "electric_scooter", "name": "1d31d87b27cb34a2772e55db741bc098", "is_reserved": 0, "lon": -77.02136783333333, "is_disabled": 0, "fusion_lat": 0.0, "lat": 38.92491783333333, "bike_id": "1d31d87b27cb34a2772e55db741bc098", "fusion_lon": 0.0}, {"rental_uris": {"ios": "https://dc.lft.to/lastmile_qr_scan", "android": "https://dc.lft.to/lastmile_qr_scan"}, "type": "electric_scooter", "name": "9609430204a0dd9c38906243525794f1", "is_reserved": 0, "lon": -77.030489, "is_disabled": 0, "fusion_lat": 0.0, "lat": 38.923943, "bike_id": "9609430204a0dd9c38906243525794f1", "fusion_lon": 0.0}, {"rental_uris": {"ios": "https://dc.lft.to/lastmile_qr_scan", "android": "https://dc.lft.to/lastmile_qr_scan"}, "type": "electric_scooter", "name": "8b95b20edf290286d76f930da3cc006b", "is_reserved": 0, "lon": -77.06350383333333, "is_disabled": 0, "fusion_lat": 0.0, "lat": 38.908529333333334, "bike_id": "8b95b20edf290286d76f930da3cc006b", "fusion_lon": 0.0}, {"rental_uris": {"ios": "https://dc.lft.to/lastmile_qr_scan", "android": "https://dc.lft.to/lastmile_qr_scan"}, "type": "electric_bike", "name": "56620c78b99af2ac5c69af3bf4c5e2ad", "is_reserved": 0, "lon": -76.98276516666667, "is_disabled": 0, "fusion_lat": 0.0, "lat": 38.8467325, "bike_id": "56620c78b99af2ac5c69af3bf4c5e2ad", "fusion_lon": 0.0}, {"rental_uris": {"ios": "https://dc.lft.to/lastmile_qr_scan", "android": "https://dc.lft.to/lastmile_qr_scan"}, "type": "electric_scooter", "name": "fd947f1dc69f3d135b3eb3a57e7a1fd7", "is_reserved": 0, "lon": -77.0490305, "is_disabled": 0, "fusion_lat": 0.0, "lat": 38.902638333333336, "bike_id": "fd947f1dc69f3d135b3eb3a57e7a1fd7", "fusion_lon": 0.0}, {"rental_uris": {"ios": "https://dc.lft.to/lastmile_qr_scan", "android": "https://dc.lft.to/lastmile_qr_scan"}, "type": "electric_bike", "name": "c7a2a3b87d3162c8c95b1a159f48208f", "is_reserved": 0, "lon": -77.0202945, "is_disabled": 0, "fusion_lat": 0.0, "lat": 38.9656415, "bike_id": "c7a2a3b87d3162c8c95b1a159f48208f", "fusion_lon": 0.0}, {"rental_uris": {"ios": "https://dc.lft.to/lastmile_qr_scan", "android": "https://dc.lft.to/lastmile_qr_scan"}, "type": "electric_scooter", "name": "1f86c39cc5e6d8b02df407627b954054", "is_reserved": 0, "lon": -77.02056916666666, "is_disabled": 0, "fusion_lat": 0.0, "lat": 38.923984833333336, "bike_id": "1f86c39cc5e6d8b02df407627b954054", "fusion_lon": 0.0},