{"data": {"bikes": [{"name": "6e0c57e9b9409b4a91ab30a66e45b4c0", "type": "electric_scooter", "lat": 38.866572166666664, "is_reserved": 0, "lon": -76.98884183333334, "fusion_lon": 0.0, "is_disabled": 0, "fusion_lat": 0.0, "bike_id": "6e0c57e9b9409b4a91ab30a66e45b4c0", "rental_uris": {"ios": "https://dc.lft.to/lastmile_qr_scan", "android": "https://dc.lft.to/lastmile_qr_scan"}}, {"name": "8934727271b3181cc3507eac1a49dd02", "type": "electric_scooter", "lat": 38.9246195, "is_reserved": 0, "lon": -77.0391105, "fusion_lon": 0.0, "is_disabled": 0, "fusion_lat": 0.0, "bike_id": "8934727271b3181cc3507eac1a49dd02", "rental_uris": {"ios": "https://dc.lft.to/lastmile_qr_scan", "android": "https://dc.lft.to/lastmile_qr_scan"}}, {"name": "52831e879437c103f0fb3afa0b4c5437", "type": "electric_scooter", "lat": 38.89575116666666, "is_reserved": 0, "lon": -77.0256, "fusion_lon": 0.0, "is_disabled": 0, "fusion_lat": 0.0, "bike_id": "52831e879437c103f0fb3afa0b4c5437", "rental_uris": {"ios": "https://dc.lft.to/lastmile_qr_scan", "android": "https://dc.lft.to/lastmile_qr_scan"}}, {"name": "bad740b66d97674d68cb2101887d9f83", "type": "electric_scooter", "lat": 38.91096833333334, "is_reserved": 0, "lon": -77.03657966666667, "fusion_lon": 0.0, "is_disabled": 0, "fusion_lat": 0.0, "bike_id": "bad740b66d97674d68cb2101887d9f83", "rental_uris": {"ios": "https://dc.lft.to/lastmile_qr_scan", "android": "https://dc.lft.to/lastmile_qr_scan"}}, {"name": "15557eaeea28b88b06db90915bfc7750", "type": "electric_scooter", "lat": 38.9444175, "is_reserved": 0, "lon": -77.06361616666666, "fusion_lon": 0.0, "is_disabled": 0, "fusion_lat": 0.0, "bike_id": "15557eaeea28b88b06db90915bfc7750", "rental_uris": {"ios": "https://dc.lft.to/lastmile_qr_scan", "android": "https://dc.lft.to/lastmile_qr_scan"}}, {"name": "e6d97453ea7e70a00ee655548eff2ffa", "type": "electric_scooter", "lat": 38.936767333333336, "is_reserved": 0, "lon": -77.03628983333333, "fusion_lon": 0.0, "is_disabled": 0, "fusion_lat": 0.0, "bike_id": "e6d97453ea7e70a00ee655548eff2ffa", "rental_uris": {"ios": "https://dc.lft.to/lastmile_qr_scan", "android": "https://dc.lft.to/lastmile_qr_scan"}}, {"name": "b41709f13a7104c82f1c6cc528bb2db2", "type": "electric_scooter", "lat": 38.91255916666667, "is_reserved": 0, "lon": -77.03836166666666, "fusion_lon": 0.0, "is_disabled": 0, "fusion_lat": 0.0, "bike_id": "b41709f13a7104c82f1c6cc528bb2db2", "rental_uris": {"ios": "https://dc.lft.to/lastmile_qr_scan", "android": "https://dc.lft.to/lastmile_qr_scan"}}, {"name": "0ddfa23f97e2ffb443a52f07109fccd4", "type": "electric_bike", "lat": 38.80230233333333, "is_reserved": 0, "lon": -77.0791775, "fusion_lon": 0.0, "is_disabled": 0, "fusion_lat": 0.0, "bike_id": "0ddfa23f97e2ffb443a52f07109fccd4", "rental_uris": {"ios": "https://dc.lft.to/lastmile_qr_scan", "android": "https://dc.lft.to/lastmile_qr_scan"}}, {"name": "5782c3c93ee8fa2828069c6df1939a40", "type": "electric_scooter", "lat": 38.903810666666665, "is_reserved": 0, "lon": -77.01100166666667, "fusion_lon": 0.0, "is_disabled": 0, "fusion_lat": 0.0, "bike_id": "5782c3c93ee8fa2828069c6df1939a40", "rental_uris": {"ios": "https://dc.lft.to/lastmile_qr_scan", "android": "https://dc.lft.to/lastmile_qr_scan"}}, {"name": "db50ccf477aeb4e779e715b7f81321ee", "type": "electric_bike", "lat": 38.906871333333335, "is_reserved": 0, "lon": -76.95188783333333, "fusion_lon": 0.0, "is_disabled": 0, "fusion_lat": 0.0, "bike_id": "db50ccf477aeb4e779e715b7f81321ee", "rental_uris": {"ios": "https://dc.lft.to/lastmile_qr_scan", "android": "https://dc.lft.to/lastmile_qr_scan"}}, {"name": "0d0204731cc46e1a39a2e4e4cd57bc50", "type": "electric_scooter", "lat": 38.91771166666667, "is_reserved": 0, "lon": -77.04097, "fusion_lon": 0.0, "is_disabled": 0, "fusion_lat": 0.0, "bike_id": "0d0204731cc46e1a39a2e4e4cd57bc50", "rental_uris": {"ios": "https://dc.lft.to/lastmile_qr_scan", "android": "https://dc.lft.to/lastmile_qr_scan"}}, {"name": "7022bf341438b9dc7dd271241645ec93", "type": "electric_scooter", "lat": 38.8962985, "is_reserved": 0, "lon": -77.04160816666666, "fusion_lon": 0.0, "is_disabled": 0, "fusion_lat": 0.0, "bike_id": "7022bf341438b9dc7dd271241645ec93", "rental_uris": {"ios": "https://dc.lft.to/lastmile_qr_scan", "android": "https://dc.lft.to/lastmile_qr_scan"}}, {"name": "a5a8f6c1c2a4244a77db3653eff14fcb", "type": "electric_scooter", "lat": 38.903369166666664, "is_reserved": 0, "lon": -76.998582, "fusion_lon": 0.0, "is_disabled": 0, "fusion_lat": 0.0, "bike_id": "a5a8f6c1c2a4244a77db3653eff14fcb", "rental_uris": {"ios": "https://dc.lft.to/lastmile_qr_scan", "android": "https://dc.lft.to/lastmile_qr_scan"}}, {"name": "62d9e1426250c96f09e2644712253060", "type": "electric_scooter", "lat": 38.906413666666666, "is_reserved": 0, "lon": -77.0250925, "fusion_lon": 0.0, "is_disabled": 0, "fusion_lat": 0.0, "bike_id": "62d9e1426250c96f09e2644712253060", "rental_uris": {"ios": "https://dc.lft.to/lastmile_qr_scan", "android": "https://dc.lft.to/lastmile_qr_scan"}}, {"name": "43cbf412635199d9d5e0ed1ff966566c", "type": "electric_bike", "lat": 38.91102816666667, "is_reserved": 0, "lon": -77.0049805, "fusion_lon": 0.0, "is_disabled": 0, "fusion_lat": 0.0, "bike_id": "43cbf412635199d9d5e0ed1ff966566c", "rental_uris": {"ios": "https://dc.lft.to/lastmile_qr_scan", "android": "https://dc.lft.to/lastmile_qr_scan"}}, {"name": "888bfa43b2ddfa0e4275e26e5114adb1", "type": "electric_scooter", "lat": 38.9052495, "is_reserved": 0, "lon": -77.043455, "fusion_lon": 0.0, "is_disabled": 0, "fusion_lat": 0.0, "bike_id": "888bfa43b2ddfa0e4275e26e5114adb1", "rental_uris": {"ios": "https://dc.lft.to/lastmile_qr_scan", "android": "https://dc.lft.to/lastmile_qr_scan"}}, {"name": "c29f793f7c26c4897bcb98a758f5cc06", "type": "electric_scooter", "lat": 38.917506, "is_reserved": 0, "lon": -77.0230685, "fusion_lon": 0.0, "is_disabled": 0, "fusion_lat": 0.0, "bike_id": "c29f793f7c26c4897bcb98a758f5cc06", "rental_uris": {"ios": "https://dc.lft.to/lastmile_qr_scan", "android": "https://dc.lft.to/lastmile_qr_scan"}}, {"name": "ae7c5db05c2830b97264e48182cfa41d", "type": "electric_scooter", "lat": 38.8922915, "is_reserved": 0, "lon": -77.0464075, "fusion_lon": 0.0, "is_disabled": 0, "fusion_lat": 0.0, "bike_id": "ae7c5db05c2830b97264e48182cfa41d", "rental_uris": {"ios": "https://dc.lft.to/lastmile_qr_scan", "android": "https://dc.lft.to/lastmile_qr_scan"}}, {"name": "44108dfde4ef637f317b3a5536ad0e2b", "type": "electric_scooter", "lat": 38.93415016666667, "is_reserved": 0, "lon": -77.07230666666666, "fusion_lon": 0.0, "is_disabled": 0, "fusion_lat": 0.0, "bike_id": "44108dfde4ef637f317b3a5536ad0e2b", "rental_uris": {"ios": "https://dc.lft.to/lastmile_qr_scan", "android": "https://dc.lft.to/lastmile_qr_scan"}}, {"name": "5b694d00eb998a87854bcde25089522f", "type": "electric_scooter", "lat": 38.938931333333336, "is_reserved": 0, "lon": -77.0246655, "fusion_lon": 0.0, "is_disabled": 0, "fusion_lat": 0.0, "bike_id": "5b694d00eb998a87854bcde25089522f", "rental_uris": {"ios": "https://dc.lft.to/lastmile_qr_scan", "android": "https://dc.lft.to/lastmile_qr_scan"}}, {"name": "6d89f3f6decd202f0c8cb302f2e50bc6", "type": "electric_scooter", "lat": 38.90457683333333, "is_reserved": 0, "lon": -77.04649533333334, "fusion_lon": 0.0, "is_disabled": 0, "fusion_lat": 0.0, "bike_id": "6d89f3f6decd202f0c8cb302f2e50bc6", "rental_uris": {"ios": "https://dc.lft.to/lastmile_qr_scan", "android": "https://dc.lft.to/lastmile_qr_scan"}}, {"name": "1d28f94c05f64c2638efef1962944cb8", "type": "electric_scooter", "lat": 38.90565216666667, "is_reserved": 0, "lon": -77.03074933333333, "fusion_lon": 0.0, "is_disabled": 0, "fusion_lat": 0.0, "bike_id": "1d28f94c05f64c2638efef1962944cb8", "rental_uris": {"ios": "https://dc.lft.to/lastmile_qr_scan", "android": "https://dc.lft.to/lastmile_qr_scan"}}, {"name": "57a838054c2b70b659bb5900968b1af3", "type": "electric_scooter", "lat": 38.932386666666666, "is_reserved": 0, "lon": -77.0385245, "fusion_lon": 0.0, "is_disabled": 0, "fusion_lat": 0.0, "bike_id": "57a838054c2b70b659bb5900968b1af3", "rental_uris": {"ios": "https://dc.lft.to/lastmile_qr_scan", "android": "https://dc.lft.to/lastmile_qr_scan"}}, {"name": "3ffde02f955c4bb97988b68a4d51a9ac", "type": "electric_bike", "lat": 38.87719033333333, "is_reserved": 0, "lon": -76.99386783333334, "fusion_lon": 0.0, "is_disabled": 0, "fusion_lat": 0.0, "bike_id": "3ffde02f955c4bb97988b68a4d51a9ac", "rental_uris": {"ios": "https://dc.lft.to/lastmile_qr_scan", "android": "https://dc.lft.to/lastmile_qr_scan"}}, {"name": "1a186524764ed519b02d80a884eaf01c", "type": "electric_scooter", "lat": 38.8973245, "is_reserved": 0, "lon": -77.05570616666667, "fusion_lon": 0.0, "is_disabled": 0, "fusion_lat": 0.0, "bike_id": "1a186524764ed519b02d80a884eaf01c", "rental_uris": {"ios": "https://dc.lft.to/lastmile_qr_scan", "android": "https://dc.lft.to/lastmile_qr_scan"}}, {"name": "4611388429c2ac2c33cb0527e2e88546", "type": "electric_scooter", "lat": 38.89679733333333, "is_reserved": 0, "lon": -76.99623716666666, "fusion_lon": 0.0, "is_disabled": 0, "fusion_lat": 0.0, "bike_id": "4611388429c2ac2c33cb0527e2e88546", "rental_uris": {"ios": "https://dc.lft.to/lastmile_qr_scan", "android": "https://dc.lft.to/lastmile_qr_scan"}}, {"name": "389ae50bb7ac737febc04aae33762951", "type": "electric_bike", "lat": 38.910706, "is_reserved": 0, "lon": -77.00452883333334, "fusion_lon": 0.0, "is_disabled": 0, "fusion_lat": 0.0, "bike_id": "389ae50bb7ac737febc04aae33762951", "rental_uris": {"ios": "https://dc.lft.to/lastmile_qr_scan", "android": "https://dc.lft.to/lastmile_qr_scan"}}, {"name": "8a9546bc79df870cd080a2240e8711ad", "type": "electric_scooter", "lat": 38.94185316666667, "is_reserved": 0, "lon": -77.03092183333334, "fusion_lon": 0.0, "is_disabled": 0, "fusion_lat": 0.0, "bike_id": "8a9546bc79df870cd080a2240e8711ad", "rental_uris": {"ios": "https://dc.lft.to/lastmile_qr_scan", "android": "https://dc.lft.to/lastmile_qr_scan"}}, {"name": "d3109a5805ef61189b77431749c4aca5", "type": "electric_scooter", "lat": 38.899960666666665, "is_reserved": 0, "lon": -76.99841, "fusion_lon": 0.0, "is_disabled": 0, "fusion_lat": 0.0, "bike_id": "d3109a5805ef61189b77431749c4aca5", "rental_uris": {"ios": "https://dc.lft.to/lastmile_qr_scan", "android": "https://dc.lft.to/lastmile_qr_scan"}}, {"name": "c07e306f4952b3ed4586c025ba6b6dfc", "type": "electric_scooter", "lat": 38.9098485, "is_reserved": 0, "lon": -77.03205066666666, "fusion_lon": 0.0, "is_disabled": 0, "fusion_lat": 0.0, "bike_id": "c07e306f4952b3ed4586c025ba6b6dfc", "rental_uris": {"ios": "https://dc.lft.to/lastmile_qr_scan", "android": "https://dc.lft.to/lastmile_qr_scan"}}, {"name": "def08ff188c1acb4445bc0bbc9d270f1", "type": "electric_scooter", "lat": 38.907188833333336, "is_reserved": 0, "lon": -77.02506616666666, "fusion_lon": 0.0, "is_disabled": 0, "fusion_lat": 0.0, "bike_id": "def08ff188c1acb4445bc0bbc9d270f1", "rental_uris": {"ios": "https://dc.lft.to/lastmile_qr_scan", "android": "https://dc.lft.to/lastmile_qr_scan"}}, {"name": "1ae5156df907a0c90d06f73318d995eb", "type": "electric_scooter", "lat": 38.89527433333333, "is_reserved": 0, "lon": -77.01606216666667, "fusion_lon": 0.0, "is_disabled": 0, "fusion_lat": 0.0, "bike_id": "1ae5156df907a0c90d06f73318d995eb", "rental_uris": {"ios": "https://dc.lft.to/lastmile_qr_scan", "android": "https://dc.lft.to/lastmile_qr_scan"}}, {"name": "4586ef01372ef5803aefdf8c42d34890", "type": "electric_scooter", "lat": 38.93249016666667, "is_reserved": 0, "lon": -77.032496, "fusion_lon": 0.0, "is_disabled": 0, "fusion_lat": 0.0, "bike_id": "4586ef01372ef5803aefdf8c42d34890", "rental_uris": {"ios": "https://dc.lft.to/lastmile_qr_scan", "android": "https://dc.lft.to/lastmile_qr_scan"}}, {"name": "d763e9f14bf663a2fec3f5a728fb391b", "type": "electric_scooter", "lat": 38.935087333333335, "is_reserved": 0, "lon": -77.0284405, "fusion_lon": 0.0, "is_disabled": 0, "fusion_lat": 0.0, "bike_id": "d763e9f14bf663a2fec3f5a728fb391b", "rental_uris": {"ios": "https://dc.lft.to/lastmile_qr_scan", "android": "https://dc.lft.to/lastmile_qr_scan"}}, {"name": "51465451a629f9b1fe03392bb06940e1", "type": "electric_bike", "lat": 38.8543555, "is_reserved": 0, "lon": -77.117059, "fusion_lon": 0.0, "is_disabled": 0, "fusion_lat": 0.0, "bike_id": "51465451a629f9b1fe03392bb06940e1", "rental_uris": {"ios": "https://dc.lft.to/lastmile_qr_scan", "android": "https://dc.lft.to/lastmile_qr_scan"}}, {"name": "b03740352bc69bcace555c46be4744ec", "type": "electric_scooter", "lat": 38.906194166666666, "is_reserved": 0, "lon": -77.00608333333334, "fusion_lon": 0.0, "is_disabled": 0, "fusion_lat": 0.0, "bike_id": "b03740352bc69bcace555c46be4744ec", "rental_uris": {"ios": "https://dc.lft.to/lastmile_qr_scan", "android": "https://dc.lft.to/lastmile_qr_scan"}}, {"name": "920bbe9999d83431f6878c420dda8411", "type": "electric_scooter", "lat": 38.88720083333333, "is_reserved": 0, "lon": -77.02198766666666, "fusion_lon": 0.0, "is_disabled": 0, "fusion_lat": 0.0, "bike_id": "920bbe9999d83431f6878c420dda8411", "rental_uris": {"ios": "https://dc.lft.to/lastmile_qr_scan", "android": "https://dc.lft.to/lastmile_qr_scan"}}, {"name": "2fc4704c1855c7521233ee5dc1f77a7a", "type": "electric_scooter", "lat": 38.91056416666667, "is_reserved": 0, "lon": -77.03038383333333, "fusion_lon": 0.0, "is_disabled": 0, "fusion_lat": 0.0, "bike_id": "2fc4704c1855c7521233ee5dc1f77a7a", "rental_uris": {"ios": "https://dc.lft.to/lastmile_qr_scan", "android": "https://dc.lft.to/lastmile_qr_scan"}}, {"name": "87514a2cb29d95f47c6d850d0d03d51c", "type": "electric_scooter", "lat": 38.92343483333333, "is_reserved": 0, "lon": -77.05093833333333, "fusion_lon": 0.0, "is_disabled": 0, "fusion_lat": 0.0, "bike_id": "87514a2cb29d95f47c6d850d0d03d51c", "rental_uris": {"ios": "https://dc.lft.to/lastmile_qr_scan", "android": "https://dc.lft.to/lastmile_qr_scan"}}, {"name": "4371378fb1d739c55e59b5e1b9a70d15", "type": "electric_scooter", "lat": 38.90597983333333, "is_reserved": 0, "lon": -77.01324733333334, "fusion_lon": 0.0, "is_disabled": 0, "fusion_lat": 0.0, "bike_id": "4371378fb1d739c55e59b5e1b9a70d15", "rental_uris": {"ios": "https://dc.lft.to/lastmile_qr_scan", "android": "https://dc.lft.to/lastmile_qr_scan"}}, {"name": "58dd916ab9ac1f63b87a0371093a66ed", "type": "electric_scooter", "lat": 38.9013085, "is_reserved": 0, "lon": -77.0415935, "fusion_lon": 0.0, "is_disabled": 0, "fusion_lat": 0.0, "bike_id": "58dd916ab9ac1f63b87a0371093a66ed", "rental_uris": {"ios": "https://dc.lft.to/lastmile_qr_scan", "android": "https://dc.lft.to/lastmile_qr_scan"}}, {"name": "63a6e5cdef2cd494221bb845b857a8df", "type": "electric_bike", "lat": 39.03885783333333, "is_reserved": 0, "lon": -76.99045566666666, "fusion_lon": 0.0, "is_disabled": 0, "fusion_lat": 0.0, "bike_id": "63a6e5cdef2cd494221bb845b857a8df", "rental_uris": {"ios": "https://dc.lft.to/lastmile_qr_scan", "android": "https://dc.lft.to/lastmile_qr_scan"}}, {"name": "300b0c74d792a4349ed2a2ffa8b9ff59", "type": "electric_scooter", "lat": 38.93429916666667, "is_reserved": 0, "lon": -77.03999733333333, "fusion_lon": 0.0, "is_disabled": 0, "fusion_lat": 0.0, "bike_id": "300b0c74d792a4349ed2a2ffa8b9ff59", "rental_uris": {"ios": "https://dc.lft.to/lastmile_qr_scan", "android": "https://dc.lft.to/lastmile_qr_scan"}}, {"name": "1b516d5b59ef1ac010e98c7e6943b139", "type": "electric_scooter", "lat": 38.88322466666666, "is_reserved": 0, "lon": -77.0176775, "fusion_lon": 0.0, "is_disabled": 0, "fusion_lat": 0.0, "bike_id": "1b516d5b59ef1ac010e98c7e6943b139", "rental_uris": {"ios": "https://dc.lft.to/lastmile_qr_scan", "android": "https://dc.lft.to/lastmile_qr_scan"}}, {"name": "0027384a8db367a17af2155fd20bc3aa", "type": "electric_scooter", "lat": 38.90786966666667, "is_reserved": 0, "lon": -77.032046, "fusion_lon": 0.0, "is_disabled": 0, "fusion_lat": 0.0, "bike_id": "0027384a8db367a17af2155fd20bc3aa", "rental_uris": {"ios": "https://dc.lft.to/lastmile_qr_scan", "android": "https://dc.lft.to/lastmile_qr_scan"}}, {"name": "39daa557c98fac7cf662a46d6b09e9fc", "type": "electric_scooter", "lat": 38.90511, "is_reserved": 0, "lon": -77.0522525, "fusion_lon": 0.0, "is_disabled": 0, "fusion_lat": 0.0, "bike_id": "39daa557c98fac7cf662a46d6b09e9fc", "rental_uris": {"ios": "https://dc.lft.to/lastmile_qr_scan", "android": "https://dc.lft.to/lastmile_qr_scan"}}, {"name": "f45b12f46615e048de153fe30006b9a3", "type": "electric_scooter", "lat": 38.918619166666666, "is_reserved": 0, "lon": -77.04166766666667, "fusion_lon": 0.0, "is_disabled": 0, "fusion_lat": 0.0, "bike_id": "f45b12f46615e048de153fe30006b9a3", "rental_uris": {"ios": "https://dc.lft.to/lastmile_qr_scan", "android": "https://dc.lft.to/lastmile_qr_scan"}}, {"name": "6bb34f54b494a9c3a2cb3fbb3f6d58c5", "type": "electric_scooter", "lat": 38.885032, "is_reserved": 0, "lon": -77.0307205, "fusion_lon": 0.0, "is_disabled": 0, "fusion_lat": 0.0, "bike_id": "6bb34f54b494a9c3a2cb3fbb3f6d58c5", "rental_uris": {"ios": "https://dc.lft.to/lastmile_qr_scan", "android": "https://dc.lft.to/lastmile_qr_scan"}}, {"name": "f7c0f9ae7a9c2b96f33e8f42dd84b3c1", "type": "electric_scooter", "lat": 38.900767333333334, "is_reserved": 0, "lon": -77.05033166666666, "fusion_lon": 0.0, "is_disabled": 0, "fusion_lat": 0.0, "bike_id": "f7c0f9ae7a9c2b96f33e8f42dd84b3c1", "rental_uris": {"ios": "https://dc.lft.to/lastmile_qr_scan", "android": "https://dc.lft.to/lastmile_qr_scan"}}, {"name": "beb1b092a20399f7076a8b8b0c1c7546", "type": "electric_scooter", "lat": 38.915819, "is_reserved": 0, "lon": -77.04493033333334, "fusion_lon": 0.0, "is_disabled": 0, "fusion_lat": 0.0, "bike_id": "beb1b092a20399f7076a8b8b0c1c7546", "rental_uris": {"ios": "https://dc.lft.to/lastmile_qr_scan", "android": "https://dc.lft.to/lastmile_qr_scan"}}, {"name": "7dbd486ace39ab8bf84b908c6bdef13d", "type": "electric_scooter", "lat": 38.90922116666667, "is_reserved": 0, "lon": -77.032037, "fusion_lon": 0.0, "is_disabled": 0, "fusion_lat": 0.0, "bike_id": "7dbd486ace39ab8bf84b908c6bdef13d", "rental_uris": {"ios": "https://dc.lft.to/lastmile_qr_scan", "android": "https://dc.lft.to/lastmile_qr_scan"}}, {"name": "192e9c548171562521110e2592012b03", "type": "electric_scooter", "lat": 38.919435, "is_reserved": 0, "lon": -77.0134875, "fusion_lon": 0.0, "is_disabled": 0, "fusion_lat": 0.0, "bike_id": "192e9c548171562521110e2592012b03", "rental_uris": {"ios": "https://dc.lft.to/lastmile_qr_scan", "android": "https://dc.lft.to/lastmile_qr_scan"}}, {"name": "8accb4cc8ab396b8deb3b5d89fcd069b", "type": "electric_scooter", "lat": 38.906728333333334, "is_reserved": 0, "lon": -77.03663916666666, "fusion_lon": 0.0, "is_disabled": 0, "fusion_lat": 0.0, "bike_id": "8accb4cc8ab396b8deb3b5d89fcd069b", "rental_uris": {"ios": "https://dc.lft.to/lastmile_qr_scan", "android": "https://dc.lft.to/lastmile_qr_scan"}}, {"name": "74de1db08ffdeae2ad709bd23d9a9470", "type": "electric_scooter", "lat": 38.88570933333333, "is_reserved": 0, "lon": -77.005824, "fusion_lon": 0.0, "is_disabled": 0, "fusion_lat": 0.0, "bike_id": "74de1db08ffdeae2ad709bd23d9a9470", "rental_uris": {"ios": "https://dc.lft.to/lastmile_qr_scan", "android": "https://dc.lft.to/lastmile_qr_scan"}}, {"name": "284ae53af59f319d76949a3cb6f2a1ac", "type": "electric_bike", "lat": 38.854916333333335, "is_reserved": 0, "lon": -77.11525283333333, "fusion_lon": 0.0, "is_disabled": 0, "fusion_lat": 0.0, "bike_id": "284ae53af59f319d76949a3cb6f2a1ac", "rental_uris": {"ios": "https://dc.lft.to/lastmile_qr_scan", "android": "https://dc.lft.to/lastmile_qr_scan"}}, {"name": "b6ff4c097508277f40b3b987bbb47764", "type": "electric_scooter", "lat": 38.887516166666664, "is_reserved": 0, "lon": -77.02574933333334, "fusion_lon": 0.0, "is_disabled": 0, "fusion_lat": 0.0, "bike_id": "b6ff4c097508277f40b3b987bbb47764", "rental_uris": {"ios": "https://dc.lft.to/lastmile_qr_scan", "android": "https://dc.lft.to/lastmile_qr_scan"}}, {"name": "2828cedc960ab39d8422033a651ea069", "type": "electric_scooter", "lat": 38.9443575, "is_reserved": 0, "lon": -77.063547, "fusion_lon": 0.0, "is_disabled": 0, "fusion_lat": 0.0, "bike_id": "2828cedc960ab39d8422033a651ea069", "rental_uris": {"ios": "https://dc.lft.to/lastmile_qr_scan", "android": "https://dc.lft.to/lastmile_qr_scan"}}, {"name": "5568df80b816697dccd23794cffbc116", "type": "electric_scooter", "lat": 38.902704666666665, "is_reserved": 0, "lon": -76.9363495, "fusion_lon": 0.0, "is_disabled": 0, "fusion_lat": 0.0, "bike_id": "5568df80b816697dccd23794cffbc116", "rental_uris": {"ios": "https://dc.lft.to/lastmile_qr_scan", "android": "https://dc.lft.to/lastmile_qr_scan"}}, {"name": "d66105462cca21c95b5425209c571f28", "type": "electric_scooter", "lat": 38.92769833333333, "is_reserved": 0, "lon": -77.027114, "fusion_lon": 0.0, "is_disabled": 0, "fusion_lat": 0.0, "bike_id": "d66105462cca21c95b5425209c571f28", "rental_uris": {"ios": "https://dc.lft.to/lastmile_qr_scan", "android": "https://dc.lft.to/lastmile_qr_scan"}}, {"name": "decac3cd56c611294b8f84570d0c3b8f", "type": "electric_scooter", "lat": 38.911876166666666, "is_reserved": 0, "lon": -76.99621016666667, "fusion_lon": 0.0, "is_disabled": 0, "fusion_lat": 0.0, "bike_id": "decac3cd56c611294b8f84570d0c3b8f", "rental_uris": {"ios": "https://dc.lft.to/lastmile_qr_scan", "android": "https://dc.lft.to/lastmile_qr_scan"}}, {"name": "497e07321abfbb3388c755f057c66973", "type": "electric_scooter", "lat": 38.931703166666665, "is_reserved": 0, "lon": -77.03634916666667, "fusion_lon": 0.0, "is_disabled": 0, "fusion_lat": 0.0, "bike_id": "497e07321abfbb3388c755f057c66973", "rental_uris": {"ios": "https://dc.lft.to/lastmile_qr_scan", "android": "https://dc.lft.to/lastmile_qr_scan"}}, {"name": "100cdeb1a50192706c795bd1eee57a6e", "type": "electric_scooter", "lat": 38.961144833333336, "is_reserved": 0, "lon": -77.02813166666667, "fusion_lon": 0.0, "is_disabled": 0, "fusion_lat": 0.0, "bike_id": "100cdeb1a50192706c795bd1eee57a6e", "rental_uris": {"ios": "https://dc.lft.to/lastmile_qr_scan", "android": "https://dc.lft.to/lastmile_qr_scan"}}, {"name": "a081a06bde2273f1a205cfdb4e6ba4da", "type": "electric_scooter", "lat": 38.892263166666666, "is_reserved": 0, "lon": -77.04264083333334, "fusion_lon": 0.0, "is_disabled": 0, "fusion_lat": 0.0, "bike_id": "a081a06bde2273f1a205cfdb4e6ba4da", "rental_uris": {"ios": "https://dc.lft.to/lastmile_qr_scan", "android": "https://dc.lft.to/lastmile_qr_scan"}}, {"name": "f3723e704afc18315ab0a26b61be55a5", "type": "electric_scooter", "lat": 38.9144055, "is_reserved": 0, "lon": -77.02203833333333, "fusion_lon": 0.0, "is_disabled": 0, "fusion_lat": 0.0, "bike_id": "f3723e704afc18315ab0a26b61be55a5", "rental_uris": {"ios": "https://dc.lft.to/lastmile_qr_scan", "android": "https://dc.lft.to/lastmile_qr_scan"}}, {"name": "6a72ea067e420e350585e2fb611e152c", "type": "electric_scooter", "lat": 38.8831795, "is_reserved": 0, "lon": -77.01744916666667, "fusion_lon": 0.0, "is_disabled": 0, "fusion_lat": 0.0, "bike_id": "6a72ea067e420e350585e2fb611e152c", "rental_uris": {"ios": "https://dc.lft.to/lastmile_qr_scan", "android": "https://dc.lft.to/lastmile_qr_scan"}}, {"name": "289ed8c37be0f2073c446842919188e2", "type": "electric_scooter", "lat": 38.92149766666667, "is_reserved": 0, "lon": -77.03509816666667, "fusion_lon": 0.0, "is_disabled": 0, "fusion_lat": 0.0, "bike_id": "289ed8c37be0f2073c446842919188e2", "rental_uris": {"ios": "https://dc.lft.to/lastmile_qr_scan", "android": "https://dc.lft.to/lastmile_qr_scan"}}, {"name": "d114058751142dbde1f2b92bc4ee669e", "type": "electric_scooter", "lat": 38.92335633333333, "is_reserved": 0, "lon": -77.0353835, "fusion_lon": 0.0, "is_disabled": 0, "fusion_lat": 0.0, "bike_id": "d114058751142dbde1f2b92bc4ee669e", "rental_uris": {"ios": "https://dc.lft.to/lastmile_qr_scan", "android": "https://dc.lft.to/lastmile_qr_scan"}}, {"name": "bdf2ff460bf005651812a3be7d782f01", "type": "electric_scooter", "lat": 38.900284166666665, "is_reserved": 0, "lon": -77.00205416666667, "fusion_lon": 0.0, "is_disabled": 0, "fusion_lat": 0.0, "bike_id": "bdf2ff460bf005651812a3be7d782f01", "rental_uris": {"ios": "https://dc.lft.to/lastmile_qr_scan", "android": "https://dc.lft.to/lastmile_qr_scan"}}, {"name": "28ab9d0a0f6170cfcb8eb97ee9904f16", "type": "electric_scooter", "lat": 38.91403416666667, "is_reserved": 0, "lon": -77.03216516666667, "fusion_lon": 0.0, "is_disabled": 0, "fusion_lat": 0.0, "bike_id": "28ab9d0a0f6170cfcb8eb97ee9904f16", "rental_uris": {"ios": "https://dc.lft.to/lastmile_qr_scan", "android": "https://dc.lft.to/lastmile_qr_scan"}}, {"name": "22fea28e00d80de45cf01576c85132eb", "type": "electric_scooter", "lat": 38.883510666666666, "is_reserved": 0, "lon": -76.98562966666667, "fusion_lon": 0.0, "is_disabled": 0, "fusion_lat": 0.0, "bike_id": "22fea28e00d80de45cf01576c85132eb", "rental_uris": {"ios": "https://dc.lft.to/lastmile_qr_scan", "android": "https://dc.lft.to/lastmile_qr_scan"}}, {"name": "c98115177d41a2994ebdc7640d0b6080", "type": "electric_scooter", "lat": 38.897301666666664, "is_reserved": 0, "lon": -77.00152233333333, "fusion_lon": 0.0, "is_disabled": 0, "fusion_lat": 0.0, "bike_id": "c98115177d41a2994ebdc7640d0b6080", "rental_uris": {"ios": "https://dc.lft.to/lastmile_qr_scan", "android": "https://dc.lft.to/lastmile_qr_scan"}}, {"name": "c5139703e3d00fac9e586b286ae0ab2a", "type": "electric_scooter", "lat": 38.9140405, "is_reserved": 0, "lon": -77.041302, "fusion_lon": 0.0, "is_disabled": 0, "fusion_lat": 0.0, "bike_id": "c5139703e3d00fac9e586b286ae0ab2a", "rental_uris": {"ios": "https://dc.lft.to/lastmile_qr_scan", "android": "https://dc.lft.to/lastmile_qr_scan"}}, {"name": "11034b7f4439c3d8c0134198d279f2a4", "type": "electric_scooter", "lat": 38.93207866666667, "is_reserved": 0, "lon": -77.02386266666667, "fusion_lon": 0.0, "is_disabled": 0, "fusion_lat": 0.0, "bike_id": "11034b7f4439c3d8c0134198d279f2a4", "rental_uris": {"ios": "https://dc.lft.to/lastmile_qr_scan", "android": "https://dc.lft.to/lastmile_qr_scan"}}, {"name": "3da818cad6e255493902866efe413fbe", "type": "electric_scooter", "lat": 38.90591366666666, "is_reserved": 0, "lon": -77.051283, "fusion_lon": 0.0, "is_disabled": 0, "fusion_lat": 0.0, "bike_id": "3da818cad6e255493902866efe413fbe", "rental_uris": {"ios": "https://dc.lft.to/lastmile_qr_scan", "android": "https://dc.lft.to/lastmile_qr_scan"}}, {"name": "cf7a6d3f41554ff6608ea03a189a8f1a", "type": "electric_scooter", "lat": 38.89929933333333, "is_reserved": 0, "lon": -77.046683, "fusion_lon": 0.0, "is_disabled": 0, "fusion_lat": 0.0, "bike_id": "cf7a6d3f41554ff6608ea03a189a8f1a", "rental_uris": {"ios": "https://dc.lft.to/lastmile_qr_scan", "android": "https://dc.lft.to/lastmile_qr_scan"}}, {"name": "a965228729d26efbd9e987778afb4995", "type": "electric_scooter", "lat": 38.927657833333335, "is_reserved": 0, "lon": -77.02714483333334, "fusion_lon": 0.0, "is_disabled": 0, "fusion_lat": 0.0, "bike_id": "a965228729d26efbd9e987778afb4995", "rental_uris": {"ios": "https://dc.lft.to/lastmile_qr_scan", "android": "https://dc.lft.to/lastmile_qr_scan"}}, {"name": "ab751d93e6a8165d922be07bda98742c", "type": "electric_scooter", "lat": 38.91115516666667, "is_reserved": 0, "lon": -77.00250733333333, "fusion_lon": 0.0, "is_disabled": 0, "fusion_lat": 0.0, "bike_id": "ab751d93e6a8165d922be07bda98742c", "rental_uris": {"ios": "https://dc.lft.to/lastmile_qr_scan", "android": "https://dc.lft.to/lastmile_qr_scan"}}, {"name": "45e73d89918540727920e314385fc8a1", "type": "electric_bike", "lat": 38.87733516666667, "is_reserved": 0, "lon": -77.11847633333333, "fusion_lon": 0.0, "is_disabled": 0, "fusion_lat": 0.0, "bike_id": "45e73d89918540727920e314385fc8a1", "rental_uris": {"ios": "https://dc.lft.to/lastmile_qr_scan", "android": "https://dc.lft.to/lastmile_qr_scan"}}, {"name": "ca8d40ed1c9c2a6a71ac85a51c629a97", "type": "electric_scooter", "lat": 38.912989333333336, "is_reserved": 0, "lon": -77.0402985, "fusion_lon": 0.0, "is_disabled": 0, "fusion_lat": 0.0, "bike_id": "ca8d40ed1c9c2a6a71ac85a51c629a97", "rental_uris": {"ios": "https://dc.lft.to/lastmile_qr_scan", "android": "https://dc.lft.to/lastmile_qr_scan"}}, {"name": "dd03aa3e16aea2c774167f200190a9d4", "type": "electric_scooter", "lat": 38.90170716666667, "is_reserved": 0, "lon": -77.04659366666667, "fusion_lon": 0.0, "is_disabled": 0, "fusion_lat": 0.0, "bike_id": "dd03aa3e16aea2c774167f200190a9d4", "rental_uris": {"ios": "https://dc.lft.to/lastmile_qr_scan", "android": "https://dc.lft.to/lastmile_qr_scan"}}, {"name": "cdeaa41457c5084fa0f638cb83ddf42c", "type": "electric_scooter", "lat": 38.93680633333334, "is_reserved": 0, "lon": -77.03632333333333, "fusion_lon": 0.0, "is_disabled": 0, "fusion_lat": 0.0, "bike_id": "cdeaa41457c5084fa0f638cb83ddf42c", "rental_uris": {"ios": "https://dc.lft.to/lastmile_qr_scan", "android": "https://dc.lft.to/lastmile_qr_scan"}}, {"name": "2c7b3479fda918b53ea0d7768ba3e00c", "type": "electric_scooter", "lat": 38.912173333333335, "is_reserved": 0, "lon": -77.02797933333333, "fusion_lon": 0.0, "is_disabled": 0, "fusion_lat": 0.0, "bike_id": "2c7b3479fda918b53ea0d7768ba3e00c", "rental_uris": {"ios": "https://dc.lft.to/lastmile_qr_scan", "android": "https://dc.lft.to/lastmile_qr_scan"}}, {"name": "12326ef7665633a17062f0fe968e19d4", "type": "electric_bike", "lat": 39.026867833333334, "is_reserved": 0, "lon": -77.12601766666667, "fusion_lon": 0.0, "is_disabled": 0, "fusion_lat": 0.0, "bike_id": "12326ef7665633a17062f0fe968e19d4", "rental_uris": {"ios": "https://dc.lft.to/lastmile_qr_scan", "android": "https://dc.lft.to/lastmile_qr_scan"}}, {"name": "ab853046fedf6e16703fb8cd8760f1b0", "type": "electric_scooter", "lat": 38.92904633333333, "is_reserved": 0, "lon": -77.02160033333334, "fusion_lon": 0.0, "is_disabled": 0, "fusion_lat": 0.0, "bike_id": "ab853046fedf6e16703fb8cd8760f1b0", "rental_uris": {"ios": "https://dc.lft.to/lastmile_qr_scan", "android": "https://dc.lft.to/lastmile_qr_scan"}}, {"name": "dae85635b1002fd8de72fc423f6f0151", "type": "electric_scooter", "lat": 38.9266845, "is_reserved": 0, "lon": -76.99541583333334, "fusion_lon": 0.0, "is_disabled": 0, "fusion_lat": 0.0, "bike_id": "dae85635b1002fd8de72fc423f6f0151", "rental_uris": {"ios": "https://dc.lft.to/lastmile_qr_scan", "android": "https://dc.lft.to/lastmile_qr_scan"}}, {"name": "0c280e26b10ed4281f248730f974262f", "type": "electric_scooter", "lat": 38.885658666666664, "is_reserved": 0, "lon": -76.94870966666667, "fusion_lon": 0.0, "is_disabled": 0, "fusion_lat": 0.0, "bike_id": "0c280e26b10ed4281f248730f974262f", "rental_uris": {"ios": "https://dc.lft.to/lastmile_qr_scan", "android": "https://dc.lft.to/lastmile_qr_scan"}}, {"name": "4809ba7bfb375180b778cb05a5581200", "type": "electric_scooter", "lat": 38.84421733333333, "is_reserved": 0, "lon": -76.997763, "fusion_lon": 0.0, "is_disabled": 0, "fusion_lat": 0.0, "bike_id": "4809ba7bfb375180b778cb05a5581200", "rental_uris": {"ios": "https://dc.lft.to/lastmile_qr_scan", "android": "https://dc.lft.to/lastmile_qr_scan"}}, {"name": "39f0da8371cf47ab6504ec48e98050a9", "type": "electric_scooter", "lat": 38.882648833333334, "is_reserved": 0, "lon": -76.995089, "fusion_lon": 0.0, "is_disabled": 0, "fusion_lat": 0.0, "bike_id": "39f0da8371cf47ab6504ec48e98050a9", "rental_uris": {"ios": "https://dc.lft.to/lastmile_qr_scan", "android": "https://dc.lft.to/lastmile_qr_scan"}}, {"name": "bc4c5c0a4a8b025ed057e2b82532ccbc", "type": "electric_scooter", "lat": 38.935354, "is_reserved": 0, "lon": -77.0340415, "fusion_lon": 0.0, "is_disabled": 0, "fusion_lat": 0.0, "bike_id": "bc4c5c0a4a8b025ed057e2b82532ccbc", "rental_uris": {"ios": "https://dc.lft.to/lastmile_qr_scan", "android": "https://dc.lft.to/lastmile_qr_scan"}}, {"name": "27af1e294d1b1c958b0a8cb9e2af080f", "type": "electric_bike", "lat": 38.85428016666667, "is_reserved": 0, "lon": -76.90961433333334, "fusion_lon": 0.0, "is_disabled": 0, "fusion_lat": 0.0, "bike_id": "27af1e294d1b1c958b0a8cb9e2af080f", "rental_uris": {"ios": "https://dc.lft.to/lastmile_qr_scan", "android": "https://dc.lft.to/lastmile_qr_scan"}}, {"name": "461129c10ddb3c879956eb29d48a9de4", "type": "electric_scooter", "lat": 38.89893433333334, "is_reserved": 0, "lon": -77.032813, "fusion_lon": 0.0, "is_disabled": 0, "fusion_lat": 0.0, "bike_id": "461129c10ddb3c879956eb29d48a9de4", "rental_uris": {"ios": "https://dc.lft.to/lastmile_qr_scan", "android": "https://dc.lft.to/lastmile_qr_scan"}}, {"name": "c72eb499bd3a0e10760da3475fa29ed7", "type": "electric_bike", "lat": 38.810498833333334, "is_reserved": 0, "lon": -77.0851075, "fusion_lon": 0.0, "is_disabled": 0, "fusion_lat": 0.0, "bike_id": "c72eb499bd3a0e10760da3475fa29ed7", "rental_uris": {"ios": "https://dc.lft.to/lastmile_qr_scan", "android": "https://dc.lft.to/lastmile_qr_scan"}}, {"name": "9377035d4db9a2dce2b04e90ac2198f1", "type": "electric_scooter", "lat": 38.9306, "is_reserved": 0, "lon": -77.031619, "fusion_lon": 0.0, "is_disabled": 0, "fusion_lat": 0.0, "bike_id": "9377035d4db9a2dce2b04e90ac2198f1", "rental_uris": {"ios": "https://dc.lft.to/lastmile_qr_scan", "android": "https://dc.lft.to/lastmile_qr_scan"}}, {"name": "58fd8637631d18f59ce00babbe87ec36", "type": "electric_scooter", "lat": 38.9119055, "is_reserved": 0, "lon": -77.007742, "fusion_lon": 0.0, "is_disabled": 0, "fusion_lat": 0.0, "bike_id": "58fd8637631d18f59ce00babbe87ec36", "rental_uris": {"ios": "https://dc.lft.to/lastmile_qr_scan", "android": "https://dc.lft.to/lastmile_qr_scan"}}, {"name": "f8942b774d17ec88970bdd54e4643abf", "type": "electric_scooter", "lat": 38.892219, "is_reserved": 0, "lon": -77.04538033333333, "fusion_lon": 0.0, "is_disabled": 0, "fusion_lat": 0.0, "bike_id": "f8942b774d17ec88970bdd54e4643abf", "rental_uris": {"ios": "https://dc.lft.to/lastmile_qr_scan", "android": "https://dc.lft.to/lastmile_qr_scan"}}, {"name": "0dc61a93c59cfdaa11a26ddc97b45f31", "type": "electric_scooter", "lat": 38.921739333333335, "is_reserved": 0, "lon": -76.99379916666666, "fusion_lon": 0.0, "is_disabled": 0, "fusion_lat": 0.0, "bike_id": "0dc61a93c59cfdaa11a26ddc97b45f31", "rental_uris": {"ios": "https://dc.lft.to/lastmile_qr_scan", "android": "https://dc.lft.to/lastmile_qr_scan"}}, {"name": "a857fa95ca35f33211a4f7ffe81ef8ee", "type": "electric_scooter", "lat": 38.90779833333333, "is_reserved": 0, "lon": -77.07248933333334, "fusion_lon": 0.0, "is_disabled": 0, "fusion_lat": 0.0, "bike_id": "a857fa95ca35f33211a4f7ffe81ef8ee", "rental_uris": {"ios": "https://dc.lft.to/lastmile_qr_scan", "android": "https://dc.lft.to/lastmile_qr_scan"}}, {"name": "55b4e0edcd00c879d7fd26a21a789c64", "type": "electric_bike", "lat": 38.924576, "is_reserved": 0, "lon": -77.20841483333334, "fusion_lon": 0.0, "is_disabled": 0, "fusion_lat": 0.0, "bike_id": "55b4e0edcd00c879d7fd26a21a789c64", "rental_uris": {"ios": "https://dc.lft.to/lastmile_qr_scan", "android": "https://dc.lft.to/lastmile_qr_scan"}}, {"name": "78d8e7b06984f3b0fb40ac2f98b8e955", "type": "electric_scooter", "lat": 38.911265666666665, "is_reserved": 0, "lon": -77.04418766666667, "fusion_lon": 0.0, "is_disabled": 0, "fusion_lat": 0.0, "bike_id": "78d8e7b06984f3b0fb40ac2f98b8e955", "rental_uris": {"ios": "https://dc.lft.to/lastmile_qr_scan", "android": "https://dc.lft.to/lastmile_qr_scan"}}, {"name": "a6f1644ca31032e974ebe29ae8be3280", "type": "electric_scooter", "lat": 38.90207683333333, "is_reserved": 0, "lon": -77.04555083333334, "fusion_lon": 0.0, "is_disabled": 0, "fusion_lat": 0.0, "bike_id": "a6f1644ca31032e974ebe29ae8be3280", "rental_uris": {"ios": "https://dc.lft.to/lastmile_qr_scan", "android": "https://dc.lft.to/lastmile_qr_scan"}}, {"name": "99f4b67f8b5a6e4e901cb2801aab14d8", "type": "electric_scooter", "lat": 38.9064055, "is_reserved": 0, "lon": -76.993791, "fusion_lon": 0.0, "is_disabled": 0, "fusion_lat": 0.0, "bike_id": "99f4b67f8b5a6e4e901cb2801aab14d8", "rental_uris": {"ios": "https://dc.lft.to/lastmile_qr_scan", "android": "https://dc.lft.to/lastmile_qr_scan"}}, {"name": "b7fca42d6ef4616eced69d714c4a1cd2", "type": "electric_scooter", "lat": 38.92537733333333, "is_reserved": 0, "lon": -77.0338005, "fusion_lon": 0.0, "is_disabled": 0, "fusion_lat": 0.0, "bike_id": "b7fca42d6ef4616eced69d714c4a1cd2", "rental_uris": {"ios": "https://dc.lft.to/lastmile_qr_scan", "android": "https://dc.lft.to/lastmile_qr_scan"}}, {"name": "d0d5d53aeb826c395c380b7c33a7f1f9", "type": "electric_bike", "lat": 38.8319405, "is_reserved": 0, "lon": -77.076816, "fusion_lon": 0.0, "is_disabled": 0, "fusion_lat": 0.0, "bike_id": "d0d5d53aeb826c395c380b7c33a7f1f9", "rental_uris": {"ios": "https://dc.lft.to/lastmile_qr_scan", "android": "https://dc.lft.to/lastmile_qr_scan"}}, {"name": "2f4b0107708aa2fbe540451f3767a622", "type": "electric_scooter", "lat": 38.9051985, "is_reserved": 0, "lon": -77.05041266666667, "fusion_lon": 0.0, "is_disabled": 0, "fusion_lat": 0.0, "bike_id": "2f4b0107708aa2fbe540451f3767a622", "rental_uris": {"ios": "https://dc.lft.to/lastmile_qr_scan", "android": "https://dc.lft.to/lastmile_qr_scan"}}, {"name": "475786ce8299a98101ca5762681dd10f", "type": "electric_scooter", "lat": 38.920289333333336, "is_reserved": 0, "lon": -77.03145233333333, "fusion_lon": 0.0, "is_disabled": 0, "fusion_lat": 0.0, "bike_id": "475786ce8299a98101ca5762681dd10f", "rental_uris": {"ios": "https://dc.lft.to/lastmile_qr_scan", "android": "https://dc.lft.to/lastmile_qr_scan"}}, {"name": "a30e9d4034188b3ea685fc7600d55775", "type": "electric_scooter", "lat": 38.94276116666666, "is_reserved": 0, "lon": -77.02506983333333, "fusion_lon": 0.0, "is_disabled": 0, "fusion_lat": 0.0, "bike_id": "a30e9d4034188b3ea685fc7600d55775", "rental_uris": {"ios": "https://dc.lft.to/lastmile_qr_scan", "android": "https://dc.lft.to/lastmile_qr_scan"}}, {"name": "f06fe49a2215430d4605d9af347276c5", "type": "electric_scooter", "lat": 38.906757999999996, "is_reserved": 0, "lon": -76.978095, "fusion_lon": 0.0, "is_disabled": 0, "fusion_lat": 0.0, "bike_id": "f06fe49a2215430d4605d9af347276c5", "rental_uris": {"ios": "https://dc.lft.to/lastmile_qr_scan", "android": "https://dc.lft.to/lastmile_qr_scan"}}, {"name": "189d370fa03795a1aac84000e92f73d2", "type": "electric_scooter", "lat": 38.8803655, "is_reserved": 0, "lon": -76.92718516666666, "fusion_lon": 0.0, "is_disabled": 0, "fusion_lat": 0.0, "bike_id": "189d370fa03795a1aac84000e92f73d2", "rental_uris": {"ios": "https://dc.lft.to/lastmile_qr_scan", "android": "https://dc.lft.to/lastmile_qr_scan"}}, {"name": "04ec78966b979e408c1c8183fccba0f8", "type": "electric_scooter", "lat": 38.91111183333334, "is_reserved": 0, "lon": -77.04927966666666, "fusion_lon": 0.0, "is_disabled": 0, "fusion_lat": 0.0, "bike_id": "04ec78966b979e408c1c8183fccba0f8", "rental_uris": {"ios": "https://dc.lft.to/lastmile_qr_scan", "android": "https://dc.lft.to/lastmile_qr_scan"}}, {"name": "e0bbaa73f0e4be3b7f89ec313c73faca", "type": "electric_scooter", "lat": 38.92181983333333, "is_reserved": 0, "lon": -77.0424855, "fusion_lon": 0.0, "is_disabled": 0, "fusion_lat": 0.0, "bike_id": "e0bbaa73f0e4be3b7f89ec313c73faca", "rental_uris": {"ios": "https://dc.lft.to/lastmile_qr_scan", "android": "https://dc.lft.to/lastmile_qr_scan"}}, {"name": "f6b928c890e36e98b4caca79cee0b3d3", "type": "electric_scooter", "lat": 38.910077666666666, "is_reserved": 0, "lon": -77.05285766666667, "fusion_lon": 0.0, "is_disabled": 0, "fusion_lat": 0.0, "bike_id": "f6b928c890e36e98b4caca79cee0b3d3", "rental_uris": {"ios": "https://dc.lft.to/lastmile_qr_scan", "android": "https://dc.lft.to/lastmile_qr_scan"}}, {"name": "812c0bdf548a18fa7e0841800959fed5", "type": "electric_scooter", "lat": 38.909738833333336, "is_reserved": 0, "lon": -77.0423185, "fusion_lon": 0.0, "is_disabled": 0, "fusion_lat": 0.0, "bike_id": "812c0bdf548a18fa7e0841800959fed5", "rental_uris": {"ios": "https://dc.lft.to/lastmile_qr_scan", "android": "https://dc.lft.to/lastmile_qr_scan"}}, {"name": "a0c081d887342ed852eb0d8848837a47", "type": "electric_bike", "lat": 38.95548, "is_reserved": 0, "lon": -76.935355, "fusion_lon": 0.0, "is_disabled": 0, "fusion_lat": 0.0, "bike_id": "a0c081d887342ed852eb0d8848837a47", "rental_uris": {"ios": "https://dc.lft.to/lastmile_qr_scan", "android": "https://dc.lft.to/lastmile_qr_scan"}}, {"name": "d07814a4c20d60cfa40f572aa9a8bd5d", "type": "electric_scooter", "lat": 38.916357, "is_reserved": 0, "lon": -77.0269935, "fusion_lon": 0.0, "is_disabled": 0, "fusion_lat": 0.0, "bike_id": "d07814a4c20d60cfa40f572aa9a8bd5d", "rental_uris": {"ios": "https://dc.lft.to/lastmile_qr_scan", "android": "https://dc.lft.to/lastmile_qr_scan"}}, {"name": "e1519e500384730740e6106fc67c6604", "type": "electric_scooter", "lat": 38.90247266666667, "is_reserved": 0, "lon": -76.9741135, "fusion_lon": 0.0, "is_disabled": 0, "fusion_lat": 0.0, "bike_id": "e1519e500384730740e6106fc67c6604", "rental_uris": {"ios": "https://dc.lft.to/lastmile_qr_scan", "android": "https://dc.lft.to/lastmile_qr_scan"}}, {"name": "89a73d03d21e88387c618006334e175d", "type": "electric_scooter", "lat": 38.914051666666666, "is_reserved": 0, "lon": -77.00804983333333, "fusion_lon": 0.0, "is_disabled": 0, "fusion_lat": 0.0, "bike_id": "89a73d03d21e88387c618006334e175d", "rental_uris": {"ios": "https://dc.lft.to/lastmile_qr_scan", "android": "https://dc.lft.to/lastmile_qr_scan"}}, {"name": "df37ed7b08e732002ea84896e3db53aa", "type": "electric_scooter", "lat": 38.92580183333333, "is_reserved": 0, "lon": -77.0284025, "fusion_lon": 0.0, "is_disabled": 0, "fusion_lat": 0.0, "bike_id": "df37ed7b08e732002ea84896e3db53aa", "rental_uris": {"ios": "https://dc.lft.to/lastmile_qr_scan", "android": "https://dc.lft.to/lastmile_qr_scan"}}, {"name": "5d5c6e04a733d15534ad9f940b4b4248", "type": "electric_bike", "lat": 38.86160016666667, "is_reserved": 0, "lon": -77.13094516666666, "fusion_lon": 0.0, "is_disabled": 0, "fusion_lat": 0.0, "bike_id": "5d5c6e04a733d15534ad9f940b4b4248", "rental_uris": {"ios": "https://dc.lft.to/lastmile_qr_scan", "android": "https://dc.lft.to/lastmile_qr_scan"}}, {"name": "1fa002aa2218749a7e190647000b9fb6", "type": "electric_bike", "lat": 38.96757, "is_reserved": 0, "lon": -77.09162283333333, "fusion_lon": 0.0, "is_disabled": 0, "fusion_lat": 0.0, "bike_id": "1fa002aa2218749a7e190647000b9fb6", "rental_uris": {"ios": "https://dc.lft.to/lastmile_qr_scan", "android": "https://dc.lft.to/lastmile_qr_scan"}}, {"name": "5ab403a46a725c78e09d22f227357cc0", "type": "electric_scooter", "lat": 38.92693283333333, "is_reserved": 0, "lon": -77.020829, "fusion_lon": 0.0, "is_disabled": 0, "fusion_lat": 0.0, "bike_id": "5ab403a46a725c78e09d22f227357cc0", "rental_uris": {"ios": "https://dc.lft.to/lastmile_qr_scan", "android": "https://dc.lft.to/lastmile_qr_scan"}}, {"name": "18d5cfb3ea4f99255f437940589211f0", "type": "electric_scooter", "lat": 38.92345016666667, "is_reserved": 0, "lon": -77.05095116666666, "fusion_lon": 0.0, "is_disabled": 0, "fusion_lat": 0.0, "bike_id": "18d5cfb3ea4f99255f437940589211f0", "rental_uris": {"ios": "https://dc.lft.to/lastmile_qr_scan", "android": "https://dc.lft.to/lastmile_qr_scan"}}, {"name": "6c7acaae32bda1f795a0d9f65b54c88b", "type": "electric_scooter", "lat": 38.934872166666665, "is_reserved": 0, "lon": -77.0328865, "fusion_lon": 0.0, "is_disabled": 0, "fusion_lat": 0.0, "bike_id": "6c7acaae32bda1f795a0d9f65b54c88b", "rental_uris": {"ios": "https://dc.lft.to/lastmile_qr_scan", "android": "https://dc.lft.to/lastmile_qr_scan"}}, {"name": "5b03a27d43e12088698232835aa5451b", "type": "electric_bike", "lat": 39.058127666666664, "is_reserved": 0, "lon": -77.12627733333333, "fusion_lon": 0.0, "is_disabled": 0, "fusion_lat": 0.0, "bike_id": "5b03a27d43e12088698232835aa5451b", "rental_uris": {"ios": "https://dc.lft.to/lastmile_qr_scan", "android": "https://dc.lft.to/lastmile_qr_scan"}}, {"name": "b77006c58136569d505277f1a276ba30", "type": "electric_bike", "lat": 38.8460675, "is_reserved": 0, "lon": -76.9782855, "fusion_lon": 0.0, "is_disabled": 0, "fusion_lat": 0.0, "bike_id": "b77006c58136569d505277f1a276ba30", "rental_uris": {"ios": "https://dc.lft.to/lastmile_qr_scan", "android": "https://dc.lft.to/lastmile_qr_scan"}}, {"name": "4c960264e2773ca42f6d0ccc3de90e01", "type": "electric_scooter", "lat": 38.890189, "is_reserved": 0, "lon": -76.93733516666667, "fusion_lon": 0.0, "is_disabled": 0, "fusion_lat": 0.0, "bike_id": "4c960264e2773ca42f6d0ccc3de90e01", "rental_uris": {"ios": "https://dc.lft.to/lastmile_qr_scan", "android": "https://dc.lft.to/lastmile_qr_scan"}}, {"name": "2f12034056a58e059d0e39b478540252", "type": "electric_bike", "lat": 38.90889766666667, "is_reserved": 0, "lon": -77.04494433333333, "fusion_lon": 0.0, "is_disabled": 0, "fusion_lat": 0.0, "bike_id": "2f12034056a58e059d0e39b478540252", "rental_uris": {"ios": "https://dc.lft.to/lastmile_qr_scan", "android": "https://dc.lft.to/lastmile_qr_scan"}}, {"name": "3f4058a8860451527bedd7365f1a9c54", "type": "electric_scooter", "lat": 38.8996575, "is_reserved": 0, "lon": -76.98714216666667, "fusion_lon": 0.0, "is_disabled": 0, "fusion_lat": 0.0, "bike_id": "3f4058a8860451527bedd7365f1a9c54", "rental_uris": {"ios": "https://dc.lft.to/lastmile_qr_scan", "android": "https://dc.lft.to/lastmile_qr_scan"}}, {"name": "cdafff130f58f638c1939931cdb5c817", "type": "electric_bike", "lat": 38.952917666666664, "is_reserved": 0, "lon": -76.97806783333333, "fusion_lon": 0.0, "is_disabled": 0, "fusion_lat": 0.0, "bike_id": "cdafff130f58f638c1939931cdb5c817", "rental_uris": {"ios": "https://dc.lft.to/lastmile_qr_scan", "android": "https://dc.lft.to/lastmile_qr_scan"}}, {"name": "a82f30ae5772f8762a8091701ebaccd5", "type": "electric_scooter", "lat": 38.934581333333334, "is_reserved": 0, "lon": -77.030502, "fusion_lon": 0.0, "is_disabled": 0, "fusion_lat": 0.0, "bike_id": "a82f30ae5772f8762a8091701ebaccd5", "rental_uris": {"ios": "https://dc.lft.to/lastmile_qr_scan", "android": "https://dc.lft.to/lastmile_qr_scan"}}, {"name": "4248f17f79194dd8adac6bf4b8f25824", "type": "electric_scooter", "lat": 38.908592666666664, "is_reserved": 0, "lon": -77.05479916666667, "fusion_lon": 0.0, "is_disabled": 0, "fusion_lat": 0.0, "bike_id": "4248f17f79194dd8adac6bf4b8f25824", "rental_uris": {"ios": "https://dc.lft.to/lastmile_qr_scan", "android": "https://dc.lft.to/lastmile_qr_scan"}}, {"name": "8c05c77eec9e244c283402a8c2cd6452", "type": "electric_scooter", "lat": 38.914707166666666, "is_reserved": 0, "lon": -77.00836866666667, "fusion_lon": 0.0, "is_disabled": 0, "fusion_lat": 0.0, "bike_id": "8c05c77eec9e244c283402a8c2cd6452", "rental_uris": {"ios": "https://dc.lft.to/lastmile_qr_scan", "android": "https://dc.lft.to/lastmile_qr_scan"}}, {"name": "0f018e9e349c6312fd6344c84a5243c7", "type": "electric_scooter", "lat": 38.91567466666667, "is_reserved": 0, "lon": -77.02944383333333, "fusion_lon": 0.0, "is_disabled": 0, "fusion_lat": 0.0, "bike_id": "0f018e9e349c6312fd6344c84a5243c7", "rental_uris": {"ios": "https://dc.lft.to/lastmile_qr_scan", "android": "https://dc.lft.to/lastmile_qr_scan"}}, {"name": "df0529098a3541de8463d652c729b09f", "type": "electric_scooter", "lat": 38.898861, "is_reserved": 0, "lon": -77.03282933333334, "fusion_lon": 0.0, "is_disabled": 0, "fusion_lat": 0.0, "bike_id": "df0529098a3541de8463d652c729b09f", "rental_uris": {"ios": "https://dc.lft.to/lastmile_qr_scan", "android": "https://dc.lft.to/lastmile_qr_scan"}}, {"name": "a6aa94f74b693c3af92b574b6ed40187", "type": "electric_scooter", "lat": 38.88501433333333, "is_reserved": 0, "lon": -76.998445, "fusion_lon": 0.0, "is_disabled": 0, "fusion_lat": 0.0, "bike_id": "a6aa94f74b693c3af92b574b6ed40187", "rental_uris": {"ios": "https://dc.lft.to/lastmile_qr_scan", "android": "https://dc.lft.to/lastmile_qr_scan"}}, {"name": "c57f66011a0f4bc91d39b2a4922e7e76", "type": "electric_scooter", "lat": 38.91119033333333, "is_reserved": 0, "lon": -77.04476133333333, "fusion_lon": 0.0, "is_disabled": 0, "fusion_lat": 0.0, "bike_id": "c57f66011a0f4bc91d39b2a4922e7e76", "rental_uris": {"ios": "https://dc.lft.to/lastmile_qr_scan", "android": "https://dc.lft.to/lastmile_qr_scan"}}, {"name": "a856acfc452755549d9edbb7536d33e4", "type": "electric_scooter", "lat": 38.928708, "is_reserved": 0, "lon": -77.0322455, "fusion_lon": 0.0, "is_disabled": 0, "fusion_lat": 0.0, "bike_id": "a856acfc452755549d9edbb7536d33e4", "rental_uris": {"ios": "https://dc.lft.to/lastmile_qr_scan", "android": "https://dc.lft.to/lastmile_qr_scan"}}, {"name": "29ca7a06cf3fc374bb1d29c3db6bbd7d", "type": "electric_scooter", "lat": 38.91911016666667, "is_reserved": 0, "lon": -77.03175983333334, "fusion_lon": 0.0, "is_disabled": 0, "fusion_lat": 0.0, "bike_id": "29ca7a06cf3fc374bb1d29c3db6bbd7d", "rental_uris": {"ios": "https://dc.lft.to/lastmile_qr_scan", "android": "https://dc.lft.to/lastmile_qr_scan"}}, {"name": "6181d9e32973a7a24ae88e38d9c33905", "type": "electric_scooter", "lat": 38.87397566666667, "is_reserved": 0, "lon": -77.00042166666667, "fusion_lon": 0.0, "is_disabled": 0, "fusion_lat": 0.0, "bike_id": "6181d9e32973a7a24ae88e38d9c33905", "rental_uris": {"ios": "https://dc.lft.to/lastmile_qr_scan", "android": "https://dc.lft.to/lastmile_qr_scan"}}, {"name": "dbced88f9f6cd69020846019cfaa7567", "type": "electric_scooter", "lat": 38.883664833333334, "is_reserved": 0, "lon": -77.03174883333334, "fusion_lon": 0.0, "is_disabled": 0, "fusion_lat": 0.0, "bike_id": "dbced88f9f6cd69020846019cfaa7567", "rental_uris": {"ios": "https://dc.lft.to/lastmile_qr_scan", "android": "https://dc.lft.to/lastmile_qr_scan"}}, {"name": "0619e0d3282cb7ef6304aadd234953c7", "type": "electric_bike", "lat": 38.89351466666667, "is_reserved": 0, "lon": -77.1873865, "fusion_lon": 0.0, "is_disabled": 0, "fusion_lat": 0.0, "bike_id": "0619e0d3282cb7ef6304aadd234953c7", "rental_uris": {"ios": "https://dc.lft.to/lastmile_qr_scan", "android": "https://dc.lft.to/lastmile_qr_scan"}}, {"name": "ad423661bcccacb80f69e02263dc3eae", "type": "electric_scooter", "lat": 38.9087075, "is_reserved": 0, "lon": -77.032255, "fusion_lon": 0.0, "is_disabled": 0, "fusion_lat": 0.0, "bike_id": "ad423661bcccacb80f69e02263dc3eae", "rental_uris": {"ios": "https://dc.lft.to/lastmile_qr_scan", "android": "https://dc.lft.to/lastmile_qr_scan"}}, {"name": "8d3e7d2f26205295b4f5e416c2f6891d", "type": "electric_scooter", "lat": 38.9066325, "is_reserved": 0, "lon": -77.07521183333333, "fusion_lon": 0.0, "is_disabled": 0, "fusion_lat": 0.0, "bike_id": "8d3e7d2f26205295b4f5e416c2f6891d", "rental_uris": {"ios": "https://dc.lft.to/lastmile_qr_scan", "android": "https://dc.lft.to/lastmile_qr_scan"}}, {"name": "14f452505bbf536d99e5afd400a07da6", "type": "electric_bike", "lat": 38.95083533333333, "is_reserved": 0, "lon": -77.01225883333333, "fusion_lon": 0.0, "is_disabled": 0, "fusion_lat": 0.0, "bike_id": "14f452505bbf536d99e5afd400a07da6", "rental_uris": {"ios": "https://dc.lft.to/lastmile_qr_scan", "android": "https://dc.lft.to/lastmile_qr_scan"}}, {"name": "9507b5c301b6c83b2b69083aed5c37a3", "type": "electric_scooter", "lat": 38.93531766666667, "is_reserved": 0, "lon": -77.02853666666667, "fusion_lon": 0.0, "is_disabled": 0, "fusion_lat": 0.0, "bike_id": "9507b5c301b6c83b2b69083aed5c37a3", "rental_uris": {"ios": "https://dc.lft.to/lastmile_qr_scan", "android": "https://dc.lft.to/lastmile_qr_scan"}}, {"name": "b4e2e5389d6760e870d33c9ef864345b", "type": "electric_scooter", "lat": 38.91256683333334, "is_reserved": 0, "lon": -77.00956883333333, "fusion_lon": 0.0, "is_disabled": 0, "fusion_lat": 0.0, "bike_id": "b4e2e5389d6760e870d33c9ef864345b", "rental_uris": {"ios": "https://dc.lft.to/lastmile_qr_scan", "android": "https://dc.lft.to/lastmile_qr_scan"}}, {"name": "888a191b4a683fa2a5cb250326b8ea84", "type": "electric_scooter", "lat": 38.931551, "is_reserved": 0, "lon": -77.03898433333333, "fusion_lon": 0.0, "is_disabled": 0, "fusion_lat": 0.0, "bike_id": "888a191b4a683fa2a5cb250326b8ea84", "rental_uris": {"ios": "https://dc.lft.to/lastmile_qr_scan", "android": "https://dc.lft.to/lastmile_qr_scan"}}, {"name": "dee1c8b878a882a14455a53dea5510d1", "type": "electric_scooter", "lat": 38.892228833333334, "is_reserved": 0, "lon": -77.04331783333333, "fusion_lon": 0.0, "is_disabled": 0, "fusion_lat": 0.0, "bike_id": "dee1c8b878a882a14455a53dea5510d1", "rental_uris": {"ios": "https://dc.lft.to/lastmile_qr_scan", "android": "https://dc.lft.to/lastmile_qr_scan"}}, {"name": "aafb275e7e5282c5535fe5f21830ae14", "type": "electric_scooter", "lat": 38.8923455, "is_reserved": 0, "lon": -77.027995, "fusion_lon": 0.0, "is_disabled": 0, "fusion_lat": 0.0, "bike_id": "aafb275e7e5282c5535fe5f21830ae14", "rental_uris": {"ios": "https://dc.lft.to/lastmile_qr_scan", "android": "https://dc.lft.to/lastmile_qr_scan"}}, {"name": "e6081577cefe0000eb181b70a561e3f0", "type": "electric_scooter", "lat": 38.89229733333333, "is_reserved": 0, "lon": -77.0500235, "fusion_lon": 0.0, "is_disabled": 0, "fusion_lat": 0.0, "bike_id": "e6081577cefe0000eb181b70a561e3f0", "rental_uris": {"ios": "https://dc.lft.to/lastmile_qr_scan", "android": "https://dc.lft.to/lastmile_qr_scan"}}, {"name": "642fcfa155fc214b385733fccd300039", "type": "electric_scooter", "lat": 38.903661666666665, "is_reserved": 0, "lon": -77.03184533333334, "fusion_lon": 0.0, "is_disabled": 0, "fusion_lat": 0.0, "bike_id": "642fcfa155fc214b385733fccd300039", "rental_uris": {"ios": "https://dc.lft.to/lastmile_qr_scan", "android": "https://dc.lft.to/lastmile_qr_scan"}}, {"name": "b9f738ae4c9948fe7b95b1ac9caecc0e", "type": "electric_scooter", "lat": 38.89629516666667, "is_reserved": 0, "lon": -77.0297855, "fusion_lon": 0.0, "is_disabled": 0, "fusion_lat": 0.0, "bike_id": "b9f738ae4c9948fe7b95b1ac9caecc0e", "rental_uris": {"ios": "https://dc.lft.to/lastmile_qr_scan", "android": "https://dc.lft.to/lastmile_qr_scan"}}, {"name": "e9f7766eb1fb332a058ec0c7f80cba60", "type": "electric_scooter", "lat": 38.911158666666665, "is_reserved": 0, "lon": -77.04405016666666, "fusion_lon": 0.0, "is_disabled": 0, "fusion_lat": 0.0, "bike_id": "e9f7766eb1fb332a058ec0c7f80cba60", "rental_uris": {"ios": "https://dc.lft.to/lastmile_qr_scan", "android": "https://dc.lft.to/lastmile_qr_scan"}}, {"name": "808b418a5c9203c1bc20202ac47e5087", "type": "electric_scooter", "lat": 38.92339966666667, "is_reserved": 0, "lon": -77.05089433333333, "fusion_lon": 0.0, "is_disabled": 0, "fusion_lat": 0.0, "bike_id": "808b418a5c9203c1bc20202ac47e5087", "rental_uris": {"ios": "https://dc.lft.to/lastmile_qr_scan", "android": "https://dc.lft.to/lastmile_qr_scan"}}, {"name": "99f6e647ac33ef1fd38664d5af246c3c", "type": "electric_scooter", "lat": 38.9055895, "is_reserved": 0, "lon": -77.0439015, "fusion_lon": 0.0, "is_disabled": 0, "fusion_lat": 0.0, "bike_id": "99f6e647ac33ef1fd38664d5af246c3c", "rental_uris": {"ios": "https://dc.lft.to/lastmile_qr_scan", "android": "https://dc.lft.to/lastmile_qr_scan"}}, {"name": "c60990e42248f7167d45b0952f86665d", "type": "electric_scooter", "lat": 38.89475866666667, "is_reserved": 0, "lon": -77.00134816666667, "fusion_lon": 0.0, "is_disabled": 0, "fusion_lat": 0.0, "bike_id": "c60990e42248f7167d45b0952f86665d", "rental_uris": {"ios": "https://dc.lft.to/lastmile_qr_scan", "android": "https://dc.lft.to/lastmile_qr_scan"}}, {"name": "1ff7e26558dcae8a9b752ba88d476d07", "type": "electric_scooter", "lat": 38.926126, "is_reserved": 0, "lon": -77.02163016666667, "fusion_lon": 0.0, "is_disabled": 0, "fusion_lat": 0.0, "bike_id": "1ff7e26558dcae8a9b752ba88d476d07", "rental_uris": {"ios": "https://dc.lft.to/lastmile_qr_scan", "android": "https://dc.lft.to/lastmile_qr_scan"}}, {"name": "7f655f48bc39e57c088d76ce660891fa", "type": "electric_bike", "lat": 38.95018983333333, "is_reserved": 0, "lon": -77.05475416666667, "fusion_lon": 0.0, "is_disabled": 0, "fusion_lat": 0.0, "bike_id": "7f655f48bc39e57c088d76ce660891fa", "rental_uris": {"ios": "https://dc.lft.to/lastmile_qr_scan", "android": "https://dc.lft.to/lastmile_qr_scan"}}, {"name": "7b26b0a9693ea2a1c5099c27f9785ffc", "type": "electric_scooter", "lat": 38.91495033333333, "is_reserved": 0, "lon": -77.01221866666667, "fusion_lon": 0.0, "is_disabled": 0, "fusion_lat": 0.0, "bike_id": "7b26b0a9693ea2a1c5099c27f9785ffc", "rental_uris": {"ios": "https://dc.lft.to/lastmile_qr_scan", "android": "https://dc.lft.to/lastmile_qr_scan"}}, {"name": "dec968fd6c9819153bdfd7fe0c5dc0c9", "type": "electric_scooter", "lat": 38.9008635, "is_reserved": 0, "lon": -77.04656933333334, "fusion_lon": 0.0, "is_disabled": 0, "fusion_lat": 0.0, "bike_id": "dec968fd6c9819153bdfd7fe0c5dc0c9", "rental_uris": {"ios": "https://dc.lft.to/lastmile_qr_scan", "android": "https://dc.lft.to/lastmile_qr_scan"}}, {"name": "9322f43e40968dca08b02721788b461c", "type": "electric_scooter", "lat": 38.911095, "is_reserved": 0, "lon": -77.0118545, "fusion_lon": 0.0, "is_disabled": 0, "fusion_lat": 0.0, "bike_id": "9322f43e40968dca08b02721788b461c", "rental_uris": {"ios": "https://dc.lft.to/lastmile_qr_scan", "android": "https://dc.lft.to/lastmile_qr_scan"}}, {"name": "15b6de839c723d902244ed9dd1e2f89e", "type": "electric_scooter", "lat": 38.9168075, "is_reserved": 0, "lon": -77.0360775, "fusion_lon": 0.0, "is_disabled": 0, "fusion_lat": 0.0, "bike_id": "15b6de839c723d902244ed9dd1e2f89e", "rental_uris": {"ios": "https://dc.lft.to/lastmile_qr_scan", "android": "https://dc.lft.to/lastmile_qr_scan"}}, {"name": "1fc75d2cd99e82a4ee32d979a476ccfa", "type": "electric_scooter", "lat": 38.926458833333335, "is_reserved": 0, "lon": -77.03699866666666, "fusion_lon": 0.0, "is_disabled": 0, "fusion_lat": 0.0, "bike_id": "1fc75d2cd99e82a4ee32d979a476ccfa", "rental_uris": {"ios": "https://dc.lft.to/lastmile_qr_scan", "android": "https://dc.lft.to/lastmile_qr_scan"}}, {"name": "8bd3ba0f6acfcefb153346c017f849e5", "type": "electric_scooter", "lat": 38.88458883333333, "is_reserved": 0, "lon": -76.9931805, "fusion_lon": 0.0, "is_disabled": 0, "fusion_lat": 0.0, "bike_id": "8bd3ba0f6acfcefb153346c017f849e5", "rental_uris": {"ios": "https://dc.lft.to/lastmile_qr_scan", "android": "https://dc.lft.to/lastmile_qr_scan"}}, {"name": "4eeb0e8665cfaba5ec10af95e734894c", "type": "electric_scooter", "lat": 38.918556833333334, "is_reserved": 0, "lon": -77.03645866666666, "fusion_lon": 0.0, "is_disabled": 0, "fusion_lat": 0.0, "bike_id": "4eeb0e8665cfaba5ec10af95e734894c", "rental_uris": {"ios": "https://dc.lft.to/lastmile_qr_scan", "android": "https://dc.lft.to/lastmile_qr_scan"}}, {"name": "33dbe35d7acdf463f8714b4898de284d", "type": "electric_scooter", "lat": 38.896080166666664, "is_reserved": 0, "lon": -77.01019233333334, "fusion_lon": 0.0, "is_disabled": 0, "fusion_lat": 0.0, "bike_id": "33dbe35d7acdf463f8714b4898de284d", "rental_uris": {"ios": "https://dc.lft.to/lastmile_qr_scan", "android": "https://dc.lft.to/lastmile_qr_scan"}}, {"name": "ae5f7b71d9d508c5d76fea8af6d08abc", "type": "electric_scooter", "lat": 38.9155055, "is_reserved": 0, "lon": -77.0312835, "fusion_lon": 0.0, "is_disabled": 0, "fusion_lat": 0.0, "bike_id": "ae5f7b71d9d508c5d76fea8af6d08abc", "rental_uris": {"ios": "https://dc.lft.to/lastmile_qr_scan", "android": "https://dc.lft.to/lastmile_qr_scan"}}, {"name": "8414f5ebc9f6538c93dc4c83175cd3e3", "type": "electric_scooter", "lat": 38.905613833333334, "is_reserved": 0, "lon": -77.006038, "fusion_lon": 0.0, "is_disabled": 0, "fusion_lat": 0.0, "bike_id": "8414f5ebc9f6538c93dc4c83175cd3e3", "rental_uris": {"ios": "https://dc.lft.to/lastmile_qr_scan", "android": "https://dc.lft.to/lastmile_qr_scan"}}, {"name": "47ea66fa035f553cd2cfa20f2226900e", "type": "electric_scooter", "lat": 38.9149095, "is_reserved": 0, "lon": -77.0408185, "fusion_lon": 0.0, "is_disabled": 0, "fusion_lat": 0.0, "bike_id": "47ea66fa035f553cd2cfa20f2226900e", "rental_uris": {"ios": "https://dc.lft.to/lastmile_qr_scan", "android": "https://dc.lft.to/lastmile_qr_scan"}}, {"name": "cb22f2b63e2e5394d48bcbdb62694199", "type": "electric_scooter", "lat": 38.911089833333335, "is_reserved": 0, "lon": -77.04228216666667, "fusion_lon": 0.0, "is_disabled": 0, "fusion_lat": 0.0, "bike_id": "cb22f2b63e2e5394d48bcbdb62694199", "rental_uris": {"ios": "https://dc.lft.to/lastmile_qr_scan", "android": "https://dc.lft.to/lastmile_qr_scan"}}, {"name": "a4ee6b91e7e27783a884fca3b5b29e77", "type": "electric_scooter", "lat": 38.9071865, "is_reserved": 0, "lon": -77.02504766666667, "fusion_lon": 0.0, "is_disabled": 0, "fusion_lat": 0.0, "bike_id": "a4ee6b91e7e27783a884fca3b5b29e77", "rental_uris": {"ios": "https://dc.lft.to/lastmile_qr_scan", "android": "https://dc.lft.to/lastmile_qr_scan"}}, {"name": "fa68c3fa4db164b0b5604cc1d05b6c7e", "type": "electric_scooter", "lat": 38.93450633333333, "is_reserved": 0, "lon": -77.0723995, "fusion_lon": 0.0, "is_disabled": 0, "fusion_lat": 0.0, "bike_id": "fa68c3fa4db164b0b5604cc1d05b6c7e", "rental_uris": {"ios": "https://dc.lft.to/lastmile_qr_scan", "android": "https://dc.lft.to/lastmile_qr_scan"}}, {"name": "a3173196b6172511708a938d919648d3", "type": "electric_scooter", "lat": 38.915495, "is_reserved": 0, "lon": -77.02447416666666, "fusion_lon": 0.0, "is_disabled": 0, "fusion_lat": 0.0, "bike_id": "a3173196b6172511708a938d919648d3", "rental_uris": {"ios": "https://dc.lft.to/lastmile_qr_scan", "android": "https://dc.lft.to/lastmile_qr_scan"}}, {"name": "9f4533173becf03aed97bb53c7a502d7", "type": "electric_scooter", "lat": 38.90512983333333, "is_reserved": 0, "lon": -77.06628683333334, "fusion_lon": 0.0, "is_disabled": 0, "fusion_lat": 0.0, "bike_id": "9f4533173becf03aed97bb53c7a502d7", "rental_uris": {"ios": "https://dc.lft.to/lastmile_qr_scan", "android": "https://dc.lft.to/lastmile_qr_scan"}}, {"name": "112a0b8ee1353271550435f3d05d0046", "type": "electric_bike", "lat": 38.89540483333333, "is_reserved": 0, "lon": -76.98494916666667, "fusion_lon": 0.0, "is_disabled": 0, "fusion_lat": 0.0, "bike_id": "112a0b8ee1353271550435f3d05d0046", "rental_uris": {"ios": "https://dc.lft.to/lastmile_qr_scan", "android": "https://dc.lft.to/lastmile_qr_scan"}}, {"name": "a236d004f64dbda16c455967cfe8ed89", "type": "electric_scooter", "lat": 38.928747333333334, "is_reserved": 0, "lon": -77.0325375, "fusion_lon": 0.0, "is_disabled": 0, "fusion_lat": 0.0, "bike_id": "a236d004f64dbda16c455967cfe8ed89", "rental_uris": {"ios": "https://dc.lft.to/lastmile_qr_scan", "android": "https://dc.lft.to/lastmile_qr_scan"}}, {"name": "d97fa823403fa264bd2fd0e24425a30e", "type": "electric_bike", "lat": 38.94273166666667, "is_reserved": 0, "lon": -76.98073183333334, "fusion_lon": 0.0, "is_disabled": 0, "fusion_lat": 0.0, "bike_id": "d97fa823403fa264bd2fd0e24425a30e", "rental_uris": {"ios": "https://dc.lft.to/lastmile_qr_scan", "android": "https://dc.lft.to/lastmile_qr_scan"}}, {"name": "86992a9d817de98bd0d5b1264cce2ba5", "type": "electric_scooter", "lat": 38.89884583333333, "is_reserved": 0, "lon": -76.9317595, "fusion_lon": 0.0, "is_disabled": 0, "fusion_lat": 0.0, "bike_id": "86992a9d817de98bd0d5b1264cce2ba5", "rental_uris": {"ios": "https://dc.lft.to/lastmile_qr_scan", "android": "https://dc.lft.to/lastmile_qr_scan"}}, {"name": "f7a3880f37641060febb992ceca04146", "type": "electric_scooter", "lat": 38.94638533333333, "is_reserved": 0, "lon": -77.019235, "fusion_lon": 0.0, "is_disabled": 0, "fusion_lat": 0.0, "bike_id": "f7a3880f37641060febb992ceca04146", "rental_uris": {"ios": "https://dc.lft.to/lastmile_qr_scan", "android": "https://dc.lft.to/lastmile_qr_scan"}}, {"name": "d87e3806ca1d82f1947f5ed80afdfe2c", "type": "electric_scooter", "lat": 38.866571666666665, "is_reserved": 0, "lon": -76.98887166666667, "fusion_lon": 0.0, "is_disabled": 0, "fusion_lat": 0.0, "bike_id": "d87e3806ca1d82f1947f5ed80afdfe2c", "rental_uris": {"ios": "https://dc.lft.to/lastmile_qr_scan", "android": "https://dc.lft.to/lastmile_qr_scan"}}, {"name": "290f12c00bb781027653c75cb3bf9002", "type": "electric_scooter", "lat": 38.91010033333333, "is_reserved": 0, "lon": -76.993912, "fusion_lon": 0.0, "is_disabled": 0, "fusion_lat": 0.0, "bike_id": "290f12c00bb781027653c75cb3bf9002", "rental_uris": {"ios": "https://dc.lft.to/lastmile_qr_scan", "android": "https://dc.lft.to/lastmile_qr_scan"}}, {"name": "f1b9c440c5c0c0bec12f59a4cce012d1", "type": "electric_scooter", "lat": 38.900349, "is_reserved": 0, "lon": -76.988278, "fusion_lon": 0.0, "is_disabled": 0, "fusion_lat": 0.0, "bike_id": "f1b9c440c5c0c0bec12f59a4cce012d1", "rental_uris": {"ios": "https://dc.lft.to/lastmile_qr_scan", "android": "https://dc.lft.to/lastmile_qr_scan"}}, {"name": "5e3056a2d2b007c6243b8672e01e04fc", "type": "electric_scooter", "lat": 38.8998435, "is_reserved": 0, "lon": -77.0330975, "fusion_lon": 0.0, "is_disabled": 0, "fusion_lat": 0.0, "bike_id": "5e3056a2d2b007c6243b8672e01e04fc", "rental_uris": {"ios": "https://dc.lft.to/lastmile_qr_scan", "android": "https://dc.lft.to/lastmile_qr_scan"}}, {"name": "6d1baa5560a62e9c55c3ce3067806ad1", "type": "electric_scooter", "lat": 38.9079645, "is_reserved": 0, "lon": -77.04823583333334, "fusion_lon": 0.0, "is_disabled": 0, "fusion_lat": 0.0, "bike_id": "6d1baa5560a62e9c55c3ce3067806ad1", "rental_uris": {"ios": "https://dc.lft.to/lastmile_qr_scan", "android": "https://dc.lft.to/lastmile_qr_scan"}}, {"name": "8a197626a57bddd36219e3e30ada241e", "type": "electric_scooter", "lat": 38.91869283333333, "is_reserved": 0, "lon": -77.03509333333334, "fusion_lon": 0.0, "is_disabled": 0, "fusion_lat": 0.0, "bike_id": "8a197626a57bddd36219e3e30ada241e", "rental_uris": {"ios": "https://dc.lft.to/lastmile_qr_scan", "android": "https://dc.lft.to/lastmile_qr_scan"}}, {"name": "3216b75a00d6249a3c5ebf280626dbbf", "type": "electric_bike", "lat": 38.96503516666667, "is_reserved": 0, "lon": -77.10335816666667, "fusion_lon": 0.0, "is_disabled": 0, "fusion_lat": 0.0, "bike_id": "3216b75a00d6249a3c5ebf280626dbbf", "rental_uris": {"ios": "https://dc.lft.to/lastmile_qr_scan", "android": "https://dc.lft.to/lastmile_qr_scan"}}, {"name": "de080a6c9cf0fcf6f5e5b8f43df69848", "type": "electric_scooter", "lat": 38.9215295, "is_reserved": 0, "lon": -77.03510583333333, "fusion_lon": 0.0, "is_disabled": 0, "fusion_lat": 0.0, "bike_id": "de080a6c9cf0fcf6f5e5b8f43df69848", "rental_uris": {"ios": "https://dc.lft.to/lastmile_qr_scan", "android": "https://dc.lft.to/lastmile_qr_scan"}}, {"name": "bc7cf997713db22ce6ca0019e2435284", "type": "electric_scooter", "lat": 38.89738916666667, "is_reserved": 0, "lon": -76.94252833333333, "fusion_lon": 0.0, "is_disabled": 0, "fusion_lat": 0.0, "bike_id": "bc7cf997713db22ce6ca0019e2435284", "rental_uris": {"ios": "https://dc.lft.to/lastmile_qr_scan", "android": "https://dc.lft.to/lastmile_qr_scan"}}, {"name": "f4f0d8dfb78a0f2a5277250942118b2d", "type": "electric_scooter", "lat": 38.91306433333333, "is_reserved": 0, "lon": -77.02180233333333, "fusion_lon": 0.0, "is_disabled": 0, "fusion_lat": 0.0, "bike_id": "f4f0d8dfb78a0f2a5277250942118b2d", "rental_uris": {"ios": "https://dc.lft.to/lastmile_qr_scan", "android": "https://dc.lft.to/lastmile_qr_scan"}}, {"name": "29f96a1b222a90ac66270b9a0792ed55", "type": "electric_scooter", "lat": 38.908674, "is_reserved": 0, "lon": -77.02487316666667, "fusion_lon": 0.0, "is_disabled": 0, "fusion_lat": 0.0, "bike_id": "29f96a1b222a90ac66270b9a0792ed55", "rental_uris": {"ios": "https://dc.lft.to/lastmile_qr_scan", "android": "https://dc.lft.to/lastmile_qr_scan"}}, {"name": "a8d7f6dd98295ef224623ce854d22510", "type": "electric_scooter", "lat": 38.93383516666667, "is_reserved": 0, "lon": -77.05765683333334, "fusion_lon": 0.0, "is_disabled": 0, "fusion_lat": 0.0, "bike_id": "a8d7f6dd98295ef224623ce854d22510", "rental_uris": {"ios": "https://dc.lft.to/lastmile_qr_scan", "android": "https://dc.lft.to/lastmile_qr_scan"}}, {"name": "2edadcdfb1f85ea379226b73b0d09cbc", "type": "electric_scooter", "lat": 38.9050415, "is_reserved": 0, "lon": -77.05692516666667, "fusion_lon": 0.0, "is_disabled": 0, "fusion_lat": 0.0, "bike_id": "2edadcdfb1f85ea379226b73b0d09cbc", "rental_uris": {"ios": "https://dc.lft.to/lastmile_qr_scan", "android": "https://dc.lft.to/lastmile_qr_scan"}}, {"name": "adaa478793131de9e16806859df42409", "type": "electric_scooter", "lat": 38.92649816666667, "is_reserved": 0, "lon": -77.03699816666666, "fusion_lon": 0.0, "is_disabled": 0, "fusion_lat": 0.0, "bike_id": "adaa478793131de9e16806859df42409", "rental_uris": {"ios": "https://dc.lft.to/lastmile_qr_scan", "android": "https://dc.lft.to/lastmile_qr_scan"}}, {"name": "29c55ab76c0d5535b9de12df154ca6a2", "type": "electric_scooter", "lat": 38.873994333333336, "is_reserved": 0, "lon": -77.00028766666667, "fusion_lon": 0.0, "is_disabled": 0, "fusion_lat": 0.0, "bike_id": "29c55ab76c0d5535b9de12df154ca6a2", "rental_uris": {"ios": "https://dc.lft.to/lastmile_qr_scan", "android": "https://dc.lft.to/lastmile_qr_scan"}}, {"name": "6029fe40b27aa5b65874424ccbf928c7", "type": "electric_scooter", "lat": 38.9301845, "is_reserved": 0, "lon": -77.02342866666666, "fusion_lon": 0.0, "is_disabled": 0, "fusion_lat": 0.0, "bike_id": "6029fe40b27aa5b65874424ccbf928c7", "rental_uris": {"ios": "https://dc.lft.to/lastmile_qr_scan", "android": "https://dc.lft.to/lastmile_qr_scan"}}, {"name": "55c5be6e5d6c6713848f14339db9b563", "type": "electric_scooter", "lat": 38.924420833333336, "is_reserved": 0, "lon": -77.05199316666666, "fusion_lon": 0.0, "is_disabled": 0, "fusion_lat": 0.0, "bike_id": "55c5be6e5d6c6713848f14339db9b563", "rental_uris": {"ios": "https://dc.lft.to/lastmile_qr_scan", "android": "https://dc.lft.to/lastmile_qr_scan"}}, {"name": "1809b36144df6cf01f45b26446deb541", "type": "electric_scooter", "lat": 38.961132, "is_reserved": 0, "lon": -77.028121, "fusion_lon": 0.0, "is_disabled": 0, "fusion_lat": 0.0, "bike_id": "1809b36144df6cf01f45b26446deb541", "rental_uris": {"ios": "https://dc.lft.to/lastmile_qr_scan", "android": "https://dc.lft.to/lastmile_qr_scan"}}, {"name": "7d86018ad9cfe8ec086d0ca5ce792b4c", "type": "electric_bike", "lat": 38.999085, "is_reserved": 0, "lon": -77.04618183333334, "fusion_lon": 0.0, "is_disabled": 0, "fusion_lat": 0.0, "bike_id": "7d86018ad9cfe8ec086d0ca5ce792b4c", "rental_uris": {"ios": "https://dc.lft.to/lastmile_qr_scan", "android": "https://dc.lft.to/lastmile_qr_scan"}}, {"name": "240dfd0e31004cb752ce497b8b19c67c", "type": "electric_scooter", "lat": 38.874528, "is_reserved": 0, "lon": -77.007719, "fusion_lon": 0.0, "is_disabled": 0, "fusion_lat": 0.0, "bike_id": "240dfd0e31004cb752ce497b8b19c67c", "rental_uris": {"ios": "https://dc.lft.to/lastmile_qr_scan", "android": "https://dc.lft.to/lastmile_qr_scan"}}, {"name": "b0015d7bd34817317c3bf7066f3befed", "type": "electric_bike", "lat": 38.84574683333334, "is_reserved": 0, "lon": -77.09625516666667, "fusion_lon": 0.0, "is_disabled": 0, "fusion_lat": 0.0, "bike_id": "b0015d7bd34817317c3bf7066f3befed", "rental_uris": {"ios": "https://dc.lft.to/lastmile_qr_scan", "android": "https://dc.lft.to/lastmile_qr_scan"}}, {"name": "bd769034a6a24380e3c6a59ef22b1914", "type": "electric_scooter", "lat": 38.90681983333333, "is_reserved": 0, "lon": -77.024911, "fusion_lon": 0.0, "is_disabled": 0, "fusion_lat": 0.0, "bike_id": "bd769034a6a24380e3c6a59ef22b1914", "rental_uris": {"ios": "https://dc.lft.to/lastmile_qr_scan", "android": "https://dc.lft.to/lastmile_qr_scan"}}, {"name": "d728205fccaad45157a563dc22f4e98d", "type": "electric_scooter", "lat": 38.92303066666667, "is_reserved": 0, "lon": -77.01209583333333, "fusion_lon": 0.0, "is_disabled": 0, "fusion_lat": 0.0, "bike_id": "d728205fccaad45157a563dc22f4e98d", "rental_uris": {"ios": "https://dc.lft.to/lastmile_qr_scan", "android": "https://dc.lft.to/lastmile_qr_scan"}}, {"name": "b6ac21570fe3f98936204ff41a51d48c", "type": "electric_scooter", "lat": 38.9083155, "is_reserved": 0, "lon": -77.02206583333333, "fusion_lon": 0.0, "is_disabled": 0, "fusion_lat": 0.0, "bike_id": "b6ac21570fe3f98936204ff41a51d48c", "rental_uris": {"ios": "https://dc.lft.to/lastmile_qr_scan", "android": "https://dc.lft.to/lastmile_qr_scan"}}, {"name": "876f02d7242ccdee49f73db85968a4a2", "type": "electric_scooter", "lat": 38.91109216666667, "is_reserved": 0, "lon": -77.04231416666667, "fusion_lon": 0.0, "is_disabled": 0, "fusion_lat": 0.0, "bike_id": "876f02d7242ccdee49f73db85968a4a2", "rental_uris": {"ios": "https://dc.lft.to/lastmile_qr_scan", "android": "https://dc.lft.to/lastmile_qr_scan"}}, {"name": "6e82975b204d18de4015a54454d9a471", "type": "electric_scooter", "lat": 38.937087166666664, "is_reserved": 0, "lon": -77.06100816666667, "fusion_lon": 0.0, "is_disabled": 0, "fusion_lat": 0.0, "bike_id": "6e82975b204d18de4015a54454d9a471", "rental_uris": {"ios": "https://dc.lft.to/lastmile_qr_scan", "android": "https://dc.lft.to/lastmile_qr_scan"}}, {"name": "eb6a69ed741900787a01e4d0b1a60e2c", "type": "electric_scooter", "lat": 38.910959166666665, "is_reserved": 0, "lon": -77.03198216666667, "fusion_lon": 0.0, "is_disabled": 0, "fusion_lat": 0.0, "bike_id": "eb6a69ed741900787a01e4d0b1a60e2c", "rental_uris": {"ios": "https://dc.lft.to/lastmile_qr_scan", "android": "https://dc.lft.to/lastmile_qr_scan"}}, {"name": "b1a6e6444979da237745c4b1d664f023", "type": "electric_scooter", "lat": 38.897477, "is_reserved": 0, "lon": -77.0294165, "fusion_lon": 0.0, "is_disabled": 0, "fusion_lat": 0.0, "bike_id": "b1a6e6444979da237745c4b1d664f023", "rental_uris": {"ios": "https://dc.lft.to/lastmile_qr_scan", "android": "https://dc.lft.to/lastmile_qr_scan"}}, {"name": "ad3dc44a992b01c9f5c87f13df68b2a2", "type": "electric_scooter", "lat": 38.8766215, "is_reserved": 0, "lon": -77.00050516666667, "fusion_lon": 0.0, "is_disabled": 0, "fusion_lat": 0.0, "bike_id": "ad3dc44a992b01c9f5c87f13df68b2a2", "rental_uris": {"ios": "https://dc.lft.to/lastmile_qr_scan", "android": "https://dc.lft.to/lastmile_qr_scan"}}, {"name": "3d15c7224872d6e46cefdea27fd852cb", "type": "electric_scooter", "lat": 38.89969833333333, "is_reserved": 0, "lon": -77.02695816666666, "fusion_lon": 0.0, "is_disabled": 0, "fusion_lat": 0.0, "bike_id": "3d15c7224872d6e46cefdea27fd852cb", "rental_uris": {"ios": "https://dc.lft.to/lastmile_qr_scan", "android": "https://dc.lft.to/lastmile_qr_scan"}}, {"name": "d45949b4eb0d86eac4716c46875b0196", "type": "electric_scooter", "lat": 38.9428115, "is_reserved": 0, "lon": -77.02507666666666, "fusion_lon": 0.0, "is_disabled": 0, "fusion_lat": 0.0, "bike_id": "d45949b4eb0d86eac4716c46875b0196", "rental_uris": {"ios": "https://dc.lft.to/lastmile_qr_scan", "android": "https://dc.lft.to/lastmile_qr_scan"}}, {"name": "e60367283b6471f9e6f44759b42e3cf5", "type": "electric_scooter", "lat": 38.906721, "is_reserved": 0, "lon": -77.02717366666667, "fusion_lon": 0.0, "is_disabled": 0, "fusion_lat": 0.0, "bike_id": "e60367283b6471f9e6f44759b42e3cf5", "rental_uris": {"ios": "https://dc.lft.to/lastmile_qr_scan", "android": "https://dc.lft.to/lastmile_qr_scan"}}, {"name": "95d5fb314575450844aaf87ef3fac8d5", "type": "electric_bike", "lat": 38.895426, "is_reserved": 0, "lon": -77.02677316666667, "fusion_lon": 0.0, "is_disabled": 0, "fusion_lat": 0.0, "bike_id": "95d5fb314575450844aaf87ef3fac8d5", "rental_uris": {"ios": "https://dc.lft.to/lastmile_qr_scan", "android": "https://dc.lft.to/lastmile_qr_scan"}}, {"name": "f39f7d7135800a4941462bae027e6065", "type": "electric_scooter", "lat": 38.899728, "is_reserved": 0, "lon": -76.937758, "fusion_lon": 0.0, "is_disabled": 0, "fusion_lat": 0.0, "bike_id": "f39f7d7135800a4941462bae027e6065", "rental_uris": {"ios": "https://dc.lft.to/lastmile_qr_scan", "android": "https://dc.lft.to/lastmile_qr_scan"}}, {"name": "4fd3cc87e5c139afaf4b7314f8f45147", "type": "electric_scooter", "lat": 38.90511983333333, "is_reserved": 0, "lon": -77.07015216666667, "fusion_lon": 0.0, "is_disabled": 0, "fusion_lat": 0.0, "bike_id": "4fd3cc87e5c139afaf4b7314f8f45147", "rental_uris": {"ios": "https://dc.lft.to/lastmile_qr_scan", "android": "https://dc.lft.to/lastmile_qr_scan"}}, {"name": "eab1a94a7ce3c017eec99f2e45e2d2c7", "type": "electric_scooter", "lat": 38.90976883333333, "is_reserved": 0, "lon": -77.00923416666667, "fusion_lon": 0.0, "is_disabled": 0, "fusion_lat": 0.0, "bike_id": "eab1a94a7ce3c017eec99f2e45e2d2c7", "rental_uris": {"ios": "https://dc.lft.to/lastmile_qr_scan", "android": "https://dc.lft.to/lastmile_qr_scan"}}, {"name": "dc3b07508ea172b0f2bbaa1d6a84152e", "type": "electric_scooter", "lat": 38.9349235, "is_reserved": 0, "lon": -77.03282183333333, "fusion_lon": 0.0, "is_disabled": 0, "fusion_lat": 0.0, "bike_id": "dc3b07508ea172b0f2bbaa1d6a84152e", "rental_uris": {"ios": "https://dc.lft.to/lastmile_qr_scan", "android": "https://dc.lft.to/lastmile_qr_scan"}}, {"name": "7f6fa9fde0c64784a6c629713c6ecdcb", "type": "electric_scooter", "lat": 38.892227166666665, "is_reserved": 0, "lon": -77.04539, "fusion_lon": 0.0, "is_disabled": 0, "fusion_lat": 0.0, "bike_id": "7f6fa9fde0c64784a6c629713c6ecdcb", "rental_uris": {"ios": "https://dc.lft.to/lastmile_qr_scan", "android": "https://dc.lft.to/lastmile_qr_scan"}}, {"name": "2c02bed9d7c5b38d08638b9bbe95256b", "type": "electric_scooter", "lat": 38.90564283333333, "is_reserved": 0, "lon": -76.9813715, "fusion_lon": 0.0, "is_disabled": 0, "fusion_lat": 0.0, "bike_id": "2c02bed9d7c5b38d08638b9bbe95256b", "rental_uris": {"ios": "https://dc.lft.to/lastmile_qr_scan", "android": "https://dc.lft.to/lastmile_qr_scan"}}, {"name": "fc87d43cb422510ffaa98b2958f5adea", "type": "electric_bike", "lat": 38.9036055, "is_reserved": 0, "lon": -76.98095316666667, "fusion_lon": 0.0, "is_disabled": 0, "fusion_lat": 0.0, "bike_id": "fc87d43cb422510ffaa98b2958f5adea", "rental_uris": {"ios": "https://dc.lft.to/lastmile_qr_scan", "android": "https://dc.lft.to/lastmile_qr_scan"}}, {"name": "6da7c98fc5e2c8b3a8dbb4d4a9f7c632", "type": "electric_scooter", "lat": 38.930822166666665, "is_reserved": 0, "lon": -77.024041, "fusion_lon": 0.0, "is_disabled": 0, "fusion_lat": 0.0, "bike_id": "6da7c98fc5e2c8b3a8dbb4d4a9f7c632", "rental_uris": {"ios": "https://dc.lft.to/lastmile_qr_scan", "android": "https://dc.lft.to/lastmile_qr_scan"}}, {"name": "0caffcdcb8bf24261572fbe32ad0495b", "type": "electric_scooter", "lat": 38.88934966666667, "is_reserved": 0, "lon": -76.94782016666667, "fusion_lon": 0.0, "is_disabled": 0, "fusion_lat": 0.0, "bike_id": "0caffcdcb8bf24261572fbe32ad0495b", "rental_uris": {"ios": "https://dc.lft.to/lastmile_qr_scan", "android": "https://dc.lft.to/lastmile_qr_scan"}}, {"name": "53c30339575bccbd3f184d1797d4ad00", "type": "electric_bike", "lat": 38.838627833333334, "is_reserved": 0, "lon": -77.08863833333334, "fusion_lon": 0.0, "is_disabled": 0, "fusion_lat": 0.0, "bike_id": "53c30339575bccbd3f184d1797d4ad00", "rental_uris": {"ios": "https://dc.lft.to/lastmile_qr_scan", "android": "https://dc.lft.to/lastmile_qr_scan"}}, {"name": "7d78f6609faf5e99130a951474cb58f2", "type": "electric_scooter", "lat": 38.90349333333333, "is_reserved": 0, "lon": -77.03963233333333, "fusion_lon": 0.0, "is_disabled": 0, "fusion_lat": 0.0, "bike_id": "7d78f6609faf5e99130a951474cb58f2", "rental_uris": {"ios": "https://dc.lft.to/lastmile_qr_scan", "android": "https://dc.lft.to/lastmile_qr_scan"}}, {"name": "6262524d1a67e81554c324672cae1373", "type": "electric_bike", "lat": 38.97324166666667, "is_reserved": 0, "lon": -77.02148083333333, "fusion_lon": 0.0, "is_disabled": 0, "fusion_lat": 0.0, "bike_id": "6262524d1a67e81554c324672cae1373", "rental_uris": {"ios": "https://dc.lft.to/lastmile_qr_scan", "android": "https://dc.lft.to/lastmile_qr_scan"}}, {"name": "7369749e8432d061c66ceeb7f735eb31", "type": "electric_scooter", "lat": 38.932345166666664, "is_reserved": 0, "lon": -77.0354015, "fusion_lon": 0.0, "is_disabled": 0, "fusion_lat": 0.0, "bike_id": "7369749e8432d061c66ceeb7f735eb31", "rental_uris": {"ios": "https://dc.lft.to/lastmile_qr_scan", "android": "https://dc.lft.to/lastmile_qr_scan"}}, {"name": "ebd6953270f3c60674e7417ecac04145", "type": "electric_scooter", "lat": 38.9012315, "is_reserved": 0, "lon": -77.00049, "fusion_lon": 0.0, "is_disabled": 0, "fusion_lat": 0.0, "bike_id": "ebd6953270f3c60674e7417ecac04145", "rental_uris": {"ios": "https://dc.lft.to/lastmile_qr_scan", "android": "https://dc.lft.to/lastmile_qr_scan"}}, {"name": "a6cb3e11607ec43552431aaa5d391b79", "type": "electric_scooter", "lat": 38.917374, "is_reserved": 0, "lon": -77.03644666666666, "fusion_lon": 0.0, "is_disabled": 0, "fusion_lat": 0.0, "bike_id": "a6cb3e11607ec43552431aaa5d391b79", "rental_uris": {"ios": "https://dc.lft.to/lastmile_qr_scan", "android": "https://dc.lft.to/lastmile_qr_scan"}}, {"name": "0bb716e3abdbcccdb86e943bf833ee8e", "type": "electric_scooter", "lat": 38.92212, "is_reserved": 0, "lon": -77.0424245, "fusion_lon": 0.0, "is_disabled": 0, "fusion_lat": 0.0, "bike_id": "0bb716e3abdbcccdb86e943bf833ee8e", "rental_uris": {"ios": "https://dc.lft.to/lastmile_qr_scan", "android": "https://dc.lft.to/lastmile_qr_scan"}}, {"name": "37ecb854bca12b87cc0da4211c33b4be", "type": "electric_scooter", "lat": 38.90301766666666, "is_reserved": 0, "lon": -77.0383875, "fusion_lon": 0.0, "is_disabled": 0, "fusion_lat": 0.0, "bike_id": "37ecb854bca12b87cc0da4211c33b4be", "rental_uris": {"ios": "https://dc.lft.to/lastmile_qr_scan", "android": "https://dc.lft.to/lastmile_qr_scan"}}, {"name": "1a2d8b64d359480e0b901f44935f78dd", "type": "electric_scooter", "lat": 38.90246366666667, "is_reserved": 0, "lon": -77.02654216666667, "fusion_lon": 0.0, "is_disabled": 0, "fusion_lat": 0.0, "bike_id": "1a2d8b64d359480e0b901f44935f78dd", "rental_uris": {"ios": "https://dc.lft.to/lastmile_qr_scan", "android": "https://dc.lft.to/lastmile_qr_scan"}}, {"name": "25c7799718bd4964b7408a7ee8887bc6", "type": "electric_scooter", "lat": 38.910251833333334, "is_reserved": 0, "lon": -77.03445016666667, "fusion_lon": 0.0, "is_disabled": 0, "fusion_lat": 0.0, "bike_id": "25c7799718bd4964b7408a7ee8887bc6", "rental_uris": {"ios": "https://dc.lft.to/lastmile_qr_scan", "android": "https://dc.lft.to/lastmile_qr_scan"}}, {"name": "58bcaff61d995f9f7ea2657915c37149", "type": "electric_scooter", "lat": 38.91296283333333, "is_reserved": 0, "lon": -77.06116533333334, "fusion_lon": 0.0, "is_disabled": 0, "fusion_lat": 0.0, "bike_id": "58bcaff61d995f9f7ea2657915c37149", "rental_uris": {"ios": "https://dc.lft.to/lastmile_qr_scan", "android": "https://dc.lft.to/lastmile_qr_scan"}}, {"name": "01cd3456d21b4ebc3da595b7f0a5a2c1", "type": "electric_scooter", "lat": 38.933513, "is_reserved": 0, "lon": -77.0586545, "fusion_lon": 0.0, "is_disabled": 0, "fusion_lat": 0.0, "bike_id": "01cd3456d21b4ebc3da595b7f0a5a2c1", "rental_uris": {"ios": "https://dc.lft.to/lastmile_qr_scan", "android": "https://dc.lft.to/lastmile_qr_scan"}}, {"name": "926a7d346d60c3b2685267d5a6132ae4", "type": "electric_scooter", "lat": 38.9005065, "is_reserved": 0, "lon": -77.02616916666666, "fusion_lon": 0.0, "is_disabled": 0, "fusion_lat": 0.0, "bike_id": "926a7d346d60c3b2685267d5a6132ae4", "rental_uris": {"ios": "https://dc.lft.to/lastmile_qr_scan", "android": "https://dc.lft.to/lastmile_qr_scan"}}, {"name": "ae1a7eddc59d2f4dd057c37dea26b861", "type": "electric_scooter", "lat": 38.862495, "is_reserved": 0, "lon": -76.99530016666667, "fusion_lon": 0.0, "is_disabled": 0, "fusion_lat": 0.0, "bike_id": "ae1a7eddc59d2f4dd057c37dea26b861", "rental_uris": {"ios": "https://dc.lft.to/lastmile_qr_scan", "android": "https://dc.lft.to/lastmile_qr_scan"}}, {"name": "3af6a9f9240bed2a5b238dd0d9126e7d", "type": "electric_scooter", "lat": 38.91792566666667, "is_reserved": 0, "lon": -77.04158983333333, "fusion_lon": 0.0, "is_disabled": 0, "fusion_lat": 0.0, "bike_id": "3af6a9f9240bed2a5b238dd0d9126e7d", "rental_uris": {"ios": "https://dc.lft.to/lastmile_qr_scan", "android": "https://dc.lft.to/lastmile_qr_scan"}}, {"name": "b8648d1d02f17fcc2fd46d8325270d5d", "type": "electric_scooter", "lat": 38.93738116666667, "is_reserved": 0, "lon": -77.03264816666666, "fusion_lon": 0.0, "is_disabled": 0, "fusion_lat": 0.0, "bike_id": "b8648d1d02f17fcc2fd46d8325270d5d", "rental_uris": {"ios": "https://dc.lft.to/lastmile_qr_scan", "android": "https://dc.lft.to/lastmile_qr_scan"}}, {"name": "0e8d4913b7d5c09931ad5b4f836abffc", "type": "electric_scooter", "lat": 38.91558333333333, "is_reserved": 0, "lon": -77.02944133333334, "fusion_lon": 0.0, "is_disabled": 0, "fusion_lat": 0.0, "bike_id": "0e8d4913b7d5c09931ad5b4f836abffc", "rental_uris": {"ios": "https://dc.lft.to/lastmile_qr_scan", "android": "https://dc.lft.to/lastmile_qr_scan"}}, {"name": "1dd0603c310ee52db4877a6112b4d452", "type": "electric_bike", "lat": 39.051958166666665, "is_reserved": 0, "lon": -77.10927616666666, "fusion_lon": 0.0, "is_disabled": 0, "fusion_lat": 0.0, "bike_id": "1dd0603c310ee52db4877a6112b4d452", "rental_uris": {"ios": "https://dc.lft.to/lastmile_qr_scan", "android": "https://dc.lft.to/lastmile_qr_scan"}}, {"name": "d10d9a21ef3c89b24839ccc6d7f35ed4", "type": "electric_scooter", "lat": 38.93069, "is_reserved": 0, "lon": -77.038067, "fusion_lon": 0.0, "is_disabled": 0, "fusion_lat": 0.0, "bike_id": "d10d9a21ef3c89b24839ccc6d7f35ed4", "rental_uris": {"ios": "https://dc.lft.to/lastmile_qr_scan", "android": "https://dc.lft.to/lastmile_qr_scan"}}, {"name": "65741704351facc0b1af646458e98309", "type": "electric_scooter", "lat": 38.9140345, "is_reserved": 0, "lon": -77.03908133333333, "fusion_lon": 0.0, "is_disabled": 0, "fusion_lat": 0.0, "bike_id": "65741704351facc0b1af646458e98309", "rental_uris": {"ios": "https://dc.lft.to/lastmile_qr_scan", "android": "https://dc.lft.to/lastmile_qr_scan"}}, {"name": "a2158f23f2c8788c70593c5119551707", "type": "electric_scooter", "lat": 38.844259, "is_reserved": 0, "lon": -76.99777950000001, "fusion_lon": 0.0, "is_disabled": 0, "fusion_lat": 0.0, "bike_id": "a2158f23f2c8788c70593c5119551707", "rental_uris": {"ios": "https://dc.lft.to/lastmile_qr_scan", "android": "https://dc.lft.to/lastmile_qr_scan"}}, {"name": "c84b711f8daa413858d6252a0d58720b", "type": "electric_scooter", "lat": 38.8625365, "is_reserved": 0, "lon": -76.99494816666666, "fusion_lon": 0.0, "is_disabled": 0, "fusion_lat": 0.0, "bike_id": "c84b711f8daa413858d6252a0d58720b", "rental_uris": {"ios": "https://dc.lft.to/lastmile_qr_scan", "android": "https://dc.lft.to/lastmile_qr_scan"}}, {"name": "bc38e6c415233cd82c7ea975dc5d144b", "type": "electric_scooter", "lat": 38.93373233333333, "is_reserved": 0, "lon": -77.02738166666667, "fusion_lon": 0.0, "is_disabled": 0, "fusion_lat": 0.0, "bike_id": "bc38e6c415233cd82c7ea975dc5d144b", "rental_uris": {"ios": "https://dc.lft.to/lastmile_qr_scan", "android": "https://dc.lft.to/lastmile_qr_scan"}}, {"name": "3b8e112ca6d90bd0e014a10aa56b7859", "type": "electric_scooter", "lat": 38.87195083333334, "is_reserved": 0, "lon": -77.00577416666667, "fusion_lon": 0.0, "is_disabled": 0, "fusion_lat": 0.0, "bike_id": "3b8e112ca6d90bd0e014a10aa56b7859", "rental_uris": {"ios": "https://dc.lft.to/lastmile_qr_scan", "android": "https://dc.lft.to/lastmile_qr_scan"}}, {"name": "2e6042917033d25369c0e847ec1f6509", "type": "electric_bike", "lat": 38.841593, "is_reserved": 0, "lon": -77.08889516666666, "fusion_lon": 0.0, "is_disabled": 0, "fusion_lat": 0.0, "bike_id": "2e6042917033d25369c0e847ec1f6509", "rental_uris": {"ios": "https://dc.lft.to/lastmile_qr_scan", "android": "https://dc.lft.to/lastmile_qr_scan"}}, {"name": "6eb7d13336bdf422c3b1f35238b22646", "type": "electric_scooter", "lat": 38.898824833333336, "is_reserved": 0, "lon": -76.93174666666667, "fusion_lon": 0.0, "is_disabled": 0, "fusion_lat": 0.0, "bike_id": "6eb7d13336bdf422c3b1f35238b22646", "rental_uris": {"ios": "https://dc.lft.to/lastmile_qr_scan", "android": "https://dc.lft.to/lastmile_qr_scan"}}, {"name": "991de45f3201a67fb84205a265c0a5e0", "type": "electric_scooter", "lat": 38.901430166666664, "is_reserved": 0, "lon": -76.99122416666667, "fusion_lon": 0.0, "is_disabled": 0, "fusion_lat": 0.0, "bike_id": "991de45f3201a67fb84205a265c0a5e0", "rental_uris": {"ios": "https://dc.lft.to/lastmile_qr_scan", "android": "https://dc.lft.to/lastmile_qr_scan"}}, {"name": "e7f1b28a5d002de9c5abf5bf23234634", "type": "electric_scooter", "lat": 38.8982825, "is_reserved": 0, "lon": -77.04267233333333, "fusion_lon": 0.0, "is_disabled": 0, "fusion_lat": 0.0, "bike_id": "e7f1b28a5d002de9c5abf5bf23234634", "rental_uris": {"ios": "https://dc.lft.to/lastmile_qr_scan", "android": "https://dc.lft.to/lastmile_qr_scan"}}, {"name": "80adcc073c51c18dabcfa646e1e02ccf", "type": "electric_bike", "lat": 39.029326, "is_reserved": 0, "lon": -77.04929066666666, "fusion_lon": 0.0, "is_disabled": 0, "fusion_lat": 0.0, "bike_id": "80adcc073c51c18dabcfa646e1e02ccf", "rental_uris": {"ios": "https://dc.lft.to/lastmile_qr_scan", "android": "https://dc.lft.to/lastmile_qr_scan"}}, {"name": "8027e2a727f48af2bed7ab59c9003384", "type": "electric_scooter", "lat": 38.9101025, "is_reserved": 0, "lon": -77.04424416666667, "fusion_lon": 0.0, "is_disabled": 0, "fusion_lat": 0.0, "bike_id": "8027e2a727f48af2bed7ab59c9003384", "rental_uris": {"ios": "https://dc.lft.to/lastmile_qr_scan", "android": "https://dc.lft.to/lastmile_qr_scan"}}, {"name": "5667e9dfca63e47a4321609323c0fe87", "type": "electric_scooter", "lat": 38.968236166666664, "is_reserved": 0, "lon": -77.01789033333333, "fusion_lon": 0.0, "is_disabled": 0, "fusion_lat": 0.0, "bike_id": "5667e9dfca63e47a4321609323c0fe87", "rental_uris": {"ios": "https://dc.lft.to/lastmile_qr_scan", "android": "https://dc.lft.to/lastmile_qr_scan"}}, {"name": "2ae30a48744d3263f1634bae97ee30f6", "type": "electric_scooter", "lat": 38.90256566666667, "is_reserved": 0, "lon": -77.03982833333333, "fusion_lon": 0.0, "is_disabled": 0, "fusion_lat": 0.0, "bike_id": "2ae30a48744d3263f1634bae97ee30f6", "rental_uris": {"ios": "https://dc.lft.to/lastmile_qr_scan", "android": "https://dc.lft.to/lastmile_qr_scan"}}, {"name": "d7c7b3c042f01ebcb8acd5f9eef308ea", "type": "electric_scooter", "lat": 38.93304066666666, "is_reserved": 0, "lon": -77.037716, "fusion_lon": 0.0, "is_disabled": 0, "fusion_lat": 0.0, "bike_id": "d7c7b3c042f01ebcb8acd5f9eef308ea", "rental_uris": {"ios": "https://dc.lft.to/lastmile_qr_scan", "android": "https://dc.lft.to/lastmile_qr_scan"}}, {"name": "012c6229ded8edacefbe896be8f2ac03", "type": "electric_scooter", "lat": 38.88722633333333, "is_reserved": 0, "lon": -77.02830333333333, "fusion_lon": 0.0, "is_disabled": 0, "fusion_lat": 0.0, "bike_id": "012c6229ded8edacefbe896be8f2ac03", "rental_uris": {"ios": "https://dc.lft.to/lastmile_qr_scan", "android": "https://dc.lft.to/lastmile_qr_scan"}}, {"name": "eb1f7049a414d3f4ec742cff3927fa27", "type": "electric_scooter", "lat": 38.90615833333333, "is_reserved": 0, "lon": -77.0514515, "fusion_lon": 0.0, "is_disabled": 0, "fusion_lat": 0.0, "bike_id": "eb1f7049a414d3f4ec742cff3927fa27", "rental_uris": {"ios": "https://dc.lft.to/lastmile_qr_scan", "android": "https://dc.lft.to/lastmile_qr_scan"}}, {"name": "9ed121b9d2cc9aac1e78d087982ba432", "type": "electric_scooter", "lat": 38.9346955, "is_reserved": 0, "lon": -77.029352, "fusion_lon": 0.0, "is_disabled": 0, "fusion_lat": 0.0, "bike_id": "9ed121b9d2cc9aac1e78d087982ba432", "rental_uris": {"ios": "https://dc.lft.to/lastmile_qr_scan", "android": "https://dc.lft.to/lastmile_qr_scan"}}, {"name": "8dced92c8f1e0cce376e4a117d69a4c5", "type": "electric_scooter", "lat": 38.92047316666667, "is_reserved": 0, "lon": -77.02353116666667, "fusion_lon": 0.0, "is_disabled": 0, "fusion_lat": 0.0, "bike_id": "8dced92c8f1e0cce376e4a117d69a4c5", "rental_uris": {"ios": "https://dc.lft.to/lastmile_qr_scan", "android": "https://dc.lft.to/lastmile_qr_scan"}}, {"name": "a897d56bf2484570947f7df9d5f0bf2d", "type": "electric_scooter", "lat": 38.89497683333333, "is_reserved": 0, "lon": -77.01121066666667, "fusion_lon": 0.0, "is_disabled": 0, "fusion_lat": 0.0, "bike_id": "a897d56bf2484570947f7df9d5f0bf2d", "rental_uris": {"ios": "https://dc.lft.to/lastmile_qr_scan", "android": "https://dc.lft.to/lastmile_qr_scan"}}, {"name": "15f274ebfa44d2f4d693c04fdae22db6", "type": "electric_scooter", "lat": 38.936058833333334, "is_reserved": 0, "lon": -77.05858916666666, "fusion_lon": 0.0, "is_disabled": 0, "fusion_lat": 0.0, "bike_id": "15f274ebfa44d2f4d693c04fdae22db6", "rental_uris": {"ios": "https://dc.lft.to/lastmile_qr_scan", "android": "https://dc.lft.to/lastmile_qr_scan"}}, {"name": "fe5359ef5a51cd956c1ee0eb588c4fe8", "type": "electric_scooter", "lat": 38.90013916666667, "is_reserved": 0, "lon": -77.01141516666667, "fusion_lon": 0.0, "is_disabled": 0, "fusion_lat": 0.0, "bike_id": "fe5359ef5a51cd956c1ee0eb588c4fe8", "rental_uris": {"ios": "https://dc.lft.to/lastmile_qr_scan", "android": "https://dc.lft.to/lastmile_qr_scan"}}, {"name": "83f8b210d1dfd3e3c7a4c11d4bd30b47", "type": "electric_scooter", "lat": 38.86565066666667, "is_reserved": 0, "lon": -76.98549333333334, "fusion_lon": 0.0, "is_disabled": 0, "fusion_lat": 0.0, "bike_id": "83f8b210d1dfd3e3c7a4c11d4bd30b47", "rental_uris": {"ios": "https://dc.lft.to/lastmile_qr_scan", "android": "https://dc.lft.to/lastmile_qr_scan"}}, {"name": "d03549abad7005b12bb0099919a27399", "type": "electric_scooter", "lat": 38.89730183333333, "is_reserved": 0, "lon": -77.0547435, "fusion_lon": 0.0, "is_disabled": 0, "fusion_lat": 0.0, "bike_id": "d03549abad7005b12bb0099919a27399", "rental_uris": {"ios": "https://dc.lft.to/lastmile_qr_scan", "android": "https://dc.lft.to/lastmile_qr_scan"}}, {"name": "0c9296e7b7a0c38a13a95b25b8c7fe39", "type": "electric_scooter", "lat": 38.932477166666665, "is_reserved": 0, "lon": -77.03845, "fusion_lon": 0.0, "is_disabled": 0, "fusion_lat": 0.0, "bike_id": "0c9296e7b7a0c38a13a95b25b8c7fe39", "rental_uris": {"ios": "https://dc.lft.to/lastmile_qr_scan", "android": "https://dc.lft.to/lastmile_qr_scan"}}, {"name": "4e35ffa962696a546c1cae3e6392f002", "type": "electric_bike", "lat": 38.811486333333335, "is_reserved": 0, "lon": -77.0503475, "fusion_lon": 0.0, "is_disabled": 0, "fusion_lat": 0.0, "bike_id": "4e35ffa962696a546c1cae3e6392f002", "rental_uris": {"ios": "https://dc.lft.to/lastmile_qr_scan", "android": "https://dc.lft.to/lastmile_qr_scan"}}, {"name": "97714d3b67976c7bd7326cd5df9d71e2", "type": "electric_scooter", "lat": 38.88433833333333, "is_reserved": 0, "lon": -77.0295995, "fusion_lon": 0.0, "is_disabled": 0, "fusion_lat": 0.0, "bike_id": "97714d3b67976c7bd7326cd5df9d71e2", "rental_uris": {"ios": "https://dc.lft.to/lastmile_qr_scan", "android": "https://dc.lft.to/lastmile_qr_scan"}}, {"name": "b0c2d1c97a87121443d88717cb1c2785", "type": "electric_bike", "lat": 38.88275483333334, "is_reserved": 0, "lon": -76.9323685, "fusion_lon": 0.0, "is_disabled": 0, "fusion_lat": 0.0, "bike_id": "b0c2d1c97a87121443d88717cb1c2785", "rental_uris": {"ios": "https://dc.lft.to/lastmile_qr_scan", "android": "https://dc.lft.to/lastmile_qr_scan"}}, {"name": "eaf7dde1aec89376598508acbaa3eeea", "type": "electric_scooter", "lat": 38.94426166666667, "is_reserved": 0, "lon": -77.0636395, "fusion_lon": 0.0, "is_disabled": 0, "fusion_lat": 0.0, "bike_id": "eaf7dde1aec89376598508acbaa3eeea", "rental_uris": {"ios": "https://dc.lft.to/lastmile_qr_scan", "android": "https://dc.lft.to/lastmile_qr_scan"}}, {"name": "028d31de834c9306ed4d32a8b2916ddb", "type": "electric_scooter", "lat": 38.862436333333335, "is_reserved": 0, "lon": -76.99496566666667, "fusion_lon": 0.0, "is_disabled": 0, "fusion_lat": 0.0, "bike_id": "028d31de834c9306ed4d32a8b2916ddb", "rental_uris": {"ios": "https://dc.lft.to/lastmile_qr_scan", "android": "https://dc.lft.to/lastmile_qr_scan"}}, {"name": "f1cdde1e844188bdb07557bc69f26a35", "type": "electric_scooter", "lat": 38.870189333333336, "is_reserved": 0, "lon": -77.012331, "fusion_lon": 0.0, "is_disabled": 0, "fusion_lat": 0.0, "bike_id": "f1cdde1e844188bdb07557bc69f26a35", "rental_uris": {"ios": "https://dc.lft.to/lastmile_qr_scan", "android": "https://dc.lft.to/lastmile_qr_scan"}}, {"name": "a116fcf222cf4fd3a40495768b95d6c7", "type": "electric_scooter", "lat": 38.903038, "is_reserved": 0, "lon": -77.03204783333334, "fusion_lon": 0.0, "is_disabled": 0, "fusion_lat": 0.0, "bike_id": "a116fcf222cf4fd3a40495768b95d6c7", "rental_uris": {"ios": "https://dc.lft.to/lastmile_qr_scan", "android": "https://dc.lft.to/lastmile_qr_scan"}}, {"name": "37999330a94e1b919a350d67b4ab4978", "type": "electric_scooter", "lat": 38.93273833333333, "is_reserved": 0, "lon": -77.03491333333334, "fusion_lon": 0.0, "is_disabled": 0, "fusion_lat": 0.0, "bike_id": "37999330a94e1b919a350d67b4ab4978", "rental_uris": {"ios": "https://dc.lft.to/lastmile_qr_scan", "android": "https://dc.lft.to/lastmile_qr_scan"}}, {"name": "5047dbb6076d97ee49346471365d127c", "type": "electric_scooter", "lat": 38.88872516666667, "is_reserved": 0, "lon": -77.03998383333334, "fusion_lon": 0.0, "is_disabled": 0, "fusion_lat": 0.0, "bike_id": "5047dbb6076d97ee49346471365d127c", "rental_uris": {"ios": "https://dc.lft.to/lastmile_qr_scan", "android": "https://dc.lft.to/lastmile_qr_scan"}}, {"name": "c7a86a89b1ee8d249c22d4f5e3ca3bd2", "type": "electric_scooter", "lat": 38.930740166666666, "is_reserved": 0, "lon": -77.033934, "fusion_lon": 0.0, "is_disabled": 0, "fusion_lat": 0.0, "bike_id": "c7a86a89b1ee8d249c22d4f5e3ca3bd2", "rental_uris": {"ios": "https://dc.lft.to/lastmile_qr_scan", "android": "https://dc.lft.to/lastmile_qr_scan"}}, {"name": "9d370594ddcde0e7650cb309b955a1bd", "type": "electric_scooter", "lat": 38.900367, "is_reserved": 0, "lon": -77.006288, "fusion_lon": 0.0, "is_disabled": 0, "fusion_lat": 0.0, "bike_id": "9d370594ddcde0e7650cb309b955a1bd", "rental_uris": {"ios": "https://dc.lft.to/lastmile_qr_scan", "android": "https://dc.lft.to/lastmile_qr_scan"}}, {"name": "658b72be6e58fa92d1d0ef2ca11ae4b5", "type": "electric_bike", "lat": 38.965567666666665, "is_reserved": 0, "lon": -77.03512516666666, "fusion_lon": 0.0, "is_disabled": 0, "fusion_lat": 0.0, "bike_id": "658b72be6e58fa92d1d0ef2ca11ae4b5", "rental_uris": {"ios": "https://dc.lft.to/lastmile_qr_scan", "android": "https://dc.lft.to/lastmile_qr_scan"}}, {"name": "b5d561bbfb67713eb89c813572cc3a8b", "type": "electric_scooter", "lat": 38.91255566666667, "is_reserved": 0, "lon": -77.00767783333333, "fusion_lon": 0.0, "is_disabled": 0, "fusion_lat": 0.0, "bike_id": "b5d561bbfb67713eb89c813572cc3a8b", "rental_uris": {"ios": "https://dc.lft.to/lastmile_qr_scan", "android": "https://dc.lft.to/lastmile_qr_scan"}}, {"name": "e2220af6469dc1c27bea553292f71807", "type": "electric_scooter", "lat": 38.894812, "is_reserved": 0, "lon": -77.01096616666666, "fusion_lon": 0.0, "is_disabled": 0, "fusion_lat": 0.0, "bike_id": "e2220af6469dc1c27bea553292f71807", "rental_uris": {"ios": "https://dc.lft.to/lastmile_qr_scan", "android": "https://dc.lft.to/lastmile_qr_scan"}}, {"name": "27979bdc5207bdee58c6805a869093a4", "type": "electric_scooter", "lat": 38.901607, "is_reserved": 0, "lon": -77.029316, "fusion_lon": 0.0, "is_disabled": 0, "fusion_lat": 0.0, "bike_id": "27979bdc5207bdee58c6805a869093a4", "rental_uris": {"ios": "https://dc.lft.to/lastmile_qr_scan", "android": "https://dc.lft.to/lastmile_qr_scan"}}, {"name": "59a66b0d5f656b7481b649b2ef937ff8", "type": "electric_bike", "lat": 38.9285095, "is_reserved": 0, "lon": -77.10677733333333, "fusion_lon": 0.0, "is_disabled": 0, "fusion_lat": 0.0, "bike_id": "59a66b0d5f656b7481b649b2ef937ff8", "rental_uris": {"ios": "https://dc.lft.to/lastmile_qr_scan", "android": "https://dc.lft.to/lastmile_qr_scan"}}, {"name": "d58156a60ac5b063e0f556dbeec1b6a5", "type": "electric_scooter", "lat": 38.92161316666667, "is_reserved": 0, "lon": -77.04027316666667, "fusion_lon": 0.0, "is_disabled": 0, "fusion_lat": 0.0, "bike_id": "d58156a60ac5b063e0f556dbeec1b6a5", "rental_uris": {"ios": "https://dc.lft.to/lastmile_qr_scan", "android": "https://dc.lft.to/lastmile_qr_scan"}}, {"name": "1bc484455bdf3c5853e0931571164a21", "type": "electric_scooter", "lat": 38.93060666666667, "is_reserved": 0, "lon": -77.02323633333333, "fusion_lon": 0.0, "is_disabled": 0, "fusion_lat": 0.0, "bike_id": "1bc484455bdf3c5853e0931571164a21", "rental_uris": {"ios": "https://dc.lft.to/lastmile_qr_scan", "android": "https://dc.lft.to/lastmile_qr_scan"}}, {"name": "55d6886018ce12ea40d57d2ef9b45c6a", "type": "electric_scooter", "lat": 38.92444183333333, "is_reserved": 0, "lon": -77.02979533333334, "fusion_lon": 0.0, "is_disabled": 0, "fusion_lat": 0.0, "bike_id": "55d6886018ce12ea40d57d2ef9b45c6a", "rental_uris": {"ios": "https://dc.lft.to/lastmile_qr_scan", "android": "https://dc.lft.to/lastmile_qr_scan"}},