{"data": {"bikes": [{"type": "electric_scooter", "rental_uris": {"ios": "https://dc.lft.to/lastmile_qr_scan", "android": "https://dc.lft.to/lastmile_qr_scan"}, "lon": -76.9902885, "fusion_lon": 0.0, "is_disabled": 0, "lat": 38.89853683333333, "bike_id": "1169be3d162900d5ef5ca055e068b0f3", "name": "1169be3d162900d5ef5ca055e068b0f3", "is_reserved": 0, "fusion_lat": 0.0}, {"type": "electric_scooter", "rental_uris": {"ios": "https://dc.lft.to/lastmile_qr_scan", "android": "https://dc.lft.to/lastmile_qr_scan"}, "lon": -77.079743, "fusion_lon": 0.0, "is_disabled": 0, "lat": 38.919479833333334, "bike_id": "b1cff54093f2d7a41d85cb947f717e6d", "name": "b1cff54093f2d7a41d85cb947f717e6d", "is_reserved": 0, "fusion_lat": 0.0}, {"type": "electric_scooter", "rental_uris": {"ios": "https://dc.lft.to/lastmile_qr_scan", "android": "https://dc.lft.to/lastmile_qr_scan"}, "lon": -76.9977645, "fusion_lon": 0.0, "is_disabled": 0, "lat": 38.844336, "bike_id": "4318874da013f3eab0a639c0d81cdcdb", "name": "4318874da013f3eab0a639c0d81cdcdb", "is_reserved": 0, "fusion_lat": 0.0}, {"type": "electric_scooter", "rental_uris": {"ios": "https://dc.lft.to/lastmile_qr_scan", "android": "https://dc.lft.to/lastmile_qr_scan"}, "lon": -76.9317675, "fusion_lon": 0.0, "is_disabled": 0, "lat": 38.898853833333334, "bike_id": "5d2b9033fe9b597859d910b8225067ef", "name": "5d2b9033fe9b597859d910b8225067ef", "is_reserved": 0, "fusion_lat": 0.0}, {"type": "electric_scooter", "rental_uris": {"ios": "https://dc.lft.to/lastmile_qr_scan", "android": "https://dc.lft.to/lastmile_qr_scan"}, "lon": -77.028249, "fusion_lon": 0.0, "is_disabled": 0, "lat": 38.88738516666667, "bike_id": "44afd2cb139a9c8e4b181c6120c98733", "name": "44afd2cb139a9c8e4b181c6120c98733", "is_reserved": 0, "fusion_lat": 0.0}, {"type": "electric_scooter", "rental_uris": {"ios": "https://dc.lft.to/lastmile_qr_scan", "android": "https://dc.lft.to/lastmile_qr_scan"}, "lon": -77.0218925, "fusion_lon": 0.0, "is_disabled": 0, "lat": 38.91431883333333, "bike_id": "a8c21514b4898aece5d7ef3f4cda4923", "name": "a8c21514b4898aece5d7ef3f4cda4923", "is_reserved": 0, "fusion_lat": 0.0}, {"type": "electric_scooter", "rental_uris": {"ios": "https://dc.lft.to/lastmile_qr_scan", "android": "https://dc.lft.to/lastmile_qr_scan"}, "lon": -77.02422116666666, "fusion_lon": 0.0, "is_disabled": 0, "lat": 38.922923, "bike_id": "ccd8b2d69e686952835bc16afc282549", "name": "ccd8b2d69e686952835bc16afc282549", "is_reserved": 0, "fusion_lat": 0.0}, {"type": "electric_scooter", "rental_uris": {"ios": "https://dc.lft.to/lastmile_qr_scan", "android": "https://dc.lft.to/lastmile_qr_scan"}, "lon": -77.02990983333333, "fusion_lon": 0.0, "is_disabled": 0, "lat": 38.9204525, "bike_id": "26a02d0ee5191d2bc630f15b0963c4d7", "name": "26a02d0ee5191d2bc630f15b0963c4d7", "is_reserved": 0, "fusion_lat": 0.0}, {"type": "electric_bike", "rental_uris": {"ios": "https://dc.lft.to/lastmile_qr_scan", "android": "https://dc.lft.to/lastmile_qr_scan"}, "lon": -77.009095, "fusion_lon": 0.0, "is_disabled": 0, "lat": 38.8278875, "bike_id": "7df38425e30bd1e822e6570c4cdfc92d", "name": "7df38425e30bd1e822e6570c4cdfc92d", "is_reserved": 0, "fusion_lat": 0.0}, {"type": "electric_scooter", "rental_uris": {"ios": "https://dc.lft.to/lastmile_qr_scan", "android": "https://dc.lft.to/lastmile_qr_scan"}, "lon": -77.02761333333333, "fusion_lon": 0.0, "is_disabled": 0, "lat": 38.9561235, "bike_id": "11e3212962fa99558e26aabfce6630d6", "name": "11e3212962fa99558e26aabfce6630d6", "is_reserved": 0, "fusion_lat": 0.0}, {"type": "electric_scooter", "rental_uris": {"ios": "https://dc.lft.to/lastmile_qr_scan", "android": "https://dc.lft.to/lastmile_qr_scan"}, "lon": -77.05129616666666, "fusion_lon": 0.0, "is_disabled": 0, "lat": 38.92365866666667, "bike_id": "34cc2482382809c88ce58b1d211d917d", "name": "34cc2482382809c88ce58b1d211d917d", "is_reserved": 0, "fusion_lat": 0.0}, {"type": "electric_scooter", "rental_uris": {"ios": "https://dc.lft.to/lastmile_qr_scan", "android": "https://dc.lft.to/lastmile_qr_scan"}, "lon": -77.01102633333333, "fusion_lon": 0.0, "is_disabled": 0, "lat": 38.893489333333335, "bike_id": "e29e7e69209d328163b3071679abd6e1", "name": "e29e7e69209d328163b3071679abd6e1", "is_reserved": 0, "fusion_lat": 0.0}, {"type": "electric_scooter", "rental_uris": {"ios": "https://dc.lft.to/lastmile_qr_scan", "android": "https://dc.lft.to/lastmile_qr_scan"}, "lon": -76.99208966666667, "fusion_lon": 0.0, "is_disabled": 0, "lat": 38.895235, "bike_id": "3f03ae1adfdb4f2591b331ca6a4c6741", "name": "3f03ae1adfdb4f2591b331ca6a4c6741", "is_reserved": 0, "fusion_lat": 0.0}, {"type": "electric_scooter", "rental_uris": {"ios": "https://dc.lft.to/lastmile_qr_scan", "android": "https://dc.lft.to/lastmile_qr_scan"}, "lon": -76.983082, "fusion_lon": 0.0, "is_disabled": 0, "lat": 38.8689125, "bike_id": "197d7a7673f110fd182aaf9f32d4d625", "name": "197d7a7673f110fd182aaf9f32d4d625", "is_reserved": 0, "fusion_lat": 0.0}, {"type": "electric_scooter", "rental_uris": {"ios": "https://dc.lft.to/lastmile_qr_scan", "android": "https://dc.lft.to/lastmile_qr_scan"}, "lon": -77.017411, "fusion_lon": 0.0, "is_disabled": 0, "lat": 38.90263233333334, "bike_id": "89dcbd26b8d71f3a155070b39e21e47f", "name": "89dcbd26b8d71f3a155070b39e21e47f", "is_reserved": 0, "fusion_lat": 0.0}, {"type": "electric_scooter", "rental_uris": {"ios": "https://dc.lft.to/lastmile_qr_scan", "android": "https://dc.lft.to/lastmile_qr_scan"}, "lon": -77.0350465, "fusion_lon": 0.0, "is_disabled": 0, "lat": 38.921497, "bike_id": "40661d20786369d4e6145107f5f67b5f", "name": "40661d20786369d4e6145107f5f67b5f", "is_reserved": 0, "fusion_lat": 0.0}, {"type": "electric_scooter", "rental_uris": {"ios": "https://dc.lft.to/lastmile_qr_scan", "android": "https://dc.lft.to/lastmile_qr_scan"}, "lon": -77.0032395, "fusion_lon": 0.0, "is_disabled": 0, "lat": 38.90868783333333, "bike_id": "ffc9745f521161d607b200c063f0292f", "name": "ffc9745f521161d607b200c063f0292f", "is_reserved": 0, "fusion_lat": 0.0}, {"type": "electric_scooter", "rental_uris": {"ios": "https://dc.lft.to/lastmile_qr_scan", "android": "https://dc.lft.to/lastmile_qr_scan"}, "lon": -77.0402165, "fusion_lon": 0.0, "is_disabled": 0, "lat": 38.93063083333333, "bike_id": "1b5ad674dc5558989b688100989142b5", "name": "1b5ad674dc5558989b688100989142b5", "is_reserved": 0, "fusion_lat": 0.0}, {"type": "electric_scooter", "rental_uris": {"ios": "https://dc.lft.to/lastmile_qr_scan", "android": "https://dc.lft.to/lastmile_qr_scan"}, "lon": -77.02436183333333, "fusion_lon": 0.0, "is_disabled": 0, "lat": 38.918963833333336, "bike_id": "e18c1dd40364f310b8ec94cd58db3800", "name": "e18c1dd40364f310b8ec94cd58db3800", "is_reserved": 0, "fusion_lat": 0.0}, {"type": "electric_scooter", "rental_uris": {"ios": "https://dc.lft.to/lastmile_qr_scan", "android": "https://dc.lft.to/lastmile_qr_scan"}, "lon": -77.0104285, "fusion_lon": 0.0, "is_disabled": 0, "lat": 38.866639, "bike_id": "872ccfe2216071786644d9db9566a62d", "name": "872ccfe2216071786644d9db9566a62d", "is_reserved": 0, "fusion_lat": 0.0}, {"type": "electric_scooter", "rental_uris": {"ios": "https://dc.lft.to/lastmile_qr_scan", "android": "https://dc.lft.to/lastmile_qr_scan"}, "lon": -77.02982066666667, "fusion_lon": 0.0, "is_disabled": 0, "lat": 38.90507816666667, "bike_id": "fb9fea5eaed6076a0fb4fe78dc6a14a2", "name": "fb9fea5eaed6076a0fb4fe78dc6a14a2", "is_reserved": 0, "fusion_lat": 0.0}, {"type": "electric_scooter", "rental_uris": {"ios": "https://dc.lft.to/lastmile_qr_scan", "android": "https://dc.lft.to/lastmile_qr_scan"}, "lon": -77.02321466666666, "fusion_lon": 0.0, "is_disabled": 0, "lat": 38.91620283333334, "bike_id": "7f054d624437921759f1d7618d0e63f7", "name": "7f054d624437921759f1d7618d0e63f7", "is_reserved": 0, "fusion_lat": 0.0}, {"type": "electric_scooter", "rental_uris": {"ios": "https://dc.lft.to/lastmile_qr_scan", "android": "https://dc.lft.to/lastmile_qr_scan"}, "lon": -77.01979116666666, "fusion_lon": 0.0, "is_disabled": 0, "lat": 38.929415, "bike_id": "1bfc0068920dc39172a42532628968ea", "name": "1bfc0068920dc39172a42532628968ea", "is_reserved": 0, "fusion_lat": 0.0}, {"type": "electric_scooter", "rental_uris": {"ios": "https://dc.lft.to/lastmile_qr_scan", "android": "https://dc.lft.to/lastmile_qr_scan"}, "lon": -76.98695616666667, "fusion_lon": 0.0, "is_disabled": 0, "lat": 38.86722916666667, "bike_id": "5197a3259c9888b80a0a1565f50ee539", "name": "5197a3259c9888b80a0a1565f50ee539", "is_reserved": 0, "fusion_lat": 0.0}, {"type": "electric_scooter", "rental_uris": {"ios": "https://dc.lft.to/lastmile_qr_scan", "android": "https://dc.lft.to/lastmile_qr_scan"}, "lon": -77.03396016666666, "fusion_lon": 0.0, "is_disabled": 0, "lat": 38.899154, "bike_id": "9cc8da976f898572ca440d1cf730635d", "name": "9cc8da976f898572ca440d1cf730635d", "is_reserved": 0, "fusion_lat": 0.0}, {"type": "electric_scooter", "rental_uris": {"ios": "https://dc.lft.to/lastmile_qr_scan", "android": "https://dc.lft.to/lastmile_qr_scan"}, "lon": -76.98477783333334, "fusion_lon": 0.0, "is_disabled": 0, "lat": 38.913118, "bike_id": "4cca95d40fa27c9a715cc69629ec23f8", "name": "4cca95d40fa27c9a715cc69629ec23f8", "is_reserved": 0, "fusion_lat": 0.0}, {"type": "electric_scooter", "rental_uris": {"ios": "https://dc.lft.to/lastmile_qr_scan", "android": "https://dc.lft.to/lastmile_qr_scan"}, "lon": -77.031026, "fusion_lon": 0.0, "is_disabled": 0, "lat": 38.9386145, "bike_id": "95e530cbe52dbcc8a9d06baad64edb61", "name": "95e530cbe52dbcc8a9d06baad64edb61", "is_reserved": 0, "fusion_lat": 0.0}, {"type": "electric_scooter", "rental_uris": {"ios": "https://dc.lft.to/lastmile_qr_scan", "android": "https://dc.lft.to/lastmile_qr_scan"}, "lon": -77.025041, "fusion_lon": 0.0, "is_disabled": 0, "lat": 38.91950166666667, "bike_id": "6a2823500c1acb0c749095266ba8103d", "name": "6a2823500c1acb0c749095266ba8103d", "is_reserved": 0, "fusion_lat": 0.0}, {"type": "electric_scooter", "rental_uris": {"ios": "https://dc.lft.to/lastmile_qr_scan", "android": "https://dc.lft.to/lastmile_qr_scan"}, "lon": -77.021986, "fusion_lon": 0.0, "is_disabled": 0, "lat": 38.911301333333334, "bike_id": "e9ae68940dad2f11daa531d313a82387", "name": "e9ae68940dad2f11daa531d313a82387", "is_reserved": 0, "fusion_lat": 0.0}, {"type": "electric_bike", "rental_uris": {"ios": "https://dc.lft.to/lastmile_qr_scan", "android": "https://dc.lft.to/lastmile_qr_scan"}, "lon": -77.06080366666667, "fusion_lon": 0.0, "is_disabled": 0, "lat": 38.88578866666667, "bike_id": "cff42a8472623e1275d4de33172821b2", "name": "cff42a8472623e1275d4de33172821b2", "is_reserved": 0, "fusion_lat": 0.0}, {"type": "electric_scooter", "rental_uris": {"ios": "https://dc.lft.to/lastmile_qr_scan", "android": "https://dc.lft.to/lastmile_qr_scan"}, "lon": -77.01163866666667, "fusion_lon": 0.0, "is_disabled": 0, "lat": 38.900229, "bike_id": "3898eed4b67746d478e9ab1ba9f5714c", "name": "3898eed4b67746d478e9ab1ba9f5714c", "is_reserved": 0, "fusion_lat": 0.0}, {"type": "electric_scooter", "rental_uris": {"ios": "https://dc.lft.to/lastmile_qr_scan", "android": "https://dc.lft.to/lastmile_qr_scan"}, "lon": -77.03279183333333, "fusion_lon": 0.0, "is_disabled": 0, "lat": 38.9078995, "bike_id": "d87f88fa70088c9d1144cf10b8504966", "name": "d87f88fa70088c9d1144cf10b8504966", "is_reserved": 0, "fusion_lat": 0.0}, {"type": "electric_bike", "rental_uris": {"ios": "https://dc.lft.to/lastmile_qr_scan", "android": "https://dc.lft.to/lastmile_qr_scan"}, "lon": -77.1310575, "fusion_lon": 0.0, "is_disabled": 0, "lat": 39.02426366666667, "bike_id": "7325d379968f589b8166e18255f63f4c", "name": "7325d379968f589b8166e18255f63f4c", "is_reserved": 0, "fusion_lat": 0.0}, {"type": "electric_scooter", "rental_uris": {"ios": "https://dc.lft.to/lastmile_qr_scan", "android": "https://dc.lft.to/lastmile_qr_scan"}, "lon": -77.00464216666667, "fusion_lon": 0.0, "is_disabled": 0, "lat": 38.911050833333334, "bike_id": "595fca44acecd299af708a38348db4a5", "name": "595fca44acecd299af708a38348db4a5", "is_reserved": 0, "fusion_lat": 0.0}, {"type": "electric_scooter", "rental_uris": {"ios": "https://dc.lft.to/lastmile_qr_scan", "android": "https://dc.lft.to/lastmile_qr_scan"}, "lon": -77.026541, "fusion_lon": 0.0, "is_disabled": 0, "lat": 38.892215666666665, "bike_id": "81cf0eb19333fedab690014ae86b794c", "name": "81cf0eb19333fedab690014ae86b794c", "is_reserved": 0, "fusion_lat": 0.0}, {"type": "electric_scooter", "rental_uris": {"ios": "https://dc.lft.to/lastmile_qr_scan", "android": "https://dc.lft.to/lastmile_qr_scan"}, "lon": -76.94891016666666, "fusion_lon": 0.0, "is_disabled": 0, "lat": 38.89528166666667, "bike_id": "dfac986f1f437690c2fee52dcc9950a9", "name": "dfac986f1f437690c2fee52dcc9950a9", "is_reserved": 0, "fusion_lat": 0.0}, {"type": "electric_scooter", "rental_uris": {"ios": "https://dc.lft.to/lastmile_qr_scan", "android": "https://dc.lft.to/lastmile_qr_scan"}, "lon": -77.02844866666666, "fusion_lon": 0.0, "is_disabled": 0, "lat": 38.96114933333333, "bike_id": "f93fe9a9bf452bed2fa34ff01774536e", "name": "f93fe9a9bf452bed2fa34ff01774536e", "is_reserved": 0, "fusion_lat": 0.0}, {"type": "electric_bike", "rental_uris": {"ios": "https://dc.lft.to/lastmile_qr_scan", "android": "https://dc.lft.to/lastmile_qr_scan"}, "lon": -77.09474466666667, "fusion_lon": 0.0, "is_disabled": 0, "lat": 39.03045683333333, "bike_id": "89ec0cf9d4b08d5a3fd2eb24100b7376", "name": "89ec0cf9d4b08d5a3fd2eb24100b7376", "is_reserved": 0, "fusion_lat": 0.0}, {"type": "electric_scooter", "rental_uris": {"ios": "https://dc.lft.to/lastmile_qr_scan", "android": "https://dc.lft.to/lastmile_qr_scan"}, "lon": -77.03182533333333, "fusion_lon": 0.0, "is_disabled": 0, "lat": 38.9052, "bike_id": "655cfb66a621b3b936df1596ce2a2260", "name": "655cfb66a621b3b936df1596ce2a2260", "is_reserved": 0, "fusion_lat": 0.0}, {"type": "electric_scooter", "rental_uris": {"ios": "https://dc.lft.to/lastmile_qr_scan", "android": "https://dc.lft.to/lastmile_qr_scan"}, "lon": -77.04188316666666, "fusion_lon": 0.0, "is_disabled": 0, "lat": 38.92059533333333, "bike_id": "2ca32ef2d9c34fd95c2aec26b7940ef8", "name": "2ca32ef2d9c34fd95c2aec26b7940ef8", "is_reserved": 0, "fusion_lat": 0.0}, {"type": "electric_scooter", "rental_uris": {"ios": "https://dc.lft.to/lastmile_qr_scan", "android": "https://dc.lft.to/lastmile_qr_scan"}, "lon": -76.99606983333334, "fusion_lon": 0.0, "is_disabled": 0, "lat": 38.90967333333333, "bike_id": "39592052c6ade1c916554c9b1dcc72be", "name": "39592052c6ade1c916554c9b1dcc72be", "is_reserved": 0, "fusion_lat": 0.0}, {"type": "electric_scooter", "rental_uris": {"ios": "https://dc.lft.to/lastmile_qr_scan", "android": "https://dc.lft.to/lastmile_qr_scan"}, "lon": -77.01715916666667, "fusion_lon": 0.0, "is_disabled": 0, "lat": 38.911117, "bike_id": "d0326d5c3795d3c2ed5b3e25a017b848", "name": "d0326d5c3795d3c2ed5b3e25a017b848", "is_reserved": 0, "fusion_lat": 0.0}, {"type": "electric_scooter", "rental_uris": {"ios": "https://dc.lft.to/lastmile_qr_scan", "android": "https://dc.lft.to/lastmile_qr_scan"}, "lon": -76.95849833333334, "fusion_lon": 0.0, "is_disabled": 0, "lat": 38.8928665, "bike_id": "7d4a612799b23b03d1c4f881215579c1", "name": "7d4a612799b23b03d1c4f881215579c1", "is_reserved": 0, "fusion_lat": 0.0}, {"type": "electric_scooter", "rental_uris": {"ios": "https://dc.lft.to/lastmile_qr_scan", "android": "https://dc.lft.to/lastmile_qr_scan"}, "lon": -76.9463175, "fusion_lon": 0.0, "is_disabled": 0, "lat": 38.898456333333336, "bike_id": "36bafa661219dbabc1a3c5f19691e963", "name": "36bafa661219dbabc1a3c5f19691e963", "is_reserved": 0, "fusion_lat": 0.0}, {"type": "electric_scooter", "rental_uris": {"ios": "https://dc.lft.to/lastmile_qr_scan", "android": "https://dc.lft.to/lastmile_qr_scan"}, "lon": -76.9961015, "fusion_lon": 0.0, "is_disabled": 0, "lat": 38.887184833333336, "bike_id": "266b72f986859762e072675f066a9189", "name": "266b72f986859762e072675f066a9189", "is_reserved": 0, "fusion_lat": 0.0}, {"type": "electric_scooter", "rental_uris": {"ios": "https://dc.lft.to/lastmile_qr_scan", "android": "https://dc.lft.to/lastmile_qr_scan"}, "lon": -76.9908635, "fusion_lon": 0.0, "is_disabled": 0, "lat": 38.92954566666667, "bike_id": "08225513a46743b33142134c4d363d89", "name": "08225513a46743b33142134c4d363d89", "is_reserved": 0, "fusion_lat": 0.0}, {"type": "electric_scooter", "rental_uris": {"ios": "https://dc.lft.to/lastmile_qr_scan", "android": "https://dc.lft.to/lastmile_qr_scan"}, "lon": -77.01177983333334, "fusion_lon": 0.0, "is_disabled": 0, "lat": 38.915683666666666, "bike_id": "d17fbb26065466b97c95850e1405edd4", "name": "d17fbb26065466b97c95850e1405edd4", "is_reserved": 0, "fusion_lat": 0.0}, {"type": "electric_bike", "rental_uris": {"ios": "https://dc.lft.to/lastmile_qr_scan", "android": "https://dc.lft.to/lastmile_qr_scan"}, "lon": -76.98430716666667, "fusion_lon": 0.0, "is_disabled": 0, "lat": 38.85526483333334, "bike_id": "78ac371adf428de24e99a1ec5462fd42", "name": "78ac371adf428de24e99a1ec5462fd42", "is_reserved": 0, "fusion_lat": 0.0}, {"type": "electric_bike", "rental_uris": {"ios": "https://dc.lft.to/lastmile_qr_scan", "android": "https://dc.lft.to/lastmile_qr_scan"}, "lon": -76.97522166666667, "fusion_lon": 0.0, "is_disabled": 0, "lat": 38.96704833333333, "bike_id": "bbb2bfc324fb800e08d6a63b4a5ae241", "name": "bbb2bfc324fb800e08d6a63b4a5ae241", "is_reserved": 0, "fusion_lat": 0.0}, {"type": "electric_scooter", "rental_uris": {"ios": "https://dc.lft.to/lastmile_qr_scan", "android": "https://dc.lft.to/lastmile_qr_scan"}, "lon": -77.02319583333333, "fusion_lon": 0.0, "is_disabled": 0, "lat": 38.93065383333333, "bike_id": "e9e4ae579bae8cc43401f9ad5eec7f0d", "name": "e9e4ae579bae8cc43401f9ad5eec7f0d", "is_reserved": 0, "fusion_lat": 0.0}, {"type": "electric_bike", "rental_uris": {"ios": "https://dc.lft.to/lastmile_qr_scan", "android": "https://dc.lft.to/lastmile_qr_scan"}, "lon": -77.0791855, "fusion_lon": 0.0, "is_disabled": 0, "lat": 38.802285833333336, "bike_id": "618eb3b56d36b2e96610856cd8d2db7a", "name": "618eb3b56d36b2e96610856cd8d2db7a", "is_reserved": 0, "fusion_lat": 0.0}, {"type": "electric_scooter", "rental_uris": {"ios": "https://dc.lft.to/lastmile_qr_scan", "android": "https://dc.lft.to/lastmile_qr_scan"}, "lon": -77.04359683333334, "fusion_lon": 0.0, "is_disabled": 0, "lat": 38.90232483333333, "bike_id": "4732f9575a219765637ee0ba2b233ad6", "name": "4732f9575a219765637ee0ba2b233ad6", "is_reserved": 0, "fusion_lat": 0.0}, {"type": "electric_scooter", "rental_uris": {"ios": "https://dc.lft.to/lastmile_qr_scan", "android": "https://dc.lft.to/lastmile_qr_scan"}, "lon": -77.04353583333334, "fusion_lon": 0.0, "is_disabled": 0, "lat": 38.92238866666667, "bike_id": "d9e693e6b4c00779e4c251b71e2bc9e8", "name": "d9e693e6b4c00779e4c251b71e2bc9e8", "is_reserved": 0, "fusion_lat": 0.0}, {"type": "electric_scooter", "rental_uris": {"ios": "https://dc.lft.to/lastmile_qr_scan", "android": "https://dc.lft.to/lastmile_qr_scan"}, "lon": -76.99037883333334, "fusion_lon": 0.0, "is_disabled": 0, "lat": 38.8636315, "bike_id": "3b1ec199f6e12f6fbe51321bccb1e7c7", "name": "3b1ec199f6e12f6fbe51321bccb1e7c7", "is_reserved": 0, "fusion_lat": 0.0}, {"type": "electric_scooter", "rental_uris": {"ios": "https://dc.lft.to/lastmile_qr_scan", "android": "https://dc.lft.to/lastmile_qr_scan"}, "lon": -77.00917866666667, "fusion_lon": 0.0, "is_disabled": 0, "lat": 38.91851283333333, "bike_id": "34649859d8ed76c5210d1ddd4e47e43f", "name": "34649859d8ed76c5210d1ddd4e47e43f", "is_reserved": 0, "fusion_lat": 0.0}, {"type": "electric_scooter", "rental_uris": {"ios": "https://dc.lft.to/lastmile_qr_scan", "android": "https://dc.lft.to/lastmile_qr_scan"}, "lon": -77.04031066666667, "fusion_lon": 0.0, "is_disabled": 0, "lat": 38.924460333333336, "bike_id": "863e057c806c5f4ebf7dab7fe6578135", "name": "863e057c806c5f4ebf7dab7fe6578135", "is_reserved": 0, "fusion_lat": 0.0}, {"type": "electric_scooter", "rental_uris": {"ios": "https://dc.lft.to/lastmile_qr_scan", "android": "https://dc.lft.to/lastmile_qr_scan"}, "lon": -77.04180166666667, "fusion_lon": 0.0, "is_disabled": 0, "lat": 38.905526, "bike_id": "01c536230b996bc8528fabf51ed7cd1b", "name": "01c536230b996bc8528fabf51ed7cd1b", "is_reserved": 0, "fusion_lat": 0.0}, {"type": "electric_scooter", "rental_uris": {"ios": "https://dc.lft.to/lastmile_qr_scan", "android": "https://dc.lft.to/lastmile_qr_scan"}, "lon": -77.00207066666667, "fusion_lon": 0.0, "is_disabled": 0, "lat": 38.90035683333333, "bike_id": "ccbb78be7fb4304ab4d292c2a0a7baba", "name": "ccbb78be7fb4304ab4d292c2a0a7baba", "is_reserved": 0, "fusion_lat": 0.0}, {"type": "electric_scooter", "rental_uris": {"ios": "https://dc.lft.to/lastmile_qr_scan", "android": "https://dc.lft.to/lastmile_qr_scan"}, "lon": -77.01458483333333, "fusion_lon": 0.0, "is_disabled": 0, "lat": 38.87731433333333, "bike_id": "50ede4d7a04202601901c28985d54a32", "name": "50ede4d7a04202601901c28985d54a32", "is_reserved": 0, "fusion_lat": 0.0}, {"type": "electric_scooter", "rental_uris": {"ios": "https://dc.lft.to/lastmile_qr_scan", "android": "https://dc.lft.to/lastmile_qr_scan"}, "lon": -77.03442883333334, "fusion_lon": 0.0, "is_disabled": 0, "lat": 38.90261266666667, "bike_id": "90b37384d6e562280b293a0c523afabd", "name": "90b37384d6e562280b293a0c523afabd", "is_reserved": 0, "fusion_lat": 0.0}, {"type": "electric_scooter", "rental_uris": {"ios": "https://dc.lft.to/lastmile_qr_scan", "android": "https://dc.lft.to/lastmile_qr_scan"}, "lon": -76.969812, "fusion_lon": 0.0, "is_disabled": 0, "lat": 38.91953616666667, "bike_id": "8c2030d4df9bb72fbac82d000b667072", "name": "8c2030d4df9bb72fbac82d000b667072", "is_reserved": 0, "fusion_lat": 0.0}, {"type": "electric_bike", "rental_uris": {"ios": "https://dc.lft.to/lastmile_qr_scan", "android": "https://dc.lft.to/lastmile_qr_scan"}, "lon": -77.09475316666666, "fusion_lon": 0.0, "is_disabled": 0, "lat": 38.8075535, "bike_id": "88a59b0d1e65dc2a697b97c5e2d98d4e", "name": "88a59b0d1e65dc2a697b97c5e2d98d4e", "is_reserved": 0, "fusion_lat": 0.0}, {"type": "electric_bike", "rental_uris": {"ios": "https://dc.lft.to/lastmile_qr_scan", "android": "https://dc.lft.to/lastmile_qr_scan"}, "lon": -77.03428666666667, "fusion_lon": 0.0, "is_disabled": 0, "lat": 38.92043916666667, "bike_id": "ff4bc951fad42e26b77bf94918042a81", "name": "ff4bc951fad42e26b77bf94918042a81", "is_reserved": 0, "fusion_lat": 0.0}, {"type": "electric_scooter", "rental_uris": {"ios": "https://dc.lft.to/lastmile_qr_scan", "android": "https://dc.lft.to/lastmile_qr_scan"}, "lon": -77.0241455, "fusion_lon": 0.0, "is_disabled": 0, "lat": 38.89826983333333, "bike_id": "d16d0f07a5a3b60ed1e7954f95e0ef7f", "name": "d16d0f07a5a3b60ed1e7954f95e0ef7f", "is_reserved": 0, "fusion_lat": 0.0}, {"type": "electric_scooter", "rental_uris": {"ios": "https://dc.lft.to/lastmile_qr_scan", "android": "https://dc.lft.to/lastmile_qr_scan"}, "lon": -77.0176145, "fusion_lon": 0.0, "is_disabled": 0, "lat": 38.876758, "bike_id": "4703d9e964557a2d22013845438f6ede", "name": "4703d9e964557a2d22013845438f6ede", "is_reserved": 0, "fusion_lat": 0.0}, {"type": "electric_scooter", "rental_uris": {"ios": "https://dc.lft.to/lastmile_qr_scan", "android": "https://dc.lft.to/lastmile_qr_scan"}, "lon": -77.02627066666666, "fusion_lon": 0.0, "is_disabled": 0, "lat": 38.892204, "bike_id": "1bd6df44ef8e2865220a1e0f084d68e6", "name": "1bd6df44ef8e2865220a1e0f084d68e6", "is_reserved": 0, "fusion_lat": 0.0}, {"type": "electric_scooter", "rental_uris": {"ios": "https://dc.lft.to/lastmile_qr_scan", "android": "https://dc.lft.to/lastmile_qr_scan"}, "lon": -76.99029983333334, "fusion_lon": 0.0, "is_disabled": 0, "lat": 38.8652445, "bike_id": "e110faf058ee018153e1e24302e4a6fd", "name": "e110faf058ee018153e1e24302e4a6fd", "is_reserved": 0, "fusion_lat": 0.0}, {"type": "electric_scooter", "rental_uris": {"ios": "https://dc.lft.to/lastmile_qr_scan", "android": "https://dc.lft.to/lastmile_qr_scan"}, "lon": -77.03951983333333, "fusion_lon": 0.0, "is_disabled": 0, "lat": 38.917072833333336, "bike_id": "f795e5aea3a18a313886615604a98831", "name": "f795e5aea3a18a313886615604a98831", "is_reserved": 0, "fusion_lat": 0.0}, {"type": "electric_scooter", "rental_uris": {"ios": "https://dc.lft.to/lastmile_qr_scan", "android": "https://dc.lft.to/lastmile_qr_scan"}, "lon": -77.01478266666666, "fusion_lon": 0.0, "is_disabled": 0, "lat": 38.87638183333333, "bike_id": "ea5c77bbabd657cdb63a16a245c919e2", "name": "ea5c77bbabd657cdb63a16a245c919e2", "is_reserved": 0, "fusion_lat": 0.0}, {"type": "electric_scooter", "rental_uris": {"ios": "https://dc.lft.to/lastmile_qr_scan", "android": "https://dc.lft.to/lastmile_qr_scan"}, "lon": -77.04023283333333, "fusion_lon": 0.0, "is_disabled": 0, "lat": 38.924521666666664, "bike_id": "cad731572d6f230a15bd005fc667ff74", "name": "cad731572d6f230a15bd005fc667ff74", "is_reserved": 0, "fusion_lat": 0.0}, {"type": "electric_scooter", "rental_uris": {"ios": "https://dc.lft.to/lastmile_qr_scan", "android": "https://dc.lft.to/lastmile_qr_scan"}, "lon": -77.04353733333333, "fusion_lon": 0.0, "is_disabled": 0, "lat": 38.904404166666666, "bike_id": "fdae0072c57911450b26e989e390e8b6", "name": "fdae0072c57911450b26e989e390e8b6", "is_reserved": 0, "fusion_lat": 0.0}, {"type": "electric_scooter", "rental_uris": {"ios": "https://dc.lft.to/lastmile_qr_scan", "android": "https://dc.lft.to/lastmile_qr_scan"}, "lon": -77.04638583333333, "fusion_lon": 0.0, "is_disabled": 0, "lat": 38.91550616666667, "bike_id": "35c599fd80aa0526e5e55553562e4e7c", "name": "35c599fd80aa0526e5e55553562e4e7c", "is_reserved": 0, "fusion_lat": 0.0}, {"type": "electric_scooter", "rental_uris": {"ios": "https://dc.lft.to/lastmile_qr_scan", "android": "https://dc.lft.to/lastmile_qr_scan"}, "lon": -77.04017633333333, "fusion_lon": 0.0, "is_disabled": 0, "lat": 38.9100045, "bike_id": "ab601dd829ce28539d531abda03b7f43", "name": "ab601dd829ce28539d531abda03b7f43", "is_reserved": 0, "fusion_lat": 0.0}, {"type": "electric_bike", "rental_uris": {"ios": "https://dc.lft.to/lastmile_qr_scan", "android": "https://dc.lft.to/lastmile_qr_scan"}, "lon": -76.98097516666667, "fusion_lon": 0.0, "is_disabled": 0, "lat": 38.953570166666665, "bike_id": "32278c61ecb86395285b7dd9eedc8199", "name": "32278c61ecb86395285b7dd9eedc8199", "is_reserved": 0, "fusion_lat": 0.0}, {"type": "electric_scooter", "rental_uris": {"ios": "https://dc.lft.to/lastmile_qr_scan", "android": "https://dc.lft.to/lastmile_qr_scan"}, "lon": -77.0367155, "fusion_lon": 0.0, "is_disabled": 0, "lat": 38.917090333333334, "bike_id": "ffdebf240e10b6a8eaf5ae39ba5d7f69", "name": "ffdebf240e10b6a8eaf5ae39ba5d7f69", "is_reserved": 0, "fusion_lat": 0.0}, {"type": "electric_scooter", "rental_uris": {"ios": "https://dc.lft.to/lastmile_qr_scan", "android": "https://dc.lft.to/lastmile_qr_scan"}, "lon": -77.04382166666667, "fusion_lon": 0.0, "is_disabled": 0, "lat": 38.93332783333334, "bike_id": "87bee226f57cf9ad396304e1e7db4e95", "name": "87bee226f57cf9ad396304e1e7db4e95", "is_reserved": 0, "fusion_lat": 0.0}, {"type": "electric_bike", "rental_uris": {"ios": "https://dc.lft.to/lastmile_qr_scan", "android": "https://dc.lft.to/lastmile_qr_scan"}, "lon": -77.12951066666666, "fusion_lon": 0.0, "is_disabled": 0, "lat": 38.852184666666666, "bike_id": "fb9b0104a247df673809524fcdf2f682", "name": "fb9b0104a247df673809524fcdf2f682", "is_reserved": 0, "fusion_lat": 0.0}, {"type": "electric_bike", "rental_uris": {"ios": "https://dc.lft.to/lastmile_qr_scan", "android": "https://dc.lft.to/lastmile_qr_scan"}, "lon": -76.93225383333333, "fusion_lon": 0.0, "is_disabled": 0, "lat": 38.865981166666664, "bike_id": "c185b6bac18572c47a39b6c85598d88b", "name": "c185b6bac18572c47a39b6c85598d88b", "is_reserved": 0, "fusion_lat": 0.0}, {"type": "electric_scooter", "rental_uris": {"ios": "https://dc.lft.to/lastmile_qr_scan", "android": "https://dc.lft.to/lastmile_qr_scan"}, "lon": -77.03196283333334, "fusion_lon": 0.0, "is_disabled": 0, "lat": 38.909758, "bike_id": "5ff1bfc05f1a8b5896972d06b1813d50", "name": "5ff1bfc05f1a8b5896972d06b1813d50", "is_reserved": 0, "fusion_lat": 0.0}, {"type": "electric_scooter", "rental_uris": {"ios": "https://dc.lft.to/lastmile_qr_scan", "android": "https://dc.lft.to/lastmile_qr_scan"}, "lon": -77.03190233333333, "fusion_lon": 0.0, "is_disabled": 0, "lat": 38.9097395, "bike_id": "5f7ff766e3db34060b480630f6a57ce9", "name": "5f7ff766e3db34060b480630f6a57ce9", "is_reserved": 0, "fusion_lat": 0.0}, {"type": "electric_scooter", "rental_uris": {"ios": "https://dc.lft.to/lastmile_qr_scan", "android": "https://dc.lft.to/lastmile_qr_scan"}, "lon": -77.0363895, "fusion_lon": 0.0, "is_disabled": 0, "lat": 38.9131655, "bike_id": "904ad0a6c043cc1c8a7d627fc1283c3a", "name": "904ad0a6c043cc1c8a7d627fc1283c3a", "is_reserved": 0, "fusion_lat": 0.0}, {"type": "electric_bike", "rental_uris": {"ios": "https://dc.lft.to/lastmile_qr_scan", "android": "https://dc.lft.to/lastmile_qr_scan"}, "lon": -76.91605116666666, "fusion_lon": 0.0, "is_disabled": 0, "lat": 38.879709166666665, "bike_id": "22e646eeccee1d6cc84f5e80dcb16064", "name": "22e646eeccee1d6cc84f5e80dcb16064", "is_reserved": 0, "fusion_lat": 0.0}, {"type": "electric_scooter", "rental_uris": {"ios": "https://dc.lft.to/lastmile_qr_scan", "android": "https://dc.lft.to/lastmile_qr_scan"}, "lon": -77.026916, "fusion_lon": 0.0, "is_disabled": 0, "lat": 38.925679833333334, "bike_id": "0140f20d7cfcec281b13c7c4fec9b480", "name": "0140f20d7cfcec281b13c7c4fec9b480", "is_reserved": 0, "fusion_lat": 0.0}, {"type": "electric_scooter", "rental_uris": {"ios": "https://dc.lft.to/lastmile_qr_scan", "android": "https://dc.lft.to/lastmile_qr_scan"}, "lon": -77.023386, "fusion_lon": 0.0, "is_disabled": 0, "lat": 38.9178795, "bike_id": "ff71418ee3a71c978efbb08b5f6c194d", "name": "ff71418ee3a71c978efbb08b5f6c194d", "is_reserved": 0, "fusion_lat": 0.0}, {"type": "electric_scooter", "rental_uris": {"ios": "https://dc.lft.to/lastmile_qr_scan", "android": "https://dc.lft.to/lastmile_qr_scan"}, "lon": -77.0489655, "fusion_lon": 0.0, "is_disabled": 0, "lat": 38.89226933333333, "bike_id": "9925b46e06f27841fa2dc418077f6eb4", "name": "9925b46e06f27841fa2dc418077f6eb4", "is_reserved": 0, "fusion_lat": 0.0}, {"type": "electric_bike", "rental_uris": {"ios": "https://dc.lft.to/lastmile_qr_scan", "android": "https://dc.lft.to/lastmile_qr_scan"}, "lon": -77.0120775, "fusion_lon": 0.0, "is_disabled": 0, "lat": 38.87093683333333, "bike_id": "3018bb113e1a4e3499bae3ad29e39ac7", "name": "3018bb113e1a4e3499bae3ad29e39ac7", "is_reserved": 0, "fusion_lat": 0.0}, {"type": "electric_scooter", "rental_uris": {"ios": "https://dc.lft.to/lastmile_qr_scan", "android": "https://dc.lft.to/lastmile_qr_scan"}, "lon": -76.9801745, "fusion_lon": 0.0, "is_disabled": 0, "lat": 38.9016125, "bike_id": "5f54e4a82d58b1bbf4222149652beeb8", "name": "5f54e4a82d58b1bbf4222149652beeb8", "is_reserved": 0, "fusion_lat": 0.0}, {"type": "electric_scooter", "rental_uris": {"ios": "https://dc.lft.to/lastmile_qr_scan", "android": "https://dc.lft.to/lastmile_qr_scan"}, "lon": -77.04012216666666, "fusion_lon": 0.0, "is_disabled": 0, "lat": 38.92436433333334, "bike_id": "515717d73a030ea441773e15724ffbfa", "name": "515717d73a030ea441773e15724ffbfa", "is_reserved": 0, "fusion_lat": 0.0}, {"type": "electric_scooter", "rental_uris": {"ios": "https://dc.lft.to/lastmile_qr_scan", "android": "https://dc.lft.to/lastmile_qr_scan"}, "lon": -77.0555705, "fusion_lon": 0.0, "is_disabled": 0, "lat": 38.900076, "bike_id": "39ab0a4e1bdada3cab59c086075a7f99", "name": "39ab0a4e1bdada3cab59c086075a7f99", "is_reserved": 0, "fusion_lat": 0.0}, {"type": "electric_bike", "rental_uris": {"ios": "https://dc.lft.to/lastmile_qr_scan", "android": "https://dc.lft.to/lastmile_qr_scan"}, "lon": -77.0812005, "fusion_lon": 0.0, "is_disabled": 0, "lat": 38.806832666666665, "bike_id": "3e22771ba0190a565a377b880b4d0d53", "name": "3e22771ba0190a565a377b880b4d0d53", "is_reserved": 0, "fusion_lat": 0.0}, {"type": "electric_scooter", "rental_uris": {"ios": "https://dc.lft.to/lastmile_qr_scan", "android": "https://dc.lft.to/lastmile_qr_scan"}, "lon": -77.03211633333333, "fusion_lon": 0.0, "is_disabled": 0, "lat": 38.91852733333333, "bike_id": "5d0e21b10e18015a19c7bccdb9a5be25", "name": "5d0e21b10e18015a19c7bccdb9a5be25", "is_reserved": 0, "fusion_lat": 0.0}, {"type": "electric_scooter", "rental_uris": {"ios": "https://dc.lft.to/lastmile_qr_scan", "android": "https://dc.lft.to/lastmile_qr_scan"}, "lon": -77.00463866666666, "fusion_lon": 0.0, "is_disabled": 0, "lat": 38.876628333333336, "bike_id": "3eb9423fea4d296bdde05e06f01037ea", "name": "3eb9423fea4d296bdde05e06f01037ea", "is_reserved": 0, "fusion_lat": 0.0}, {"type": "electric_scooter", "rental_uris": {"ios": "https://dc.lft.to/lastmile_qr_scan", "android": "https://dc.lft.to/lastmile_qr_scan"}, "lon": -77.03871016666666, "fusion_lon": 0.0, "is_disabled": 0, "lat": 38.912657, "bike_id": "0733b5a2e1cc0c17dcc535ef6d248269", "name": "0733b5a2e1cc0c17dcc535ef6d248269", "is_reserved": 0, "fusion_lat": 0.0}, {"type": "electric_scooter", "rental_uris": {"ios": "https://dc.lft.to/lastmile_qr_scan", "android": "https://dc.lft.to/lastmile_qr_scan"}, "lon": -77.02411783333334, "fusion_lon": 0.0, "is_disabled": 0, "lat": 38.8919635, "bike_id": "5816b4b930ea4cf7d22ef1f27fa71cdc", "name": "5816b4b930ea4cf7d22ef1f27fa71cdc", "is_reserved": 0, "fusion_lat": 0.0}, {"type": "electric_bike", "rental_uris": {"ios": "https://dc.lft.to/lastmile_qr_scan", "android": "https://dc.lft.to/lastmile_qr_scan"}, "lon": -77.13147116666667, "fusion_lon": 0.0, "is_disabled": 0, "lat": 38.861694, "bike_id": "132b5ed3c58f380b6aaf764d33407208", "name": "132b5ed3c58f380b6aaf764d33407208", "is_reserved": 0, "fusion_lat": 0.0}, {"type": "electric_bike", "rental_uris": {"ios": "https://dc.lft.to/lastmile_qr_scan", "android": "https://dc.lft.to/lastmile_qr_scan"}, "lon": -77.02778766666667, "fusion_lon": 0.0, "is_disabled": 0, "lat": 38.9293295, "bike_id": "c808abebd35055f7fa9bcb36095b0cae", "name": "c808abebd35055f7fa9bcb36095b0cae", "is_reserved": 0, "fusion_lat": 0.0}, {"type": "electric_bike", "rental_uris": {"ios": "https://dc.lft.to/lastmile_qr_scan", "android": "https://dc.lft.to/lastmile_qr_scan"}, "lon": -76.985324, "fusion_lon": 0.0, "is_disabled": 0, "lat": 38.880819333333335, "bike_id": "108679a95957ed6606bee649b8fe6243", "name": "108679a95957ed6606bee649b8fe6243", "is_reserved": 0, "fusion_lat": 0.0}, {"type": "electric_scooter", "rental_uris": {"ios": "https://dc.lft.to/lastmile_qr_scan", "android": "https://dc.lft.to/lastmile_qr_scan"}, "lon": -77.05501516666666, "fusion_lon": 0.0, "is_disabled": 0, "lat": 38.93658766666667, "bike_id": "ce94a8b3b3160f480368c0d33572850e", "name": "ce94a8b3b3160f480368c0d33572850e", "is_reserved": 0, "fusion_lat": 0.0}, {"type": "electric_bike", "rental_uris": {"ios": "https://dc.lft.to/lastmile_qr_scan", "android": "https://dc.lft.to/lastmile_qr_scan"}, "lon": -76.971826, "fusion_lon": 0.0, "is_disabled": 0, "lat": 38.9178975, "bike_id": "1f80e5f007e18292eb7da6bfdc20a78f", "name": "1f80e5f007e18292eb7da6bfdc20a78f", "is_reserved": 0, "fusion_lat": 0.0}, {"type": "electric_scooter", "rental_uris": {"ios": "https://dc.lft.to/lastmile_qr_scan", "android": "https://dc.lft.to/lastmile_qr_scan"}, "lon": -77.026285, "fusion_lon": 0.0, "is_disabled": 0, "lat": 38.887459666666665, "bike_id": "a4e9cb33612819ff5679ad077a64594a", "name": "a4e9cb33612819ff5679ad077a64594a", "is_reserved": 0, "fusion_lat": 0.0}, {"type": "electric_scooter", "rental_uris": {"ios": "https://dc.lft.to/lastmile_qr_scan", "android": "https://dc.lft.to/lastmile_qr_scan"}, "lon": -77.0269175, "fusion_lon": 0.0, "is_disabled": 0, "lat": 38.906829333333334, "bike_id": "8ce5330d886f66eba88cf7b4f658ee67", "name": "8ce5330d886f66eba88cf7b4f658ee67", "is_reserved": 0, "fusion_lat": 0.0}, {"type": "electric_scooter", "rental_uris": {"ios": "https://dc.lft.to/lastmile_qr_scan", "android": "https://dc.lft.to/lastmile_qr_scan"}, "lon": -77.02492516666666, "fusion_lon": 0.0, "is_disabled": 0, "lat": 38.94185783333333, "bike_id": "940fb8ee6df547ffbaf815f912aca7dc", "name": "940fb8ee6df547ffbaf815f912aca7dc", "is_reserved": 0, "fusion_lat": 0.0}, {"type": "electric_scooter", "rental_uris": {"ios": "https://dc.lft.to/lastmile_qr_scan", "android": "https://dc.lft.to/lastmile_qr_scan"}, "lon": -76.98703566666667, "fusion_lon": 0.0, "is_disabled": 0, "lat": 38.865421833333336, "bike_id": "1dd58c9f08b077144de3bfee3fbb5e09", "name": "1dd58c9f08b077144de3bfee3fbb5e09", "is_reserved": 0, "fusion_lat": 0.0}, {"type": "electric_scooter", "rental_uris": {"ios": "https://dc.lft.to/lastmile_qr_scan", "android": "https://dc.lft.to/lastmile_qr_scan"}, "lon": -77.011344, "fusion_lon": 0.0, "is_disabled": 0, "lat": 38.88527833333333, "bike_id": "5ef8ae762360575aceb7dfd66d9cade5", "name": "5ef8ae762360575aceb7dfd66d9cade5", "is_reserved": 0, "fusion_lat": 0.0}, {"type": "electric_scooter", "rental_uris": {"ios": "https://dc.lft.to/lastmile_qr_scan", "android": "https://dc.lft.to/lastmile_qr_scan"}, "lon": -77.04152616666667, "fusion_lon": 0.0, "is_disabled": 0, "lat": 38.916205833333336, "bike_id": "ffcea26c1d984c940640ce791c6e0782", "name": "ffcea26c1d984c940640ce791c6e0782", "is_reserved": 0, "fusion_lat": 0.0}, {"type": "electric_scooter", "rental_uris": {"ios": "https://dc.lft.to/lastmile_qr_scan", "android": "https://dc.lft.to/lastmile_qr_scan"}, "lon": -77.02962133333334, "fusion_lon": 0.0, "is_disabled": 0, "lat": 38.934679333333335, "bike_id": "67b69cdcbd780bd74fbbf5501bb9a741", "name": "67b69cdcbd780bd74fbbf5501bb9a741", "is_reserved": 0, "fusion_lat": 0.0}, {"type": "electric_scooter", "rental_uris": {"ios": "https://dc.lft.to/lastmile_qr_scan", "android": "https://dc.lft.to/lastmile_qr_scan"}, "lon": -77.03508733333334, "fusion_lon": 0.0, "is_disabled": 0, "lat": 38.9215305, "bike_id": "e40067cf6cf0e4dd9307534eb988073a", "name": "e40067cf6cf0e4dd9307534eb988073a", "is_reserved": 0, "fusion_lat": 0.0}, {"type": "electric_scooter", "rental_uris": {"ios": "https://dc.lft.to/lastmile_qr_scan", "android": "https://dc.lft.to/lastmile_qr_scan"}, "lon": -77.01777416666667, "fusion_lon": 0.0, "is_disabled": 0, "lat": 38.90558216666667, "bike_id": "6180c2c0ef3790c6724773e796c03425", "name": "6180c2c0ef3790c6724773e796c03425", "is_reserved": 0, "fusion_lat": 0.0}, {"type": "electric_scooter", "rental_uris": {"ios": "https://dc.lft.to/lastmile_qr_scan", "android": "https://dc.lft.to/lastmile_qr_scan"}, "lon": -77.04173533333334, "fusion_lon": 0.0, "is_disabled": 0, "lat": 38.92011433333333, "bike_id": "9d48dee28eaac98267272c8df5cbc60d", "name": "9d48dee28eaac98267272c8df5cbc60d", "is_reserved": 0, "fusion_lat": 0.0}, {"type": "electric_scooter", "rental_uris": {"ios": "https://dc.lft.to/lastmile_qr_scan", "android": "https://dc.lft.to/lastmile_qr_scan"}, "lon": -77.04145916666667, "fusion_lon": 0.0, "is_disabled": 0, "lat": 38.89222316666667, "bike_id": "67b91c171374906fc20108043054da64", "name": "67b91c171374906fc20108043054da64", "is_reserved": 0, "fusion_lat": 0.0}, {"type": "electric_scooter", "rental_uris": {"ios": "https://dc.lft.to/lastmile_qr_scan", "android": "https://dc.lft.to/lastmile_qr_scan"}, "lon": -77.03646, "fusion_lon": 0.0, "is_disabled": 0, "lat": 38.92346633333333, "bike_id": "822bc1cfd5df73bc49a65357924eabde", "name": "822bc1cfd5df73bc49a65357924eabde", "is_reserved": 0, "fusion_lat": 0.0}, {"type": "electric_scooter", "rental_uris": {"ios": "https://dc.lft.to/lastmile_qr_scan", "android": "https://dc.lft.to/lastmile_qr_scan"}, "lon": -77.0279765, "fusion_lon": 0.0, "is_disabled": 0, "lat": 38.953973, "bike_id": "dc6f9f707a50bf26444b4e989ebf7f58", "name": "dc6f9f707a50bf26444b4e989ebf7f58", "is_reserved": 0, "fusion_lat": 0.0}, {"type": "electric_scooter", "rental_uris": {"ios": "https://dc.lft.to/lastmile_qr_scan", "android": "https://dc.lft.to/lastmile_qr_scan"}, "lon": -77.04161216666667, "fusion_lon": 0.0, "is_disabled": 0, "lat": 38.9050765, "bike_id": "0486d2c8fb82adfebd55fc0508aac862", "name": "0486d2c8fb82adfebd55fc0508aac862", "is_reserved": 0, "fusion_lat": 0.0}, {"type": "electric_scooter", "rental_uris": {"ios": "https://dc.lft.to/lastmile_qr_scan", "android": "https://dc.lft.to/lastmile_qr_scan"}, "lon": -77.027569, "fusion_lon": 0.0, "is_disabled": 0, "lat": 38.95779816666666, "bike_id": "ab008ba0638bf01d42e3b3356891f23c", "name": "ab008ba0638bf01d42e3b3356891f23c", "is_reserved": 0, "fusion_lat": 0.0}, {"type": "electric_scooter", "rental_uris": {"ios": "https://dc.lft.to/lastmile_qr_scan", "android": "https://dc.lft.to/lastmile_qr_scan"}, "lon": -77.039178, "fusion_lon": 0.0, "is_disabled": 0, "lat": 38.90280683333334, "bike_id": "a0ffd19545eb5e1ccd6c67fb0d69bf81", "name": "a0ffd19545eb5e1ccd6c67fb0d69bf81", "is_reserved": 0, "fusion_lat": 0.0}, {"type": "electric_scooter", "rental_uris": {"ios": "https://dc.lft.to/lastmile_qr_scan", "android": "https://dc.lft.to/lastmile_qr_scan"}, "lon": -77.04327183333334, "fusion_lon": 0.0, "is_disabled": 0, "lat": 38.89228266666667, "bike_id": "908dafa8989f7bb779778c9350bf6db7", "name": "908dafa8989f7bb779778c9350bf6db7", "is_reserved": 0, "fusion_lat": 0.0}, {"type": "electric_scooter", "rental_uris": {"ios": "https://dc.lft.to/lastmile_qr_scan", "android": "https://dc.lft.to/lastmile_qr_scan"}, "lon": -76.98211116666667, "fusion_lon": 0.0, "is_disabled": 0, "lat": 38.9019715, "bike_id": "269cf8ed29f3a53de0bd49f8e2ecf994", "name": "269cf8ed29f3a53de0bd49f8e2ecf994", "is_reserved": 0, "fusion_lat": 0.0}, {"type": "electric_scooter", "rental_uris": {"ios": "https://dc.lft.to/lastmile_qr_scan", "android": "https://dc.lft.to/lastmile_qr_scan"}, "lon": -77.03451766666667, "fusion_lon": 0.0, "is_disabled": 0, "lat": 38.91822916666667, "bike_id": "81f59d0526abe2be811ac028f11ba6b3", "name": "81f59d0526abe2be811ac028f11ba6b3", "is_reserved": 0, "fusion_lat": 0.0}, {"type": "electric_scooter", "rental_uris": {"ios": "https://dc.lft.to/lastmile_qr_scan", "android": "https://dc.lft.to/lastmile_qr_scan"}, "lon": -77.0733155, "fusion_lon": 0.0, "is_disabled": 0, "lat": 38.93354316666667, "bike_id": "6f85b535acbcf29390f26efb58e17b94", "name": "6f85b535acbcf29390f26efb58e17b94", "is_reserved": 0, "fusion_lat": 0.0}, {"type": "electric_scooter", "rental_uris": {"ios": "https://dc.lft.to/lastmile_qr_scan", "android": "https://dc.lft.to/lastmile_qr_scan"}, "lon": -77.04327266666667, "fusion_lon": 0.0, "is_disabled": 0, "lat": 38.892256833333334, "bike_id": "b74312bdaa4f7421a61b7b04276dfbc3", "name": "b74312bdaa4f7421a61b7b04276dfbc3", "is_reserved": 0, "fusion_lat": 0.0}, {"type": "electric_scooter", "rental_uris": {"ios": "https://dc.lft.to/lastmile_qr_scan", "android": "https://dc.lft.to/lastmile_qr_scan"}, "lon": -77.0398495, "fusion_lon": 0.0, "is_disabled": 0, "lat": 38.89224266666667, "bike_id": "c8da1f7d28b474ce1e5c7ee9533bf95c", "name": "c8da1f7d28b474ce1e5c7ee9533bf95c", "is_reserved": 0, "fusion_lat": 0.0}, {"type": "electric_scooter", "rental_uris": {"ios": "https://dc.lft.to/lastmile_qr_scan", "android": "https://dc.lft.to/lastmile_qr_scan"}, "lon": -77.01718066666666, "fusion_lon": 0.0, "is_disabled": 0, "lat": 38.91590166666667, "bike_id": "3a6930423bb95c4495bffecf876734da", "name": "3a6930423bb95c4495bffecf876734da", "is_reserved": 0, "fusion_lat": 0.0}, {"type": "electric_scooter", "rental_uris": {"ios": "https://dc.lft.to/lastmile_qr_scan", "android": "https://dc.lft.to/lastmile_qr_scan"}, "lon": -77.024601, "fusion_lon": 0.0, "is_disabled": 0, "lat": 38.91839066666667, "bike_id": "485ca419d732f2c55db122e2c89da6a3", "name": "485ca419d732f2c55db122e2c89da6a3", "is_reserved": 0, "fusion_lat": 0.0}, {"type": "electric_scooter", "rental_uris": {"ios": "https://dc.lft.to/lastmile_qr_scan", "android": "https://dc.lft.to/lastmile_qr_scan"}, "lon": -77.0040725, "fusion_lon": 0.0, "is_disabled": 0, "lat": 38.87669616666667, "bike_id": "9bfd69f47ecf11bc122f1fc56de626f3", "name": "9bfd69f47ecf11bc122f1fc56de626f3", "is_reserved": 0, "fusion_lat": 0.0}, {"type": "electric_scooter", "rental_uris": {"ios": "https://dc.lft.to/lastmile_qr_scan", "android": "https://dc.lft.to/lastmile_qr_scan"}, "lon": -77.03221133333334, "fusion_lon": 0.0, "is_disabled": 0, "lat": 38.9096955, "bike_id": "d31a7e8ec84c4a07449993b94ea65e40", "name": "d31a7e8ec84c4a07449993b94ea65e40", "is_reserved": 0, "fusion_lat": 0.0}, {"type": "electric_scooter", "rental_uris": {"ios": "https://dc.lft.to/lastmile_qr_scan", "android": "https://dc.lft.to/lastmile_qr_scan"}, "lon": -77.02719616666667, "fusion_lon": 0.0, "is_disabled": 0, "lat": 38.904538333333335, "bike_id": "557dcf1908cf26f579fc933062aa1e9b", "name": "557dcf1908cf26f579fc933062aa1e9b", "is_reserved": 0, "fusion_lat": 0.0}, {"type": "electric_scooter", "rental_uris": {"ios": "https://dc.lft.to/lastmile_qr_scan", "android": "https://dc.lft.to/lastmile_qr_scan"}, "lon": -77.0417275, "fusion_lon": 0.0, "is_disabled": 0, "lat": 38.9180845, "bike_id": "00367079fa6f536430839e2c8c34ebea", "name": "00367079fa6f536430839e2c8c34ebea", "is_reserved": 0, "fusion_lat": 0.0}, {"type": "electric_bike", "rental_uris": {"ios": "https://dc.lft.to/lastmile_qr_scan", "android": "https://dc.lft.to/lastmile_qr_scan"}, "lon": -76.972, "fusion_lon": 0.0, "is_disabled": 0, "lat": 38.917737333333335, "bike_id": "b66680a4ed4b29acc966b559cf72a839", "name": "b66680a4ed4b29acc966b559cf72a839", "is_reserved": 0, "fusion_lat": 0.0}, {"type": "electric_scooter", "rental_uris": {"ios": "https://dc.lft.to/lastmile_qr_scan", "android": "https://dc.lft.to/lastmile_qr_scan"}, "lon": -77.0752455, "fusion_lon": 0.0, "is_disabled": 0, "lat": 38.939448166666665, "bike_id": "ae86193024077858d5950a64446a0b02", "name": "ae86193024077858d5950a64446a0b02", "is_reserved": 0, "fusion_lat": 0.0}, {"type": "electric_scooter", "rental_uris": {"ios": "https://dc.lft.to/lastmile_qr_scan", "android": "https://dc.lft.to/lastmile_qr_scan"}, "lon": -77.02160616666667, "fusion_lon": 0.0, "is_disabled": 0, "lat": 38.93074583333333, "bike_id": "cfa6b3464cbc5f4794d0504a088eb70a", "name": "cfa6b3464cbc5f4794d0504a088eb70a", "is_reserved": 0, "fusion_lat": 0.0}, {"type": "electric_scooter", "rental_uris": {"ios": "https://dc.lft.to/lastmile_qr_scan", "android": "https://dc.lft.to/lastmile_qr_scan"}, "lon": -77.00916516666666, "fusion_lon": 0.0, "is_disabled": 0, "lat": 38.895518833333334, "bike_id": "909e7c6bb132fe5f72b03a34a9e9c3ae", "name": "909e7c6bb132fe5f72b03a34a9e9c3ae", "is_reserved": 0, "fusion_lat": 0.0}, {"type": "electric_scooter", "rental_uris": {"ios": "https://dc.lft.to/lastmile_qr_scan", "android": "https://dc.lft.to/lastmile_qr_scan"}, "lon": -77.02687183333333, "fusion_lon": 0.0, "is_disabled": 0, "lat": 38.925925, "bike_id": "4f529aacc0d16d5d2365976406a544fb", "name": "4f529aacc0d16d5d2365976406a544fb", "is_reserved": 0, "fusion_lat": 0.0}, {"type": "electric_scooter", "rental_uris": {"ios": "https://dc.lft.to/lastmile_qr_scan", "android": "https://dc.lft.to/lastmile_qr_scan"}, "lon": -76.9921325, "fusion_lon": 0.0, "is_disabled": 0, "lat": 38.903684, "bike_id": "a38a92c1285b6d03a23680a702546f7c", "name": "a38a92c1285b6d03a23680a702546f7c", "is_reserved": 0, "fusion_lat": 0.0}, {"type": "electric_scooter", "rental_uris": {"ios": "https://dc.lft.to/lastmile_qr_scan", "android": "https://dc.lft.to/lastmile_qr_scan"}, "lon": -77.04449483333333, "fusion_lon": 0.0, "is_disabled": 0, "lat": 38.924229833333335, "bike_id": "0da63d2126cb11e9830c1c3309f268f0", "name": "0da63d2126cb11e9830c1c3309f268f0", "is_reserved": 0, "fusion_lat": 0.0}, {"type": "electric_scooter", "rental_uris": {"ios": "https://dc.lft.to/lastmile_qr_scan", "android": "https://dc.lft.to/lastmile_qr_scan"}, "lon": -77.05931833333334, "fusion_lon": 0.0, "is_disabled": 0, "lat": 38.909420833333336, "bike_id": "aad9a130d709b7385a360e5d54b4e8be", "name": "aad9a130d709b7385a360e5d54b4e8be", "is_reserved": 0, "fusion_lat": 0.0}, {"type": "electric_scooter", "rental_uris": {"ios": "https://dc.lft.to/lastmile_qr_scan", "android": "https://dc.lft.to/lastmile_qr_scan"}, "lon": -77.02032183333333, "fusion_lon": 0.0, "is_disabled": 0, "lat": 38.931912, "bike_id": "bc46f907404a45391af8a386afe40d96", "name": "bc46f907404a45391af8a386afe40d96", "is_reserved": 0, "fusion_lat": 0.0}, {"type": "electric_bike", "rental_uris": {"ios": "https://dc.lft.to/lastmile_qr_scan", "android": "https://dc.lft.to/lastmile_qr_scan"}, "lon": -76.92498216666667, "fusion_lon": 0.0, "is_disabled": 0, "lat": 38.999968333333335, "bike_id": "865cdedc1aeb1f49a622dbb8c789f16d", "name": "865cdedc1aeb1f49a622dbb8c789f16d", "is_reserved": 0, "fusion_lat": 0.0}, {"type": "electric_scooter", "rental_uris": {"ios": "https://dc.lft.to/lastmile_qr_scan", "android": "https://dc.lft.to/lastmile_qr_scan"}, "lon": -77.03212683333334, "fusion_lon": 0.0, "is_disabled": 0, "lat": 38.90972566666667, "bike_id": "dc782925266523d945111b242d69854c", "name": "dc782925266523d945111b242d69854c", "is_reserved": 0, "fusion_lat": 0.0}, {"type": "electric_scooter", "rental_uris": {"ios": "https://dc.lft.to/lastmile_qr_scan", "android": "https://dc.lft.to/lastmile_qr_scan"}, "lon": -77.03133533333333, "fusion_lon": 0.0, "is_disabled": 0, "lat": 38.918174, "bike_id": "4197641674b4f55072f0c51d1551106b", "name": "4197641674b4f55072f0c51d1551106b", "is_reserved": 0, "fusion_lat": 0.0}, {"type": "electric_scooter", "rental_uris": {"ios": "https://dc.lft.to/lastmile_qr_scan", "android": "https://dc.lft.to/lastmile_qr_scan"}, "lon": -77.0335375, "fusion_lon": 0.0, "is_disabled": 0, "lat": 38.892519166666666, "bike_id": "e105cde1b045b3323361fa11d9c616a6", "name": "e105cde1b045b3323361fa11d9c616a6", "is_reserved": 0, "fusion_lat": 0.0}, {"type": "electric_scooter", "rental_uris": {"ios": "https://dc.lft.to/lastmile_qr_scan", "android": "https://dc.lft.to/lastmile_qr_scan"}, "lon": -77.027894, "fusion_lon": 0.0, "is_disabled": 0, "lat": 38.93085166666667, "bike_id": "445e36fe875b25a40c538070d8b56ee8", "name": "445e36fe875b25a40c538070d8b56ee8", "is_reserved": 0, "fusion_lat": 0.0}, {"type": "electric_scooter", "rental_uris": {"ios": "https://dc.lft.to/lastmile_qr_scan", "android": "https://dc.lft.to/lastmile_qr_scan"}, "lon": -77.04161983333333, "fusion_lon": 0.0, "is_disabled": 0, "lat": 38.9053445, "bike_id": "b3f64f1bf877ca514eb0f3257f0c59bb", "name": "b3f64f1bf877ca514eb0f3257f0c59bb", "is_reserved": 0, "fusion_lat": 0.0}, {"type": "electric_scooter", "rental_uris": {"ios": "https://dc.lft.to/lastmile_qr_scan", "android": "https://dc.lft.to/lastmile_qr_scan"}, "lon": -77.03204683333334, "fusion_lon": 0.0, "is_disabled": 0, "lat": 38.918537666666666, "bike_id": "72e3763480052b12e9ec3c6dae1e7674", "name": "72e3763480052b12e9ec3c6dae1e7674", "is_reserved": 0, "fusion_lat": 0.0}, {"type": "electric_scooter", "rental_uris": {"ios": "https://dc.lft.to/lastmile_qr_scan", "android": "https://dc.lft.to/lastmile_qr_scan"}, "lon": -76.99090583333333, "fusion_lon": 0.0, "is_disabled": 0, "lat": 38.882323, "bike_id": "4b5d78720f97fd88b906bf88b5bfbc08", "name": "4b5d78720f97fd88b906bf88b5bfbc08", "is_reserved": 0, "fusion_lat": 0.0}, {"type": "electric_scooter", "rental_uris": {"ios": "https://dc.lft.to/lastmile_qr_scan", "android": "https://dc.lft.to/lastmile_qr_scan"}, "lon": -77.03679433333333, "fusion_lon": 0.0, "is_disabled": 0, "lat": 38.90673116666667, "bike_id": "9a18c416090760ee2686551a378c1b0b", "name": "9a18c416090760ee2686551a378c1b0b", "is_reserved": 0, "fusion_lat": 0.0}, {"type": "electric_scooter", "rental_uris": {"ios": "https://dc.lft.to/lastmile_qr_scan", "android": "https://dc.lft.to/lastmile_qr_scan"}, "lon": -77.05904516666666, "fusion_lon": 0.0, "is_disabled": 0, "lat": 38.90236516666667, "bike_id": "fbb2d3f6b6b1fe3b52606a6acd730ab3", "name": "fbb2d3f6b6b1fe3b52606a6acd730ab3", "is_reserved": 0, "fusion_lat": 0.0}, {"type": "electric_scooter", "rental_uris": {"ios": "https://dc.lft.to/lastmile_qr_scan", "android": "https://dc.lft.to/lastmile_qr_scan"}, "lon": -77.02203166666666, "fusion_lon": 0.0, "is_disabled": 0, "lat": 38.921004833333335, "bike_id": "abecb6263206adbdcd0bbc5d38797d8f", "name": "abecb6263206adbdcd0bbc5d38797d8f", "is_reserved": 0, "fusion_lat": 0.0}, {"type": "electric_scooter", "rental_uris": {"ios": "https://dc.lft.to/lastmile_qr_scan", "android": "https://dc.lft.to/lastmile_qr_scan"}, "lon": -76.99633883333334, "fusion_lon": 0.0, "is_disabled": 0, "lat": 38.908901, "bike_id": "6fa3ed6c50a7a46672050b847301b845", "name": "6fa3ed6c50a7a46672050b847301b845", "is_reserved": 0, "fusion_lat": 0.0}, {"type": "electric_scooter", "rental_uris": {"ios": "https://dc.lft.to/lastmile_qr_scan", "android": "https://dc.lft.to/lastmile_qr_scan"}, "lon": -77.04193283333333, "fusion_lon": 0.0, "is_disabled": 0, "lat": 38.90557533333333, "bike_id": "5490763e645f6f2a90e8178ed442a7ae", "name": "5490763e645f6f2a90e8178ed442a7ae", "is_reserved": 0, "fusion_lat": 0.0}, {"type": "electric_scooter", "rental_uris": {"ios": "https://dc.lft.to/lastmile_qr_scan", "android": "https://dc.lft.to/lastmile_qr_scan"}, "lon": -77.02283483333333, "fusion_lon": 0.0, "is_disabled": 0, "lat": 38.916116, "bike_id": "23da6bcbb93cd298a78fb6096ca48533", "name": "23da6bcbb93cd298a78fb6096ca48533", "is_reserved": 0, "fusion_lat": 0.0}, {"type": "electric_scooter", "rental_uris": {"ios": "https://dc.lft.to/lastmile_qr_scan", "android": "https://dc.lft.to/lastmile_qr_scan"}, "lon": -77.04411766666666, "fusion_lon": 0.0, "is_disabled": 0, "lat": 38.92595516666667, "bike_id": "ccb88d021ce03fa233e6d74e22868637", "name": "ccb88d021ce03fa233e6d74e22868637", "is_reserved": 0, "fusion_lat": 0.0}, {"type": "electric_scooter", "rental_uris": {"ios": "https://dc.lft.to/lastmile_qr_scan", "android": "https://dc.lft.to/lastmile_qr_scan"}, "lon": -77.03179916666667, "fusion_lon": 0.0, "is_disabled": 0, "lat": 38.91924616666667, "bike_id": "2c86f5cc00226aecf76cf61cea800633", "name": "2c86f5cc00226aecf76cf61cea800633", "is_reserved": 0, "fusion_lat": 0.0}, {"type": "electric_scooter", "rental_uris": {"ios": "https://dc.lft.to/lastmile_qr_scan", "android": "https://dc.lft.to/lastmile_qr_scan"}, "lon": -77.04576966666667, "fusion_lon": 0.0, "is_disabled": 0, "lat": 38.92237083333333, "bike_id": "213cde7a8e90560f96855f2696501e98", "name": "213cde7a8e90560f96855f2696501e98", "is_reserved": 0, "fusion_lat": 0.0}, {"type": "electric_scooter", "rental_uris": {"ios": "https://dc.lft.to/lastmile_qr_scan", "android": "https://dc.lft.to/lastmile_qr_scan"}, "lon": -76.9772985, "fusion_lon": 0.0, "is_disabled": 0, "lat": 38.872880333333335, "bike_id": "e2c68e86ccb4cf802b1ec0431a115666", "name": "e2c68e86ccb4cf802b1ec0431a115666", "is_reserved": 0, "fusion_lat": 0.0}, {"type": "electric_scooter", "rental_uris": {"ios": "https://dc.lft.to/lastmile_qr_scan", "android": "https://dc.lft.to/lastmile_qr_scan"}, "lon": -77.0350985, "fusion_lon": 0.0, "is_disabled": 0, "lat": 38.9187405, "bike_id": "b102744641c3c60282c7ca0ed6b3fa1f", "name": "b102744641c3c60282c7ca0ed6b3fa1f", "is_reserved": 0, "fusion_lat": 0.0}, {"type": "electric_scooter", "rental_uris": {"ios": "https://dc.lft.to/lastmile_qr_scan", "android": "https://dc.lft.to/lastmile_qr_scan"}, "lon": -77.02693366666666, "fusion_lon": 0.0, "is_disabled": 0, "lat": 38.899209666666664, "bike_id": "b97eb5ceda90d178d3bf21ec6284a47a", "name": "b97eb5ceda90d178d3bf21ec6284a47a", "is_reserved": 0, "fusion_lat": 0.0}, {"type": "electric_scooter", "rental_uris": {"ios": "https://dc.lft.to/lastmile_qr_scan", "android": "https://dc.lft.to/lastmile_qr_scan"}, "lon": -77.026883, "fusion_lon": 0.0, "is_disabled": 0, "lat": 38.91692316666666, "bike_id": "df8bbcc5363eda983266fc667de3eab4", "name": "df8bbcc5363eda983266fc667de3eab4", "is_reserved": 0, "fusion_lat": 0.0}, {"type": "electric_scooter", "rental_uris": {"ios": "https://dc.lft.to/lastmile_qr_scan", "android": "https://dc.lft.to/lastmile_qr_scan"}, "lon": -77.04365933333334, "fusion_lon": 0.0, "is_disabled": 0, "lat": 38.892205833333335, "bike_id": "47c9e8742939bf50d7042a617b136a22", "name": "47c9e8742939bf50d7042a617b136a22", "is_reserved": 0, "fusion_lat": 0.0}, {"type": "electric_scooter", "rental_uris": {"ios": "https://dc.lft.to/lastmile_qr_scan", "android": "https://dc.lft.to/lastmile_qr_scan"}, "lon": -77.02781783333333, "fusion_lon": 0.0, "is_disabled": 0, "lat": 38.96131616666667, "bike_id": "b0ff254333d80c50a781708ff9caa73b", "name": "b0ff254333d80c50a781708ff9caa73b", "is_reserved": 0, "fusion_lat": 0.0}, {"type": "electric_scooter", "rental_uris": {"ios": "https://dc.lft.to/lastmile_qr_scan", "android": "https://dc.lft.to/lastmile_qr_scan"}, "lon": -77.02347566666667, "fusion_lon": 0.0, "is_disabled": 0, "lat": 38.917807833333335, "bike_id": "59b96a91c762130cc42885ba8602e74c", "name": "59b96a91c762130cc42885ba8602e74c", "is_reserved": 0, "fusion_lat": 0.0}, {"type": "electric_scooter", "rental_uris": {"ios": "https://dc.lft.to/lastmile_qr_scan", "android": "https://dc.lft.to/lastmile_qr_scan"}, "lon": -77.03073066666667, "fusion_lon": 0.0, "is_disabled": 0, "lat": 38.9111185, "bike_id": "fd50b86d88a80706cacd53fde89ac4a0", "name": "fd50b86d88a80706cacd53fde89ac4a0", "is_reserved": 0, "fusion_lat": 0.0}, {"type": "electric_scooter", "rental_uris": {"ios": "https://dc.lft.to/lastmile_qr_scan", "android": "https://dc.lft.to/lastmile_qr_scan"}, "lon": -77.04470483333333, "fusion_lon": 0.0, "is_disabled": 0, "lat": 38.915363166666666, "bike_id": "d88e619e5d74987df2ec8f6224b19e65", "name": "d88e619e5d74987df2ec8f6224b19e65", "is_reserved": 0, "fusion_lat": 0.0}, {"type": "electric_scooter", "rental_uris": {"ios": "https://dc.lft.to/lastmile_qr_scan", "android": "https://dc.lft.to/lastmile_qr_scan"}, "lon": -77.04236216666666, "fusion_lon": 0.0, "is_disabled": 0, "lat": 38.907779, "bike_id": "4f87e7740a837c4120a7df16403fa291", "name": "4f87e7740a837c4120a7df16403fa291", "is_reserved": 0, "fusion_lat": 0.0}, {"type": "electric_scooter", "rental_uris": {"ios": "https://dc.lft.to/lastmile_qr_scan", "android": "https://dc.lft.to/lastmile_qr_scan"}, "lon": -77.04006366666667, "fusion_lon": 0.0, "is_disabled": 0, "lat": 38.92205666666667, "bike_id": "16a5414a692ad8cce1e94502a3f3862d", "name": "16a5414a692ad8cce1e94502a3f3862d", "is_reserved": 0, "fusion_lat": 0.0}, {"type": "electric_scooter", "rental_uris": {"ios": "https://dc.lft.to/lastmile_qr_scan", "android": "https://dc.lft.to/lastmile_qr_scan"}, "lon": -77.036649, "fusion_lon": 0.0, "is_disabled": 0, "lat": 38.91724116666666, "bike_id": "9f570d9a282a41b08e95694b50c1d4ce", "name": "9f570d9a282a41b08e95694b50c1d4ce", "is_reserved": 0, "fusion_lat": 0.0}, {"type": "electric_scooter", "rental_uris": {"ios": "https://dc.lft.to/lastmile_qr_scan", "android": "https://dc.lft.to/lastmile_qr_scan"}, "lon": -77.032808, "fusion_lon": 0.0, "is_disabled": 0, "lat": 38.899365333333336, "bike_id": "0942b83e6e6bab7de5b09a4e9c80a2ae", "name": "0942b83e6e6bab7de5b09a4e9c80a2ae", "is_reserved": 0, "fusion_lat": 0.0}, {"type": "electric_bike", "rental_uris": {"ios": "https://dc.lft.to/lastmile_qr_scan", "android": "https://dc.lft.to/lastmile_qr_scan"}, "lon": -77.187413, "fusion_lon": 0.0, "is_disabled": 0, "lat": 38.89352816666667, "bike_id": "556f227b3be0139dbc40acb0b4e80324", "name": "556f227b3be0139dbc40acb0b4e80324", "is_reserved": 0, "fusion_lat": 0.0}, {"type": "electric_scooter", "rental_uris": {"ios": "https://dc.lft.to/lastmile_qr_scan", "android": "https://dc.lft.to/lastmile_qr_scan"}, "lon": -76.94633566666667, "fusion_lon": 0.0, "is_disabled": 0, "lat": 38.89845066666667, "bike_id": "6cd731d637193f4bc47378ecaf0dca35", "name": "6cd731d637193f4bc47378ecaf0dca35", "is_reserved": 0, "fusion_lat": 0.0}, {"type": "electric_bike", "rental_uris": {"ios": "https://dc.lft.to/lastmile_qr_scan", "android": "https://dc.lft.to/lastmile_qr_scan"}, "lon": -77.0441565, "fusion_lon": 0.0, "is_disabled": 0, "lat": 39.01566016666666, "bike_id": "b039cb6f599079f17cd582fe8d62002e", "name": "b039cb6f599079f17cd582fe8d62002e", "is_reserved": 0, "fusion_lat": 0.0}, {"type": "electric_scooter", "rental_uris": {"ios": "https://dc.lft.to/lastmile_qr_scan", "android": "https://dc.lft.to/lastmile_qr_scan"}, "lon": -77.026071, "fusion_lon": 0.0, "is_disabled": 0, "lat": 38.9141525, "bike_id": "6ec3d17fd2220d81f040c37c2b01d0e1", "name": "6ec3d17fd2220d81f040c37c2b01d0e1", "is_reserved": 0, "fusion_lat": 0.0}, {"type": "electric_bike", "rental_uris": {"ios": "https://dc.lft.to/lastmile_qr_scan", "android": "https://dc.lft.to/lastmile_qr_scan"}, "lon": -77.0381875, "fusion_lon": 0.0, "is_disabled": 0, "lat": 38.914164666666665, "bike_id": "b0be7b4da92429605e681f36bec88d18", "name": "b0be7b4da92429605e681f36bec88d18", "is_reserved": 0, "fusion_lat": 0.0}, {"type": "electric_scooter", "rental_uris": {"ios": "https://dc.lft.to/lastmile_qr_scan", "android": "https://dc.lft.to/lastmile_qr_scan"}, "lon": -77.026222, "fusion_lon": 0.0, "is_disabled": 0, "lat": 38.9052385, "bike_id": "57898cb68862a83960311faeed7b9e07", "name": "57898cb68862a83960311faeed7b9e07", "is_reserved": 0, "fusion_lat": 0.0}, {"type": "electric_scooter", "rental_uris": {"ios": "https://dc.lft.to/lastmile_qr_scan", "android": "https://dc.lft.to/lastmile_qr_scan"}, "lon": -77.0402895, "fusion_lon": 0.0, "is_disabled": 0, "lat": 38.91807816666667, "bike_id": "0c50ee5012d6ca2b70bd372ef52083bf", "name": "0c50ee5012d6ca2b70bd372ef52083bf", "is_reserved": 0, "fusion_lat": 0.0}, {"type": "electric_scooter", "rental_uris": {"ios": "https://dc.lft.to/lastmile_qr_scan", "android": "https://dc.lft.to/lastmile_qr_scan"}, "lon": -77.01333066666666, "fusion_lon": 0.0, "is_disabled": 0, "lat": 38.88117916666667, "bike_id": "7d6e2d6480fb4fa2db6a3dd3d7f23aae", "name": "7d6e2d6480fb4fa2db6a3dd3d7f23aae", "is_reserved": 0, "fusion_lat": 0.0}, {"type": "electric_scooter", "rental_uris": {"ios": "https://dc.lft.to/lastmile_qr_scan", "android": "https://dc.lft.to/lastmile_qr_scan"}, "lon": -77.0335885, "fusion_lon": 0.0, "is_disabled": 0, "lat": 38.9314405, "bike_id": "bc5d9ac549bf25ac8bb2aafccb556cfa", "name": "bc5d9ac549bf25ac8bb2aafccb556cfa", "is_reserved": 0, "fusion_lat": 0.0}, {"type": "electric_scooter", "rental_uris": {"ios": "https://dc.lft.to/lastmile_qr_scan", "android": "https://dc.lft.to/lastmile_qr_scan"}, "lon": -76.99829816666667, "fusion_lon": 0.0, "is_disabled": 0, "lat": 38.90028683333333, "bike_id": "ea5fd04e1842f2ad91223a8cec8f57d0", "name": "ea5fd04e1842f2ad91223a8cec8f57d0", "is_reserved": 0, "fusion_lat": 0.0}, {"type": "electric_scooter", "rental_uris": {"ios": "https://dc.lft.to/lastmile_qr_scan", "android": "https://dc.lft.to/lastmile_qr_scan"}, "lon": -76.97594316666667, "fusion_lon": 0.0, "is_disabled": 0, "lat": 38.903354666666665, "bike_id": "d8392700666bfff196c30c9dce326d39", "name": "d8392700666bfff196c30c9dce326d39", "is_reserved": 0, "fusion_lat": 0.0}, {"type": "electric_scooter", "rental_uris": {"ios": "https://dc.lft.to/lastmile_qr_scan", "android": "https://dc.lft.to/lastmile_qr_scan"}, "lon": -77.051314, "fusion_lon": 0.0, "is_disabled": 0, "lat": 38.92366216666667, "bike_id": "f48093eb9b455db11b4ef5e9b2ede90c", "name": "f48093eb9b455db11b4ef5e9b2ede90c", "is_reserved": 0, "fusion_lat": 0.0}, {"type": "electric_scooter", "rental_uris": {"ios": "https://dc.lft.to/lastmile_qr_scan", "android": "https://dc.lft.to/lastmile_qr_scan"}, "lon": -77.03861766666667, "fusion_lon": 0.0, "is_disabled": 0, "lat": 38.90973533333333, "bike_id": "d8361d39de746b91e122da0fdf796ff2", "name": "d8361d39de746b91e122da0fdf796ff2", "is_reserved": 0, "fusion_lat": 0.0}, {"type": "electric_scooter", "rental_uris": {"ios": "https://dc.lft.to/lastmile_qr_scan", "android": "https://dc.lft.to/lastmile_qr_scan"}, "lon": -77.03446616666666, "fusion_lon": 0.0, "is_disabled": 0, "lat": 38.9184775, "bike_id": "167bd5dfed670f6b49e95ae582c17399", "name": "167bd5dfed670f6b49e95ae582c17399", "is_reserved": 0, "fusion_lat": 0.0}, {"type": "electric_scooter", "rental_uris": {"ios": "https://dc.lft.to/lastmile_qr_scan", "android": "https://dc.lft.to/lastmile_qr_scan"}, "lon": -77.05582683333333, "fusion_lon": 0.0, "is_disabled": 0, "lat": 38.910538333333335, "bike_id": "c38af5d86dd570d5d690a3e3246c1887", "name": "c38af5d86dd570d5d690a3e3246c1887", "is_reserved": 0, "fusion_lat": 0.0}, {"type": "electric_scooter", "rental_uris": {"ios": "https://dc.lft.to/lastmile_qr_scan", "android": "https://dc.lft.to/lastmile_qr_scan"}, "lon": -77.02538583333333, "fusion_lon": 0.0, "is_disabled": 0, "lat": 38.924048, "bike_id": "49c35901b662ffb4f7e7f543dc18d273", "name": "49c35901b662ffb4f7e7f543dc18d273", "is_reserved": 0, "fusion_lat": 0.0}, {"type": "electric_scooter", "rental_uris": {"ios": "https://dc.lft.to/lastmile_qr_scan", "android": "https://dc.lft.to/lastmile_qr_scan"}, "lon": -77.0459225, "fusion_lon": 0.0, "is_disabled": 0, "lat": 38.90863933333333, "bike_id": "6579d21c78089c340d03d1de710754ad", "name": "6579d21c78089c340d03d1de710754ad", "is_reserved": 0, "fusion_lat": 0.0}, {"type": "electric_scooter", "rental_uris": {"ios": "https://dc.lft.to/lastmile_qr_scan", "android": "https://dc.lft.to/lastmile_qr_scan"}, "lon": -77.02211883333334, "fusion_lon": 0.0, "is_disabled": 0, "lat": 38.9125805, "bike_id": "dd4b9f9b5ba2645d6b67b6120a25af15", "name": "dd4b9f9b5ba2645d6b67b6120a25af15", "is_reserved": 0, "fusion_lat": 0.0}, {"type": "electric_scooter", "rental_uris": {"ios": "https://dc.lft.to/lastmile_qr_scan", "android": "https://dc.lft.to/lastmile_qr_scan"}, "lon": -77.041812, "fusion_lon": 0.0, "is_disabled": 0, "lat": 38.90526083333334, "bike_id": "68c223ac563b7d51ce7b0eec87739813", "name": "68c223ac563b7d51ce7b0eec87739813", "is_reserved": 0, "fusion_lat": 0.0}, {"type": "electric_scooter", "rental_uris": {"ios": "https://dc.lft.to/lastmile_qr_scan", "android": "https://dc.lft.to/lastmile_qr_scan"}, "lon": -77.04346816666667, "fusion_lon": 0.0, "is_disabled": 0, "lat": 38.90527933333333, "bike_id": "f143b84dc9ad0fa0bbb8ed3fedf1e71f", "name": "f143b84dc9ad0fa0bbb8ed3fedf1e71f", "is_reserved": 0, "fusion_lat": 0.0}, {"type": "electric_scooter", "rental_uris": {"ios": "https://dc.lft.to/lastmile_qr_scan", "android": "https://dc.lft.to/lastmile_qr_scan"}, "lon": -77.00370433333333, "fusion_lon": 0.0, "is_disabled": 0, "lat": 38.882641166666666, "bike_id": "e3c83587793411df5862d36f7a1573e1", "name": "e3c83587793411df5862d36f7a1573e1", "is_reserved": 0, "fusion_lat": 0.0}, {"type": "electric_scooter", "rental_uris": {"ios": "https://dc.lft.to/lastmile_qr_scan", "android": "https://dc.lft.to/lastmile_qr_scan"}, "lon": -77.03660816666667, "fusion_lon": 0.0, "is_disabled": 0, "lat": 38.918684666666664, "bike_id": "72381f58838dcb314ca85455ecd0bebb", "name": "72381f58838dcb314ca85455ecd0bebb", "is_reserved": 0, "fusion_lat": 0.0}, {"type": "electric_scooter", "rental_uris": {"ios": "https://dc.lft.to/lastmile_qr_scan", "android": "https://dc.lft.to/lastmile_qr_scan"}, "lon": -77.02981716666666, "fusion_lon": 0.0, "is_disabled": 0, "lat": 38.930671833333335, "bike_id": "0bd6c1b9f64808f1bbfef6c168d756ee", "name": "0bd6c1b9f64808f1bbfef6c168d756ee", "is_reserved": 0, "fusion_lat": 0.0}, {"type": "electric_scooter", "rental_uris": {"ios": "https://dc.lft.to/lastmile_qr_scan", "android": "https://dc.lft.to/lastmile_qr_scan"}, "lon": -77.010647, "fusion_lon": 0.0, "is_disabled": 0, "lat": 38.907332333333336, "bike_id": "35ca3bf1a4b56f5feef5387b4c7d99ad", "name": "35ca3bf1a4b56f5feef5387b4c7d99ad", "is_reserved": 0, "fusion_lat": 0.0}, {"type": "electric_scooter", "rental_uris": {"ios": "https://dc.lft.to/lastmile_qr_scan", "android": "https://dc.lft.to/lastmile_qr_scan"}, "lon": -76.95413366666666, "fusion_lon": 0.0, "is_disabled": 0, "lat": 38.88999716666667, "bike_id": "cee5cddd1d06307038f60eb404af2764", "name": "cee5cddd1d06307038f60eb404af2764", "is_reserved": 0, "fusion_lat": 0.0}, {"type": "electric_scooter", "rental_uris": {"ios": "https://dc.lft.to/lastmile_qr_scan", "android": "https://dc.lft.to/lastmile_qr_scan"}, "lon": -77.041737, "fusion_lon": 0.0, "is_disabled": 0, "lat": 38.9155035, "bike_id": "1096a3fc5bac600e17b7236d9d203557", "name": "1096a3fc5bac600e17b7236d9d203557", "is_reserved": 0, "fusion_lat": 0.0}, {"type": "electric_scooter", "rental_uris": {"ios": "https://dc.lft.to/lastmile_qr_scan", "android": "https://dc.lft.to/lastmile_qr_scan"}, "lon": -77.0417455, "fusion_lon": 0.0, "is_disabled": 0, "lat": 38.905288166666665, "bike_id": "e14714e00645b8def85292a7643bf404", "name": "e14714e00645b8def85292a7643bf404", "is_reserved": 0, "fusion_lat": 0.0}, {"type": "electric_scooter", "rental_uris": {"ios": "https://dc.lft.to/lastmile_qr_scan", "android": "https://dc.lft.to/lastmile_qr_scan"}, "lon": -77.0366945, "fusion_lon": 0.0, "is_disabled": 0, "lat": 38.91706766666667, "bike_id": "876bba95791661ec4ebc621da133485f", "name": "876bba95791661ec4ebc621da133485f", "is_reserved": 0, "fusion_lat": 0.0}, {"type": "electric_scooter", "rental_uris": {"ios": "https://dc.lft.to/lastmile_qr_scan", "android": "https://dc.lft.to/lastmile_qr_scan"}, "lon": -76.98696166666667, "fusion_lon": 0.0, "is_disabled": 0, "lat": 38.86627333333333, "bike_id": "3bd935dca133648921be0738f8ff14d2", "name": "3bd935dca133648921be0738f8ff14d2", "is_reserved": 0, "fusion_lat": 0.0}, {"type": "electric_scooter", "rental_uris": {"ios": "https://dc.lft.to/lastmile_qr_scan", "android": "https://dc.lft.to/lastmile_qr_scan"}, "lon": -77.02400533333333, "fusion_lon": 0.0, "is_disabled": 0, "lat": 38.95714733333333, "bike_id": "0743ce22127bccfb1346ad4452bd3fb9", "name": "0743ce22127bccfb1346ad4452bd3fb9", "is_reserved": 0, "fusion_lat": 0.0}, {"type": "electric_scooter", "rental_uris": {"ios": "https://dc.lft.to/lastmile_qr_scan", "android": "https://dc.lft.to/lastmile_qr_scan"}, "lon": -77.03862066666667, "fusion_lon": 0.0, "is_disabled": 0, "lat": 38.912424666666666, "bike_id": "d0ec2fc30219a200b75e0f83ea03693a", "name": "d0ec2fc30219a200b75e0f83ea03693a", "is_reserved": 0, "fusion_lat": 0.0}, {"type": "electric_bike", "rental_uris": {"ios": "https://dc.lft.to/lastmile_qr_scan", "android": "https://dc.lft.to/lastmile_qr_scan"}, "lon": -77.03598466666666, "fusion_lon": 0.0, "is_disabled": 0, "lat": 38.9068705, "bike_id": "752b3f3e977128fa5f62760580fc28cf", "name": "752b3f3e977128fa5f62760580fc28cf", "is_reserved": 0, "fusion_lat": 0.0}, {"type": "electric_scooter", "rental_uris": {"ios": "https://dc.lft.to/lastmile_qr_scan", "android": "https://dc.lft.to/lastmile_qr_scan"}, "lon": -76.99500466666667, "fusion_lon": 0.0, "is_disabled": 0, "lat": 38.92667016666667, "bike_id": "bb67e352536a69376f2720d99fe2a0bd", "name": "bb67e352536a69376f2720d99fe2a0bd", "is_reserved": 0, "fusion_lat": 0.0}, {"type": "electric_scooter", "rental_uris": {"ios": "https://dc.lft.to/lastmile_qr_scan", "android": "https://dc.lft.to/lastmile_qr_scan"}, "lon": -77.02804416666666, "fusion_lon": 0.0, "is_disabled": 0, "lat": 38.899308166666664, "bike_id": "3d74f4ca36de3df4a7d1257ef0a54f4d", "name": "3d74f4ca36de3df4a7d1257ef0a54f4d", "is_reserved": 0, "fusion_lat": 0.0}, {"type": "electric_scooter", "rental_uris": {"ios": "https://dc.lft.to/lastmile_qr_scan", "android": "https://dc.lft.to/lastmile_qr_scan"}, "lon": -77.02309633333333, "fusion_lon": 0.0, "is_disabled": 0, "lat": 38.916417, "bike_id": "f29252c2788b99e45a0bd0d5c84aed0f", "name": "f29252c2788b99e45a0bd0d5c84aed0f", "is_reserved": 0, "fusion_lat": 0.0}, {"type": "electric_scooter", "rental_uris": {"ios": "https://dc.lft.to/lastmile_qr_scan", "android": "https://dc.lft.to/lastmile_qr_scan"}, "lon": -77.0418235, "fusion_lon": 0.0, "is_disabled": 0, "lat": 38.901625833333334, "bike_id": "00c56aebb425634996972cf5477ca107", "name": "00c56aebb425634996972cf5477ca107", "is_reserved": 0, "fusion_lat": 0.0}, {"type": "electric_scooter", "rental_uris": {"ios": "https://dc.lft.to/lastmile_qr_scan", "android": "https://dc.lft.to/lastmile_qr_scan"}, "lon": -77.03956233333334, "fusion_lon": 0.0, "is_disabled": 0, "lat": 38.9073065, "bike_id": "f1dc9bab14008f19f5b07ea766c9bcad", "name": "f1dc9bab14008f19f5b07ea766c9bcad", "is_reserved": 0, "fusion_lat": 0.0}, {"type": "electric_bike", "rental_uris": {"ios": "https://dc.lft.to/lastmile_qr_scan", "android": "https://dc.lft.to/lastmile_qr_scan"}, "lon": -77.09795933333334, "fusion_lon": 0.0, "is_disabled": 0, "lat": 38.850344, "bike_id": "2e6a990bfac8df5f9f3fa9340f9fee6d", "name": "2e6a990bfac8df5f9f3fa9340f9fee6d", "is_reserved": 0, "fusion_lat": 0.0}, {"type": "electric_scooter", "rental_uris": {"ios": "https://dc.lft.to/lastmile_qr_scan", "android": "https://dc.lft.to/lastmile_qr_scan"}, "lon": -76.97951166666667, "fusion_lon": 0.0, "is_disabled": 0, "lat": 38.945202333333334, "bike_id": "e43e644bcd9fb36cdc501ce8cdf7e74c", "name": "e43e644bcd9fb36cdc501ce8cdf7e74c", "is_reserved": 0, "fusion_lat": 0.0}, {"type": "electric_scooter", "rental_uris": {"ios": "https://dc.lft.to/lastmile_qr_scan", "android": "https://dc.lft.to/lastmile_qr_scan"}, "lon": -77.01863583333333, "fusion_lon": 0.0, "is_disabled": 0, "lat": 38.931537666666664, "bike_id": "d10a2c1ed6d72f264d8b07f92c73e38c", "name": "d10a2c1ed6d72f264d8b07f92c73e38c", "is_reserved": 0, "fusion_lat": 0.0}, {"type": "electric_scooter", "rental_uris": {"ios": "https://dc.lft.to/lastmile_qr_scan", "android": "https://dc.lft.to/lastmile_qr_scan"}, "lon": -77.02222183333333, "fusion_lon": 0.0, "is_disabled": 0, "lat": 38.892209333333334, "bike_id": "329b0ecb581d1be00ef40f10b2ac4b1a", "name": "329b0ecb581d1be00ef40f10b2ac4b1a", "is_reserved": 0, "fusion_lat": 0.0}, {"type": "electric_scooter", "rental_uris": {"ios": "https://dc.lft.to/lastmile_qr_scan", "android": "https://dc.lft.to/lastmile_qr_scan"}, "lon": -77.00243916666666, "fusion_lon": 0.0, "is_disabled": 0, "lat": 38.88023666666667, "bike_id": "86fd19ccb58daad915b17d9dde9b01b7", "name": "86fd19ccb58daad915b17d9dde9b01b7", "is_reserved": 0, "fusion_lat": 0.0}, {"type": "electric_scooter", "rental_uris": {"ios": "https://dc.lft.to/lastmile_qr_scan", "android": "https://dc.lft.to/lastmile_qr_scan"}, "lon": -76.9288845, "fusion_lon": 0.0, "is_disabled": 0, "lat": 38.885225166666665, "bike_id": "e19888bd64793d389d6660849eb74b1b", "name": "e19888bd64793d389d6660849eb74b1b", "is_reserved": 0, "fusion_lat": 0.0}, {"type": "electric_bike", "rental_uris": {"ios": "https://dc.lft.to/lastmile_qr_scan", "android": "https://dc.lft.to/lastmile_qr_scan"}, "lon": -76.99664733333333, "fusion_lon": 0.0, "is_disabled": 0, "lat": 38.89746133333333, "bike_id": "df4473f570ee6399c46e8307deea1bd2", "name": "df4473f570ee6399c46e8307deea1bd2", "is_reserved": 0, "fusion_lat": 0.0}, {"type": "electric_bike", "rental_uris": {"ios": "https://dc.lft.to/lastmile_qr_scan", "android": "https://dc.lft.to/lastmile_qr_scan"}, "lon": -77.02070866666666, "fusion_lon": 0.0, "is_disabled": 0, "lat": 38.964440833333335, "bike_id": "caa48661fb226fe7c9fb16ef15153641", "name": "caa48661fb226fe7c9fb16ef15153641", "is_reserved": 0, "fusion_lat": 0.0}, {"type": "electric_scooter", "rental_uris": {"ios": "https://dc.lft.to/lastmile_qr_scan", "android": "https://dc.lft.to/lastmile_qr_scan"}, "lon": -77.03779666666667, "fusion_lon": 0.0, "is_disabled": 0, "lat": 38.9262685, "bike_id": "9b0a7c6a47a213fa47d3998205403d85", "name": "9b0a7c6a47a213fa47d3998205403d85", "is_reserved": 0, "fusion_lat": 0.0}, {"type": "electric_scooter", "rental_uris": {"ios": "https://dc.lft.to/lastmile_qr_scan", "android": "https://dc.lft.to/lastmile_qr_scan"}, "lon": -77.021737, "fusion_lon": 0.0, "is_disabled": 0, "lat": 38.897414, "bike_id": "33bb1a38ae9c77e0bb47a319a9616fe5", "name": "33bb1a38ae9c77e0bb47a319a9616fe5", "is_reserved": 0, "fusion_lat": 0.0}, {"type": "electric_scooter", "rental_uris": {"ios": "https://dc.lft.to/lastmile_qr_scan", "android": "https://dc.lft.to/lastmile_qr_scan"}, "lon": -77.01164016666667, "fusion_lon": 0.0, "is_disabled": 0, "lat": 38.90020783333333, "bike_id": "cb0deed536aa92e13723a9c860a9166e", "name": "cb0deed536aa92e13723a9c860a9166e", "is_reserved": 0, "fusion_lat": 0.0}, {"type": "electric_scooter", "rental_uris": {"ios": "https://dc.lft.to/lastmile_qr_scan", "android": "https://dc.lft.to/lastmile_qr_scan"}, "lon": -77.05224383333334, "fusion_lon": 0.0, "is_disabled": 0, "lat": 38.924980166666664, "bike_id": "2ae2488ce98c42f3cf9a8b1710e74be0", "name": "2ae2488ce98c42f3cf9a8b1710e74be0", "is_reserved": 0, "fusion_lat": 0.0}, {"type": "electric_scooter", "rental_uris": {"ios": "https://dc.lft.to/lastmile_qr_scan", "android": "https://dc.lft.to/lastmile_qr_scan"}, "lon": -77.035246, "fusion_lon": 0.0, "is_disabled": 0, "lat": 38.91826966666667, "bike_id": "b56dad26af2e2815b16d283e88d7ae2a", "name": "b56dad26af2e2815b16d283e88d7ae2a", "is_reserved": 0, "fusion_lat": 0.0}, {"type": "electric_scooter", "rental_uris": {"ios": "https://dc.lft.to/lastmile_qr_scan", "android": "https://dc.lft.to/lastmile_qr_scan"}, "lon": -77.01757283333333, "fusion_lon": 0.0, "is_disabled": 0, "lat": 38.90250266666666, "bike_id": "04fa346f191957214145ef4507f16ea7", "name": "04fa346f191957214145ef4507f16ea7", "is_reserved": 0, "fusion_lat": 0.0}, {"type": "electric_scooter", "rental_uris": {"ios": "https://dc.lft.to/lastmile_qr_scan", "android": "https://dc.lft.to/lastmile_qr_scan"}, "lon": -77.03217383333333, "fusion_lon": 0.0, "is_disabled": 0, "lat": 38.892237333333334, "bike_id": "3ebc23aaa4ff21a6946e3e4eb73ac52a", "name": "3ebc23aaa4ff21a6946e3e4eb73ac52a", "is_reserved": 0, "fusion_lat": 0.0}, {"type": "electric_scooter", "rental_uris": {"ios": "https://dc.lft.to/lastmile_qr_scan", "android": "https://dc.lft.to/lastmile_qr_scan"}, "lon": -77.03144666666667, "fusion_lon": 0.0, "is_disabled": 0, "lat": 38.916977333333335, "bike_id": "a7aacbc4b7e1a695f7cab20e5c8b5d1b", "name": "a7aacbc4b7e1a695f7cab20e5c8b5d1b", "is_reserved": 0, "fusion_lat": 0.0}, {"type": "electric_scooter", "rental_uris": {"ios": "https://dc.lft.to/lastmile_qr_scan", "android": "https://dc.lft.to/lastmile_qr_scan"}, "lon": -77.04159733333333, "fusion_lon": 0.0, "is_disabled": 0, "lat": 38.914219, "bike_id": "d574dacb90c8e7dab3999a2d952b781f", "name": "d574dacb90c8e7dab3999a2d952b781f", "is_reserved": 0, "fusion_lat": 0.0}, {"type": "electric_scooter", "rental_uris": {"ios": "https://dc.lft.to/lastmile_qr_scan", "android": "https://dc.lft.to/lastmile_qr_scan"}, "lon": -77.02237333333333, "fusion_lon": 0.0, "is_disabled": 0, "lat": 38.92236033333333, "bike_id": "182f7a996a43abc8fd59ab4e52fc7374", "name": "182f7a996a43abc8fd59ab4e52fc7374", "is_reserved": 0, "fusion_lat": 0.0}, {"type": "electric_scooter", "rental_uris": {"ios": "https://dc.lft.to/lastmile_qr_scan", "android": "https://dc.lft.to/lastmile_qr_scan"}, "lon": -77.034553, "fusion_lon": 0.0, "is_disabled": 0, "lat": 38.918793666666666, "bike_id": "8d02d44979e8f97177840c15662820a6", "name": "8d02d44979e8f97177840c15662820a6", "is_reserved": 0, "fusion_lat": 0.0}, {"type": "electric_scooter", "rental_uris": {"ios": "https://dc.lft.to/lastmile_qr_scan", "android": "https://dc.lft.to/lastmile_qr_scan"}, "lon": -77.00079083333334, "fusion_lon": 0.0, "is_disabled": 0, "lat": 38.8739785, "bike_id": "709fe1e3d5578d687394336c76151d48", "name": "709fe1e3d5578d687394336c76151d48", "is_reserved": 0, "fusion_lat": 0.0}, {"type": "electric_bike", "rental_uris": {"ios": "https://dc.lft.to/lastmile_qr_scan", "android": "https://dc.lft.to/lastmile_qr_scan"}, "lon": -77.223376, "fusion_lon": 0.0, "is_disabled": 0, "lat": 38.918016333333334, "bike_id": "d9ed2ad8ae3dec998b51e9f30effa4ec", "name": "d9ed2ad8ae3dec998b51e9f30effa4ec", "is_reserved": 0, "fusion_lat": 0.0}, {"type": "electric_bike", "rental_uris": {"ios": "https://dc.lft.to/lastmile_qr_scan", "android": "https://dc.lft.to/lastmile_qr_scan"}, "lon": -77.095203, "fusion_lon": 0.0, "is_disabled": 0, "lat": 38.83813166666667, "bike_id": "6afb375b32291849283dcc07b92d36d4", "name": "6afb375b32291849283dcc07b92d36d4", "is_reserved": 0, "fusion_lat": 0.0}, {"type": "electric_scooter", "rental_uris": {"ios": "https://dc.lft.to/lastmile_qr_scan", "android": "https://dc.lft.to/lastmile_qr_scan"}, "lon": -77.01117233333333, "fusion_lon": 0.0, "is_disabled": 0, "lat": 38.92031583333333, "bike_id": "c47a5f02e743264d3ce4aa05f4f6f56b", "name": "c47a5f02e743264d3ce4aa05f4f6f56b", "is_reserved": 0, "fusion_lat": 0.0}, {"type": "electric_scooter", "rental_uris": {"ios": "https://dc.lft.to/lastmile_qr_scan", "android": "https://dc.lft.to/lastmile_qr_scan"}, "lon": -77.051543, "fusion_lon": 0.0, "is_disabled": 0, "lat": 38.900547833333334, "bike_id": "22abd6aca74b2fb835002a12c31ce768", "name": "22abd6aca74b2fb835002a12c31ce768", "is_reserved": 0, "fusion_lat": 0.0}, {"type": "electric_scooter", "rental_uris": {"ios": "https://dc.lft.to/lastmile_qr_scan", "android": "https://dc.lft.to/lastmile_qr_scan"}, "lon": -77.0265945, "fusion_lon": 0.0, "is_disabled": 0, "lat": 38.9170405, "bike_id": "625b592a22d2b98f3deaabf2b3af4c78", "name": "625b592a22d2b98f3deaabf2b3af4c78", "is_reserved": 0, "fusion_lat": 0.0}, {"type": "electric_scooter", "rental_uris": {"ios": "https://dc.lft.to/lastmile_qr_scan", "android": "https://dc.lft.to/lastmile_qr_scan"}, "lon": -76.93612683333333, "fusion_lon": 0.0, "is_disabled": 0, "lat": 38.88671733333334, "bike_id": "6c6ef0ff976e516c739fae3647f0f76c", "name": "6c6ef0ff976e516c739fae3647f0f76c", "is_reserved": 0, "fusion_lat": 0.0}, {"type": "electric_scooter", "rental_uris": {"ios": "https://dc.lft.to/lastmile_qr_scan", "android": "https://dc.lft.to/lastmile_qr_scan"}, "lon": -77.033393, "fusion_lon": 0.0, "is_disabled": 0, "lat": 38.928739, "bike_id": "2de4cd65d3509cbd66d3abcc52f8ce53", "name": "2de4cd65d3509cbd66d3abcc52f8ce53", "is_reserved": 0, "fusion_lat": 0.0}, {"type": "electric_scooter", "rental_uris": {"ios": "https://dc.lft.to/lastmile_qr_scan", "android": "https://dc.lft.to/lastmile_qr_scan"}, "lon": -77.02911316666666, "fusion_lon": 0.0, "is_disabled": 0, "lat": 38.902547, "bike_id": "a08166d0b1ea15eee16bea6aa6772d25", "name": "a08166d0b1ea15eee16bea6aa6772d25", "is_reserved": 0, "fusion_lat": 0.0}, {"type": "electric_scooter", "rental_uris": {"ios": "https://dc.lft.to/lastmile_qr_scan", "android": "https://dc.lft.to/lastmile_qr_scan"}, "lon": -77.03241316666667, "fusion_lon": 0.0, "is_disabled": 0, "lat": 38.9280475, "bike_id": "a6001cd4e1cb3239309ef7e104fd9050", "name": "a6001cd4e1cb3239309ef7e104fd9050", "is_reserved": 0, "fusion_lat": 0.0}, {"type": "electric_scooter", "rental_uris": {"ios": "https://dc.lft.to/lastmile_qr_scan", "android": "https://dc.lft.to/lastmile_qr_scan"}, "lon": -77.03181033333334, "fusion_lon": 0.0, "is_disabled": 0, "lat": 38.9211415, "bike_id": "0dd157be4629d6c524003632fba9124f", "name": "0dd157be4629d6c524003632fba9124f", "is_reserved": 0, "fusion_lat": 0.0}, {"type": "electric_scooter", "rental_uris": {"ios": "https://dc.lft.to/lastmile_qr_scan", "android": "https://dc.lft.to/lastmile_qr_scan"}, "lon": -77.029807, "fusion_lon": 0.0, "is_disabled": 0, "lat": 38.9169225, "bike_id": "622ef922b8906307b24fab8f68025fd8", "name": "622ef922b8906307b24fab8f68025fd8", "is_reserved": 0, "fusion_lat": 0.0}, {"type": "electric_bike", "rental_uris": {"ios": "https://dc.lft.to/lastmile_qr_scan", "android": "https://dc.lft.to/lastmile_qr_scan"}, "lon": -76.982988, "fusion_lon": 0.0, "is_disabled": 0, "lat": 38.962834, "bike_id": "86488e3ce6b5be183700f90ecdd9cf18", "name": "86488e3ce6b5be183700f90ecdd9cf18", "is_reserved": 0, "fusion_lat": 0.0}, {"type": "electric_scooter", "rental_uris": {"ios": "https://dc.lft.to/lastmile_qr_scan", "android": "https://dc.lft.to/lastmile_qr_scan"}, "lon": -77.02823883333333, "fusion_lon": 0.0, "is_disabled": 0, "lat": 38.88736183333333, "bike_id": "4f5c31fca86587addca76b766db6fb59", "name": "4f5c31fca86587addca76b766db6fb59", "is_reserved": 0, "fusion_lat": 0.0}, {"type": "electric_scooter", "rental_uris": {"ios": "https://dc.lft.to/lastmile_qr_scan", "android": "https://dc.lft.to/lastmile_qr_scan"}, "lon": -77.03308866666667, "fusion_lon": 0.0, "is_disabled": 0, "lat": 38.931973666666664, "bike_id": "36eaae121343cd6a544a44365373e553", "name": "36eaae121343cd6a544a44365373e553", "is_reserved": 0, "fusion_lat": 0.0}, {"type": "electric_scooter", "rental_uris": {"ios": "https://dc.lft.to/lastmile_qr_scan", "android": "https://dc.lft.to/lastmile_qr_scan"}, "lon": -76.96684783333333, "fusion_lon": 0.0, "is_disabled": 0, "lat": 38.869580666666664, "bike_id": "6905e228cf1284daeff04cd9d44cc354", "name": "6905e228cf1284daeff04cd9d44cc354", "is_reserved": 0, "fusion_lat": 0.0}, {"type": "electric_scooter", "rental_uris": {"ios": "https://dc.lft.to/lastmile_qr_scan", "android": "https://dc.lft.to/lastmile_qr_scan"}, "lon": -77.02698216666667, "fusion_lon": 0.0, "is_disabled": 0, "lat": 38.90686766666666, "bike_id": "adfef73e7382caf3d8734ba581928473", "name": "adfef73e7382caf3d8734ba581928473", "is_reserved": 0, "fusion_lat": 0.0}, {"type": "electric_scooter", "rental_uris": {"ios": "https://dc.lft.to/lastmile_qr_scan", "android": "https://dc.lft.to/lastmile_qr_scan"}, "lon": -77.02225483333334, "fusion_lon": 0.0, "is_disabled": 0, "lat": 38.935527, "bike_id": "2b4b6a57fd2ab3585a5e0ec21353e3c2", "name": "2b4b6a57fd2ab3585a5e0ec21353e3c2", "is_reserved": 0, "fusion_lat": 0.0}, {"type": "electric_bike", "rental_uris": {"ios": "https://dc.lft.to/lastmile_qr_scan", "android": "https://dc.lft.to/lastmile_qr_scan"}, "lon": -76.9899115, "fusion_lon": 0.0, "is_disabled": 0, "lat": 38.863909, "bike_id": "4d1f86f95710464eebd220a66af926cc", "name": "4d1f86f95710464eebd220a66af926cc", "is_reserved": 0, "fusion_lat": 0.0}, {"type": "electric_scooter", "rental_uris": {"ios": "https://dc.lft.to/lastmile_qr_scan", "android": "https://dc.lft.to/lastmile_qr_scan"}, "lon": -77.02189933333334, "fusion_lon": 0.0, "is_disabled": 0, "lat": 38.8858225, "bike_id": "1b85ad28cb3d469198c27ec3b1de1567", "name": "1b85ad28cb3d469198c27ec3b1de1567", "is_reserved": 0, "fusion_lat": 0.0}, {"type": "electric_scooter", "rental_uris": {"ios": "https://dc.lft.to/lastmile_qr_scan", "android": "https://dc.lft.to/lastmile_qr_scan"}, "lon": -76.981801, "fusion_lon": 0.0, "is_disabled": 0, "lat": 38.8567735, "bike_id": "12d3a50c52540423191f9bc363aefa60", "name": "12d3a50c52540423191f9bc363aefa60", "is_reserved": 0, "fusion_lat": 0.0}, {"type": "electric_scooter", "rental_uris": {"ios": "https://dc.lft.to/lastmile_qr_scan", "android": "https://dc.lft.to/lastmile_qr_scan"}, "lon": -77.01970083333333, "fusion_lon": 0.0, "is_disabled": 0, "lat": 38.93000116666666, "bike_id": "9edd78a717cf97ff11b3095310824a14", "name": "9edd78a717cf97ff11b3095310824a14", "is_reserved": 0, "fusion_lat": 0.0}, {"type": "electric_bike", "rental_uris": {"ios": "https://dc.lft.to/lastmile_qr_scan", "android": "https://dc.lft.to/lastmile_qr_scan"}, "lon": -76.9976645, "fusion_lon": 0.0, "is_disabled": 0, "lat": 38.8373815, "bike_id": "7a64b61ddf99959f032f53db52236865", "name": "7a64b61ddf99959f032f53db52236865", "is_reserved": 0, "fusion_lat": 0.0}, {"type": "electric_scooter", "rental_uris": {"ios": "https://dc.lft.to/lastmile_qr_scan", "android": "https://dc.lft.to/lastmile_qr_scan"}, "lon": -77.04299616666667, "fusion_lon": 0.0, "is_disabled": 0, "lat": 38.901500166666665, "bike_id": "1dede9ae1cf76b74b41399beae132065", "name": "1dede9ae1cf76b74b41399beae132065", "is_reserved": 0, "fusion_lat": 0.0}, {"type": "electric_bike", "rental_uris": {"ios": "https://dc.lft.to/lastmile_qr_scan", "android": "https://dc.lft.to/lastmile_qr_scan"}, "lon": -76.99133766666667, "fusion_lon": 0.0, "is_disabled": 0, "lat": 38.84635433333333, "bike_id": "f093ed258d9d06a2d682367d17f8d875", "name": "f093ed258d9d06a2d682367d17f8d875", "is_reserved": 0, "fusion_lat": 0.0}, {"type": "electric_scooter", "rental_uris": {"ios": "https://dc.lft.to/lastmile_qr_scan", "android": "https://dc.lft.to/lastmile_qr_scan"}, "lon": -77.07268016666667, "fusion_lon": 0.0, "is_disabled": 0, "lat": 38.934930333333334, "bike_id": "02a9f6235b1836b37f005c020aa23533", "name": "02a9f6235b1836b37f005c020aa23533", "is_reserved": 0, "fusion_lat": 0.0}, {"type": "electric_scooter", "rental_uris": {"ios": "https://dc.lft.to/lastmile_qr_scan", "android": "https://dc.lft.to/lastmile_qr_scan"}, "lon": -77.037531, "fusion_lon": 0.0, "is_disabled": 0, "lat": 38.9293425, "bike_id": "7afe2f1cfff4ca13323f2e1129b379bf", "name": "7afe2f1cfff4ca13323f2e1129b379bf", "is_reserved": 0, "fusion_lat": 0.0}, {"type": "electric_bike", "rental_uris": {"ios": "https://dc.lft.to/lastmile_qr_scan", "android": "https://dc.lft.to/lastmile_qr_scan"}, "lon": -77.05644866666667, "fusion_lon": 0.0, "is_disabled": 0, "lat": 38.93688983333333, "bike_id": "bd5414ebd9576fc005fdcf03154c7058", "name": "bd5414ebd9576fc005fdcf03154c7058", "is_reserved": 0, "fusion_lat": 0.0}, {"type": "electric_scooter", "rental_uris": {"ios": "https://dc.lft.to/lastmile_qr_scan", "android": "https://dc.lft.to/lastmile_qr_scan"}, "lon": -77.02474666666667, "fusion_lon": 0.0, "is_disabled": 0, "lat": 38.93097183333333, "bike_id": "09d01cbdcfbf5a88e571edca5673d326", "name": "09d01cbdcfbf5a88e571edca5673d326", "is_reserved": 0, "fusion_lat": 0.0}, {"type": "electric_scooter", "rental_uris": {"ios": "https://dc.lft.to/lastmile_qr_scan", "android": "https://dc.lft.to/lastmile_qr_scan"}, "lon": -77.02222833333333, "fusion_lon": 0.0, "is_disabled": 0, "lat": 38.89220133333333, "bike_id": "4ae923dce7a87aac63a0f4f2ae29cdea", "name": "4ae923dce7a87aac63a0f4f2ae29cdea", "is_reserved": 0, "fusion_lat": 0.0}, {"type": "electric_scooter", "rental_uris": {"ios": "https://dc.lft.to/lastmile_qr_scan", "android": "https://dc.lft.to/lastmile_qr_scan"}, "lon": -77.04166133333334, "fusion_lon": 0.0, "is_disabled": 0, "lat": 38.91810383333333, "bike_id": "50e8b424c7a0fbd0afd9f9f2aa81e16c", "name": "50e8b424c7a0fbd0afd9f9f2aa81e16c", "is_reserved": 0, "fusion_lat": 0.0}, {"type": "electric_scooter", "rental_uris": {"ios": "https://dc.lft.to/lastmile_qr_scan", "android": "https://dc.lft.to/lastmile_qr_scan"}, "lon": -77.02716166666667, "fusion_lon": 0.0, "is_disabled": 0, "lat": 38.906908666666666, "bike_id": "a63041eb809115d7e26f238551477021", "name": "a63041eb809115d7e26f238551477021", "is_reserved": 0, "fusion_lat": 0.0}, {"type": "electric_scooter", "rental_uris": {"ios": "https://dc.lft.to/lastmile_qr_scan", "android": "https://dc.lft.to/lastmile_qr_scan"}, "lon": -77.03205316666667, "fusion_lon": 0.0, "is_disabled": 0, "lat": 38.90893366666667, "bike_id": "b3ebf398c1c5fe1baa9b7803d2c02364", "name": "b3ebf398c1c5fe1baa9b7803d2c02364", "is_reserved": 0, "fusion_lat": 0.0}, {"type": "electric_scooter", "rental_uris": {"ios": "https://dc.lft.to/lastmile_qr_scan", "android": "https://dc.lft.to/lastmile_qr_scan"}, "lon": -76.98517583333333, "fusion_lon": 0.0, "is_disabled": 0, "lat": 38.866855, "bike_id": "d75fac9944b84fc000f6411dc5d52099", "name": "d75fac9944b84fc000f6411dc5d52099", "is_reserved": 0, "fusion_lat": 0.0}, {"type": "electric_scooter", "rental_uris": {"ios": "https://dc.lft.to/lastmile_qr_scan", "android": "https://dc.lft.to/lastmile_qr_scan"}, "lon": -77.0315795, "fusion_lon": 0.0, "is_disabled": 0, "lat": 38.8922215, "bike_id": "9f28ac6f9524013be976f51b905f4e4a", "name": "9f28ac6f9524013be976f51b905f4e4a", "is_reserved": 0, "fusion_lat": 0.0}, {"type": "electric_scooter", "rental_uris": {"ios": "https://dc.lft.to/lastmile_qr_scan", "android": "https://dc.lft.to/lastmile_qr_scan"}, "lon": -77.07062866666666, "fusion_lon": 0.0, "is_disabled": 0, "lat": 38.93182016666667, "bike_id": "cb1823da27d517b438ecce6d5afb4fce", "name": "cb1823da27d517b438ecce6d5afb4fce", "is_reserved": 0, "fusion_lat": 0.0}, {"type": "electric_scooter", "rental_uris": {"ios": "https://dc.lft.to/lastmile_qr_scan", "android": "https://dc.lft.to/lastmile_qr_scan"}, "lon": -77.02493583333333, "fusion_lon": 0.0, "is_disabled": 0, "lat": 38.9180975, "bike_id": "d8cd3eb29289fb7667263976c8881722", "name": "d8cd3eb29289fb7667263976c8881722", "is_reserved": 0, "fusion_lat": 0.0}, {"type": "electric_scooter", "rental_uris": {"ios": "https://dc.lft.to/lastmile_qr_scan", "android": "https://dc.lft.to/lastmile_qr_scan"}, "lon": -77.03397366666667, "fusion_lon": 0.0, "is_disabled": 0, "lat": 38.920492333333335, "bike_id": "697ca179d8bd7a11f243667b4db8df8b", "name": "697ca179d8bd7a11f243667b4db8df8b", "is_reserved": 0, "fusion_lat": 0.0}, {"type": "electric_bike", "rental_uris": {"ios": "https://dc.lft.to/lastmile_qr_scan", "android": "https://dc.lft.to/lastmile_qr_scan"}, "lon": -77.03324516666666, "fusion_lon": 0.0, "is_disabled": 0, "lat": 38.920515, "bike_id": "08c0ecba41bf9eae8531a8fc16b4f4ec", "name": "08c0ecba41bf9eae8531a8fc16b4f4ec", "is_reserved": 0, "fusion_lat": 0.0}, {"type": "electric_scooter", "rental_uris": {"ios": "https://dc.lft.to/lastmile_qr_scan", "android": "https://dc.lft.to/lastmile_qr_scan"}, "lon": -77.03992316666667, "fusion_lon": 0.0, "is_disabled": 0, "lat": 38.913368166666665, "bike_id": "258b9d30d3b293e0063bd8e70293dec6", "name": "258b9d30d3b293e0063bd8e70293dec6", "is_reserved": 0, "fusion_lat": 0.0}, {"type": "electric_scooter", "rental_uris": {"ios": "https://dc.lft.to/lastmile_qr_scan", "android": "https://dc.lft.to/lastmile_qr_scan"}, "lon": -76.93343366666667, "fusion_lon": 0.0, "is_disabled": 0, "lat": 38.8881565, "bike_id": "5348fb285079114f1103eab4d2310f80", "name": "5348fb285079114f1103eab4d2310f80", "is_reserved": 0, "fusion_lat": 0.0}, {"type": "electric_bike", "rental_uris": {"ios": "https://dc.lft.to/lastmile_qr_scan", "android": "https://dc.lft.to/lastmile_qr_scan"}, "lon": -77.01445266666667, "fusion_lon": 0.0, "is_disabled": 0, "lat": 38.876746, "bike_id": "83c54c3566b0a15be5762f94e03897dd", "name": "83c54c3566b0a15be5762f94e03897dd", "is_reserved": 0, "fusion_lat": 0.0}, {"type": "electric_bike", "rental_uris": {"ios": "https://dc.lft.to/lastmile_qr_scan", "android": "https://dc.lft.to/lastmile_qr_scan"}, "lon": -77.00568216666667, "fusion_lon": 0.0, "is_disabled": 0, "lat": 38.83986016666667, "bike_id": "258558ae06fbfd460fb220c4daede222", "name": "258558ae06fbfd460fb220c4daede222", "is_reserved": 0, "fusion_lat": 0.0}, {"type": "electric_scooter", "rental_uris": {"ios": "https://dc.lft.to/lastmile_qr_scan", "android": "https://dc.lft.to/lastmile_qr_scan"}, "lon": -77.0265755, "fusion_lon": 0.0, "is_disabled": 0, "lat": 38.917086166666664, "bike_id": "7f4e352421f6678e36cd7cde128a8495", "name": "7f4e352421f6678e36cd7cde128a8495", "is_reserved": 0, "fusion_lat": 0.0}, {"type": "electric_scooter", "rental_uris": {"ios": "https://dc.lft.to/lastmile_qr_scan", "android": "https://dc.lft.to/lastmile_qr_scan"}, "lon": -77.00987733333334, "fusion_lon": 0.0, "is_disabled": 0, "lat": 38.87292716666666, "bike_id": "4160e40cde4a2e577e5c21754f095e21", "name": "4160e40cde4a2e577e5c21754f095e21", "is_reserved": 0, "fusion_lat": 0.0}, {"type": "electric_scooter", "rental_uris": {"ios": "https://dc.lft.to/lastmile_qr_scan", "android": "https://dc.lft.to/lastmile_qr_scan"}, "lon": -77.036228, "fusion_lon": 0.0, "is_disabled": 0, "lat": 38.936869333333334, "bike_id": "974585cfd9d177249940140c755590b5", "name": "974585cfd9d177249940140c755590b5", "is_reserved": 0, "fusion_lat": 0.0}, {"type": "electric_scooter", "rental_uris": {"ios": "https://dc.lft.to/lastmile_qr_scan", "android": "https://dc.lft.to/lastmile_qr_scan"}, "lon": -77.02803116666666, "fusion_lon": 0.0, "is_disabled": 0, "lat": 38.91102266666667, "bike_id": "ad4a11e0fa5f0a3ee208974a183c3cf0", "name": "ad4a11e0fa5f0a3ee208974a183c3cf0", "is_reserved": 0, "fusion_lat": 0.0}, {"type": "electric_scooter", "rental_uris": {"ios": "https://dc.lft.to/lastmile_qr_scan", "android": "https://dc.lft.to/lastmile_qr_scan"}, "lon": -77.04191, "fusion_lon": 0.0, "is_disabled": 0, "lat": 38.920578166666665, "bike_id": "4abc8afc547f79c562734b7289c29c06", "name": "4abc8afc547f79c562734b7289c29c06", "is_reserved": 0, "fusion_lat": 0.0}, {"type": "electric_scooter", "rental_uris": {"ios": "https://dc.lft.to/lastmile_qr_scan", "android": "https://dc.lft.to/lastmile_qr_scan"}, "lon": -77.032682, "fusion_lon": 0.0, "is_disabled": 0, "lat": 38.92925616666667, "bike_id": "9d287fb1c6a0a80565a9ba03680787e0", "name": "9d287fb1c6a0a80565a9ba03680787e0", "is_reserved": 0, "fusion_lat": 0.0}, {"type": "electric_scooter", "rental_uris": {"ios": "https://dc.lft.to/lastmile_qr_scan", "android": "https://dc.lft.to/lastmile_qr_scan"}, "lon": -77.03190583333334, "fusion_lon": 0.0, "is_disabled": 0, "lat": 38.8976145, "bike_id": "1357986b169c0b455bc96a40d459f9e8", "name": "1357986b169c0b455bc96a40d459f9e8", "is_reserved": 0, "fusion_lat": 0.0}, {"type": "electric_bike", "rental_uris": {"ios": "https://dc.lft.to/lastmile_qr_scan", "android": "https://dc.lft.to/lastmile_qr_scan"}, "lon": -77.05348716666667, "fusion_lon": 0.0, "is_disabled": 0, "lat": 38.902311166666664, "bike_id": "9c69fcefdea10807105b01b21811b53a", "name": "9c69fcefdea10807105b01b21811b53a", "is_reserved": 0, "fusion_lat": 0.0}, {"type": "electric_scooter", "rental_uris": {"ios": "https://dc.lft.to/lastmile_qr_scan", "android": "https://dc.lft.to/lastmile_qr_scan"}, "lon": -76.98697, "fusion_lon": 0.0, "is_disabled": 0, "lat": 38.86249316666667, "bike_id": "bf91a1d65b537adba9d94c805d2c606f", "name": "bf91a1d65b537adba9d94c805d2c606f", "is_reserved": 0, "fusion_lat": 0.0}, {"type": "electric_scooter", "rental_uris": {"ios": "https://dc.lft.to/lastmile_qr_scan", "android": "https://dc.lft.to/lastmile_qr_scan"}, "lon": -77.04241733333333, "fusion_lon": 0.0, "is_disabled": 0, "lat": 38.922225, "bike_id": "2a71a6c9a3243657b6cc760de48d4e7e", "name": "2a71a6c9a3243657b6cc760de48d4e7e", "is_reserved": 0, "fusion_lat": 0.0}, {"type": "electric_scooter", "rental_uris": {"ios": "https://dc.lft.to/lastmile_qr_scan", "android": "https://dc.lft.to/lastmile_qr_scan"}, "lon": -77.0318215, "fusion_lon": 0.0, "is_disabled": 0, "lat": 38.9174965, "bike_id": "ce8353130a4fcde0a8e6c7e9ba8da60b", "name": "ce8353130a4fcde0a8e6c7e9ba8da60b", "is_reserved": 0, "fusion_lat": 0.0}, {"type": "electric_scooter", "rental_uris": {"ios": "https://dc.lft.to/lastmile_qr_scan", "android": "https://dc.lft.to/lastmile_qr_scan"}, "lon": -76.987272, "fusion_lon": 0.0, "is_disabled": 0, "lat": 38.867092666666665, "bike_id": "c557632a1f636d86f2a2eaa7404e1e33", "name": "c557632a1f636d86f2a2eaa7404e1e33", "is_reserved": 0, "fusion_lat": 0.0}, {"type": "electric_scooter", "rental_uris": {"ios": "https://dc.lft.to/lastmile_qr_scan", "android": "https://dc.lft.to/lastmile_qr_scan"}, "lon": -77.0267405, "fusion_lon": 0.0, "is_disabled": 0, "lat": 38.91698066666667, "bike_id": "68ac11322534a3ca7a5c76fed97dc1c8", "name": "68ac11322534a3ca7a5c76fed97dc1c8", "is_reserved": 0, "fusion_lat": 0.0}, {"type": "electric_scooter", "rental_uris": {"ios": "https://dc.lft.to/lastmile_qr_scan", "android": "https://dc.lft.to/lastmile_qr_scan"}, "lon": -77.03341166666667, "fusion_lon": 0.0, "is_disabled": 0, "lat": 38.892276833333334, "bike_id": "29c42148c1bcb7ff3ceccc39af9661af", "name": "29c42148c1bcb7ff3ceccc39af9661af", "is_reserved": 0, "fusion_lat": 0.0}, {"type": "electric_scooter", "rental_uris": {"ios": "https://dc.lft.to/lastmile_qr_scan", "android": "https://dc.lft.to/lastmile_qr_scan"}, "lon": -77.04106783333333, "fusion_lon": 0.0, "is_disabled": 0, "lat": 38.916943, "bike_id": "37af10302561871927ceb4c17d620152", "name": "37af10302561871927ceb4c17d620152", "is_reserved": 0, "fusion_lat": 0.0}, {"type": "electric_scooter", "rental_uris": {"ios": "https://dc.lft.to/lastmile_qr_scan", "android": "https://dc.lft.to/lastmile_qr_scan"}, "lon": -77.03842466666667, "fusion_lon": 0.0, "is_disabled": 0, "lat": 38.91759533333333, "bike_id": "23ff5b576401c825622f69c102800ca3", "name": "23ff5b576401c825622f69c102800ca3", "is_reserved": 0, "fusion_lat": 0.0}, {"type": "electric_scooter", "rental_uris": {"ios": "https://dc.lft.to/lastmile_qr_scan", "android": "https://dc.lft.to/lastmile_qr_scan"}, "lon": -76.91912083333334, "fusion_lon": 0.0, "is_disabled": 0, "lat": 38.88575816666667, "bike_id": "da07e7901f9e68f6e6997c3c9ae7e888", "name": "da07e7901f9e68f6e6997c3c9ae7e888", "is_reserved": 0, "fusion_lat": 0.0}, {"type": "electric_scooter", "rental_uris": {"ios": "https://dc.lft.to/lastmile_qr_scan", "android": "https://dc.lft.to/lastmile_qr_scan"},