{"data": {"bikes": [{"fusion_lat": 0.0, "name": "92ed6f50d1e2352cfc024a29027b777b", "is_disabled": 0, "rental_uris": {"android": "https://dc.lft.to/lastmile_qr_scan", "ios": "https://dc.lft.to/lastmile_qr_scan"}, "fusion_lon": 0.0, "lat": 38.8813935, "bike_id": "92ed6f50d1e2352cfc024a29027b777b", "type": "electric_scooter", "is_reserved": 0, "lon": -76.995034}, {"fusion_lat": 0.0, "name": "d282300bd08f74a070cd96ace64a537a", "is_disabled": 0, "rental_uris": {"android": "https://dc.lft.to/lastmile_qr_scan", "ios": "https://dc.lft.to/lastmile_qr_scan"}, "fusion_lon": 0.0, "lat": 38.896769166666665, "bike_id": "d282300bd08f74a070cd96ace64a537a", "type": "electric_scooter", "is_reserved": 0, "lon": -77.00553633333334}, {"fusion_lat": 0.0, "name": "5d8063dd7c1661ef499118db103c9ae0", "is_disabled": 0, "rental_uris": {"android": "https://dc.lft.to/lastmile_qr_scan", "ios": "https://dc.lft.to/lastmile_qr_scan"}, "fusion_lon": 0.0, "lat": 38.88601666666667, "bike_id": "5d8063dd7c1661ef499118db103c9ae0", "type": "electric_scooter", "is_reserved": 0, "lon": -77.00341883333333}, {"fusion_lat": 0.0, "name": "9ec0c2790ab2b7b00f3525223bfec40b", "is_disabled": 0, "rental_uris": {"android": "https://dc.lft.to/lastmile_qr_scan", "ios": "https://dc.lft.to/lastmile_qr_scan"}, "fusion_lon": 0.0, "lat": 38.90348766666666, "bike_id": "9ec0c2790ab2b7b00f3525223bfec40b", "type": "electric_scooter", "is_reserved": 0, "lon": -77.06646783333333}, {"fusion_lat": 0.0, "name": "e470a37ea1341815b15366057efbbb8f", "is_disabled": 0, "rental_uris": {"android": "https://dc.lft.to/lastmile_qr_scan", "ios": "https://dc.lft.to/lastmile_qr_scan"}, "fusion_lon": 0.0, "lat": 38.9140575, "bike_id": "e470a37ea1341815b15366057efbbb8f", "type": "electric_scooter", "is_reserved": 0, "lon": -77.040913}, {"fusion_lat": 0.0, "name": "b4fc9a55122cf0c24f2ee3b4e51dcdb1", "is_disabled": 0, "rental_uris": {"android": "https://dc.lft.to/lastmile_qr_scan", "ios": "https://dc.lft.to/lastmile_qr_scan"}, "fusion_lon": 0.0, "lat": 38.90643933333333, "bike_id": "b4fc9a55122cf0c24f2ee3b4e51dcdb1", "type": "electric_scooter", "is_reserved": 0, "lon": -77.0066695}, {"fusion_lat": 0.0, "name": "9a478cf6df2ec5b626b985a71824639b", "is_disabled": 0, "rental_uris": {"android": "https://dc.lft.to/lastmile_qr_scan", "ios": "https://dc.lft.to/lastmile_qr_scan"}, "fusion_lon": 0.0, "lat": 38.96659833333333, "bike_id": "9a478cf6df2ec5b626b985a71824639b", "type": "electric_scooter", "is_reserved": 0, "lon": -77.02547516666667}, {"fusion_lat": 0.0, "name": "c5cce9f44a8e719ba513014aedd557a3", "is_disabled": 0, "rental_uris": {"android": "https://dc.lft.to/lastmile_qr_scan", "ios": "https://dc.lft.to/lastmile_qr_scan"}, "fusion_lon": 0.0, "lat": 38.91311966666667, "bike_id": "c5cce9f44a8e719ba513014aedd557a3", "type": "electric_scooter", "is_reserved": 0, "lon": -77.03644283333334}, {"fusion_lat": 0.0, "name": "eb5ef96ddecc9b9933b1b2a8614ee94e", "is_disabled": 0, "rental_uris": {"android": "https://dc.lft.to/lastmile_qr_scan", "ios": "https://dc.lft.to/lastmile_qr_scan"}, "fusion_lon": 0.0, "lat": 38.9052605, "bike_id": "eb5ef96ddecc9b9933b1b2a8614ee94e", "type": "electric_scooter", "is_reserved": 0, "lon": -77.0587295}, {"fusion_lat": 0.0, "name": "4e829045f5d329dfa39970705611b7bb", "is_disabled": 0, "rental_uris": {"android": "https://dc.lft.to/lastmile_qr_scan", "ios": "https://dc.lft.to/lastmile_qr_scan"}, "fusion_lon": 0.0, "lat": 38.95547633333334, "bike_id": "4e829045f5d329dfa39970705611b7bb", "type": "electric_bike", "is_reserved": 0, "lon": -77.06936533333334}, {"fusion_lat": 0.0, "name": "4feb25e9c68bb90fe2fb1b790892d94f", "is_disabled": 0, "rental_uris": {"android": "https://dc.lft.to/lastmile_qr_scan", "ios": "https://dc.lft.to/lastmile_qr_scan"}, "fusion_lon": 0.0, "lat": 38.886251333333334, "bike_id": "4feb25e9c68bb90fe2fb1b790892d94f", "type": "electric_scooter", "is_reserved": 0, "lon": -77.01531433333334}, {"fusion_lat": 0.0, "name": "3a762bf83a99ef0b2806599aeba4bfae", "is_disabled": 0, "rental_uris": {"android": "https://dc.lft.to/lastmile_qr_scan", "ios": "https://dc.lft.to/lastmile_qr_scan"}, "fusion_lon": 0.0, "lat": 38.91412, "bike_id": "3a762bf83a99ef0b2806599aeba4bfae", "type": "electric_scooter", "is_reserved": 0, "lon": -77.031806}, {"fusion_lat": 0.0, "name": "e39ed2f30f4f5a7dff2439de22c4519f", "is_disabled": 0, "rental_uris": {"android": "https://dc.lft.to/lastmile_qr_scan", "ios": "https://dc.lft.to/lastmile_qr_scan"}, "fusion_lon": 0.0, "lat": 38.904721, "bike_id": "e39ed2f30f4f5a7dff2439de22c4519f", "type": "electric_scooter", "is_reserved": 0, "lon": -76.95199933333333}, {"fusion_lat": 0.0, "name": "0eff5c06b201fa7bdd35586b4b82874c", "is_disabled": 0, "rental_uris": {"android": "https://dc.lft.to/lastmile_qr_scan", "ios": "https://dc.lft.to/lastmile_qr_scan"}, "fusion_lon": 0.0, "lat": 38.90079933333333, "bike_id": "0eff5c06b201fa7bdd35586b4b82874c", "type": "electric_scooter", "is_reserved": 0, "lon": -77.04755766666666}, {"fusion_lat": 0.0, "name": "f6039189a07e3340bfdbcbdc73f178c0", "is_disabled": 0, "rental_uris": {"android": "https://dc.lft.to/lastmile_qr_scan", "ios": "https://dc.lft.to/lastmile_qr_scan"}, "fusion_lon": 0.0, "lat": 38.8946335, "bike_id": "f6039189a07e3340bfdbcbdc73f178c0", "type": "electric_scooter", "is_reserved": 0, "lon": -77.0109255}, {"fusion_lat": 0.0, "name": "859e4ebbf90f5285628b616b2d5c159b", "is_disabled": 0, "rental_uris": {"android": "https://dc.lft.to/lastmile_qr_scan", "ios": "https://dc.lft.to/lastmile_qr_scan"}, "fusion_lon": 0.0, "lat": 38.94585816666667, "bike_id": "859e4ebbf90f5285628b616b2d5c159b", "type": "electric_bike", "is_reserved": 0, "lon": -77.06463266666667}, {"fusion_lat": 0.0, "name": "512066cd9b096df21b6a00b35a848e89", "is_disabled": 0, "rental_uris": {"android": "https://dc.lft.to/lastmile_qr_scan", "ios": "https://dc.lft.to/lastmile_qr_scan"}, "fusion_lon": 0.0, "lat": 38.883916166666666, "bike_id": "512066cd9b096df21b6a00b35a848e89", "type": "electric_scooter", "is_reserved": 0, "lon": -77.02586266666667}, {"fusion_lat": 0.0, "name": "a0a0492e681f680bf7d0ab078c997690", "is_disabled": 0, "rental_uris": {"android": "https://dc.lft.to/lastmile_qr_scan", "ios": "https://dc.lft.to/lastmile_qr_scan"}, "fusion_lon": 0.0, "lat": 38.92822133333333, "bike_id": "a0a0492e681f680bf7d0ab078c997690", "type": "electric_scooter", "is_reserved": 0, "lon": -77.0134765}, {"fusion_lat": 0.0, "name": "dc441b34e5326332019736b6a28bdf51", "is_disabled": 0, "rental_uris": {"android": "https://dc.lft.to/lastmile_qr_scan", "ios": "https://dc.lft.to/lastmile_qr_scan"}, "fusion_lon": 0.0, "lat": 38.929484, "bike_id": "dc441b34e5326332019736b6a28bdf51", "type": "electric_scooter", "is_reserved": 0, "lon": -77.03464816666667}, {"fusion_lat": 0.0, "name": "50c4d4ef834dee0c5900b7b32d02d246", "is_disabled": 0, "rental_uris": {"android": "https://dc.lft.to/lastmile_qr_scan", "ios": "https://dc.lft.to/lastmile_qr_scan"}, "fusion_lon": 0.0, "lat": 38.84278783333333, "bike_id": "50c4d4ef834dee0c5900b7b32d02d246", "type": "electric_bike", "is_reserved": 0, "lon": -77.04494016666666}, {"fusion_lat": 0.0, "name": "3055998503f633d05cbebc114f7031fa", "is_disabled": 0, "rental_uris": {"android": "https://dc.lft.to/lastmile_qr_scan", "ios": "https://dc.lft.to/lastmile_qr_scan"}, "fusion_lon": 0.0, "lat": 38.89562133333333, "bike_id": "3055998503f633d05cbebc114f7031fa", "type": "electric_bike", "is_reserved": 0, "lon": -77.12736916666667}, {"fusion_lat": 0.0, "name": "2e445271fcbbf9550986dd9243ec2e3a", "is_disabled": 0, "rental_uris": {"android": "https://dc.lft.to/lastmile_qr_scan", "ios": "https://dc.lft.to/lastmile_qr_scan"}, "fusion_lon": 0.0, "lat": 38.911275833333335, "bike_id": "2e445271fcbbf9550986dd9243ec2e3a", "type": "electric_scooter", "is_reserved": 0, "lon": -77.01054683333334}, {"fusion_lat": 0.0, "name": "c746d85030209040b47d8c9b7d1ad73d", "is_disabled": 0, "rental_uris": {"android": "https://dc.lft.to/lastmile_qr_scan", "ios": "https://dc.lft.to/lastmile_qr_scan"}, "fusion_lon": 0.0, "lat": 38.853108166666665, "bike_id": "c746d85030209040b47d8c9b7d1ad73d", "type": "electric_bike", "is_reserved": 0, "lon": -77.04604966666666}, {"fusion_lat": 0.0, "name": "5f62e071566b5382d6568cb914a5deee", "is_disabled": 0, "rental_uris": {"android": "https://dc.lft.to/lastmile_qr_scan", "ios": "https://dc.lft.to/lastmile_qr_scan"}, "fusion_lon": 0.0, "lat": 38.91709566666667, "bike_id": "5f62e071566b5382d6568cb914a5deee", "type": "electric_scooter", "is_reserved": 0, "lon": -77.03472566666667}, {"fusion_lat": 0.0, "name": "808d2f6bbf0ef8e1007fdc18cdc42779", "is_disabled": 0, "rental_uris": {"android": "https://dc.lft.to/lastmile_qr_scan", "ios": "https://dc.lft.to/lastmile_qr_scan"}, "fusion_lon": 0.0, "lat": 38.91699366666667, "bike_id": "808d2f6bbf0ef8e1007fdc18cdc42779", "type": "electric_scooter", "is_reserved": 0, "lon": -77.037142}, {"fusion_lat": 0.0, "name": "4bfedbeb9e6c611c7db9fe0585409e36", "is_disabled": 0, "rental_uris": {"android": "https://dc.lft.to/lastmile_qr_scan", "ios": "https://dc.lft.to/lastmile_qr_scan"}, "fusion_lon": 0.0, "lat": 38.9053465, "bike_id": "4bfedbeb9e6c611c7db9fe0585409e36", "type": "electric_bike", "is_reserved": 0, "lon": -76.99804983333334}, {"fusion_lat": 0.0, "name": "ecf2bbb402916ca699deabd32fc97ff5", "is_disabled": 0, "rental_uris": {"android": "https://dc.lft.to/lastmile_qr_scan", "ios": "https://dc.lft.to/lastmile_qr_scan"}, "fusion_lon": 0.0, "lat": 38.916911999999996, "bike_id": "ecf2bbb402916ca699deabd32fc97ff5", "type": "electric_scooter", "is_reserved": 0, "lon": -77.023054}, {"fusion_lat": 0.0, "name": "be8821997e128c0affd5325051309c56", "is_disabled": 0, "rental_uris": {"android": "https://dc.lft.to/lastmile_qr_scan", "ios": "https://dc.lft.to/lastmile_qr_scan"}, "fusion_lon": 0.0, "lat": 38.866283, "bike_id": "be8821997e128c0affd5325051309c56", "type": "electric_scooter", "is_reserved": 0, "lon": -76.987191}, {"fusion_lat": 0.0, "name": "95221d965c87a0144b98554b82f5de5e", "is_disabled": 0, "rental_uris": {"android": "https://dc.lft.to/lastmile_qr_scan", "ios": "https://dc.lft.to/lastmile_qr_scan"}, "fusion_lon": 0.0, "lat": 38.90851333333333, "bike_id": "95221d965c87a0144b98554b82f5de5e", "type": "electric_scooter", "is_reserved": 0, "lon": -77.0272295}, {"fusion_lat": 0.0, "name": "8fb068a7d34ac11eb191f7cd76658d3c", "is_disabled": 0, "rental_uris": {"android": "https://dc.lft.to/lastmile_qr_scan", "ios": "https://dc.lft.to/lastmile_qr_scan"}, "fusion_lon": 0.0, "lat": 38.951093, "bike_id": "8fb068a7d34ac11eb191f7cd76658d3c", "type": "electric_scooter", "is_reserved": 0, "lon": -77.05867216666667}, {"fusion_lat": 0.0, "name": "539e0fde5ec145054ac6e09e26237e2b", "is_disabled": 0, "rental_uris": {"android": "https://dc.lft.to/lastmile_qr_scan", "ios": "https://dc.lft.to/lastmile_qr_scan"}, "fusion_lon": 0.0, "lat": 38.915009833333336, "bike_id": "539e0fde5ec145054ac6e09e26237e2b", "type": "electric_scooter", "is_reserved": 0, "lon": -77.03271933333333}, {"fusion_lat": 0.0, "name": "bc2a9475c120f3735b800ebf50d476da", "is_disabled": 0, "rental_uris": {"android": "https://dc.lft.to/lastmile_qr_scan", "ios": "https://dc.lft.to/lastmile_qr_scan"}, "fusion_lon": 0.0, "lat": 38.926852833333335, "bike_id": "bc2a9475c120f3735b800ebf50d476da", "type": "electric_scooter", "is_reserved": 0, "lon": -77.0314735}, {"fusion_lat": 0.0, "name": "d1ac858871d8bae8a22953d623ada403", "is_disabled": 0, "rental_uris": {"android": "https://dc.lft.to/lastmile_qr_scan", "ios": "https://dc.lft.to/lastmile_qr_scan"}, "fusion_lon": 0.0, "lat": 38.92419916666667, "bike_id": "d1ac858871d8bae8a22953d623ada403", "type": "electric_scooter", "is_reserved": 0, "lon": -77.02010566666667}, {"fusion_lat": 0.0, "name": "ab0aff3675a4d6cc8037c44a4dc60b4c", "is_disabled": 0, "rental_uris": {"android": "https://dc.lft.to/lastmile_qr_scan", "ios": "https://dc.lft.to/lastmile_qr_scan"}, "fusion_lon": 0.0, "lat": 38.9025515, "bike_id": "ab0aff3675a4d6cc8037c44a4dc60b4c", "type": "electric_scooter", "is_reserved": 0, "lon": -77.00202716666666}, {"fusion_lat": 0.0, "name": "3887545f2c08d0cc10208cabec2cef5a", "is_disabled": 0, "rental_uris": {"android": "https://dc.lft.to/lastmile_qr_scan", "ios": "https://dc.lft.to/lastmile_qr_scan"}, "fusion_lon": 0.0, "lat": 38.94306, "bike_id": "3887545f2c08d0cc10208cabec2cef5a", "type": "electric_scooter", "is_reserved": 0, "lon": -77.02001216666666}, {"fusion_lat": 0.0, "name": "be5db83f90235a0ea13bca398b332e37", "is_disabled": 0, "rental_uris": {"android": "https://dc.lft.to/lastmile_qr_scan", "ios": "https://dc.lft.to/lastmile_qr_scan"}, "fusion_lon": 0.0, "lat": 38.89951716666667, "bike_id": "be5db83f90235a0ea13bca398b332e37", "type": "electric_scooter", "is_reserved": 0, "lon": -77.0547275}, {"fusion_lat": 0.0, "name": "dfed70e9eb6d1535cf800455c185f78e", "is_disabled": 0, "rental_uris": {"android": "https://dc.lft.to/lastmile_qr_scan", "ios": "https://dc.lft.to/lastmile_qr_scan"}, "fusion_lon": 0.0, "lat": 38.887414, "bike_id": "dfed70e9eb6d1535cf800455c185f78e", "type": "electric_scooter", "is_reserved": 0, "lon": -76.983632}, {"fusion_lat": 0.0, "name": "49eb89c4b728759d97fec8bee952a915", "is_disabled": 0, "rental_uris": {"android": "https://dc.lft.to/lastmile_qr_scan", "ios": "https://dc.lft.to/lastmile_qr_scan"}, "fusion_lon": 0.0, "lat": 38.90298666666666, "bike_id": "49eb89c4b728759d97fec8bee952a915", "type": "electric_scooter", "is_reserved": 0, "lon": -76.992571}, {"fusion_lat": 0.0, "name": "f375f663c53efdd3ada74007d054a501", "is_disabled": 0, "rental_uris": {"android": "https://dc.lft.to/lastmile_qr_scan", "ios": "https://dc.lft.to/lastmile_qr_scan"}, "fusion_lon": 0.0, "lat": 38.8881655, "bike_id": "f375f663c53efdd3ada74007d054a501", "type": "electric_scooter", "is_reserved": 0, "lon": -76.98355116666667}, {"fusion_lat": 0.0, "name": "4e408b6ee4ff0278268190478de7ac60", "is_disabled": 0, "rental_uris": {"android": "https://dc.lft.to/lastmile_qr_scan", "ios": "https://dc.lft.to/lastmile_qr_scan"}, "fusion_lon": 0.0, "lat": 38.9134705, "bike_id": "4e408b6ee4ff0278268190478de7ac60", "type": "electric_bike", "is_reserved": 0, "lon": -76.98890583333333}, {"fusion_lat": 0.0, "name": "b5a92120dc212ea4245fd387b165702e", "is_disabled": 0, "rental_uris": {"android": "https://dc.lft.to/lastmile_qr_scan", "ios": "https://dc.lft.to/lastmile_qr_scan"}, "fusion_lon": 0.0, "lat": 38.9131075, "bike_id": "b5a92120dc212ea4245fd387b165702e", "type": "electric_scooter", "is_reserved": 0, "lon": -77.047053}, {"fusion_lat": 0.0, "name": "29d63900d8b0ac6abbb510ae6eb2a97b", "is_disabled": 0, "rental_uris": {"android": "https://dc.lft.to/lastmile_qr_scan", "ios": "https://dc.lft.to/lastmile_qr_scan"}, "fusion_lon": 0.0, "lat": 38.91023283333333, "bike_id": "29d63900d8b0ac6abbb510ae6eb2a97b", "type": "electric_scooter", "is_reserved": 0, "lon": -77.00754783333333}, {"fusion_lat": 0.0, "name": "1df9ec0c17d037215a43ee911e372ac8", "is_disabled": 0, "rental_uris": {"android": "https://dc.lft.to/lastmile_qr_scan", "ios": "https://dc.lft.to/lastmile_qr_scan"}, "fusion_lon": 0.0, "lat": 38.90932333333333, "bike_id": "1df9ec0c17d037215a43ee911e372ac8", "type": "electric_scooter", "is_reserved": 0, "lon": -77.03194033333334}, {"fusion_lat": 0.0, "name": "b35981b68b5988b313a3e4e09bbeb757", "is_disabled": 0, "rental_uris": {"android": "https://dc.lft.to/lastmile_qr_scan", "ios": "https://dc.lft.to/lastmile_qr_scan"}, "fusion_lon": 0.0, "lat": 38.898344333333334, "bike_id": "b35981b68b5988b313a3e4e09bbeb757", "type": "electric_scooter", "is_reserved": 0, "lon": -77.02938533333334}, {"fusion_lat": 0.0, "name": "c88cf92c5eecff175dbd83da10991b40", "is_disabled": 0, "rental_uris": {"android": "https://dc.lft.to/lastmile_qr_scan", "ios": "https://dc.lft.to/lastmile_qr_scan"}, "fusion_lon": 0.0, "lat": 38.914769, "bike_id": "c88cf92c5eecff175dbd83da10991b40", "type": "electric_scooter", "is_reserved": 0, "lon": -77.03216533333334}, {"fusion_lat": 0.0, "name": "b7cfaa7af1c46802e74286daffbbbafc", "is_disabled": 0, "rental_uris": {"android": "https://dc.lft.to/lastmile_qr_scan", "ios": "https://dc.lft.to/lastmile_qr_scan"}, "fusion_lon": 0.0, "lat": 38.91717383333334, "bike_id": "b7cfaa7af1c46802e74286daffbbbafc", "type": "electric_scooter", "is_reserved": 0, "lon": -76.96871283333333}, {"fusion_lat": 0.0, "name": "f7ebdd2d4f38140ad8c8d4799147a16f", "is_disabled": 0, "rental_uris": {"android": "https://dc.lft.to/lastmile_qr_scan", "ios": "https://dc.lft.to/lastmile_qr_scan"}, "fusion_lon": 0.0, "lat": 38.905237166666666, "bike_id": "f7ebdd2d4f38140ad8c8d4799147a16f", "type": "electric_scooter", "is_reserved": 0, "lon": -77.06141233333334}, {"fusion_lat": 0.0, "name": "d300988a8839a9d27b28ef4130b61f1b", "is_disabled": 0, "rental_uris": {"android": "https://dc.lft.to/lastmile_qr_scan", "ios": "https://dc.lft.to/lastmile_qr_scan"}, "fusion_lon": 0.0, "lat": 38.89876, "bike_id": "d300988a8839a9d27b28ef4130b61f1b", "type": "electric_scooter", "is_reserved": 0, "lon": -76.93186833333333}, {"fusion_lat": 0.0, "name": "318d014bc560502f736f307d39be1985", "is_disabled": 0, "rental_uris": {"android": "https://dc.lft.to/lastmile_qr_scan", "ios": "https://dc.lft.to/lastmile_qr_scan"}, "fusion_lon": 0.0, "lat": 38.91130166666667, "bike_id": "318d014bc560502f736f307d39be1985", "type": "electric_scooter", "is_reserved": 0, "lon": -77.04345016666667}, {"fusion_lat": 0.0, "name": "b07fd3a332e7b4e750d6255bb789cfbc", "is_disabled": 0, "rental_uris": {"android": "https://dc.lft.to/lastmile_qr_scan", "ios": "https://dc.lft.to/lastmile_qr_scan"}, "fusion_lon": 0.0, "lat": 38.87703533333333, "bike_id": "b07fd3a332e7b4e750d6255bb789cfbc", "type": "electric_scooter", "is_reserved": 0, "lon": -76.9938615}, {"fusion_lat": 0.0, "name": "4d94445788077af7f87f78b506f3db38", "is_disabled": 0, "rental_uris": {"android": "https://dc.lft.to/lastmile_qr_scan", "ios": "https://dc.lft.to/lastmile_qr_scan"}, "fusion_lon": 0.0, "lat": 38.9276835, "bike_id": "4d94445788077af7f87f78b506f3db38", "type": "electric_scooter", "is_reserved": 0, "lon": -77.0363815}, {"fusion_lat": 0.0, "name": "76d243612c1c756c381d7d8956a48b33", "is_disabled": 0, "rental_uris": {"android": "https://dc.lft.to/lastmile_qr_scan", "ios": "https://dc.lft.to/lastmile_qr_scan"}, "fusion_lon": 0.0, "lat": 38.88613333333333, "bike_id": "76d243612c1c756c381d7d8956a48b33", "type": "electric_scooter", "is_reserved": 0, "lon": -77.01554333333333}, {"fusion_lat": 0.0, "name": "2a5ab3a00a053a3b2952d68f17354361", "is_disabled": 0, "rental_uris": {"android": "https://dc.lft.to/lastmile_qr_scan", "ios": "https://dc.lft.to/lastmile_qr_scan"}, "fusion_lon": 0.0, "lat": 38.83499716666667, "bike_id": "2a5ab3a00a053a3b2952d68f17354361", "type": "electric_bike", "is_reserved": 0, "lon": -77.09016216666667}, {"fusion_lat": 0.0, "name": "0121bd0d536fe597893aa1a50d5d1785", "is_disabled": 0, "rental_uris": {"android": "https://dc.lft.to/lastmile_qr_scan", "ios": "https://dc.lft.to/lastmile_qr_scan"}, "fusion_lon": 0.0, "lat": 38.88701316666667, "bike_id": "0121bd0d536fe597893aa1a50d5d1785", "type": "electric_scooter", "is_reserved": 0, "lon": -76.99604883333333}, {"fusion_lat": 0.0, "name": "df8278012e54b8bb2696a4a099492aaa", "is_disabled": 0, "rental_uris": {"android": "https://dc.lft.to/lastmile_qr_scan", "ios": "https://dc.lft.to/lastmile_qr_scan"}, "fusion_lon": 0.0, "lat": 38.907340166666664, "bike_id": "df8278012e54b8bb2696a4a099492aaa", "type": "electric_scooter", "is_reserved": 0, "lon": -77.0206925}, {"fusion_lat": 0.0, "name": "fcd79abeb9d3be8b1ef3770779054276", "is_disabled": 0, "rental_uris": {"android": "https://dc.lft.to/lastmile_qr_scan", "ios": "https://dc.lft.to/lastmile_qr_scan"}, "fusion_lon": 0.0, "lat": 38.91255533333333, "bike_id": "fcd79abeb9d3be8b1ef3770779054276", "type": "electric_scooter", "is_reserved": 0, "lon": -77.03271016666666}, {"fusion_lat": 0.0, "name": "90caf23d2128aab202581d11024da6a9", "is_disabled": 0, "rental_uris": {"android": "https://dc.lft.to/lastmile_qr_scan", "ios": "https://dc.lft.to/lastmile_qr_scan"}, "fusion_lon": 0.0, "lat": 38.81934733333333, "bike_id": "90caf23d2128aab202581d11024da6a9", "type": "electric_bike", "is_reserved": 0, "lon": -77.00203766666667}, {"fusion_lat": 0.0, "name": "4b4181034271df9ca9fddffee146dd90", "is_disabled": 0, "rental_uris": {"android": "https://dc.lft.to/lastmile_qr_scan", "ios": "https://dc.lft.to/lastmile_qr_scan"}, "fusion_lon": 0.0, "lat": 38.91387916666667, "bike_id": "4b4181034271df9ca9fddffee146dd90", "type": "electric_scooter", "is_reserved": 0, "lon": -77.0320385}, {"fusion_lat": 0.0, "name": "1f7240164e2c2e5c253d6eab23bc3e47", "is_disabled": 0, "rental_uris": {"android": "https://dc.lft.to/lastmile_qr_scan", "ios": "https://dc.lft.to/lastmile_qr_scan"}, "fusion_lon": 0.0, "lat": 38.90055, "bike_id": "1f7240164e2c2e5c253d6eab23bc3e47", "type": "electric_scooter", "is_reserved": 0, "lon": -77.04538233333334}, {"fusion_lat": 0.0, "name": "aa8985951ba0fb9fd45b9a535b8a34bb", "is_disabled": 0, "rental_uris": {"android": "https://dc.lft.to/lastmile_qr_scan", "ios": "https://dc.lft.to/lastmile_qr_scan"}, "fusion_lon": 0.0, "lat": 38.931458166666665, "bike_id": "aa8985951ba0fb9fd45b9a535b8a34bb", "type": "electric_scooter", "is_reserved": 0, "lon": -77.03968933333333}, {"fusion_lat": 0.0, "name": "dffaec527dd666ff422bba066f05d087", "is_disabled": 0, "rental_uris": {"android": "https://dc.lft.to/lastmile_qr_scan", "ios": "https://dc.lft.to/lastmile_qr_scan"}, "fusion_lon": 0.0, "lat": 38.879637833333334, "bike_id": "dffaec527dd666ff422bba066f05d087", "type": "electric_bike", "is_reserved": 0, "lon": -76.9161455}, {"fusion_lat": 0.0, "name": "45317bf2bf44bba773775d0e237726fb", "is_disabled": 0, "rental_uris": {"android": "https://dc.lft.to/lastmile_qr_scan", "ios": "https://dc.lft.to/lastmile_qr_scan"}, "fusion_lon": 0.0, "lat": 38.91803816666667, "bike_id": "45317bf2bf44bba773775d0e237726fb", "type": "electric_scooter", "is_reserved": 0, "lon": -77.03305533333334}, {"fusion_lat": 0.0, "name": "76533076b2633bdee75339fb45102a0e", "is_disabled": 0, "rental_uris": {"android": "https://dc.lft.to/lastmile_qr_scan", "ios": "https://dc.lft.to/lastmile_qr_scan"}, "fusion_lon": 0.0, "lat": 38.9387015, "bike_id": "76533076b2633bdee75339fb45102a0e", "type": "electric_scooter", "is_reserved": 0, "lon": -77.02461333333333}, {"fusion_lat": 0.0, "name": "b6b7297a8ebf10518dff3153e7dbcc95", "is_disabled": 0, "rental_uris": {"android": "https://dc.lft.to/lastmile_qr_scan", "ios": "https://dc.lft.to/lastmile_qr_scan"}, "fusion_lon": 0.0, "lat": 38.924218833333335, "bike_id": "b6b7297a8ebf10518dff3153e7dbcc95", "type": "electric_scooter", "is_reserved": 0, "lon": -77.01957716666666}, {"fusion_lat": 0.0, "name": "93053d769b7c490483b8dddd37496ddc", "is_disabled": 0, "rental_uris": {"android": "https://dc.lft.to/lastmile_qr_scan", "ios": "https://dc.lft.to/lastmile_qr_scan"}, "fusion_lon": 0.0, "lat": 38.897315166666665, "bike_id": "93053d769b7c490483b8dddd37496ddc", "type": "electric_scooter", "is_reserved": 0, "lon": -77.0216445}, {"fusion_lat": 0.0, "name": "6fdeb1ee453865ecb3ba088a363d0063", "is_disabled": 0, "rental_uris": {"android": "https://dc.lft.to/lastmile_qr_scan", "ios": "https://dc.lft.to/lastmile_qr_scan"}, "fusion_lon": 0.0, "lat": 38.914994166666666, "bike_id": "6fdeb1ee453865ecb3ba088a363d0063", "type": "electric_scooter", "is_reserved": 0, "lon": -77.03210383333334}, {"fusion_lat": 0.0, "name": "05c0f4a94a234ff7f1422a017810bba3", "is_disabled": 0, "rental_uris": {"android": "https://dc.lft.to/lastmile_qr_scan", "ios": "https://dc.lft.to/lastmile_qr_scan"}, "fusion_lon": 0.0, "lat": 38.9178825, "bike_id": "05c0f4a94a234ff7f1422a017810bba3", "type": "electric_scooter", "is_reserved": 0, "lon": -77.04021866666666}, {"fusion_lat": 0.0, "name": "8b67d005528ad550e7016da9b581f31e", "is_disabled": 0, "rental_uris": {"android": "https://dc.lft.to/lastmile_qr_scan", "ios": "https://dc.lft.to/lastmile_qr_scan"}, "fusion_lon": 0.0, "lat": 38.900143666666665, "bike_id": "8b67d005528ad550e7016da9b581f31e", "type": "electric_scooter", "is_reserved": 0, "lon": -76.99453516666667}, {"fusion_lat": 0.0, "name": "11df2271b4e5356c654aca97064e7125", "is_disabled": 0, "rental_uris": {"android": "https://dc.lft.to/lastmile_qr_scan", "ios": "https://dc.lft.to/lastmile_qr_scan"}, "fusion_lon": 0.0, "lat": 38.9155085, "bike_id": "11df2271b4e5356c654aca97064e7125", "type": "electric_scooter", "is_reserved": 0, "lon": -77.03174733333333}, {"fusion_lat": 0.0, "name": "b8c4a706929eabfb66bba10d0173e714", "is_disabled": 0, "rental_uris": {"android": "https://dc.lft.to/lastmile_qr_scan", "ios": "https://dc.lft.to/lastmile_qr_scan"}, "fusion_lon": 0.0, "lat": 38.920444, "bike_id": "b8c4a706929eabfb66bba10d0173e714", "type": "electric_scooter", "is_reserved": 0, "lon": -77.03467433333333}, {"fusion_lat": 0.0, "name": "bb48eebd36a9f3fadd5a862e10b6f3cb", "is_disabled": 0, "rental_uris": {"android": "https://dc.lft.to/lastmile_qr_scan", "ios": "https://dc.lft.to/lastmile_qr_scan"}, "fusion_lon": 0.0, "lat": 38.91341883333333, "bike_id": "bb48eebd36a9f3fadd5a862e10b6f3cb", "type": "electric_scooter", "is_reserved": 0, "lon": -77.02136566666667}, {"fusion_lat": 0.0, "name": "1796482282c9bd27569331e373954553", "is_disabled": 0, "rental_uris": {"android": "https://dc.lft.to/lastmile_qr_scan", "ios": "https://dc.lft.to/lastmile_qr_scan"}, "fusion_lon": 0.0, "lat": 38.8923625, "bike_id": "1796482282c9bd27569331e373954553", "type": "electric_scooter", "is_reserved": 0, "lon": -77.00274766666666}, {"fusion_lat": 0.0, "name": "d7c3d01d6dfcf6412e2b3e6a5cbc587e", "is_disabled": 0, "rental_uris": {"android": "https://dc.lft.to/lastmile_qr_scan", "ios": "https://dc.lft.to/lastmile_qr_scan"}, "fusion_lon": 0.0, "lat": 38.90100533333333, "bike_id": "d7c3d01d6dfcf6412e2b3e6a5cbc587e", "type": "electric_scooter", "is_reserved": 0, "lon": -76.93044983333333}, {"fusion_lat": 0.0, "name": "40173184edbcad47773fe7220984a756", "is_disabled": 0, "rental_uris": {"android": "https://dc.lft.to/lastmile_qr_scan", "ios": "https://dc.lft.to/lastmile_qr_scan"}, "fusion_lon": 0.0, "lat": 38.89717916666667, "bike_id": "40173184edbcad47773fe7220984a756", "type": "electric_scooter", "is_reserved": 0, "lon": -77.02451316666667}, {"fusion_lat": 0.0, "name": "c579525c2187956291509a2b8151db43", "is_disabled": 0, "rental_uris": {"android": "https://dc.lft.to/lastmile_qr_scan", "ios": "https://dc.lft.to/lastmile_qr_scan"}, "fusion_lon": 0.0, "lat": 38.93625683333333, "bike_id": "c579525c2187956291509a2b8151db43", "type": "electric_scooter", "is_reserved": 0, "lon": -77.03660166666667}, {"fusion_lat": 0.0, "name": "4a4c6336f2a56c9f332c5c8fc3e357da", "is_disabled": 0, "rental_uris": {"android": "https://dc.lft.to/lastmile_qr_scan", "ios": "https://dc.lft.to/lastmile_qr_scan"}, "fusion_lon": 0.0, "lat": 38.91306816666667, "bike_id": "4a4c6336f2a56c9f332c5c8fc3e357da", "type": "electric_scooter", "is_reserved": 0, "lon": -77.03206116666667}, {"fusion_lat": 0.0, "name": "dfcf316751a46c5fc6f0c2283091f26d", "is_disabled": 0, "rental_uris": {"android": "https://dc.lft.to/lastmile_qr_scan", "ios": "https://dc.lft.to/lastmile_qr_scan"}, "fusion_lon": 0.0, "lat": 38.910273833333335, "bike_id": "dfcf316751a46c5fc6f0c2283091f26d", "type": "electric_scooter", "is_reserved": 0, "lon": -77.02903566666667}, {"fusion_lat": 0.0, "name": "4fe6431a18453fee2c88d8b802e621d1", "is_disabled": 0, "rental_uris": {"android": "https://dc.lft.to/lastmile_qr_scan", "ios": "https://dc.lft.to/lastmile_qr_scan"}, "fusion_lon": 0.0, "lat": 38.92467233333333, "bike_id": "4fe6431a18453fee2c88d8b802e621d1", "type": "electric_scooter", "is_reserved": 0, "lon": -77.0207585}, {"fusion_lat": 0.0, "name": "54fe47c203cef54393814ac726a49527", "is_disabled": 0, "rental_uris": {"android": "https://dc.lft.to/lastmile_qr_scan", "ios": "https://dc.lft.to/lastmile_qr_scan"}, "fusion_lon": 0.0, "lat": 38.911738, "bike_id": "54fe47c203cef54393814ac726a49527", "type": "electric_scooter", "is_reserved": 0, "lon": -77.02829866666667}, {"fusion_lat": 0.0, "name": "4d490d3a8176c400c3219b15de64aeff", "is_disabled": 0, "rental_uris": {"android": "https://dc.lft.to/lastmile_qr_scan", "ios": "https://dc.lft.to/lastmile_qr_scan"}, "fusion_lon": 0.0, "lat": 38.9073365, "bike_id": "4d490d3a8176c400c3219b15de64aeff", "type": "electric_scooter", "is_reserved": 0, "lon": -77.0476335}, {"fusion_lat": 0.0, "name": "175b0946c3c09d9a763b2c5b4d089551", "is_disabled": 0, "rental_uris": {"android": "https://dc.lft.to/lastmile_qr_scan", "ios": "https://dc.lft.to/lastmile_qr_scan"}, "fusion_lon": 0.0, "lat": 38.899928833333334, "bike_id": "175b0946c3c09d9a763b2c5b4d089551", "type": "electric_scooter", "is_reserved": 0, "lon": -77.05505233333334}, {"fusion_lat": 0.0, "name": "3aaddd90d36d239ebe5544b77731e7e9", "is_disabled": 0, "rental_uris": {"android": "https://dc.lft.to/lastmile_qr_scan", "ios": "https://dc.lft.to/lastmile_qr_scan"}, "fusion_lon": 0.0, "lat": 39.036114, "bike_id": "3aaddd90d36d239ebe5544b77731e7e9", "type": "electric_bike", "is_reserved": 0, "lon": -77.05537583333333}, {"fusion_lat": 0.0, "name": "40c3d3367affdff38bd79a895b0ccfb1", "is_disabled": 0, "rental_uris": {"android": "https://dc.lft.to/lastmile_qr_scan", "ios": "https://dc.lft.to/lastmile_qr_scan"}, "fusion_lon": 0.0, "lat": 38.93537116666667, "bike_id": "40c3d3367affdff38bd79a895b0ccfb1", "type": "electric_scooter", "is_reserved": 0, "lon": -77.0235205}, {"fusion_lat": 0.0, "name": "f4f6a80d3f6f71f10c0b4310095489db", "is_disabled": 0, "rental_uris": {"android": "https://dc.lft.to/lastmile_qr_scan", "ios": "https://dc.lft.to/lastmile_qr_scan"}, "fusion_lon": 0.0, "lat": 38.92086833333333, "bike_id": "f4f6a80d3f6f71f10c0b4310095489db", "type": "electric_bike", "is_reserved": 0, "lon": -77.071788}, {"fusion_lat": 0.0, "name": "afab0f5a4e75b5507e0e72a99921e8ea", "is_disabled": 0, "rental_uris": {"android": "https://dc.lft.to/lastmile_qr_scan", "ios": "https://dc.lft.to/lastmile_qr_scan"}, "fusion_lon": 0.0, "lat": 38.92650233333333, "bike_id": "afab0f5a4e75b5507e0e72a99921e8ea", "type": "electric_scooter", "is_reserved": 0, "lon": -77.0385545}, {"fusion_lat": 0.0, "name": "cb9e7b3468f18cd00ceb6f69dda940e9", "is_disabled": 0, "rental_uris": {"android": "https://dc.lft.to/lastmile_qr_scan", "ios": "https://dc.lft.to/lastmile_qr_scan"}, "fusion_lon": 0.0, "lat": 38.91404516666667, "bike_id": "cb9e7b3468f18cd00ceb6f69dda940e9", "type": "electric_scooter", "is_reserved": 0, "lon": -77.0370245}, {"fusion_lat": 0.0, "name": "460b0d75b1b05323639f74dc46ac4deb", "is_disabled": 0, "rental_uris": {"android": "https://dc.lft.to/lastmile_qr_scan", "ios": "https://dc.lft.to/lastmile_qr_scan"}, "fusion_lon": 0.0, "lat": 38.916347333333334, "bike_id": "460b0d75b1b05323639f74dc46ac4deb", "type": "electric_scooter", "is_reserved": 0, "lon": -77.04793366666667}, {"fusion_lat": 0.0, "name": "962fd667112c9afe58813965411105d3", "is_disabled": 0, "rental_uris": {"android": "https://dc.lft.to/lastmile_qr_scan", "ios": "https://dc.lft.to/lastmile_qr_scan"}, "fusion_lon": 0.0, "lat": 38.906068166666664, "bike_id": "962fd667112c9afe58813965411105d3", "type": "electric_scooter", "is_reserved": 0, "lon": -77.0416445}, {"fusion_lat": 0.0, "name": "6902cffbb62ace8e86dd3c419e84c713", "is_disabled": 0, "rental_uris": {"android": "https://dc.lft.to/lastmile_qr_scan", "ios": "https://dc.lft.to/lastmile_qr_scan"}, "fusion_lon": 0.0, "lat": 38.90401983333334, "bike_id": "6902cffbb62ace8e86dd3c419e84c713", "type": "electric_scooter", "is_reserved": 0, "lon": -77.03460466666667}, {"fusion_lat": 0.0, "name": "773e2efec85ffe47666f8780968c6111", "is_disabled": 0, "rental_uris": {"android": "https://dc.lft.to/lastmile_qr_scan", "ios": "https://dc.lft.to/lastmile_qr_scan"}, "fusion_lon": 0.0, "lat": 38.906938833333335, "bike_id": "773e2efec85ffe47666f8780968c6111", "type": "electric_scooter", "is_reserved": 0, "lon": -77.065195}, {"fusion_lat": 0.0, "name": "0d1c98c884d284d04eb52551064695c0", "is_disabled": 0, "rental_uris": {"android": "https://dc.lft.to/lastmile_qr_scan", "ios": "https://dc.lft.to/lastmile_qr_scan"}, "fusion_lon": 0.0, "lat": 38.89835083333333, "bike_id": "0d1c98c884d284d04eb52551064695c0", "type": "electric_scooter", "is_reserved": 0, "lon": -77.02419316666666}, {"fusion_lat": 0.0, "name": "ad9903d5201c24e8a789432fbca7eab3", "is_disabled": 0, "rental_uris": {"android": "https://dc.lft.to/lastmile_qr_scan", "ios": "https://dc.lft.to/lastmile_qr_scan"}, "fusion_lon": 0.0, "lat": 38.931543, "bike_id": "ad9903d5201c24e8a789432fbca7eab3", "type": "electric_scooter", "is_reserved": 0, "lon": -76.99645466666666}, {"fusion_lat": 0.0, "name": "72a632a8ae4677b4bb7af65f13ffcd24", "is_disabled": 0, "rental_uris": {"android": "https://dc.lft.to/lastmile_qr_scan", "ios": "https://dc.lft.to/lastmile_qr_scan"}, "fusion_lon": 0.0, "lat": 38.91814933333333, "bike_id": "72a632a8ae4677b4bb7af65f13ffcd24", "type": "electric_scooter", "is_reserved": 0, "lon": -77.0250465}, {"fusion_lat": 0.0, "name": "b69c987295ecbb79a0bc806e50a08373", "is_disabled": 0, "rental_uris": {"android": "https://dc.lft.to/lastmile_qr_scan", "ios": "https://dc.lft.to/lastmile_qr_scan"}, "fusion_lon": 0.0, "lat": 38.92381316666667, "bike_id": "b69c987295ecbb79a0bc806e50a08373", "type": "electric_scooter", "is_reserved": 0, "lon": -77.04020966666667}, {"fusion_lat": 0.0, "name": "a94952dff1fd6607ee3f97d862435a5d", "is_disabled": 0, "rental_uris": {"android": "https://dc.lft.to/lastmile_qr_scan", "ios": "https://dc.lft.to/lastmile_qr_scan"}, "fusion_lon": 0.0, "lat": 38.90018766666667, "bike_id": "a94952dff1fd6607ee3f97d862435a5d", "type": "electric_scooter", "is_reserved": 0, "lon": -76.99926083333334}, {"fusion_lat": 0.0, "name": "89ef3bbeb74ceaf50e6007496d1ff695", "is_disabled": 0, "rental_uris": {"android": "https://dc.lft.to/lastmile_qr_scan", "ios": "https://dc.lft.to/lastmile_qr_scan"}, "fusion_lon": 0.0, "lat": 38.923243, "bike_id": "89ef3bbeb74ceaf50e6007496d1ff695", "type": "electric_scooter", "is_reserved": 0, "lon": -77.04618683333334}, {"fusion_lat": 0.0, "name": "96eb9a62f8d1d32fa6120565e4c96e2c", "is_disabled": 0, "rental_uris": {"android": "https://dc.lft.to/lastmile_qr_scan", "ios": "https://dc.lft.to/lastmile_qr_scan"}, "fusion_lon": 0.0, "lat": 38.90171816666667, "bike_id": "96eb9a62f8d1d32fa6120565e4c96e2c", "type": "electric_scooter", "is_reserved": 0, "lon": -77.05923683333333}, {"fusion_lat": 0.0, "name": "07259f198456e6560d8769a35817abf1", "is_disabled": 0, "rental_uris": {"android": "https://dc.lft.to/lastmile_qr_scan", "ios": "https://dc.lft.to/lastmile_qr_scan"}, "fusion_lon": 0.0, "lat": 38.920821, "bike_id": "07259f198456e6560d8769a35817abf1", "type": "electric_scooter", "is_reserved": 0, "lon": -77.04059683333334}, {"fusion_lat": 0.0, "name": "857bf70a3a22c52133a185f66ceb6958", "is_disabled": 0, "rental_uris": {"android": "https://dc.lft.to/lastmile_qr_scan", "ios": "https://dc.lft.to/lastmile_qr_scan"}, "fusion_lon": 0.0, "lat": 38.90557583333333, "bike_id": "857bf70a3a22c52133a185f66ceb6958", "type": "electric_scooter", "is_reserved": 0, "lon": -77.03423716666667}, {"fusion_lat": 0.0, "name": "019431a50308e6bf268fdfbb1b7f4838", "is_disabled": 0, "rental_uris": {"android": "https://dc.lft.to/lastmile_qr_scan", "ios": "https://dc.lft.to/lastmile_qr_scan"}, "fusion_lon": 0.0, "lat": 38.87475233333333, "bike_id": "019431a50308e6bf268fdfbb1b7f4838", "type": "electric_scooter", "is_reserved": 0, "lon": -77.0187}, {"fusion_lat": 0.0, "name": "971eebb439365a1a146de3b246dd733c", "is_disabled": 0, "rental_uris": {"android": "https://dc.lft.to/lastmile_qr_scan", "ios": "https://dc.lft.to/lastmile_qr_scan"}, "fusion_lon": 0.0, "lat": 38.897218, "bike_id": "971eebb439365a1a146de3b246dd733c", "type": "electric_scooter", "is_reserved": 0, "lon": -77.03966466666667}, {"fusion_lat": 0.0, "name": "a8f111a6518f3b0e8f1ce488e0439c84", "is_disabled": 0, "rental_uris": {"android": "https://dc.lft.to/lastmile_qr_scan", "ios": "https://dc.lft.to/lastmile_qr_scan"}, "fusion_lon": 0.0, "lat": 38.9226175, "bike_id": "a8f111a6518f3b0e8f1ce488e0439c84", "type": "electric_scooter", "is_reserved": 0, "lon": -76.99429283333333}, {"fusion_lat": 0.0, "name": "e3016e8a58e7d4b51b03224afb17d717", "is_disabled": 0, "rental_uris": {"android": "https://dc.lft.to/lastmile_qr_scan", "ios": "https://dc.lft.to/lastmile_qr_scan"}, "fusion_lon": 0.0, "lat": 38.886024666666664, "bike_id": "e3016e8a58e7d4b51b03224afb17d717", "type": "electric_scooter", "is_reserved": 0, "lon": -77.04509816666666}, {"fusion_lat": 0.0, "name": "2cc9151430ff6126b376cc74581c6823", "is_disabled": 0, "rental_uris": {"android": "https://dc.lft.to/lastmile_qr_scan", "ios": "https://dc.lft.to/lastmile_qr_scan"}, "fusion_lon": 0.0, "lat": 38.923680833333336, "bike_id": "2cc9151430ff6126b376cc74581c6823", "type": "electric_scooter", "is_reserved": 0, "lon": -77.08152283333334}, {"fusion_lat": 0.0, "name": "4c6deaa9f619e192c88d4896c3a71f19", "is_disabled": 0, "rental_uris": {"android": "https://dc.lft.to/lastmile_qr_scan", "ios": "https://dc.lft.to/lastmile_qr_scan"}, "fusion_lon": 0.0, "lat": 38.9026355, "bike_id": "4c6deaa9f619e192c88d4896c3a71f19", "type": "electric_scooter", "is_reserved": 0, "lon": -76.99609}, {"fusion_lat": 0.0, "name": "45b149d71773d083eea86db699d48edc", "is_disabled": 0, "rental_uris": {"android": "https://dc.lft.to/lastmile_qr_scan", "ios": "https://dc.lft.to/lastmile_qr_scan"}, "fusion_lon": 0.0, "lat": 38.91592766666667, "bike_id": "45b149d71773d083eea86db699d48edc", "type": "electric_scooter", "is_reserved": 0, "lon": -77.0463415}, {"fusion_lat": 0.0, "name": "04abb021c2ea3a360c31ec2d591fa3ba", "is_disabled": 0, "rental_uris": {"android": "https://dc.lft.to/lastmile_qr_scan", "ios": "https://dc.lft.to/lastmile_qr_scan"}, "fusion_lon": 0.0, "lat": 38.92719916666667, "bike_id": "04abb021c2ea3a360c31ec2d591fa3ba", "type": "electric_scooter", "is_reserved": 0, "lon": -77.03161333333334}, {"fusion_lat": 0.0, "name": "0a6448dcf8de4b2b7165c7c84e74aca5", "is_disabled": 0, "rental_uris": {"android": "https://dc.lft.to/lastmile_qr_scan", "ios": "https://dc.lft.to/lastmile_qr_scan"}, "fusion_lon": 0.0, "lat": 38.89737433333333, "bike_id": "0a6448dcf8de4b2b7165c7c84e74aca5", "type": "electric_scooter", "is_reserved": 0, "lon": -76.94718466666667}, {"fusion_lat": 0.0, "name": "92075c8cab4aabae442b80cf6d3962bd", "is_disabled": 0, "rental_uris": {"android": "https://dc.lft.to/lastmile_qr_scan", "ios": "https://dc.lft.to/lastmile_qr_scan"}, "fusion_lon": 0.0, "lat": 38.900234166666664, "bike_id": "92075c8cab4aabae442b80cf6d3962bd", "type": "electric_scooter", "is_reserved": 0, "lon": -76.99132816666666}, {"fusion_lat": 0.0, "name": "cf9a760abc61abf944c8497979f0593e", "is_disabled": 0, "rental_uris": {"android": "https://dc.lft.to/lastmile_qr_scan", "ios": "https://dc.lft.to/lastmile_qr_scan"}, "fusion_lon": 0.0, "lat": 38.905644, "bike_id": "cf9a760abc61abf944c8497979f0593e", "type": "electric_scooter", "is_reserved": 0, "lon": -77.02796466666666}, {"fusion_lat": 0.0, "name": "08147932114615b1d25b75a5abe3bbf6", "is_disabled": 0, "rental_uris": {"android": "https://dc.lft.to/lastmile_qr_scan", "ios": "https://dc.lft.to/lastmile_qr_scan"}, "fusion_lon": 0.0, "lat": 38.93038766666667, "bike_id": "08147932114615b1d25b75a5abe3bbf6", "type": "electric_scooter", "is_reserved": 0, "lon": -77.0329855}, {"fusion_lat": 0.0, "name": "4ca7fdcc50993b7a40b7ab0419832d41", "is_disabled": 0, "rental_uris": {"android": "https://dc.lft.to/lastmile_qr_scan", "ios": "https://dc.lft.to/lastmile_qr_scan"}, "fusion_lon": 0.0, "lat": 38.89233383333333, "bike_id": "4ca7fdcc50993b7a40b7ab0419832d41", "type": "electric_scooter", "is_reserved": 0, "lon": -77.049993}, {"fusion_lat": 0.0, "name": "0d07c3d9dabb24af3a514f6cf8797857", "is_disabled": 0, "rental_uris": {"android": "https://dc.lft.to/lastmile_qr_scan", "ios": "https://dc.lft.to/lastmile_qr_scan"}, "fusion_lon": 0.0, "lat": 38.91957716666667, "bike_id": "0d07c3d9dabb24af3a514f6cf8797857", "type": "electric_scooter", "is_reserved": 0, "lon": -77.0320625}, {"fusion_lat": 0.0, "name": "88c637ccbe38ebdb0ceb5d9b6704882b", "is_disabled": 0, "rental_uris": {"android": "https://dc.lft.to/lastmile_qr_scan", "ios": "https://dc.lft.to/lastmile_qr_scan"}, "fusion_lon": 0.0, "lat": 38.92075283333333, "bike_id": "88c637ccbe38ebdb0ceb5d9b6704882b", "type": "electric_scooter", "is_reserved": 0, "lon": -77.00447616666666}, {"fusion_lat": 0.0, "name": "aafa53d31ff5231d103c5f293827b6c9", "is_disabled": 0, "rental_uris": {"android": "https://dc.lft.to/lastmile_qr_scan", "ios": "https://dc.lft.to/lastmile_qr_scan"}, "fusion_lon": 0.0, "lat": 38.88118683333333, "bike_id": "aafa53d31ff5231d103c5f293827b6c9", "type": "electric_scooter", "is_reserved": 0, "lon": -77.016424}, {"fusion_lat": 0.0, "name": "50dc4a098e6d871c8f77bcdd132e0499", "is_disabled": 0, "rental_uris": {"android": "https://dc.lft.to/lastmile_qr_scan", "ios": "https://dc.lft.to/lastmile_qr_scan"}, "fusion_lon": 0.0, "lat": 38.8819255, "bike_id": "50dc4a098e6d871c8f77bcdd132e0499", "type": "electric_scooter", "is_reserved": 0, "lon": -77.00061633333334}, {"fusion_lat": 0.0, "name": "f0615fba6727127d7e9fb198160c06bd", "is_disabled": 0, "rental_uris": {"android": "https://dc.lft.to/lastmile_qr_scan", "ios": "https://dc.lft.to/lastmile_qr_scan"}, "fusion_lon": 0.0, "lat": 38.914662666666665, "bike_id": "f0615fba6727127d7e9fb198160c06bd", "type": "electric_scooter", "is_reserved": 0, "lon": -76.98437283333334}, {"fusion_lat": 0.0, "name": "a3ef1affddcd68cb1ac5e23ce275a505", "is_disabled": 0, "rental_uris": {"android": "https://dc.lft.to/lastmile_qr_scan", "ios": "https://dc.lft.to/lastmile_qr_scan"}, "fusion_lon": 0.0, "lat": 38.883084333333336, "bike_id": "a3ef1affddcd68cb1ac5e23ce275a505", "type": "electric_scooter", "is_reserved": 0, "lon": -76.99487366666666}, {"fusion_lat": 0.0, "name": "2bf2ec3d989000d178f132d3c7597ca8", "is_disabled": 0, "rental_uris": {"android": "https://dc.lft.to/lastmile_qr_scan", "ios": "https://dc.lft.to/lastmile_qr_scan"}, "fusion_lon": 0.0, "lat": 38.898442, "bike_id": "2bf2ec3d989000d178f132d3c7597ca8", "type": "electric_scooter", "is_reserved": 0, "lon": -77.04075083333333}, {"fusion_lat": 0.0, "name": "faa6e232bdd8cef0a7ab8681e9a9c371", "is_disabled": 0, "rental_uris": {"android": "https://dc.lft.to/lastmile_qr_scan", "ios": "https://dc.lft.to/lastmile_qr_scan"}, "fusion_lon": 0.0, "lat": 38.93382733333333, "bike_id": "faa6e232bdd8cef0a7ab8681e9a9c371", "type": "electric_scooter", "is_reserved": 0, "lon": -77.03877016666667}, {"fusion_lat": 0.0, "name": "5d8e0a6e1f68012aededb832a379dcdd", "is_disabled": 0, "rental_uris": {"android": "https://dc.lft.to/lastmile_qr_scan", "ios": "https://dc.lft.to/lastmile_qr_scan"}, "fusion_lon": 0.0, "lat": 38.922597833333334, "bike_id": "5d8e0a6e1f68012aededb832a379dcdd", "type": "electric_scooter", "is_reserved": 0, "lon": -77.07454416666667}, {"fusion_lat": 0.0, "name": "3e73120875100734d47ca051d8754d39", "is_disabled": 0, "rental_uris": {"android": "https://dc.lft.to/lastmile_qr_scan", "ios": "https://dc.lft.to/lastmile_qr_scan"}, "fusion_lon": 0.0, "lat": 38.90427583333334, "bike_id": "3e73120875100734d47ca051d8754d39", "type": "electric_scooter", "is_reserved": 0, "lon": -76.9828105}, {"fusion_lat": 0.0, "name": "c96867fbf000c15f2de1ec6f529338e5", "is_disabled": 0, "rental_uris": {"android": "https://dc.lft.to/lastmile_qr_scan", "ios": "https://dc.lft.to/lastmile_qr_scan"}, "fusion_lon": 0.0, "lat": 38.888264, "bike_id": "c96867fbf000c15f2de1ec6f529338e5", "type": "electric_scooter", "is_reserved": 0, "lon": -76.98663933333333}, {"fusion_lat": 0.0, "name": "8a63001aa2784163ca05274e8d9fda63", "is_disabled": 0, "rental_uris": {"android": "https://dc.lft.to/lastmile_qr_scan", "ios": "https://dc.lft.to/lastmile_qr_scan"}, "fusion_lon": 0.0, "lat": 38.914973333333336, "bike_id": "8a63001aa2784163ca05274e8d9fda63", "type": "electric_scooter", "is_reserved": 0, "lon": -77.06733333333334}, {"fusion_lat": 0.0, "name": "e45426822f9da57e84913d6ce4062d8c", "is_disabled": 0, "rental_uris": {"android": "https://dc.lft.to/lastmile_qr_scan", "ios": "https://dc.lft.to/lastmile_qr_scan"}, "fusion_lon": 0.0, "lat": 38.90793816666667, "bike_id": "e45426822f9da57e84913d6ce4062d8c", "type": "electric_scooter", "is_reserved": 0, "lon": -76.9942575}, {"fusion_lat": 0.0, "name": "15a916dd2222d423f70e5386480da39b", "is_disabled": 0, "rental_uris": {"android": "https://dc.lft.to/lastmile_qr_scan", "ios": "https://dc.lft.to/lastmile_qr_scan"}, "fusion_lon": 0.0, "lat": 38.91713416666666, "bike_id": "15a916dd2222d423f70e5386480da39b", "type": "electric_scooter", "is_reserved": 0, "lon": -77.01357616666667}, {"fusion_lat": 0.0, "name": "18f34ddf31d4d5c0fdfbaccb3b889e10", "is_disabled": 0, "rental_uris": {"android": "https://dc.lft.to/lastmile_qr_scan", "ios": "https://dc.lft.to/lastmile_qr_scan"}, "fusion_lon": 0.0, "lat": 38.91968, "bike_id": "18f34ddf31d4d5c0fdfbaccb3b889e10", "type": "electric_scooter", "is_reserved": 0, "lon": -77.04143683333334}, {"fusion_lat": 0.0, "name": "1d8551c40910ab09e464702397e4058e", "is_disabled": 0, "rental_uris": {"android": "https://dc.lft.to/lastmile_qr_scan", "ios": "https://dc.lft.to/lastmile_qr_scan"}, "fusion_lon": 0.0, "lat": 38.897686666666665, "bike_id": "1d8551c40910ab09e464702397e4058e", "type": "electric_scooter", "is_reserved": 0, "lon": -77.02574716666666}, {"fusion_lat": 0.0, "name": "a55a30e112a1ef554730c5677a38e65e", "is_disabled": 0, "rental_uris": {"android": "https://dc.lft.to/lastmile_qr_scan", "ios": "https://dc.lft.to/lastmile_qr_scan"}, "fusion_lon": 0.0, "lat": 38.917121, "bike_id": "a55a30e112a1ef554730c5677a38e65e", "type": "electric_scooter", "is_reserved": 0, "lon": -77.03473783333334}, {"fusion_lat": 0.0, "name": "eb761bb5231b0285bf9c1f9a51e5942e", "is_disabled": 0, "rental_uris": {"android": "https://dc.lft.to/lastmile_qr_scan", "ios": "https://dc.lft.to/lastmile_qr_scan"}, "fusion_lon": 0.0, "lat": 38.902572166666666, "bike_id": "eb761bb5231b0285bf9c1f9a51e5942e", "type": "electric_scooter", "is_reserved": 0, "lon": -77.04472933333334}, {"fusion_lat": 0.0, "name": "071794951aae155fae37039823b7fb9c", "is_disabled": 0, "rental_uris": {"android": "https://dc.lft.to/lastmile_qr_scan", "ios": "https://dc.lft.to/lastmile_qr_scan"}, "fusion_lon": 0.0, "lat": 38.892274666666665, "bike_id": "071794951aae155fae37039823b7fb9c", "type": "electric_scooter", "is_reserved": 0, "lon": -77.0313805}, {"fusion_lat": 0.0, "name": "2f64b1fc6159aa0fd181a4af465e245b", "is_disabled": 0, "rental_uris": {"android": "https://dc.lft.to/lastmile_qr_scan", "ios": "https://dc.lft.to/lastmile_qr_scan"}, "fusion_lon": 0.0, "lat": 38.9296835, "bike_id": "2f64b1fc6159aa0fd181a4af465e245b", "type": "electric_scooter", "is_reserved": 0, "lon": -77.03239433333333}, {"fusion_lat": 0.0, "name": "0aede70a189cb6837a35a0fa24f411f2", "is_disabled": 0, "rental_uris": {"android": "https://dc.lft.to/lastmile_qr_scan", "ios": "https://dc.lft.to/lastmile_qr_scan"}, "fusion_lon": 0.0, "lat": 38.88770983333333, "bike_id": "0aede70a189cb6837a35a0fa24f411f2", "type": "electric_scooter", "is_reserved": 0, "lon": -76.97751866666667}, {"fusion_lat": 0.0, "name": "2680e20d62e69d2f15944defc6de616c", "is_disabled": 0, "rental_uris": {"android": "https://dc.lft.to/lastmile_qr_scan", "ios": "https://dc.lft.to/lastmile_qr_scan"}, "fusion_lon": 0.0, "lat": 38.9048975, "bike_id": "2680e20d62e69d2f15944defc6de616c", "type": "electric_scooter", "is_reserved": 0, "lon": -77.0348575}, {"fusion_lat": 0.0, "name": "32b0d6bdbabbfc1b7fe06658c37939c6", "is_disabled": 0, "rental_uris": {"android": "https://dc.lft.to/lastmile_qr_scan", "ios": "https://dc.lft.to/lastmile_qr_scan"}, "fusion_lon": 0.0, "lat": 38.85462366666667, "bike_id": "32b0d6bdbabbfc1b7fe06658c37939c6", "type": "electric_scooter", "is_reserved": 0, "lon": -76.97236716666667}, {"fusion_lat": 0.0, "name": "13e4dfa6fd5fb152a227d94488d198f7", "is_disabled": 0, "rental_uris": {"android": "https://dc.lft.to/lastmile_qr_scan", "ios": "https://dc.lft.to/lastmile_qr_scan"}, "fusion_lon": 0.0, "lat": 38.926566666666666, "bike_id": "13e4dfa6fd5fb152a227d94488d198f7", "type": "electric_scooter", "is_reserved": 0, "lon": -77.02426216666667}, {"fusion_lat": 0.0, "name": "fa18cb8c33414ad65c37fe5a7dfa26c1", "is_disabled": 0, "rental_uris": {"android": "https://dc.lft.to/lastmile_qr_scan", "ios": "https://dc.lft.to/lastmile_qr_scan"}, "fusion_lon": 0.0, "lat": 38.878749666666664, "bike_id": "fa18cb8c33414ad65c37fe5a7dfa26c1", "type": "electric_scooter", "is_reserved": 0, "lon": -77.00817883333333}, {"fusion_lat": 0.0, "name": "615f3aad9eea0fafd1a0dda10a89bf34", "is_disabled": 0, "rental_uris": {"android": "https://dc.lft.to/lastmile_qr_scan", "ios": "https://dc.lft.to/lastmile_qr_scan"}, "fusion_lon": 0.0, "lat": 38.892822333333335, "bike_id": "615f3aad9eea0fafd1a0dda10a89bf34", "type": "electric_scooter", "is_reserved": 0, "lon": -77.01224516666667}, {"fusion_lat": 0.0, "name": "b2f3b3ad3ca186c66618016c8ed994bc", "is_disabled": 0, "rental_uris": {"android": "https://dc.lft.to/lastmile_qr_scan", "ios": "https://dc.lft.to/lastmile_qr_scan"}, "fusion_lon": 0.0, "lat": 38.928681, "bike_id": "b2f3b3ad3ca186c66618016c8ed994bc", "type": "electric_scooter", "is_reserved": 0, "lon": -77.0335715}, {"fusion_lat": 0.0, "name": "c32db6b970865a5412f12eac9df4cfd7", "is_disabled": 0, "rental_uris": {"android": "https://dc.lft.to/lastmile_qr_scan", "ios": "https://dc.lft.to/lastmile_qr_scan"}, "fusion_lon": 0.0, "lat": 38.91548783333333, "bike_id": "c32db6b970865a5412f12eac9df4cfd7", "type": "electric_scooter", "is_reserved": 0, "lon": -77.01133166666666}, {"fusion_lat": 0.0, "name": "1a365edf1083313aa99b75e233bce2a6", "is_disabled": 0, "rental_uris": {"android": "https://dc.lft.to/lastmile_qr_scan", "ios": "https://dc.lft.to/lastmile_qr_scan"}, "fusion_lon": 0.0, "lat": 38.94007166666667, "bike_id": "1a365edf1083313aa99b75e233bce2a6", "type": "electric_scooter", "is_reserved": 0, "lon": -77.08417316666667}, {"fusion_lat": 0.0, "name": "16ab0c59b9cdb0484e21038a861037d8", "is_disabled": 0, "rental_uris": {"android": "https://dc.lft.to/lastmile_qr_scan", "ios": "https://dc.lft.to/lastmile_qr_scan"}, "fusion_lon": 0.0, "lat": 38.90022883333334, "bike_id": "16ab0c59b9cdb0484e21038a861037d8", "type": "electric_scooter", "is_reserved": 0, "lon": -77.01623783333334}, {"fusion_lat": 0.0, "name": "3e84f440f042d4190f845cd88062985e", "is_disabled": 0, "rental_uris": {"android": "https://dc.lft.to/lastmile_qr_scan", "ios": "https://dc.lft.to/lastmile_qr_scan"}, "fusion_lon": 0.0, "lat": 38.900617833333335, "bike_id": "3e84f440f042d4190f845cd88062985e", "type": "electric_scooter", "is_reserved": 0, "lon": -76.93386016666666}, {"fusion_lat": 0.0, "name": "7ad5a0e3f653619701e867a759cf8577", "is_disabled": 0, "rental_uris": {"android": "https://dc.lft.to/lastmile_qr_scan", "ios": "https://dc.lft.to/lastmile_qr_scan"}, "fusion_lon": 0.0, "lat": 38.91536966666666, "bike_id": "7ad5a0e3f653619701e867a759cf8577", "type": "electric_scooter", "is_reserved": 0, "lon": -77.06657433333334}, {"fusion_lat": 0.0, "name": "55122ccc131b60d3e4841ae3792a18ca", "is_disabled": 0, "rental_uris": {"android": "https://dc.lft.to/lastmile_qr_scan", "ios": "https://dc.lft.to/lastmile_qr_scan"}, "fusion_lon": 0.0, "lat": 38.907709, "bike_id": "55122ccc131b60d3e4841ae3792a18ca", "type": "electric_scooter", "is_reserved": 0, "lon": -77.05591116666666}, {"fusion_lat": 0.0, "name": "f6e02cba613b9bc1fb8049cdd6c682da", "is_disabled": 0, "rental_uris": {"android": "https://dc.lft.to/lastmile_qr_scan", "ios": "https://dc.lft.to/lastmile_qr_scan"}, "fusion_lon": 0.0, "lat": 38.881811, "bike_id": "f6e02cba613b9bc1fb8049cdd6c682da", "type": "electric_scooter", "is_reserved": 0, "lon": -77.03576433333333}, {"fusion_lat": 0.0, "name": "635c41fa6f35cfe60850fdcbdf5bc349", "is_disabled": 0, "rental_uris": {"android": "https://dc.lft.to/lastmile_qr_scan", "ios": "https://dc.lft.to/lastmile_qr_scan"}, "fusion_lon": 0.0, "lat": 38.8867545, "bike_id": "635c41fa6f35cfe60850fdcbdf5bc349", "type": "electric_scooter", "is_reserved": 0, "lon": -77.013735}, {"fusion_lat": 0.0, "name": "bb4a5ac2b0c1659db7b70c57e7f879ff", "is_disabled": 0, "rental_uris": {"android": "https://dc.lft.to/lastmile_qr_scan", "ios": "https://dc.lft.to/lastmile_qr_scan"}, "fusion_lon": 0.0, "lat": 38.835086833333335, "bike_id": "bb4a5ac2b0c1659db7b70c57e7f879ff", "type": "electric_bike", "is_reserved": 0, "lon": -76.9868845}, {"fusion_lat": 0.0, "name": "be7c88a41c0cfa24074056e665c8d328", "is_disabled": 0, "rental_uris": {"android": "https://dc.lft.to/lastmile_qr_scan", "ios": "https://dc.lft.to/lastmile_qr_scan"}, "fusion_lon": 0.0, "lat": 38.9427025, "bike_id": "be7c88a41c0cfa24074056e665c8d328", "type": "electric_scooter", "is_reserved": 0, "lon": -77.03257416666666}, {"fusion_lat": 0.0, "name": "753ce5c82770e0a989fde45e4c7513a3", "is_disabled": 0, "rental_uris": {"android": "https://dc.lft.to/lastmile_qr_scan", "ios": "https://dc.lft.to/lastmile_qr_scan"}, "fusion_lon": 0.0, "lat": 38.89728083333333, "bike_id": "753ce5c82770e0a989fde45e4c7513a3", "type": "electric_scooter", "is_reserved": 0, "lon": -77.02157833333334}, {"fusion_lat": 0.0, "name": "51c67a04b7be2fe2cd3a340d7ca6bbb0", "is_disabled": 0, "rental_uris": {"android": "https://dc.lft.to/lastmile_qr_scan", "ios": "https://dc.lft.to/lastmile_qr_scan"}, "fusion_lon": 0.0, "lat": 38.911506833333334, "bike_id": "51c67a04b7be2fe2cd3a340d7ca6bbb0", "type": "electric_scooter", "is_reserved": 0, "lon": -77.07264933333333}, {"fusion_lat": 0.0, "name": "49874a91cf61fe0c08a2349e6815a0b5", "is_disabled": 0, "rental_uris": {"android": "https://dc.lft.to/lastmile_qr_scan", "ios": "https://dc.lft.to/lastmile_qr_scan"}, "fusion_lon": 0.0, "lat": 38.9163875, "bike_id": "49874a91cf61fe0c08a2349e6815a0b5", "type": "electric_scooter", "is_reserved": 0, "lon": -77.02254383333333}, {"fusion_lat": 0.0, "name": "07914dea7a0f35131d6d0ef2e6bd3aa5", "is_disabled": 0, "rental_uris": {"android": "https://dc.lft.to/lastmile_qr_scan", "ios": "https://dc.lft.to/lastmile_qr_scan"}, "fusion_lon": 0.0, "lat": 38.916017833333335, "bike_id": "07914dea7a0f35131d6d0ef2e6bd3aa5", "type": "electric_scooter", "is_reserved": 0, "lon": -77.045554}, {"fusion_lat": 0.0, "name": "07ee15bd7f4a4013a6ad04211c0aa7ff", "is_disabled": 0, "rental_uris": {"android": "https://dc.lft.to/lastmile_qr_scan", "ios": "https://dc.lft.to/lastmile_qr_scan"}, "fusion_lon": 0.0, "lat": 38.922929833333335, "bike_id": "07ee15bd7f4a4013a6ad04211c0aa7ff", "type": "electric_scooter", "is_reserved": 0, "lon": -77.04251433333333}, {"fusion_lat": 0.0, "name": "45293f437ec060ddef4c03479c63a7f0", "is_disabled": 0, "rental_uris": {"android": "https://dc.lft.to/lastmile_qr_scan", "ios": "https://dc.lft.to/lastmile_qr_scan"}, "fusion_lon": 0.0, "lat": 38.9169105, "bike_id": "45293f437ec060ddef4c03479c63a7f0", "type": "electric_scooter", "is_reserved": 0, "lon": -77.03765616666666}, {"fusion_lat": 0.0, "name": "cda49296e03d472dac52e50664cb7279", "is_disabled": 0, "rental_uris": {"android": "https://dc.lft.to/lastmile_qr_scan", "ios": "https://dc.lft.to/lastmile_qr_scan"}, "fusion_lon": 0.0, "lat": 38.8953715, "bike_id": "cda49296e03d472dac52e50664cb7279", "type": "electric_scooter", "is_reserved": 0, "lon": -76.94955233333333}, {"fusion_lat": 0.0, "name": "8ded5885ef5b16a80e763dcca1581e5d", "is_disabled": 0, "rental_uris": {"android": "https://dc.lft.to/lastmile_qr_scan", "ios": "https://dc.lft.to/lastmile_qr_scan"}, "fusion_lon": 0.0, "lat": 38.916903, "bike_id": "8ded5885ef5b16a80e763dcca1581e5d", "type": "electric_scooter", "is_reserved": 0, "lon": -77.029427}, {"fusion_lat": 0.0, "name": "131250a85ac547630953d2bce7417158", "is_disabled": 0, "rental_uris": {"android": "https://dc.lft.to/lastmile_qr_scan", "ios": "https://dc.lft.to/lastmile_qr_scan"}, "fusion_lon": 0.0, "lat": 38.90775566666667, "bike_id": "131250a85ac547630953d2bce7417158", "type": "electric_scooter", "is_reserved": 0, "lon": -77.07164416666667}, {"fusion_lat": 0.0, "name": "c7b138abc3c3fba78e88aaf5b066decc", "is_disabled": 0, "rental_uris": {"android": "https://dc.lft.to/lastmile_qr_scan", "ios": "https://dc.lft.to/lastmile_qr_scan"}, "fusion_lon": 0.0, "lat": 38.90532966666667, "bike_id": "c7b138abc3c3fba78e88aaf5b066decc", "type": "electric_scooter", "is_reserved": 0, "lon": -77.05879883333333}, {"fusion_lat": 0.0, "name": "ea5e9ab2d8eaf48d0adad8e7dcd2f578", "is_disabled": 0, "rental_uris": {"android": "https://dc.lft.to/lastmile_qr_scan", "ios": "https://dc.lft.to/lastmile_qr_scan"}, "fusion_lon": 0.0, "lat": 38.91783866666667, "bike_id": "ea5e9ab2d8eaf48d0adad8e7dcd2f578", "type": "electric_scooter", "is_reserved": 0, "lon": -77.04024216666667}, {"fusion_lat": 0.0, "name": "1d9d3db802c7e9c940c4e66998da1a5d", "is_disabled": 0, "rental_uris": {"android": "https://dc.lft.to/lastmile_qr_scan", "ios": "https://dc.lft.to/lastmile_qr_scan"}, "fusion_lon": 0.0, "lat": 38.875322, "bike_id": "1d9d3db802c7e9c940c4e66998da1a5d", "type": "electric_scooter", "is_reserved": 0, "lon": -77.00507616666667}, {"fusion_lat": 0.0, "name": "c1f5a281b725e4ab864e761a1bfdfc12", "is_disabled": 0, "rental_uris": {"android": "https://dc.lft.to/lastmile_qr_scan", "ios": "https://dc.lft.to/lastmile_qr_scan"}, "fusion_lon": 0.0, "lat": 38.876631333333336, "bike_id": "c1f5a281b725e4ab864e761a1bfdfc12", "type": "electric_scooter", "is_reserved": 0, "lon": -76.99624666666666}, {"fusion_lat": 0.0, "name": "e205eb88bd08725ffe1a2f5ac71b036b", "is_disabled": 0, "rental_uris": {"android": "https://dc.lft.to/lastmile_qr_scan", "ios": "https://dc.lft.to/lastmile_qr_scan"}, "fusion_lon": 0.0, "lat": 38.900679833333335, "bike_id": "e205eb88bd08725ffe1a2f5ac71b036b", "type": "electric_scooter", "is_reserved": 0, "lon": -76.9274225}, {"fusion_lat": 0.0, "name": "8dd444e3eda594cf9bb8a759b3299fd8", "is_disabled": 0, "rental_uris": {"android": "https://dc.lft.to/lastmile_qr_scan", "ios": "https://dc.lft.to/lastmile_qr_scan"}, "fusion_lon": 0.0, "lat": 38.87745233333333, "bike_id": "8dd444e3eda594cf9bb8a759b3299fd8", "type": "electric_scooter", "is_reserved": 0, "lon": -77.01430866666666}, {"fusion_lat": 0.0, "name": "27758e08ecb237a011de84a44f23c60a", "is_disabled": 0, "rental_uris": {"android": "https://dc.lft.to/lastmile_qr_scan", "ios": "https://dc.lft.to/lastmile_qr_scan"}, "fusion_lon": 0.0, "lat": 38.924755833333336, "bike_id": "27758e08ecb237a011de84a44f23c60a", "type": "electric_scooter", "is_reserved": 0, "lon": -77.03915683333334}, {"fusion_lat": 0.0, "name": "822e5be9aa6a98c5e58b77d7c8b35658", "is_disabled": 0, "rental_uris": {"android": "https://dc.lft.to/lastmile_qr_scan", "ios": "https://dc.lft.to/lastmile_qr_scan"}, "fusion_lon": 0.0, "lat": 38.91456433333333, "bike_id": "822e5be9aa6a98c5e58b77d7c8b35658", "type": "electric_scooter", "is_reserved": 0, "lon": -77.07224216666667}, {"fusion_lat": 0.0, "name": "1fac8cd3bc88095c2d46ca03f7c989ae", "is_disabled": 0, "rental_uris": {"android": "https://dc.lft.to/lastmile_qr_scan", "ios": "https://dc.lft.to/lastmile_qr_scan"}, "fusion_lon": 0.0, "lat": 38.89646916666667, "bike_id": "1fac8cd3bc88095c2d46ca03f7c989ae", "type": "electric_scooter", "is_reserved": 0, "lon": -77.05157766666666}, {"fusion_lat": 0.0, "name": "3c537b37896ae43602b91cb1844c184c", "is_disabled": 0, "rental_uris": {"android": "https://dc.lft.to/lastmile_qr_scan", "ios": "https://dc.lft.to/lastmile_qr_scan"}, "fusion_lon": 0.0, "lat": 38.90847216666667, "bike_id": "3c537b37896ae43602b91cb1844c184c", "type": "electric_scooter", "is_reserved": 0, "lon": -77.06396466666666}, {"fusion_lat": 0.0, "name": "8dda3c04b1684a04f1106cca2f5ce430", "is_disabled": 0, "rental_uris": {"android": "https://dc.lft.to/lastmile_qr_scan", "ios": "https://dc.lft.to/lastmile_qr_scan"}, "fusion_lon": 0.0, "lat": 38.9606745, "bike_id": "8dda3c04b1684a04f1106cca2f5ce430", "type": "electric_scooter", "is_reserved": 0, "lon": -77.000991}, {"fusion_lat": 0.0, "name": "a177ebec054a1c12239706fb4307eb76", "is_disabled": 0, "rental_uris": {"android": "https://dc.lft.to/lastmile_qr_scan", "ios": "https://dc.lft.to/lastmile_qr_scan"}, "fusion_lon": 0.0, "lat": 38.85561583333333, "bike_id": "a177ebec054a1c12239706fb4307eb76", "type": "electric_bike", "is_reserved": 0, "lon": -77.11316483333333}, {"fusion_lat": 0.0, "name": "b379282ecf28ea242b7b71b724269cc4", "is_disabled": 0, "rental_uris": {"android": "https://dc.lft.to/lastmile_qr_scan", "ios": "https://dc.lft.to/lastmile_qr_scan"}, "fusion_lon": 0.0, "lat": 38.8945165, "bike_id": "b379282ecf28ea242b7b71b724269cc4", "type": "electric_scooter", "is_reserved": 0, "lon": -77.04546383333333}, {"fusion_lat": 0.0, "name": "b33965d4b2e3a598c4924909382065f0", "is_disabled": 0, "rental_uris": {"android": "https://dc.lft.to/lastmile_qr_scan", "ios": "https://dc.lft.to/lastmile_qr_scan"}, "fusion_lon": 0.0, "lat": 38.883841333333336, "bike_id": "b33965d4b2e3a598c4924909382065f0", "type": "electric_scooter", "is_reserved": 0, "lon": -77.0298575}, {"fusion_lat": 0.0, "name": "dde3a0d90e887c3876525faeb083259c", "is_disabled": 0, "rental_uris": {"android": "https://dc.lft.to/lastmile_qr_scan", "ios": "https://dc.lft.to/lastmile_qr_scan"}, "fusion_lon": 0.0, "lat": 38.89729, "bike_id": "dde3a0d90e887c3876525faeb083259c", "type": "electric_scooter", "is_reserved": 0, "lon": -76.94701533333334}, {"fusion_lat": 0.0, "name": "b13615d93eb3102885feae947966c476", "is_disabled": 0, "rental_uris": {"android": "https://dc.lft.to/lastmile_qr_scan", "ios": "https://dc.lft.to/lastmile_qr_scan"}, "fusion_lon": 0.0, "lat": 38.898360833333335, "bike_id": "b13615d93eb3102885feae947966c476", "type": "electric_scooter", "is_reserved": 0, "lon": -77.02630166666667}, {"fusion_lat": 0.0, "name": "5425db42ffe65a7d5e47bdc58281a3de", "is_disabled": 0, "rental_uris": {"android": "https://dc.lft.to/lastmile_qr_scan", "ios": "https://dc.lft.to/lastmile_qr_scan"}, "fusion_lon": 0.0, "lat": 38.90191316666667, "bike_id": "5425db42ffe65a7d5e47bdc58281a3de", "type": "electric_scooter", "is_reserved": 0, "lon": -77.05010266666666}, {"fusion_lat": 0.0, "name": "e25a4f02698620cc885642d3ff839526", "is_disabled": 0, "rental_uris": {"android": "https://dc.lft.to/lastmile_qr_scan", "ios": "https://dc.lft.to/lastmile_qr_scan"}, "fusion_lon": 0.0, "lat": 38.883970166666664, "bike_id": "e25a4f02698620cc885642d3ff839526", "type": "electric_scooter", "is_reserved": 0, "lon": -76.9305115}, {"fusion_lat": 0.0, "name": "7018335002a93eea030f40c32a0708fe", "is_disabled": 0, "rental_uris": {"android": "https://dc.lft.to/lastmile_qr_scan", "ios": "https://dc.lft.to/lastmile_qr_scan"}, "fusion_lon": 0.0, "lat": 38.897960166666664, "bike_id": "7018335002a93eea030f40c32a0708fe", "type": "electric_scooter", "is_reserved": 0, "lon": -77.0218835}, {"fusion_lat": 0.0, "name": "a7967c86449fe46abaa7cc2a73eecf60", "is_disabled": 0, "rental_uris": {"android": "https://dc.lft.to/lastmile_qr_scan", "ios": "https://dc.lft.to/lastmile_qr_scan"}, "fusion_lon": 0.0, "lat": 38.940903666666664, "bike_id": "a7967c86449fe46abaa7cc2a73eecf60", "type": "electric_scooter", "is_reserved": 0, "lon": -77.06186516666666}, {"fusion_lat": 0.0, "name": "3a59f2b529951296aee44c512585297a", "is_disabled": 0, "rental_uris": {"android": "https://dc.lft.to/lastmile_qr_scan", "ios": "https://dc.lft.to/lastmile_qr_scan"}, "fusion_lon": 0.0, "lat": 38.90527083333333, "bike_id": "3a59f2b529951296aee44c512585297a", "type": "electric_scooter", "is_reserved": 0, "lon": -77.06382866666667}, {"fusion_lat": 0.0, "name": "4253ec6635dee2ea3972d0be0001a53b", "is_disabled": 0, "rental_uris": {"android": "https://dc.lft.to/lastmile_qr_scan", "ios": "https://dc.lft.to/lastmile_qr_scan"}, "fusion_lon": 0.0, "lat": 38.89729666666667, "bike_id": "4253ec6635dee2ea3972d0be0001a53b", "type": "electric_scooter", "is_reserved": 0, "lon": -77.0552555}, {"fusion_lat": 0.0, "name": "145d3debb90523986574c7daa81e97a8", "is_disabled": 0, "rental_uris": {"android": "https://dc.lft.to/lastmile_qr_scan", "ios": "https://dc.lft.to/lastmile_qr_scan"}, "fusion_lon": 0.0, "lat": 38.8576645, "bike_id": "145d3debb90523986574c7daa81e97a8", "type": "electric_bike", "is_reserved": 0, "lon": -76.987585}, {"fusion_lat": 0.0, "name": "876de66d47d79ff9a3f2a9426ee4b00d", "is_disabled": 0, "rental_uris": {"android": "https://dc.lft.to/lastmile_qr_scan", "ios": "https://dc.lft.to/lastmile_qr_scan"}, "fusion_lon": 0.0, "lat": 38.898153, "bike_id": "876de66d47d79ff9a3f2a9426ee4b00d", "type": "electric_scooter", "is_reserved": 0, "lon": -77.0466995}, {"fusion_lat": 0.0, "name": "8f4a6aa09dd56c2b652f8e3196c9d1f9", "is_disabled": 0, "rental_uris": {"android": "https://dc.lft.to/lastmile_qr_scan", "ios": "https://dc.lft.to/lastmile_qr_scan"}, "fusion_lon": 0.0, "lat": 38.900810666666665, "bike_id": "8f4a6aa09dd56c2b652f8e3196c9d1f9", "type": "electric_scooter", "is_reserved": 0, "lon": -77.05060266666666}, {"fusion_lat": 0.0, "name": "6aa8713aa5339cf595ed4f7f0d0ab7b0", "is_disabled": 0, "rental_uris": {"android": "https://dc.lft.to/lastmile_qr_scan", "ios": "https://dc.lft.to/lastmile_qr_scan"}, "fusion_lon": 0.0, "lat": 38.90930083333333, "bike_id": "6aa8713aa5339cf595ed4f7f0d0ab7b0", "type": "electric_scooter", "is_reserved": 0, "lon": -77.0625485}, {"fusion_lat": 0.0, "name": "6da219ebce3502042cf93fa3c17518b2", "is_disabled": 0, "rental_uris": {"android": "https://dc.lft.to/lastmile_qr_scan", "ios": "https://dc.lft.to/lastmile_qr_scan"}, "fusion_lon": 0.0, "lat": 38.938720333333336, "bike_id": "6da219ebce3502042cf93fa3c17518b2", "type": "electric_scooter", "is_reserved": 0, "lon": -77.02466166666666}, {"fusion_lat": 0.0, "name": "adb4cf821d2a64c6b7f0c5b3900f403c", "is_disabled": 0, "rental_uris": {"android": "https://dc.lft.to/lastmile_qr_scan", "ios": "https://dc.lft.to/lastmile_qr_scan"}, "fusion_lon": 0.0, "lat": 38.897262, "bike_id": "adb4cf821d2a64c6b7f0c5b3900f403c", "type": "electric_scooter", "is_reserved": 0, "lon": -77.00752733333333}, {"fusion_lat": 0.0, "name": "b3903830e3db11a99bc1debf050d5c9f", "is_disabled": 0, "rental_uris": {"android": "https://dc.lft.to/lastmile_qr_scan", "ios": "https://dc.lft.to/lastmile_qr_scan"}, "fusion_lon": 0.0, "lat": 38.883437666666666, "bike_id": "b3903830e3db11a99bc1debf050d5c9f", "type": "electric_scooter", "is_reserved": 0, "lon": -77.0147305}, {"fusion_lat": 0.0, "name": "375309b37975f9b0bbea5c15e09135e0", "is_disabled": 0, "rental_uris": {"android": "https://dc.lft.to/lastmile_qr_scan", "ios": "https://dc.lft.to/lastmile_qr_scan"}, "fusion_lon": 0.0, "lat": 38.91842716666667, "bike_id": "375309b37975f9b0bbea5c15e09135e0", "type": "electric_scooter", "is_reserved": 0, "lon": -77.06367466666667}, {"fusion_lat": 0.0, "name": "7fc37d2b4c25732727126e8b7eb46b33", "is_disabled": 0, "rental_uris": {"android": "https://dc.lft.to/lastmile_qr_scan", "ios": "https://dc.lft.to/lastmile_qr_scan"}, "fusion_lon": 0.0, "lat": 38.93822383333333, "bike_id": "7fc37d2b4c25732727126e8b7eb46b33", "type": "electric_scooter", "is_reserved": 0, "lon": -77.026418}, {"fusion_lat": 0.0, "name": "48c4eefac92c9e173ab5e4e8a80fa4c6", "is_disabled": 0, "rental_uris": {"android": "https://dc.lft.to/lastmile_qr_scan", "ios": "https://dc.lft.to/lastmile_qr_scan"}, "fusion_lon": 0.0, "lat": 38.90350133333333, "bike_id": "48c4eefac92c9e173ab5e4e8a80fa4c6", "type": "electric_scooter", "is_reserved": 0, "lon": -76.9747775}, {"fusion_lat": 0.0, "name": "4c4132695378d80d2c812b4395a24cf1", "is_disabled": 0, "rental_uris": {"android": "https://dc.lft.to/lastmile_qr_scan", "ios": "https://dc.lft.to/lastmile_qr_scan"}, "fusion_lon": 0.0, "lat": 38.97366366666667, "bike_id": "4c4132695378d80d2c812b4395a24cf1", "type": "electric_scooter", "is_reserved": 0, "lon": -77.01297233333334}, {"fusion_lat": 0.0, "name": "af8a7440ad9d891bfd011ca9b8c53245", "is_disabled": 0, "rental_uris": {"android": "https://dc.lft.to/lastmile_qr_scan", "ios": "https://dc.lft.to/lastmile_qr_scan"}, "fusion_lon": 0.0, "lat": 38.93477983333333, "bike_id": "af8a7440ad9d891bfd011ca9b8c53245", "type": "electric_scooter", "is_reserved": 0, "lon": -77.0734785}, {"fusion_lat": 0.0, "name": "0b8b0012e22e731158a91c829d191ecd", "is_disabled": 0, "rental_uris": {"android": "https://dc.lft.to/lastmile_qr_scan", "ios": "https://dc.lft.to/lastmile_qr_scan"}, "fusion_lon": 0.0, "lat": 38.929766666666666, "bike_id": "0b8b0012e22e731158a91c829d191ecd", "type": "electric_scooter", "is_reserved": 0, "lon": -77.04191783333333}, {"fusion_lat": 0.0, "name": "2892a63b3f9462674f454fc551e68946", "is_disabled": 0, "rental_uris": {"android": "https://dc.lft.to/lastmile_qr_scan", "ios": "https://dc.lft.to/lastmile_qr_scan"}, "fusion_lon": 0.0, "lat": 38.9525005, "bike_id": "2892a63b3f9462674f454fc551e68946", "type": "electric_scooter", "is_reserved": 0, "lon": -77.02379516666667}, {"fusion_lat": 0.0, "name": "77e9aa151615de08127d99d2440c3839", "is_disabled": 0, "rental_uris": {"android": "https://dc.lft.to/lastmile_qr_scan", "ios": "https://dc.lft.to/lastmile_qr_scan"}, "fusion_lon": 0.0, "lat": 38.88732433333333, "bike_id": "77e9aa151615de08127d99d2440c3839", "type": "electric_scooter", "is_reserved": 0, "lon": -77.02212983333334}, {"fusion_lat": 0.0, "name": "8f9f3d5247aef270db649efb2eee03e3", "is_disabled": 0, "rental_uris": {"android": "https://dc.lft.to/lastmile_qr_scan", "ios": "https://dc.lft.to/lastmile_qr_scan"}, "fusion_lon": 0.0, "lat": 38.92676133333333, "bike_id": "8f9f3d5247aef270db649efb2eee03e3", "type": "electric_scooter", "is_reserved": 0, "lon": -77.03097683333333}, {"fusion_lat": 0.0, "name": "7873f10e401b459a15674cd6487e12a1", "is_disabled": 0, "rental_uris": {"android": "https://dc.lft.to/lastmile_qr_scan", "ios": "https://dc.lft.to/lastmile_qr_scan"}, "fusion_lon": 0.0, "lat": 38.931845, "bike_id": "7873f10e401b459a15674cd6487e12a1", "type": "electric_scooter", "is_reserved": 0, "lon": -77.01970583333333}, {"fusion_lat": 0.0, "name": "2fb7fb143ecbb85a3ff9274f5e5e225d", "is_disabled": 0, "rental_uris": {"android": "https://dc.lft.to/lastmile_qr_scan", "ios": "https://dc.lft.to/lastmile_qr_scan"}, "fusion_lon": 0.0, "lat": 38.8921955, "bike_id": "2fb7fb143ecbb85a3ff9274f5e5e225d", "type": "electric_scooter", "is_reserved": 0, "lon": -77.02726733333333}, {"fusion_lat": 0.0, "name": "b2225fdd43d5614c02ac3c4f879885ae", "is_disabled": 0, "rental_uris": {"android": "https://dc.lft.to/lastmile_qr_scan", "ios": "https://dc.lft.to/lastmile_qr_scan"}, "fusion_lon": 0.0, "lat": 38.913823666666666, "bike_id": "b2225fdd43d5614c02ac3c4f879885ae", "type": "electric_scooter", "is_reserved": 0, "lon": -77.01799033333333}, {"fusion_lat": 0.0, "name": "ecb4a8c8f71ae5d841e91c799f73c3d4", "is_disabled": 0, "rental_uris": {"android": "https://dc.lft.to/lastmile_qr_scan", "ios": "https://dc.lft.to/lastmile_qr_scan"}, "fusion_lon": 0.0, "lat": 38.8925515, "bike_id": "ecb4a8c8f71ae5d841e91c799f73c3d4", "type": "electric_bike", "is_reserved": 0, "lon": -76.951171}, {"fusion_lat": 0.0, "name": "8a5f3e2de9c9d65bb5e476d8d1e217c5", "is_disabled": 0, "rental_uris": {"android": "https://dc.lft.to/lastmile_qr_scan", "ios": "https://dc.lft.to/lastmile_qr_scan"}, "fusion_lon": 0.0, "lat": 38.90532283333334, "bike_id": "8a5f3e2de9c9d65bb5e476d8d1e217c5", "type": "electric_scooter", "is_reserved": 0, "lon": -77.00709866666666}, {"fusion_lat": 0.0, "name": "df9c05c17b98b2a59130734d0f681183", "is_disabled": 0, "rental_uris": {"android": "https://dc.lft.to/lastmile_qr_scan", "ios": "https://dc.lft.to/lastmile_qr_scan"}, "fusion_lon": 0.0, "lat": 38.904438, "bike_id": "df9c05c17b98b2a59130734d0f681183", "type": "electric_scooter", "is_reserved": 0, "lon": -77.05924516666667}, {"fusion_lat": 0.0, "name": "c03ab89b3b056e5437ffbece50bd7140", "is_disabled": 0, "rental_uris": {"android": "https://dc.lft.to/lastmile_qr_scan", "ios": "https://dc.lft.to/lastmile_qr_scan"}, "fusion_lon": 0.0, "lat": 38.879336333333335, "bike_id": "c03ab89b3b056e5437ffbece50bd7140", "type": "electric_scooter", "is_reserved": 0, "lon": -77.00415933333333}, {"fusion_lat": 0.0, "name": "faa36f692aa84481439300b1fabcfc11", "is_disabled": 0, "rental_uris": {"android": "https://dc.lft.to/lastmile_qr_scan", "ios": "https://dc.lft.to/lastmile_qr_scan"}, "fusion_lon": 0.0, "lat": 38.901165166666665, "bike_id": "faa36f692aa84481439300b1fabcfc11", "type": "electric_scooter", "is_reserved": 0, "lon": -77.03345966666667}, {"fusion_lat": 0.0, "name": "edc29938a3b41e24dded207e855bfdcd", "is_disabled": 0, "rental_uris": {"android": "https://dc.lft.to/lastmile_qr_scan", "ios": "https://dc.lft.to/lastmile_qr_scan"}, "fusion_lon": 0.0, "lat": 38.92294966666667, "bike_id": "edc29938a3b41e24dded207e855bfdcd", "type": "electric_scooter", "is_reserved": 0, "lon": -77.07320783333333}, {"fusion_lat": 0.0, "name": "1e92b84a6faf1441aa0aafd70d2e5c2d", "is_disabled": 0, "rental_uris": {"android": "https://dc.lft.to/lastmile_qr_scan", "ios": "https://dc.lft.to/lastmile_qr_scan"}, "fusion_lon": 0.0, "lat": 38.9028545, "bike_id": "1e92b84a6faf1441aa0aafd70d2e5c2d", "type": "electric_scooter", "is_reserved": 0, "lon": -76.9904175}, {"fusion_lat": 0.0, "name": "bbc3ea38004b9438bf0c24510bf225c5", "is_disabled": 0, "rental_uris": {"android": "https://dc.lft.to/lastmile_qr_scan", "ios": "https://dc.lft.to/lastmile_qr_scan"}, "fusion_lon": 0.0, "lat": 38.908509333333335, "bike_id": "bbc3ea38004b9438bf0c24510bf225c5", "type": "electric_scooter", "is_reserved": 0, "lon": -77.03378666666667}, {"fusion_lat": 0.0, "name": "6d0412644a71ebc7c3289d37a4ad0e58", "is_disabled": 0, "rental_uris": {"android": "https://dc.lft.to/lastmile_qr_scan", "ios": "https://dc.lft.to/lastmile_qr_scan"}, "fusion_lon": 0.0, "lat": 38.918032, "bike_id": "6d0412644a71ebc7c3289d37a4ad0e58", "type": "electric_scooter", "is_reserved": 0, "lon": -77.0114355}, {"fusion_lat": 0.0, "name": "fdafa7ed1be46a49d03625793e6df9e2", "is_disabled": 0, "rental_uris": {"android": "https://dc.lft.to/lastmile_qr_scan", "ios": "https://dc.lft.to/lastmile_qr_scan"}, "fusion_lon": 0.0, "lat": 38.87688983333334, "bike_id": "fdafa7ed1be46a49d03625793e6df9e2", "type": "electric_scooter", "is_reserved": 0, "lon": -77.00058783333333}, {"fusion_lat": 0.0, "name": "c95980afa0496eaa2e555371a65ac487", "is_disabled": 0, "rental_uris": {"android": "https://dc.lft.to/lastmile_qr_scan", "ios": "https://dc.lft.to/lastmile_qr_scan"}, "fusion_lon": 0.0, "lat": 38.900247666666665, "bike_id": "c95980afa0496eaa2e555371a65ac487", "type": "electric_scooter", "is_reserved": 0, "lon": -77.03673716666667}, {"fusion_lat": 0.0, "name": "fa1700db2a0a6d3908435f12d878c84a", "is_disabled": 0, "rental_uris": {"android": "https://dc.lft.to/lastmile_qr_scan", "ios": "https://dc.lft.to/lastmile_qr_scan"}, "fusion_lon": 0.0, "lat": 38.9004905, "bike_id": "fa1700db2a0a6d3908435f12d878c84a", "type": "electric_scooter", "is_reserved": 0, "lon": -77.00068583333334}, {"fusion_lat": 0.0, "name": "65fc0fba4b137ebd12d425afa51e6b38", "is_disabled": 0, "rental_uris": {"android": "https://dc.lft.to/lastmile_qr_scan", "ios": "https://dc.lft.to/lastmile_qr_scan"}, "fusion_lon": 0.0, "lat": 38.99535783333333, "bike_id": "65fc0fba4b137ebd12d425afa51e6b38", "type": "electric_bike", "is_reserved": 0, "lon": -77.0291265}, {"fusion_lat": 0.0, "name": "93c1b768746fa4377e73a36cadd78969", "is_disabled": 0, "rental_uris": {"android": "https://dc.lft.to/lastmile_qr_scan", "ios": "https://dc.lft.to/lastmile_qr_scan"}, "fusion_lon": 0.0, "lat": 38.91613866666667, "bike_id": "93c1b768746fa4377e73a36cadd78969", "type": "electric_scooter", "is_reserved": 0, "lon": -77.02165766666667}, {"fusion_lat": 0.0, "name": "c076dcdfa28d2eb50960f7ef9de8daed", "is_disabled": 0, "rental_uris": {"android": "https://dc.lft.to/lastmile_qr_scan", "ios": "https://dc.lft.to/lastmile_qr_scan"}, "fusion_lon": 0.0, "lat": 38.9151855, "bike_id": "c076dcdfa28d2eb50960f7ef9de8daed", "type": "electric_scooter", "is_reserved": 0, "lon": -77.02698466666666}, {"fusion_lat": 0.0, "name": "260df5c61b041946340e77b118698a14", "is_disabled": 0, "rental_uris": {"android": "https://dc.lft.to/lastmile_qr_scan", "ios": "https://dc.lft.to/lastmile_qr_scan"}, "fusion_lon": 0.0, "lat": 38.877097666666664, "bike_id": "260df5c61b041946340e77b118698a14", "type": "electric_scooter", "is_reserved": 0, "lon": -76.99388183333333}, {"fusion_lat": 0.0, "name": "2d4a5908c992f040a1e88b6dae26ed11", "is_disabled": 0, "rental_uris": {"android": "https://dc.lft.to/lastmile_qr_scan", "ios": "https://dc.lft.to/lastmile_qr_scan"}, "fusion_lon": 0.0, "lat": 38.923025833333334, "bike_id": "2d4a5908c992f040a1e88b6dae26ed11", "type": "electric_scooter", "is_reserved": 0, "lon": -77.0365895}, {"fusion_lat": 0.0, "name": "a1387fa5ab1035bccfda501deb4b6e08", "is_disabled": 0, "rental_uris": {"android": "https://dc.lft.to/lastmile_qr_scan", "ios": "https://dc.lft.to/lastmile_qr_scan"}, "fusion_lon": 0.0, "lat": 38.944951333333336, "bike_id": "a1387fa5ab1035bccfda501deb4b6e08", "type": "electric_scooter", "is_reserved": 0, "lon": -77.038742}, {"fusion_lat": 0.0, "name": "02a39ab7b8227e5a0b3f142b71e3cc27", "is_disabled": 0, "rental_uris": {"android": "https://dc.lft.to/lastmile_qr_scan", "ios": "https://dc.lft.to/lastmile_qr_scan"}, "fusion_lon": 0.0, "lat": 38.98394966666667, "bike_id": "02a39ab7b8227e5a0b3f142b71e3cc27", "type": "electric_scooter", "is_reserved": 0, "lon": -77.02629}, {"fusion_lat": 0.0, "name": "fc423bb78a69d4dfdb3ecc206d9c16bc", "is_disabled": 0, "rental_uris": {"android": "https://dc.lft.to/lastmile_qr_scan", "ios": "https://dc.lft.to/lastmile_qr_scan"}, "fusion_lon": 0.0, "lat": 38.895702166666666, "bike_id": "fc423bb78a69d4dfdb3ecc206d9c16bc", "type": "electric_scooter", "is_reserved": 0, "lon": -76.948699}, {"fusion_lat": 0.0, "name": "667dde187832dac05e0382de3d7669d9", "is_disabled": 0, "rental_uris": {"android": "https://dc.lft.to/lastmile_qr_scan", "ios": "https://dc.lft.to/lastmile_qr_scan"}, "fusion_lon": 0.0, "lat": 38.91832016666667, "bike_id": "667dde187832dac05e0382de3d7669d9", "type": "electric_scooter", "is_reserved": 0, "lon": -77.0403315}, {"fusion_lat": 0.0, "name": "0024abd8c663490ebc9d518ba2554bba", "is_disabled": 0, "rental_uris": {"android": "https://dc.lft.to/lastmile_qr_scan", "ios": "https://dc.lft.to/lastmile_qr_scan"}, "fusion_lon": 0.0, "lat": 38.917726333333334, "bike_id": "0024abd8c663490ebc9d518ba2554bba", "type": "electric_scooter", "is_reserved": 0, "lon": -77.04096983333334}, {"fusion_lat": 0.0, "name": "dda0675b04e4159fbbc199ef737379ec", "is_disabled": 0, "rental_uris": {"android": "https://dc.lft.to/lastmile_qr_scan", "ios": "https://dc.lft.to/lastmile_qr_scan"}, "fusion_lon": 0.0, "lat": 38.94524033333333, "bike_id": "dda0675b04e4159fbbc199ef737379ec", "type": "electric_scooter", "is_reserved": 0, "lon": -77.02272516666666}, {"fusion_lat": 0.0, "name": "03b9d929b449aaa280e5f4670afd5e47", "is_disabled": 0, "rental_uris": {"android": "https://dc.lft.to/lastmile_qr_scan", "ios": "https://dc.lft.to/lastmile_qr_scan"}, "fusion_lon": 0.0, "lat": 38.9184595, "bike_id": "03b9d929b449aaa280e5f4670afd5e47", "type": "electric_scooter", "is_reserved": 0, "lon": -77.0457875}, {"fusion_lat": 0.0, "name": "620761f99d319f0d331c3ca161d612ec", "is_disabled": 0, "rental_uris": {"android": "https://dc.lft.to/lastmile_qr_scan", "ios": "https://dc.lft.to/lastmile_qr_scan"}, "fusion_lon": 0.0, "lat": 38.91174816666667, "bike_id": "620761f99d319f0d331c3ca161d612ec", "type": "electric_scooter", "is_reserved": 0, "lon": -77.06866183333334}, {"fusion_lat": 0.0, "name": "168b267f54da748d85a0fff0a3f9c9ad", "is_disabled": 0, "rental_uris": {"android": "https://dc.lft.to/lastmile_qr_scan", "ios": "https://dc.lft.to/lastmile_qr_scan"}, "fusion_lon": 0.0, "lat": 38.905545000000004, "bike_id": "168b267f54da748d85a0fff0a3f9c9ad", "type": "electric_scooter", "is_reserved": 0, "lon": -77.03228233333333}, {"fusion_lat": 0.0, "name": "041e7212d1c0bb05af06ae7a32cb19cc", "is_disabled": 0, "rental_uris": {"android": "https://dc.lft.to/lastmile_qr_scan", "ios": "https://dc.lft.to/lastmile_qr_scan"}, "fusion_lon": 0.0, "lat": 38.94496133333333, "bike_id": "041e7212d1c0bb05af06ae7a32cb19cc", "type": "electric_bike", "is_reserved": 0, "lon": -77.00542533333333}, {"fusion_lat": 0.0, "name": "531f7652d672fe70a4dfe7efc4b60cea", "is_disabled": 0, "rental_uris": {"android": "https://dc.lft.to/lastmile_qr_scan", "ios": "https://dc.lft.to/lastmile_qr_scan"}, "fusion_lon": 0.0, "lat": 38.86139283333333, "bike_id": "531f7652d672fe70a4dfe7efc4b60cea", "type": "electric_bike", "is_reserved": 0, "lon": -76.971698}, {"fusion_lat": 0.0, "name": "49f09413639c34b7d5cef6bcb6e212d9", "is_disabled": 0, "rental_uris": {"android": "https://dc.lft.to/lastmile_qr_scan", "ios": "https://dc.lft.to/lastmile_qr_scan"}, "fusion_lon": 0.0, "lat": 38.87637466666666, "bike_id": "49f09413639c34b7d5cef6bcb6e212d9", "type": "electric_scooter", "is_reserved": 0, "lon": -77.00836233333334}, {"fusion_lat": 0.0, "name": "c2ba91d94c3e492bff3c5146e3fb5f68", "is_disabled": 0, "rental_uris": {"android": "https://dc.lft.to/lastmile_qr_scan", "ios": "https://dc.lft.to/lastmile_qr_scan"}, "fusion_lon": 0.0, "lat": 38.927137333333334, "bike_id": "c2ba91d94c3e492bff3c5146e3fb5f68", "type": "electric_scooter", "is_reserved": 0, "lon": -77.02077433333334}, {"fusion_lat": 0.0, "name": "cc4f9ec30eeac007bab32ec0292a4cba", "is_disabled": 0, "rental_uris": {"android": "https://dc.lft.to/lastmile_qr_scan", "ios": "https://dc.lft.to/lastmile_qr_scan"}, "fusion_lon": 0.0, "lat": 38.931155, "bike_id": "cc4f9ec30eeac007bab32ec0292a4cba", "type": "electric_scooter", "is_reserved": 0, "lon": -77.03520533333334}, {"fusion_lat": 0.0, "name": "acea8ae085468d5e8e2b739a2f1bf5c8", "is_disabled": 0, "rental_uris": {"android": "https://dc.lft.to/lastmile_qr_scan", "ios": "https://dc.lft.to/lastmile_qr_scan"}, "fusion_lon": 0.0, "lat": 38.893066, "bike_id": "acea8ae085468d5e8e2b739a2f1bf5c8", "type": "electric_scooter", "is_reserved": 0, "lon": -77.05586866666667}, {"fusion_lat": 0.0, "name": "e9339a2d8ce0efb813acf8daeb063466", "is_disabled": 0, "rental_uris": {"android": "https://dc.lft.to/lastmile_qr_scan", "ios": "https://dc.lft.to/lastmile_qr_scan"}, "fusion_lon": 0.0, "lat": 38.91003166666667, "bike_id": "e9339a2d8ce0efb813acf8daeb063466", "type": "electric_scooter", "is_reserved": 0, "lon": -77.03193166666667}, {"fusion_lat": 0.0, "name": "0c9cbd1528833788a35626434c9f0d3a", "is_disabled": 0, "rental_uris": {"android": "https://dc.lft.to/lastmile_qr_scan", "ios": "https://dc.lft.to/lastmile_qr_scan"}, "fusion_lon": 0.0, "lat": 38.94980666666667, "bike_id": "0c9cbd1528833788a35626434c9f0d3a", "type": "electric_scooter", "is_reserved": 0, "lon": -77.02697133333334}, {"fusion_lat": 0.0, "name": "acd054b2cbf9f8839bfff752727f7678", "is_disabled": 0, "rental_uris": {"android": "https://dc.lft.to/lastmile_qr_scan", "ios": "https://dc.lft.to/lastmile_qr_scan"}, "fusion_lon": 0.0, "lat": 38.8950385, "bike_id": "acd054b2cbf9f8839bfff752727f7678", "type": "electric_scooter", "is_reserved": 0, "lon": -77.04165883333333}, {"fusion_lat": 0.0, "name": "10ab51e7e81828a2803f9baa1a06cea1", "is_disabled": 0, "rental_uris": {"android": "https://dc.lft.to/lastmile_qr_scan", "ios": "https://dc.lft.to/lastmile_qr_scan"}, "fusion_lon": 0.0, "lat": 38.879993666666664, "bike_id": "10ab51e7e81828a2803f9baa1a06cea1", "type": "electric_scooter", "is_reserved": 0, "lon": -76.98541083333333}, {"fusion_lat": 0.0, "name": "3344a334ad9ce6526834facf49eb23f9", "is_disabled": 0, "rental_uris": {"android": "https://dc.lft.to/lastmile_qr_scan", "ios": "https://dc.lft.to/lastmile_qr_scan"}, "fusion_lon": 0.0, "lat": 38.898456, "bike_id": "3344a334ad9ce6526834facf49eb23f9", "type": "electric_scooter", "is_reserved": 0, "lon": -77.02223216666667}, {"fusion_lat": 0.0, "name": "befd523083b0163c559a6b87c2122700", "is_disabled": 0, "rental_uris": {"android": "https://dc.lft.to/lastmile_qr_scan", "ios": "https://dc.lft.to/lastmile_qr_scan"}, "fusion_lon": 0.0, "lat": 38.90631716666667, "bike_id": "befd523083b0163c559a6b87c2122700", "type": "electric_scooter", "is_reserved": 0, "lon": -77.048792}, {"fusion_lat": 0.0, "name": "0b67818579976d490b04b4586dbb3ba1", "is_disabled": 0, "rental_uris": {"android": "https://dc.lft.to/lastmile_qr_scan", "ios": "https://dc.lft.to/lastmile_qr_scan"}, "fusion_lon": 0.0, "lat": 38.9115015, "bike_id": "0b67818579976d490b04b4586dbb3ba1", "type": "electric_scooter", "is_reserved": 0, "lon": -76.987261}, {"fusion_lat": 0.0, "name": "bf759c76a0de2321716e2e6158aae0f1", "is_disabled": 0, "rental_uris": {"android": "https://dc.lft.to/lastmile_qr_scan", "ios": "https://dc.lft.to/lastmile_qr_scan"}, "fusion_lon": 0.0, "lat": 38.917631, "bike_id": "bf759c76a0de2321716e2e6158aae0f1", "type": "electric_scooter", "is_reserved": 0, "lon": -77.01501666666667}, {"fusion_lat": 0.0, "name": "3b1a3fa9d1696b27df42f3d31fa666f8", "is_disabled": 0, "rental_uris": {"android": "https://dc.lft.to/lastmile_qr_scan", "ios": "https://dc.lft.to/lastmile_qr_scan"}, "fusion_lon": 0.0, "lat": 38.914891833333336, "bike_id": "3b1a3fa9d1696b27df42f3d31fa666f8", "type": "electric_scooter", "is_reserved": 0, "lon": -77.01416983333333}, {"fusion_lat": 0.0, "name": "afcd4b9d04c84d4baa8b20e71d94d7a1", "is_disabled": 0, "rental_uris": {"android": "https://dc.lft.to/lastmile_qr_scan", "ios": "https://dc.lft.to/lastmile_qr_scan"}, "fusion_lon": 0.0, "lat": 38.93397933333333, "bike_id": "afcd4b9d04c84d4baa8b20e71d94d7a1", "type": "electric_scooter", "is_reserved": 0, "lon": -77.05743766666667}, {"fusion_lat": 0.0, "name": "07730f95983f95fba11728dd1b1a4d9d", "is_disabled": 0, "rental_uris": {"android": "https://dc.lft.to/lastmile_qr_scan", "ios": "https://dc.lft.to/lastmile_qr_scan"}, "fusion_lon": 0.0, "lat": 38.9041535, "bike_id": "07730f95983f95fba11728dd1b1a4d9d", "type": "electric_scooter", "is_reserved": 0, "lon": -77.04368266666667}, {"fusion_lat": 0.0, "name": "f9ddf8c5d93892fd9f0847c83368252c", "is_disabled": 0, "rental_uris": {"android": "https://dc.lft.to/lastmile_qr_scan", "ios": "https://dc.lft.to/lastmile_qr_scan"}, "fusion_lon": 0.0, "lat": 38.90531816666667, "bike_id": "f9ddf8c5d93892fd9f0847c83368252c", "type": "electric_scooter", "is_reserved": 0, "lon": -77.0614345}, {"fusion_lat": 0.0, "name": "6045bf8df5b40613890c184dd1d16920", "is_disabled": 0, "rental_uris": {"android": "https://dc.lft.to/lastmile_qr_scan", "ios": "https://dc.lft.to/lastmile_qr_scan"}, "fusion_lon": 0.0, "lat": 38.9140165, "bike_id": "6045bf8df5b40613890c184dd1d16920", "type": "electric_scooter", "is_reserved": 0, "lon": -77.03172566666667}, {"fusion_lat": 0.0, "name": "cc8f787cbc7def5170edd87f48f56940", "is_disabled": 0, "rental_uris": {"android": "https://dc.lft.to/lastmile_qr_scan", "ios": "https://dc.lft.to/lastmile_qr_scan"}, "fusion_lon": 0.0, "lat": 38.90026066666667, "bike_id": "cc8f787cbc7def5170edd87f48f56940", "type": "electric_scooter", "is_reserved": 0, "lon": -77.01136483333333}, {"fusion_lat": 0.0, "name": "2a4df544c31e91079ab57aeefa465698", "is_disabled": 0, "rental_uris": {"android": "https://dc.lft.to/lastmile_qr_scan", "ios": "https://dc.lft.to/lastmile_qr_scan"}, "fusion_lon": 0.0, "lat": 38.997772499999996, "bike_id": "2a4df544c31e91079ab57aeefa465698", "type": "electric_bike", "is_reserved": 0, "lon": -77.0472075}, {"fusion_lat": 0.0, "name": "0a411ac263e16f2fb93948ea9096ee65", "is_disabled": 0, "rental_uris": {"android": "https://dc.lft.to/lastmile_qr_scan", "ios": "https://dc.lft.to/lastmile_qr_scan"}, "fusion_lon": 0.0, "lat": 38.904094, "bike_id": "0a411ac263e16f2fb93948ea9096ee65", "type": "electric_scooter", "is_reserved": 0, "lon": -76.97333183333333}, {"fusion_lat": 0.0, "name": "b81333489bc3681aca366d655634accb", "is_disabled": 0, "rental_uris": {"android": "https://dc.lft.to/lastmile_qr_scan", "ios": "https://dc.lft.to/lastmile_qr_scan"}, "fusion_lon": 0.0, "lat": 38.9412335, "bike_id": "b81333489bc3681aca366d655634accb", "type": "electric_scooter", "is_reserved": 0, "lon": -77.02641566666667}, {"fusion_lat": 0.0, "name": "901920e30ca9966eb665e8f49ec35ccb", "is_disabled": 0, "rental_uris": {"android": "https://dc.lft.to/lastmile_qr_scan", "ios": "https://dc.lft.to/lastmile_qr_scan"}, "fusion_lon": 0.0, "lat": 38.9249345, "bike_id": "901920e30ca9966eb665e8f49ec35ccb", "type": "electric_scooter", "is_reserved": 0, "lon": -77.0218575}, {"fusion_lat": 0.0, "name": "7f7c64bb29ae59bab35d9b97f815ffe8", "is_disabled": 0, "rental_uris": {"android": "https://dc.lft.to/lastmile_qr_scan", "ios": "https://dc.lft.to/lastmile_qr_scan"}, "fusion_lon": 0.0, "lat": 38.896137, "bike_id": "7f7c64bb29ae59bab35d9b97f815ffe8", "type": "electric_scooter", "is_reserved": 0, "lon": -76.994176}, {"fusion_lat": 0.0, "name": "4d0a95d4feb225a80ee6ce3f112543b8", "is_disabled": 0, "rental_uris": {"android": "https://dc.lft.to/lastmile_qr_scan", "ios": "https://dc.lft.to/lastmile_qr_scan"}, "fusion_lon": 0.0, "lat": 38.9024535, "bike_id": "4d0a95d4feb225a80ee6ce3f112543b8", "type": "electric_scooter", "is_reserved": 0, "lon": -76.9867215}, {"fusion_lat": 0.0, "name": "4263c941f3da883c69ace10e98ac8983", "is_disabled": 0, "rental_uris": {"android": "https://dc.lft.to/lastmile_qr_scan", "ios": "https://dc.lft.to/lastmile_qr_scan"}, "fusion_lon": 0.0, "lat": 38.91601583333333, "bike_id": "4263c941f3da883c69ace10e98ac8983", "type": "electric_scooter", "is_reserved": 0, "lon": -77.031843}, {"fusion_lat": 0.0, "name": "fba2172ff35f8008a67cb3196219905c", "is_disabled": 0, "rental_uris": {"android": "https://dc.lft.to/lastmile_qr_scan", "ios": "https://dc.lft.to/lastmile_qr_scan"}, "fusion_lon": 0.0, "lat": 38.911171333333336, "bike_id": "fba2172ff35f8008a67cb3196219905c", "type": "electric_scooter", "is_reserved": 0, "lon": -77.04478166666667}, {"fusion_lat": 0.0, "name": "ad819824215ce3f3173e4e31e36780d7", "is_disabled": 0, "rental_uris": {"android": "https://dc.lft.to/lastmile_qr_scan", "ios": "https://dc.lft.to/lastmile_qr_scan"}, "fusion_lon": 0.0, "lat": 38.923504333333334, "bike_id": "ad819824215ce3f3173e4e31e36780d7", "type": "electric_scooter", "is_reserved": 0, "lon": -77.0339125}, {"fusion_lat": 0.0, "name": "e0057e75fc103c36c8bd5b867259a573", "is_disabled": 0, "rental_uris": {"android": "https://dc.lft.to/lastmile_qr_scan", "ios": "https://dc.lft.to/lastmile_qr_scan"}, "fusion_lon": 0.0, "lat": 38.9188045, "bike_id": "e0057e75fc103c36c8bd5b867259a573", "type": "electric_scooter", "is_reserved": 0, "lon": -77.02302216666666}, {"fusion_lat": 0.0, "name": "a5bb9349bfbe0d5ac39dabf1923fa6aa", "is_disabled": 0, "rental_uris": {"android": "https://dc.lft.to/lastmile_qr_scan", "ios": "https://dc.lft.to/lastmile_qr_scan"}, "fusion_lon": 0.0, "lat": 38.88230266666667, "bike_id": "a5bb9349bfbe0d5ac39dabf1923fa6aa", "type": "electric_scooter", "is_reserved": 0, "lon": -77.02616416666666}, {"fusion_lat": 0.0, "name": "48054c43d1f1ebe241ac9711db5d4ccb", "is_disabled": 0, "rental_uris": {"android": "https://dc.lft.to/lastmile_qr_scan", "ios": "https://dc.lft.to/lastmile_qr_scan"}, "fusion_lon": 0.0, "lat": 38.89996633333333, "bike_id": "48054c43d1f1ebe241ac9711db5d4ccb", "type": "electric_scooter", "is_reserved": 0, "lon": -76.99011916666667}, {"fusion_lat": 0.0, "name": "0493300f47a483723bae6ca8d7f5d91e", "is_disabled": 0, "rental_uris": {"android": "https://dc.lft.to/lastmile_qr_scan", "ios": "https://dc.lft.to/lastmile_qr_scan"}, "fusion_lon": 0.0, "lat": 38.928546, "bike_id": "0493300f47a483723bae6ca8d7f5d91e", "type": "electric_scooter", "is_reserved": 0, "lon": -77.03269066666667}, {"fusion_lat": 0.0, "name": "d3d44a28a31a11364566e4d95dc30794", "is_disabled": 0, "rental_uris": {"android": "https://dc.lft.to/lastmile_qr_scan", "ios": "https://dc.lft.to/lastmile_qr_scan"}, "fusion_lon": 0.0, "lat": 38.96490133333333, "bike_id": "d3d44a28a31a11364566e4d95dc30794", "type": "electric_bike", "is_reserved": 0, "lon": -77.02210433333333}, {"fusion_lat": 0.0, "name": "2c2670312761d11391c7cb6e36ff1e1a", "is_disabled": 0, "rental_uris": {"android": "https://dc.lft.to/lastmile_qr_scan", "ios": "https://dc.lft.to/lastmile_qr_scan"}, "fusion_lon": 0.0, "lat": 38.901361666666666, "bike_id": "2c2670312761d11391c7cb6e36ff1e1a", "type": "electric_scooter", "is_reserved": 0, "lon": -77.023011}, {"fusion_lat": 0.0, "name": "d947ee6f24b02d1f5ff377c9c371ebbf", "is_disabled": 0, "rental_uris": {"android": "https://dc.lft.to/lastmile_qr_scan", "ios": "https://dc.lft.to/lastmile_qr_scan"}, "fusion_lon": 0.0, "lat": 38.927629, "bike_id": "d947ee6f24b02d1f5ff377c9c371ebbf", "type": "electric_scooter", "is_reserved": 0, "lon": -77.02787533333333}, {"fusion_lat": 0.0, "name": "da376294c562d364b8f7ef7ec6e34dab", "is_disabled": 0, "rental_uris": {"android": "https://dc.lft.to/lastmile_qr_scan", "ios": "https://dc.lft.to/lastmile_qr_scan"}, "fusion_lon": 0.0, "lat": 38.92255133333333, "bike_id": "da376294c562d364b8f7ef7ec6e34dab", "type": "electric_scooter", "is_reserved": 0, "lon": -77.035287}, {"fusion_lat": 0.0, "name": "b6b3128036301943f18328c80f85e865", "is_disabled": 0, "rental_uris": {"android": "https://dc.lft.to/lastmile_qr_scan", "ios": "https://dc.lft.to/lastmile_qr_scan"}, "fusion_lon": 0.0, "lat": 38.898777333333335, "bike_id": "b6b3128036301943f18328c80f85e865", "type": "electric_scooter", "is_reserved": 0, "lon": -76.93182783333333}, {"fusion_lat": 0.0, "name": "c6fddf32ca857c1a283936b904609613", "is_disabled": 0, "rental_uris": {"android": "https://dc.lft.to/lastmile_qr_scan", "ios": "https://dc.lft.to/lastmile_qr_scan"}, "fusion_lon": 0.0, "lat": 38.91715116666666, "bike_id": "c6fddf32ca857c1a283936b904609613", "type": "electric_scooter", "is_reserved": 0, "lon": -77.0249025}, {"fusion_lat": 0.0, "name": "45a7493bd6e2cf7f05c8882ceefd2c87", "is_disabled": 0, "rental_uris": {"android": "https://dc.lft.to/lastmile_qr_scan", "ios": "https://dc.lft.to/lastmile_qr_scan"}, "fusion_lon": 0.0, "lat": 38.924347166666664, "bike_id": "45a7493bd6e2cf7f05c8882ceefd2c87", "type": "electric_scooter", "is_reserved": 0, "lon": -77.02020966666667}, {"fusion_lat": 0.0, "name": "fac13e4d3c4e232668d3b62ef41320d8", "is_disabled": 0, "rental_uris": {"android": "https://dc.lft.to/lastmile_qr_scan", "ios": "https://dc.lft.to/lastmile_qr_scan"}, "fusion_lon": 0.0, "lat": 38.87814316666667, "bike_id": "fac13e4d3c4e232668d3b62ef41320d8", "type": "electric_scooter", "is_reserved": 0, "lon": -77.01327266666667}, {"fusion_lat": 0.0, "name": "ca463bf812df3ef6f3c50cdaa3516d4e", "is_disabled": 0, "rental_uris": {"android": "https://dc.lft.to/lastmile_qr_scan", "ios": "https://dc.lft.to/lastmile_qr_scan"}, "fusion_lon": 0.0, "lat": 38.880471666666665, "bike_id": "ca463bf812df3ef6f3c50cdaa3516d4e", "type": "electric_scooter", "is_reserved": 0, "lon": -77.00528033333333}, {"fusion_lat": 0.0, "name": "58be3a3174d16b9a30edfc5535c9b066", "is_disabled": 0, "rental_uris": {"android": "https://dc.lft.to/lastmile_qr_scan", "ios": "https://dc.lft.to/lastmile_qr_scan"}, "fusion_lon": 0.0, "lat": 38.92591183333333, "bike_id": "58be3a3174d16b9a30edfc5535c9b066", "type": "electric_scooter", "is_reserved": 0, "lon": -77.07328283333334}, {"fusion_lat": 0.0, "name": "94b50c1a056656b615962bc911dded72", "is_disabled": 0, "rental_uris": {"android": "https://dc.lft.to/lastmile_qr_scan", "ios": "https://dc.lft.to/lastmile_qr_scan"}, "fusion_lon": 0.0, "lat": 38.914039333333335, "bike_id": "94b50c1a056656b615962bc911dded72", "type": "electric_scooter", "is_reserved": 0, "lon": -77.03183833333334}, {"fusion_lat": 0.0, "name": "0ba816972ccadc8a3a9720c82516143e", "is_disabled": 0, "rental_uris": {"android": "https://dc.lft.to/lastmile_qr_scan", "ios": "https://dc.lft.to/lastmile_qr_scan"}, "fusion_lon": 0.0, "lat": 38.88703533333333, "bike_id": "0ba816972ccadc8a3a9720c82516143e", "type": "electric_scooter", "is_reserved": 0, "lon": -76.99677}, {"fusion_lat": 0.0, "name": "51a3caa4de405c4573ebc9bdcca5d168", "is_disabled": 0, "rental_uris": {"android": "https://dc.lft.to/lastmile_qr_scan", "ios": "https://dc.lft.to/lastmile_qr_scan"}, "fusion_lon": 0.0, "lat": 38.91573616666667, "bike_id": "51a3caa4de405c4573ebc9bdcca5d168", "type": "electric_scooter", "is_reserved": 0, "lon": -77.0228835}, {"fusion_lat": 0.0, "name": "3d98e406bcfe24902e0e3b8e1533d702", "is_disabled": 0, "rental_uris": {"android": "https://dc.lft.to/lastmile_qr_scan", "ios": "https://dc.lft.to/lastmile_qr_scan"}, "fusion_lon": 0.0, "lat": 38.92318483333333, "bike_id": "3d98e406bcfe24902e0e3b8e1533d702", "type": "electric_scooter", "is_reserved": 0, "lon": -77.0579215}, {"fusion_lat": 0.0, "name": "fe266befac55d80191a6889c21132596", "is_disabled": 0, "rental_uris": {"android": "https://dc.lft.to/lastmile_qr_scan", "ios": "https://dc.lft.to/lastmile_qr_scan"}, "fusion_lon": 0.0, "lat": 38.916413166666665, "bike_id": "fe266befac55d80191a6889c21132596", "type": "electric_scooter", "is_reserved": 0, "lon": -77.032138}, {"fusion_lat": 0.0, "name": "62114567ecc72ff9bedf79478d251481", "is_disabled": 0, "rental_uris": {"android": "https://dc.lft.to/lastmile_qr_scan", "ios": "https://dc.lft.to/lastmile_qr_scan"}, "fusion_lon": 0.0, "lat": 38.93441133333334, "bike_id": "62114567ecc72ff9bedf79478d251481", "type": "electric_scooter", "is_reserved": 0, "lon": -77.038689}, {"fusion_lat": 0.0, "name": "e4a79d7aa3e4466d0d02a628e8d7b875", "is_disabled": 0, "rental_uris": {"android": "https://dc.lft.to/lastmile_qr_scan", "ios": "https://dc.lft.to/lastmile_qr_scan"}, "fusion_lon": 0.0, "lat": 38.9229105, "bike_id": "e4a79d7aa3e4466d0d02a628e8d7b875", "type": "electric_scooter", "is_reserved": 0, "lon": -77.02248166666666}, {"fusion_lat": 0.0, "name": "6142c289b0acc408927c62f18188da2c", "is_disabled": 0, "rental_uris": {"android": "https://dc.lft.to/lastmile_qr_scan", "ios": "https://dc.lft.to/lastmile_qr_scan"}, "fusion_lon": 0.0, "lat": 38.91694183333333, "bike_id": "6142c289b0acc408927c62f18188da2c", "type": "electric_scooter", "is_reserved": 0, "lon": -77.034986}, {"fusion_lat": 0.0, "name": "29eedf8b654d61ce16ce0b9527a6d31e", "is_disabled": 0, "rental_uris": {"android": "https://dc.lft.to/lastmile_qr_scan", "ios": "https://dc.lft.to/lastmile_qr_scan"}, "fusion_lon": 0.0, "lat": 38.892583333333334, "bike_id": "29eedf8b654d61ce16ce0b9527a6d31e", "type": "electric_scooter", "is_reserved": 0, "lon": -77.05024433333334}, {"fusion_lat": 0.0, "name": "9ebb64f358c1306f07cfeb107379ed17", "is_disabled": 0, "rental_uris": {"android": "https://dc.lft.to/lastmile_qr_scan", "ios": "https://dc.lft.to/lastmile_qr_scan"}, "fusion_lon": 0.0, "lat": 38.97376966666667, "bike_id": "9ebb64f358c1306f07cfeb107379ed17", "type": "electric_scooter", "is_reserved": 0, "lon": -77.01283066666667}, {"fusion_lat": 0.0, "name": "ca9a831a5d8f8ebc0469f48b323159c6", "is_disabled": 0, "rental_uris": {"android": "https://dc.lft.to/lastmile_qr_scan", "ios": "https://dc.lft.to/lastmile_qr_scan"}, "fusion_lon": 0.0, "lat": 38.908691166666664, "bike_id": "ca9a831a5d8f8ebc0469f48b323159c6", "type": "electric_scooter", "is_reserved": 0, "lon": -77.00363533333334}, {"fusion_lat": 0.0, "name": "6da333a7b0f15ab5bfb1b5a4178a0032", "is_disabled": 0, "rental_uris": {"android": "https://dc.lft.to/lastmile_qr_scan", "ios": "https://dc.lft.to/lastmile_qr_scan"}, "fusion_lon": 0.0, "lat": 38.924343666666665, "bike_id": "6da333a7b0f15ab5bfb1b5a4178a0032", "type": "electric_scooter", "is_reserved": 0, "lon": -77.044637}, {"fusion_lat": 0.0, "name": "46b5130321e92ac0fd69c50b1187bd6d", "is_disabled": 0, "rental_uris": {"android": "https://dc.lft.to/lastmile_qr_scan", "ios": "https://dc.lft.to/lastmile_qr_scan"}, "fusion_lon": 0.0, "lat": 38.96182116666667, "bike_id": "46b5130321e92ac0fd69c50b1187bd6d", "type": "electric_bike", "is_reserved": 0, "lon": -77.05266633333333}, {"fusion_lat": 0.0, "name": "7a0a7406f7cb5d4d93fd1369d19a8d63", "is_disabled": 0, "rental_uris": {"android": "https://dc.lft.to/lastmile_qr_scan", "ios": "https://dc.lft.to/lastmile_qr_scan"}, "fusion_lon": 0.0, "lat": 38.91252183333334, "bike_id": "7a0a7406f7cb5d4d93fd1369d19a8d63", "type": "electric_scooter", "is_reserved": 0, "lon": -77.02955816666666},