{"data": {"bikes": [{"fusion_lat": 0.0, "type": "electric_bike", "bike_id": "8dcc3ef199990dea7fbdd1819b4c4586", "lat": 38.90014433333333, "name": "8dcc3ef199990dea7fbdd1819b4c4586", "is_disabled": 0, "rental_uris": {"android": "https://dc.lft.to/lastmile_qr_scan", "ios": "https://dc.lft.to/lastmile_qr_scan"}, "fusion_lon": 0.0, "lon": -77.04284, "is_reserved": 0}, {"fusion_lat": 0.0, "type": "electric_scooter", "bike_id": "c31e3371a3f0031965792723645fbded", "lat": 38.892254333333334, "name": "c31e3371a3f0031965792723645fbded", "is_disabled": 0, "rental_uris": {"android": "https://dc.lft.to/lastmile_qr_scan", "ios": "https://dc.lft.to/lastmile_qr_scan"}, "fusion_lon": 0.0, "lon": -77.02542566666666, "is_reserved": 0}, {"fusion_lat": 0.0, "type": "electric_scooter", "bike_id": "352efe510444c55f308403fc360bb76f", "lat": 38.884322166666664, "name": "352efe510444c55f308403fc360bb76f", "is_disabled": 0, "rental_uris": {"android": "https://dc.lft.to/lastmile_qr_scan", "ios": "https://dc.lft.to/lastmile_qr_scan"}, "fusion_lon": 0.0, "lon": -77.03048533333333, "is_reserved": 0}, {"fusion_lat": 0.0, "type": "electric_scooter", "bike_id": "f5560e52bfd6f6d709194b788216c23e", "lat": 38.89727, "name": "f5560e52bfd6f6d709194b788216c23e", "is_disabled": 0, "rental_uris": {"android": "https://dc.lft.to/lastmile_qr_scan", "ios": "https://dc.lft.to/lastmile_qr_scan"}, "fusion_lon": 0.0, "lon": -77.04076416666666, "is_reserved": 0}, {"fusion_lat": 0.0, "type": "electric_scooter", "bike_id": "31540bbd975d8d8c932e9e11d20bc5cb", "lat": 38.931847833333336, "name": "31540bbd975d8d8c932e9e11d20bc5cb", "is_disabled": 0, "rental_uris": {"android": "https://dc.lft.to/lastmile_qr_scan", "ios": "https://dc.lft.to/lastmile_qr_scan"}, "fusion_lon": 0.0, "lon": -77.03698166666666, "is_reserved": 0}, {"fusion_lat": 0.0, "type": "electric_scooter", "bike_id": "ef346b9d0ee263b7e5bd86480d8dde5c", "lat": 38.896117, "name": "ef346b9d0ee263b7e5bd86480d8dde5c", "is_disabled": 0, "rental_uris": {"android": "https://dc.lft.to/lastmile_qr_scan", "ios": "https://dc.lft.to/lastmile_qr_scan"}, "fusion_lon": 0.0, "lon": -77.02375783333333, "is_reserved": 0}, {"fusion_lat": 0.0, "type": "electric_scooter", "bike_id": "6e534c33498d91dfab66fe50df2a1058", "lat": 38.89620083333333, "name": "6e534c33498d91dfab66fe50df2a1058", "is_disabled": 0, "rental_uris": {"android": "https://dc.lft.to/lastmile_qr_scan", "ios": "https://dc.lft.to/lastmile_qr_scan"}, "fusion_lon": 0.0, "lon": -76.98564516666667, "is_reserved": 0}, {"fusion_lat": 0.0, "type": "electric_scooter", "bike_id": "6146844d736b309099879f179180581d", "lat": 38.89199283333333, "name": "6146844d736b309099879f179180581d", "is_disabled": 0, "rental_uris": {"android": "https://dc.lft.to/lastmile_qr_scan", "ios": "https://dc.lft.to/lastmile_qr_scan"}, "fusion_lon": 0.0, "lon": -77.02375683333334, "is_reserved": 0}, {"fusion_lat": 0.0, "type": "electric_scooter", "bike_id": "0624db2f012926eeb75f0f3a7b7ab44a", "lat": 38.91409016666667, "name": "0624db2f012926eeb75f0f3a7b7ab44a", "is_disabled": 0, "rental_uris": {"android": "https://dc.lft.to/lastmile_qr_scan", "ios": "https://dc.lft.to/lastmile_qr_scan"}, "fusion_lon": 0.0, "lon": -77.01015933333333, "is_reserved": 0}, {"fusion_lat": 0.0, "type": "electric_scooter", "bike_id": "d361b10ebaf3a49b16545279c7f8f278", "lat": 38.92335966666667, "name": "d361b10ebaf3a49b16545279c7f8f278", "is_disabled": 0, "rental_uris": {"android": "https://dc.lft.to/lastmile_qr_scan", "ios": "https://dc.lft.to/lastmile_qr_scan"}, "fusion_lon": 0.0, "lon": -77.056777, "is_reserved": 0}, {"fusion_lat": 0.0, "type": "electric_scooter", "bike_id": "ad6efbd07c9d5f1594ec0a66cd1352b7", "lat": 38.90636083333333, "name": "ad6efbd07c9d5f1594ec0a66cd1352b7", "is_disabled": 0, "rental_uris": {"android": "https://dc.lft.to/lastmile_qr_scan", "ios": "https://dc.lft.to/lastmile_qr_scan"}, "fusion_lon": 0.0, "lon": -77.0515025, "is_reserved": 0}, {"fusion_lat": 0.0, "type": "electric_scooter", "bike_id": "63962ba391969c9e7902c15c16fa51fb", "lat": 38.906455333333334, "name": "63962ba391969c9e7902c15c16fa51fb", "is_disabled": 0, "rental_uris": {"android": "https://dc.lft.to/lastmile_qr_scan", "ios": "https://dc.lft.to/lastmile_qr_scan"}, "fusion_lon": 0.0, "lon": -77.05337716666666, "is_reserved": 0}, {"fusion_lat": 0.0, "type": "electric_scooter", "bike_id": "21be4c23ec47947a9169c9adb86cdadf", "lat": 38.90866716666667, "name": "21be4c23ec47947a9169c9adb86cdadf", "is_disabled": 0, "rental_uris": {"android": "https://dc.lft.to/lastmile_qr_scan", "ios": "https://dc.lft.to/lastmile_qr_scan"}, "fusion_lon": 0.0, "lon": -77.0709565, "is_reserved": 0}, {"fusion_lat": 0.0, "type": "electric_bike", "bike_id": "e61bcde94ca3e4036bb1d9c2937a93f9", "lat": 38.85304683333333, "name": "e61bcde94ca3e4036bb1d9c2937a93f9", "is_disabled": 0, "rental_uris": {"android": "https://dc.lft.to/lastmile_qr_scan", "ios": "https://dc.lft.to/lastmile_qr_scan"}, "fusion_lon": 0.0, "lon": -77.04970683333333, "is_reserved": 0}, {"fusion_lat": 0.0, "type": "electric_bike", "bike_id": "01d93c768894e2a3fba61576a3cdadd9", "lat": 38.85068916666667, "name": "01d93c768894e2a3fba61576a3cdadd9", "is_disabled": 0, "rental_uris": {"android": "https://dc.lft.to/lastmile_qr_scan", "ios": "https://dc.lft.to/lastmile_qr_scan"}, "fusion_lon": 0.0, "lon": -76.958296, "is_reserved": 0}, {"fusion_lat": 0.0, "type": "electric_scooter", "bike_id": "02d2f39767e617e9f2660e7c37eb8ba7", "lat": 38.932885666666664, "name": "02d2f39767e617e9f2660e7c37eb8ba7", "is_disabled": 0, "rental_uris": {"android": "https://dc.lft.to/lastmile_qr_scan", "ios": "https://dc.lft.to/lastmile_qr_scan"}, "fusion_lon": 0.0, "lon": -77.03988283333334, "is_reserved": 0}, {"fusion_lat": 0.0, "type": "electric_scooter", "bike_id": "78acdaf24d722af8573ae263261eaa8e", "lat": 38.904346833333335, "name": "78acdaf24d722af8573ae263261eaa8e", "is_disabled": 0, "rental_uris": {"android": "https://dc.lft.to/lastmile_qr_scan", "ios": "https://dc.lft.to/lastmile_qr_scan"}, "fusion_lon": 0.0, "lon": -77.05337933333334, "is_reserved": 0}, {"fusion_lat": 0.0, "type": "electric_scooter", "bike_id": "0785621468e8b9a4d389e770a9454fb4", "lat": 38.899193833333335, "name": "0785621468e8b9a4d389e770a9454fb4", "is_disabled": 0, "rental_uris": {"android": "https://dc.lft.to/lastmile_qr_scan", "ios": "https://dc.lft.to/lastmile_qr_scan"}, "fusion_lon": 0.0, "lon": -77.04181683333333, "is_reserved": 0}, {"fusion_lat": 0.0, "type": "electric_scooter", "bike_id": "e5797e4ace8519b79aead347116a9988", "lat": 38.925484833333336, "name": "e5797e4ace8519b79aead347116a9988", "is_disabled": 0, "rental_uris": {"android": "https://dc.lft.to/lastmile_qr_scan", "ios": "https://dc.lft.to/lastmile_qr_scan"}, "fusion_lon": 0.0, "lon": -77.02280883333333, "is_reserved": 0}, {"fusion_lat": 0.0, "type": "electric_scooter", "bike_id": "f4628c132b4c253c8565794bcf1a313b", "lat": 38.924725, "name": "f4628c132b4c253c8565794bcf1a313b", "is_disabled": 0, "rental_uris": {"android": "https://dc.lft.to/lastmile_qr_scan", "ios": "https://dc.lft.to/lastmile_qr_scan"}, "fusion_lon": 0.0, "lon": -77.0220155, "is_reserved": 0}, {"fusion_lat": 0.0, "type": "electric_scooter", "bike_id": "289b574732cdefb5b1ae1ed52b164a6a", "lat": 38.91657516666667, "name": "289b574732cdefb5b1ae1ed52b164a6a", "is_disabled": 0, "rental_uris": {"android": "https://dc.lft.to/lastmile_qr_scan", "ios": "https://dc.lft.to/lastmile_qr_scan"}, "fusion_lon": 0.0, "lon": -77.02253133333333, "is_reserved": 0}, {"fusion_lat": 0.0, "type": "electric_scooter", "bike_id": "e2694a1ec59c184e05d7e6b99db30342", "lat": 38.926162, "name": "e2694a1ec59c184e05d7e6b99db30342", "is_disabled": 0, "rental_uris": {"android": "https://dc.lft.to/lastmile_qr_scan", "ios": "https://dc.lft.to/lastmile_qr_scan"}, "fusion_lon": 0.0, "lon": -77.0216415, "is_reserved": 0}, {"fusion_lat": 0.0, "type": "electric_scooter", "bike_id": "3674a6c85678318c97a81fb56137f4cb", "lat": 38.884296666666664, "name": "3674a6c85678318c97a81fb56137f4cb", "is_disabled": 0, "rental_uris": {"android": "https://dc.lft.to/lastmile_qr_scan", "ios": "https://dc.lft.to/lastmile_qr_scan"}, "fusion_lon": 0.0, "lon": -76.99595866666667, "is_reserved": 0}, {"fusion_lat": 0.0, "type": "electric_scooter", "bike_id": "84ba88fc64b160e506774c83a60d5260", "lat": 38.9210805, "name": "84ba88fc64b160e506774c83a60d5260", "is_disabled": 0, "rental_uris": {"android": "https://dc.lft.to/lastmile_qr_scan", "ios": "https://dc.lft.to/lastmile_qr_scan"}, "fusion_lon": 0.0, "lon": -77.04014266666667, "is_reserved": 0}, {"fusion_lat": 0.0, "type": "electric_scooter", "bike_id": "a48fe9e9a9ee5b3ac92f2751c10de380", "lat": 38.9290065, "name": "a48fe9e9a9ee5b3ac92f2751c10de380", "is_disabled": 0, "rental_uris": {"android": "https://dc.lft.to/lastmile_qr_scan", "ios": "https://dc.lft.to/lastmile_qr_scan"}, "fusion_lon": 0.0, "lon": -77.0167235, "is_reserved": 0}, {"fusion_lat": 0.0, "type": "electric_scooter", "bike_id": "11c04d8b06fac6bac61b7f506e7f2af0", "lat": 38.91912033333333, "name": "11c04d8b06fac6bac61b7f506e7f2af0", "is_disabled": 0, "rental_uris": {"android": "https://dc.lft.to/lastmile_qr_scan", "ios": "https://dc.lft.to/lastmile_qr_scan"}, "fusion_lon": 0.0, "lon": -77.021392, "is_reserved": 0}, {"fusion_lat": 0.0, "type": "electric_scooter", "bike_id": "f055543da43fe4f675b2c65b8c501034", "lat": 38.91712183333333, "name": "f055543da43fe4f675b2c65b8c501034", "is_disabled": 0, "rental_uris": {"android": "https://dc.lft.to/lastmile_qr_scan", "ios": "https://dc.lft.to/lastmile_qr_scan"}, "fusion_lon": 0.0, "lon": -77.03507916666666, "is_reserved": 0}, {"fusion_lat": 0.0, "type": "electric_bike", "bike_id": "f5c41b2540e7de700e01f45a17cca0a4", "lat": 38.90020783333333, "name": "f5c41b2540e7de700e01f45a17cca0a4", "is_disabled": 0, "rental_uris": {"android": "https://dc.lft.to/lastmile_qr_scan", "ios": "https://dc.lft.to/lastmile_qr_scan"}, "fusion_lon": 0.0, "lon": -77.02980666666667, "is_reserved": 0}, {"fusion_lat": 0.0, "type": "electric_scooter", "bike_id": "794dfb3d3bf8929bf767c3ae498bdf5f", "lat": 38.90493583333333, "name": "794dfb3d3bf8929bf767c3ae498bdf5f", "is_disabled": 0, "rental_uris": {"android": "https://dc.lft.to/lastmile_qr_scan", "ios": "https://dc.lft.to/lastmile_qr_scan"}, "fusion_lon": 0.0, "lon": -77.03461916666667, "is_reserved": 0}, {"fusion_lat": 0.0, "type": "electric_scooter", "bike_id": "7786c75aa95310b32639dc9bc8f8c3c4", "lat": 38.900172833333336, "name": "7786c75aa95310b32639dc9bc8f8c3c4", "is_disabled": 0, "rental_uris": {"android": "https://dc.lft.to/lastmile_qr_scan", "ios": "https://dc.lft.to/lastmile_qr_scan"}, "fusion_lon": 0.0, "lon": -77.0340785, "is_reserved": 0}, {"fusion_lat": 0.0, "type": "electric_scooter", "bike_id": "01e8a7bd1062374cacaf130f922bf333", "lat": 38.8886305, "name": "01e8a7bd1062374cacaf130f922bf333", "is_disabled": 0, "rental_uris": {"android": "https://dc.lft.to/lastmile_qr_scan", "ios": "https://dc.lft.to/lastmile_qr_scan"}, "fusion_lon": 0.0, "lon": -76.93713433333333, "is_reserved": 0}, {"fusion_lat": 0.0, "type": "electric_scooter", "bike_id": "f8ea3b91bed60039b8a70c0eabbb7c6f", "lat": 38.8935425, "name": "f8ea3b91bed60039b8a70c0eabbb7c6f", "is_disabled": 0, "rental_uris": {"android": "https://dc.lft.to/lastmile_qr_scan", "ios": "https://dc.lft.to/lastmile_qr_scan"}, "fusion_lon": 0.0, "lon": -77.039732, "is_reserved": 0}, {"fusion_lat": 0.0, "type": "electric_scooter", "bike_id": "19831206e5b677326c13dd350b347bd0", "lat": 38.90760516666667, "name": "19831206e5b677326c13dd350b347bd0", "is_disabled": 0, "rental_uris": {"android": "https://dc.lft.to/lastmile_qr_scan", "ios": "https://dc.lft.to/lastmile_qr_scan"}, "fusion_lon": 0.0, "lon": -77.02441383333333, "is_reserved": 0}, {"fusion_lat": 0.0, "type": "electric_scooter", "bike_id": "d78cfa9f48e7c2a6c527d5a18fae801c", "lat": 38.923287333333334, "name": "d78cfa9f48e7c2a6c527d5a18fae801c", "is_disabled": 0, "rental_uris": {"android": "https://dc.lft.to/lastmile_qr_scan", "ios": "https://dc.lft.to/lastmile_qr_scan"}, "fusion_lon": 0.0, "lon": -77.019515, "is_reserved": 0}, {"fusion_lat": 0.0, "type": "electric_scooter", "bike_id": "1d7c18906343d14b854d95a5c8159e8b", "lat": 38.904026, "name": "1d7c18906343d14b854d95a5c8159e8b", "is_disabled": 0, "rental_uris": {"android": "https://dc.lft.to/lastmile_qr_scan", "ios": "https://dc.lft.to/lastmile_qr_scan"}, "fusion_lon": 0.0, "lon": -77.06778316666667, "is_reserved": 0}, {"fusion_lat": 0.0, "type": "electric_scooter", "bike_id": "89ea415b49e802438a5d6480f766a0df", "lat": 38.9395255, "name": "89ea415b49e802438a5d6480f766a0df", "is_disabled": 0, "rental_uris": {"android": "https://dc.lft.to/lastmile_qr_scan", "ios": "https://dc.lft.to/lastmile_qr_scan"}, "fusion_lon": 0.0, "lon": -77.07240016666667, "is_reserved": 0}, {"fusion_lat": 0.0, "type": "electric_scooter", "bike_id": "14cc274d66fada3725be348dae167faf", "lat": 38.898458166666664, "name": "14cc274d66fada3725be348dae167faf", "is_disabled": 0, "rental_uris": {"android": "https://dc.lft.to/lastmile_qr_scan", "ios": "https://dc.lft.to/lastmile_qr_scan"}, "fusion_lon": 0.0, "lon": -77.01297266666667, "is_reserved": 0}, {"fusion_lat": 0.0, "type": "electric_scooter", "bike_id": "2d0aa2cfb2dd0c9c0cd12cc3dfb6e8e7", "lat": 38.897785, "name": "2d0aa2cfb2dd0c9c0cd12cc3dfb6e8e7", "is_disabled": 0, "rental_uris": {"android": "https://dc.lft.to/lastmile_qr_scan", "ios": "https://dc.lft.to/lastmile_qr_scan"}, "fusion_lon": 0.0, "lon": -77.026966, "is_reserved": 0}, {"fusion_lat": 0.0, "type": "electric_scooter", "bike_id": "72070522b4d59504f241f5b93175dfc2", "lat": 38.90793883333333, "name": "72070522b4d59504f241f5b93175dfc2", "is_disabled": 0, "rental_uris": {"android": "https://dc.lft.to/lastmile_qr_scan", "ios": "https://dc.lft.to/lastmile_qr_scan"}, "fusion_lon": 0.0, "lon": -77.03192216666666, "is_reserved": 0}, {"fusion_lat": 0.0, "type": "electric_bike", "bike_id": "f50ab4de382caac6fbdcd961f27f3357", "lat": 39.003034666666665, "name": "f50ab4de382caac6fbdcd961f27f3357", "is_disabled": 0, "rental_uris": {"android": "https://dc.lft.to/lastmile_qr_scan", "ios": "https://dc.lft.to/lastmile_qr_scan"}, "fusion_lon": 0.0, "lon": -76.9030295, "is_reserved": 0}, {"fusion_lat": 0.0, "type": "electric_bike", "bike_id": "82bf83241cfd289c9e87664956675744", "lat": 38.995235666666666, "name": "82bf83241cfd289c9e87664956675744", "is_disabled": 0, "rental_uris": {"android": "https://dc.lft.to/lastmile_qr_scan", "ios": "https://dc.lft.to/lastmile_qr_scan"}, "fusion_lon": 0.0, "lon": -77.02865833333334, "is_reserved": 0}, {"fusion_lat": 0.0, "type": "electric_scooter", "bike_id": "e150857085037a6b8d72afe53ef595e0", "lat": 38.876311333333334, "name": "e150857085037a6b8d72afe53ef595e0", "is_disabled": 0, "rental_uris": {"android": "https://dc.lft.to/lastmile_qr_scan", "ios": "https://dc.lft.to/lastmile_qr_scan"}, "fusion_lon": 0.0, "lon": -77.00376166666666, "is_reserved": 0}, {"fusion_lat": 0.0, "type": "electric_scooter", "bike_id": "23b3f901cc6de1abf7d3325fd375c9c2", "lat": 38.8916345, "name": "23b3f901cc6de1abf7d3325fd375c9c2", "is_disabled": 0, "rental_uris": {"android": "https://dc.lft.to/lastmile_qr_scan", "ios": "https://dc.lft.to/lastmile_qr_scan"}, "fusion_lon": 0.0, "lon": -77.01501166666667, "is_reserved": 0}, {"fusion_lat": 0.0, "type": "electric_scooter", "bike_id": "d40d27237413d802fe854584bfd116f2", "lat": 38.901899666666665, "name": "d40d27237413d802fe854584bfd116f2", "is_disabled": 0, "rental_uris": {"android": "https://dc.lft.to/lastmile_qr_scan", "ios": "https://dc.lft.to/lastmile_qr_scan"}, "fusion_lon": 0.0, "lon": -77.050844, "is_reserved": 0}, {"fusion_lat": 0.0, "type": "electric_scooter", "bike_id": "be013e7278f252b4254893287c13f3f1", "lat": 38.912701, "name": "be013e7278f252b4254893287c13f3f1", "is_disabled": 0, "rental_uris": {"android": "https://dc.lft.to/lastmile_qr_scan", "ios": "https://dc.lft.to/lastmile_qr_scan"}, "fusion_lon": 0.0, "lon": -77.022142, "is_reserved": 0}, {"fusion_lat": 0.0, "type": "electric_scooter", "bike_id": "4ef198ce8b7a44cc143abb19b21c5fef", "lat": 38.92141483333333, "name": "4ef198ce8b7a44cc143abb19b21c5fef", "is_disabled": 0, "rental_uris": {"android": "https://dc.lft.to/lastmile_qr_scan", "ios": "https://dc.lft.to/lastmile_qr_scan"}, "fusion_lon": 0.0, "lon": -77.01799516666667, "is_reserved": 0}, {"fusion_lat": 0.0, "type": "electric_scooter", "bike_id": "17057d690f094095b1a2c1fa3f25542b", "lat": 38.894781, "name": "17057d690f094095b1a2c1fa3f25542b", "is_disabled": 0, "rental_uris": {"android": "https://dc.lft.to/lastmile_qr_scan", "ios": "https://dc.lft.to/lastmile_qr_scan"}, "fusion_lon": 0.0, "lon": -77.0201945, "is_reserved": 0}, {"fusion_lat": 0.0, "type": "electric_bike", "bike_id": "f65610d90ae90043a3859381735f43cb", "lat": 39.085116166666666, "name": "f65610d90ae90043a3859381735f43cb", "is_disabled": 0, "rental_uris": {"android": "https://dc.lft.to/lastmile_qr_scan", "ios": "https://dc.lft.to/lastmile_qr_scan"}, "fusion_lon": 0.0, "lon": -76.95063016666667, "is_reserved": 0}, {"fusion_lat": 0.0, "type": "electric_scooter", "bike_id": "37dc8c4049ecb2afdee7fce374ccdd1f", "lat": 38.90835083333333, "name": "37dc8c4049ecb2afdee7fce374ccdd1f", "is_disabled": 0, "rental_uris": {"android": "https://dc.lft.to/lastmile_qr_scan", "ios": "https://dc.lft.to/lastmile_qr_scan"}, "fusion_lon": 0.0, "lon": -76.99699233333334, "is_reserved": 0}, {"fusion_lat": 0.0, "type": "electric_scooter", "bike_id": "53b06832a98bc8bafaf212fc5ae1489d", "lat": 38.98464283333333, "name": "53b06832a98bc8bafaf212fc5ae1489d", "is_disabled": 0, "rental_uris": {"android": "https://dc.lft.to/lastmile_qr_scan", "ios": "https://dc.lft.to/lastmile_qr_scan"}, "fusion_lon": 0.0, "lon": -77.026832, "is_reserved": 0}, {"fusion_lat": 0.0, "type": "electric_scooter", "bike_id": "299bdb2b9b723581e3a893627686f7d5", "lat": 38.901228833333334, "name": "299bdb2b9b723581e3a893627686f7d5", "is_disabled": 0, "rental_uris": {"android": "https://dc.lft.to/lastmile_qr_scan", "ios": "https://dc.lft.to/lastmile_qr_scan"}, "fusion_lon": 0.0, "lon": -77.044663, "is_reserved": 0}, {"fusion_lat": 0.0, "type": "electric_scooter", "bike_id": "fe3f421c93b1271bfb98485dd292bfb0", "lat": 38.89918216666667, "name": "fe3f421c93b1271bfb98485dd292bfb0", "is_disabled": 0, "rental_uris": {"android": "https://dc.lft.to/lastmile_qr_scan", "ios": "https://dc.lft.to/lastmile_qr_scan"}, "fusion_lon": 0.0, "lon": -77.0395345, "is_reserved": 0}, {"fusion_lat": 0.0, "type": "electric_scooter", "bike_id": "15cb6fc54351f276f3744e14fbb0c175", "lat": 38.9008055, "name": "15cb6fc54351f276f3744e14fbb0c175", "is_disabled": 0, "rental_uris": {"android": "https://dc.lft.to/lastmile_qr_scan", "ios": "https://dc.lft.to/lastmile_qr_scan"}, "fusion_lon": 0.0, "lon": -76.98024283333334, "is_reserved": 0}, {"fusion_lat": 0.0, "type": "electric_scooter", "bike_id": "3b9d36a23744e97081e2971c096be4a6", "lat": 38.9013605, "name": "3b9d36a23744e97081e2971c096be4a6", "is_disabled": 0, "rental_uris": {"android": "https://dc.lft.to/lastmile_qr_scan", "ios": "https://dc.lft.to/lastmile_qr_scan"}, "fusion_lon": 0.0, "lon": -77.0381605, "is_reserved": 0}, {"fusion_lat": 0.0, "type": "electric_scooter", "bike_id": "3f51934a009910ad698e005648c2d6a6", "lat": 38.917297, "name": "3f51934a009910ad698e005648c2d6a6", "is_disabled": 0, "rental_uris": {"android": "https://dc.lft.to/lastmile_qr_scan", "ios": "https://dc.lft.to/lastmile_qr_scan"}, "fusion_lon": 0.0, "lon": -77.0684885, "is_reserved": 0}, {"fusion_lat": 0.0, "type": "electric_scooter", "bike_id": "393fd41cd026c893b69d5ab5f25f1538", "lat": 38.867512833333336, "name": "393fd41cd026c893b69d5ab5f25f1538", "is_disabled": 0, "rental_uris": {"android": "https://dc.lft.to/lastmile_qr_scan", "ios": "https://dc.lft.to/lastmile_qr_scan"}, "fusion_lon": 0.0, "lon": -77.0014795, "is_reserved": 0}, {"fusion_lat": 0.0, "type": "electric_scooter", "bike_id": "97d4ca68f44255ba64c06cc8971559c9", "lat": 38.942811666666664, "name": "97d4ca68f44255ba64c06cc8971559c9", "is_disabled": 0, "rental_uris": {"android": "https://dc.lft.to/lastmile_qr_scan", "ios": "https://dc.lft.to/lastmile_qr_scan"}, "fusion_lon": 0.0, "lon": -77.0293905, "is_reserved": 0}, {"fusion_lat": 0.0, "type": "electric_scooter", "bike_id": "88539ecf0d16a1860fbb7af8f4a2aabc", "lat": 38.901129, "name": "88539ecf0d16a1860fbb7af8f4a2aabc", "is_disabled": 0, "rental_uris": {"android": "https://dc.lft.to/lastmile_qr_scan", "ios": "https://dc.lft.to/lastmile_qr_scan"}, "fusion_lon": 0.0, "lon": -77.044677, "is_reserved": 0}, {"fusion_lat": 0.0, "type": "electric_scooter", "bike_id": "d0208ab5bf45b3ebae13567d0ab438c4", "lat": 38.883116333333334, "name": "d0208ab5bf45b3ebae13567d0ab438c4", "is_disabled": 0, "rental_uris": {"android": "https://dc.lft.to/lastmile_qr_scan", "ios": "https://dc.lft.to/lastmile_qr_scan"}, "fusion_lon": 0.0, "lon": -77.00666733333334, "is_reserved": 0}, {"fusion_lat": 0.0, "type": "electric_scooter", "bike_id": "9539768ca7394b053b7058e458f1b77a", "lat": 38.930676, "name": "9539768ca7394b053b7058e458f1b77a", "is_disabled": 0, "rental_uris": {"android": "https://dc.lft.to/lastmile_qr_scan", "ios": "https://dc.lft.to/lastmile_qr_scan"}, "fusion_lon": 0.0, "lon": -77.03214666666666, "is_reserved": 0}, {"fusion_lat": 0.0, "type": "electric_scooter", "bike_id": "3827bfb27acdcf967e63f6a924675ac3", "lat": 38.922680166666666, "name": "3827bfb27acdcf967e63f6a924675ac3", "is_disabled": 0, "rental_uris": {"android": "https://dc.lft.to/lastmile_qr_scan", "ios": "https://dc.lft.to/lastmile_qr_scan"}, "fusion_lon": 0.0, "lon": -77.01948883333333, "is_reserved": 0}, {"fusion_lat": 0.0, "type": "electric_scooter", "bike_id": "6f388bdef771e152ae37185e03185294", "lat": 38.92727883333333, "name": "6f388bdef771e152ae37185e03185294", "is_disabled": 0, "rental_uris": {"android": "https://dc.lft.to/lastmile_qr_scan", "ios": "https://dc.lft.to/lastmile_qr_scan"}, "fusion_lon": 0.0, "lon": -77.02102266666667, "is_reserved": 0}, {"fusion_lat": 0.0, "type": "electric_scooter", "bike_id": "a93064006be5aa3ab228872e065cfec8", "lat": 38.91333633333333, "name": "a93064006be5aa3ab228872e065cfec8", "is_disabled": 0, "rental_uris": {"android": "https://dc.lft.to/lastmile_qr_scan", "ios": "https://dc.lft.to/lastmile_qr_scan"}, "fusion_lon": 0.0, "lon": -77.0453445, "is_reserved": 0}, {"fusion_lat": 0.0, "type": "electric_scooter", "bike_id": "5b75e6c99bd9e8dd816e4ecf61f9792a", "lat": 38.898307333333335, "name": "5b75e6c99bd9e8dd816e4ecf61f9792a", "is_disabled": 0, "rental_uris": {"android": "https://dc.lft.to/lastmile_qr_scan", "ios": "https://dc.lft.to/lastmile_qr_scan"}, "fusion_lon": 0.0, "lon": -77.02860333333334, "is_reserved": 0}, {"fusion_lat": 0.0, "type": "electric_scooter", "bike_id": "3f6241e4153cdef43312af8fa9a1fb61", "lat": 38.906705333333335, "name": "3f6241e4153cdef43312af8fa9a1fb61", "is_disabled": 0, "rental_uris": {"android": "https://dc.lft.to/lastmile_qr_scan", "ios": "https://dc.lft.to/lastmile_qr_scan"}, "fusion_lon": 0.0, "lon": -77.043477, "is_reserved": 0}, {"fusion_lat": 0.0, "type": "electric_scooter", "bike_id": "3dc91861c99e9a6ad1a390eaa8ca9472", "lat": 38.911874, "name": "3dc91861c99e9a6ad1a390eaa8ca9472", "is_disabled": 0, "rental_uris": {"android": "https://dc.lft.to/lastmile_qr_scan", "ios": "https://dc.lft.to/lastmile_qr_scan"}, "fusion_lon": 0.0, "lon": -77.06084183333333, "is_reserved": 0}, {"fusion_lat": 0.0, "type": "electric_scooter", "bike_id": "2f02970074fe33e7513c3028ae616bf5", "lat": 38.914056, "name": "2f02970074fe33e7513c3028ae616bf5", "is_disabled": 0, "rental_uris": {"android": "https://dc.lft.to/lastmile_qr_scan", "ios": "https://dc.lft.to/lastmile_qr_scan"}, "fusion_lon": 0.0, "lon": -77.03251066666667, "is_reserved": 0}, {"fusion_lat": 0.0, "type": "electric_scooter", "bike_id": "80b00d6781703f2240e8df1e24eb2f36", "lat": 38.90600366666666, "name": "80b00d6781703f2240e8df1e24eb2f36", "is_disabled": 0, "rental_uris": {"android": "https://dc.lft.to/lastmile_qr_scan", "ios": "https://dc.lft.to/lastmile_qr_scan"}, "fusion_lon": 0.0, "lon": -77.0404405, "is_reserved": 0}, {"fusion_lat": 0.0, "type": "electric_scooter", "bike_id": "8c7f7536cc2720a828c0bf092420d2b6", "lat": 38.887531833333334, "name": "8c7f7536cc2720a828c0bf092420d2b6", "is_disabled": 0, "rental_uris": {"android": "https://dc.lft.to/lastmile_qr_scan", "ios": "https://dc.lft.to/lastmile_qr_scan"}, "fusion_lon": 0.0, "lon": -77.0314625, "is_reserved": 0}, {"fusion_lat": 0.0, "type": "electric_scooter", "bike_id": "d6975e3b6ba55d69986b2b0797e45b95", "lat": 38.967994166666664, "name": "d6975e3b6ba55d69986b2b0797e45b95", "is_disabled": 0, "rental_uris": {"android": "https://dc.lft.to/lastmile_qr_scan", "ios": "https://dc.lft.to/lastmile_qr_scan"}, "fusion_lon": 0.0, "lon": -77.02414666666667, "is_reserved": 0}, {"fusion_lat": 0.0, "type": "electric_scooter", "bike_id": "459f2d0e0504e2b10b3cffaf11f5c09a", "lat": 38.88578233333333, "name": "459f2d0e0504e2b10b3cffaf11f5c09a", "is_disabled": 0, "rental_uris": {"android": "https://dc.lft.to/lastmile_qr_scan", "ios": "https://dc.lft.to/lastmile_qr_scan"}, "fusion_lon": 0.0, "lon": -77.00050483333334, "is_reserved": 0}, {"fusion_lat": 0.0, "type": "electric_scooter", "bike_id": "2904cf8788a53c4228c11413ebbcf0ee", "lat": 38.921594999999996, "name": "2904cf8788a53c4228c11413ebbcf0ee", "is_disabled": 0, "rental_uris": {"android": "https://dc.lft.to/lastmile_qr_scan", "ios": "https://dc.lft.to/lastmile_qr_scan"}, "fusion_lon": 0.0, "lon": -77.0332975, "is_reserved": 0}, {"fusion_lat": 0.0, "type": "electric_scooter", "bike_id": "840e46cfe2922f188fa64081d35104ab", "lat": 38.8845585, "name": "840e46cfe2922f188fa64081d35104ab", "is_disabled": 0, "rental_uris": {"android": "https://dc.lft.to/lastmile_qr_scan", "ios": "https://dc.lft.to/lastmile_qr_scan"}, "fusion_lon": 0.0, "lon": -76.92964183333333, "is_reserved": 0}, {"fusion_lat": 0.0, "type": "electric_scooter", "bike_id": "a05f7768891f41d3ce76c70f7ac41265", "lat": 38.949196666666666, "name": "a05f7768891f41d3ce76c70f7ac41265", "is_disabled": 0, "rental_uris": {"android": "https://dc.lft.to/lastmile_qr_scan", "ios": "https://dc.lft.to/lastmile_qr_scan"}, "fusion_lon": 0.0, "lon": -77.018569, "is_reserved": 0}, {"fusion_lat": 0.0, "type": "electric_scooter", "bike_id": "2ebd6bbfb8a648538bdc58f61732481d", "lat": 38.903882, "name": "2ebd6bbfb8a648538bdc58f61732481d", "is_disabled": 0, "rental_uris": {"android": "https://dc.lft.to/lastmile_qr_scan", "ios": "https://dc.lft.to/lastmile_qr_scan"}, "fusion_lon": 0.0, "lon": -77.047455, "is_reserved": 0}, {"fusion_lat": 0.0, "type": "electric_scooter", "bike_id": "e2ffa97b8d40961a0fd3ffec66dcf5dc", "lat": 38.874151499999996, "name": "e2ffa97b8d40961a0fd3ffec66dcf5dc", "is_disabled": 0, "rental_uris": {"android": "https://dc.lft.to/lastmile_qr_scan", "ios": "https://dc.lft.to/lastmile_qr_scan"}, "fusion_lon": 0.0, "lon": -77.00079266666667, "is_reserved": 0}, {"fusion_lat": 0.0, "type": "electric_scooter", "bike_id": "155be5062e25514becb7fa7c1773d953", "lat": 38.887133666666664, "name": "155be5062e25514becb7fa7c1773d953", "is_disabled": 0, "rental_uris": {"android": "https://dc.lft.to/lastmile_qr_scan", "ios": "https://dc.lft.to/lastmile_qr_scan"}, "fusion_lon": 0.0, "lon": -76.98336833333333, "is_reserved": 0}, {"fusion_lat": 0.0, "type": "electric_scooter", "bike_id": "a5be103bac94f3ec63a76e0393fee82d", "lat": 38.89630416666667, "name": "a5be103bac94f3ec63a76e0393fee82d", "is_disabled": 0, "rental_uris": {"android": "https://dc.lft.to/lastmile_qr_scan", "ios": "https://dc.lft.to/lastmile_qr_scan"}, "fusion_lon": 0.0, "lon": -76.98576783333333, "is_reserved": 0}, {"fusion_lat": 0.0, "type": "electric_scooter", "bike_id": "b5fc747a9298bc4fad7262653061272a", "lat": 38.926284333333335, "name": "b5fc747a9298bc4fad7262653061272a", "is_disabled": 0, "rental_uris": {"android": "https://dc.lft.to/lastmile_qr_scan", "ios": "https://dc.lft.to/lastmile_qr_scan"}, "fusion_lon": 0.0, "lon": -77.04319816666667, "is_reserved": 0}, {"fusion_lat": 0.0, "type": "electric_scooter", "bike_id": "b410d0433be94a0f19746e3a8dddbb89", "lat": 38.90385766666667, "name": "b410d0433be94a0f19746e3a8dddbb89", "is_disabled": 0, "rental_uris": {"android": "https://dc.lft.to/lastmile_qr_scan", "ios": "https://dc.lft.to/lastmile_qr_scan"}, "fusion_lon": 0.0, "lon": -77.03491733333334, "is_reserved": 0}, {"fusion_lat": 0.0, "type": "electric_scooter", "bike_id": "9586bbef6516966b54010947b6bfa056", "lat": 38.89372, "name": "9586bbef6516966b54010947b6bfa056", "is_disabled": 0, "rental_uris": {"android": "https://dc.lft.to/lastmile_qr_scan", "ios": "https://dc.lft.to/lastmile_qr_scan"}, "fusion_lon": 0.0, "lon": -77.01547666666667, "is_reserved": 0}, {"fusion_lat": 0.0, "type": "electric_scooter", "bike_id": "01660ccc79139838f9902cd0acb46760", "lat": 38.902361, "name": "01660ccc79139838f9902cd0acb46760", "is_disabled": 0, "rental_uris": {"android": "https://dc.lft.to/lastmile_qr_scan", "ios": "https://dc.lft.to/lastmile_qr_scan"}, "fusion_lon": 0.0, "lon": -77.032161, "is_reserved": 0}, {"fusion_lat": 0.0, "type": "electric_scooter", "bike_id": "13d837f68a9d998e628cafc37f88d0f6", "lat": 38.920430333333336, "name": "13d837f68a9d998e628cafc37f88d0f6", "is_disabled": 0, "rental_uris": {"android": "https://dc.lft.to/lastmile_qr_scan", "ios": "https://dc.lft.to/lastmile_qr_scan"}, "fusion_lon": 0.0, "lon": -77.02590283333333, "is_reserved": 0}, {"fusion_lat": 0.0, "type": "electric_scooter", "bike_id": "7d426682a959fc38b0608608f6279f5c", "lat": 38.91743183333333, "name": "7d426682a959fc38b0608608f6279f5c", "is_disabled": 0, "rental_uris": {"android": "https://dc.lft.to/lastmile_qr_scan", "ios": "https://dc.lft.to/lastmile_qr_scan"}, "fusion_lon": 0.0, "lon": -77.02121116666666, "is_reserved": 0}, {"fusion_lat": 0.0, "type": "electric_scooter", "bike_id": "6d909461e6ba8c5685bd490b36e1c217", "lat": 38.908643166666664, "name": "6d909461e6ba8c5685bd490b36e1c217", "is_disabled": 0, "rental_uris": {"android": "https://dc.lft.to/lastmile_qr_scan", "ios": "https://dc.lft.to/lastmile_qr_scan"}, "fusion_lon": 0.0, "lon": -77.0135355, "is_reserved": 0}, {"fusion_lat": 0.0, "type": "electric_scooter", "bike_id": "dc5d476c716f5c3783a53a009ffcb5e7", "lat": 38.92418933333333, "name": "dc5d476c716f5c3783a53a009ffcb5e7", "is_disabled": 0, "rental_uris": {"android": "https://dc.lft.to/lastmile_qr_scan", "ios": "https://dc.lft.to/lastmile_qr_scan"}, "fusion_lon": 0.0, "lon": -77.01943866666667, "is_reserved": 0}, {"fusion_lat": 0.0, "type": "electric_scooter", "bike_id": "863568ec7f843024d49138dfc46368d3", "lat": 38.921070666666665, "name": "863568ec7f843024d49138dfc46368d3", "is_disabled": 0, "rental_uris": {"android": "https://dc.lft.to/lastmile_qr_scan", "ios": "https://dc.lft.to/lastmile_qr_scan"}, "fusion_lon": 0.0, "lon": -76.99430183333334, "is_reserved": 0}, {"fusion_lat": 0.0, "type": "electric_scooter", "bike_id": "32e7cd25e30e6f08ca4d244a38883269", "lat": 38.873989333333334, "name": "32e7cd25e30e6f08ca4d244a38883269", "is_disabled": 0, "rental_uris": {"android": "https://dc.lft.to/lastmile_qr_scan", "ios": "https://dc.lft.to/lastmile_qr_scan"}, "fusion_lon": 0.0, "lon": -77.00032533333334, "is_reserved": 0}, {"fusion_lat": 0.0, "type": "electric_scooter", "bike_id": "6e8222299c87eb5e702d6de41bf0da34", "lat": 38.91005083333334, "name": "6e8222299c87eb5e702d6de41bf0da34", "is_disabled": 0, "rental_uris": {"android": "https://dc.lft.to/lastmile_qr_scan", "ios": "https://dc.lft.to/lastmile_qr_scan"}, "fusion_lon": 0.0, "lon": -76.99403233333334, "is_reserved": 0}, {"fusion_lat": 0.0, "type": "electric_scooter", "bike_id": "37e7ed1508c52511e82fbd465d7df134", "lat": 38.907231833333334, "name": "37e7ed1508c52511e82fbd465d7df134", "is_disabled": 0, "rental_uris": {"android": "https://dc.lft.to/lastmile_qr_scan", "ios": "https://dc.lft.to/lastmile_qr_scan"}, "fusion_lon": 0.0, "lon": -77.0004965, "is_reserved": 0}, {"fusion_lat": 0.0, "type": "electric_scooter", "bike_id": "5ff17cd0f7bbe32e6833668b0c2d0b3d", "lat": 38.8910035, "name": "5ff17cd0f7bbe32e6833668b0c2d0b3d", "is_disabled": 0, "rental_uris": {"android": "https://dc.lft.to/lastmile_qr_scan", "ios": "https://dc.lft.to/lastmile_qr_scan"}, "fusion_lon": 0.0, "lon": -76.98831016666666, "is_reserved": 0}, {"fusion_lat": 0.0, "type": "electric_scooter", "bike_id": "3c515da5aa50e9baffc8c5028d273450", "lat": 38.91882583333334, "name": "3c515da5aa50e9baffc8c5028d273450", "is_disabled": 0, "rental_uris": {"android": "https://dc.lft.to/lastmile_qr_scan", "ios": "https://dc.lft.to/lastmile_qr_scan"}, "fusion_lon": 0.0, "lon": -77.04313183333333, "is_reserved": 0}, {"fusion_lat": 0.0, "type": "electric_scooter", "bike_id": "548b254ec7a9f03ba87f3b629889985b", "lat": 38.92619083333334, "name": "548b254ec7a9f03ba87f3b629889985b", "is_disabled": 0, "rental_uris": {"android": "https://dc.lft.to/lastmile_qr_scan", "ios": "https://dc.lft.to/lastmile_qr_scan"}, "fusion_lon": 0.0, "lon": -77.02164116666667, "is_reserved": 0}, {"fusion_lat": 0.0, "type": "electric_scooter", "bike_id": "d3216393dc947fc86d637980f243181f", "lat": 38.902448666666665, "name": "d3216393dc947fc86d637980f243181f", "is_disabled": 0, "rental_uris": {"android": "https://dc.lft.to/lastmile_qr_scan", "ios": "https://dc.lft.to/lastmile_qr_scan"}, "fusion_lon": 0.0, "lon": -77.03895516666667, "is_reserved": 0}, {"fusion_lat": 0.0, "type": "electric_bike", "bike_id": "ca36bfe465faab5001b40a6816e2c280", "lat": 38.898331666666664, "name": "ca36bfe465faab5001b40a6816e2c280", "is_disabled": 0, "rental_uris": {"android": "https://dc.lft.to/lastmile_qr_scan", "ios": "https://dc.lft.to/lastmile_qr_scan"}, "fusion_lon": 0.0, "lon": -77.039781, "is_reserved": 0}, {"fusion_lat": 0.0, "type": "electric_bike", "bike_id": "b930f097c85b8876832b0e09d0ddb2d9", "lat": 38.865533166666665, "name": "b930f097c85b8876832b0e09d0ddb2d9", "is_disabled": 0, "rental_uris": {"android": "https://dc.lft.to/lastmile_qr_scan", "ios": "https://dc.lft.to/lastmile_qr_scan"}, "fusion_lon": 0.0, "lon": -76.94154633333333, "is_reserved": 0}, {"fusion_lat": 0.0, "type": "electric_scooter", "bike_id": "19704d4dd646e8d8212e8b3e6cdcb973", "lat": 38.91564566666667, "name": "19704d4dd646e8d8212e8b3e6cdcb973", "is_disabled": 0, "rental_uris": {"android": "https://dc.lft.to/lastmile_qr_scan", "ios": "https://dc.lft.to/lastmile_qr_scan"}, "fusion_lon": 0.0, "lon": -77.01197183333333, "is_reserved": 0}, {"fusion_lat": 0.0, "type": "electric_scooter", "bike_id": "ad31d4e90cd88ba2634091d5b5b9811d", "lat": 38.91670933333333, "name": "ad31d4e90cd88ba2634091d5b5b9811d", "is_disabled": 0, "rental_uris": {"android": "https://dc.lft.to/lastmile_qr_scan", "ios": "https://dc.lft.to/lastmile_qr_scan"}, "fusion_lon": 0.0, "lon": -77.02716733333334, "is_reserved": 0}, {"fusion_lat": 0.0, "type": "electric_scooter", "bike_id": "2e5e5ab0fc93fbe523f2fef2fa4c1545", "lat": 38.897147833333335, "name": "2e5e5ab0fc93fbe523f2fef2fa4c1545", "is_disabled": 0, "rental_uris": {"android": "https://dc.lft.to/lastmile_qr_scan", "ios": "https://dc.lft.to/lastmile_qr_scan"}, "fusion_lon": 0.0, "lon": -77.01322516666667, "is_reserved": 0}, {"fusion_lat": 0.0, "type": "electric_bike", "bike_id": "e35e30dec795643d270a286582441ebc", "lat": 38.8565375, "name": "e35e30dec795643d270a286582441ebc", "is_disabled": 0, "rental_uris": {"android": "https://dc.lft.to/lastmile_qr_scan", "ios": "https://dc.lft.to/lastmile_qr_scan"}, "fusion_lon": 0.0, "lon": -77.08529433333334, "is_reserved": 0}, {"fusion_lat": 0.0, "type": "electric_scooter", "bike_id": "0e22f4e089e183e36654744a81ca7484", "lat": 38.92586333333333, "name": "0e22f4e089e183e36654744a81ca7484", "is_disabled": 0, "rental_uris": {"android": "https://dc.lft.to/lastmile_qr_scan", "ios": "https://dc.lft.to/lastmile_qr_scan"}, "fusion_lon": 0.0, "lon": -77.02665916666666, "is_reserved": 0}, {"fusion_lat": 0.0, "type": "electric_scooter", "bike_id": "ebe5a3d5b92e05d5381cf320f460ab68", "lat": 38.8873705, "name": "ebe5a3d5b92e05d5381cf320f460ab68", "is_disabled": 0, "rental_uris": {"android": "https://dc.lft.to/lastmile_qr_scan", "ios": "https://dc.lft.to/lastmile_qr_scan"}, "fusion_lon": 0.0, "lon": -77.01390266666667, "is_reserved": 0}, {"fusion_lat": 0.0, "type": "electric_scooter", "bike_id": "64b273b9ad2c5ff007299ec26cc5c183", "lat": 38.90150966666667, "name": "64b273b9ad2c5ff007299ec26cc5c183", "is_disabled": 0, "rental_uris": {"android": "https://dc.lft.to/lastmile_qr_scan", "ios": "https://dc.lft.to/lastmile_qr_scan"}, "fusion_lon": 0.0, "lon": -77.04058683333334, "is_reserved": 0}, {"fusion_lat": 0.0, "type": "electric_scooter", "bike_id": "34cde342c787c1ba79c8cd7ad4d837aa", "lat": 38.901359, "name": "34cde342c787c1ba79c8cd7ad4d837aa", "is_disabled": 0, "rental_uris": {"android": "https://dc.lft.to/lastmile_qr_scan", "ios": "https://dc.lft.to/lastmile_qr_scan"}, "fusion_lon": 0.0, "lon": -77.03969466666666, "is_reserved": 0}, {"fusion_lat": 0.0, "type": "electric_scooter", "bike_id": "cfdf7478bf80ac1d2e8d3b444f6d1423", "lat": 38.90797883333333, "name": "cfdf7478bf80ac1d2e8d3b444f6d1423", "is_disabled": 0, "rental_uris": {"android": "https://dc.lft.to/lastmile_qr_scan", "ios": "https://dc.lft.to/lastmile_qr_scan"}, "fusion_lon": 0.0, "lon": -77.03200783333334, "is_reserved": 0}, {"fusion_lat": 0.0, "type": "electric_scooter", "bike_id": "84bedebd8ac777c47bb0fb72693eaea5", "lat": 38.89534116666667, "name": "84bedebd8ac777c47bb0fb72693eaea5", "is_disabled": 0, "rental_uris": {"android": "https://dc.lft.to/lastmile_qr_scan", "ios": "https://dc.lft.to/lastmile_qr_scan"}, "fusion_lon": 0.0, "lon": -76.94890233333334, "is_reserved": 0}, {"fusion_lat": 0.0, "type": "electric_bike", "bike_id": "b217846b2364abb8d5f624d5d56d6ea0", "lat": 38.875811666666664, "name": "b217846b2364abb8d5f624d5d56d6ea0", "is_disabled": 0, "rental_uris": {"android": "https://dc.lft.to/lastmile_qr_scan", "ios": "https://dc.lft.to/lastmile_qr_scan"}, "fusion_lon": 0.0, "lon": -77.2341415, "is_reserved": 0}, {"fusion_lat": 0.0, "type": "electric_scooter", "bike_id": "8c707986043d01a8638496092d91485d", "lat": 38.8885755, "name": "8c707986043d01a8638496092d91485d", "is_disabled": 0, "rental_uris": {"android": "https://dc.lft.to/lastmile_qr_scan", "ios": "https://dc.lft.to/lastmile_qr_scan"}, "fusion_lon": 0.0, "lon": -76.97906583333334, "is_reserved": 0}, {"fusion_lat": 0.0, "type": "electric_scooter", "bike_id": "b8486795e34be11c989a3a2d731f5476", "lat": 38.89045766666667, "name": "b8486795e34be11c989a3a2d731f5476", "is_disabled": 0, "rental_uris": {"android": "https://dc.lft.to/lastmile_qr_scan", "ios": "https://dc.lft.to/lastmile_qr_scan"}, "fusion_lon": 0.0, "lon": -76.98974466666667, "is_reserved": 0}, {"fusion_lat": 0.0, "type": "electric_scooter", "bike_id": "ecf9706e7c1c3e82c7ac8cf8cfe79a1a", "lat": 38.90378783333333, "name": "ecf9706e7c1c3e82c7ac8cf8cfe79a1a", "is_disabled": 0, "rental_uris": {"android": "https://dc.lft.to/lastmile_qr_scan", "ios": "https://dc.lft.to/lastmile_qr_scan"}, "fusion_lon": 0.0, "lon": -77.04077216666667, "is_reserved": 0}, {"fusion_lat": 0.0, "type": "electric_scooter", "bike_id": "c98dc5cd1b9b8616137dfb3cbe10aa1a", "lat": 38.90980233333333, "name": "c98dc5cd1b9b8616137dfb3cbe10aa1a", "is_disabled": 0, "rental_uris": {"android": "https://dc.lft.to/lastmile_qr_scan", "ios": "https://dc.lft.to/lastmile_qr_scan"}, "fusion_lon": 0.0, "lon": -77.00892116666667, "is_reserved": 0}, {"fusion_lat": 0.0, "type": "electric_scooter", "bike_id": "59a7105d737036ef9b5e8fd912ec2ef4", "lat": 38.893571333333334, "name": "59a7105d737036ef9b5e8fd912ec2ef4", "is_disabled": 0, "rental_uris": {"android": "https://dc.lft.to/lastmile_qr_scan", "ios": "https://dc.lft.to/lastmile_qr_scan"}, "fusion_lon": 0.0, "lon": -77.0033115, "is_reserved": 0}, {"fusion_lat": 0.0, "type": "electric_scooter", "bike_id": "d894129d6d5a4c29e2558f5ff65ba646", "lat": 38.88493483333333, "name": "d894129d6d5a4c29e2558f5ff65ba646", "is_disabled": 0, "rental_uris": {"android": "https://dc.lft.to/lastmile_qr_scan", "ios": "https://dc.lft.to/lastmile_qr_scan"}, "fusion_lon": 0.0, "lon": -77.0071475, "is_reserved": 0}, {"fusion_lat": 0.0, "type": "electric_scooter", "bike_id": "2c35344e143f3fedbc061379eee4a11d", "lat": 38.878862833333336, "name": "2c35344e143f3fedbc061379eee4a11d", "is_disabled": 0, "rental_uris": {"android": "https://dc.lft.to/lastmile_qr_scan", "ios": "https://dc.lft.to/lastmile_qr_scan"}, "fusion_lon": 0.0, "lon": -77.00057466666667, "is_reserved": 0}, {"fusion_lat": 0.0, "type": "electric_scooter", "bike_id": "c1fbd87885301e768c278301f9310c6f", "lat": 38.897916, "name": "c1fbd87885301e768c278301f9310c6f", "is_disabled": 0, "rental_uris": {"android": "https://dc.lft.to/lastmile_qr_scan", "ios": "https://dc.lft.to/lastmile_qr_scan"}, "fusion_lon": 0.0, "lon": -77.03182383333333, "is_reserved": 0}, {"fusion_lat": 0.0, "type": "electric_scooter", "bike_id": "06d79c2778bb03f4af4cede049dbaea6", "lat": 38.927673, "name": "06d79c2778bb03f4af4cede049dbaea6", "is_disabled": 0, "rental_uris": {"android": "https://dc.lft.to/lastmile_qr_scan", "ios": "https://dc.lft.to/lastmile_qr_scan"}, "fusion_lon": 0.0, "lon": -77.02675816666667, "is_reserved": 0}, {"fusion_lat": 0.0, "type": "electric_scooter", "bike_id": "b52a49756339b7643cbb93fa7e5d6fc9", "lat": 38.8869035, "name": "b52a49756339b7643cbb93fa7e5d6fc9", "is_disabled": 0, "rental_uris": {"android": "https://dc.lft.to/lastmile_qr_scan", "ios": "https://dc.lft.to/lastmile_qr_scan"}, "fusion_lon": 0.0, "lon": -76.9764075, "is_reserved": 0}, {"fusion_lat": 0.0, "type": "electric_scooter", "bike_id": "f3b77c4e4ffb4c84ba314983a1e9e52e", "lat": 38.9098885, "name": "f3b77c4e4ffb4c84ba314983a1e9e52e", "is_disabled": 0, "rental_uris": {"android": "https://dc.lft.to/lastmile_qr_scan", "ios": "https://dc.lft.to/lastmile_qr_scan"}, "fusion_lon": 0.0, "lon": -77.06483216666666, "is_reserved": 0}, {"fusion_lat": 0.0, "type": "electric_scooter", "bike_id": "eb0a1e52e773c6e1bea903ee01369456", "lat": 38.90559533333333, "name": "eb0a1e52e773c6e1bea903ee01369456", "is_disabled": 0, "rental_uris": {"android": "https://dc.lft.to/lastmile_qr_scan", "ios": "https://dc.lft.to/lastmile_qr_scan"}, "fusion_lon": 0.0, "lon": -77.0012155, "is_reserved": 0}, {"fusion_lat": 0.0, "type": "electric_scooter", "bike_id": "e3204b3c8fb9b8cc51a0fdee2fe7dc7b", "lat": 38.84713083333333, "name": "e3204b3c8fb9b8cc51a0fdee2fe7dc7b", "is_disabled": 0, "rental_uris": {"android": "https://dc.lft.to/lastmile_qr_scan", "ios": "https://dc.lft.to/lastmile_qr_scan"}, "fusion_lon": 0.0, "lon": -76.96815233333334, "is_reserved": 0}, {"fusion_lat": 0.0, "type": "electric_scooter", "bike_id": "cff32d2d6dfedeb7860129e82e44721c", "lat": 38.90125316666666, "name": "cff32d2d6dfedeb7860129e82e44721c", "is_disabled": 0, "rental_uris": {"android": "https://dc.lft.to/lastmile_qr_scan", "ios": "https://dc.lft.to/lastmile_qr_scan"}, "fusion_lon": 0.0, "lon": -77.04107266666666, "is_reserved": 0}, {"fusion_lat": 0.0, "type": "electric_scooter", "bike_id": "74c2772f5dae98bf6a401da356d2109d", "lat": 38.898395, "name": "74c2772f5dae98bf6a401da356d2109d", "is_disabled": 0, "rental_uris": {"android": "https://dc.lft.to/lastmile_qr_scan", "ios": "https://dc.lft.to/lastmile_qr_scan"}, "fusion_lon": 0.0, "lon": -77.04182133333333, "is_reserved": 0}, {"fusion_lat": 0.0, "type": "electric_scooter", "bike_id": "a82fad348c9ddee3479d048df3073f63", "lat": 38.9192745, "name": "a82fad348c9ddee3479d048df3073f63", "is_disabled": 0, "rental_uris": {"android": "https://dc.lft.to/lastmile_qr_scan", "ios": "https://dc.lft.to/lastmile_qr_scan"}, "fusion_lon": 0.0, "lon": -77.02518083333334, "is_reserved": 0}, {"fusion_lat": 0.0, "type": "electric_scooter", "bike_id": "6f96b7bf1af02dcc77c45a4046f07389", "lat": 38.906631833333336, "name": "6f96b7bf1af02dcc77c45a4046f07389", "is_disabled": 0, "rental_uris": {"android": "https://dc.lft.to/lastmile_qr_scan", "ios": "https://dc.lft.to/lastmile_qr_scan"}, "fusion_lon": 0.0, "lon": -77.02695566666667, "is_reserved": 0}, {"fusion_lat": 0.0, "type": "electric_bike", "bike_id": "ebb1f58c839e19aca86504ee938956cc", "lat": 38.80983533333333, "name": "ebb1f58c839e19aca86504ee938956cc", "is_disabled": 0, "rental_uris": {"android": "https://dc.lft.to/lastmile_qr_scan", "ios": "https://dc.lft.to/lastmile_qr_scan"}, "fusion_lon": 0.0, "lon": -77.07660833333334, "is_reserved": 0}, {"fusion_lat": 0.0, "type": "electric_scooter", "bike_id": "d4136087d8a18b26a816b87a00e445c8", "lat": 38.923172666666666, "name": "d4136087d8a18b26a816b87a00e445c8", "is_disabled": 0, "rental_uris": {"android": "https://dc.lft.to/lastmile_qr_scan", "ios": "https://dc.lft.to/lastmile_qr_scan"}, "fusion_lon": 0.0, "lon": -77.03804733333334, "is_reserved": 0}, {"fusion_lat": 0.0, "type": "electric_scooter", "bike_id": "0008071dd8690aeccc4afb15a0615092", "lat": 38.900067, "name": "0008071dd8690aeccc4afb15a0615092", "is_disabled": 0, "rental_uris": {"android": "https://dc.lft.to/lastmile_qr_scan", "ios": "https://dc.lft.to/lastmile_qr_scan"}, "fusion_lon": 0.0, "lon": -77.04660216666667, "is_reserved": 0}, {"fusion_lat": 0.0, "type": "electric_scooter", "bike_id": "9bbaf79bbe8a597840840c0ccaa7dc41", "lat": 38.92682533333333, "name": "9bbaf79bbe8a597840840c0ccaa7dc41", "is_disabled": 0, "rental_uris": {"android": "https://dc.lft.to/lastmile_qr_scan", "ios": "https://dc.lft.to/lastmile_qr_scan"}, "fusion_lon": 0.0, "lon": -77.02790316666666, "is_reserved": 0}, {"fusion_lat": 0.0, "type": "electric_scooter", "bike_id": "65a0d3355c08e6f2d7a7a45fe9639b2b", "lat": 38.883291666666665, "name": "65a0d3355c08e6f2d7a7a45fe9639b2b", "is_disabled": 0, "rental_uris": {"android": "https://dc.lft.to/lastmile_qr_scan", "ios": "https://dc.lft.to/lastmile_qr_scan"}, "fusion_lon": 0.0, "lon": -77.01603016666667, "is_reserved": 0}, {"fusion_lat": 0.0, "type": "electric_scooter", "bike_id": "d60bae268543779071c604d034209196", "lat": 38.92066633333334, "name": "d60bae268543779071c604d034209196", "is_disabled": 0, "rental_uris": {"android": "https://dc.lft.to/lastmile_qr_scan", "ios": "https://dc.lft.to/lastmile_qr_scan"}, "fusion_lon": 0.0, "lon": -77.02210616666666, "is_reserved": 0}, {"fusion_lat": 0.0, "type": "electric_scooter", "bike_id": "4d754cdcddc0718a4021e2d1506d84bb", "lat": 38.8994065, "name": "4d754cdcddc0718a4021e2d1506d84bb", "is_disabled": 0, "rental_uris": {"android": "https://dc.lft.to/lastmile_qr_scan", "ios": "https://dc.lft.to/lastmile_qr_scan"}, "fusion_lon": 0.0, "lon": -77.0415555, "is_reserved": 0}, {"fusion_lat": 0.0, "type": "electric_scooter", "bike_id": "b9598e7685f48b41e6632cb51b499018", "lat": 38.89398716666667, "name": "b9598e7685f48b41e6632cb51b499018", "is_disabled": 0, "rental_uris": {"android": "https://dc.lft.to/lastmile_qr_scan", "ios": "https://dc.lft.to/lastmile_qr_scan"}, "fusion_lon": 0.0, "lon": -76.97822866666667, "is_reserved": 0}, {"fusion_lat": 0.0, "type": "electric_scooter", "bike_id": "c277766f785ce4b68f50038c2f5646c4", "lat": 38.87621566666667, "name": "c277766f785ce4b68f50038c2f5646c4", "is_disabled": 0, "rental_uris": {"android": "https://dc.lft.to/lastmile_qr_scan", "ios": "https://dc.lft.to/lastmile_qr_scan"}, "fusion_lon": 0.0, "lon": -77.00123416666666, "is_reserved": 0}, {"fusion_lat": 0.0, "type": "electric_scooter", "bike_id": "09d4a410aea574111cf482f892850385", "lat": 38.92412183333333, "name": "09d4a410aea574111cf482f892850385", "is_disabled": 0, "rental_uris": {"android": "https://dc.lft.to/lastmile_qr_scan", "ios": "https://dc.lft.to/lastmile_qr_scan"}, "fusion_lon": 0.0, "lon": -77.02145916666667, "is_reserved": 0}, {"fusion_lat": 0.0, "type": "electric_scooter", "bike_id": "7225614320060a88b6d7d16f053e05f5", "lat": 38.90467233333333, "name": "7225614320060a88b6d7d16f053e05f5", "is_disabled": 0, "rental_uris": {"android": "https://dc.lft.to/lastmile_qr_scan", "ios": "https://dc.lft.to/lastmile_qr_scan"}, "fusion_lon": 0.0, "lon": -77.040818, "is_reserved": 0}, {"fusion_lat": 0.0, "type": "electric_scooter", "bike_id": "c2be6c94349f94afa5e8b5adad4a8e46", "lat": 38.91929116666667, "name": "c2be6c94349f94afa5e8b5adad4a8e46", "is_disabled": 0, "rental_uris": {"android": "https://dc.lft.to/lastmile_qr_scan", "ios": "https://dc.lft.to/lastmile_qr_scan"}, "fusion_lon": 0.0, "lon": -77.01969666666666, "is_reserved": 0}, {"fusion_lat": 0.0, "type": "electric_scooter", "bike_id": "59e77331f26f787a79921bb084824ea0", "lat": 38.898496, "name": "59e77331f26f787a79921bb084824ea0", "is_disabled": 0, "rental_uris": {"android": "https://dc.lft.to/lastmile_qr_scan", "ios": "https://dc.lft.to/lastmile_qr_scan"}, "fusion_lon": 0.0, "lon": -77.04673133333333, "is_reserved": 0}, {"fusion_lat": 0.0, "type": "electric_bike", "bike_id": "62c3aa56af06d029495849d072f38b16", "lat": 38.83866616666667, "name": "62c3aa56af06d029495849d072f38b16", "is_disabled": 0, "rental_uris": {"android": "https://dc.lft.to/lastmile_qr_scan", "ios": "https://dc.lft.to/lastmile_qr_scan"}, "fusion_lon": 0.0, "lon": -76.99696983333334, "is_reserved": 0}, {"fusion_lat": 0.0, "type": "electric_scooter", "bike_id": "2f90719adf562e3b1540efb3609ae801", "lat": 38.923221, "name": "2f90719adf562e3b1540efb3609ae801", "is_disabled": 0, "rental_uris": {"android": "https://dc.lft.to/lastmile_qr_scan", "ios": "https://dc.lft.to/lastmile_qr_scan"}, "fusion_lon": 0.0, "lon": -77.03858066666666, "is_reserved": 0}, {"fusion_lat": 0.0, "type": "electric_scooter", "bike_id": "e5d5cdb5ff3a35bb50997958ffa5b990", "lat": 38.92430316666667, "name": "e5d5cdb5ff3a35bb50997958ffa5b990", "is_disabled": 0, "rental_uris": {"android": "https://dc.lft.to/lastmile_qr_scan", "ios": "https://dc.lft.to/lastmile_qr_scan"}, "fusion_lon": 0.0, "lon": -77.022436, "is_reserved": 0}, {"fusion_lat": 0.0, "type": "electric_scooter", "bike_id": "eb2dfe1b2cb98978c622c8adcd90587f", "lat": 38.90194416666667, "name": "eb2dfe1b2cb98978c622c8adcd90587f", "is_disabled": 0, "rental_uris": {"android": "https://dc.lft.to/lastmile_qr_scan", "ios": "https://dc.lft.to/lastmile_qr_scan"}, "fusion_lon": 0.0, "lon": -77.05088266666667, "is_reserved": 0}, {"fusion_lat": 0.0, "type": "electric_scooter", "bike_id": "b082a41499795a9a4d180228e00d2c6d", "lat": 38.924973666666666, "name": "b082a41499795a9a4d180228e00d2c6d", "is_disabled": 0, "rental_uris": {"android": "https://dc.lft.to/lastmile_qr_scan", "ios": "https://dc.lft.to/lastmile_qr_scan"}, "fusion_lon": 0.0, "lon": -77.0217815, "is_reserved": 0}, {"fusion_lat": 0.0, "type": "electric_scooter", "bike_id": "7325a1c28839f5d775e85573f9c726cb", "lat": 38.934092166666666, "name": "7325a1c28839f5d775e85573f9c726cb", "is_disabled": 0, "rental_uris": {"android": "https://dc.lft.to/lastmile_qr_scan", "ios": "https://dc.lft.to/lastmile_qr_scan"}, "fusion_lon": 0.0, "lon": -77.04120916666666, "is_reserved": 0}, {"fusion_lat": 0.0, "type": "electric_scooter", "bike_id": "f57ceb6ca356c6ed020f0f8890874e17", "lat": 38.89970116666667, "name": "f57ceb6ca356c6ed020f0f8890874e17", "is_disabled": 0, "rental_uris": {"android": "https://dc.lft.to/lastmile_qr_scan", "ios": "https://dc.lft.to/lastmile_qr_scan"}, "fusion_lon": 0.0, "lon": -77.02172683333333, "is_reserved": 0}, {"fusion_lat": 0.0, "type": "electric_scooter", "bike_id": "5cbe84c8e16f9d5eca937d55d194384b", "lat": 38.914828, "name": "5cbe84c8e16f9d5eca937d55d194384b", "is_disabled": 0, "rental_uris": {"android": "https://dc.lft.to/lastmile_qr_scan", "ios": "https://dc.lft.to/lastmile_qr_scan"}, "fusion_lon": 0.0, "lon": -77.02181183333333, "is_reserved": 0}, {"fusion_lat": 0.0, "type": "electric_scooter", "bike_id": "613ad8043edc5cce6ef1d391df27d038", "lat": 38.92254166666667, "name": "613ad8043edc5cce6ef1d391df27d038", "is_disabled": 0, "rental_uris": {"android": "https://dc.lft.to/lastmile_qr_scan", "ios": "https://dc.lft.to/lastmile_qr_scan"}, "fusion_lon": 0.0, "lon": -77.03904833333333, "is_reserved": 0}, {"fusion_lat": 0.0, "type": "electric_bike", "bike_id": "9710318465fe83cefd4c0ebdfe1b1461", "lat": 38.955422, "name": "9710318465fe83cefd4c0ebdfe1b1461", "is_disabled": 0, "rental_uris": {"android": "https://dc.lft.to/lastmile_qr_scan", "ios": "https://dc.lft.to/lastmile_qr_scan"}, "fusion_lon": 0.0, "lon": -76.96858766666666, "is_reserved": 0}, {"fusion_lat": 0.0, "type": "electric_scooter", "bike_id": "894baba882c7208700abb3ccdf8dea10", "lat": 38.89755983333333, "name": "894baba882c7208700abb3ccdf8dea10", "is_disabled": 0, "rental_uris": {"android": "https://dc.lft.to/lastmile_qr_scan", "ios": "https://dc.lft.to/lastmile_qr_scan"}, "fusion_lon": 0.0, "lon": -77.027131, "is_reserved": 0}, {"fusion_lat": 0.0, "type": "electric_scooter", "bike_id": "8317ea812ecca65872f00184d3f4beb0", "lat": 38.911211, "name": "8317ea812ecca65872f00184d3f4beb0", "is_disabled": 0, "rental_uris": {"android": "https://dc.lft.to/lastmile_qr_scan", "ios": "https://dc.lft.to/lastmile_qr_scan"}, "fusion_lon": 0.0, "lon": -77.0093945, "is_reserved": 0}, {"fusion_lat": 0.0, "type": "electric_scooter", "bike_id": "c25a33cb13b52beda9e82ae7427e2f15", "lat": 38.915723166666666, "name": "c25a33cb13b52beda9e82ae7427e2f15", "is_disabled": 0, "rental_uris": {"android": "https://dc.lft.to/lastmile_qr_scan", "ios": "https://dc.lft.to/lastmile_qr_scan"}, "fusion_lon": 0.0, "lon": -77.01992716666666, "is_reserved": 0}, {"fusion_lat": 0.0, "type": "electric_scooter", "bike_id": "4726d01b8c9dd6d99bb74724794260f1", "lat": 38.91737583333333, "name": "4726d01b8c9dd6d99bb74724794260f1", "is_disabled": 0, "rental_uris": {"android": "https://dc.lft.to/lastmile_qr_scan", "ios": "https://dc.lft.to/lastmile_qr_scan"}, "fusion_lon": 0.0, "lon": -77.02114783333333, "is_reserved": 0}, {"fusion_lat": 0.0, "type": "electric_scooter", "bike_id": "2908d358d0e2b494e1961e835eb2379f", "lat": 38.904610166666664, "name": "2908d358d0e2b494e1961e835eb2379f", "is_disabled": 0, "rental_uris": {"android": "https://dc.lft.to/lastmile_qr_scan", "ios": "https://dc.lft.to/lastmile_qr_scan"}, "fusion_lon": 0.0, "lon": -77.02936183333334, "is_reserved": 0}, {"fusion_lat": 0.0, "type": "electric_scooter", "bike_id": "3df26d1d2e6986e166a25e34d49d6365", "lat": 38.90082816666666, "name": "3df26d1d2e6986e166a25e34d49d6365", "is_disabled": 0, "rental_uris": {"android": "https://dc.lft.to/lastmile_qr_scan", "ios": "https://dc.lft.to/lastmile_qr_scan"}, "fusion_lon": 0.0, "lon": -77.04163816666667, "is_reserved": 0}, {"fusion_lat": 0.0, "type": "electric_scooter", "bike_id": "b44c882ba4fb4709397a3531ebcdf9b0", "lat": 38.966483833333335, "name": "b44c882ba4fb4709397a3531ebcdf9b0", "is_disabled": 0, "rental_uris": {"android": "https://dc.lft.to/lastmile_qr_scan", "ios": "https://dc.lft.to/lastmile_qr_scan"}, "fusion_lon": 0.0, "lon": -77.02745833333333, "is_reserved": 0}, {"fusion_lat": 0.0, "type": "electric_bike", "bike_id": "e60438f380b58216552fcd384623e44a", "lat": 38.9922415, "name": "e60438f380b58216552fcd384623e44a", "is_disabled": 0, "rental_uris": {"android": "https://dc.lft.to/lastmile_qr_scan", "ios": "https://dc.lft.to/lastmile_qr_scan"}, "fusion_lon": 0.0, "lon": -77.03583616666667, "is_reserved": 0}, {"fusion_lat": 0.0, "type": "electric_bike", "bike_id": "e05303250529b60a2995d6af4ecf6b5e", "lat": 38.8360425, "name": "e05303250529b60a2995d6af4ecf6b5e", "is_disabled": 0, "rental_uris": {"android": "https://dc.lft.to/lastmile_qr_scan", "ios": "https://dc.lft.to/lastmile_qr_scan"}, "fusion_lon": 0.0, "lon": -77.00377083333333, "is_reserved": 0}, {"fusion_lat": 0.0, "type": "electric_scooter", "bike_id": "c06b29c5f9c31f938f880f37c90b8861", "lat": 38.902149666666666, "name": "c06b29c5f9c31f938f880f37c90b8861", "is_disabled": 0, "rental_uris": {"android": "https://dc.lft.to/lastmile_qr_scan", "ios": "https://dc.lft.to/lastmile_qr_scan"}, "fusion_lon": 0.0, "lon": -77.02600766666667, "is_reserved": 0}, {"fusion_lat": 0.0, "type": "electric_bike", "bike_id": "5b874e6c9f0185c35e13589bd877545a", "lat": 38.83810783333333, "name": "5b874e6c9f0185c35e13589bd877545a", "is_disabled": 0, "rental_uris": {"android": "https://dc.lft.to/lastmile_qr_scan", "ios": "https://dc.lft.to/lastmile_qr_scan"}, "fusion_lon": 0.0, "lon": -77.0028285, "is_reserved": 0}, {"fusion_lat": 0.0, "type": "electric_scooter", "bike_id": "a9747ea9ec2cfee13cdcc41473856e0d", "lat": 38.903712, "name": "a9747ea9ec2cfee13cdcc41473856e0d", "is_disabled": 0, "rental_uris": {"android": "https://dc.lft.to/lastmile_qr_scan", "ios": "https://dc.lft.to/lastmile_qr_scan"}, "fusion_lon": 0.0, "lon": -77.03179033333333, "is_reserved": 0}, {"fusion_lat": 0.0, "type": "electric_scooter", "bike_id": "b40d708173a13682c802b22e36176826", "lat": 38.94738516666666, "name": "b40d708173a13682c802b22e36176826", "is_disabled": 0, "rental_uris": {"android": "https://dc.lft.to/lastmile_qr_scan", "ios": "https://dc.lft.to/lastmile_qr_scan"}, "fusion_lon": 0.0, "lon": -77.02370766666667, "is_reserved": 0}, {"fusion_lat": 0.0, "type": "electric_scooter", "bike_id": "c081de624ff122fd5c1f93cccaf6ef74", "lat": 38.912024, "name": "c081de624ff122fd5c1f93cccaf6ef74", "is_disabled": 0, "rental_uris": {"android": "https://dc.lft.to/lastmile_qr_scan", "ios": "https://dc.lft.to/lastmile_qr_scan"}, "fusion_lon": 0.0, "lon": -77.073117, "is_reserved": 0}, {"fusion_lat": 0.0, "type": "electric_scooter", "bike_id": "f6ea3bb4f7d78f79fc90bcd34c14615b", "lat": 38.937266666666666, "name": "f6ea3bb4f7d78f79fc90bcd34c14615b", "is_disabled": 0, "rental_uris": {"android": "https://dc.lft.to/lastmile_qr_scan", "ios": "https://dc.lft.to/lastmile_qr_scan"}, "fusion_lon": 0.0, "lon": -77.01907116666666, "is_reserved": 0}, {"fusion_lat": 0.0, "type": "electric_scooter", "bike_id": "add818ef4f6b83e1e0159f0256a8212f", "lat": 38.89619316666667, "name": "add818ef4f6b83e1e0159f0256a8212f", "is_disabled": 0, "rental_uris": {"android": "https://dc.lft.to/lastmile_qr_scan", "ios": "https://dc.lft.to/lastmile_qr_scan"}, "fusion_lon": 0.0, "lon": -77.03172883333333, "is_reserved": 0}, {"fusion_lat": 0.0, "type": "electric_scooter", "bike_id": "adbde23b96d924be64c510cf0574bf1c", "lat": 38.9163045, "name": "adbde23b96d924be64c510cf0574bf1c", "is_disabled": 0, "rental_uris": {"android": "https://dc.lft.to/lastmile_qr_scan", "ios": "https://dc.lft.to/lastmile_qr_scan"}, "fusion_lon": 0.0, "lon": -77.0221145, "is_reserved": 0}, {"fusion_lat": 0.0, "type": "electric_scooter", "bike_id": "dca2004a1c57ae93587f8e421f96c15c", "lat": 38.904330333333334, "name": "dca2004a1c57ae93587f8e421f96c15c", "is_disabled": 0, "rental_uris": {"android": "https://dc.lft.to/lastmile_qr_scan", "ios": "https://dc.lft.to/lastmile_qr_scan"}, "fusion_lon": 0.0, "lon": -77.02848166666666, "is_reserved": 0}, {"fusion_lat": 0.0, "type": "electric_scooter", "bike_id": "8b5bc703a694910cda03631b70548223", "lat": 38.898809666666665, "name": "8b5bc703a694910cda03631b70548223", "is_disabled": 0, "rental_uris": {"android": "https://dc.lft.to/lastmile_qr_scan", "ios": "https://dc.lft.to/lastmile_qr_scan"}, "fusion_lon": 0.0, "lon": -77.03323483333334, "is_reserved": 0}, {"fusion_lat": 0.0, "type": "electric_bike", "bike_id": "0863071bbd181d2852416bddb1715e80", "lat": 38.85837166666666, "name": "0863071bbd181d2852416bddb1715e80", "is_disabled": 0, "rental_uris": {"android": "https://dc.lft.to/lastmile_qr_scan", "ios": "https://dc.lft.to/lastmile_qr_scan"}, "fusion_lon": 0.0, "lon": -77.11477516666666, "is_reserved": 0}, {"fusion_lat": 0.0, "type": "electric_scooter", "bike_id": "1d236b58b5f4f80e6f4a2beb8a55cac9", "lat": 38.92045233333333, "name": "1d236b58b5f4f80e6f4a2beb8a55cac9", "is_disabled": 0, "rental_uris": {"android": "https://dc.lft.to/lastmile_qr_scan", "ios": "https://dc.lft.to/lastmile_qr_scan"}, "fusion_lon": 0.0, "lon": -77.01680383333333, "is_reserved": 0}, {"fusion_lat": 0.0, "type": "electric_scooter", "bike_id": "11676ff18a24baa106933c30fb3b0ae4", "lat": 38.8952575, "name": "11676ff18a24baa106933c30fb3b0ae4", "is_disabled": 0, "rental_uris": {"android": "https://dc.lft.to/lastmile_qr_scan", "ios": "https://dc.lft.to/lastmile_qr_scan"}, "fusion_lon": 0.0, "lon": -77.03352416666667, "is_reserved": 0}, {"fusion_lat": 0.0, "type": "electric_scooter", "bike_id": "caa5b1b551832503bbc6f1dc9ffee096", "lat": 38.9229115, "name": "caa5b1b551832503bbc6f1dc9ffee096", "is_disabled": 0, "rental_uris": {"android": "https://dc.lft.to/lastmile_qr_scan", "ios": "https://dc.lft.to/lastmile_qr_scan"}, "fusion_lon": 0.0, "lon": -77.0428865, "is_reserved": 0}, {"fusion_lat": 0.0, "type": "electric_scooter", "bike_id": "433d16ce1cc76252d1136189c876d76a", "lat": 38.895603333333334, "name": "433d16ce1cc76252d1136189c876d76a", "is_disabled": 0, "rental_uris": {"android": "https://dc.lft.to/lastmile_qr_scan", "ios": "https://dc.lft.to/lastmile_qr_scan"}, "fusion_lon": 0.0, "lon": -77.04680983333333, "is_reserved": 0}, {"fusion_lat": 0.0, "type": "electric_scooter", "bike_id": "28b02dbed50437f7b511a84d020ffdd3", "lat": 38.90316283333333, "name": "28b02dbed50437f7b511a84d020ffdd3", "is_disabled": 0, "rental_uris": {"android": "https://dc.lft.to/lastmile_qr_scan", "ios": "https://dc.lft.to/lastmile_qr_scan"}, "fusion_lon": 0.0, "lon": -77.03058566666667, "is_reserved": 0}, {"fusion_lat": 0.0, "type": "electric_scooter", "bike_id": "d52e9b864f8f49df5899db3c3d1f1e8b", "lat": 38.90225783333333, "name": "d52e9b864f8f49df5899db3c3d1f1e8b", "is_disabled": 0, "rental_uris": {"android": "https://dc.lft.to/lastmile_qr_scan", "ios": "https://dc.lft.to/lastmile_qr_scan"}, "fusion_lon": 0.0, "lon": -77.05127333333333, "is_reserved": 0}, {"fusion_lat": 0.0, "type": "electric_scooter", "bike_id": "5c80cc97d87af55ba49e1fa573eb8469", "lat": 38.926834, "name": "5c80cc97d87af55ba49e1fa573eb8469", "is_disabled": 0, "rental_uris": {"android": "https://dc.lft.to/lastmile_qr_scan", "ios": "https://dc.lft.to/lastmile_qr_scan"}, "fusion_lon": 0.0, "lon": -77.01576116666666, "is_reserved": 0}, {"fusion_lat": 0.0, "type": "electric_scooter", "bike_id": "db72b1e72ccc83cc4d3b9604dfa321cb", "lat": 38.89475616666667, "name": "db72b1e72ccc83cc4d3b9604dfa321cb", "is_disabled": 0, "rental_uris": {"android": "https://dc.lft.to/lastmile_qr_scan", "ios": "https://dc.lft.to/lastmile_qr_scan"}, "fusion_lon": 0.0, "lon": -77.01116266666666, "is_reserved": 0}, {"fusion_lat": 0.0, "type": "electric_scooter", "bike_id": "e5837b6e9e50728a1b56713ee862edad", "lat": 38.902425, "name": "e5837b6e9e50728a1b56713ee862edad", "is_disabled": 0, "rental_uris": {"android": "https://dc.lft.to/lastmile_qr_scan", "ios": "https://dc.lft.to/lastmile_qr_scan"}, "fusion_lon": 0.0, "lon": -77.04143483333333, "is_reserved": 0}, {"fusion_lat": 0.0, "type": "electric_scooter", "bike_id": "1328366e600d0f803e41b5d47ade8a1d", "lat": 38.88512166666667, "name": "1328366e600d0f803e41b5d47ade8a1d", "is_disabled": 0, "rental_uris": {"android": "https://dc.lft.to/lastmile_qr_scan", "ios": "https://dc.lft.to/lastmile_qr_scan"}, "fusion_lon": 0.0, "lon": -77.01116516666667, "is_reserved": 0}, {"fusion_lat": 0.0, "type": "electric_scooter", "bike_id": "9a660c978addc40b1c63929be0bbb1fd", "lat": 38.90969, "name": "9a660c978addc40b1c63929be0bbb1fd", "is_disabled": 0, "rental_uris": {"android": "https://dc.lft.to/lastmile_qr_scan", "ios": "https://dc.lft.to/lastmile_qr_scan"}, "fusion_lon": 0.0, "lon": -77.04632866666667, "is_reserved": 0}, {"fusion_lat": 0.0, "type": "electric_scooter", "bike_id": "b8ef76c4eb03e03671764a792b34b22c", "lat": 38.903453, "name": "b8ef76c4eb03e03671764a792b34b22c", "is_disabled": 0, "rental_uris": {"android": "https://dc.lft.to/lastmile_qr_scan", "ios": "https://dc.lft.to/lastmile_qr_scan"}, "fusion_lon": 0.0, "lon": -77.02091683333333, "is_reserved": 0}, {"fusion_lat": 0.0, "type": "electric_scooter", "bike_id": "68534ea693ff44f721d419261cf6d708", "lat": 38.89622683333333, "name": "68534ea693ff44f721d419261cf6d708", "is_disabled": 0, "rental_uris": {"android": "https://dc.lft.to/lastmile_qr_scan", "ios": "https://dc.lft.to/lastmile_qr_scan"}, "fusion_lon": 0.0, "lon": -77.01224866666666, "is_reserved": 0}, {"fusion_lat": 0.0, "type": "electric_scooter", "bike_id": "745d478f192580941314727c3e463708", "lat": 38.921795, "name": "745d478f192580941314727c3e463708", "is_disabled": 0, "rental_uris": {"android": "https://dc.lft.to/lastmile_qr_scan", "ios": "https://dc.lft.to/lastmile_qr_scan"}, "fusion_lon": 0.0, "lon": -77.02191766666667, "is_reserved": 0}, {"fusion_lat": 0.0, "type": "electric_scooter", "bike_id": "fa367d5371675de96e72eb6efadd8509", "lat": 38.91964883333333, "name": "fa367d5371675de96e72eb6efadd8509", "is_disabled": 0, "rental_uris": {"android": "https://dc.lft.to/lastmile_qr_scan", "ios": "https://dc.lft.to/lastmile_qr_scan"}, "fusion_lon": 0.0, "lon": -77.0395805, "is_reserved": 0}, {"fusion_lat": 0.0, "type": "electric_scooter", "bike_id": "65595ae493483f8e338b9745cd7b5ceb", "lat": 38.899826833333336, "name": "65595ae493483f8e338b9745cd7b5ceb", "is_disabled": 0, "rental_uris": {"android": "https://dc.lft.to/lastmile_qr_scan", "ios": "https://dc.lft.to/lastmile_qr_scan"}, "fusion_lon": 0.0, "lon": -77.0436425, "is_reserved": 0}, {"fusion_lat": 0.0, "type": "electric_scooter", "bike_id": "7d7d29358b8a83a80b5bf32d9689c7e1", "lat": 38.92601966666667, "name": "7d7d29358b8a83a80b5bf32d9689c7e1", "is_disabled": 0, "rental_uris": {"android": "https://dc.lft.to/lastmile_qr_scan", "ios": "https://dc.lft.to/lastmile_qr_scan"}, "fusion_lon": 0.0, "lon": -77.02154766666666, "is_reserved": 0}, {"fusion_lat": 0.0, "type": "electric_scooter", "bike_id": "fc9db5e936ca80bb4cd8db8e1cd12739", "lat": 38.895572, "name": "fc9db5e936ca80bb4cd8db8e1cd12739", "is_disabled": 0, "rental_uris": {"android": "https://dc.lft.to/lastmile_qr_scan", "ios": "https://dc.lft.to/lastmile_qr_scan"}, "fusion_lon": 0.0, "lon": -76.93063766666667, "is_reserved": 0}, {"fusion_lat": 0.0, "type": "electric_scooter", "bike_id": "cb48934617bca03c5ae67fcd68fcd2ac", "lat": 38.93957066666667, "name": "cb48934617bca03c5ae67fcd68fcd2ac", "is_disabled": 0, "rental_uris": {"android": "https://dc.lft.to/lastmile_qr_scan", "ios": "https://dc.lft.to/lastmile_qr_scan"}, "fusion_lon": 0.0, "lon": -77.07253866666667, "is_reserved": 0}, {"fusion_lat": 0.0, "type": "electric_scooter", "bike_id": "1a3e1027d0a5daa58e612aab86e49871", "lat": 38.92327516666667, "name": "1a3e1027d0a5daa58e612aab86e49871", "is_disabled": 0, "rental_uris": {"android": "https://dc.lft.to/lastmile_qr_scan", "ios": "https://dc.lft.to/lastmile_qr_scan"}, "fusion_lon": 0.0, "lon": -77.01959383333333, "is_reserved": 0}, {"fusion_lat": 0.0, "type": "electric_scooter", "bike_id": "cd56ef2f173892194bd445ea625398cb", "lat": 38.944958, "name": "cd56ef2f173892194bd445ea625398cb", "is_disabled": 0, "rental_uris": {"android": "https://dc.lft.to/lastmile_qr_scan", "ios": "https://dc.lft.to/lastmile_qr_scan"}, "fusion_lon": 0.0, "lon": -77.02849266666666, "is_reserved": 0}, {"fusion_lat": 0.0, "type": "electric_bike", "bike_id": "40eeb6c6588fa0b6298aa8eee53dc85a", "lat": 38.900402, "name": "40eeb6c6588fa0b6298aa8eee53dc85a", "is_disabled": 0, "rental_uris": {"android": "https://dc.lft.to/lastmile_qr_scan", "ios": "https://dc.lft.to/lastmile_qr_scan"}, "fusion_lon": 0.0, "lon": -76.97226766666667, "is_reserved": 0}, {"fusion_lat": 0.0, "type": "electric_bike", "bike_id": "557577e648aaa257f43d7e24902ee649", "lat": 38.9457265, "name": "557577e648aaa257f43d7e24902ee649", "is_disabled": 0, "rental_uris": {"android": "https://dc.lft.to/lastmile_qr_scan", "ios": "https://dc.lft.to/lastmile_qr_scan"}, "fusion_lon": 0.0, "lon": -76.98115566666667, "is_reserved": 0}, {"fusion_lat": 0.0, "type": "electric_scooter", "bike_id": "ce53f1d35a93fa3d6fcef868cd4a9b4d", "lat": 38.89221966666667, "name": "ce53f1d35a93fa3d6fcef868cd4a9b4d", "is_disabled": 0, "rental_uris": {"android": "https://dc.lft.to/lastmile_qr_scan", "ios": "https://dc.lft.to/lastmile_qr_scan"}, "fusion_lon": 0.0, "lon": -77.03159866666667, "is_reserved": 0}, {"fusion_lat": 0.0, "type": "electric_scooter", "bike_id": "27ea847d6db63ca131235da6875e3331", "lat": 38.92070066666667, "name": "27ea847d6db63ca131235da6875e3331", "is_disabled": 0, "rental_uris": {"android": "https://dc.lft.to/lastmile_qr_scan", "ios": "https://dc.lft.to/lastmile_qr_scan"}, "fusion_lon": 0.0, "lon": -77.043786, "is_reserved": 0}, {"fusion_lat": 0.0, "type": "electric_scooter", "bike_id": "fc21ce5887d899b86894c90489bb2ca4", "lat": 38.90600466666667, "name": "fc21ce5887d899b86894c90489bb2ca4", "is_disabled": 0, "rental_uris": {"android": "https://dc.lft.to/lastmile_qr_scan", "ios": "https://dc.lft.to/lastmile_qr_scan"}, "fusion_lon": 0.0, "lon": -77.06380933333334, "is_reserved": 0}, {"fusion_lat": 0.0, "type": "electric_scooter", "bike_id": "3af58745ef3b46e0632f3092dace4a11", "lat": 38.924013333333335, "name": "3af58745ef3b46e0632f3092dace4a11", "is_disabled": 0, "rental_uris": {"android": "https://dc.lft.to/lastmile_qr_scan", "ios": "https://dc.lft.to/lastmile_qr_scan"}, "fusion_lon": 0.0, "lon": -77.023655, "is_reserved": 0}, {"fusion_lat": 0.0, "type": "electric_scooter", "bike_id": "7894662e45ea47bb9dda4bb4293af55a", "lat": 38.89840266666667, "name": "7894662e45ea47bb9dda4bb4293af55a", "is_disabled": 0, "rental_uris": {"android": "https://dc.lft.to/lastmile_qr_scan", "ios": "https://dc.lft.to/lastmile_qr_scan"}, "fusion_lon": 0.0, "lon": -77.040223, "is_reserved": 0}, {"fusion_lat": 0.0, "type": "electric_scooter", "bike_id": "ec8ce96474de0213c6800d68db0c15f6", "lat": 38.96273, "name": "ec8ce96474de0213c6800d68db0c15f6", "is_disabled": 0, "rental_uris": {"android": "https://dc.lft.to/lastmile_qr_scan", "ios": "https://dc.lft.to/lastmile_qr_scan"}, "fusion_lon": 0.0, "lon": -77.030231, "is_reserved": 0}, {"fusion_lat": 0.0, "type": "electric_scooter", "bike_id": "f45fdb986f27fd8e9af1f135e5896c3a", "lat": 38.89563783333333, "name": "f45fdb986f27fd8e9af1f135e5896c3a", "is_disabled": 0, "rental_uris": {"android": "https://dc.lft.to/lastmile_qr_scan", "ios": "https://dc.lft.to/lastmile_qr_scan"}, "fusion_lon": 0.0, "lon": -77.00915733333333, "is_reserved": 0}, {"fusion_lat": 0.0, "type": "electric_scooter", "bike_id": "7e22ed9f62bb3ed11078223f4c593dea", "lat": 38.89992066666667, "name": "7e22ed9f62bb3ed11078223f4c593dea", "is_disabled": 0, "rental_uris": {"android": "https://dc.lft.to/lastmile_qr_scan", "ios": "https://dc.lft.to/lastmile_qr_scan"}, "fusion_lon": 0.0, "lon": -76.99013433333333, "is_reserved": 0}, {"fusion_lat": 0.0, "type": "electric_scooter", "bike_id": "3317a24539cc141979dddd8fd510c827", "lat": 38.892244, "name": "3317a24539cc141979dddd8fd510c827", "is_disabled": 0, "rental_uris": {"android": "https://dc.lft.to/lastmile_qr_scan", "ios": "https://dc.lft.to/lastmile_qr_scan"}, "fusion_lon": 0.0, "lon": -77.02373916666667, "is_reserved": 0}, {"fusion_lat": 0.0, "type": "electric_scooter", "bike_id": "72d2a91c855b301ae8f72ca4984e0216", "lat": 38.913648333333335, "name": "72d2a91c855b301ae8f72ca4984e0216", "is_disabled": 0, "rental_uris": {"android": "https://dc.lft.to/lastmile_qr_scan", "ios": "https://dc.lft.to/lastmile_qr_scan"}, "fusion_lon": 0.0, "lon": -77.0204885, "is_reserved": 0}, {"fusion_lat": 0.0, "type": "electric_scooter", "bike_id": "456ea19c43c5ccad6ab8ff75db94ff0f", "lat": 38.90361733333334, "name": "456ea19c43c5ccad6ab8ff75db94ff0f", "is_disabled": 0, "rental_uris": {"android": "https://dc.lft.to/lastmile_qr_scan", "ios": "https://dc.lft.to/lastmile_qr_scan"}, "fusion_lon": 0.0, "lon": -77.011202, "is_reserved": 0}, {"fusion_lat": 0.0, "type": "electric_scooter", "bike_id": "5532d6469395500492d4806d43e149b7", "lat": 38.90038216666667, "name": "5532d6469395500492d4806d43e149b7", "is_disabled": 0, "rental_uris": {"android": "https://dc.lft.to/lastmile_qr_scan", "ios": "https://dc.lft.to/lastmile_qr_scan"}, "fusion_lon": 0.0, "lon": -76.9914745, "is_reserved": 0}, {"fusion_lat": 0.0, "type": "electric_scooter", "bike_id": "7c9a26db0d11a21c8b6f42c47a1076f2", "lat": 38.90296766666667, "name": "7c9a26db0d11a21c8b6f42c47a1076f2", "is_disabled": 0, "rental_uris": {"android": "https://dc.lft.to/lastmile_qr_scan", "ios": "https://dc.lft.to/lastmile_qr_scan"}, "fusion_lon": 0.0, "lon": -77.0211485, "is_reserved": 0}, {"fusion_lat": 0.0, "type": "electric_scooter", "bike_id": "f30d5833c657436cadaf706a80a287b2", "lat": 38.89878683333333, "name": "f30d5833c657436cadaf706a80a287b2", "is_disabled": 0, "rental_uris": {"android": "https://dc.lft.to/lastmile_qr_scan", "ios": "https://dc.lft.to/lastmile_qr_scan"}, "fusion_lon": 0.0, "lon": -77.04543, "is_reserved": 0}, {"fusion_lat": 0.0, "type": "electric_scooter", "bike_id": "475d873b0ade31e1d06c166ae5869d5a", "lat": 38.9032955, "name": "475d873b0ade31e1d06c166ae5869d5a", "is_disabled": 0, "rental_uris": {"android": "https://dc.lft.to/lastmile_qr_scan", "ios": "https://dc.lft.to/lastmile_qr_scan"}, "fusion_lon": 0.0, "lon": -77.03332133333333, "is_reserved": 0}, {"fusion_lat": 0.0, "type": "electric_bike", "bike_id": "d3011ffe490fd34862c8df89e00dec64", "lat": 38.89962883333333, "name": "d3011ffe490fd34862c8df89e00dec64", "is_disabled": 0, "rental_uris": {"android": "https://dc.lft.to/lastmile_qr_scan", "ios": "https://dc.lft.to/lastmile_qr_scan"}, "fusion_lon": 0.0, "lon": -77.03173583333333, "is_reserved": 0}, {"fusion_lat": 0.0, "type": "electric_scooter", "bike_id": "2164955b5b26c86b8a5def17135402a5", "lat": 38.90003333333333, "name": "2164955b5b26c86b8a5def17135402a5", "is_disabled": 0, "rental_uris": {"android": "https://dc.lft.to/lastmile_qr_scan", "ios": "https://dc.lft.to/lastmile_qr_scan"}, "fusion_lon": 0.0, "lon": -77.04121433333333, "is_reserved": 0}, {"fusion_lat": 0.0, "type": "electric_scooter", "bike_id": "53b50c72fc938dadbde32e65d1540c6e", "lat": 38.896706, "name": "53b50c72fc938dadbde32e65d1540c6e", "is_disabled": 0, "rental_uris": {"android": "https://dc.lft.to/lastmile_qr_scan", "ios": "https://dc.lft.to/lastmile_qr_scan"}, "fusion_lon": 0.0, "lon": -77.0503205, "is_reserved": 0}, {"fusion_lat": 0.0, "type": "electric_scooter", "bike_id": "1fec8ddbf0cc1826783799697492346b", "lat": 38.904719166666666, "name": "1fec8ddbf0cc1826783799697492346b", "is_disabled": 0, "rental_uris": {"android": "https://dc.lft.to/lastmile_qr_scan", "ios": "https://dc.lft.to/lastmile_qr_scan"}, "fusion_lon": 0.0, "lon": -77.03558516666666, "is_reserved": 0}, {"fusion_lat": 0.0, "type": "electric_scooter", "bike_id": "26f00f08a1c15b67a4b4f6c98cef910e", "lat": 38.92787783333333, "name": "26f00f08a1c15b67a4b4f6c98cef910e", "is_disabled": 0, "rental_uris": {"android": "https://dc.lft.to/lastmile_qr_scan", "ios": "https://dc.lft.to/lastmile_qr_scan"}, "fusion_lon": 0.0, "lon": -77.027211, "is_reserved": 0}, {"fusion_lat": 0.0, "type": "electric_scooter", "bike_id": "38d74cc71cef47dccb0c9976627e0a2c", "lat": 38.89778533333333, "name": "38d74cc71cef47dccb0c9976627e0a2c", "is_disabled": 0, "rental_uris": {"android": "https://dc.lft.to/lastmile_qr_scan", "ios": "https://dc.lft.to/lastmile_qr_scan"}, "fusion_lon": 0.0, "lon": -77.02693916666666, "is_reserved": 0}, {"fusion_lat": 0.0, "type": "electric_scooter", "bike_id": "9543450ffc5b09ef603099e5a0be7360", "lat": 38.88331383333333, "name": "9543450ffc5b09ef603099e5a0be7360", "is_disabled": 0, "rental_uris": {"android": "https://dc.lft.to/lastmile_qr_scan", "ios": "https://dc.lft.to/lastmile_qr_scan"}, "fusion_lon": 0.0, "lon": -77.029974, "is_reserved": 0}, {"fusion_lat": 0.0, "type": "electric_scooter", "bike_id": "c9d03572ba6d38d9d32391350d86240f", "lat": 38.925942, "name": "c9d03572ba6d38d9d32391350d86240f", "is_disabled": 0, "rental_uris": {"android": "https://dc.lft.to/lastmile_qr_scan", "ios": "https://dc.lft.to/lastmile_qr_scan"}, "fusion_lon": 0.0, "lon": -77.0439975, "is_reserved": 0}, {"fusion_lat": 0.0, "type": "electric_scooter", "bike_id": "3f67c58cb929f65b437f4e4a1b77943d", "lat": 38.89014783333333, "name": "3f67c58cb929f65b437f4e4a1b77943d", "is_disabled": 0, "rental_uris": {"android": "https://dc.lft.to/lastmile_qr_scan", "ios": "https://dc.lft.to/lastmile_qr_scan"}, "fusion_lon": 0.0, "lon": -76.93735533333333, "is_reserved": 0}, {"fusion_lat": 0.0, "type": "electric_scooter", "bike_id": "62fbea88635d3c1d8a1450d1d7eb5223", "lat": 38.946252333333334, "name": "62fbea88635d3c1d8a1450d1d7eb5223", "is_disabled": 0, "rental_uris": {"android": "https://dc.lft.to/lastmile_qr_scan", "ios": "https://dc.lft.to/lastmile_qr_scan"}, "fusion_lon": 0.0, "lon": -77.0802285, "is_reserved": 0}, {"fusion_lat": 0.0, "type": "electric_scooter", "bike_id": "a7b112421c3dea934207ec1de3ff5d8c", "lat": 38.879283, "name": "a7b112421c3dea934207ec1de3ff5d8c", "is_disabled": 0, "rental_uris": {"android": "https://dc.lft.to/lastmile_qr_scan", "ios": "https://dc.lft.to/lastmile_qr_scan"}, "fusion_lon": 0.0, "lon": -77.02372116666666, "is_reserved": 0}, {"fusion_lat": 0.0, "type": "electric_bike", "bike_id": "5ce66beaa42c191f4155ad86b1fdf6b7", "lat": 38.85591083333333, "name": "5ce66beaa42c191f4155ad86b1fdf6b7", "is_disabled": 0, "rental_uris": {"android": "https://dc.lft.to/lastmile_qr_scan", "ios": "https://dc.lft.to/lastmile_qr_scan"}, "fusion_lon": 0.0, "lon": -76.97269633333333, "is_reserved": 0}, {"fusion_lat": 0.0, "type": "electric_bike", "bike_id": "f757b76ebe2cd387f153589aa144b2ba", "lat": 38.900074833333335, "name": "f757b76ebe2cd387f153589aa144b2ba", "is_disabled": 0, "rental_uris": {"android": "https://dc.lft.to/lastmile_qr_scan", "ios": "https://dc.lft.to/lastmile_qr_scan"}, "fusion_lon": 0.0, "lon": -77.02984316666667, "is_reserved": 0}, {"fusion_lat": 0.0, "type": "electric_scooter", "bike_id": "9cb5268b0b21e5fe2ba847433baea96f", "lat": 38.9064095, "name": "9cb5268b0b21e5fe2ba847433baea96f", "is_disabled": 0, "rental_uris": {"android": "https://dc.lft.to/lastmile_qr_scan", "ios": "https://dc.lft.to/lastmile_qr_scan"}, "fusion_lon": 0.0, "lon": -77.005988, "is_reserved": 0}, {"fusion_lat": 0.0, "type": "electric_bike", "bike_id": "8e773db97f979e3ea55f275a9e26023b", "lat": 38.985589166666664, "name": "8e773db97f979e3ea55f275a9e26023b", "is_disabled": 0, "rental_uris": {"android": "https://dc.lft.to/lastmile_qr_scan", "ios": "https://dc.lft.to/lastmile_qr_scan"}, "fusion_lon": 0.0, "lon": -77.00402233333334, "is_reserved": 0}, {"fusion_lat": 0.0, "type": "electric_scooter", "bike_id": "2d33e6e9c0dc48f325136997cde9ac16", "lat": 38.921117333333335, "name": "2d33e6e9c0dc48f325136997cde9ac16", "is_disabled": 0, "rental_uris": {"android": "https://dc.lft.to/lastmile_qr_scan", "ios": "https://dc.lft.to/lastmile_qr_scan"}, "fusion_lon": 0.0, "lon": -77.03932216666666, "is_reserved": 0}, {"fusion_lat": 0.0, "type": "electric_scooter", "bike_id": "06ad45f62991d42c47e426a46811bbfa", "lat": 38.8961775, "name": "06ad45f62991d42c47e426a46811bbfa", "is_disabled": 0, "rental_uris": {"android": "https://dc.lft.to/lastmile_qr_scan", "ios": "https://dc.lft.to/lastmile_qr_scan"}, "fusion_lon": 0.0, "lon": -77.04425, "is_reserved": 0}, {"fusion_lat": 0.0, "type": "electric_scooter", "bike_id": "bc60d80882a363df5085caf6e3e99bd6", "lat": 38.892829, "name": "bc60d80882a363df5085caf6e3e99bd6", "is_disabled": 0, "rental_uris": {"android": "https://dc.lft.to/lastmile_qr_scan", "ios": "https://dc.lft.to/lastmile_qr_scan"}, "fusion_lon": 0.0, "lon": -77.05033233333333, "is_reserved": 0}, {"fusion_lat": 0.0, "type": "electric_scooter", "bike_id": "827acd66065fa35222225907934f459c", "lat": 38.924333833333336, "name": "827acd66065fa35222225907934f459c", "is_disabled": 0, "rental_uris": {"android": "https://dc.lft.to/lastmile_qr_scan", "ios": "https://dc.lft.to/lastmile_qr_scan"}, "fusion_lon": 0.0, "lon": -77.04245933333333, "is_reserved": 0}, {"fusion_lat": 0.0, "type": "electric_scooter", "bike_id": "fa0c924339580082cd4aec132256106e", "lat": 38.923321666666666, "name": "fa0c924339580082cd4aec132256106e", "is_disabled": 0, "rental_uris": {"android": "https://dc.lft.to/lastmile_qr_scan", "ios": "https://dc.lft.to/lastmile_qr_scan"}, "fusion_lon": 0.0, "lon": -77.00892066666667, "is_reserved": 0}, {"fusion_lat": 0.0, "type": "electric_scooter", "bike_id": "658533323498cf917450b89094272922", "lat": 38.924493166666664, "name": "658533323498cf917450b89094272922", "is_disabled": 0, "rental_uris": {"android": "https://dc.lft.to/lastmile_qr_scan", "ios": "https://dc.lft.to/lastmile_qr_scan"}, "fusion_lon": 0.0, "lon": -77.0215235, "is_reserved": 0}, {"fusion_lat": 0.0, "type": "electric_scooter", "bike_id": "d20b1a63664328f88de01eca9e22a0da", "lat": 38.926863166666664, "name": "d20b1a63664328f88de01eca9e22a0da", "is_disabled": 0, "rental_uris": {"android": "https://dc.lft.to/lastmile_qr_scan", "ios": "https://dc.lft.to/lastmile_qr_scan"}, "fusion_lon": 0.0, "lon": -77.01573483333334, "is_reserved": 0}, {"fusion_lat": 0.0, "type": "electric_bike", "bike_id": "ff3d4fba513306026dc68a8f5bcd0f9a", "lat": 38.985081666666666, "name": "ff3d4fba513306026dc68a8f5bcd0f9a", "is_disabled": 0, "rental_uris": {"android": "https://dc.lft.to/lastmile_qr_scan", "ios": "https://dc.lft.to/lastmile_qr_scan"}, "fusion_lon": 0.0, "lon": -76.98195283333334, "is_reserved": 0}, {"fusion_lat": 0.0, "type": "electric_scooter", "bike_id": "49da6f246dd320fc413fad3314a63d72", "lat": 38.89866133333334, "name": "49da6f246dd320fc413fad3314a63d72", "is_disabled": 0, "rental_uris": {"android": "https://dc.lft.to/lastmile_qr_scan", "ios": "https://dc.lft.to/lastmile_qr_scan"}, "fusion_lon": 0.0, "lon": -77.0322395, "is_reserved": 0}, {"fusion_lat": 0.0, "type": "electric_scooter", "bike_id": "fdc22ec8d22bb1c475d1494a9d55ea53", "lat": 38.92123633333333, "name": "fdc22ec8d22bb1c475d1494a9d55ea53", "is_disabled": 0, "rental_uris": {"android": "https://dc.lft.to/lastmile_qr_scan", "ios": "https://dc.lft.to/lastmile_qr_scan"}, "fusion_lon": 0.0, "lon": -77.04133316666666, "is_reserved": 0}, {"fusion_lat": 0.0, "type": "electric_bike", "bike_id": "8d866b21b9ad8c9cb336aec29e5a8d9c", "lat": 38.94372216666667, "name": "8d866b21b9ad8c9cb336aec29e5a8d9c", "is_disabled": 0, "rental_uris": {"android": "https://dc.lft.to/lastmile_qr_scan", "ios": "https://dc.lft.to/lastmile_qr_scan"}, "fusion_lon": 0.0, "lon": -77.06352783333334, "is_reserved": 0}, {"fusion_lat": 0.0, "type": "electric_scooter", "bike_id": "321a3a5f29f363992922ee5b219805cf", "lat": 38.92456083333333, "name": "321a3a5f29f363992922ee5b219805cf", "is_disabled": 0, "rental_uris": {"android": "https://dc.lft.to/lastmile_qr_scan", "ios": "https://dc.lft.to/lastmile_qr_scan"}, "fusion_lon": 0.0, "lon": -76.9991635, "is_reserved": 0}, {"fusion_lat": 0.0, "type": "electric_scooter", "bike_id": "c7f726251473dacac4a34f96e41166c0", "lat": 38.92445266666667, "name": "c7f726251473dacac4a34f96e41166c0", "is_disabled": 0, "rental_uris": {"android": "https://dc.lft.to/lastmile_qr_scan", "ios": "https://dc.lft.to/lastmile_qr_scan"}, "fusion_lon": 0.0, "lon": -77.0203125, "is_reserved": 0}, {"fusion_lat": 0.0, "type": "electric_scooter", "bike_id": "714d444d99e8a9a21c83c40562a260d2", "lat": 38.919496, "name": "714d444d99e8a9a21c83c40562a260d2", "is_disabled": 0, "rental_uris": {"android": "https://dc.lft.to/lastmile_qr_scan", "ios": "https://dc.lft.to/lastmile_qr_scan"}, "fusion_lon": 0.0, "lon": -77.02510266666667, "is_reserved": 0}, {"fusion_lat": 0.0, "type": "electric_scooter", "bike_id": "648246ceafdd5b0fd6eb51a9f74b5f68", "lat": 38.87547133333333, "name": "648246ceafdd5b0fd6eb51a9f74b5f68", "is_disabled": 0, "rental_uris": {"android": "https://dc.lft.to/lastmile_qr_scan", "ios": "https://dc.lft.to/lastmile_qr_scan"}, "fusion_lon": 0.0, "lon": -77.00597616666667, "is_reserved": 0}, {"fusion_lat": 0.0, "type": "electric_scooter", "bike_id": "2e229af1dc6b3f34e1e0d86802b7a84e", "lat": 38.926547166666666, "name": "2e229af1dc6b3f34e1e0d86802b7a84e", "is_disabled": 0, "rental_uris": {"android": "https://dc.lft.to/lastmile_qr_scan", "ios": "https://dc.lft.to/lastmile_qr_scan"}, "fusion_lon": 0.0, "lon": -77.0371105, "is_reserved": 0}, {"fusion_lat": 0.0, "type": "electric_scooter", "bike_id": "f502a17905321f604850f3351df7f7b1", "lat": 38.922155833333335, "name": "f502a17905321f604850f3351df7f7b1", "is_disabled": 0, "rental_uris": {"android": "https://dc.lft.to/lastmile_qr_scan", "ios": "https://dc.lft.to/lastmile_qr_scan"}, "fusion_lon": 0.0, "lon": -77.03201866666667, "is_reserved": 0}, {"fusion_lat": 0.0, "type": "electric_scooter", "bike_id": "8f2e8f1a1f18277f377a08206ea79b13", "lat": 38.93832283333333, "name": "8f2e8f1a1f18277f377a08206ea79b13", "is_disabled": 0, "rental_uris": {"android": "https://dc.lft.to/lastmile_qr_scan", "ios": "https://dc.lft.to/lastmile_qr_scan"}, "fusion_lon": 0.0, "lon": -76.99051166666666, "is_reserved": 0}, {"fusion_lat": 0.0, "type": "electric_scooter", "bike_id": "47bfa9576ec2fc9c2cee3ad08f59cfa0", "lat": 38.92419266666667, "name": "47bfa9576ec2fc9c2cee3ad08f59cfa0", "is_disabled": 0, "rental_uris": {"android": "https://dc.lft.to/lastmile_qr_scan", "ios": "https://dc.lft.to/lastmile_qr_scan"}, "fusion_lon": 0.0, "lon": -77.019484, "is_reserved": 0}, {"fusion_lat": 0.0, "type": "electric_scooter", "bike_id": "8f420b35eb3852e9535d4cd1b02356ad", "lat": 38.902498, "name": "8f420b35eb3852e9535d4cd1b02356ad", "is_disabled": 0, "rental_uris": {"android": "https://dc.lft.to/lastmile_qr_scan", "ios": "https://dc.lft.to/lastmile_qr_scan"}, "fusion_lon": 0.0, "lon": -77.03333816666667, "is_reserved": 0}, {"fusion_lat": 0.0, "type": "electric_scooter", "bike_id": "d2da002bb3a9c10e174ad777deec2cf2", "lat": 38.9347215, "name": "d2da002bb3a9c10e174ad777deec2cf2", "is_disabled": 0, "rental_uris": {"android": "https://dc.lft.to/lastmile_qr_scan", "ios": "https://dc.lft.to/lastmile_qr_scan"}, "fusion_lon": 0.0, "lon": -76.98869466666666, "is_reserved": 0}, {"fusion_lat": 0.0, "type": "electric_scooter", "bike_id": "e1dc25e3d4ee97c915b6d99c0fa4c22a", "lat": 38.8993725, "name": "e1dc25e3d4ee97c915b6d99c0fa4c22a", "is_disabled": 0, "rental_uris": {"android": "https://dc.lft.to/lastmile_qr_scan", "ios": "https://dc.lft.to/lastmile_qr_scan"}, "fusion_lon": 0.0, "lon": -77.03934116666667, "is_reserved": 0}, {"fusion_lat": 0.0, "type": "electric_scooter", "bike_id": "7ac948282cd327662a798c90b88a4613", "lat": 38.92063783333333, "name": "7ac948282cd327662a798c90b88a4613", "is_disabled": 0, "rental_uris": {"android": "https://dc.lft.to/lastmile_qr_scan", "ios": "https://dc.lft.to/lastmile_qr_scan"}, "fusion_lon": 0.0, "lon": -77.0230325, "is_reserved": 0}, {"fusion_lat": 0.0, "type": "electric_scooter", "bike_id": "25cf310452f2db5096d68a24bd3780cd", "lat": 38.89225233333333, "name": "25cf310452f2db5096d68a24bd3780cd", "is_disabled": 0, "rental_uris": {"android": "https://dc.lft.to/lastmile_qr_scan", "ios": "https://dc.lft.to/lastmile_qr_scan"}, "fusion_lon": 0.0, "lon": -77.02537033333333, "is_reserved": 0}, {"fusion_lat": 0.0, "type": "electric_scooter", "bike_id": "1862fd965bfc397d2cfc31b196b65a55", "lat": 38.89636216666667, "name": "1862fd965bfc397d2cfc31b196b65a55", "is_disabled": 0, "rental_uris": {"android": "https://dc.lft.to/lastmile_qr_scan", "ios": "https://dc.lft.to/lastmile_qr_scan"}, "fusion_lon": 0.0, "lon": -77.02253533333334, "is_reserved": 0}, {"fusion_lat": 0.0, "type": "electric_scooter", "bike_id": "f12b5bb7fa01092f773fbf39709feb5c", "lat": 38.881166666666665, "name": "f12b5bb7fa01092f773fbf39709feb5c", "is_disabled": 0, "rental_uris": {"android": "https://dc.lft.to/lastmile_qr_scan", "ios": "https://dc.lft.to/lastmile_qr_scan"}, "fusion_lon": 0.0, "lon": -77.02651816666666, "is_reserved": 0}, {"fusion_lat": 0.0, "type": "electric_scooter", "bike_id": "6e106e0f2ae542b7ca430c696f7bc61d", "lat": 38.92192816666667, "name": "6e106e0f2ae542b7ca430c696f7bc61d", "is_disabled": 0, "rental_uris": {"android": "https://dc.lft.to/lastmile_qr_scan", "ios": "https://dc.lft.to/lastmile_qr_scan"}, "fusion_lon": 0.0, "lon": -76.99422616666666, "is_reserved": 0}, {"fusion_lat": 0.0, "type": "electric_scooter", "bike_id": "78662880ad0348c7f0db37c6ddf24714", "lat": 38.92163683333333, "name": "78662880ad0348c7f0db37c6ddf24714", "is_disabled": 0, "rental_uris": {"android": "https://dc.lft.to/lastmile_qr_scan", "ios": "https://dc.lft.to/lastmile_qr_scan"}, "fusion_lon": 0.0, "lon": -77.02675466666666, "is_reserved": 0}, {"fusion_lat": 0.0, "type": "electric_scooter", "bike_id": "cc7cc55f6b6a4af7131c42cfc8320f2e", "lat": 38.944976833333335, "name": "cc7cc55f6b6a4af7131c42cfc8320f2e", "is_disabled": 0, "rental_uris": {"android": "https://dc.lft.to/lastmile_qr_scan", "ios": "https://dc.lft.to/lastmile_qr_scan"}, "fusion_lon": 0.0, "lon": -77.028456, "is_reserved": 0}, {"fusion_lat": 0.0, "type": "electric_scooter", "bike_id": "6c07d5a0616a3f1ff97d9c7a50ce112b", "lat": 38.90249466666667, "name": "6c07d5a0616a3f1ff97d9c7a50ce112b", "is_disabled": 0, "rental_uris": {"android": "https://dc.lft.to/lastmile_qr_scan", "ios": "https://dc.lft.to/lastmile_qr_scan"}, "fusion_lon": 0.0, "lon": -77.014477, "is_reserved": 0}, {"fusion_lat": 0.0, "type": "electric_scooter", "bike_id": "21e2d0859b82ed36190d002b36aea2ad", "lat": 38.92549116666667, "name": "21e2d0859b82ed36190d002b36aea2ad", "is_disabled": 0, "rental_uris": {"android": "https://dc.lft.to/lastmile_qr_scan", "ios": "https://dc.lft.to/lastmile_qr_scan"}, "fusion_lon": 0.0, "lon": -77.02282333333333, "is_reserved": 0}, {"fusion_lat": 0.0, "type": "electric_scooter", "bike_id": "71517bd930f8c96aa80e4ef0aa3ff5c9", "lat": 38.921135666666665, "name": "71517bd930f8c96aa80e4ef0aa3ff5c9", "is_disabled": 0, "rental_uris": {"android": "https://dc.lft.to/lastmile_qr_scan", "ios": "https://dc.lft.to/lastmile_qr_scan"}, "fusion_lon": 0.0, "lon": -77.02094266666667, "is_reserved": 0}, {"fusion_lat": 0.0, "type": "electric_bike", "bike_id": "d54504c73d0e5bf46a917065e42d040a", "lat": 38.81943316666667, "name": "d54504c73d0e5bf46a917065e42d040a", "is_disabled": 0, "rental_uris": {"android": "https://dc.lft.to/lastmile_qr_scan", "ios": "https://dc.lft.to/lastmile_qr_scan"}, "fusion_lon": 0.0, "lon": -77.0020905, "is_reserved": 0}, {"fusion_lat": 0.0, "type": "electric_scooter", "bike_id": "885f366264c79b949eb6974908a26654", "lat": 38.892218666666665, "name": "885f366264c79b949eb6974908a26654", "is_disabled": 0, "rental_uris": {"android": "https://dc.lft.to/lastmile_qr_scan", "ios": "https://dc.lft.to/lastmile_qr_scan"}, "fusion_lon": 0.0, "lon": -77.03173833333334, "is_reserved": 0}, {"fusion_lat": 0.0, "type": "electric_bike", "bike_id": "1441a8b100fdcb72f5d3bee9da7c2057", "lat": 39.02299083333333, "name": "1441a8b100fdcb72f5d3bee9da7c2057", "is_disabled": 0, "rental_uris": {"android": "https://dc.lft.to/lastmile_qr_scan", "ios": "https://dc.lft.to/lastmile_qr_scan"}, "fusion_lon": 0.0, "lon": -77.02104883333334, "is_reserved": 0}, {"fusion_lat": 0.0, "type": "electric_scooter", "bike_id": "4773adb586d5dba75f8638d4ec012419", "lat": 38.951919333333336, "name": "4773adb586d5dba75f8638d4ec012419", "is_disabled": 0, "rental_uris": {"android": "https://dc.lft.to/lastmile_qr_scan", "ios": "https://dc.lft.to/lastmile_qr_scan"}, "fusion_lon": 0.0, "lon": -77.02639833333333, "is_reserved": 0}, {"fusion_lat": 0.0, "type": "electric_bike", "bike_id": "2f2f0783acb813f316cd38ba813db4e6", "lat": 38.904501333333336, "name": "2f2f0783acb813f316cd38ba813db4e6", "is_disabled": 0, "rental_uris": {"android": "https://dc.lft.to/lastmile_qr_scan", "ios": "https://dc.lft.to/lastmile_qr_scan"}, "fusion_lon": 0.0, "lon": -77.03472766666667, "is_reserved": 0}, {"fusion_lat": 0.0, "type": "electric_bike", "bike_id": "5bb4504b9e13ee08f0b23c87e39935e4", "lat": 38.9447535, "name": "5bb4504b9e13ee08f0b23c87e39935e4", "is_disabled": 0, "rental_uris": {"android": "https://dc.lft.to/lastmile_qr_scan", "ios": "https://dc.lft.to/lastmile_qr_scan"}, "fusion_lon": 0.0, "lon": -76.9868605, "is_reserved": 0}, {"fusion_lat": 0.0, "type": "electric_bike", "bike_id": "4fc8858a71f7e0f06afe2a75f9f8c4bb", "lat": 38.918624333333334, "name": "4fc8858a71f7e0f06afe2a75f9f8c4bb", "is_disabled": 0, "rental_uris": {"android": "https://dc.lft.to/lastmile_qr_scan", "ios": "https://dc.lft.to/lastmile_qr_scan"}, "fusion_lon": 0.0, "lon": -76.96090333333333, "is_reserved": 0}, {"fusion_lat": 0.0, "type": "electric_scooter", "bike_id": "335c843dd70d78369a6e5ccd0166cb8f", "lat": 38.895339, "name": "335c843dd70d78369a6e5ccd0166cb8f", "is_disabled": 0, "rental_uris": {"android": "https://dc.lft.to/lastmile_qr_scan", "ios": "https://dc.lft.to/lastmile_qr_scan"}, "fusion_lon": 0.0, "lon": -77.02905033333333, "is_reserved": 0}, {"fusion_lat": 0.0, "type": "electric_scooter", "bike_id": "bc08bb5184ba17014e7fe3676c5ca08e", "lat": 38.90129783333333, "name": "bc08bb5184ba17014e7fe3676c5ca08e", "is_disabled": 0, "rental_uris": {"android": "https://dc.lft.to/lastmile_qr_scan", "ios": "https://dc.lft.to/lastmile_qr_scan"}, "fusion_lon": 0.0, "lon": -77.03361783333334, "is_reserved": 0}, {"fusion_lat": 0.0, "type": "electric_bike", "bike_id": "8f9fad0a14b197674ea058fb98b6562b", "lat": 38.928960000000004, "name": "8f9fad0a14b197674ea058fb98b6562b", "is_disabled": 0, "rental_uris": {"android": "https://dc.lft.to/lastmile_qr_scan", "ios": "https://dc.lft.to/lastmile_qr_scan"}, "fusion_lon": 0.0, "lon": -77.2317865, "is_reserved": 0}, {"fusion_lat": 0.0, "type": "electric_scooter", "bike_id": "c08a51ab15e9a69f325f593fc68743de", "lat": 38.948877833333334, "name": "c08a51ab15e9a69f325f593fc68743de", "is_disabled": 0, "rental_uris": {"android": "https://dc.lft.to/lastmile_qr_scan", "ios": "https://dc.lft.to/lastmile_qr_scan"}, "fusion_lon": 0.0, "lon": -77.080555, "is_reserved": 0}, {"fusion_lat": 0.0, "type": "electric_scooter", "bike_id": "4f7fe5a5cdac5200c73a14881473dd3c", "lat": 38.90041133333333, "name": "4f7fe5a5cdac5200c73a14881473dd3c", "is_disabled": 0, "rental_uris": {"android": "https://dc.lft.to/lastmile_qr_scan", "ios": "https://dc.lft.to/lastmile_qr_scan"}, "fusion_lon": 0.0, "lon": -77.02292, "is_reserved": 0}, {"fusion_lat": 0.0, "type": "electric_bike", "bike_id": "6cbbe597928c5a6d392e20f62b80423f", "lat": 38.8383065, "name": "6cbbe597928c5a6d392e20f62b80423f", "is_disabled": 0, "rental_uris": {"android": "https://dc.lft.to/lastmile_qr_scan", "ios": "https://dc.lft.to/lastmile_qr_scan"}, "fusion_lon": 0.0, "lon": -77.07914666666667, "is_reserved": 0}, {"fusion_lat": 0.0, "type": "electric_scooter", "bike_id": "5d1d8bc280bd50304ff1e278b3010916", "lat": 38.920657, "name": "5d1d8bc280bd50304ff1e278b3010916", "is_disabled": 0, "rental_uris": {"android": "https://dc.lft.to/lastmile_qr_scan", "ios": "https://dc.lft.to/lastmile_qr_scan"}, "fusion_lon": 0.0, "lon": -77.02298283333333, "is_reserved": 0}, {"fusion_lat": 0.0, "type": "electric_scooter", "bike_id": "11f289a60a8eb51c73d4f9a4a58138c9", "lat": 38.892261833333336, "name": "11f289a60a8eb51c73d4f9a4a58138c9", "is_disabled": 0, "rental_uris": {"android": "https://dc.lft.to/lastmile_qr_scan", "ios": "https://dc.lft.to/lastmile_qr_scan"}, "fusion_lon": 0.0, "lon": -77.031761, "is_reserved": 0}, {"fusion_lat": 0.0, "type": "electric_scooter", "bike_id": "28e79b9b981f3ae36161d8990f00b57c", "lat": 38.920623666666664, "name": "28e79b9b981f3ae36161d8990f00b57c", "is_disabled": 0, "rental_uris": {"android": "https://dc.lft.to/lastmile_qr_scan", "ios": "https://dc.lft.to/lastmile_qr_scan"}, "fusion_lon": 0.0, "lon": -77.023011, "is_reserved": 0}, {"fusion_lat": 0.0, "type": "electric_scooter", "bike_id": "10b93ea614d52bcc6798267b78c8806d", "lat": 38.89908033333333, "name": "10b93ea614d52bcc6798267b78c8806d", "is_disabled": 0, "rental_uris": {"android": "https://dc.lft.to/lastmile_qr_scan", "ios": "https://dc.lft.to/lastmile_qr_scan"}, "fusion_lon": 0.0, "lon": -77.03945766666666, "is_reserved": 0}, {"fusion_lat": 0.0, "type": "electric_scooter", "bike_id": "cb67df7b8a74c72d6559c02c9a9a0d50", "lat": 38.88647983333333, "name": "cb67df7b8a74c72d6559c02c9a9a0d50", "is_disabled": 0, "rental_uris": {"android": "https://dc.lft.to/lastmile_qr_scan", "ios": "https://dc.lft.to/lastmile_qr_scan"}, "fusion_lon": 0.0, "lon": -77.000985, "is_reserved": 0}, {"fusion_lat": 0.0, "type": "electric_scooter", "bike_id": "1494c3e3163704b541091b7826d08eeb", "lat": 38.9158655, "name": "1494c3e3163704b541091b7826d08eeb", "is_disabled": 0, "rental_uris": {"android": "https://dc.lft.to/lastmile_qr_scan", "ios": "https://dc.lft.to/lastmile_qr_scan"}, "fusion_lon": 0.0, "lon": -77.04523316666666, "is_reserved": 0}, {"fusion_lat": 0.0, "type": "electric_scooter", "bike_id": "beadd2c675c0328ed95b11e7c668059d", "lat": 38.9581425, "name": "beadd2c675c0328ed95b11e7c668059d", "is_disabled": 0, "rental_uris": {"android": "https://dc.lft.to/lastmile_qr_scan", "ios": "https://dc.lft.to/lastmile_qr_scan"}, "fusion_lon": 0.0, "lon": -77.01452616666667, "is_reserved": 0}, {"fusion_lat": 0.0, "type": "electric_scooter", "bike_id": "598231850634ed9359a7fd40fcabad27", "lat": 38.90123483333333, "name": "598231850634ed9359a7fd40fcabad27", "is_disabled": 0, "rental_uris": {"android": "https://dc.lft.to/lastmile_qr_scan", "ios": "https://dc.lft.to/lastmile_qr_scan"}, "fusion_lon": 0.0, "lon": -77.0433265, "is_reserved": 0}, {"fusion_lat": 0.0, "type": "electric_scooter", "bike_id": "be4859c8897c865552f1f178509018b9", "lat": 38.917215666666664, "name": "be4859c8897c865552f1f178509018b9", "is_disabled": 0, "rental_uris": {"android": "https://dc.lft.to/lastmile_qr_scan", "ios": "https://dc.lft.to/lastmile_qr_scan"}, "fusion_lon": 0.0, "lon": -77.02972866666667, "is_reserved": 0}, {"fusion_lat": 0.0, "type": "electric_scooter", "bike_id": "8f19a79d54ed1ce3e6a92f6df6742339", "lat": 38.9265965, "name": "8f19a79d54ed1ce3e6a92f6df6742339", "is_disabled": 0, "rental_uris": {"android": "https://dc.lft.to/lastmile_qr_scan", "ios": "https://dc.lft.to/lastmile_qr_scan"}, "fusion_lon": 0.0, "lon": -77.03707283333334, "is_reserved": 0}, {"fusion_lat": 0.0, "type": "electric_scooter", "bike_id": "9c16a8681c805404438ccf91b8b42f02", "lat": 38.90340533333333, "name": "9c16a8681c805404438ccf91b8b42f02", "is_disabled": 0, "rental_uris": {"android": "https://dc.lft.to/lastmile_qr_scan", "ios": "https://dc.lft.to/lastmile_qr_scan"}, "fusion_lon": 0.0, "lon": -77.05908116666667, "is_reserved": 0}, {"fusion_lat": 0.0, "type": "electric_scooter", "bike_id": "5c7780ee1c3e913e374b78ac41ed3485", "lat": 38.92605183333333, "name": "5c7780ee1c3e913e374b78ac41ed3485", "is_disabled": 0, "rental_uris": {"android": "https://dc.lft.to/lastmile_qr_scan", "ios": "https://dc.lft.to/lastmile_qr_scan"}, "fusion_lon": 0.0, "lon": -77.02154716666666, "is_reserved": 0}, {"fusion_lat": 0.0, "type": "electric_scooter", "bike_id": "ba5df8659dba64c21c8541c91dd1fe8a", "lat": 38.89791833333334, "name": "ba5df8659dba64c21c8541c91dd1fe8a", "is_disabled": 0, "rental_uris": {"android": "https://dc.lft.to/lastmile_qr_scan", "ios": "https://dc.lft.to/lastmile_qr_scan"}, "fusion_lon": 0.0, "lon": -77.0222555, "is_reserved": 0}, {"fusion_lat": 0.0, "type": "electric_scooter", "bike_id": "5feb3fe51ea69330867161f76b1108f2", "lat": 38.920737333333335, "name": "5feb3fe51ea69330867161f76b1108f2", "is_disabled": 0, "rental_uris": {"android": "https://dc.lft.to/lastmile_qr_scan", "ios": "https://dc.lft.to/lastmile_qr_scan"}, "fusion_lon": 0.0, "lon": -77.02209033333334, "is_reserved": 0}, {"fusion_lat": 0.0, "type": "electric_bike", "bike_id": "8fa9a979dded3e3eec242a4fa3a94cc5", "lat": 38.8313735, "name": "8fa9a979dded3e3eec242a4fa3a94cc5", "is_disabled": 0, "rental_uris": {"android": "https://dc.lft.to/lastmile_qr_scan", "ios": "https://dc.lft.to/lastmile_qr_scan"}, "fusion_lon": 0.0, "lon": -77.11316383333333, "is_reserved": 0}, {"fusion_lat": 0.0, "type": "electric_scooter", "bike_id": "c2a3cdc862c0452c0d243d3c0b7ee354", "lat": 38.90992, "name": "c2a3cdc862c0452c0d243d3c0b7ee354", "is_disabled": 0, "rental_uris": {"android": "https://dc.lft.to/lastmile_qr_scan", "ios": "https://dc.lft.to/lastmile_qr_scan"}, "fusion_lon": 0.0, "lon": -77.00916783333334, "is_reserved": 0}, {"fusion_lat": 0.0, "type": "electric_scooter", "bike_id": "0c2ca00ff814d85da6f2c9a8de03addd", "lat": 38.92126066666667, "name": "0c2ca00ff814d85da6f2c9a8de03addd", "is_disabled": 0, "rental_uris": {"android": "https://dc.lft.to/lastmile_qr_scan", "ios": "https://dc.lft.to/lastmile_qr_scan"}, "fusion_lon": 0.0, "lon": -77.01799766666667, "is_reserved": 0},