{"data": {"bikes": [{"fusion_lat": 0.0, "name": "89e53792a7b90b7f180958ee23480689", "is_disabled": 0, "rental_uris": {"android": "https://dc.lft.to/lastmile_qr_scan", "ios": "https://dc.lft.to/lastmile_qr_scan"}, "fusion_lon": 0.0, "lat": 38.924762, "bike_id": "89e53792a7b90b7f180958ee23480689", "type": "electric_scooter", "is_reserved": 0, "lon": -77.03911566666666}, {"fusion_lat": 0.0, "name": "39227fb1603b1c8e67b4f18e1c4a2503", "is_disabled": 0, "rental_uris": {"android": "https://dc.lft.to/lastmile_qr_scan", "ios": "https://dc.lft.to/lastmile_qr_scan"}, "fusion_lon": 0.0, "lat": 38.92309783333333, "bike_id": "39227fb1603b1c8e67b4f18e1c4a2503", "type": "electric_scooter", "is_reserved": 0, "lon": -77.03902116666667}, {"fusion_lat": 0.0, "name": "ed6e840a0e7c68a99aa47a5bf83173dc", "is_disabled": 0, "rental_uris": {"android": "https://dc.lft.to/lastmile_qr_scan", "ios": "https://dc.lft.to/lastmile_qr_scan"}, "fusion_lon": 0.0, "lat": 38.91608083333333, "bike_id": "ed6e840a0e7c68a99aa47a5bf83173dc", "type": "electric_scooter", "is_reserved": 0, "lon": -77.04602716666666}, {"fusion_lat": 0.0, "name": "8787ab0daa99af7deb596918e9700ca9", "is_disabled": 0, "rental_uris": {"android": "https://dc.lft.to/lastmile_qr_scan", "ios": "https://dc.lft.to/lastmile_qr_scan"}, "fusion_lon": 0.0, "lat": 38.9071135, "bike_id": "8787ab0daa99af7deb596918e9700ca9", "type": "electric_scooter", "is_reserved": 0, "lon": -77.05132983333333}, {"fusion_lat": 0.0, "name": "ed96ac8e47400cd326b415ce94f354f6", "is_disabled": 0, "rental_uris": {"android": "https://dc.lft.to/lastmile_qr_scan", "ios": "https://dc.lft.to/lastmile_qr_scan"}, "fusion_lon": 0.0, "lat": 38.89220916666667, "bike_id": "ed96ac8e47400cd326b415ce94f354f6", "type": "electric_scooter", "is_reserved": 0, "lon": -77.03220133333333}, {"fusion_lat": 0.0, "name": "a2f98adebba9aa3af8dfe2e3c382ddc8", "is_disabled": 0, "rental_uris": {"android": "https://dc.lft.to/lastmile_qr_scan", "ios": "https://dc.lft.to/lastmile_qr_scan"}, "fusion_lon": 0.0, "lat": 38.9161135, "bike_id": "a2f98adebba9aa3af8dfe2e3c382ddc8", "type": "electric_scooter", "is_reserved": 0, "lon": -77.04602183333333}, {"fusion_lat": 0.0, "name": "1fe441a606a02118f1c79c5cd698dbe6", "is_disabled": 0, "rental_uris": {"android": "https://dc.lft.to/lastmile_qr_scan", "ios": "https://dc.lft.to/lastmile_qr_scan"}, "fusion_lon": 0.0, "lat": 38.877552666666666, "bike_id": "1fe441a606a02118f1c79c5cd698dbe6", "type": "electric_scooter", "is_reserved": 0, "lon": -77.01427266666667}, {"fusion_lat": 0.0, "name": "93b26d455f7f47c32462262cdb91b721", "is_disabled": 0, "rental_uris": {"android": "https://dc.lft.to/lastmile_qr_scan", "ios": "https://dc.lft.to/lastmile_qr_scan"}, "fusion_lon": 0.0, "lat": 38.9006625, "bike_id": "93b26d455f7f47c32462262cdb91b721", "type": "electric_scooter", "is_reserved": 0, "lon": -76.9274435}, {"fusion_lat": 0.0, "name": "0aebc995f02a0aa1593904b02c170e86", "is_disabled": 0, "rental_uris": {"android": "https://dc.lft.to/lastmile_qr_scan", "ios": "https://dc.lft.to/lastmile_qr_scan"}, "fusion_lon": 0.0, "lat": 38.884404333333336, "bike_id": "0aebc995f02a0aa1593904b02c170e86", "type": "electric_scooter", "is_reserved": 0, "lon": -77.00345966666667}, {"fusion_lat": 0.0, "name": "4b18d93df70c104488d31616700eb108", "is_disabled": 0, "rental_uris": {"android": "https://dc.lft.to/lastmile_qr_scan", "ios": "https://dc.lft.to/lastmile_qr_scan"}, "fusion_lon": 0.0, "lat": 38.895391000000004, "bike_id": "4b18d93df70c104488d31616700eb108", "type": "electric_scooter", "is_reserved": 0, "lon": -76.9495675}, {"fusion_lat": 0.0, "name": "0fb2c821871c424585f3cd59f4d866cf", "is_disabled": 0, "rental_uris": {"android": "https://dc.lft.to/lastmile_qr_scan", "ios": "https://dc.lft.to/lastmile_qr_scan"}, "fusion_lon": 0.0, "lat": 38.91138466666666, "bike_id": "0fb2c821871c424585f3cd59f4d866cf", "type": "electric_bike", "is_reserved": 0, "lon": -77.0657035}, {"fusion_lat": 0.0, "name": "5e58017203ed6d2b577dcf0e0e814aa5", "is_disabled": 0, "rental_uris": {"android": "https://dc.lft.to/lastmile_qr_scan", "ios": "https://dc.lft.to/lastmile_qr_scan"}, "fusion_lon": 0.0, "lat": 38.90028133333333, "bike_id": "5e58017203ed6d2b577dcf0e0e814aa5", "type": "electric_scooter", "is_reserved": 0, "lon": -77.00199933333333}, {"fusion_lat": 0.0, "name": "567ba4e604abbe8860a9a1e51a65182c", "is_disabled": 0, "rental_uris": {"android": "https://dc.lft.to/lastmile_qr_scan", "ios": "https://dc.lft.to/lastmile_qr_scan"}, "fusion_lon": 0.0, "lat": 38.80448416666667, "bike_id": "567ba4e604abbe8860a9a1e51a65182c", "type": "electric_bike", "is_reserved": 0, "lon": -77.05383716666667}, {"fusion_lat": 0.0, "name": "d88a759e8b6993eab370c2ac94fccf1a", "is_disabled": 0, "rental_uris": {"android": "https://dc.lft.to/lastmile_qr_scan", "ios": "https://dc.lft.to/lastmile_qr_scan"}, "fusion_lon": 0.0, "lat": 38.92597816666667, "bike_id": "d88a759e8b6993eab370c2ac94fccf1a", "type": "electric_scooter", "is_reserved": 0, "lon": -77.03399166666667}, {"fusion_lat": 0.0, "name": "2c419019bd2e27cfd0ff6c764fe54196", "is_disabled": 0, "rental_uris": {"android": "https://dc.lft.to/lastmile_qr_scan", "ios": "https://dc.lft.to/lastmile_qr_scan"}, "fusion_lon": 0.0, "lat": 38.896811166666666, "bike_id": "2c419019bd2e27cfd0ff6c764fe54196", "type": "electric_scooter", "is_reserved": 0, "lon": -77.05115066666667}, {"fusion_lat": 0.0, "name": "e95365bf7955cf7c03d991647d6f0ea1", "is_disabled": 0, "rental_uris": {"android": "https://dc.lft.to/lastmile_qr_scan", "ios": "https://dc.lft.to/lastmile_qr_scan"}, "fusion_lon": 0.0, "lat": 38.8667275, "bike_id": "e95365bf7955cf7c03d991647d6f0ea1", "type": "electric_scooter", "is_reserved": 0, "lon": -77.0102165}, {"fusion_lat": 0.0, "name": "e77b4af322e3b10416c0574df4eeb5d7", "is_disabled": 0, "rental_uris": {"android": "https://dc.lft.to/lastmile_qr_scan", "ios": "https://dc.lft.to/lastmile_qr_scan"}, "fusion_lon": 0.0, "lat": 38.8936325, "bike_id": "e77b4af322e3b10416c0574df4eeb5d7", "type": "electric_scooter", "is_reserved": 0, "lon": -77.02255266666667}, {"fusion_lat": 0.0, "name": "880c8e939e7d27376d813d8f6740e9d9", "is_disabled": 0, "rental_uris": {"android": "https://dc.lft.to/lastmile_qr_scan", "ios": "https://dc.lft.to/lastmile_qr_scan"}, "fusion_lon": 0.0, "lat": 38.87740983333333, "bike_id": "880c8e939e7d27376d813d8f6740e9d9", "type": "electric_scooter", "is_reserved": 0, "lon": -77.00339983333333}, {"fusion_lat": 0.0, "name": "d791a61f8704ce4c9059b86170af46d8", "is_disabled": 0, "rental_uris": {"android": "https://dc.lft.to/lastmile_qr_scan", "ios": "https://dc.lft.to/lastmile_qr_scan"}, "fusion_lon": 0.0, "lat": 38.90314733333334, "bike_id": "d791a61f8704ce4c9059b86170af46d8", "type": "electric_scooter", "is_reserved": 0, "lon": -77.01192066666667}, {"fusion_lat": 0.0, "name": "a76f886adf6561b70bbffe6776800663", "is_disabled": 0, "rental_uris": {"android": "https://dc.lft.to/lastmile_qr_scan", "ios": "https://dc.lft.to/lastmile_qr_scan"}, "fusion_lon": 0.0, "lat": 38.91155283333333, "bike_id": "a76f886adf6561b70bbffe6776800663", "type": "electric_scooter", "is_reserved": 0, "lon": -76.9871585}, {"fusion_lat": 0.0, "name": "9c5807cb73a866beb8dbb0babd6670bd", "is_disabled": 0, "rental_uris": {"android": "https://dc.lft.to/lastmile_qr_scan", "ios": "https://dc.lft.to/lastmile_qr_scan"}, "fusion_lon": 0.0, "lat": 38.9240595, "bike_id": "9c5807cb73a866beb8dbb0babd6670bd", "type": "electric_scooter", "is_reserved": 0, "lon": -77.02533633333333}, {"fusion_lat": 0.0, "name": "9c5936034b247349f7c849fed10cbe80", "is_disabled": 0, "rental_uris": {"android": "https://dc.lft.to/lastmile_qr_scan", "ios": "https://dc.lft.to/lastmile_qr_scan"}, "fusion_lon": 0.0, "lat": 38.911256, "bike_id": "9c5936034b247349f7c849fed10cbe80", "type": "electric_scooter", "is_reserved": 0, "lon": -77.01521066666666}, {"fusion_lat": 0.0, "name": "1a9bfa954ff7cc68ba3c33066fd85e21", "is_disabled": 0, "rental_uris": {"android": "https://dc.lft.to/lastmile_qr_scan", "ios": "https://dc.lft.to/lastmile_qr_scan"}, "fusion_lon": 0.0, "lat": 38.901998, "bike_id": "1a9bfa954ff7cc68ba3c33066fd85e21", "type": "electric_scooter", "is_reserved": 0, "lon": -77.0220805}, {"fusion_lat": 0.0, "name": "7d6523c28f633bfa721ccec78eb32387", "is_disabled": 0, "rental_uris": {"android": "https://dc.lft.to/lastmile_qr_scan", "ios": "https://dc.lft.to/lastmile_qr_scan"}, "fusion_lon": 0.0, "lat": 38.8676125, "bike_id": "7d6523c28f633bfa721ccec78eb32387", "type": "electric_scooter", "is_reserved": 0, "lon": -76.98272633333333}, {"fusion_lat": 0.0, "name": "2f44c5f036cc9be4f39f95083fb8adaa", "is_disabled": 0, "rental_uris": {"android": "https://dc.lft.to/lastmile_qr_scan", "ios": "https://dc.lft.to/lastmile_qr_scan"}, "fusion_lon": 0.0, "lat": 38.873848833333334, "bike_id": "2f44c5f036cc9be4f39f95083fb8adaa", "type": "electric_scooter", "is_reserved": 0, "lon": -77.001308}, {"fusion_lat": 0.0, "name": "ae6c42d277fe9ac9f116c9ad2e0e461a", "is_disabled": 0, "rental_uris": {"android": "https://dc.lft.to/lastmile_qr_scan", "ios": "https://dc.lft.to/lastmile_qr_scan"}, "fusion_lon": 0.0, "lat": 38.896240166666665, "bike_id": "ae6c42d277fe9ac9f116c9ad2e0e461a", "type": "electric_scooter", "is_reserved": 0, "lon": -77.02667333333333}, {"fusion_lat": 0.0, "name": "fe53859c558f962d715c005805ed7e35", "is_disabled": 0, "rental_uris": {"android": "https://dc.lft.to/lastmile_qr_scan", "ios": "https://dc.lft.to/lastmile_qr_scan"}, "fusion_lon": 0.0, "lat": 38.9149255, "bike_id": "fe53859c558f962d715c005805ed7e35", "type": "electric_scooter", "is_reserved": 0, "lon": -77.014197}, {"fusion_lat": 0.0, "name": "bd7bc7b8d230b480f0f337f3d042e516", "is_disabled": 0, "rental_uris": {"android": "https://dc.lft.to/lastmile_qr_scan", "ios": "https://dc.lft.to/lastmile_qr_scan"}, "fusion_lon": 0.0, "lat": 38.926625, "bike_id": "bd7bc7b8d230b480f0f337f3d042e516", "type": "electric_scooter", "is_reserved": 0, "lon": -77.05155416666666}, {"fusion_lat": 0.0, "name": "d1c387577817b82167ce28543979c5b8", "is_disabled": 0, "rental_uris": {"android": "https://dc.lft.to/lastmile_qr_scan", "ios": "https://dc.lft.to/lastmile_qr_scan"}, "fusion_lon": 0.0, "lat": 38.923755, "bike_id": "d1c387577817b82167ce28543979c5b8", "type": "electric_scooter", "is_reserved": 0, "lon": -77.08152783333334}, {"fusion_lat": 0.0, "name": "2379b32c07723e03f870ccc8016f4983", "is_disabled": 0, "rental_uris": {"android": "https://dc.lft.to/lastmile_qr_scan", "ios": "https://dc.lft.to/lastmile_qr_scan"}, "fusion_lon": 0.0, "lat": 38.91670116666667, "bike_id": "2379b32c07723e03f870ccc8016f4983", "type": "electric_scooter", "is_reserved": 0, "lon": -77.022774}, {"fusion_lat": 0.0, "name": "14fca0e54bcdffd78c8e095c404fcfcd", "is_disabled": 0, "rental_uris": {"android": "https://dc.lft.to/lastmile_qr_scan", "ios": "https://dc.lft.to/lastmile_qr_scan"}, "fusion_lon": 0.0, "lat": 38.961318166666665, "bike_id": "14fca0e54bcdffd78c8e095c404fcfcd", "type": "electric_scooter", "is_reserved": 0, "lon": -77.0278835}, {"fusion_lat": 0.0, "name": "a4ad2b11ef29fda1b08b090e4122b9cd", "is_disabled": 0, "rental_uris": {"android": "https://dc.lft.to/lastmile_qr_scan", "ios": "https://dc.lft.to/lastmile_qr_scan"}, "fusion_lon": 0.0, "lat": 38.9206345, "bike_id": "a4ad2b11ef29fda1b08b090e4122b9cd", "type": "electric_scooter", "is_reserved": 0, "lon": -77.0270985}, {"fusion_lat": 0.0, "name": "2e8cffab3a840a1f7dd088c66f964ab9", "is_disabled": 0, "rental_uris": {"android": "https://dc.lft.to/lastmile_qr_scan", "ios": "https://dc.lft.to/lastmile_qr_scan"}, "fusion_lon": 0.0, "lat": 38.900308833333334, "bike_id": "2e8cffab3a840a1f7dd088c66f964ab9", "type": "electric_scooter", "is_reserved": 0, "lon": -76.99132333333333}, {"fusion_lat": 0.0, "name": "dc3d4f158ada55c8ee96398fc4c39567", "is_disabled": 0, "rental_uris": {"android": "https://dc.lft.to/lastmile_qr_scan", "ios": "https://dc.lft.to/lastmile_qr_scan"}, "fusion_lon": 0.0, "lat": 38.92287316666667, "bike_id": "dc3d4f158ada55c8ee96398fc4c39567", "type": "electric_scooter", "is_reserved": 0, "lon": -76.99431266666667}, {"fusion_lat": 0.0, "name": "bc767b96583a460f4fa0244e09e7ac7e", "is_disabled": 0, "rental_uris": {"android": "https://dc.lft.to/lastmile_qr_scan", "ios": "https://dc.lft.to/lastmile_qr_scan"}, "fusion_lon": 0.0, "lat": 38.87685533333333, "bike_id": "bc767b96583a460f4fa0244e09e7ac7e", "type": "electric_scooter", "is_reserved": 0, "lon": -77.0175375}, {"fusion_lat": 0.0, "name": "46b5b60eeac642675a70c935e7a9be65", "is_disabled": 0, "rental_uris": {"android": "https://dc.lft.to/lastmile_qr_scan", "ios": "https://dc.lft.to/lastmile_qr_scan"}, "fusion_lon": 0.0, "lat": 38.889608333333335, "bike_id": "46b5b60eeac642675a70c935e7a9be65", "type": "electric_scooter", "is_reserved": 0, "lon": -77.01503116666666}, {"fusion_lat": 0.0, "name": "1c09bd662e90728e0e8840ec498c9060", "is_disabled": 0, "rental_uris": {"android": "https://dc.lft.to/lastmile_qr_scan", "ios": "https://dc.lft.to/lastmile_qr_scan"}, "fusion_lon": 0.0, "lat": 38.915479, "bike_id": "1c09bd662e90728e0e8840ec498c9060", "type": "electric_scooter", "is_reserved": 0, "lon": -77.0323995}, {"fusion_lat": 0.0, "name": "de7afefe2e3c41b6ea1b7de2f487d63b", "is_disabled": 0, "rental_uris": {"android": "https://dc.lft.to/lastmile_qr_scan", "ios": "https://dc.lft.to/lastmile_qr_scan"}, "fusion_lon": 0.0, "lat": 38.8901435, "bike_id": "de7afefe2e3c41b6ea1b7de2f487d63b", "type": "electric_scooter", "is_reserved": 0, "lon": -76.93742133333333}, {"fusion_lat": 0.0, "name": "2954ebcd1d379ce764708e74b00889de", "is_disabled": 0, "rental_uris": {"android": "https://dc.lft.to/lastmile_qr_scan", "ios": "https://dc.lft.to/lastmile_qr_scan"}, "fusion_lon": 0.0, "lat": 38.884680333333336, "bike_id": "2954ebcd1d379ce764708e74b00889de", "type": "electric_scooter", "is_reserved": 0, "lon": -77.02426}, {"fusion_lat": 0.0, "name": "927ea9c7f2e7811eac87c816e83ffa3e", "is_disabled": 0, "rental_uris": {"android": "https://dc.lft.to/lastmile_qr_scan", "ios": "https://dc.lft.to/lastmile_qr_scan"}, "fusion_lon": 0.0, "lat": 38.91343666666667, "bike_id": "927ea9c7f2e7811eac87c816e83ffa3e", "type": "electric_scooter", "is_reserved": 0, "lon": -77.003415}, {"fusion_lat": 0.0, "name": "9d1d9824d78519ff5e3a5a3c755a7a47", "is_disabled": 0, "rental_uris": {"android": "https://dc.lft.to/lastmile_qr_scan", "ios": "https://dc.lft.to/lastmile_qr_scan"}, "fusion_lon": 0.0, "lat": 38.924542833333334, "bike_id": "9d1d9824d78519ff5e3a5a3c755a7a47", "type": "electric_scooter", "is_reserved": 0, "lon": -77.0240865}, {"fusion_lat": 0.0, "name": "4d1ff9b4f397bbba9354521671331a45", "is_disabled": 0, "rental_uris": {"android": "https://dc.lft.to/lastmile_qr_scan", "ios": "https://dc.lft.to/lastmile_qr_scan"}, "fusion_lon": 0.0, "lat": 38.90388083333333, "bike_id": "4d1ff9b4f397bbba9354521671331a45", "type": "electric_scooter", "is_reserved": 0, "lon": -76.98486833333334}, {"fusion_lat": 0.0, "name": "0390830346e6089c49229f1c61627e95", "is_disabled": 0, "rental_uris": {"android": "https://dc.lft.to/lastmile_qr_scan", "ios": "https://dc.lft.to/lastmile_qr_scan"}, "fusion_lon": 0.0, "lat": 38.93002383333334, "bike_id": "0390830346e6089c49229f1c61627e95", "type": "electric_scooter", "is_reserved": 0, "lon": -77.0323995}, {"fusion_lat": 0.0, "name": "a812d8f945a1f65654f2055e8f6a2d4c", "is_disabled": 0, "rental_uris": {"android": "https://dc.lft.to/lastmile_qr_scan", "ios": "https://dc.lft.to/lastmile_qr_scan"}, "fusion_lon": 0.0, "lat": 38.90178183333333, "bike_id": "a812d8f945a1f65654f2055e8f6a2d4c", "type": "electric_scooter", "is_reserved": 0, "lon": -77.05902233333333}, {"fusion_lat": 0.0, "name": "892fc92833ed6b9eb11a9bfff382a873", "is_disabled": 0, "rental_uris": {"android": "https://dc.lft.to/lastmile_qr_scan", "ios": "https://dc.lft.to/lastmile_qr_scan"}, "fusion_lon": 0.0, "lat": 38.92577933333333, "bike_id": "892fc92833ed6b9eb11a9bfff382a873", "type": "electric_scooter", "is_reserved": 0, "lon": -77.02727866666666}, {"fusion_lat": 0.0, "name": "e2430abb1f94a96759df06f3543d9209", "is_disabled": 0, "rental_uris": {"android": "https://dc.lft.to/lastmile_qr_scan", "ios": "https://dc.lft.to/lastmile_qr_scan"}, "fusion_lon": 0.0, "lat": 38.901488, "bike_id": "e2430abb1f94a96759df06f3543d9209", "type": "electric_scooter", "is_reserved": 0, "lon": -76.9306415}, {"fusion_lat": 0.0, "name": "3125fc7e68dca9ef1b5a424ac634aecc", "is_disabled": 0, "rental_uris": {"android": "https://dc.lft.to/lastmile_qr_scan", "ios": "https://dc.lft.to/lastmile_qr_scan"}, "fusion_lon": 0.0, "lat": 38.93766733333333, "bike_id": "3125fc7e68dca9ef1b5a424ac634aecc", "type": "electric_scooter", "is_reserved": 0, "lon": -77.03281083333333}, {"fusion_lat": 0.0, "name": "e70fd47c0167169e030542885273dd8d", "is_disabled": 0, "rental_uris": {"android": "https://dc.lft.to/lastmile_qr_scan", "ios": "https://dc.lft.to/lastmile_qr_scan"}, "fusion_lon": 0.0, "lat": 38.897457333333335, "bike_id": "e70fd47c0167169e030542885273dd8d", "type": "electric_scooter", "is_reserved": 0, "lon": -77.02502916666667}, {"fusion_lat": 0.0, "name": "76ce6508ce59d4af41dbca3eb8948a77", "is_disabled": 0, "rental_uris": {"android": "https://dc.lft.to/lastmile_qr_scan", "ios": "https://dc.lft.to/lastmile_qr_scan"}, "fusion_lon": 0.0, "lat": 38.90937783333333, "bike_id": "76ce6508ce59d4af41dbca3eb8948a77", "type": "electric_scooter", "is_reserved": 0, "lon": -77.01846716666667}, {"fusion_lat": 0.0, "name": "4445785c74ee2e1bfa69bae219f6fb34", "is_disabled": 0, "rental_uris": {"android": "https://dc.lft.to/lastmile_qr_scan", "ios": "https://dc.lft.to/lastmile_qr_scan"}, "fusion_lon": 0.0, "lat": 38.931395333333334, "bike_id": "4445785c74ee2e1bfa69bae219f6fb34", "type": "electric_bike", "is_reserved": 0, "lon": -77.038334}, {"fusion_lat": 0.0, "name": "54f667a010d29c85bd3e3c48a66e7544", "is_disabled": 0, "rental_uris": {"android": "https://dc.lft.to/lastmile_qr_scan", "ios": "https://dc.lft.to/lastmile_qr_scan"}, "fusion_lon": 0.0, "lat": 38.90681466666667, "bike_id": "54f667a010d29c85bd3e3c48a66e7544", "type": "electric_bike", "is_reserved": 0, "lon": -76.9448935}, {"fusion_lat": 0.0, "name": "105157d8003af915473068bb11bcb2fd", "is_disabled": 0, "rental_uris": {"android": "https://dc.lft.to/lastmile_qr_scan", "ios": "https://dc.lft.to/lastmile_qr_scan"}, "fusion_lon": 0.0, "lat": 38.90566283333333, "bike_id": "105157d8003af915473068bb11bcb2fd", "type": "electric_scooter", "is_reserved": 0, "lon": -77.02931033333333}, {"fusion_lat": 0.0, "name": "3487d1f58b10ec44b7af81485db2f913", "is_disabled": 0, "rental_uris": {"android": "https://dc.lft.to/lastmile_qr_scan", "ios": "https://dc.lft.to/lastmile_qr_scan"}, "fusion_lon": 0.0, "lat": 38.8636555, "bike_id": "3487d1f58b10ec44b7af81485db2f913", "type": "electric_bike", "is_reserved": 0, "lon": -76.9700615}, {"fusion_lat": 0.0, "name": "c7800b93b5f73cb479ca77cdf99fd35f", "is_disabled": 0, "rental_uris": {"android": "https://dc.lft.to/lastmile_qr_scan", "ios": "https://dc.lft.to/lastmile_qr_scan"}, "fusion_lon": 0.0, "lat": 38.887626833333336, "bike_id": "c7800b93b5f73cb479ca77cdf99fd35f", "type": "electric_scooter", "is_reserved": 0, "lon": -76.97740316666666}, {"fusion_lat": 0.0, "name": "4cada567ac53bdd73b5cf8dd8c9d8119", "is_disabled": 0, "rental_uris": {"android": "https://dc.lft.to/lastmile_qr_scan", "ios": "https://dc.lft.to/lastmile_qr_scan"}, "fusion_lon": 0.0, "lat": 38.94178983333333, "bike_id": "4cada567ac53bdd73b5cf8dd8c9d8119", "type": "electric_scooter", "is_reserved": 0, "lon": -77.02488066666666}, {"fusion_lat": 0.0, "name": "7e0e718a2292a4607f8c46f0637c4ec9", "is_disabled": 0, "rental_uris": {"android": "https://dc.lft.to/lastmile_qr_scan", "ios": "https://dc.lft.to/lastmile_qr_scan"}, "fusion_lon": 0.0, "lat": 38.9310935, "bike_id": "7e0e718a2292a4607f8c46f0637c4ec9", "type": "electric_scooter", "is_reserved": 0, "lon": -77.03836566666666}, {"fusion_lat": 0.0, "name": "27a4a69fa7e61b3b563128c05032706a", "is_disabled": 0, "rental_uris": {"android": "https://dc.lft.to/lastmile_qr_scan", "ios": "https://dc.lft.to/lastmile_qr_scan"}, "fusion_lon": 0.0, "lat": 38.922091, "bike_id": "27a4a69fa7e61b3b563128c05032706a", "type": "electric_scooter", "is_reserved": 0, "lon": -77.01814666666667}, {"fusion_lat": 0.0, "name": "9c3db7cbbbc410612f84123cb65d64ac", "is_disabled": 0, "rental_uris": {"android": "https://dc.lft.to/lastmile_qr_scan", "ios": "https://dc.lft.to/lastmile_qr_scan"}, "fusion_lon": 0.0, "lat": 38.93748383333333, "bike_id": "9c3db7cbbbc410612f84123cb65d64ac", "type": "electric_scooter", "is_reserved": 0, "lon": -77.025241}, {"fusion_lat": 0.0, "name": "c21f1f8dc36f5f313774e65bd0b111a2", "is_disabled": 0, "rental_uris": {"android": "https://dc.lft.to/lastmile_qr_scan", "ios": "https://dc.lft.to/lastmile_qr_scan"}, "fusion_lon": 0.0, "lat": 38.90387033333333, "bike_id": "c21f1f8dc36f5f313774e65bd0b111a2", "type": "electric_scooter", "is_reserved": 0, "lon": -77.06134066666667}, {"fusion_lat": 0.0, "name": "ce6a60b7006992379631a87495d634ce", "is_disabled": 0, "rental_uris": {"android": "https://dc.lft.to/lastmile_qr_scan", "ios": "https://dc.lft.to/lastmile_qr_scan"}, "fusion_lon": 0.0, "lat": 38.900611, "bike_id": "ce6a60b7006992379631a87495d634ce", "type": "electric_scooter", "is_reserved": 0, "lon": -76.93386316666667}, {"fusion_lat": 0.0, "name": "4f8f6ba4c88332758f75c76b13a0c3cb", "is_disabled": 0, "rental_uris": {"android": "https://dc.lft.to/lastmile_qr_scan", "ios": "https://dc.lft.to/lastmile_qr_scan"}, "fusion_lon": 0.0, "lat": 38.90197666666667, "bike_id": "4f8f6ba4c88332758f75c76b13a0c3cb", "type": "electric_scooter", "is_reserved": 0, "lon": -77.0220385}, {"fusion_lat": 0.0, "name": "b3a17c5612b16fff2530907db6c3f8d4", "is_disabled": 0, "rental_uris": {"android": "https://dc.lft.to/lastmile_qr_scan", "ios": "https://dc.lft.to/lastmile_qr_scan"}, "fusion_lon": 0.0, "lat": 38.90690716666667, "bike_id": "b3a17c5612b16fff2530907db6c3f8d4", "type": "electric_scooter", "is_reserved": 0, "lon": -77.03581433333333}, {"fusion_lat": 0.0, "name": "4564b2b8576126dbf360847869ceba95", "is_disabled": 0, "rental_uris": {"android": "https://dc.lft.to/lastmile_qr_scan", "ios": "https://dc.lft.to/lastmile_qr_scan"}, "fusion_lon": 0.0, "lat": 38.896083, "bike_id": "4564b2b8576126dbf360847869ceba95", "type": "electric_scooter", "is_reserved": 0, "lon": -77.04975916666666}, {"fusion_lat": 0.0, "name": "3fcf414582bfe2bd96ee8fdfd899dc3f", "is_disabled": 0, "rental_uris": {"android": "https://dc.lft.to/lastmile_qr_scan", "ios": "https://dc.lft.to/lastmile_qr_scan"}, "fusion_lon": 0.0, "lat": 38.9619675, "bike_id": "3fcf414582bfe2bd96ee8fdfd899dc3f", "type": "electric_scooter", "is_reserved": 0, "lon": -77.02230566666667}, {"fusion_lat": 0.0, "name": "f1f51f113c2904fc83ff402fcd86815e", "is_disabled": 0, "rental_uris": {"android": "https://dc.lft.to/lastmile_qr_scan", "ios": "https://dc.lft.to/lastmile_qr_scan"}, "fusion_lon": 0.0, "lat": 38.906889, "bike_id": "f1f51f113c2904fc83ff402fcd86815e", "type": "electric_scooter", "is_reserved": 0, "lon": -77.01535016666666}, {"fusion_lat": 0.0, "name": "fc397bb0a797873e5647964b4db8e6c8", "is_disabled": 0, "rental_uris": {"android": "https://dc.lft.to/lastmile_qr_scan", "ios": "https://dc.lft.to/lastmile_qr_scan"}, "fusion_lon": 0.0, "lat": 38.89563366666667, "bike_id": "fc397bb0a797873e5647964b4db8e6c8", "type": "electric_bike", "is_reserved": 0, "lon": -77.127365}, {"fusion_lat": 0.0, "name": "ab393070770c12ce966332edfe03ea3d", "is_disabled": 0, "rental_uris": {"android": "https://dc.lft.to/lastmile_qr_scan", "ios": "https://dc.lft.to/lastmile_qr_scan"}, "fusion_lon": 0.0, "lat": 38.909619666666664, "bike_id": "ab393070770c12ce966332edfe03ea3d", "type": "electric_scooter", "is_reserved": 0, "lon": -77.023102}, {"fusion_lat": 0.0, "name": "bdadf6a8297e0c26cd97e8f095dd5200", "is_disabled": 0, "rental_uris": {"android": "https://dc.lft.to/lastmile_qr_scan", "ios": "https://dc.lft.to/lastmile_qr_scan"}, "fusion_lon": 0.0, "lat": 38.8463595, "bike_id": "bdadf6a8297e0c26cd97e8f095dd5200", "type": "electric_scooter", "is_reserved": 0, "lon": -76.96920133333333}, {"fusion_lat": 0.0, "name": "0c230d41770fc7ede3256679ff8601ca", "is_disabled": 0, "rental_uris": {"android": "https://dc.lft.to/lastmile_qr_scan", "ios": "https://dc.lft.to/lastmile_qr_scan"}, "fusion_lon": 0.0, "lat": 38.90081166666667, "bike_id": "0c230d41770fc7ede3256679ff8601ca", "type": "electric_scooter", "is_reserved": 0, "lon": -77.04790833333334}, {"fusion_lat": 0.0, "name": "ca631f3001e07166d9a46a0e622ffd91", "is_disabled": 0, "rental_uris": {"android": "https://dc.lft.to/lastmile_qr_scan", "ios": "https://dc.lft.to/lastmile_qr_scan"}, "fusion_lon": 0.0, "lat": 38.90114916666667, "bike_id": "ca631f3001e07166d9a46a0e622ffd91", "type": "electric_scooter", "is_reserved": 0, "lon": -77.03350583333334}, {"fusion_lat": 0.0, "name": "5284811b72860732bb7c17bc411fdaed", "is_disabled": 0, "rental_uris": {"android": "https://dc.lft.to/lastmile_qr_scan", "ios": "https://dc.lft.to/lastmile_qr_scan"}, "fusion_lon": 0.0, "lat": 38.913955666666666, "bike_id": "5284811b72860732bb7c17bc411fdaed", "type": "electric_scooter", "is_reserved": 0, "lon": -77.038544}, {"fusion_lat": 0.0, "name": "a35a5d184ff38e177cdc0e5504b35239", "is_disabled": 0, "rental_uris": {"android": "https://dc.lft.to/lastmile_qr_scan", "ios": "https://dc.lft.to/lastmile_qr_scan"}, "fusion_lon": 0.0, "lat": 38.95330216666667, "bike_id": "a35a5d184ff38e177cdc0e5504b35239", "type": "electric_bike", "is_reserved": 0, "lon": -76.98252216666667}, {"fusion_lat": 0.0, "name": "666c31602b1a921160bb7b9fb89c05c9", "is_disabled": 0, "rental_uris": {"android": "https://dc.lft.to/lastmile_qr_scan", "ios": "https://dc.lft.to/lastmile_qr_scan"}, "fusion_lon": 0.0, "lat": 38.874624833333336, "bike_id": "666c31602b1a921160bb7b9fb89c05c9", "type": "electric_scooter", "is_reserved": 0, "lon": -77.000243}, {"fusion_lat": 0.0, "name": "1d5954fbf45e543f7b043252a5ec6e0c", "is_disabled": 0, "rental_uris": {"android": "https://dc.lft.to/lastmile_qr_scan", "ios": "https://dc.lft.to/lastmile_qr_scan"}, "fusion_lon": 0.0, "lat": 38.926153, "bike_id": "1d5954fbf45e543f7b043252a5ec6e0c", "type": "electric_scooter", "is_reserved": 0, "lon": -77.0432415}, {"fusion_lat": 0.0, "name": "1f2001bcf315ce3eb6f52f3687c4637e", "is_disabled": 0, "rental_uris": {"android": "https://dc.lft.to/lastmile_qr_scan", "ios": "https://dc.lft.to/lastmile_qr_scan"}, "fusion_lon": 0.0, "lat": 38.89511366666667, "bike_id": "1f2001bcf315ce3eb6f52f3687c4637e", "type": "electric_scooter", "is_reserved": 0, "lon": -76.99954816666667}, {"fusion_lat": 0.0, "name": "c1a9b9d9c60da126e90b288235ee042a", "is_disabled": 0, "rental_uris": {"android": "https://dc.lft.to/lastmile_qr_scan", "ios": "https://dc.lft.to/lastmile_qr_scan"}, "fusion_lon": 0.0, "lat": 38.94203516666666, "bike_id": "c1a9b9d9c60da126e90b288235ee042a", "type": "electric_scooter", "is_reserved": 0, "lon": -77.025889}, {"fusion_lat": 0.0, "name": "c8d8900f9493db003a04862aba2f0fc2", "is_disabled": 0, "rental_uris": {"android": "https://dc.lft.to/lastmile_qr_scan", "ios": "https://dc.lft.to/lastmile_qr_scan"}, "fusion_lon": 0.0, "lat": 38.83923566666667, "bike_id": "c8d8900f9493db003a04862aba2f0fc2", "type": "electric_bike", "is_reserved": 0, "lon": -77.0789555}, {"fusion_lat": 0.0, "name": "c00e4d3985f13d1d1dafd03400588f72", "is_disabled": 0, "rental_uris": {"android": "https://dc.lft.to/lastmile_qr_scan", "ios": "https://dc.lft.to/lastmile_qr_scan"}, "fusion_lon": 0.0, "lat": 38.97881983333333, "bike_id": "c00e4d3985f13d1d1dafd03400588f72", "type": "electric_bike", "is_reserved": 0, "lon": -77.06030883333334}, {"fusion_lat": 0.0, "name": "6fb300cbe74750689cc3338e888a7987", "is_disabled": 0, "rental_uris": {"android": "https://dc.lft.to/lastmile_qr_scan", "ios": "https://dc.lft.to/lastmile_qr_scan"}, "fusion_lon": 0.0, "lat": 38.910655166666665, "bike_id": "6fb300cbe74750689cc3338e888a7987", "type": "electric_scooter", "is_reserved": 0, "lon": -77.0366145}, {"fusion_lat": 0.0, "name": "3f05c3851eeca980a76f07bf598b05c0", "is_disabled": 0, "rental_uris": {"android": "https://dc.lft.to/lastmile_qr_scan", "ios": "https://dc.lft.to/lastmile_qr_scan"}, "fusion_lon": 0.0, "lat": 38.9013645, "bike_id": "3f05c3851eeca980a76f07bf598b05c0", "type": "electric_scooter", "is_reserved": 0, "lon": -76.986431}, {"fusion_lat": 0.0, "name": "e16a8119ea837182ccff693dad42799a", "is_disabled": 0, "rental_uris": {"android": "https://dc.lft.to/lastmile_qr_scan", "ios": "https://dc.lft.to/lastmile_qr_scan"}, "fusion_lon": 0.0, "lat": 38.92742883333333, "bike_id": "e16a8119ea837182ccff693dad42799a", "type": "electric_scooter", "is_reserved": 0, "lon": -77.03636}, {"fusion_lat": 0.0, "name": "6bf124693f5e9254157a2a069886c3bc", "is_disabled": 0, "rental_uris": {"android": "https://dc.lft.to/lastmile_qr_scan", "ios": "https://dc.lft.to/lastmile_qr_scan"}, "fusion_lon": 0.0, "lat": 38.90694966666667, "bike_id": "6bf124693f5e9254157a2a069886c3bc", "type": "electric_scooter", "is_reserved": 0, "lon": -77.065163}, {"fusion_lat": 0.0, "name": "104dce0fa4ce72dcd1d3a25cab62eed0", "is_disabled": 0, "rental_uris": {"android": "https://dc.lft.to/lastmile_qr_scan", "ios": "https://dc.lft.to/lastmile_qr_scan"}, "fusion_lon": 0.0, "lat": 38.91817016666667, "bike_id": "104dce0fa4ce72dcd1d3a25cab62eed0", "type": "electric_scooter", "is_reserved": 0, "lon": -77.026131}, {"fusion_lat": 0.0, "name": "1478f46874fbb1b7d3f31a414bd43851", "is_disabled": 0, "rental_uris": {"android": "https://dc.lft.to/lastmile_qr_scan", "ios": "https://dc.lft.to/lastmile_qr_scan"}, "fusion_lon": 0.0, "lat": 38.917288, "bike_id": "1478f46874fbb1b7d3f31a414bd43851", "type": "electric_scooter", "is_reserved": 0, "lon": -77.03656416666666}, {"fusion_lat": 0.0, "name": "64694db4e8f48df3a43921755ed3f3dc", "is_disabled": 0, "rental_uris": {"android": "https://dc.lft.to/lastmile_qr_scan", "ios": "https://dc.lft.to/lastmile_qr_scan"}, "fusion_lon": 0.0, "lat": 38.92386233333333, "bike_id": "64694db4e8f48df3a43921755ed3f3dc", "type": "electric_scooter", "is_reserved": 0, "lon": -77.04012883333333}, {"fusion_lat": 0.0, "name": "6b36c9fdb14c05fa26597261a1c97641", "is_disabled": 0, "rental_uris": {"android": "https://dc.lft.to/lastmile_qr_scan", "ios": "https://dc.lft.to/lastmile_qr_scan"}, "fusion_lon": 0.0, "lat": 38.90953716666667, "bike_id": "6b36c9fdb14c05fa26597261a1c97641", "type": "electric_scooter", "is_reserved": 0, "lon": -77.04860933333333}, {"fusion_lat": 0.0, "name": "fc321b59683c93654ceafe789fdf5297", "is_disabled": 0, "rental_uris": {"android": "https://dc.lft.to/lastmile_qr_scan", "ios": "https://dc.lft.to/lastmile_qr_scan"}, "fusion_lon": 0.0, "lat": 38.89329566666667, "bike_id": "fc321b59683c93654ceafe789fdf5297", "type": "electric_scooter", "is_reserved": 0, "lon": -76.939283}, {"fusion_lat": 0.0, "name": "f0db391d2a2cd053f15c619d478e7034", "is_disabled": 0, "rental_uris": {"android": "https://dc.lft.to/lastmile_qr_scan", "ios": "https://dc.lft.to/lastmile_qr_scan"}, "fusion_lon": 0.0, "lat": 38.80445983333333, "bike_id": "f0db391d2a2cd053f15c619d478e7034", "type": "electric_bike", "is_reserved": 0, "lon": -77.13224833333334}, {"fusion_lat": 0.0, "name": "7d01dd68c95cf1230ba18cb3c93a4a91", "is_disabled": 0, "rental_uris": {"android": "https://dc.lft.to/lastmile_qr_scan", "ios": "https://dc.lft.to/lastmile_qr_scan"}, "fusion_lon": 0.0, "lat": 38.90884066666667, "bike_id": "7d01dd68c95cf1230ba18cb3c93a4a91", "type": "electric_scooter", "is_reserved": 0, "lon": -77.04374866666667}, {"fusion_lat": 0.0, "name": "2b6ec30f1aed711ef1dbf26dcec792db", "is_disabled": 0, "rental_uris": {"android": "https://dc.lft.to/lastmile_qr_scan", "ios": "https://dc.lft.to/lastmile_qr_scan"}, "fusion_lon": 0.0, "lat": 38.921837833333335, "bike_id": "2b6ec30f1aed711ef1dbf26dcec792db", "type": "electric_scooter", "is_reserved": 0, "lon": -77.04224933333333}, {"fusion_lat": 0.0, "name": "c77a629e310b72e66d050f5a4b4cfebf", "is_disabled": 0, "rental_uris": {"android": "https://dc.lft.to/lastmile_qr_scan", "ios": "https://dc.lft.to/lastmile_qr_scan"}, "fusion_lon": 0.0, "lat": 38.93487733333333, "bike_id": "c77a629e310b72e66d050f5a4b4cfebf", "type": "electric_scooter", "is_reserved": 0, "lon": -77.03075683333333}, {"fusion_lat": 0.0, "name": "0f6d9bdd486073f33e723c5346859be5", "is_disabled": 0, "rental_uris": {"android": "https://dc.lft.to/lastmile_qr_scan", "ios": "https://dc.lft.to/lastmile_qr_scan"}, "fusion_lon": 0.0, "lat": 38.89853883333333, "bike_id": "0f6d9bdd486073f33e723c5346859be5", "type": "electric_scooter", "is_reserved": 0, "lon": -76.99270216666666}, {"fusion_lat": 0.0, "name": "c763541d9df3c6dc7a32ecf45fc2e939", "is_disabled": 0, "rental_uris": {"android": "https://dc.lft.to/lastmile_qr_scan", "ios": "https://dc.lft.to/lastmile_qr_scan"}, "fusion_lon": 0.0, "lat": 38.92509416666667, "bike_id": "c763541d9df3c6dc7a32ecf45fc2e939", "type": "electric_scooter", "is_reserved": 0, "lon": -77.03777383333333}, {"fusion_lat": 0.0, "name": "f9be757b5f15243671ba90092ab129e3", "is_disabled": 0, "rental_uris": {"android": "https://dc.lft.to/lastmile_qr_scan", "ios": "https://dc.lft.to/lastmile_qr_scan"}, "fusion_lon": 0.0, "lat": 38.88894283333333, "bike_id": "f9be757b5f15243671ba90092ab129e3", "type": "electric_bike", "is_reserved": 0, "lon": -77.11523083333333}, {"fusion_lat": 0.0, "name": "17e993bc35aab329153b6685b73cc94c", "is_disabled": 0, "rental_uris": {"android": "https://dc.lft.to/lastmile_qr_scan", "ios": "https://dc.lft.to/lastmile_qr_scan"}, "fusion_lon": 0.0, "lat": 38.925594833333335, "bike_id": "17e993bc35aab329153b6685b73cc94c", "type": "electric_scooter", "is_reserved": 0, "lon": -77.022846}, {"fusion_lat": 0.0, "name": "af6e1af7f75f4a68d622e5766849bb64", "is_disabled": 0, "rental_uris": {"android": "https://dc.lft.to/lastmile_qr_scan", "ios": "https://dc.lft.to/lastmile_qr_scan"}, "fusion_lon": 0.0, "lat": 38.8973365, "bike_id": "af6e1af7f75f4a68d622e5766849bb64", "type": "electric_scooter", "is_reserved": 0, "lon": -77.02721566666666}, {"fusion_lat": 0.0, "name": "f7a3a73b5da905d23dfd2689d730661b", "is_disabled": 0, "rental_uris": {"android": "https://dc.lft.to/lastmile_qr_scan", "ios": "https://dc.lft.to/lastmile_qr_scan"}, "fusion_lon": 0.0, "lat": 38.901112499999996, "bike_id": "f7a3a73b5da905d23dfd2689d730661b", "type": "electric_scooter", "is_reserved": 0, "lon": -77.03356433333333}, {"fusion_lat": 0.0, "name": "34ace9978a546895ed2d0238047d1af1", "is_disabled": 0, "rental_uris": {"android": "https://dc.lft.to/lastmile_qr_scan", "ios": "https://dc.lft.to/lastmile_qr_scan"}, "fusion_lon": 0.0, "lat": 38.96445883333333, "bike_id": "34ace9978a546895ed2d0238047d1af1", "type": "electric_scooter", "is_reserved": 0, "lon": -77.02064483333334}, {"fusion_lat": 0.0, "name": "940f2477e4f495bec852d30c68bec0b2", "is_disabled": 0, "rental_uris": {"android": "https://dc.lft.to/lastmile_qr_scan", "ios": "https://dc.lft.to/lastmile_qr_scan"}, "fusion_lon": 0.0, "lat": 38.91998483333333, "bike_id": "940f2477e4f495bec852d30c68bec0b2", "type": "electric_scooter", "is_reserved": 0, "lon": -77.07113233333334}, {"fusion_lat": 0.0, "name": "b6204e7baa3a2355f4d6b9bb8e5073d7", "is_disabled": 0, "rental_uris": {"android": "https://dc.lft.to/lastmile_qr_scan", "ios": "https://dc.lft.to/lastmile_qr_scan"}, "fusion_lon": 0.0, "lat": 38.9261605, "bike_id": "b6204e7baa3a2355f4d6b9bb8e5073d7", "type": "electric_scooter", "is_reserved": 0, "lon": -77.0432145}, {"fusion_lat": 0.0, "name": "53ba074c8ef56b4838ac79d9331f7783", "is_disabled": 0, "rental_uris": {"android": "https://dc.lft.to/lastmile_qr_scan", "ios": "https://dc.lft.to/lastmile_qr_scan"}, "fusion_lon": 0.0, "lat": 38.9311765, "bike_id": "53ba074c8ef56b4838ac79d9331f7783", "type": "electric_scooter", "is_reserved": 0, "lon": -77.02099783333334}, {"fusion_lat": 0.0, "name": "d7b909d515292730c14855900936217e", "is_disabled": 0, "rental_uris": {"android": "https://dc.lft.to/lastmile_qr_scan", "ios": "https://dc.lft.to/lastmile_qr_scan"}, "fusion_lon": 0.0, "lat": 38.9666355, "bike_id": "d7b909d515292730c14855900936217e", "type": "electric_bike", "is_reserved": 0, "lon": -76.97442216666667}, {"fusion_lat": 0.0, "name": "d4e0df324ee2940a8bd530a24529ae92", "is_disabled": 0, "rental_uris": {"android": "https://dc.lft.to/lastmile_qr_scan", "ios": "https://dc.lft.to/lastmile_qr_scan"}, "fusion_lon": 0.0, "lat": 38.90027883333333, "bike_id": "d4e0df324ee2940a8bd530a24529ae92", "type": "electric_scooter", "is_reserved": 0, "lon": -77.0002725}, {"fusion_lat": 0.0, "name": "25db6637878cbf9d43ef183c956acb68", "is_disabled": 0, "rental_uris": {"android": "https://dc.lft.to/lastmile_qr_scan", "ios": "https://dc.lft.to/lastmile_qr_scan"}, "fusion_lon": 0.0, "lat": 38.84083416666667, "bike_id": "25db6637878cbf9d43ef183c956acb68", "type": "electric_bike", "is_reserved": 0, "lon": -76.9702795}, {"fusion_lat": 0.0, "name": "f68e6a1fa513f3525b3d0202e153395a", "is_disabled": 0, "rental_uris": {"android": "https://dc.lft.to/lastmile_qr_scan", "ios": "https://dc.lft.to/lastmile_qr_scan"}, "fusion_lon": 0.0, "lat": 38.938407, "bike_id": "f68e6a1fa513f3525b3d0202e153395a", "type": "electric_scooter", "is_reserved": 0, "lon": -77.062449}, {"fusion_lat": 0.0, "name": "4f6d7eed1ae9c15cf8d404b92c1dd56c", "is_disabled": 0, "rental_uris": {"android": "https://dc.lft.to/lastmile_qr_scan", "ios": "https://dc.lft.to/lastmile_qr_scan"}, "fusion_lon": 0.0, "lat": 38.92993766666667, "bike_id": "4f6d7eed1ae9c15cf8d404b92c1dd56c", "type": "electric_scooter", "is_reserved": 0, "lon": -77.03235283333333}, {"fusion_lat": 0.0, "name": "c806b4c5f736c8bce2b35840c054c8cb", "is_disabled": 0, "rental_uris": {"android": "https://dc.lft.to/lastmile_qr_scan", "ios": "https://dc.lft.to/lastmile_qr_scan"}, "fusion_lon": 0.0, "lat": 38.89033883333333, "bike_id": "c806b4c5f736c8bce2b35840c054c8cb", "type": "electric_bike", "is_reserved": 0, "lon": -77.08643766666667}, {"fusion_lat": 0.0, "name": "57825adadfd8d610a97a727e414af9e6", "is_disabled": 0, "rental_uris": {"android": "https://dc.lft.to/lastmile_qr_scan", "ios": "https://dc.lft.to/lastmile_qr_scan"}, "fusion_lon": 0.0, "lat": 38.91596833333333, "bike_id": "57825adadfd8d610a97a727e414af9e6", "type": "electric_scooter", "is_reserved": 0, "lon": -77.04901883333334}, {"fusion_lat": 0.0, "name": "e8a5001a1836abd469956eb45f0ff099", "is_disabled": 0, "rental_uris": {"android": "https://dc.lft.to/lastmile_qr_scan", "ios": "https://dc.lft.to/lastmile_qr_scan"}, "fusion_lon": 0.0, "lat": 38.9020935, "bike_id": "e8a5001a1836abd469956eb45f0ff099", "type": "electric_scooter", "is_reserved": 0, "lon": -77.023701}, {"fusion_lat": 0.0, "name": "a38cfc455905a70aacc5c057322e2060", "is_disabled": 0, "rental_uris": {"android": "https://dc.lft.to/lastmile_qr_scan", "ios": "https://dc.lft.to/lastmile_qr_scan"}, "fusion_lon": 0.0, "lat": 38.843474666666665, "bike_id": "a38cfc455905a70aacc5c057322e2060", "type": "electric_bike", "is_reserved": 0, "lon": -76.97823333333334}, {"fusion_lat": 0.0, "name": "3ce6b3566f1818c422c8a73117e91bf4", "is_disabled": 0, "rental_uris": {"android": "https://dc.lft.to/lastmile_qr_scan", "ios": "https://dc.lft.to/lastmile_qr_scan"}, "fusion_lon": 0.0, "lat": 38.9250155, "bike_id": "3ce6b3566f1818c422c8a73117e91bf4", "type": "electric_scooter", "is_reserved": 0, "lon": -77.023291}, {"fusion_lat": 0.0, "name": "e5b89a887928fef9c78261614c069084", "is_disabled": 0, "rental_uris": {"android": "https://dc.lft.to/lastmile_qr_scan", "ios": "https://dc.lft.to/lastmile_qr_scan"}, "fusion_lon": 0.0, "lat": 38.946132666666664, "bike_id": "e5b89a887928fef9c78261614c069084", "type": "electric_scooter", "is_reserved": 0, "lon": -77.08015466666667}, {"fusion_lat": 0.0, "name": "d274912cafacf42000f321dff2b77310", "is_disabled": 0, "rental_uris": {"android": "https://dc.lft.to/lastmile_qr_scan", "ios": "https://dc.lft.to/lastmile_qr_scan"}, "fusion_lon": 0.0, "lat": 38.93601683333333, "bike_id": "d274912cafacf42000f321dff2b77310", "type": "electric_scooter", "is_reserved": 0, "lon": -77.0589485}, {"fusion_lat": 0.0, "name": "55e28ca39c0ad7c2c375f6f58ae25d92", "is_disabled": 0, "rental_uris": {"android": "https://dc.lft.to/lastmile_qr_scan", "ios": "https://dc.lft.to/lastmile_qr_scan"}, "fusion_lon": 0.0, "lat": 38.94114166666667, "bike_id": "55e28ca39c0ad7c2c375f6f58ae25d92", "type": "electric_scooter", "is_reserved": 0, "lon": -77.0253195}, {"fusion_lat": 0.0, "name": "889e9696544e67a7e465c36e5449890b", "is_disabled": 0, "rental_uris": {"android": "https://dc.lft.to/lastmile_qr_scan", "ios": "https://dc.lft.to/lastmile_qr_scan"}, "fusion_lon": 0.0, "lat": 38.883628, "bike_id": "889e9696544e67a7e465c36e5449890b", "type": "electric_scooter", "is_reserved": 0, "lon": -76.941566}, {"fusion_lat": 0.0, "name": "6f61b982962c2c2bd01bb674cd81e925", "is_disabled": 0, "rental_uris": {"android": "https://dc.lft.to/lastmile_qr_scan", "ios": "https://dc.lft.to/lastmile_qr_scan"}, "fusion_lon": 0.0, "lat": 38.925431, "bike_id": "6f61b982962c2c2bd01bb674cd81e925", "type": "electric_scooter", "is_reserved": 0, "lon": -77.0511525}, {"fusion_lat": 0.0, "name": "e915b608f8c8d280e1ef6c3c37400ba5", "is_disabled": 0, "rental_uris": {"android": "https://dc.lft.to/lastmile_qr_scan", "ios": "https://dc.lft.to/lastmile_qr_scan"}, "fusion_lon": 0.0, "lat": 38.962242833333335, "bike_id": "e915b608f8c8d280e1ef6c3c37400ba5", "type": "electric_bike", "is_reserved": 0, "lon": -77.02621483333333}, {"fusion_lat": 0.0, "name": "385428ce183504b69f507905d126afcd", "is_disabled": 0, "rental_uris": {"android": "https://dc.lft.to/lastmile_qr_scan", "ios": "https://dc.lft.to/lastmile_qr_scan"}, "fusion_lon": 0.0, "lat": 38.959007166666666, "bike_id": "385428ce183504b69f507905d126afcd", "type": "electric_bike", "is_reserved": 0, "lon": -76.92491}, {"fusion_lat": 0.0, "name": "169be2e9754ead3832bac0e048ddf864", "is_disabled": 0, "rental_uris": {"android": "https://dc.lft.to/lastmile_qr_scan", "ios": "https://dc.lft.to/lastmile_qr_scan"}, "fusion_lon": 0.0, "lat": 38.877165833333336, "bike_id": "169be2e9754ead3832bac0e048ddf864", "type": "electric_scooter", "is_reserved": 0, "lon": -77.00343883333333}, {"fusion_lat": 0.0, "name": "6617cdea779e563867e04c220c4745a0", "is_disabled": 0, "rental_uris": {"android": "https://dc.lft.to/lastmile_qr_scan", "ios": "https://dc.lft.to/lastmile_qr_scan"}, "fusion_lon": 0.0, "lat": 38.92887316666667, "bike_id": "6617cdea779e563867e04c220c4745a0", "type": "electric_scooter", "is_reserved": 0, "lon": -77.04215233333333}, {"fusion_lat": 0.0, "name": "691de6ed757e2917904883fd0ec50f12", "is_disabled": 0, "rental_uris": {"android": "https://dc.lft.to/lastmile_qr_scan", "ios": "https://dc.lft.to/lastmile_qr_scan"}, "fusion_lon": 0.0, "lat": 38.9196095, "bike_id": "691de6ed757e2917904883fd0ec50f12", "type": "electric_scooter", "is_reserved": 0, "lon": -77.02397916666666}, {"fusion_lat": 0.0, "name": "790f64391cfad4ed2f3453f6ac6121fb", "is_disabled": 0, "rental_uris": {"android": "https://dc.lft.to/lastmile_qr_scan", "ios": "https://dc.lft.to/lastmile_qr_scan"}, "fusion_lon": 0.0, "lat": 38.956905, "bike_id": "790f64391cfad4ed2f3453f6ac6121fb", "type": "electric_scooter", "is_reserved": 0, "lon": -77.03257366666666}, {"fusion_lat": 0.0, "name": "0b0802d91f49996ffbfd036978a7ccb0", "is_disabled": 0, "rental_uris": {"android": "https://dc.lft.to/lastmile_qr_scan", "ios": "https://dc.lft.to/lastmile_qr_scan"}, "fusion_lon": 0.0, "lat": 38.924195, "bike_id": "0b0802d91f49996ffbfd036978a7ccb0", "type": "electric_scooter", "is_reserved": 0, "lon": -77.02267716666667}, {"fusion_lat": 0.0, "name": "020053b87ef7206c26eef31307d67951", "is_disabled": 0, "rental_uris": {"android": "https://dc.lft.to/lastmile_qr_scan", "ios": "https://dc.lft.to/lastmile_qr_scan"}, "fusion_lon": 0.0, "lat": 38.9207565, "bike_id": "020053b87ef7206c26eef31307d67951", "type": "electric_scooter", "is_reserved": 0, "lon": -77.024153}, {"fusion_lat": 0.0, "name": "fb7d54a5f169b40c4f7411152ffa9b65", "is_disabled": 0, "rental_uris": {"android": "https://dc.lft.to/lastmile_qr_scan", "ios": "https://dc.lft.to/lastmile_qr_scan"}, "fusion_lon": 0.0, "lat": 38.96236233333333, "bike_id": "fb7d54a5f169b40c4f7411152ffa9b65", "type": "electric_bike", "is_reserved": 0, "lon": -76.927599}, {"fusion_lat": 0.0, "name": "4e1d1a85688dccbe9e66119346df27b9", "is_disabled": 0, "rental_uris": {"android": "https://dc.lft.to/lastmile_qr_scan", "ios": "https://dc.lft.to/lastmile_qr_scan"}, "fusion_lon": 0.0, "lat": 38.91840966666667, "bike_id": "4e1d1a85688dccbe9e66119346df27b9", "type": "electric_scooter", "is_reserved": 0, "lon": -77.0241885}, {"fusion_lat": 0.0, "name": "25f0941db85cc3c11462c9a2f4b87f6b", "is_disabled": 0, "rental_uris": {"android": "https://dc.lft.to/lastmile_qr_scan", "ios": "https://dc.lft.to/lastmile_qr_scan"}, "fusion_lon": 0.0, "lat": 38.8667985, "bike_id": "25f0941db85cc3c11462c9a2f4b87f6b", "type": "electric_bike", "is_reserved": 0, "lon": -76.982283}, {"fusion_lat": 0.0, "name": "31f0e58e09ebcd3ccfe408e42c746899", "is_disabled": 0, "rental_uris": {"android": "https://dc.lft.to/lastmile_qr_scan", "ios": "https://dc.lft.to/lastmile_qr_scan"}, "fusion_lon": 0.0, "lat": 38.90252366666667, "bike_id": "31f0e58e09ebcd3ccfe408e42c746899", "type": "electric_scooter", "is_reserved": 0, "lon": -77.01867166666666}, {"fusion_lat": 0.0, "name": "a5d581634df88e78d4195cae143841ef", "is_disabled": 0, "rental_uris": {"android": "https://dc.lft.to/lastmile_qr_scan", "ios": "https://dc.lft.to/lastmile_qr_scan"}, "fusion_lon": 0.0, "lat": 38.89731716666667, "bike_id": "a5d581634df88e78d4195cae143841ef", "type": "electric_scooter", "is_reserved": 0, "lon": -77.048492}, {"fusion_lat": 0.0, "name": "eedcaf30ce904693d4dab79316328658", "is_disabled": 0, "rental_uris": {"android": "https://dc.lft.to/lastmile_qr_scan", "ios": "https://dc.lft.to/lastmile_qr_scan"}, "fusion_lon": 0.0, "lat": 38.91064333333333, "bike_id": "eedcaf30ce904693d4dab79316328658", "type": "electric_scooter", "is_reserved": 0, "lon": -77.00463916666666}, {"fusion_lat": 0.0, "name": "5dd51d62885b2d9d22f0935dbfd1beb3", "is_disabled": 0, "rental_uris": {"android": "https://dc.lft.to/lastmile_qr_scan", "ios": "https://dc.lft.to/lastmile_qr_scan"}, "fusion_lon": 0.0, "lat": 38.94201966666667, "bike_id": "5dd51d62885b2d9d22f0935dbfd1beb3", "type": "electric_scooter", "is_reserved": 0, "lon": -77.02588966666667}, {"fusion_lat": 0.0, "name": "98f80ce8f4cc45e63f9efb56b5443206", "is_disabled": 0, "rental_uris": {"android": "https://dc.lft.to/lastmile_qr_scan", "ios": "https://dc.lft.to/lastmile_qr_scan"}, "fusion_lon": 0.0, "lat": 38.90207783333334, "bike_id": "98f80ce8f4cc45e63f9efb56b5443206", "type": "electric_scooter", "is_reserved": 0, "lon": -77.0220155}, {"fusion_lat": 0.0, "name": "95465c05bdc5440ceff7884f179de31d", "is_disabled": 0, "rental_uris": {"android": "https://dc.lft.to/lastmile_qr_scan", "ios": "https://dc.lft.to/lastmile_qr_scan"}, "fusion_lon": 0.0, "lat": 38.90591666666667, "bike_id": "95465c05bdc5440ceff7884f179de31d", "type": "electric_scooter", "is_reserved": 0, "lon": -77.03364516666667}, {"fusion_lat": 0.0, "name": "c2eb1fb3deb96d716c1907677231a40e", "is_disabled": 0, "rental_uris": {"android": "https://dc.lft.to/lastmile_qr_scan", "ios": "https://dc.lft.to/lastmile_qr_scan"}, "fusion_lon": 0.0, "lat": 38.93405933333333, "bike_id": "c2eb1fb3deb96d716c1907677231a40e", "type": "electric_scooter", "is_reserved": 0, "lon": -77.01962833333333}, {"fusion_lat": 0.0, "name": "354eac24927c6030f8345b538deb3eeb", "is_disabled": 0, "rental_uris": {"android": "https://dc.lft.to/lastmile_qr_scan", "ios": "https://dc.lft.to/lastmile_qr_scan"}, "fusion_lon": 0.0, "lat": 38.879283666666666, "bike_id": "354eac24927c6030f8345b538deb3eeb", "type": "electric_scooter", "is_reserved": 0, "lon": -76.94483}, {"fusion_lat": 0.0, "name": "79f1f87000db54a3a0dfd10072580496", "is_disabled": 0, "rental_uris": {"android": "https://dc.lft.to/lastmile_qr_scan", "ios": "https://dc.lft.to/lastmile_qr_scan"}, "fusion_lon": 0.0, "lat": 38.879550333333334, "bike_id": "79f1f87000db54a3a0dfd10072580496", "type": "electric_scooter", "is_reserved": 0, "lon": -77.00845383333333}, {"fusion_lat": 0.0, "name": "45d1f55833c355fff57c54e22a39ef87", "is_disabled": 0, "rental_uris": {"android": "https://dc.lft.to/lastmile_qr_scan", "ios": "https://dc.lft.to/lastmile_qr_scan"}, "fusion_lon": 0.0, "lat": 38.93293383333334, "bike_id": "45d1f55833c355fff57c54e22a39ef87", "type": "electric_scooter", "is_reserved": 0, "lon": -77.0279575}, {"fusion_lat": 0.0, "name": "4ecf4c4c8064f1dcdfe63b7fe504b094", "is_disabled": 0, "rental_uris": {"android": "https://dc.lft.to/lastmile_qr_scan", "ios": "https://dc.lft.to/lastmile_qr_scan"}, "fusion_lon": 0.0, "lat": 38.92867716666667, "bike_id": "4ecf4c4c8064f1dcdfe63b7fe504b094", "type": "electric_scooter", "is_reserved": 0, "lon": -77.03281366666667}, {"fusion_lat": 0.0, "name": "d4ea2eae450b9266149cff8310a7a96a", "is_disabled": 0, "rental_uris": {"android": "https://dc.lft.to/lastmile_qr_scan", "ios": "https://dc.lft.to/lastmile_qr_scan"}, "fusion_lon": 0.0, "lat": 38.949483, "bike_id": "d4ea2eae450b9266149cff8310a7a96a", "type": "electric_scooter", "is_reserved": 0, "lon": -77.02308916666667}, {"fusion_lat": 0.0, "name": "861c8b9da0b31f096c5e1b2e04b3b391", "is_disabled": 0, "rental_uris": {"android": "https://dc.lft.to/lastmile_qr_scan", "ios": "https://dc.lft.to/lastmile_qr_scan"}, "fusion_lon": 0.0, "lat": 38.902190833333336, "bike_id": "861c8b9da0b31f096c5e1b2e04b3b391", "type": "electric_scooter", "is_reserved": 0, "lon": -77.03215416666667}, {"fusion_lat": 0.0, "name": "6887ffa47c94cd48b961f1adf27ba4d6", "is_disabled": 0, "rental_uris": {"android": "https://dc.lft.to/lastmile_qr_scan", "ios": "https://dc.lft.to/lastmile_qr_scan"}, "fusion_lon": 0.0, "lat": 38.9062135, "bike_id": "6887ffa47c94cd48b961f1adf27ba4d6", "type": "electric_scooter", "is_reserved": 0, "lon": -77.03319333333333}, {"fusion_lat": 0.0, "name": "906ec0a79ae85d20bdd53dfcdb7a8e4b", "is_disabled": 0, "rental_uris": {"android": "https://dc.lft.to/lastmile_qr_scan", "ios": "https://dc.lft.to/lastmile_qr_scan"}, "fusion_lon": 0.0, "lat": 38.91931816666666, "bike_id": "906ec0a79ae85d20bdd53dfcdb7a8e4b", "type": "electric_scooter", "is_reserved": 0, "lon": -77.03941916666666}, {"fusion_lat": 0.0, "name": "20dde9f481a1065ca0e6b28c231ded27", "is_disabled": 0, "rental_uris": {"android": "https://dc.lft.to/lastmile_qr_scan", "ios": "https://dc.lft.to/lastmile_qr_scan"}, "fusion_lon": 0.0, "lat": 38.87684683333333, "bike_id": "20dde9f481a1065ca0e6b28c231ded27", "type": "electric_scooter", "is_reserved": 0, "lon": -77.01760283333333}, {"fusion_lat": 0.0, "name": "679651c8a63dfd5b9d03963f649bad47", "is_disabled": 0, "rental_uris": {"android": "https://dc.lft.to/lastmile_qr_scan", "ios": "https://dc.lft.to/lastmile_qr_scan"}, "fusion_lon": 0.0, "lat": 38.93358833333333, "bike_id": "679651c8a63dfd5b9d03963f649bad47", "type": "electric_scooter", "is_reserved": 0, "lon": -77.032587}, {"fusion_lat": 0.0, "name": "79faa68f46d361a28ce9521776e7553f", "is_disabled": 0, "rental_uris": {"android": "https://dc.lft.to/lastmile_qr_scan", "ios": "https://dc.lft.to/lastmile_qr_scan"}, "fusion_lon": 0.0, "lat": 38.9237145, "bike_id": "79faa68f46d361a28ce9521776e7553f", "type": "electric_scooter", "is_reserved": 0, "lon": -77.02532233333334}, {"fusion_lat": 0.0, "name": "ac2a0b80f5899d344577692bc8d56a24", "is_disabled": 0, "rental_uris": {"android": "https://dc.lft.to/lastmile_qr_scan", "ios": "https://dc.lft.to/lastmile_qr_scan"}, "fusion_lon": 0.0, "lat": 38.90358883333333, "bike_id": "ac2a0b80f5899d344577692bc8d56a24", "type": "electric_scooter", "is_reserved": 0, "lon": -77.06269133333333}, {"fusion_lat": 0.0, "name": "e4e9c3787807b56fcd3a0e654a4a1326", "is_disabled": 0, "rental_uris": {"android": "https://dc.lft.to/lastmile_qr_scan", "ios": "https://dc.lft.to/lastmile_qr_scan"}, "fusion_lon": 0.0, "lat": 38.849084166666664, "bike_id": "e4e9c3787807b56fcd3a0e654a4a1326", "type": "electric_bike", "is_reserved": 0, "lon": -77.0997245}, {"fusion_lat": 0.0, "name": "9545769abd2035b40fff73a07763cfef", "is_disabled": 0, "rental_uris": {"android": "https://dc.lft.to/lastmile_qr_scan", "ios": "https://dc.lft.to/lastmile_qr_scan"}, "fusion_lon": 0.0, "lat": 38.914157, "bike_id": "9545769abd2035b40fff73a07763cfef", "type": "electric_scooter", "is_reserved": 0, "lon": -77.031527}, {"fusion_lat": 0.0, "name": "86a6f919aeb11c943bbfc417d0fb7320", "is_disabled": 0, "rental_uris": {"android": "https://dc.lft.to/lastmile_qr_scan", "ios": "https://dc.lft.to/lastmile_qr_scan"}, "fusion_lon": 0.0, "lat": 38.9286785, "bike_id": "86a6f919aeb11c943bbfc417d0fb7320", "type": "electric_scooter", "is_reserved": 0, "lon": -77.03476216666667}, {"fusion_lat": 0.0, "name": "e9e1678099b491a0582ac0a2050f75cc", "is_disabled": 0, "rental_uris": {"android": "https://dc.lft.to/lastmile_qr_scan", "ios": "https://dc.lft.to/lastmile_qr_scan"}, "fusion_lon": 0.0, "lat": 38.938832166666664, "bike_id": "e9e1678099b491a0582ac0a2050f75cc", "type": "electric_scooter", "is_reserved": 0, "lon": -77.0246005}, {"fusion_lat": 0.0, "name": "eb2ca4b1e5ae95cf4145a51e4a249e3a", "is_disabled": 0, "rental_uris": {"android": "https://dc.lft.to/lastmile_qr_scan", "ios": "https://dc.lft.to/lastmile_qr_scan"}, "fusion_lon": 0.0, "lat": 38.893397, "bike_id": "eb2ca4b1e5ae95cf4145a51e4a249e3a", "type": "electric_scooter", "is_reserved": 0, "lon": -76.99379716666667}, {"fusion_lat": 0.0, "name": "5a1dba58c9d702aad2715abe6326fdbb", "is_disabled": 0, "rental_uris": {"android": "https://dc.lft.to/lastmile_qr_scan", "ios": "https://dc.lft.to/lastmile_qr_scan"}, "fusion_lon": 0.0, "lat": 38.865108166666666, "bike_id": "5a1dba58c9d702aad2715abe6326fdbb", "type": "electric_bike", "is_reserved": 0, "lon": -76.97322633333333}, {"fusion_lat": 0.0, "name": "a986a3a2c1ddfdd998cf5d237401b847", "is_disabled": 0, "rental_uris": {"android": "https://dc.lft.to/lastmile_qr_scan", "ios": "https://dc.lft.to/lastmile_qr_scan"}, "fusion_lon": 0.0, "lat": 38.935001666666665, "bike_id": "a986a3a2c1ddfdd998cf5d237401b847", "type": "electric_scooter", "is_reserved": 0, "lon": -77.07364066666666}, {"fusion_lat": 0.0, "name": "7812b114034754b7440ae9326098a7a1", "is_disabled": 0, "rental_uris": {"android": "https://dc.lft.to/lastmile_qr_scan", "ios": "https://dc.lft.to/lastmile_qr_scan"}, "fusion_lon": 0.0, "lat": 38.9103975, "bike_id": "7812b114034754b7440ae9326098a7a1", "type": "electric_scooter", "is_reserved": 0, "lon": -77.03329483333333}, {"fusion_lat": 0.0, "name": "86c28b209f1f5b90e6c982e95c3a052c", "is_disabled": 0, "rental_uris": {"android": "https://dc.lft.to/lastmile_qr_scan", "ios": "https://dc.lft.to/lastmile_qr_scan"}, "fusion_lon": 0.0, "lat": 38.9035425, "bike_id": "86c28b209f1f5b90e6c982e95c3a052c", "type": "electric_scooter", "is_reserved": 0, "lon": -77.036427}, {"fusion_lat": 0.0, "name": "dfadf0cde86a8fd1f26782dec253df78", "is_disabled": 0, "rental_uris": {"android": "https://dc.lft.to/lastmile_qr_scan", "ios": "https://dc.lft.to/lastmile_qr_scan"}, "fusion_lon": 0.0, "lat": 38.9127445, "bike_id": "dfadf0cde86a8fd1f26782dec253df78", "type": "electric_scooter", "is_reserved": 0, "lon": -77.04654083333334}, {"fusion_lat": 0.0, "name": "193cb8ecee65c6f67a2c4305a706c13d", "is_disabled": 0, "rental_uris": {"android": "https://dc.lft.to/lastmile_qr_scan", "ios": "https://dc.lft.to/lastmile_qr_scan"}, "fusion_lon": 0.0, "lat": 38.983900166666665, "bike_id": "193cb8ecee65c6f67a2c4305a706c13d", "type": "electric_scooter", "is_reserved": 0, "lon": -77.026308}, {"fusion_lat": 0.0, "name": "df722b4785caca941fd9ff5f1d198b3f", "is_disabled": 0, "rental_uris": {"android": "https://dc.lft.to/lastmile_qr_scan", "ios": "https://dc.lft.to/lastmile_qr_scan"}, "fusion_lon": 0.0, "lat": 38.8901475, "bike_id": "df722b4785caca941fd9ff5f1d198b3f", "type": "electric_scooter", "is_reserved": 0, "lon": -76.93734116666667}, {"fusion_lat": 0.0, "name": "6e9eeb9379071e4f076faefe5ac66f97", "is_disabled": 0, "rental_uris": {"android": "https://dc.lft.to/lastmile_qr_scan", "ios": "https://dc.lft.to/lastmile_qr_scan"}, "fusion_lon": 0.0, "lat": 38.891929166666664, "bike_id": "6e9eeb9379071e4f076faefe5ac66f97", "type": "electric_scooter", "is_reserved": 0, "lon": -77.02229166666666}, {"fusion_lat": 0.0, "name": "9866281e711746ec13da1533b145a93a", "is_disabled": 0, "rental_uris": {"android": "https://dc.lft.to/lastmile_qr_scan", "ios": "https://dc.lft.to/lastmile_qr_scan"}, "fusion_lon": 0.0, "lat": 38.91515416666667, "bike_id": "9866281e711746ec13da1533b145a93a", "type": "electric_scooter", "is_reserved": 0, "lon": -77.02691066666667}, {"fusion_lat": 0.0, "name": "31de56544639ea52cd8cc9319fd9371f", "is_disabled": 0, "rental_uris": {"android": "https://dc.lft.to/lastmile_qr_scan", "ios": "https://dc.lft.to/lastmile_qr_scan"}, "fusion_lon": 0.0, "lat": 38.9452145, "bike_id": "31de56544639ea52cd8cc9319fd9371f", "type": "electric_scooter", "is_reserved": 0, "lon": -77.022702}, {"fusion_lat": 0.0, "name": "948230e26742312c104eaffc8a28b3dc", "is_disabled": 0, "rental_uris": {"android": "https://dc.lft.to/lastmile_qr_scan", "ios": "https://dc.lft.to/lastmile_qr_scan"}, "fusion_lon": 0.0, "lat": 38.87713516666667, "bike_id": "948230e26742312c104eaffc8a28b3dc", "type": "electric_scooter", "is_reserved": 0, "lon": -76.99386166666666}, {"fusion_lat": 0.0, "name": "217d3869180424e667b6d4c25d11fbe8", "is_disabled": 0, "rental_uris": {"android": "https://dc.lft.to/lastmile_qr_scan", "ios": "https://dc.lft.to/lastmile_qr_scan"}, "fusion_lon": 0.0, "lat": 38.919044166666666, "bike_id": "217d3869180424e667b6d4c25d11fbe8", "type": "electric_scooter", "is_reserved": 0, "lon": -77.01211483333333}, {"fusion_lat": 0.0, "name": "f451d96368a771624fc0ccadd9d1ddba", "is_disabled": 0, "rental_uris": {"android": "https://dc.lft.to/lastmile_qr_scan", "ios": "https://dc.lft.to/lastmile_qr_scan"}, "fusion_lon": 0.0, "lat": 38.9039905, "bike_id": "f451d96368a771624fc0ccadd9d1ddba", "type": "electric_scooter", "is_reserved": 0, "lon": -77.017397}, {"fusion_lat": 0.0, "name": "eb8ee4df0397d2af7c2e4347bf12cd6a", "is_disabled": 0, "rental_uris": {"android": "https://dc.lft.to/lastmile_qr_scan", "ios": "https://dc.lft.to/lastmile_qr_scan"}, "fusion_lon": 0.0, "lat": 38.853119166666666, "bike_id": "eb8ee4df0397d2af7c2e4347bf12cd6a", "type": "electric_bike", "is_reserved": 0, "lon": -77.04596316666667}, {"fusion_lat": 0.0, "name": "eebb573a510b9d3b2085c7e8897c332d", "is_disabled": 0, "rental_uris": {"android": "https://dc.lft.to/lastmile_qr_scan", "ios": "https://dc.lft.to/lastmile_qr_scan"}, "fusion_lon": 0.0, "lat": 38.903627166666666, "bike_id": "eebb573a510b9d3b2085c7e8897c332d", "type": "electric_scooter", "is_reserved": 0, "lon": -77.003462}, {"fusion_lat": 0.0, "name": "aee1368360c58b5e9fbcaabe57dd6206", "is_disabled": 0, "rental_uris": {"android": "https://dc.lft.to/lastmile_qr_scan", "ios": "https://dc.lft.to/lastmile_qr_scan"}, "fusion_lon": 0.0, "lat": 38.91129433333333, "bike_id": "aee1368360c58b5e9fbcaabe57dd6206", "type": "electric_scooter", "is_reserved": 0, "lon": -77.01046183333334}, {"fusion_lat": 0.0, "name": "2d23301c2a24b466ed3bd7e66b22f97f", "is_disabled": 0, "rental_uris": {"android": "https://dc.lft.to/lastmile_qr_scan", "ios": "https://dc.lft.to/lastmile_qr_scan"}, "fusion_lon": 0.0, "lat": 38.90706483333334, "bike_id": "2d23301c2a24b466ed3bd7e66b22f97f", "type": "electric_scooter", "is_reserved": 0, "lon": -77.01017716666667}, {"fusion_lat": 0.0, "name": "93cfc056b933701841c8deacb4c9f3d4", "is_disabled": 0, "rental_uris": {"android": "https://dc.lft.to/lastmile_qr_scan", "ios": "https://dc.lft.to/lastmile_qr_scan"}, "fusion_lon": 0.0, "lat": 38.926811666666666, "bike_id": "93cfc056b933701841c8deacb4c9f3d4", "type": "electric_scooter", "is_reserved": 0, "lon": -77.007729}, {"fusion_lat": 0.0, "name": "6e0c6e67c1fa4d05d42cc82babd8e6fb", "is_disabled": 0, "rental_uris": {"android": "https://dc.lft.to/lastmile_qr_scan", "ios": "https://dc.lft.to/lastmile_qr_scan"}, "fusion_lon": 0.0, "lat": 38.842844, "bike_id": "6e0c6e67c1fa4d05d42cc82babd8e6fb", "type": "electric_bike", "is_reserved": 0, "lon": -77.0449215}, {"fusion_lat": 0.0, "name": "fca3005658c5d74cf3801f1867a85ecf", "is_disabled": 0, "rental_uris": {"android": "https://dc.lft.to/lastmile_qr_scan", "ios": "https://dc.lft.to/lastmile_qr_scan"}, "fusion_lon": 0.0, "lat": 38.895631333333334, "bike_id": "fca3005658c5d74cf3801f1867a85ecf", "type": "electric_bike", "is_reserved": 0, "lon": -77.12734216666666}, {"fusion_lat": 0.0, "name": "bee6f86fa8b0918e38935e124d29770a", "is_disabled": 0, "rental_uris": {"android": "https://dc.lft.to/lastmile_qr_scan", "ios": "https://dc.lft.to/lastmile_qr_scan"}, "fusion_lon": 0.0, "lat": 38.929443166666665, "bike_id": "bee6f86fa8b0918e38935e124d29770a", "type": "electric_scooter", "is_reserved": 0, "lon": -77.03453366666666}, {"fusion_lat": 0.0, "name": "3dee930129957b540f57e97997af4198", "is_disabled": 0, "rental_uris": {"android": "https://dc.lft.to/lastmile_qr_scan", "ios": "https://dc.lft.to/lastmile_qr_scan"}, "fusion_lon": 0.0, "lat": 38.90278433333334, "bike_id": "3dee930129957b540f57e97997af4198", "type": "electric_scooter", "is_reserved": 0, "lon": -77.0336775}, {"fusion_lat": 0.0, "name": "a201be8e1be0ba5d97448ef9e416e994", "is_disabled": 0, "rental_uris": {"android": "https://dc.lft.to/lastmile_qr_scan", "ios": "https://dc.lft.to/lastmile_qr_scan"}, "fusion_lon": 0.0, "lat": 38.892889, "bike_id": "a201be8e1be0ba5d97448ef9e416e994", "type": "electric_scooter", "is_reserved": 0, "lon": -77.0464715}, {"fusion_lat": 0.0, "name": "8902c6fcdabbef5cc882defbe26e405a", "is_disabled": 0, "rental_uris": {"android": "https://dc.lft.to/lastmile_qr_scan", "ios": "https://dc.lft.to/lastmile_qr_scan"}, "fusion_lon": 0.0, "lat": 38.8545875, "bike_id": "8902c6fcdabbef5cc882defbe26e405a", "type": "electric_scooter", "is_reserved": 0, "lon": -76.97223316666667}, {"fusion_lat": 0.0, "name": "37db77af9fd85b751e42acf2bcd8f985", "is_disabled": 0, "rental_uris": {"android": "https://dc.lft.to/lastmile_qr_scan", "ios": "https://dc.lft.to/lastmile_qr_scan"}, "fusion_lon": 0.0, "lat": 38.8924575, "bike_id": "37db77af9fd85b751e42acf2bcd8f985", "type": "electric_scooter", "is_reserved": 0, "lon": -77.03337583333334}, {"fusion_lat": 0.0, "name": "f71ade85ef4416670552840ea3d53802", "is_disabled": 0, "rental_uris": {"android": "https://dc.lft.to/lastmile_qr_scan", "ios": "https://dc.lft.to/lastmile_qr_scan"}, "fusion_lon": 0.0, "lat": 38.936266333333336, "bike_id": "f71ade85ef4416670552840ea3d53802", "type": "electric_scooter", "is_reserved": 0, "lon": -77.0365015}, {"fusion_lat": 0.0, "name": "222b9e68df67b2cc6120bc9c657fff86", "is_disabled": 0, "rental_uris": {"android": "https://dc.lft.to/lastmile_qr_scan", "ios": "https://dc.lft.to/lastmile_qr_scan"}, "fusion_lon": 0.0, "lat": 38.90054116666667, "bike_id": "222b9e68df67b2cc6120bc9c657fff86", "type": "electric_scooter", "is_reserved": 0, "lon": -77.02598}, {"fusion_lat": 0.0, "name": "698e943bb653582a34cf2ab6320bc162", "is_disabled": 0, "rental_uris": {"android": "https://dc.lft.to/lastmile_qr_scan", "ios": "https://dc.lft.to/lastmile_qr_scan"}, "fusion_lon": 0.0, "lat": 38.92721483333333, "bike_id": "698e943bb653582a34cf2ab6320bc162", "type": "electric_scooter", "is_reserved": 0, "lon": -77.02301816666666}, {"fusion_lat": 0.0, "name": "41bd5282a94278e08db24c6d8f6b7dbb", "is_disabled": 0, "rental_uris": {"android": "https://dc.lft.to/lastmile_qr_scan", "ios": "https://dc.lft.to/lastmile_qr_scan"}, "fusion_lon": 0.0, "lat": 38.87931283333333, "bike_id": "41bd5282a94278e08db24c6d8f6b7dbb", "type": "electric_scooter", "is_reserved": 0, "lon": -77.00829466666667}, {"fusion_lat": 0.0, "name": "6ffa7c48090b66f5cbb47443ccf82a34", "is_disabled": 0, "rental_uris": {"android": "https://dc.lft.to/lastmile_qr_scan", "ios": "https://dc.lft.to/lastmile_qr_scan"}, "fusion_lon": 0.0, "lat": 38.89230166666667, "bike_id": "6ffa7c48090b66f5cbb47443ccf82a34", "type": "electric_scooter", "is_reserved": 0, "lon": -77.017104}, {"fusion_lat": 0.0, "name": "5bc25123f76fecd614dc368f70b10bd9", "is_disabled": 0, "rental_uris": {"android": "https://dc.lft.to/lastmile_qr_scan", "ios": "https://dc.lft.to/lastmile_qr_scan"}, "fusion_lon": 0.0, "lat": 38.9215535, "bike_id": "5bc25123f76fecd614dc368f70b10bd9", "type": "electric_scooter", "is_reserved": 0, "lon": -77.03380683333333}, {"fusion_lat": 0.0, "name": "224433a9b0d7a345135febd1dbda04b5", "is_disabled": 0, "rental_uris": {"android": "https://dc.lft.to/lastmile_qr_scan", "ios": "https://dc.lft.to/lastmile_qr_scan"}, "fusion_lon": 0.0, "lat": 38.92848166666667, "bike_id": "224433a9b0d7a345135febd1dbda04b5", "type": "electric_scooter", "is_reserved": 0, "lon": -77.024343}, {"fusion_lat": 0.0, "name": "aaffb8b0140f33467bb19207e7bbab0a", "is_disabled": 0, "rental_uris": {"android": "https://dc.lft.to/lastmile_qr_scan", "ios": "https://dc.lft.to/lastmile_qr_scan"}, "fusion_lon": 0.0, "lat": 38.907142, "bike_id": "aaffb8b0140f33467bb19207e7bbab0a", "type": "electric_scooter", "is_reserved": 0, "lon": -77.0007225}, {"fusion_lat": 0.0, "name": "36a942a553d72afef7f03722090c5c60", "is_disabled": 0, "rental_uris": {"android": "https://dc.lft.to/lastmile_qr_scan", "ios": "https://dc.lft.to/lastmile_qr_scan"}, "fusion_lon": 0.0, "lat": 38.92071, "bike_id": "36a942a553d72afef7f03722090c5c60", "type": "electric_scooter", "is_reserved": 0, "lon": -77.02390966666667}, {"fusion_lat": 0.0, "name": "98502efdb82bd6eb9cde96d37e27f7ed", "is_disabled": 0, "rental_uris": {"android": "https://dc.lft.to/lastmile_qr_scan", "ios": "https://dc.lft.to/lastmile_qr_scan"}, "fusion_lon": 0.0, "lat": 38.9097715, "bike_id": "98502efdb82bd6eb9cde96d37e27f7ed", "type": "electric_scooter", "is_reserved": 0, "lon": -77.00887016666667}, {"fusion_lat": 0.0, "name": "6d4c76ee2d8b0514f221e8ebcc5ca88d", "is_disabled": 0, "rental_uris": {"android": "https://dc.lft.to/lastmile_qr_scan", "ios": "https://dc.lft.to/lastmile_qr_scan"}, "fusion_lon": 0.0, "lat": 38.92749716666667, "bike_id": "6d4c76ee2d8b0514f221e8ebcc5ca88d", "type": "electric_scooter", "is_reserved": 0, "lon": -77.02537666666667}, {"fusion_lat": 0.0, "name": "ae958aefc8fb1216c38afe997f7010cb", "is_disabled": 0, "rental_uris": {"android": "https://dc.lft.to/lastmile_qr_scan", "ios": "https://dc.lft.to/lastmile_qr_scan"}, "fusion_lon": 0.0, "lat": 38.8876785, "bike_id": "ae958aefc8fb1216c38afe997f7010cb", "type": "electric_scooter", "is_reserved": 0, "lon": -76.97752616666666}, {"fusion_lat": 0.0, "name": "867d04e4ce1a54fc324fff5f73d44024", "is_disabled": 0, "rental_uris": {"android": "https://dc.lft.to/lastmile_qr_scan", "ios": "https://dc.lft.to/lastmile_qr_scan"}, "fusion_lon": 0.0, "lat": 38.911085, "bike_id": "867d04e4ce1a54fc324fff5f73d44024", "type": "electric_scooter", "is_reserved": 0, "lon": -77.01144883333333}, {"fusion_lat": 0.0, "name": "4a8a5efc8ce788abbf2d5027ffc2fdde", "is_disabled": 0, "rental_uris": {"android": "https://dc.lft.to/lastmile_qr_scan", "ios": "https://dc.lft.to/lastmile_qr_scan"}, "fusion_lon": 0.0, "lat": 38.95705133333333, "bike_id": "4a8a5efc8ce788abbf2d5027ffc2fdde", "type": "electric_scooter", "is_reserved": 0, "lon": -77.02395616666666}, {"fusion_lat": 0.0, "name": "950f68e33b69a4105b49e395ec9cc277", "is_disabled": 0, "rental_uris": {"android": "https://dc.lft.to/lastmile_qr_scan", "ios": "https://dc.lft.to/lastmile_qr_scan"}, "fusion_lon": 0.0, "lat": 38.900253666666664, "bike_id": "950f68e33b69a4105b49e395ec9cc277", "type": "electric_scooter", "is_reserved": 0, "lon": -76.99136416666667}, {"fusion_lat": 0.0, "name": "1f6ec249841014d92d1c8cdcc58e0fce", "is_disabled": 0, "rental_uris": {"android": "https://dc.lft.to/lastmile_qr_scan", "ios": "https://dc.lft.to/lastmile_qr_scan"}, "fusion_lon": 0.0, "lat": 38.92052783333333, "bike_id": "1f6ec249841014d92d1c8cdcc58e0fce", "type": "electric_scooter", "is_reserved": 0, "lon": -77.03176183333333}, {"fusion_lat": 0.0, "name": "a721331acdfe59b49038a6856d0a40cd", "is_disabled": 0, "rental_uris": {"android": "https://dc.lft.to/lastmile_qr_scan", "ios": "https://dc.lft.to/lastmile_qr_scan"}, "fusion_lon": 0.0, "lat": 38.88448866666667, "bike_id": "a721331acdfe59b49038a6856d0a40cd", "type": "electric_scooter", "is_reserved": 0, "lon": -76.99828683333334}, {"fusion_lat": 0.0, "name": "f8d2562335f70e96fe5f4abd1501adc8", "is_disabled": 0, "rental_uris": {"android": "https://dc.lft.to/lastmile_qr_scan", "ios": "https://dc.lft.to/lastmile_qr_scan"}, "fusion_lon": 0.0, "lat": 38.88486733333333, "bike_id": "f8d2562335f70e96fe5f4abd1501adc8", "type": "electric_scooter", "is_reserved": 0, "lon": -76.92977033333334}, {"fusion_lat": 0.0, "name": "0e222e29dbdbd4a1451859a346ee85af", "is_disabled": 0, "rental_uris": {"android": "https://dc.lft.to/lastmile_qr_scan", "ios": "https://dc.lft.to/lastmile_qr_scan"}, "fusion_lon": 0.0, "lat": 38.929991666666666, "bike_id": "0e222e29dbdbd4a1451859a346ee85af", "type": "electric_scooter", "is_reserved": 0, "lon": -77.032393}, {"fusion_lat": 0.0, "name": "6edd59fa2d1e2384a5c8219d9de2e16d", "is_disabled": 0, "rental_uris": {"android": "https://dc.lft.to/lastmile_qr_scan", "ios": "https://dc.lft.to/lastmile_qr_scan"}, "fusion_lon": 0.0, "lat": 38.94700783333333, "bike_id": "6edd59fa2d1e2384a5c8219d9de2e16d", "type": "electric_scooter", "is_reserved": 0, "lon": -77.01938533333333}, {"fusion_lat": 0.0, "name": "7e6760d48796699a97bda2270a837e5f", "is_disabled": 0, "rental_uris": {"android": "https://dc.lft.to/lastmile_qr_scan", "ios": "https://dc.lft.to/lastmile_qr_scan"}, "fusion_lon": 0.0, "lat": 38.924417166666665, "bike_id": "7e6760d48796699a97bda2270a837e5f", "type": "electric_scooter", "is_reserved": 0, "lon": -77.0335215}, {"fusion_lat": 0.0, "name": "4b1d5c8756addd3295f7bdaf9abb08d3", "is_disabled": 0, "rental_uris": {"android": "https://dc.lft.to/lastmile_qr_scan", "ios": "https://dc.lft.to/lastmile_qr_scan"}, "fusion_lon": 0.0, "lat": 38.935851166666666, "bike_id": "4b1d5c8756addd3295f7bdaf9abb08d3", "type": "electric_scooter", "is_reserved": 0, "lon": -77.02361716666667}, {"fusion_lat": 0.0, "name": "3b2de6051cc163dda7e4d98b8f223b26", "is_disabled": 0, "rental_uris": {"android": "https://dc.lft.to/lastmile_qr_scan", "ios": "https://dc.lft.to/lastmile_qr_scan"}, "fusion_lon": 0.0, "lat": 38.946763833333335, "bike_id": "3b2de6051cc163dda7e4d98b8f223b26", "type": "electric_scooter", "is_reserved": 0, "lon": -77.03096166666667}, {"fusion_lat": 0.0, "name": "abfa001348657463a5c29fd70b9ec5f6", "is_disabled": 0, "rental_uris": {"android": "https://dc.lft.to/lastmile_qr_scan", "ios": "https://dc.lft.to/lastmile_qr_scan"}, "fusion_lon": 0.0, "lat": 38.930976333333334, "bike_id": "abfa001348657463a5c29fd70b9ec5f6", "type": "electric_scooter", "is_reserved": 0, "lon": -77.02663133333333}, {"fusion_lat": 0.0, "name": "7f9a744174ed2d8de9b2de974802a60a", "is_disabled": 0, "rental_uris": {"android": "https://dc.lft.to/lastmile_qr_scan", "ios": "https://dc.lft.to/lastmile_qr_scan"}, "fusion_lon": 0.0, "lat": 38.94834516666667, "bike_id": "7f9a744174ed2d8de9b2de974802a60a", "type": "electric_scooter", "is_reserved": 0, "lon": -77.02567416666666}, {"fusion_lat": 0.0, "name": "a644b5e41abbe8637260232599995228", "is_disabled": 0, "rental_uris": {"android": "https://dc.lft.to/lastmile_qr_scan", "ios": "https://dc.lft.to/lastmile_qr_scan"}, "fusion_lon": 0.0, "lat": 38.904357166666664, "bike_id": "a644b5e41abbe8637260232599995228", "type": "electric_scooter", "is_reserved": 0, "lon": -77.03155966666667}, {"fusion_lat": 0.0, "name": "28be7782a53a5c74b01085b7cd08993a", "is_disabled": 0, "rental_uris": {"android": "https://dc.lft.to/lastmile_qr_scan", "ios": "https://dc.lft.to/lastmile_qr_scan"}, "fusion_lon": 0.0, "lat": 38.931785, "bike_id": "28be7782a53a5c74b01085b7cd08993a", "type": "electric_scooter", "is_reserved": 0, "lon": -77.04292283333334}, {"fusion_lat": 0.0, "name": "5a4fb928dfeb897fd7020e7027b3cb4b", "is_disabled": 0, "rental_uris": {"android": "https://dc.lft.to/lastmile_qr_scan", "ios": "https://dc.lft.to/lastmile_qr_scan"}, "fusion_lon": 0.0, "lat": 38.9338515, "bike_id": "5a4fb928dfeb897fd7020e7027b3cb4b", "type": "electric_scooter", "is_reserved": 0, "lon": -77.038724}, {"fusion_lat": 0.0, "name": "6e8951d1a3bd3ef86d2f98acd80edc8d", "is_disabled": 0, "rental_uris": {"android": "https://dc.lft.to/lastmile_qr_scan", "ios": "https://dc.lft.to/lastmile_qr_scan"}, "fusion_lon": 0.0, "lat": 38.9662765, "bike_id": "6e8951d1a3bd3ef86d2f98acd80edc8d", "type": "electric_scooter", "is_reserved": 0, "lon": -77.01996233333334}, {"fusion_lat": 0.0, "name": "380c11bf7b024942911e4144f9b741a4", "is_disabled": 0, "rental_uris": {"android": "https://dc.lft.to/lastmile_qr_scan", "ios": "https://dc.lft.to/lastmile_qr_scan"}, "fusion_lon": 0.0, "lat": 38.896880333333335, "bike_id": "380c11bf7b024942911e4144f9b741a4", "type": "electric_scooter", "is_reserved": 0, "lon": -77.0432935}, {"fusion_lat": 0.0, "name": "93008ab8b987c3bad01bc65fc830f736", "is_disabled": 0, "rental_uris": {"android": "https://dc.lft.to/lastmile_qr_scan", "ios": "https://dc.lft.to/lastmile_qr_scan"}, "fusion_lon": 0.0, "lat": 38.88125316666667, "bike_id": "93008ab8b987c3bad01bc65fc830f736", "type": "electric_scooter", "is_reserved": 0, "lon": -77.0167825}, {"fusion_lat": 0.0, "name": "c7da27c724436ad5eaf66b14d2bf330a", "is_disabled": 0, "rental_uris": {"android": "https://dc.lft.to/lastmile_qr_scan", "ios": "https://dc.lft.to/lastmile_qr_scan"}, "fusion_lon": 0.0, "lat": 38.87844, "bike_id": "c7da27c724436ad5eaf66b14d2bf330a", "type": "electric_bike", "is_reserved": 0, "lon": -77.03014833333333}, {"fusion_lat": 0.0, "name": "9901d857d5eac9b91416f6b97f4e309e", "is_disabled": 0, "rental_uris": {"android": "https://dc.lft.to/lastmile_qr_scan", "ios": "https://dc.lft.to/lastmile_qr_scan"}, "fusion_lon": 0.0, "lat": 38.9002355, "bike_id": "9901d857d5eac9b91416f6b97f4e309e", "type": "electric_scooter", "is_reserved": 0, "lon": -76.98850866666666}, {"fusion_lat": 0.0, "name": "55bdf6ec882057e6b5bdb6906d288756", "is_disabled": 0, "rental_uris": {"android": "https://dc.lft.to/lastmile_qr_scan", "ios": "https://dc.lft.to/lastmile_qr_scan"}, "fusion_lon": 0.0, "lat": 38.920724666666665, "bike_id": "55bdf6ec882057e6b5bdb6906d288756", "type": "electric_scooter", "is_reserved": 0, "lon": -77.00440766666667}, {"fusion_lat": 0.0, "name": "929ce7d6829e8bef18b2a895e9bbb562", "is_disabled": 0, "rental_uris": {"android": "https://dc.lft.to/lastmile_qr_scan", "ios": "https://dc.lft.to/lastmile_qr_scan"}, "fusion_lon": 0.0, "lat": 38.91617133333333, "bike_id": "929ce7d6829e8bef18b2a895e9bbb562", "type": "electric_scooter", "is_reserved": 0, "lon": -77.0364245}, {"fusion_lat": 0.0, "name": "ad3599937058ff7a42b1a676fd9a9b38", "is_disabled": 0, "rental_uris": {"android": "https://dc.lft.to/lastmile_qr_scan", "ios": "https://dc.lft.to/lastmile_qr_scan"}, "fusion_lon": 0.0, "lat": 38.936659, "bike_id": "ad3599937058ff7a42b1a676fd9a9b38", "type": "electric_scooter", "is_reserved": 0, "lon": -77.03696183333334}, {"fusion_lat": 0.0, "name": "d0929ce0239eb5988539d384a10f5263", "is_disabled": 0, "rental_uris": {"android": "https://dc.lft.to/lastmile_qr_scan", "ios": "https://dc.lft.to/lastmile_qr_scan"}, "fusion_lon": 0.0, "lat": 38.874706, "bike_id": "d0929ce0239eb5988539d384a10f5263", "type": "electric_scooter", "is_reserved": 0, "lon": -77.00031833333334}, {"fusion_lat": 0.0, "name": "50fe47c0fd72e715cd2ca0f4796f6d4a", "is_disabled": 0, "rental_uris": {"android": "https://dc.lft.to/lastmile_qr_scan", "ios": "https://dc.lft.to/lastmile_qr_scan"}, "fusion_lon": 0.0, "lat": 38.90372883333333, "bike_id": "50fe47c0fd72e715cd2ca0f4796f6d4a", "type": "electric_scooter", "is_reserved": 0, "lon": -77.04604833333333}, {"fusion_lat": 0.0, "name": "a50c7c05ac428c44ac5f21ff25bef444", "is_disabled": 0, "rental_uris": {"android": "https://dc.lft.to/lastmile_qr_scan", "ios": "https://dc.lft.to/lastmile_qr_scan"}, "fusion_lon": 0.0, "lat": 38.90686916666667, "bike_id": "a50c7c05ac428c44ac5f21ff25bef444", "type": "electric_scooter", "is_reserved": 0, "lon": -77.04186083333333}, {"fusion_lat": 0.0, "name": "455f0d17b0b4d04c8a4696a40e3a017a", "is_disabled": 0, "rental_uris": {"android": "https://dc.lft.to/lastmile_qr_scan", "ios": "https://dc.lft.to/lastmile_qr_scan"}, "fusion_lon": 0.0, "lat": 38.90005216666667, "bike_id": "455f0d17b0b4d04c8a4696a40e3a017a", "type": "electric_scooter", "is_reserved": 0, "lon": -77.00679383333333}, {"fusion_lat": 0.0, "name": "3311c771cbadbec072856634ca02bb27", "is_disabled": 0, "rental_uris": {"android": "https://dc.lft.to/lastmile_qr_scan", "ios": "https://dc.lft.to/lastmile_qr_scan"}, "fusion_lon": 0.0, "lat": 38.93251716666666, "bike_id": "3311c771cbadbec072856634ca02bb27", "type": "electric_scooter", "is_reserved": 0, "lon": -77.0400765}, {"fusion_lat": 0.0, "name": "3822879e775b1db5dafe997fc65ba4fa", "is_disabled": 0, "rental_uris": {"android": "https://dc.lft.to/lastmile_qr_scan", "ios": "https://dc.lft.to/lastmile_qr_scan"}, "fusion_lon": 0.0, "lat": 38.8967655, "bike_id": "3822879e775b1db5dafe997fc65ba4fa", "type": "electric_scooter", "is_reserved": 0, "lon": -77.00787583333333}, {"fusion_lat": 0.0, "name": "dd779904cc03961b09e6c7c776d2184d", "is_disabled": 0, "rental_uris": {"android": "https://dc.lft.to/lastmile_qr_scan", "ios": "https://dc.lft.to/lastmile_qr_scan"}, "fusion_lon": 0.0, "lat": 38.904279333333335, "bike_id": "dd779904cc03961b09e6c7c776d2184d", "type": "electric_scooter", "is_reserved": 0, "lon": -76.94975666666667}, {"fusion_lat": 0.0, "name": "14f5469a2c1474551b5f717db9145ccc", "is_disabled": 0, "rental_uris": {"android": "https://dc.lft.to/lastmile_qr_scan", "ios": "https://dc.lft.to/lastmile_qr_scan"}, "fusion_lon": 0.0, "lat": 38.924868000000004, "bike_id": "14f5469a2c1474551b5f717db9145ccc", "type": "electric_scooter", "is_reserved": 0, "lon": -77.05748266666667}, {"fusion_lat": 0.0, "name": "e14cfa1b52cef2cc566c26716b687968", "is_disabled": 0, "rental_uris": {"android": "https://dc.lft.to/lastmile_qr_scan", "ios": "https://dc.lft.to/lastmile_qr_scan"}, "fusion_lon": 0.0, "lat": 38.940710333333335, "bike_id": "e14cfa1b52cef2cc566c26716b687968", "type": "electric_scooter", "is_reserved": 0, "lon": -77.02382016666667}, {"fusion_lat": 0.0, "name": "90c96c8018e21c4290333a5035b506e2", "is_disabled": 0, "rental_uris": {"android": "https://dc.lft.to/lastmile_qr_scan", "ios": "https://dc.lft.to/lastmile_qr_scan"}, "fusion_lon": 0.0, "lat": 38.909538166666664, "bike_id": "90c96c8018e21c4290333a5035b506e2", "type": "electric_scooter", "is_reserved": 0, "lon": -77.0103555}, {"fusion_lat": 0.0, "name": "7ce552dbd2fb9a1196b286987a2173f0", "is_disabled": 0, "rental_uris": {"android": "https://dc.lft.to/lastmile_qr_scan", "ios": "https://dc.lft.to/lastmile_qr_scan"}, "fusion_lon": 0.0, "lat": 38.92820483333333, "bike_id": "7ce552dbd2fb9a1196b286987a2173f0", "type": "electric_scooter", "is_reserved": 0, "lon": -77.02253016666667}, {"fusion_lat": 0.0, "name": "8bd3f5bfb511628df08255067caf344b", "is_disabled": 0, "rental_uris": {"android": "https://dc.lft.to/lastmile_qr_scan", "ios": "https://dc.lft.to/lastmile_qr_scan"}, "fusion_lon": 0.0, "lat": 38.93700466666667, "bike_id": "8bd3f5bfb511628df08255067caf344b", "type": "electric_scooter", "is_reserved": 0, "lon": -77.05598683333334}, {"fusion_lat": 0.0, "name": "6e32938a51c51230973416f076367b4b", "is_disabled": 0, "rental_uris": {"android": "https://dc.lft.to/lastmile_qr_scan", "ios": "https://dc.lft.to/lastmile_qr_scan"}, "fusion_lon": 0.0, "lat": 38.926257, "bike_id": "6e32938a51c51230973416f076367b4b", "type": "electric_scooter", "is_reserved": 0, "lon": -77.0547715}, {"fusion_lat": 0.0, "name": "70bda8de86ff13397cf1874d4b4b9989", "is_disabled": 0, "rental_uris": {"android": "https://dc.lft.to/lastmile_qr_scan", "ios": "https://dc.lft.to/lastmile_qr_scan"}, "fusion_lon": 0.0, "lat": 38.904513, "bike_id": "70bda8de86ff13397cf1874d4b4b9989", "type": "electric_scooter", "is_reserved": 0, "lon": -77.00162433333334}, {"fusion_lat": 0.0, "name": "ae8abd0b2083734adb9a4538fcade5bf", "is_disabled": 0, "rental_uris": {"android": "https://dc.lft.to/lastmile_qr_scan", "ios": "https://dc.lft.to/lastmile_qr_scan"}, "fusion_lon": 0.0, "lat": 38.9115745, "bike_id": "ae8abd0b2083734adb9a4538fcade5bf", "type": "electric_scooter", "is_reserved": 0, "lon": -77.01992583333333}, {"fusion_lat": 0.0, "name": "efe048662f9e17360891cdb57127cfcc", "is_disabled": 0, "rental_uris": {"android": "https://dc.lft.to/lastmile_qr_scan", "ios": "https://dc.lft.to/lastmile_qr_scan"}, "fusion_lon": 0.0, "lat": 38.895892, "bike_id": "efe048662f9e17360891cdb57127cfcc", "type": "electric_scooter", "is_reserved": 0, "lon": -77.025262}, {"fusion_lat": 0.0, "name": "228533d70b40916c18430c0f22f6de17", "is_disabled": 0, "rental_uris": {"android": "https://dc.lft.to/lastmile_qr_scan", "ios": "https://dc.lft.to/lastmile_qr_scan"}, "fusion_lon": 0.0, "lat": 38.88524116666667, "bike_id": "228533d70b40916c18430c0f22f6de17", "type": "electric_scooter", "is_reserved": 0, "lon": -77.0152955}, {"fusion_lat": 0.0, "name": "6f80817a62406d92801dc579883b5c73", "is_disabled": 0, "rental_uris": {"android": "https://dc.lft.to/lastmile_qr_scan", "ios": "https://dc.lft.to/lastmile_qr_scan"}, "fusion_lon": 0.0, "lat": 38.935139166666666, "bike_id": "6f80817a62406d92801dc579883b5c73", "type": "electric_scooter", "is_reserved": 0, "lon": -77.0334325}, {"fusion_lat": 0.0, "name": "7765f3ebf5892062342eca54daa0d4a8", "is_disabled": 0, "rental_uris": {"android": "https://dc.lft.to/lastmile_qr_scan", "ios": "https://dc.lft.to/lastmile_qr_scan"}, "fusion_lon": 0.0, "lat": 38.919782166666664, "bike_id": "7765f3ebf5892062342eca54daa0d4a8", "type": "electric_scooter", "is_reserved": 0, "lon": -77.07092633333333}, {"fusion_lat": 0.0, "name": "bf14b2676cd2edf3e69988a66962e42b", "is_disabled": 0, "rental_uris": {"android": "https://dc.lft.to/lastmile_qr_scan", "ios": "https://dc.lft.to/lastmile_qr_scan"}, "fusion_lon": 0.0, "lat": 38.9038615, "bike_id": "bf14b2676cd2edf3e69988a66962e42b", "type": "electric_scooter", "is_reserved": 0, "lon": -77.05005283333334}, {"fusion_lat": 0.0, "name": "e19b131b055e82888dff5fb688858ba0", "is_disabled": 0, "rental_uris": {"android": "https://dc.lft.to/lastmile_qr_scan", "ios": "https://dc.lft.to/lastmile_qr_scan"}, "fusion_lon": 0.0, "lat": 38.918200166666665, "bike_id": "e19b131b055e82888dff5fb688858ba0", "type": "electric_scooter", "is_reserved": 0, "lon": -77.04520583333333}, {"fusion_lat": 0.0, "name": "d89e01db18dd05a1ddb67f225d228495", "is_disabled": 0, "rental_uris": {"android": "https://dc.lft.to/lastmile_qr_scan", "ios": "https://dc.lft.to/lastmile_qr_scan"}, "fusion_lon": 0.0, "lat": 38.93699616666667, "bike_id": "d89e01db18dd05a1ddb67f225d228495", "type": "electric_scooter", "is_reserved": 0, "lon": -77.06092}, {"fusion_lat": 0.0, "name": "1ad33ed3d85c9b3b7891c3aa87b13237", "is_disabled": 0, "rental_uris": {"android": "https://dc.lft.to/lastmile_qr_scan", "ios": "https://dc.lft.to/lastmile_qr_scan"}, "fusion_lon": 0.0, "lat": 38.899704, "bike_id": "1ad33ed3d85c9b3b7891c3aa87b13237", "type": "electric_scooter", "is_reserved": 0, "lon": -77.03344666666666}, {"fusion_lat": 0.0, "name": "11314966b2131886308a23a9442b8e02", "is_disabled": 0, "rental_uris": {"android": "https://dc.lft.to/lastmile_qr_scan", "ios": "https://dc.lft.to/lastmile_qr_scan"}, "fusion_lon": 0.0, "lat": 38.907197, "bike_id": "11314966b2131886308a23a9442b8e02", "type": "electric_scooter", "is_reserved": 0, "lon": -77.047562}, {"fusion_lat": 0.0, "name": "d3aa1183d7b2e0acc1f6746a88f71213", "is_disabled": 0, "rental_uris": {"android": "https://dc.lft.to/lastmile_qr_scan", "ios": "https://dc.lft.to/lastmile_qr_scan"}, "fusion_lon": 0.0, "lat": 38.900002, "bike_id": "d3aa1183d7b2e0acc1f6746a88f71213", "type": "electric_scooter", "is_reserved": 0, "lon": -77.01138466666667}, {"fusion_lat": 0.0, "name": "9f94c36160e79afd828a313a51cc438f", "is_disabled": 0, "rental_uris": {"android": "https://dc.lft.to/lastmile_qr_scan", "ios": "https://dc.lft.to/lastmile_qr_scan"}, "fusion_lon": 0.0, "lat": 38.903408166666665, "bike_id": "9f94c36160e79afd828a313a51cc438f", "type": "electric_scooter", "is_reserved": 0, "lon": -76.9336715}, {"fusion_lat": 0.0, "name": "33bbbaa48906636d30c9b23f2bd8d489", "is_disabled": 0, "rental_uris": {"android": "https://dc.lft.to/lastmile_qr_scan", "ios": "https://dc.lft.to/lastmile_qr_scan"}, "fusion_lon": 0.0, "lat": 38.883017, "bike_id": "33bbbaa48906636d30c9b23f2bd8d489", "type": "electric_scooter", "is_reserved": 0, "lon": -76.94856183333333}, {"fusion_lat": 0.0, "name": "717afe50c64493b24b6820a7e301d97b", "is_disabled": 0, "rental_uris": {"android": "https://dc.lft.to/lastmile_qr_scan", "ios": "https://dc.lft.to/lastmile_qr_scan"}, "fusion_lon": 0.0, "lat": 38.819134166666664, "bike_id": "717afe50c64493b24b6820a7e301d97b", "type": "electric_bike", "is_reserved": 0, "lon": -77.04792566666667}, {"fusion_lat": 0.0, "name": "af577fb689aee9afc642b780b4743702", "is_disabled": 0, "rental_uris": {"android": "https://dc.lft.to/lastmile_qr_scan", "ios": "https://dc.lft.to/lastmile_qr_scan"}, "fusion_lon": 0.0, "lat": 38.928695166666664, "bike_id": "af577fb689aee9afc642b780b4743702", "type": "electric_scooter", "is_reserved": 0, "lon": -77.0340835}, {"fusion_lat": 0.0, "name": "5ef780e12c34bde4c0076c154b793861", "is_disabled": 0, "rental_uris": {"android": "https://dc.lft.to/lastmile_qr_scan", "ios": "https://dc.lft.to/lastmile_qr_scan"}, "fusion_lon": 0.0, "lat": 38.80756133333333, "bike_id": "5ef780e12c34bde4c0076c154b793861", "type": "electric_bike", "is_reserved": 0, "lon": -77.0944865}, {"fusion_lat": 0.0, "name": "ae784ab343b59a0eac408d8cf876d458", "is_disabled": 0, "rental_uris": {"android": "https://dc.lft.to/lastmile_qr_scan", "ios": "https://dc.lft.to/lastmile_qr_scan"}, "fusion_lon": 0.0, "lat": 38.92529866666667, "bike_id": "ae784ab343b59a0eac408d8cf876d458", "type": "electric_scooter", "is_reserved": 0, "lon": -77.00754483333333}, {"fusion_lat": 0.0, "name": "e3aabe6df2cc9d9a6fb84a97ffa106e1", "is_disabled": 0, "rental_uris": {"android": "https://dc.lft.to/lastmile_qr_scan", "ios": "https://dc.lft.to/lastmile_qr_scan"}, "fusion_lon": 0.0, "lat": 38.8924875, "bike_id": "e3aabe6df2cc9d9a6fb84a97ffa106e1", "type": "electric_scooter", "is_reserved": 0, "lon": -77.03331733333333}, {"fusion_lat": 0.0, "name": "496a7b408f30d0a664b3dd785616c0e4", "is_disabled": 0, "rental_uris": {"android": "https://dc.lft.to/lastmile_qr_scan", "ios": "https://dc.lft.to/lastmile_qr_scan"}, "fusion_lon": 0.0, "lat": 38.926829833333336, "bike_id": "496a7b408f30d0a664b3dd785616c0e4", "type": "electric_scooter", "is_reserved": 0, "lon": -77.03088216666667}, {"fusion_lat": 0.0, "name": "92e05f82c0998e30879b4661e3d8e2b8", "is_disabled": 0, "rental_uris": {"android": "https://dc.lft.to/lastmile_qr_scan", "ios": "https://dc.lft.to/lastmile_qr_scan"}, "fusion_lon": 0.0, "lat": 38.781746, "bike_id": "92e05f82c0998e30879b4661e3d8e2b8", "type": "electric_bike", "is_reserved": 0, "lon": -77.01435866666667}, {"fusion_lat": 0.0, "name": "2c7fb88ac96880bb401501ebfab099aa", "is_disabled": 0, "rental_uris": {"android": "https://dc.lft.to/lastmile_qr_scan", "ios": "https://dc.lft.to/lastmile_qr_scan"}, "fusion_lon": 0.0, "lat": 38.89689833333333, "bike_id": "2c7fb88ac96880bb401501ebfab099aa", "type": "electric_scooter", "is_reserved": 0, "lon": -77.04336116666667}, {"fusion_lat": 0.0, "name": "d0d128b57bdd7f87f065896cf8307747", "is_disabled": 0, "rental_uris": {"android": "https://dc.lft.to/lastmile_qr_scan", "ios": "https://dc.lft.to/lastmile_qr_scan"}, "fusion_lon": 0.0, "lat": 38.83156783333333, "bike_id": "d0d128b57bdd7f87f065896cf8307747", "type": "electric_bike", "is_reserved": 0, "lon": -76.99572916666666}, {"fusion_lat": 0.0, "name": "868709218c18edb9b522cab965a570f1", "is_disabled": 0, "rental_uris": {"android": "https://dc.lft.to/lastmile_qr_scan", "ios": "https://dc.lft.to/lastmile_qr_scan"}, "fusion_lon": 0.0, "lat": 38.90041166666666, "bike_id": "868709218c18edb9b522cab965a570f1", "type": "electric_scooter", "is_reserved": 0, "lon": -77.035199}, {"fusion_lat": 0.0, "name": "b263401e064614dce2be573fd7fc13da", "is_disabled": 0, "rental_uris": {"android": "https://dc.lft.to/lastmile_qr_scan", "ios": "https://dc.lft.to/lastmile_qr_scan"}, "fusion_lon": 0.0, "lat": 38.914333666666664, "bike_id": "b263401e064614dce2be573fd7fc13da", "type": "electric_scooter", "is_reserved": 0, "lon": -76.99353516666666}, {"fusion_lat": 0.0, "name": "41bab71cffffe0551fe808bee79c911d", "is_disabled": 0, "rental_uris": {"android": "https://dc.lft.to/lastmile_qr_scan", "ios": "https://dc.lft.to/lastmile_qr_scan"}, "fusion_lon": 0.0, "lat": 38.8851155, "bike_id": "41bab71cffffe0551fe808bee79c911d", "type": "electric_scooter", "is_reserved": 0, "lon": -77.011173}, {"fusion_lat": 0.0, "name": "83387af0799b862bcaae01a98a09901a", "is_disabled": 0, "rental_uris": {"android": "https://dc.lft.to/lastmile_qr_scan", "ios": "https://dc.lft.to/lastmile_qr_scan"}, "fusion_lon": 0.0, "lat": 38.91039033333333, "bike_id": "83387af0799b862bcaae01a98a09901a", "type": "electric_scooter", "is_reserved": 0, "lon": -77.039462}, {"fusion_lat": 0.0, "name": "3829a35e63cc58ac30e7d8a40c7a8103", "is_disabled": 0, "rental_uris": {"android": "https://dc.lft.to/lastmile_qr_scan", "ios": "https://dc.lft.to/lastmile_qr_scan"}, "fusion_lon": 0.0, "lat": 38.908611, "bike_id": "3829a35e63cc58ac30e7d8a40c7a8103", "type": "electric_scooter", "is_reserved": 0, "lon": -77.04873383333333}, {"fusion_lat": 0.0, "name": "c75dc21010ee2423da6d3e5aaceb0e06", "is_disabled": 0, "rental_uris": {"android": "https://dc.lft.to/lastmile_qr_scan", "ios": "https://dc.lft.to/lastmile_qr_scan"}, "fusion_lon": 0.0, "lat": 38.93180433333333, "bike_id": "c75dc21010ee2423da6d3e5aaceb0e06", "type": "electric_scooter", "is_reserved": 0, "lon": -77.03773233333334}, {"fusion_lat": 0.0, "name": "d43eca02af5e69605ebb61cef365a8a1", "is_disabled": 0, "rental_uris": {"android": "https://dc.lft.to/lastmile_qr_scan", "ios": "https://dc.lft.to/lastmile_qr_scan"}, "fusion_lon": 0.0, "lat": 38.929129, "bike_id": "d43eca02af5e69605ebb61cef365a8a1", "type": "electric_scooter", "is_reserved": 0, "lon": -77.02155683333334}, {"fusion_lat": 0.0, "name": "24a0d09eef6677633d60324f96c04a0b", "is_disabled": 0, "rental_uris": {"android": "https://dc.lft.to/lastmile_qr_scan", "ios": "https://dc.lft.to/lastmile_qr_scan"}, "fusion_lon": 0.0, "lat": 38.939614166666665, "bike_id": "24a0d09eef6677633d60324f96c04a0b", "type": "electric_scooter", "is_reserved": 0, "lon": -77.03281133333333}, {"fusion_lat": 0.0, "name": "d87761d084a65f393662e7c5f9cb931d", "is_disabled": 0, "rental_uris": {"android": "https://dc.lft.to/lastmile_qr_scan", "ios": "https://dc.lft.to/lastmile_qr_scan"}, "fusion_lon": 0.0, "lat": 38.88511183333333, "bike_id": "d87761d084a65f393662e7c5f9cb931d", "type": "electric_scooter", "is_reserved": 0, "lon": -76.99749533333333}, {"fusion_lat": 0.0, "name": "60c0208e84e5c8646c843ba2b7e1d69a", "is_disabled": 0, "rental_uris": {"android": "https://dc.lft.to/lastmile_qr_scan", "ios": "https://dc.lft.to/lastmile_qr_scan"}, "fusion_lon": 0.0, "lat": 38.92257566666667, "bike_id": "60c0208e84e5c8646c843ba2b7e1d69a", "type": "electric_scooter", "is_reserved": 0, "lon": -77.0091695}, {"fusion_lat": 0.0, "name": "c5a4dc10cbf385a221b50cfb86eb6093", "is_disabled": 0, "rental_uris": {"android": "https://dc.lft.to/lastmile_qr_scan", "ios": "https://dc.lft.to/lastmile_qr_scan"}, "fusion_lon": 0.0, "lat": 38.90964616666667, "bike_id": "c5a4dc10cbf385a221b50cfb86eb6093", "type": "electric_scooter", "is_reserved": 0, "lon": -77.04865933333333}, {"fusion_lat": 0.0, "name": "c6ceb6f3c796484dbac76a86c9e850d0", "is_disabled": 0, "rental_uris": {"android": "https://dc.lft.to/lastmile_qr_scan", "ios": "https://dc.lft.to/lastmile_qr_scan"}, "fusion_lon": 0.0, "lat": 38.9305275, "bike_id": "c6ceb6f3c796484dbac76a86c9e850d0", "type": "electric_scooter", "is_reserved": 0, "lon": -77.04064783333334}, {"fusion_lat": 0.0, "name": "ed95f488669f1efb2a3b363480569d08", "is_disabled": 0, "rental_uris": {"android": "https://dc.lft.to/lastmile_qr_scan", "ios": "https://dc.lft.to/lastmile_qr_scan"}, "fusion_lon": 0.0, "lat": 38.91960616666667, "bike_id": "ed95f488669f1efb2a3b363480569d08", "type": "electric_scooter", "is_reserved": 0, "lon": -77.017663}, {"fusion_lat": 0.0, "name": "0f52dd50eb01aa49660a8deff80ee1f1", "is_disabled": 0, "rental_uris": {"android": "https://dc.lft.to/lastmile_qr_scan", "ios": "https://dc.lft.to/lastmile_qr_scan"}, "fusion_lon": 0.0, "lat": 38.91402183333334, "bike_id": "0f52dd50eb01aa49660a8deff80ee1f1", "type": "electric_scooter", "is_reserved": 0, "lon": -77.0321655}, {"fusion_lat": 0.0, "name": "a77c06fcab846e2fa4b9183c6ab93067", "is_disabled": 0, "rental_uris": {"android": "https://dc.lft.to/lastmile_qr_scan", "ios": "https://dc.lft.to/lastmile_qr_scan"}, "fusion_lon": 0.0, "lat": 38.92203533333333, "bike_id": "a77c06fcab846e2fa4b9183c6ab93067", "type": "electric_scooter", "is_reserved": 0, "lon": -77.04128083333333}, {"fusion_lat": 0.0, "name": "26adb50a5881a0f02736d93cd6576e0d", "is_disabled": 0, "rental_uris": {"android": "https://dc.lft.to/lastmile_qr_scan", "ios": "https://dc.lft.to/lastmile_qr_scan"}, "fusion_lon": 0.0, "lat": 38.89958566666667, "bike_id": "26adb50a5881a0f02736d93cd6576e0d", "type": "electric_scooter", "is_reserved": 0, "lon": -77.01504316666667}, {"fusion_lat": 0.0, "name": "2220ff7cfbb877c5fa1f04a0011f22a1", "is_disabled": 0, "rental_uris": {"android": "https://dc.lft.to/lastmile_qr_scan", "ios": "https://dc.lft.to/lastmile_qr_scan"}, "fusion_lon": 0.0, "lat": 38.92415333333334, "bike_id": "2220ff7cfbb877c5fa1f04a0011f22a1", "type": "electric_scooter", "is_reserved": 0, "lon": -77.0200425}, {"fusion_lat": 0.0, "name": "e73c7328b97c05cfde959ce0619665e3", "is_disabled": 0, "rental_uris": {"android": "https://dc.lft.to/lastmile_qr_scan", "ios": "https://dc.lft.to/lastmile_qr_scan"}, "fusion_lon": 0.0, "lat": 38.90941433333333, "bike_id": "e73c7328b97c05cfde959ce0619665e3", "type": "electric_scooter", "is_reserved": 0, "lon": -77.03846216666666}, {"fusion_lat": 0.0, "name": "9a8e4616288263aa2afaf9e35890399b", "is_disabled": 0, "rental_uris": {"android": "https://dc.lft.to/lastmile_qr_scan", "ios": "https://dc.lft.to/lastmile_qr_scan"}, "fusion_lon": 0.0, "lat": 38.9565315, "bike_id": "9a8e4616288263aa2afaf9e35890399b", "type": "electric_scooter", "is_reserved": 0, "lon": -77.0332475}, {"fusion_lat": 0.0, "name": "9a1be9999747ec23e13c14b521773448", "is_disabled": 0, "rental_uris": {"android": "https://dc.lft.to/lastmile_qr_scan", "ios": "https://dc.lft.to/lastmile_qr_scan"}, "fusion_lon": 0.0, "lat": 38.90778233333333, "bike_id": "9a1be9999747ec23e13c14b521773448", "type": "electric_scooter", "is_reserved": 0, "lon": -77.03834733333333}, {"fusion_lat": 0.0, "name": "568d2a327fcb443e5ca09aa52db06f35", "is_disabled": 0, "rental_uris": {"android": "https://dc.lft.to/lastmile_qr_scan", "ios": "https://dc.lft.to/lastmile_qr_scan"}, "fusion_lon": 0.0, "lat": 39.010758333333335, "bike_id": "568d2a327fcb443e5ca09aa52db06f35", "type": "electric_bike", "is_reserved": 0, "lon": -76.91065033333334}, {"fusion_lat": 0.0, "name": "18b2b79d861a9d65466f2063a74666c7", "is_disabled": 0, "rental_uris": {"android": "https://dc.lft.to/lastmile_qr_scan", "ios": "https://dc.lft.to/lastmile_qr_scan"}, "fusion_lon": 0.0, "lat": 38.87686883333333, "bike_id": "18b2b79d861a9d65466f2063a74666c7", "type": "electric_scooter", "is_reserved": 0, "lon": -77.01758883333333}, {"fusion_lat": 0.0, "name": "efc5e7d986a4a46a9193ef3f99bed5d4", "is_disabled": 0, "rental_uris": {"android": "https://dc.lft.to/lastmile_qr_scan", "ios": "https://dc.lft.to/lastmile_qr_scan"}, "fusion_lon": 0.0, "lat": 38.942241333333335, "bike_id": "efc5e7d986a4a46a9193ef3f99bed5d4", "type": "electric_scooter", "is_reserved": 0, "lon": -77.02327433333333}, {"fusion_lat": 0.0, "name": "a3a9a1d7124abf664153da413492f199", "is_disabled": 0, "rental_uris": {"android": "https://dc.lft.to/lastmile_qr_scan", "ios": "https://dc.lft.to/lastmile_qr_scan"}, "fusion_lon": 0.0, "lat": 38.90255333333333, "bike_id": "a3a9a1d7124abf664153da413492f199", "type": "electric_scooter", "is_reserved": 0, "lon": -76.9745215}, {"fusion_lat": 0.0, "name": "8d6d6e95ac9afb3609cec50e1c64e290", "is_disabled": 0, "rental_uris": {"android": "https://dc.lft.to/lastmile_qr_scan", "ios": "https://dc.lft.to/lastmile_qr_scan"}, "fusion_lon": 0.0, "lat": 38.920733, "bike_id": "8d6d6e95ac9afb3609cec50e1c64e290", "type": "electric_scooter", "is_reserved": 0, "lon": -77.02413183333333}, {"fusion_lat": 0.0, "name": "7373fa195d27f3d4d759dc3b6a801d83", "is_disabled": 0, "rental_uris": {"android": "https://dc.lft.to/lastmile_qr_scan", "ios": "https://dc.lft.to/lastmile_qr_scan"}, "fusion_lon": 0.0, "lat": 38.9181545, "bike_id": "7373fa195d27f3d4d759dc3b6a801d83", "type": "electric_scooter", "is_reserved": 0, "lon": -77.02487383333333}, {"fusion_lat": 0.0, "name": "ab945191499e33434956701e57446a3c", "is_disabled": 0, "rental_uris": {"android": "https://dc.lft.to/lastmile_qr_scan", "ios": "https://dc.lft.to/lastmile_qr_scan"}, "fusion_lon": 0.0, "lat": 38.929279666666666, "bike_id": "ab945191499e33434956701e57446a3c", "type": "electric_scooter", "is_reserved": 0, "lon": -77.02336616666666}, {"fusion_lat": 0.0, "name": "8e198bae0a44b803757eadd5f6a3e290", "is_disabled": 0, "rental_uris": {"android": "https://dc.lft.to/lastmile_qr_scan", "ios": "https://dc.lft.to/lastmile_qr_scan"}, "fusion_lon": 0.0, "lat": 38.92316483333333, "bike_id": "8e198bae0a44b803757eadd5f6a3e290", "type": "electric_scooter", "is_reserved": 0, "lon": -77.02032466666667}, {"fusion_lat": 0.0, "name": "5c7af6aefe44f410e1d9ee4be86fe292", "is_disabled": 0, "rental_uris": {"android": "https://dc.lft.to/lastmile_qr_scan", "ios": "https://dc.lft.to/lastmile_qr_scan"}, "fusion_lon": 0.0, "lat": 38.930759333333334, "bike_id": "5c7af6aefe44f410e1d9ee4be86fe292", "type": "electric_scooter", "is_reserved": 0, "lon": -77.077612}, {"fusion_lat": 0.0, "name": "d5676c5dbbe5b13b8532b91107661067", "is_disabled": 0, "rental_uris": {"android": "https://dc.lft.to/lastmile_qr_scan", "ios": "https://dc.lft.to/lastmile_qr_scan"}, "fusion_lon": 0.0, "lat": 38.907330333333334, "bike_id": "d5676c5dbbe5b13b8532b91107661067", "type": "electric_scooter", "is_reserved": 0, "lon": -77.02897216666666}, {"fusion_lat": 0.0, "name": "991e2d23c4e65ebcad259826f8408461", "is_disabled": 0, "rental_uris": {"android": "https://dc.lft.to/lastmile_qr_scan", "ios": "https://dc.lft.to/lastmile_qr_scan"}, "fusion_lon": 0.0, "lat": 38.9523125, "bike_id": "991e2d23c4e65ebcad259826f8408461", "type": "electric_scooter", "is_reserved": 0, "lon": -76.990048}, {"fusion_lat": 0.0, "name": "5e0e3ca4942a11bafe54652edbfc10e0", "is_disabled": 0, "rental_uris": {"android": "https://dc.lft.to/lastmile_qr_scan", "ios": "https://dc.lft.to/lastmile_qr_scan"}, "fusion_lon": 0.0, "lat": 38.921542, "bike_id": "5e0e3ca4942a11bafe54652edbfc10e0", "type": "electric_scooter", "is_reserved": 0, "lon": -77.033483}, {"fusion_lat": 0.0, "name": "f7cd2cb46374442a4f0938dd1ba9c224", "is_disabled": 0, "rental_uris": {"android": "https://dc.lft.to/lastmile_qr_scan", "ios": "https://dc.lft.to/lastmile_qr_scan"}, "fusion_lon": 0.0, "lat": 38.90397983333333, "bike_id": "f7cd2cb46374442a4f0938dd1ba9c224", "type": "electric_scooter", "is_reserved": 0, "lon": -76.99000483333333}, {"fusion_lat": 0.0, "name": "50e652381aa02c8bd63b22b8469b9038", "is_disabled": 0, "rental_uris": {"android": "https://dc.lft.to/lastmile_qr_scan", "ios": "https://dc.lft.to/lastmile_qr_scan"}, "fusion_lon": 0.0, "lat": 38.90729183333333, "bike_id": "50e652381aa02c8bd63b22b8469b9038", "type": "electric_scooter", "is_reserved": 0, "lon": -77.01220066666667}, {"fusion_lat": 0.0, "name": "a490e0f1761dc30b3839d9ef479a6ea6", "is_disabled": 0, "rental_uris": {"android": "https://dc.lft.to/lastmile_qr_scan", "ios": "https://dc.lft.to/lastmile_qr_scan"},