{"data": {"bikes": [{"is_reserved": 0, "type": "electric_bike", "bike_id": "419e91e6155a198f924a16b249c1d89f", "lat": 38.8541625, "lon": -77.08370966666666, "rental_uris": {"android": "https://dc.lft.to/lastmile_qr_scan", "ios": "https://dc.lft.to/lastmile_qr_scan"}, "is_disabled": 0, "fusion_lat": 0.0, "name": "419e91e6155a198f924a16b249c1d89f", "fusion_lon": 0.0}, {"is_reserved": 0, "type": "electric_bike", "bike_id": "effcf51edf75f27ecfcafad4833a6cdc", "lat": 38.86996583333333, "lon": -77.22992933333333, "rental_uris": {"android": "https://dc.lft.to/lastmile_qr_scan", "ios": "https://dc.lft.to/lastmile_qr_scan"}, "is_disabled": 0, "fusion_lat": 0.0, "name": "effcf51edf75f27ecfcafad4833a6cdc", "fusion_lon": 0.0}, {"is_reserved": 0, "type": "electric_scooter", "bike_id": "8b4fa7272a588b83435817a0d99abfb4", "lat": 38.922514666666665, "lon": -77.0309345, "rental_uris": {"android": "https://dc.lft.to/lastmile_qr_scan", "ios": "https://dc.lft.to/lastmile_qr_scan"}, "is_disabled": 0, "fusion_lat": 0.0, "name": "8b4fa7272a588b83435817a0d99abfb4", "fusion_lon": 0.0}, {"is_reserved": 0, "type": "electric_scooter", "bike_id": "88c4ff3e4dab62774eb89a8f8199fa76", "lat": 38.88620216666666, "lon": -77.02220616666666, "rental_uris": {"android": "https://dc.lft.to/lastmile_qr_scan", "ios": "https://dc.lft.to/lastmile_qr_scan"}, "is_disabled": 0, "fusion_lat": 0.0, "name": "88c4ff3e4dab62774eb89a8f8199fa76", "fusion_lon": 0.0}, {"is_reserved": 0, "type": "electric_bike", "bike_id": "bffd0d56c86ea7220bfd26bf42addf6e", "lat": 38.8633295, "lon": -76.98724433333334, "rental_uris": {"android": "https://dc.lft.to/lastmile_qr_scan", "ios": "https://dc.lft.to/lastmile_qr_scan"}, "is_disabled": 0, "fusion_lat": 0.0, "name": "bffd0d56c86ea7220bfd26bf42addf6e", "fusion_lon": 0.0}, {"is_reserved": 0, "type": "electric_scooter", "bike_id": "4612c7f043a7b033b76453d185a8d10d", "lat": 38.925223333333335, "lon": -77.05060416666667, "rental_uris": {"android": "https://dc.lft.to/lastmile_qr_scan", "ios": "https://dc.lft.to/lastmile_qr_scan"}, "is_disabled": 0, "fusion_lat": 0.0, "name": "4612c7f043a7b033b76453d185a8d10d", "fusion_lon": 0.0}, {"is_reserved": 0, "type": "electric_scooter", "bike_id": "660429a17c32fff07eb76f48ef40b1ab", "lat": 38.87532616666667, "lon": -77.00070016666666, "rental_uris": {"android": "https://dc.lft.to/lastmile_qr_scan", "ios": "https://dc.lft.to/lastmile_qr_scan"}, "is_disabled": 0, "fusion_lat": 0.0, "name": "660429a17c32fff07eb76f48ef40b1ab", "fusion_lon": 0.0}, {"is_reserved": 0, "type": "electric_scooter", "bike_id": "297822eabb2dfeca99544a805ccceda7", "lat": 38.920610333333336, "lon": -77.02306633333333, "rental_uris": {"android": "https://dc.lft.to/lastmile_qr_scan", "ios": "https://dc.lft.to/lastmile_qr_scan"}, "is_disabled": 0, "fusion_lat": 0.0, "name": "297822eabb2dfeca99544a805ccceda7", "fusion_lon": 0.0}, {"is_reserved": 0, "type": "electric_scooter", "bike_id": "3742d443b3f8f2f6eab38beb85c738ad", "lat": 38.90845866666667, "lon": -77.04465866666666, "rental_uris": {"android": "https://dc.lft.to/lastmile_qr_scan", "ios": "https://dc.lft.to/lastmile_qr_scan"}, "is_disabled": 0, "fusion_lat": 0.0, "name": "3742d443b3f8f2f6eab38beb85c738ad", "fusion_lon": 0.0}, {"is_reserved": 0, "type": "electric_scooter", "bike_id": "e830a7c8c18d34e20cc6d18d92f4be62", "lat": 38.9404395, "lon": -77.02906833333333, "rental_uris": {"android": "https://dc.lft.to/lastmile_qr_scan", "ios": "https://dc.lft.to/lastmile_qr_scan"}, "is_disabled": 0, "fusion_lat": 0.0, "name": "e830a7c8c18d34e20cc6d18d92f4be62", "fusion_lon": 0.0}, {"is_reserved": 0, "type": "electric_scooter", "bike_id": "161e397ead2a15d61db163bb778e3f8f", "lat": 38.89997916666667, "lon": -77.040294, "rental_uris": {"android": "https://dc.lft.to/lastmile_qr_scan", "ios": "https://dc.lft.to/lastmile_qr_scan"}, "is_disabled": 0, "fusion_lat": 0.0, "name": "161e397ead2a15d61db163bb778e3f8f", "fusion_lon": 0.0}, {"is_reserved": 0, "type": "electric_scooter", "bike_id": "417036bcb4416a65dbb2e87ecdaa4faa", "lat": 38.874781166666665, "lon": -77.00034033333333, "rental_uris": {"android": "https://dc.lft.to/lastmile_qr_scan", "ios": "https://dc.lft.to/lastmile_qr_scan"}, "is_disabled": 0, "fusion_lat": 0.0, "name": "417036bcb4416a65dbb2e87ecdaa4faa", "fusion_lon": 0.0}, {"is_reserved": 0, "type": "electric_scooter", "bike_id": "85c72885f2a568390780a41f5693c96f", "lat": 38.89716333333333, "lon": -77.00796983333333, "rental_uris": {"android": "https://dc.lft.to/lastmile_qr_scan", "ios": "https://dc.lft.to/lastmile_qr_scan"}, "is_disabled": 0, "fusion_lat": 0.0, "name": "85c72885f2a568390780a41f5693c96f", "fusion_lon": 0.0}, {"is_reserved": 0, "type": "electric_scooter", "bike_id": "278a307d237fd6fc917dc778688ee4b0", "lat": 38.922678833333336, "lon": -77.04021916666666, "rental_uris": {"android": "https://dc.lft.to/lastmile_qr_scan", "ios": "https://dc.lft.to/lastmile_qr_scan"}, "is_disabled": 0, "fusion_lat": 0.0, "name": "278a307d237fd6fc917dc778688ee4b0", "fusion_lon": 0.0}, {"is_reserved": 0, "type": "electric_scooter", "bike_id": "10e2e0e16fdfb8bf085cb5ebfcbca764", "lat": 38.9155085, "lon": -77.02118533333334, "rental_uris": {"android": "https://dc.lft.to/lastmile_qr_scan", "ios": "https://dc.lft.to/lastmile_qr_scan"}, "is_disabled": 0, "fusion_lat": 0.0, "name": "10e2e0e16fdfb8bf085cb5ebfcbca764", "fusion_lon": 0.0}, {"is_reserved": 0, "type": "electric_scooter", "bike_id": "a4ecf0d870125718d13d9cbfcb3c6310", "lat": 38.90384016666667, "lon": -77.05348033333334, "rental_uris": {"android": "https://dc.lft.to/lastmile_qr_scan", "ios": "https://dc.lft.to/lastmile_qr_scan"}, "is_disabled": 0, "fusion_lat": 0.0, "name": "a4ecf0d870125718d13d9cbfcb3c6310", "fusion_lon": 0.0}, {"is_reserved": 0, "type": "electric_scooter", "bike_id": "fcd16e7d621ba8dbc7b029f7c957579d", "lat": 38.9280255, "lon": -77.040699, "rental_uris": {"android": "https://dc.lft.to/lastmile_qr_scan", "ios": "https://dc.lft.to/lastmile_qr_scan"}, "is_disabled": 0, "fusion_lat": 0.0, "name": "fcd16e7d621ba8dbc7b029f7c957579d", "fusion_lon": 0.0}, {"is_reserved": 0, "type": "electric_scooter", "bike_id": "00d8661437a1caaa3f9eba42a2852a4e", "lat": 38.93877, "lon": -77.02934783333333, "rental_uris": {"android": "https://dc.lft.to/lastmile_qr_scan", "ios": "https://dc.lft.to/lastmile_qr_scan"}, "is_disabled": 0, "fusion_lat": 0.0, "name": "00d8661437a1caaa3f9eba42a2852a4e", "fusion_lon": 0.0}, {"is_reserved": 0, "type": "electric_scooter", "bike_id": "9af0c62fa7666aed6be15669355cfca2", "lat": 38.9562495, "lon": -77.035624, "rental_uris": {"android": "https://dc.lft.to/lastmile_qr_scan", "ios": "https://dc.lft.to/lastmile_qr_scan"}, "is_disabled": 0, "fusion_lat": 0.0, "name": "9af0c62fa7666aed6be15669355cfca2", "fusion_lon": 0.0}, {"is_reserved": 0, "type": "electric_scooter", "bike_id": "acd49de929c608455e5d99139264ca26", "lat": 38.92509316666667, "lon": -77.02165333333333, "rental_uris": {"android": "https://dc.lft.to/lastmile_qr_scan", "ios": "https://dc.lft.to/lastmile_qr_scan"}, "is_disabled": 0, "fusion_lat": 0.0, "name": "acd49de929c608455e5d99139264ca26", "fusion_lon": 0.0}, {"is_reserved": 0, "type": "electric_scooter", "bike_id": "3618ee592e5285042a494f8a9fe8d79c", "lat": 38.879330333333336, "lon": -77.01669983333333, "rental_uris": {"android": "https://dc.lft.to/lastmile_qr_scan", "ios": "https://dc.lft.to/lastmile_qr_scan"}, "is_disabled": 0, "fusion_lat": 0.0, "name": "3618ee592e5285042a494f8a9fe8d79c", "fusion_lon": 0.0}, {"is_reserved": 0, "type": "electric_scooter", "bike_id": "bbde880d66a7580e5b04ed9b5f3d42c8", "lat": 38.91521983333333, "lon": -77.00345183333333, "rental_uris": {"android": "https://dc.lft.to/lastmile_qr_scan", "ios": "https://dc.lft.to/lastmile_qr_scan"}, "is_disabled": 0, "fusion_lat": 0.0, "name": "bbde880d66a7580e5b04ed9b5f3d42c8", "fusion_lon": 0.0}, {"is_reserved": 0, "type": "electric_bike", "bike_id": "7cba443156ae97573137a895b972482d", "lat": 38.99031983333333, "lon": -77.0254725, "rental_uris": {"android": "https://dc.lft.to/lastmile_qr_scan", "ios": "https://dc.lft.to/lastmile_qr_scan"}, "is_disabled": 0, "fusion_lat": 0.0, "name": "7cba443156ae97573137a895b972482d", "fusion_lon": 0.0}, {"is_reserved": 0, "type": "electric_scooter", "bike_id": "199699cd7640c1a2576a2037023c3b96", "lat": 38.907516333333334, "lon": -76.99870533333333, "rental_uris": {"android": "https://dc.lft.to/lastmile_qr_scan", "ios": "https://dc.lft.to/lastmile_qr_scan"}, "is_disabled": 0, "fusion_lat": 0.0, "name": "199699cd7640c1a2576a2037023c3b96", "fusion_lon": 0.0}, {"is_reserved": 0, "type": "electric_scooter", "bike_id": "2c2f0d03fd9344f7cb0bf3d9a2053b79", "lat": 38.926306833333335, "lon": -77.03507466666667, "rental_uris": {"android": "https://dc.lft.to/lastmile_qr_scan", "ios": "https://dc.lft.to/lastmile_qr_scan"}, "is_disabled": 0, "fusion_lat": 0.0, "name": "2c2f0d03fd9344f7cb0bf3d9a2053b79", "fusion_lon": 0.0}, {"is_reserved": 0, "type": "electric_bike", "bike_id": "e68f776a8497aa449ea402023316481b", "lat": 38.931778333333334, "lon": -77.02855383333333, "rental_uris": {"android": "https://dc.lft.to/lastmile_qr_scan", "ios": "https://dc.lft.to/lastmile_qr_scan"}, "is_disabled": 0, "fusion_lat": 0.0, "name": "e68f776a8497aa449ea402023316481b", "fusion_lon": 0.0}, {"is_reserved": 0, "type": "electric_bike", "bike_id": "9aca65a4f98052bfa6515beacaa74724", "lat": 38.961344833333335, "lon": -77.02982, "rental_uris": {"android": "https://dc.lft.to/lastmile_qr_scan", "ios": "https://dc.lft.to/lastmile_qr_scan"}, "is_disabled": 0, "fusion_lat": 0.0, "name": "9aca65a4f98052bfa6515beacaa74724", "fusion_lon": 0.0}, {"is_reserved": 0, "type": "electric_scooter", "bike_id": "a84d19ceab515dbac9784f90663ac077", "lat": 38.9047745, "lon": -77.00730383333334, "rental_uris": {"android": "https://dc.lft.to/lastmile_qr_scan", "ios": "https://dc.lft.to/lastmile_qr_scan"}, "is_disabled": 0, "fusion_lat": 0.0, "name": "a84d19ceab515dbac9784f90663ac077", "fusion_lon": 0.0}, {"is_reserved": 0, "type": "electric_scooter", "bike_id": "3adf88cdac080059b2823ec27742bc2e", "lat": 38.934896333333334, "lon": -77.04448866666667, "rental_uris": {"android": "https://dc.lft.to/lastmile_qr_scan", "ios": "https://dc.lft.to/lastmile_qr_scan"}, "is_disabled": 0, "fusion_lat": 0.0, "name": "3adf88cdac080059b2823ec27742bc2e", "fusion_lon": 0.0}, {"is_reserved": 0, "type": "electric_scooter", "bike_id": "2684e9c9b5f0ed0e9a750d2b140f028c", "lat": 38.8936295, "lon": -76.98684816666666, "rental_uris": {"android": "https://dc.lft.to/lastmile_qr_scan", "ios": "https://dc.lft.to/lastmile_qr_scan"}, "is_disabled": 0, "fusion_lat": 0.0, "name": "2684e9c9b5f0ed0e9a750d2b140f028c", "fusion_lon": 0.0}, {"is_reserved": 0, "type": "electric_scooter", "bike_id": "8def6a84eda754e3b4fd3fb5a91ec3c6", "lat": 38.906146166666666, "lon": -77.00916266666667, "rental_uris": {"android": "https://dc.lft.to/lastmile_qr_scan", "ios": "https://dc.lft.to/lastmile_qr_scan"}, "is_disabled": 0, "fusion_lat": 0.0, "name": "8def6a84eda754e3b4fd3fb5a91ec3c6", "fusion_lon": 0.0}, {"is_reserved": 0, "type": "electric_scooter", "bike_id": "3000d9b18fd707d58fa3602076e0636c", "lat": 38.914143833333334, "lon": -77.02214416666666, "rental_uris": {"android": "https://dc.lft.to/lastmile_qr_scan", "ios": "https://dc.lft.to/lastmile_qr_scan"}, "is_disabled": 0, "fusion_lat": 0.0, "name": "3000d9b18fd707d58fa3602076e0636c", "fusion_lon": 0.0}, {"is_reserved": 0, "type": "electric_scooter", "bike_id": "fe551f879b0c0e58c5770fac982ebfbd", "lat": 38.90731316666667, "lon": -77.00706483333333, "rental_uris": {"android": "https://dc.lft.to/lastmile_qr_scan", "ios": "https://dc.lft.to/lastmile_qr_scan"}, "is_disabled": 0, "fusion_lat": 0.0, "name": "fe551f879b0c0e58c5770fac982ebfbd", "fusion_lon": 0.0}, {"is_reserved": 0, "type": "electric_scooter", "bike_id": "960f81ef7125a0d3c4a8fd8bcc4806c4", "lat": 38.936353833333335, "lon": -77.03273083333333, "rental_uris": {"android": "https://dc.lft.to/lastmile_qr_scan", "ios": "https://dc.lft.to/lastmile_qr_scan"}, "is_disabled": 0, "fusion_lat": 0.0, "name": "960f81ef7125a0d3c4a8fd8bcc4806c4", "fusion_lon": 0.0}, {"is_reserved": 0, "type": "electric_scooter", "bike_id": "6e3524093db7012cf91a4649c8417bd5", "lat": 38.92288033333333, "lon": -77.03660516666666, "rental_uris": {"android": "https://dc.lft.to/lastmile_qr_scan", "ios": "https://dc.lft.to/lastmile_qr_scan"}, "is_disabled": 0, "fusion_lat": 0.0, "name": "6e3524093db7012cf91a4649c8417bd5", "fusion_lon": 0.0}, {"is_reserved": 0, "type": "electric_scooter", "bike_id": "cbd9393fac24fd749a98198c1cd686c9", "lat": 38.89489866666667, "lon": -76.92790166666667, "rental_uris": {"android": "https://dc.lft.to/lastmile_qr_scan", "ios": "https://dc.lft.to/lastmile_qr_scan"}, "is_disabled": 0, "fusion_lat": 0.0, "name": "cbd9393fac24fd749a98198c1cd686c9", "fusion_lon": 0.0}, {"is_reserved": 0, "type": "electric_scooter", "bike_id": "cd32a2bb8477ac843b22428a664b42d2", "lat": 38.98988966666667, "lon": -77.03360833333333, "rental_uris": {"android": "https://dc.lft.to/lastmile_qr_scan", "ios": "https://dc.lft.to/lastmile_qr_scan"}, "is_disabled": 0, "fusion_lat": 0.0, "name": "cd32a2bb8477ac843b22428a664b42d2", "fusion_lon": 0.0}, {"is_reserved": 0, "type": "electric_scooter", "bike_id": "a2e4b8a890f1f36b2b407ad3f1081ffd", "lat": 38.8987735, "lon": -76.93185733333334, "rental_uris": {"android": "https://dc.lft.to/lastmile_qr_scan", "ios": "https://dc.lft.to/lastmile_qr_scan"}, "is_disabled": 0, "fusion_lat": 0.0, "name": "a2e4b8a890f1f36b2b407ad3f1081ffd", "fusion_lon": 0.0}, {"is_reserved": 0, "type": "electric_scooter", "bike_id": "2813d324aac530915a8079bf3bbc1626", "lat": 38.916859, "lon": -77.02598433333333, "rental_uris": {"android": "https://dc.lft.to/lastmile_qr_scan", "ios": "https://dc.lft.to/lastmile_qr_scan"}, "is_disabled": 0, "fusion_lat": 0.0, "name": "2813d324aac530915a8079bf3bbc1626", "fusion_lon": 0.0}, {"is_reserved": 0, "type": "electric_scooter", "bike_id": "8855bbdcd0ac87119621db067ea264ff", "lat": 38.88738266666667, "lon": -77.01351983333333, "rental_uris": {"android": "https://dc.lft.to/lastmile_qr_scan", "ios": "https://dc.lft.to/lastmile_qr_scan"}, "is_disabled": 0, "fusion_lat": 0.0, "name": "8855bbdcd0ac87119621db067ea264ff", "fusion_lon": 0.0}, {"is_reserved": 0, "type": "electric_scooter", "bike_id": "61a34b0c9d8cf32024917b89a938a25e", "lat": 38.92068883333334, "lon": -77.02508966666667, "rental_uris": {"android": "https://dc.lft.to/lastmile_qr_scan", "ios": "https://dc.lft.to/lastmile_qr_scan"}, "is_disabled": 0, "fusion_lat": 0.0, "name": "61a34b0c9d8cf32024917b89a938a25e", "fusion_lon": 0.0}, {"is_reserved": 0, "type": "electric_scooter", "bike_id": "43050f7a8631cb9c2d34dc951074b47b", "lat": 38.90566033333333, "lon": -77.00589433333333, "rental_uris": {"android": "https://dc.lft.to/lastmile_qr_scan", "ios": "https://dc.lft.to/lastmile_qr_scan"}, "is_disabled": 0, "fusion_lat": 0.0, "name": "43050f7a8631cb9c2d34dc951074b47b", "fusion_lon": 0.0}, {"is_reserved": 0, "type": "electric_scooter", "bike_id": "fd6b3884344da58896b88cedf9557f8d", "lat": 38.89922216666667, "lon": -77.033778, "rental_uris": {"android": "https://dc.lft.to/lastmile_qr_scan", "ios": "https://dc.lft.to/lastmile_qr_scan"}, "is_disabled": 0, "fusion_lat": 0.0, "name": "fd6b3884344da58896b88cedf9557f8d", "fusion_lon": 0.0}, {"is_reserved": 0, "type": "electric_scooter", "bike_id": "e073fb5f4e1167de15f9e3561d37178c", "lat": 38.90743066666667, "lon": -77.00759266666667, "rental_uris": {"android": "https://dc.lft.to/lastmile_qr_scan", "ios": "https://dc.lft.to/lastmile_qr_scan"}, "is_disabled": 0, "fusion_lat": 0.0, "name": "e073fb5f4e1167de15f9e3561d37178c", "fusion_lon": 0.0}, {"is_reserved": 0, "type": "electric_scooter", "bike_id": "3c957e78f1726d969596cd5deb45d554", "lat": 38.935263, "lon": -77.02846, "rental_uris": {"android": "https://dc.lft.to/lastmile_qr_scan", "ios": "https://dc.lft.to/lastmile_qr_scan"}, "is_disabled": 0, "fusion_lat": 0.0, "name": "3c957e78f1726d969596cd5deb45d554", "fusion_lon": 0.0}, {"is_reserved": 0, "type": "electric_scooter", "bike_id": "5b4b1f1879dac60170fe0df97210a3d8", "lat": 38.921491, "lon": -77.03868183333333, "rental_uris": {"android": "https://dc.lft.to/lastmile_qr_scan", "ios": "https://dc.lft.to/lastmile_qr_scan"}, "is_disabled": 0, "fusion_lat": 0.0, "name": "5b4b1f1879dac60170fe0df97210a3d8", "fusion_lon": 0.0}, {"is_reserved": 0, "type": "electric_scooter", "bike_id": "96c08cc56d07dcf0e0870d812b060115", "lat": 38.9231625, "lon": -77.04518666666667, "rental_uris": {"android": "https://dc.lft.to/lastmile_qr_scan", "ios": "https://dc.lft.to/lastmile_qr_scan"}, "is_disabled": 0, "fusion_lat": 0.0, "name": "96c08cc56d07dcf0e0870d812b060115", "fusion_lon": 0.0}, {"is_reserved": 0, "type": "electric_scooter", "bike_id": "253c9168a32672b096c7f17bcfc4da9f", "lat": 38.89218016666667, "lon": -77.02423533333334, "rental_uris": {"android": "https://dc.lft.to/lastmile_qr_scan", "ios": "https://dc.lft.to/lastmile_qr_scan"}, "is_disabled": 0, "fusion_lat": 0.0, "name": "253c9168a32672b096c7f17bcfc4da9f", "fusion_lon": 0.0}, {"is_reserved": 0, "type": "electric_scooter", "bike_id": "3c74fb867aa41108ba736d88ef391b7d", "lat": 38.895408, "lon": -77.0113545, "rental_uris": {"android": "https://dc.lft.to/lastmile_qr_scan", "ios": "https://dc.lft.to/lastmile_qr_scan"}, "is_disabled": 0, "fusion_lat": 0.0, "name": "3c74fb867aa41108ba736d88ef391b7d", "fusion_lon": 0.0}, {"is_reserved": 0, "type": "electric_scooter", "bike_id": "2ea241c00e679ed9b497f7ca93e3cb43", "lat": 38.8842045, "lon": -77.02590966666666, "rental_uris": {"android": "https://dc.lft.to/lastmile_qr_scan", "ios": "https://dc.lft.to/lastmile_qr_scan"}, "is_disabled": 0, "fusion_lat": 0.0, "name": "2ea241c00e679ed9b497f7ca93e3cb43", "fusion_lon": 0.0}, {"is_reserved": 0, "type": "electric_scooter", "bike_id": "a39676e1331d7db8f7049d2f3229be20", "lat": 38.9140155, "lon": -77.027561, "rental_uris": {"android": "https://dc.lft.to/lastmile_qr_scan", "ios": "https://dc.lft.to/lastmile_qr_scan"}, "is_disabled": 0, "fusion_lat": 0.0, "name": "a39676e1331d7db8f7049d2f3229be20", "fusion_lon": 0.0}, {"is_reserved": 0, "type": "electric_scooter", "bike_id": "8db7005693cfebd9786a007a5982c757", "lat": 38.930336833333335, "lon": -77.08318683333333, "rental_uris": {"android": "https://dc.lft.to/lastmile_qr_scan", "ios": "https://dc.lft.to/lastmile_qr_scan"}, "is_disabled": 0, "fusion_lat": 0.0, "name": "8db7005693cfebd9786a007a5982c757", "fusion_lon": 0.0}, {"is_reserved": 0, "type": "electric_scooter", "bike_id": "f4df471dfaaa9261da5b2f6a6628a8bc", "lat": 38.89829116666667, "lon": -77.04827983333334, "rental_uris": {"android": "https://dc.lft.to/lastmile_qr_scan", "ios": "https://dc.lft.to/lastmile_qr_scan"}, "is_disabled": 0, "fusion_lat": 0.0, "name": "f4df471dfaaa9261da5b2f6a6628a8bc", "fusion_lon": 0.0}, {"is_reserved": 0, "type": "electric_scooter", "bike_id": "01f66ba8ba66b6363dce17eb5714337e", "lat": 38.90615966666667, "lon": -77.03306916666666, "rental_uris": {"android": "https://dc.lft.to/lastmile_qr_scan", "ios": "https://dc.lft.to/lastmile_qr_scan"}, "is_disabled": 0, "fusion_lat": 0.0, "name": "01f66ba8ba66b6363dce17eb5714337e", "fusion_lon": 0.0}, {"is_reserved": 0, "type": "electric_scooter", "bike_id": "f8e8bdce9a5d34691289277c92a021f4", "lat": 38.923789, "lon": -77.0274915, "rental_uris": {"android": "https://dc.lft.to/lastmile_qr_scan", "ios": "https://dc.lft.to/lastmile_qr_scan"}, "is_disabled": 0, "fusion_lat": 0.0, "name": "f8e8bdce9a5d34691289277c92a021f4", "fusion_lon": 0.0}, {"is_reserved": 0, "type": "electric_scooter", "bike_id": "fcc0e05a1eaa95c113b77a780a493526", "lat": 38.911931333333335, "lon": -77.004396, "rental_uris": {"android": "https://dc.lft.to/lastmile_qr_scan", "ios": "https://dc.lft.to/lastmile_qr_scan"}, "is_disabled": 0, "fusion_lat": 0.0, "name": "fcc0e05a1eaa95c113b77a780a493526", "fusion_lon": 0.0}, {"is_reserved": 0, "type": "electric_scooter", "bike_id": "ae99670c94090488b8c9238d5f554d0e", "lat": 38.916288, "lon": -77.01571233333334, "rental_uris": {"android": "https://dc.lft.to/lastmile_qr_scan", "ios": "https://dc.lft.to/lastmile_qr_scan"}, "is_disabled": 0, "fusion_lat": 0.0, "name": "ae99670c94090488b8c9238d5f554d0e", "fusion_lon": 0.0}, {"is_reserved": 0, "type": "electric_scooter", "bike_id": "5e82134f4f0eb705dfab7c4da541e422", "lat": 38.9055955, "lon": -77.00594816666667, "rental_uris": {"android": "https://dc.lft.to/lastmile_qr_scan", "ios": "https://dc.lft.to/lastmile_qr_scan"}, "is_disabled": 0, "fusion_lat": 0.0, "name": "5e82134f4f0eb705dfab7c4da541e422", "fusion_lon": 0.0}, {"is_reserved": 0, "type": "electric_bike", "bike_id": "5815cf1819b7ad24073c88cac94302ca", "lat": 38.894544, "lon": -77.02002866666666, "rental_uris": {"android": "https://dc.lft.to/lastmile_qr_scan", "ios": "https://dc.lft.to/lastmile_qr_scan"}, "is_disabled": 0, "fusion_lat": 0.0, "name": "5815cf1819b7ad24073c88cac94302ca", "fusion_lon": 0.0}, {"is_reserved": 0, "type": "electric_scooter", "bike_id": "ccd688377655f3742268804366f89d5a", "lat": 38.966469000000004, "lon": -77.0088965, "rental_uris": {"android": "https://dc.lft.to/lastmile_qr_scan", "ios": "https://dc.lft.to/lastmile_qr_scan"}, "is_disabled": 0, "fusion_lat": 0.0, "name": "ccd688377655f3742268804366f89d5a", "fusion_lon": 0.0}, {"is_reserved": 0, "type": "electric_scooter", "bike_id": "492b8e3c6cb1a4080577ad9678c2e4b8", "lat": 38.91402166666666, "lon": -77.04357183333333, "rental_uris": {"android": "https://dc.lft.to/lastmile_qr_scan", "ios": "https://dc.lft.to/lastmile_qr_scan"}, "is_disabled": 0, "fusion_lat": 0.0, "name": "492b8e3c6cb1a4080577ad9678c2e4b8", "fusion_lon": 0.0}, {"is_reserved": 0, "type": "electric_scooter", "bike_id": "8c9e1d7f06c8cc5916269c2cf5903644", "lat": 38.952682, "lon": -77.0239915, "rental_uris": {"android": "https://dc.lft.to/lastmile_qr_scan", "ios": "https://dc.lft.to/lastmile_qr_scan"}, "is_disabled": 0, "fusion_lat": 0.0, "name": "8c9e1d7f06c8cc5916269c2cf5903644", "fusion_lon": 0.0}, {"is_reserved": 0, "type": "electric_scooter", "bike_id": "06bbb13892c3a3091c18f6ca5bd4d3ab", "lat": 38.92396816666667, "lon": -77.0505975, "rental_uris": {"android": "https://dc.lft.to/lastmile_qr_scan", "ios": "https://dc.lft.to/lastmile_qr_scan"}, "is_disabled": 0, "fusion_lat": 0.0, "name": "06bbb13892c3a3091c18f6ca5bd4d3ab", "fusion_lon": 0.0}, {"is_reserved": 0, "type": "electric_scooter", "bike_id": "2b7207f6a4474c6e4c32d16b113a0a77", "lat": 38.88248266666667, "lon": -77.00631433333334, "rental_uris": {"android": "https://dc.lft.to/lastmile_qr_scan", "ios": "https://dc.lft.to/lastmile_qr_scan"}, "is_disabled": 0, "fusion_lat": 0.0, "name": "2b7207f6a4474c6e4c32d16b113a0a77", "fusion_lon": 0.0}, {"is_reserved": 0, "type": "electric_scooter", "bike_id": "3a66134ec230ed9d1d7015c2c3597bc7", "lat": 38.92598533333334, "lon": -77.03939766666667, "rental_uris": {"android": "https://dc.lft.to/lastmile_qr_scan", "ios": "https://dc.lft.to/lastmile_qr_scan"}, "is_disabled": 0, "fusion_lat": 0.0, "name": "3a66134ec230ed9d1d7015c2c3597bc7", "fusion_lon": 0.0}, {"is_reserved": 0, "type": "electric_scooter", "bike_id": "10c3b471a0301ba1ada34338c07d5996", "lat": 38.9353145, "lon": -77.0248685, "rental_uris": {"android": "https://dc.lft.to/lastmile_qr_scan", "ios": "https://dc.lft.to/lastmile_qr_scan"}, "is_disabled": 0, "fusion_lat": 0.0, "name": "10c3b471a0301ba1ada34338c07d5996", "fusion_lon": 0.0}, {"is_reserved": 0, "type": "electric_bike", "bike_id": "2435d290b698867ae45610e09766d361", "lat": 38.9955, "lon": -77.07468633333333, "rental_uris": {"android": "https://dc.lft.to/lastmile_qr_scan", "ios": "https://dc.lft.to/lastmile_qr_scan"}, "is_disabled": 0, "fusion_lat": 0.0, "name": "2435d290b698867ae45610e09766d361", "fusion_lon": 0.0}, {"is_reserved": 0, "type": "electric_scooter", "bike_id": "427e2356350a5a7ed67e6097eecd190d", "lat": 38.90001266666667, "lon": -77.02710316666666, "rental_uris": {"android": "https://dc.lft.to/lastmile_qr_scan", "ios": "https://dc.lft.to/lastmile_qr_scan"}, "is_disabled": 0, "fusion_lat": 0.0, "name": "427e2356350a5a7ed67e6097eecd190d", "fusion_lon": 0.0}, {"is_reserved": 0, "type": "electric_scooter", "bike_id": "5362fbfe886805e2293c187ae9449607", "lat": 38.90397316666667, "lon": -77.01794133333334, "rental_uris": {"android": "https://dc.lft.to/lastmile_qr_scan", "ios": "https://dc.lft.to/lastmile_qr_scan"}, "is_disabled": 0, "fusion_lat": 0.0, "name": "5362fbfe886805e2293c187ae9449607", "fusion_lon": 0.0}, {"is_reserved": 0, "type": "electric_scooter", "bike_id": "2978b779b686702f7d3b5b587e26022c", "lat": 38.9518995, "lon": -77.0261585, "rental_uris": {"android": "https://dc.lft.to/lastmile_qr_scan", "ios": "https://dc.lft.to/lastmile_qr_scan"}, "is_disabled": 0, "fusion_lat": 0.0, "name": "2978b779b686702f7d3b5b587e26022c", "fusion_lon": 0.0}, {"is_reserved": 0, "type": "electric_scooter", "bike_id": "9f19cc5d1ebff9d466c8b2800a84bd98", "lat": 38.8658845, "lon": -76.97451883333333, "rental_uris": {"android": "https://dc.lft.to/lastmile_qr_scan", "ios": "https://dc.lft.to/lastmile_qr_scan"}, "is_disabled": 0, "fusion_lat": 0.0, "name": "9f19cc5d1ebff9d466c8b2800a84bd98", "fusion_lon": 0.0}, {"is_reserved": 0, "type": "electric_scooter", "bike_id": "970c8a31c70d68bf87f857ec745b7a15", "lat": 38.90570866666667, "lon": -77.03076933333334, "rental_uris": {"android": "https://dc.lft.to/lastmile_qr_scan", "ios": "https://dc.lft.to/lastmile_qr_scan"}, "is_disabled": 0, "fusion_lat": 0.0, "name": "970c8a31c70d68bf87f857ec745b7a15", "fusion_lon": 0.0}, {"is_reserved": 0, "type": "electric_scooter", "bike_id": "e8e8a3d5981be85b4e409d1bd884d84e", "lat": 38.88769533333333, "lon": -76.98324483333333, "rental_uris": {"android": "https://dc.lft.to/lastmile_qr_scan", "ios": "https://dc.lft.to/lastmile_qr_scan"}, "is_disabled": 0, "fusion_lat": 0.0, "name": "e8e8a3d5981be85b4e409d1bd884d84e", "fusion_lon": 0.0}, {"is_reserved": 0, "type": "electric_scooter", "bike_id": "02ef0d3ec4807d45f4d16e185f509a33", "lat": 38.915713, "lon": -77.0228915, "rental_uris": {"android": "https://dc.lft.to/lastmile_qr_scan", "ios": "https://dc.lft.to/lastmile_qr_scan"}, "is_disabled": 0, "fusion_lat": 0.0, "name": "02ef0d3ec4807d45f4d16e185f509a33", "fusion_lon": 0.0}, {"is_reserved": 0, "type": "electric_scooter", "bike_id": "b5448ce552a221b007ef22a32170af1d", "lat": 38.89749116666667, "lon": -77.02683266666666, "rental_uris": {"android": "https://dc.lft.to/lastmile_qr_scan", "ios": "https://dc.lft.to/lastmile_qr_scan"}, "is_disabled": 0, "fusion_lat": 0.0, "name": "b5448ce552a221b007ef22a32170af1d", "fusion_lon": 0.0}, {"is_reserved": 0, "type": "electric_scooter", "bike_id": "506349f62f5d01366481c3d416debf09", "lat": 38.8876885, "lon": -76.98327933333333, "rental_uris": {"android": "https://dc.lft.to/lastmile_qr_scan", "ios": "https://dc.lft.to/lastmile_qr_scan"}, "is_disabled": 0, "fusion_lat": 0.0, "name": "506349f62f5d01366481c3d416debf09", "fusion_lon": 0.0}, {"is_reserved": 0, "type": "electric_scooter", "bike_id": "21b3dde1d531d5f7d7450c060c162aee", "lat": 38.89813733333333, "lon": -76.99696133333333, "rental_uris": {"android": "https://dc.lft.to/lastmile_qr_scan", "ios": "https://dc.lft.to/lastmile_qr_scan"}, "is_disabled": 0, "fusion_lat": 0.0, "name": "21b3dde1d531d5f7d7450c060c162aee", "fusion_lon": 0.0}, {"is_reserved": 0, "type": "electric_scooter", "bike_id": "b6d2c3a664e392b653ef26094de09f9b", "lat": 38.91939083333333, "lon": -77.01880883333334, "rental_uris": {"android": "https://dc.lft.to/lastmile_qr_scan", "ios": "https://dc.lft.to/lastmile_qr_scan"}, "is_disabled": 0, "fusion_lat": 0.0, "name": "b6d2c3a664e392b653ef26094de09f9b", "fusion_lon": 0.0}, {"is_reserved": 0, "type": "electric_scooter", "bike_id": "914bb64e77c759579aada20f0bf1312d", "lat": 38.9196145, "lon": -77.04363233333333, "rental_uris": {"android": "https://dc.lft.to/lastmile_qr_scan", "ios": "https://dc.lft.to/lastmile_qr_scan"}, "is_disabled": 0, "fusion_lat": 0.0, "name": "914bb64e77c759579aada20f0bf1312d", "fusion_lon": 0.0}, {"is_reserved": 0, "type": "electric_scooter", "bike_id": "0b82c82e9ed986b19703d4dbd8c406d9", "lat": 38.86714883333333, "lon": -76.980722, "rental_uris": {"android": "https://dc.lft.to/lastmile_qr_scan", "ios": "https://dc.lft.to/lastmile_qr_scan"}, "is_disabled": 0, "fusion_lat": 0.0, "name": "0b82c82e9ed986b19703d4dbd8c406d9", "fusion_lon": 0.0}, {"is_reserved": 0, "type": "electric_scooter", "bike_id": "6af305d162b49e8afe6d7e307bade220", "lat": 38.91103616666667, "lon": -77.020746, "rental_uris": {"android": "https://dc.lft.to/lastmile_qr_scan", "ios": "https://dc.lft.to/lastmile_qr_scan"}, "is_disabled": 0, "fusion_lat": 0.0, "name": "6af305d162b49e8afe6d7e307bade220", "fusion_lon": 0.0}, {"is_reserved": 0, "type": "electric_scooter", "bike_id": "67c9ea36fa6fee6b98ade95de6085ffb", "lat": 38.90870116666667, "lon": -77.00369683333334, "rental_uris": {"android": "https://dc.lft.to/lastmile_qr_scan", "ios": "https://dc.lft.to/lastmile_qr_scan"}, "is_disabled": 0, "fusion_lat": 0.0, "name": "67c9ea36fa6fee6b98ade95de6085ffb", "fusion_lon": 0.0}, {"is_reserved": 0, "type": "electric_scooter", "bike_id": "f71a0a645b36753d6074c51da4a55527", "lat": 38.9097425, "lon": -77.02408983333333, "rental_uris": {"android": "https://dc.lft.to/lastmile_qr_scan", "ios": "https://dc.lft.to/lastmile_qr_scan"}, "is_disabled": 0, "fusion_lat": 0.0, "name": "f71a0a645b36753d6074c51da4a55527", "fusion_lon": 0.0}, {"is_reserved": 0, "type": "electric_bike", "bike_id": "e134ac7ce0f43161f0d8170c4b176e1c", "lat": 38.95641483333333, "lon": -77.03292416666666, "rental_uris": {"android": "https://dc.lft.to/lastmile_qr_scan", "ios": "https://dc.lft.to/lastmile_qr_scan"}, "is_disabled": 0, "fusion_lat": 0.0, "name": "e134ac7ce0f43161f0d8170c4b176e1c", "fusion_lon": 0.0}, {"is_reserved": 0, "type": "electric_bike", "bike_id": "a87400a2d3a70d4818cf14eb0d2c5919", "lat": 38.8959245, "lon": -76.9069165, "rental_uris": {"android": "https://dc.lft.to/lastmile_qr_scan", "ios": "https://dc.lft.to/lastmile_qr_scan"}, "is_disabled": 0, "fusion_lat": 0.0, "name": "a87400a2d3a70d4818cf14eb0d2c5919", "fusion_lon": 0.0}, {"is_reserved": 0, "type": "electric_scooter", "bike_id": "46349ce00ef00a1d2a6ed7aa5af498ac", "lat": 38.93594733333333, "lon": -77.03366533333333, "rental_uris": {"android": "https://dc.lft.to/lastmile_qr_scan", "ios": "https://dc.lft.to/lastmile_qr_scan"}, "is_disabled": 0, "fusion_lat": 0.0, "name": "46349ce00ef00a1d2a6ed7aa5af498ac", "fusion_lon": 0.0}, {"is_reserved": 0, "type": "electric_scooter", "bike_id": "825cb1f51dc5ed03e28cc2d3aeff51d6", "lat": 38.917082, "lon": -77.04032183333334, "rental_uris": {"android": "https://dc.lft.to/lastmile_qr_scan", "ios": "https://dc.lft.to/lastmile_qr_scan"}, "is_disabled": 0, "fusion_lat": 0.0, "name": "825cb1f51dc5ed03e28cc2d3aeff51d6", "fusion_lon": 0.0}, {"is_reserved": 0, "type": "electric_scooter", "bike_id": "014eae643d009befa6cf2670a775a4b2", "lat": 38.923314166666664, "lon": -77.05679233333333, "rental_uris": {"android": "https://dc.lft.to/lastmile_qr_scan", "ios": "https://dc.lft.to/lastmile_qr_scan"}, "is_disabled": 0, "fusion_lat": 0.0, "name": "014eae643d009befa6cf2670a775a4b2", "fusion_lon": 0.0}, {"is_reserved": 0, "type": "electric_scooter", "bike_id": "b2bfbf18f1f4e7cb192b8d6178da82dd", "lat": 38.89906783333333, "lon": -76.979984, "rental_uris": {"android": "https://dc.lft.to/lastmile_qr_scan", "ios": "https://dc.lft.to/lastmile_qr_scan"}, "is_disabled": 0, "fusion_lat": 0.0, "name": "b2bfbf18f1f4e7cb192b8d6178da82dd", "fusion_lon": 0.0}, {"is_reserved": 0, "type": "electric_scooter", "bike_id": "f22cf2cf050ec13ef6184e79f8483556", "lat": 38.87469866666667, "lon": -77.0033905, "rental_uris": {"android": "https://dc.lft.to/lastmile_qr_scan", "ios": "https://dc.lft.to/lastmile_qr_scan"}, "is_disabled": 0, "fusion_lat": 0.0, "name": "f22cf2cf050ec13ef6184e79f8483556", "fusion_lon": 0.0}, {"is_reserved": 0, "type": "electric_scooter", "bike_id": "8c7701cc998027497d59d94de94763e7", "lat": 38.903027333333334, "lon": -76.976496, "rental_uris": {"android": "https://dc.lft.to/lastmile_qr_scan", "ios": "https://dc.lft.to/lastmile_qr_scan"}, "is_disabled": 0, "fusion_lat": 0.0, "name": "8c7701cc998027497d59d94de94763e7", "fusion_lon": 0.0}, {"is_reserved": 0, "type": "electric_bike", "bike_id": "bade6d084ca7c7eebdcaec6c4429993e", "lat": 38.97308316666667, "lon": -76.99471283333334, "rental_uris": {"android": "https://dc.lft.to/lastmile_qr_scan", "ios": "https://dc.lft.to/lastmile_qr_scan"}, "is_disabled": 0, "fusion_lat": 0.0, "name": "bade6d084ca7c7eebdcaec6c4429993e", "fusion_lon": 0.0}, {"is_reserved": 0, "type": "electric_scooter", "bike_id": "2dd49ca8c1b4e04e9faf27eaf0a7a1cd", "lat": 38.91415283333333, "lon": -77.02248, "rental_uris": {"android": "https://dc.lft.to/lastmile_qr_scan", "ios": "https://dc.lft.to/lastmile_qr_scan"}, "is_disabled": 0, "fusion_lat": 0.0, "name": "2dd49ca8c1b4e04e9faf27eaf0a7a1cd", "fusion_lon": 0.0}, {"is_reserved": 0, "type": "electric_scooter", "bike_id": "4779a7e21da0427e56b22e071c41dcc0", "lat": 38.938766666666666, "lon": -77.03014283333333, "rental_uris": {"android": "https://dc.lft.to/lastmile_qr_scan", "ios": "https://dc.lft.to/lastmile_qr_scan"}, "is_disabled": 0, "fusion_lat": 0.0, "name": "4779a7e21da0427e56b22e071c41dcc0", "fusion_lon": 0.0}, {"is_reserved": 0, "type": "electric_scooter", "bike_id": "77da394c7a77167dad8b69b3065fe6eb", "lat": 38.92546, "lon": -77.032609, "rental_uris": {"android": "https://dc.lft.to/lastmile_qr_scan", "ios": "https://dc.lft.to/lastmile_qr_scan"}, "is_disabled": 0, "fusion_lat": 0.0, "name": "77da394c7a77167dad8b69b3065fe6eb", "fusion_lon": 0.0}, {"is_reserved": 0, "type": "electric_bike", "bike_id": "7b7f9fe1c3df899959c1d7f4414af17c", "lat": 38.9575125, "lon": -76.98021316666667, "rental_uris": {"android": "https://dc.lft.to/lastmile_qr_scan", "ios": "https://dc.lft.to/lastmile_qr_scan"}, "is_disabled": 0, "fusion_lat": 0.0, "name": "7b7f9fe1c3df899959c1d7f4414af17c", "fusion_lon": 0.0}, {"is_reserved": 0, "type": "electric_scooter", "bike_id": "04d1644b678263cc5af3cd8f084fa9e8", "lat": 38.903473, "lon": -76.986118, "rental_uris": {"android": "https://dc.lft.to/lastmile_qr_scan", "ios": "https://dc.lft.to/lastmile_qr_scan"}, "is_disabled": 0, "fusion_lat": 0.0, "name": "04d1644b678263cc5af3cd8f084fa9e8", "fusion_lon": 0.0}, {"is_reserved": 0, "type": "electric_scooter", "bike_id": "595fb1d293255af2c9fe618c1b2be2f4", "lat": 38.930037, "lon": -77.038015, "rental_uris": {"android": "https://dc.lft.to/lastmile_qr_scan", "ios": "https://dc.lft.to/lastmile_qr_scan"}, "is_disabled": 0, "fusion_lat": 0.0, "name": "595fb1d293255af2c9fe618c1b2be2f4", "fusion_lon": 0.0}, {"is_reserved": 0, "type": "electric_scooter", "bike_id": "b1a719653c797618937333add7dfacbf", "lat": 38.90258083333333, "lon": -77.01763116666666, "rental_uris": {"android": "https://dc.lft.to/lastmile_qr_scan", "ios": "https://dc.lft.to/lastmile_qr_scan"}, "is_disabled": 0, "fusion_lat": 0.0, "name": "b1a719653c797618937333add7dfacbf", "fusion_lon": 0.0}, {"is_reserved": 0, "type": "electric_scooter", "bike_id": "b85fdc7a8ecd2603b01d3871ae4979a6", "lat": 38.92329216666667, "lon": -77.05390883333334, "rental_uris": {"android": "https://dc.lft.to/lastmile_qr_scan", "ios": "https://dc.lft.to/lastmile_qr_scan"}, "is_disabled": 0, "fusion_lat": 0.0, "name": "b85fdc7a8ecd2603b01d3871ae4979a6", "fusion_lon": 0.0}, {"is_reserved": 0, "type": "electric_scooter", "bike_id": "d9d53ab95cd1fad2dc35d4cdf074aa4f", "lat": 38.935281333333336, "lon": -77.03654183333333, "rental_uris": {"android": "https://dc.lft.to/lastmile_qr_scan", "ios": "https://dc.lft.to/lastmile_qr_scan"}, "is_disabled": 0, "fusion_lat": 0.0, "name": "d9d53ab95cd1fad2dc35d4cdf074aa4f", "fusion_lon": 0.0}, {"is_reserved": 0, "type": "electric_scooter", "bike_id": "99da1ffd2e70ef3ba70d880681f32de8", "lat": 38.91817283333334, "lon": -77.04537866666666, "rental_uris": {"android": "https://dc.lft.to/lastmile_qr_scan", "ios": "https://dc.lft.to/lastmile_qr_scan"}, "is_disabled": 0, "fusion_lat": 0.0, "name": "99da1ffd2e70ef3ba70d880681f32de8", "fusion_lon": 0.0}, {"is_reserved": 0, "type": "electric_scooter", "bike_id": "be52dadbaa1633e4b6be5550999ebebd", "lat": 38.91815283333333, "lon": -77.03173183333334, "rental_uris": {"android": "https://dc.lft.to/lastmile_qr_scan", "ios": "https://dc.lft.to/lastmile_qr_scan"}, "is_disabled": 0, "fusion_lat": 0.0, "name": "be52dadbaa1633e4b6be5550999ebebd", "fusion_lon": 0.0}, {"is_reserved": 0, "type": "electric_scooter", "bike_id": "5dac02c866dad83ea3502bc0a063930b", "lat": 38.899038, "lon": -77.0269805, "rental_uris": {"android": "https://dc.lft.to/lastmile_qr_scan", "ios": "https://dc.lft.to/lastmile_qr_scan"}, "is_disabled": 0, "fusion_lat": 0.0, "name": "5dac02c866dad83ea3502bc0a063930b", "fusion_lon": 0.0}, {"is_reserved": 0, "type": "electric_scooter", "bike_id": "ae8af1d305601efd881eaeae9c22ce96", "lat": 38.90040416666667, "lon": -77.00206866666667, "rental_uris": {"android": "https://dc.lft.to/lastmile_qr_scan", "ios": "https://dc.lft.to/lastmile_qr_scan"}, "is_disabled": 0, "fusion_lat": 0.0, "name": "ae8af1d305601efd881eaeae9c22ce96", "fusion_lon": 0.0}, {"is_reserved": 0, "type": "electric_scooter", "bike_id": "1cc64692326d97273f0ad766e115bd8c", "lat": 38.92259966666667, "lon": -77.05452733333334, "rental_uris": {"android": "https://dc.lft.to/lastmile_qr_scan", "ios": "https://dc.lft.to/lastmile_qr_scan"}, "is_disabled": 0, "fusion_lat": 0.0, "name": "1cc64692326d97273f0ad766e115bd8c", "fusion_lon": 0.0}, {"is_reserved": 0, "type": "electric_scooter", "bike_id": "a83301b4a58f2905d105a1180b7d4baf", "lat": 38.90559983333333, "lon": -77.04732233333333, "rental_uris": {"android": "https://dc.lft.to/lastmile_qr_scan", "ios": "https://dc.lft.to/lastmile_qr_scan"}, "is_disabled": 0, "fusion_lat": 0.0, "name": "a83301b4a58f2905d105a1180b7d4baf", "fusion_lon": 0.0}, {"is_reserved": 0, "type": "electric_scooter", "bike_id": "67a8df71d1b801d22a14a964d2c99ed9", "lat": 38.920950166666664, "lon": -77.03166083333333, "rental_uris": {"android": "https://dc.lft.to/lastmile_qr_scan", "ios": "https://dc.lft.to/lastmile_qr_scan"}, "is_disabled": 0, "fusion_lat": 0.0, "name": "67a8df71d1b801d22a14a964d2c99ed9", "fusion_lon": 0.0}, {"is_reserved": 0, "type": "electric_scooter", "bike_id": "7a6feef5d2daad1f94c467d25393ddd3", "lat": 38.8922375, "lon": -77.04637416666667, "rental_uris": {"android": "https://dc.lft.to/lastmile_qr_scan", "ios": "https://dc.lft.to/lastmile_qr_scan"}, "is_disabled": 0, "fusion_lat": 0.0, "name": "7a6feef5d2daad1f94c467d25393ddd3", "fusion_lon": 0.0}, {"is_reserved": 0, "type": "electric_scooter", "bike_id": "baf5f7c0335df14a099575fcafea0c4f", "lat": 38.920226166666666, "lon": -77.0106185, "rental_uris": {"android": "https://dc.lft.to/lastmile_qr_scan", "ios": "https://dc.lft.to/lastmile_qr_scan"}, "is_disabled": 0, "fusion_lat": 0.0, "name": "baf5f7c0335df14a099575fcafea0c4f", "fusion_lon": 0.0}, {"is_reserved": 0, "type": "electric_scooter", "bike_id": "408cd2cb559837b2cf48aa05c33482a4", "lat": 38.9161295, "lon": -77.024015, "rental_uris": {"android": "https://dc.lft.to/lastmile_qr_scan", "ios": "https://dc.lft.to/lastmile_qr_scan"}, "is_disabled": 0, "fusion_lat": 0.0, "name": "408cd2cb559837b2cf48aa05c33482a4", "fusion_lon": 0.0}, {"is_reserved": 0, "type": "electric_scooter", "bike_id": "3b39c9eb34528de8e12d11eb09ba272d", "lat": 38.9313145, "lon": -77.07835566666667, "rental_uris": {"android": "https://dc.lft.to/lastmile_qr_scan", "ios": "https://dc.lft.to/lastmile_qr_scan"}, "is_disabled": 0, "fusion_lat": 0.0, "name": "3b39c9eb34528de8e12d11eb09ba272d", "fusion_lon": 0.0}, {"is_reserved": 0, "type": "electric_scooter", "bike_id": "cdf2624c7d3462c3ae1c0a4ed6a9c759", "lat": 38.8982045, "lon": -77.0481335, "rental_uris": {"android": "https://dc.lft.to/lastmile_qr_scan", "ios": "https://dc.lft.to/lastmile_qr_scan"}, "is_disabled": 0, "fusion_lat": 0.0, "name": "cdf2624c7d3462c3ae1c0a4ed6a9c759", "fusion_lon": 0.0}, {"is_reserved": 0, "type": "electric_scooter", "bike_id": "7a5e4c7af5f57e43d23e9dbbcb0eba34", "lat": 38.8996865, "lon": -77.026625, "rental_uris": {"android": "https://dc.lft.to/lastmile_qr_scan", "ios": "https://dc.lft.to/lastmile_qr_scan"}, "is_disabled": 0, "fusion_lat": 0.0, "name": "7a5e4c7af5f57e43d23e9dbbcb0eba34", "fusion_lon": 0.0}, {"is_reserved": 0, "type": "electric_scooter", "bike_id": "ec1b127409c131d4d86759254d496096", "lat": 38.9053565, "lon": -77.04842516666666, "rental_uris": {"android": "https://dc.lft.to/lastmile_qr_scan", "ios": "https://dc.lft.to/lastmile_qr_scan"}, "is_disabled": 0, "fusion_lat": 0.0, "name": "ec1b127409c131d4d86759254d496096", "fusion_lon": 0.0}, {"is_reserved": 0, "type": "electric_scooter", "bike_id": "dac37d28fcb063b9e4eda63675127dac", "lat": 38.911193, "lon": -77.04844883333334, "rental_uris": {"android": "https://dc.lft.to/lastmile_qr_scan", "ios": "https://dc.lft.to/lastmile_qr_scan"}, "is_disabled": 0, "fusion_lat": 0.0, "name": "dac37d28fcb063b9e4eda63675127dac", "fusion_lon": 0.0}, {"is_reserved": 0, "type": "electric_scooter", "bike_id": "3ace398c750a10aa4b4a880fef04fb5a", "lat": 38.901252, "lon": -77.01617866666666, "rental_uris": {"android": "https://dc.lft.to/lastmile_qr_scan", "ios": "https://dc.lft.to/lastmile_qr_scan"}, "is_disabled": 0, "fusion_lat": 0.0, "name": "3ace398c750a10aa4b4a880fef04fb5a", "fusion_lon": 0.0}, {"is_reserved": 0, "type": "electric_scooter", "bike_id": "965ac8fb624920978fe4efa2505c1d8a", "lat": 38.900772, "lon": -76.9834225, "rental_uris": {"android": "https://dc.lft.to/lastmile_qr_scan", "ios": "https://dc.lft.to/lastmile_qr_scan"}, "is_disabled": 0, "fusion_lat": 0.0, "name": "965ac8fb624920978fe4efa2505c1d8a", "fusion_lon": 0.0}, {"is_reserved": 0, "type": "electric_scooter", "bike_id": "96430bdceeb1dfb35adfc8b7f2fe60d1", "lat": 38.92924466666667, "lon": -77.020055, "rental_uris": {"android": "https://dc.lft.to/lastmile_qr_scan", "ios": "https://dc.lft.to/lastmile_qr_scan"}, "is_disabled": 0, "fusion_lat": 0.0, "name": "96430bdceeb1dfb35adfc8b7f2fe60d1", "fusion_lon": 0.0}, {"is_reserved": 0, "type": "electric_scooter", "bike_id": "82d508d3e49d048982fa2f936a8e7760", "lat": 38.89247066666667, "lon": -77.03346616666667, "rental_uris": {"android": "https://dc.lft.to/lastmile_qr_scan", "ios": "https://dc.lft.to/lastmile_qr_scan"}, "is_disabled": 0, "fusion_lat": 0.0, "name": "82d508d3e49d048982fa2f936a8e7760", "fusion_lon": 0.0}, {"is_reserved": 0, "type": "electric_bike", "bike_id": "f75f74a1a9685ca95328de8a70ebfdf2", "lat": 38.981811, "lon": -76.98214366666667, "rental_uris": {"android": "https://dc.lft.to/lastmile_qr_scan", "ios": "https://dc.lft.to/lastmile_qr_scan"}, "is_disabled": 0, "fusion_lat": 0.0, "name": "f75f74a1a9685ca95328de8a70ebfdf2", "fusion_lon": 0.0}, {"is_reserved": 0, "type": "electric_scooter", "bike_id": "9090aac8e767c18df0297092a3e49178", "lat": 38.914135333333334, "lon": -77.01886133333333, "rental_uris": {"android": "https://dc.lft.to/lastmile_qr_scan", "ios": "https://dc.lft.to/lastmile_qr_scan"}, "is_disabled": 0, "fusion_lat": 0.0, "name": "9090aac8e767c18df0297092a3e49178", "fusion_lon": 0.0}, {"is_reserved": 0, "type": "electric_scooter", "bike_id": "ba535503605d1aa9e94d9f5ac1b9f0df", "lat": 38.89850783333333, "lon": -76.92753866666666, "rental_uris": {"android": "https://dc.lft.to/lastmile_qr_scan", "ios": "https://dc.lft.to/lastmile_qr_scan"}, "is_disabled": 0, "fusion_lat": 0.0, "name": "ba535503605d1aa9e94d9f5ac1b9f0df", "fusion_lon": 0.0}, {"is_reserved": 0, "type": "electric_scooter", "bike_id": "8d6449287b35741e06e7859cf0c59996", "lat": 38.93117433333333, "lon": -77.0303295, "rental_uris": {"android": "https://dc.lft.to/lastmile_qr_scan", "ios": "https://dc.lft.to/lastmile_qr_scan"}, "is_disabled": 0, "fusion_lat": 0.0, "name": "8d6449287b35741e06e7859cf0c59996", "fusion_lon": 0.0}, {"is_reserved": 0, "type": "electric_scooter", "bike_id": "e4a10aa536f628a8879134f671effd8c", "lat": 38.901239333333336, "lon": -77.0337215, "rental_uris": {"android": "https://dc.lft.to/lastmile_qr_scan", "ios": "https://dc.lft.to/lastmile_qr_scan"}, "is_disabled": 0, "fusion_lat": 0.0, "name": "e4a10aa536f628a8879134f671effd8c", "fusion_lon": 0.0}, {"is_reserved": 0, "type": "electric_scooter", "bike_id": "0bb6a5114307d717ef210fb5780a9c9b", "lat": 38.87159466666667, "lon": -77.0135305, "rental_uris": {"android": "https://dc.lft.to/lastmile_qr_scan", "ios": "https://dc.lft.to/lastmile_qr_scan"}, "is_disabled": 0, "fusion_lat": 0.0, "name": "0bb6a5114307d717ef210fb5780a9c9b", "fusion_lon": 0.0}, {"is_reserved": 0, "type": "electric_scooter", "bike_id": "23cdf134e1d33f2b910068bb9d9a6471", "lat": 38.90605166666667, "lon": -77.03426366666666, "rental_uris": {"android": "https://dc.lft.to/lastmile_qr_scan", "ios": "https://dc.lft.to/lastmile_qr_scan"}, "is_disabled": 0, "fusion_lat": 0.0, "name": "23cdf134e1d33f2b910068bb9d9a6471", "fusion_lon": 0.0}, {"is_reserved": 0, "type": "electric_scooter", "bike_id": "ed2b025ce4445c9a1bc03975061fc1b2", "lat": 38.936433, "lon": -77.03673066666667, "rental_uris": {"android": "https://dc.lft.to/lastmile_qr_scan", "ios": "https://dc.lft.to/lastmile_qr_scan"}, "is_disabled": 0, "fusion_lat": 0.0, "name": "ed2b025ce4445c9a1bc03975061fc1b2", "fusion_lon": 0.0}, {"is_reserved": 0, "type": "electric_scooter", "bike_id": "5664ac92550eb56d91c8752539330e14", "lat": 38.92560866666667, "lon": -76.96999783333334, "rental_uris": {"android": "https://dc.lft.to/lastmile_qr_scan", "ios": "https://dc.lft.to/lastmile_qr_scan"}, "is_disabled": 0, "fusion_lat": 0.0, "name": "5664ac92550eb56d91c8752539330e14", "fusion_lon": 0.0}, {"is_reserved": 0, "type": "electric_scooter", "bike_id": "72b93fa964f8e4b160b84f433863d255", "lat": 38.90541916666667, "lon": -77.05922033333333, "rental_uris": {"android": "https://dc.lft.to/lastmile_qr_scan", "ios": "https://dc.lft.to/lastmile_qr_scan"}, "is_disabled": 0, "fusion_lat": 0.0, "name": "72b93fa964f8e4b160b84f433863d255", "fusion_lon": 0.0}, {"is_reserved": 0, "type": "electric_scooter", "bike_id": "a5d154c45e1646d470679492076c1f2e", "lat": 38.92745133333333, "lon": -77.03425433333334, "rental_uris": {"android": "https://dc.lft.to/lastmile_qr_scan", "ios": "https://dc.lft.to/lastmile_qr_scan"}, "is_disabled": 0, "fusion_lat": 0.0, "name": "a5d154c45e1646d470679492076c1f2e", "fusion_lon": 0.0}, {"is_reserved": 0, "type": "electric_scooter", "bike_id": "9bfe0e41f15f58da70621fce4774cbfe", "lat": 38.920772666666664, "lon": -77.02339616666667, "rental_uris": {"android": "https://dc.lft.to/lastmile_qr_scan", "ios": "https://dc.lft.to/lastmile_qr_scan"}, "is_disabled": 0, "fusion_lat": 0.0, "name": "9bfe0e41f15f58da70621fce4774cbfe", "fusion_lon": 0.0}, {"is_reserved": 0, "type": "electric_scooter", "bike_id": "a787fb2156d7c0b0d9c87b7bd9938a44", "lat": 38.93635666666667, "lon": -77.08325016666667, "rental_uris": {"android": "https://dc.lft.to/lastmile_qr_scan", "ios": "https://dc.lft.to/lastmile_qr_scan"}, "is_disabled": 0, "fusion_lat": 0.0, "name": "a787fb2156d7c0b0d9c87b7bd9938a44", "fusion_lon": 0.0}, {"is_reserved": 0, "type": "electric_scooter", "bike_id": "c5c1a1af8465f4d434061f2a3f23da79", "lat": 38.907880166666665, "lon": -77.04799766666666, "rental_uris": {"android": "https://dc.lft.to/lastmile_qr_scan", "ios": "https://dc.lft.to/lastmile_qr_scan"}, "is_disabled": 0, "fusion_lat": 0.0, "name": "c5c1a1af8465f4d434061f2a3f23da79", "fusion_lon": 0.0}, {"is_reserved": 0, "type": "electric_scooter", "bike_id": "c1e958f6ea3a80af0c8b9c9f0f9532d5", "lat": 38.89272033333334, "lon": -77.03207333333333, "rental_uris": {"android": "https://dc.lft.to/lastmile_qr_scan", "ios": "https://dc.lft.to/lastmile_qr_scan"}, "is_disabled": 0, "fusion_lat": 0.0, "name": "c1e958f6ea3a80af0c8b9c9f0f9532d5", "fusion_lon": 0.0}, {"is_reserved": 0, "type": "electric_scooter", "bike_id": "fb049804f0f865ff8eaca74887cd2d26", "lat": 38.92879583333333, "lon": -77.05383516666667, "rental_uris": {"android": "https://dc.lft.to/lastmile_qr_scan", "ios": "https://dc.lft.to/lastmile_qr_scan"}, "is_disabled": 0, "fusion_lat": 0.0, "name": "fb049804f0f865ff8eaca74887cd2d26", "fusion_lon": 0.0}, {"is_reserved": 0, "type": "electric_scooter", "bike_id": "1777ea2eefdddb76605e3d044a40a85c", "lat": 38.90535116666667, "lon": -77.0581115, "rental_uris": {"android": "https://dc.lft.to/lastmile_qr_scan", "ios": "https://dc.lft.to/lastmile_qr_scan"}, "is_disabled": 0, "fusion_lat": 0.0, "name": "1777ea2eefdddb76605e3d044a40a85c", "fusion_lon": 0.0}, {"is_reserved": 0, "type": "electric_scooter", "bike_id": "130300d8d7c164252d448d790baaf706", "lat": 38.9112285, "lon": -77.04360633333333, "rental_uris": {"android": "https://dc.lft.to/lastmile_qr_scan", "ios": "https://dc.lft.to/lastmile_qr_scan"}, "is_disabled": 0, "fusion_lat": 0.0, "name": "130300d8d7c164252d448d790baaf706", "fusion_lon": 0.0}, {"is_reserved": 0, "type": "electric_scooter", "bike_id": "b697d4384989745a2cab4ee6bc5656c6", "lat": 38.9072885, "lon": -77.04797466666666, "rental_uris": {"android": "https://dc.lft.to/lastmile_qr_scan", "ios": "https://dc.lft.to/lastmile_qr_scan"}, "is_disabled": 0, "fusion_lat": 0.0, "name": "b697d4384989745a2cab4ee6bc5656c6", "fusion_lon": 0.0}, {"is_reserved": 0, "type": "electric_scooter", "bike_id": "b4236ba7e7ab94d43f48dc4097f5a2ea", "lat": 38.924470666666664, "lon": -77.0204015, "rental_uris": {"android": "https://dc.lft.to/lastmile_qr_scan", "ios": "https://dc.lft.to/lastmile_qr_scan"}, "is_disabled": 0, "fusion_lat": 0.0, "name": "b4236ba7e7ab94d43f48dc4097f5a2ea", "fusion_lon": 0.0}, {"is_reserved": 0, "type": "electric_scooter", "bike_id": "beb00beb664c79c0b307c94c3c82d55c", "lat": 38.94167066666667, "lon": -77.01823016666667, "rental_uris": {"android": "https://dc.lft.to/lastmile_qr_scan", "ios": "https://dc.lft.to/lastmile_qr_scan"}, "is_disabled": 0, "fusion_lat": 0.0, "name": "beb00beb664c79c0b307c94c3c82d55c", "fusion_lon": 0.0}, {"is_reserved": 0, "type": "electric_scooter", "bike_id": "b2eb1fd3e078f21cc351b5774edcbd4b", "lat": 38.93327816666667, "lon": -77.02915466666667, "rental_uris": {"android": "https://dc.lft.to/lastmile_qr_scan", "ios": "https://dc.lft.to/lastmile_qr_scan"}, "is_disabled": 0, "fusion_lat": 0.0, "name": "b2eb1fd3e078f21cc351b5774edcbd4b", "fusion_lon": 0.0}, {"is_reserved": 0, "type": "electric_scooter", "bike_id": "0be8cb0c3e896607accd05cb645c75d7", "lat": 38.91915566666667, "lon": -77.048055, "rental_uris": {"android": "https://dc.lft.to/lastmile_qr_scan", "ios": "https://dc.lft.to/lastmile_qr_scan"}, "is_disabled": 0, "fusion_lat": 0.0, "name": "0be8cb0c3e896607accd05cb645c75d7", "fusion_lon": 0.0}, {"is_reserved": 0, "type": "electric_scooter", "bike_id": "84380a45387c4e4d4f29c3ab40932a5c", "lat": 38.89859583333333, "lon": -77.02218616666667, "rental_uris": {"android": "https://dc.lft.to/lastmile_qr_scan", "ios": "https://dc.lft.to/lastmile_qr_scan"}, "is_disabled": 0, "fusion_lat": 0.0, "name": "84380a45387c4e4d4f29c3ab40932a5c", "fusion_lon": 0.0}, {"is_reserved": 0, "type": "electric_scooter", "bike_id": "7dc97266674747d123593b4dd5fc7871", "lat": 38.920720333333335, "lon": -77.02384233333333, "rental_uris": {"android": "https://dc.lft.to/lastmile_qr_scan", "ios": "https://dc.lft.to/lastmile_qr_scan"}, "is_disabled": 0, "fusion_lat": 0.0, "name": "7dc97266674747d123593b4dd5fc7871", "fusion_lon": 0.0}, {"is_reserved": 0, "type": "electric_scooter", "bike_id": "32409686a44702a100acea7693ca048a", "lat": 38.85313583333333, "lon": -76.98031466666667, "rental_uris": {"android": "https://dc.lft.to/lastmile_qr_scan", "ios": "https://dc.lft.to/lastmile_qr_scan"}, "is_disabled": 0, "fusion_lat": 0.0, "name": "32409686a44702a100acea7693ca048a", "fusion_lon": 0.0}, {"is_reserved": 0, "type": "electric_scooter", "bike_id": "b2e7d1c0f58c95a9e9e61e36e860135a", "lat": 38.911741166666665, "lon": -77.02306383333334, "rental_uris": {"android": "https://dc.lft.to/lastmile_qr_scan", "ios": "https://dc.lft.to/lastmile_qr_scan"}, "is_disabled": 0, "fusion_lat": 0.0, "name": "b2e7d1c0f58c95a9e9e61e36e860135a", "fusion_lon": 0.0}, {"is_reserved": 0, "type": "electric_scooter", "bike_id": "eb08bb863b970772b77d700af9701464", "lat": 38.906166, "lon": -77.065168, "rental_uris": {"android": "https://dc.lft.to/lastmile_qr_scan", "ios": "https://dc.lft.to/lastmile_qr_scan"}, "is_disabled": 0, "fusion_lat": 0.0, "name": "eb08bb863b970772b77d700af9701464", "fusion_lon": 0.0}, {"is_reserved": 0, "type": "electric_scooter", "bike_id": "ccf75664073f55e775d82f9ee6337eb1", "lat": 38.92204516666666, "lon": -77.03900616666667, "rental_uris": {"android": "https://dc.lft.to/lastmile_qr_scan", "ios": "https://dc.lft.to/lastmile_qr_scan"}, "is_disabled": 0, "fusion_lat": 0.0, "name": "ccf75664073f55e775d82f9ee6337eb1", "fusion_lon": 0.0}, {"is_reserved": 0, "type": "electric_scooter", "bike_id": "50703f3692df51a4d51a3c69bb578df9", "lat": 38.9131215, "lon": -77.03641383333333, "rental_uris": {"android": "https://dc.lft.to/lastmile_qr_scan", "ios": "https://dc.lft.to/lastmile_qr_scan"}, "is_disabled": 0, "fusion_lat": 0.0, "name": "50703f3692df51a4d51a3c69bb578df9", "fusion_lon": 0.0}, {"is_reserved": 0, "type": "electric_scooter", "bike_id": "8807bd67208ef6010f83df2d0b044f1d", "lat": 38.90866283333333, "lon": -77.045895, "rental_uris": {"android": "https://dc.lft.to/lastmile_qr_scan", "ios": "https://dc.lft.to/lastmile_qr_scan"}, "is_disabled": 0, "fusion_lat": 0.0, "name": "8807bd67208ef6010f83df2d0b044f1d", "fusion_lon": 0.0}, {"is_reserved": 0, "type": "electric_scooter", "bike_id": "5bd75ab56d3ae1775e612cf6f6b06fc8", "lat": 38.90055133333333, "lon": -76.98562933333334, "rental_uris": {"android": "https://dc.lft.to/lastmile_qr_scan", "ios": "https://dc.lft.to/lastmile_qr_scan"}, "is_disabled": 0, "fusion_lat": 0.0, "name": "5bd75ab56d3ae1775e612cf6f6b06fc8", "fusion_lon": 0.0}, {"is_reserved": 0, "type": "electric_scooter", "bike_id": "4fad5e4eb2e70bfc113b70dd87fafdbd", "lat": 38.91878633333334, "lon": -77.0431425, "rental_uris": {"android": "https://dc.lft.to/lastmile_qr_scan", "ios": "https://dc.lft.to/lastmile_qr_scan"}, "is_disabled": 0, "fusion_lat": 0.0, "name": "4fad5e4eb2e70bfc113b70dd87fafdbd", "fusion_lon": 0.0}, {"is_reserved": 0, "type": "electric_scooter", "bike_id": "d79012eb57a086d06d9a12c942a0748b", "lat": 38.92204366666667, "lon": -77.020337, "rental_uris": {"android": "https://dc.lft.to/lastmile_qr_scan", "ios": "https://dc.lft.to/lastmile_qr_scan"}, "is_disabled": 0, "fusion_lat": 0.0, "name": "d79012eb57a086d06d9a12c942a0748b", "fusion_lon": 0.0}, {"is_reserved": 0, "type": "electric_scooter", "bike_id": "a7f870a5ff0e28896e714c032ce16e9d", "lat": 38.911808, "lon": -77.00258666666667, "rental_uris": {"android": "https://dc.lft.to/lastmile_qr_scan", "ios": "https://dc.lft.to/lastmile_qr_scan"}, "is_disabled": 0, "fusion_lat": 0.0, "name": "a7f870a5ff0e28896e714c032ce16e9d", "fusion_lon": 0.0}, {"is_reserved": 0, "type": "electric_scooter", "bike_id": "12bb2e172c445dd3f5933c1325b895b3", "lat": 38.8978065, "lon": -77.04772566666666, "rental_uris": {"android": "https://dc.lft.to/lastmile_qr_scan", "ios": "https://dc.lft.to/lastmile_qr_scan"}, "is_disabled": 0, "fusion_lat": 0.0, "name": "12bb2e172c445dd3f5933c1325b895b3", "fusion_lon": 0.0}, {"is_reserved": 0, "type": "electric_scooter", "bike_id": "0e8c206c5c1b0f3f6a733396ae3273a6", "lat": 38.910194833333335, "lon": -76.99371783333333, "rental_uris": {"android": "https://dc.lft.to/lastmile_qr_scan", "ios": "https://dc.lft.to/lastmile_qr_scan"}, "is_disabled": 0, "fusion_lat": 0.0, "name": "0e8c206c5c1b0f3f6a733396ae3273a6", "fusion_lon": 0.0}, {"is_reserved": 0, "type": "electric_scooter", "bike_id": "d134c3169be879a01ed4051fc86b181c", "lat": 38.918828500000004, "lon": -77.043241, "rental_uris": {"android": "https://dc.lft.to/lastmile_qr_scan", "ios": "https://dc.lft.to/lastmile_qr_scan"}, "is_disabled": 0, "fusion_lat": 0.0, "name": "d134c3169be879a01ed4051fc86b181c", "fusion_lon": 0.0}, {"is_reserved": 0, "type": "electric_scooter", "bike_id": "74075303ef0100af646c1599a725ffab", "lat": 38.90435, "lon": -77.048481, "rental_uris": {"android": "https://dc.lft.to/lastmile_qr_scan", "ios": "https://dc.lft.to/lastmile_qr_scan"}, "is_disabled": 0, "fusion_lat": 0.0, "name": "74075303ef0100af646c1599a725ffab", "fusion_lon": 0.0}, {"is_reserved": 0, "type": "electric_scooter", "bike_id": "9846bd520960cebe44642574a535702e", "lat": 38.87470966666667, "lon": -77.0033775, "rental_uris": {"android": "https://dc.lft.to/lastmile_qr_scan", "ios": "https://dc.lft.to/lastmile_qr_scan"}, "is_disabled": 0, "fusion_lat": 0.0, "name": "9846bd520960cebe44642574a535702e", "fusion_lon": 0.0}, {"is_reserved": 0, "type": "electric_bike", "bike_id": "7d6543a1c878cf298ca6b8d46b480188", "lat": 38.89904083333333, "lon": -76.93355766666667, "rental_uris": {"android": "https://dc.lft.to/lastmile_qr_scan", "ios": "https://dc.lft.to/lastmile_qr_scan"}, "is_disabled": 0, "fusion_lat": 0.0, "name": "7d6543a1c878cf298ca6b8d46b480188", "fusion_lon": 0.0}, {"is_reserved": 0, "type": "electric_scooter", "bike_id": "bca53196f2d91c0f59e5c1394c26fefd", "lat": 38.897543666666664, "lon": -77.002057, "rental_uris": {"android": "https://dc.lft.to/lastmile_qr_scan", "ios": "https://dc.lft.to/lastmile_qr_scan"}, "is_disabled": 0, "fusion_lat": 0.0, "name": "bca53196f2d91c0f59e5c1394c26fefd", "fusion_lon": 0.0}, {"is_reserved": 0, "type": "electric_scooter", "bike_id": "9f85817c6f0ee71fe03bc6d553aa6ff3", "lat": 38.878450666666666, "lon": -77.01968833333333, "rental_uris": {"android": "https://dc.lft.to/lastmile_qr_scan", "ios": "https://dc.lft.to/lastmile_qr_scan"}, "is_disabled": 0, "fusion_lat": 0.0, "name": "9f85817c6f0ee71fe03bc6d553aa6ff3", "fusion_lon": 0.0}, {"is_reserved": 0, "type": "electric_scooter", "bike_id": "f252812f98cbeb66598d8cf85ee46d42", "lat": 38.8948675, "lon": -76.99567216666667, "rental_uris": {"android": "https://dc.lft.to/lastmile_qr_scan", "ios": "https://dc.lft.to/lastmile_qr_scan"}, "is_disabled": 0, "fusion_lat": 0.0, "name": "f252812f98cbeb66598d8cf85ee46d42", "fusion_lon": 0.0}, {"is_reserved": 0, "type": "electric_bike", "bike_id": "1e686362e1ead98d3f652644ba39e4fb", "lat": 38.93761666666666, "lon": -77.03629966666666, "rental_uris": {"android": "https://dc.lft.to/lastmile_qr_scan", "ios": "https://dc.lft.to/lastmile_qr_scan"}, "is_disabled": 0, "fusion_lat": 0.0, "name": "1e686362e1ead98d3f652644ba39e4fb", "fusion_lon": 0.0}, {"is_reserved": 0, "type": "electric_scooter", "bike_id": "0997326b3aecfb831248f7848651db9c", "lat": 38.90422566666667, "lon": -77.02661516666667, "rental_uris": {"android": "https://dc.lft.to/lastmile_qr_scan", "ios": "https://dc.lft.to/lastmile_qr_scan"}, "is_disabled": 0, "fusion_lat": 0.0, "name": "0997326b3aecfb831248f7848651db9c", "fusion_lon": 0.0}, {"is_reserved": 0, "type": "electric_scooter", "bike_id": "0b1c71345731c1e7840739b16abf9d16", "lat": 38.90587383333333, "lon": -77.072891, "rental_uris": {"android": "https://dc.lft.to/lastmile_qr_scan", "ios": "https://dc.lft.to/lastmile_qr_scan"}, "is_disabled": 0, "fusion_lat": 0.0, "name": "0b1c71345731c1e7840739b16abf9d16", "fusion_lon": 0.0}, {"is_reserved": 0, "type": "electric_scooter", "bike_id": "5397c4a71ecf11047341b26abe75efc3", "lat": 38.89849666666667, "lon": -77.02831866666666, "rental_uris": {"android": "https://dc.lft.to/lastmile_qr_scan", "ios": "https://dc.lft.to/lastmile_qr_scan"}, "is_disabled": 0, "fusion_lat": 0.0, "name": "5397c4a71ecf11047341b26abe75efc3", "fusion_lon": 0.0}, {"is_reserved": 0, "type": "electric_scooter", "bike_id": "3cc43095c88c68c7233c6eb03b6e4930", "lat": 38.9100035, "lon": -77.04007533333333, "rental_uris": {"android": "https://dc.lft.to/lastmile_qr_scan", "ios": "https://dc.lft.to/lastmile_qr_scan"}, "is_disabled": 0, "fusion_lat": 0.0, "name": "3cc43095c88c68c7233c6eb03b6e4930", "fusion_lon": 0.0}, {"is_reserved": 0, "type": "electric_scooter", "bike_id": "5417dca63f16d5195e8c5695ad4cd2ef", "lat": 38.904435666666664, "lon": -77.02703683333333, "rental_uris": {"android": "https://dc.lft.to/lastmile_qr_scan", "ios": "https://dc.lft.to/lastmile_qr_scan"}, "is_disabled": 0, "fusion_lat": 0.0, "name": "5417dca63f16d5195e8c5695ad4cd2ef", "fusion_lon": 0.0}, {"is_reserved": 0, "type": "electric_scooter", "bike_id": "274886bb8f97ac49699df92260a3b195", "lat": 38.895344, "lon": -76.97904283333334, "rental_uris": {"android": "https://dc.lft.to/lastmile_qr_scan", "ios": "https://dc.lft.to/lastmile_qr_scan"}, "is_disabled": 0, "fusion_lat": 0.0, "name": "274886bb8f97ac49699df92260a3b195", "fusion_lon": 0.0}, {"is_reserved": 0, "type": "electric_scooter", "bike_id": "0323becbe6a5d90f31d77cc9c2b35131", "lat": 38.8838665, "lon": -77.01957966666667, "rental_uris": {"android": "https://dc.lft.to/lastmile_qr_scan", "ios": "https://dc.lft.to/lastmile_qr_scan"}, "is_disabled": 0, "fusion_lat": 0.0, "name": "0323becbe6a5d90f31d77cc9c2b35131", "fusion_lon": 0.0}, {"is_reserved": 0, "type": "electric_scooter", "bike_id": "41b019a52f3504dcfa22303cf9cc4896", "lat": 38.92425983333333, "lon": -77.03426383333333, "rental_uris": {"android": "https://dc.lft.to/lastmile_qr_scan", "ios": "https://dc.lft.to/lastmile_qr_scan"}, "is_disabled": 0, "fusion_lat": 0.0, "name": "41b019a52f3504dcfa22303cf9cc4896", "fusion_lon": 0.0}, {"is_reserved": 0, "type": "electric_scooter", "bike_id": "df70c822bf1cce83bac3dab3feae134c", "lat": 38.926353666666664, "lon": -77.04247783333334, "rental_uris": {"android": "https://dc.lft.to/lastmile_qr_scan", "ios": "https://dc.lft.to/lastmile_qr_scan"}, "is_disabled": 0, "fusion_lat": 0.0, "name": "df70c822bf1cce83bac3dab3feae134c", "fusion_lon": 0.0}, {"is_reserved": 0, "type": "electric_scooter", "bike_id": "056ca12f0d813d60dc3e1d48dd631041", "lat": 38.91200333333333, "lon": -77.0376385, "rental_uris": {"android": "https://dc.lft.to/lastmile_qr_scan", "ios": "https://dc.lft.to/lastmile_qr_scan"}, "is_disabled": 0, "fusion_lat": 0.0, "name": "056ca12f0d813d60dc3e1d48dd631041", "fusion_lon": 0.0}, {"is_reserved": 0, "type": "electric_scooter", "bike_id": "c632c2a68610f198f32041e5cf0d436c", "lat": 38.93037066666667, "lon": -77.05539683333333, "rental_uris": {"android": "https://dc.lft.to/lastmile_qr_scan", "ios": "https://dc.lft.to/lastmile_qr_scan"}, "is_disabled": 0, "fusion_lat": 0.0, "name": "c632c2a68610f198f32041e5cf0d436c", "fusion_lon": 0.0}, {"is_reserved": 0, "type": "electric_scooter", "bike_id": "e03ef13ffec73e37f7db3597d628cdb5", "lat": 38.90903733333333, "lon": -76.99620266666666, "rental_uris": {"android": "https://dc.lft.to/lastmile_qr_scan", "ios": "https://dc.lft.to/lastmile_qr_scan"}, "is_disabled": 0, "fusion_lat": 0.0, "name": "e03ef13ffec73e37f7db3597d628cdb5", "fusion_lon": 0.0}, {"is_reserved": 0, "type": "electric_scooter", "bike_id": "e88e3cce5b70263efc0d1a41dbe987b2", "lat": 38.90285983333333, "lon": -77.03485783333333, "rental_uris": {"android": "https://dc.lft.to/lastmile_qr_scan", "ios": "https://dc.lft.to/lastmile_qr_scan"}, "is_disabled": 0, "fusion_lat": 0.0, "name": "e88e3cce5b70263efc0d1a41dbe987b2", "fusion_lon": 0.0}, {"is_reserved": 0, "type": "electric_scooter", "bike_id": "6ba1fa0db50df782cab59cd0e98c04a7", "lat": 38.92098816666667, "lon": -77.0470165, "rental_uris": {"android": "https://dc.lft.to/lastmile_qr_scan", "ios": "https://dc.lft.to/lastmile_qr_scan"}, "is_disabled": 0, "fusion_lat": 0.0, "name": "6ba1fa0db50df782cab59cd0e98c04a7", "fusion_lon": 0.0}, {"is_reserved": 0, "type": "electric_scooter", "bike_id": "7918ac14a3c490d33480fd92a3de1911", "lat": 38.94327066666666, "lon": -77.01261733333334, "rental_uris": {"android": "https://dc.lft.to/lastmile_qr_scan", "ios": "https://dc.lft.to/lastmile_qr_scan"}, "is_disabled": 0, "fusion_lat": 0.0, "name": "7918ac14a3c490d33480fd92a3de1911", "fusion_lon": 0.0}, {"is_reserved": 0, "type": "electric_scooter", "bike_id": "c806d86f9610c5be2c2adeed84970d90", "lat": 38.9417815, "lon": -77.02568266666667, "rental_uris": {"android": "https://dc.lft.to/lastmile_qr_scan", "ios": "https://dc.lft.to/lastmile_qr_scan"}, "is_disabled": 0, "fusion_lat": 0.0, "name": "c806d86f9610c5be2c2adeed84970d90", "fusion_lon": 0.0}, {"is_reserved": 0, "type": "electric_scooter", "bike_id": "91a4da58be0f9d5f2f36e7f5450df5e1", "lat": 38.907476333333335, "lon": -77.0076115, "rental_uris": {"android": "https://dc.lft.to/lastmile_qr_scan", "ios": "https://dc.lft.to/lastmile_qr_scan"}, "is_disabled": 0, "fusion_lat": 0.0, "name": "91a4da58be0f9d5f2f36e7f5450df5e1", "fusion_lon": 0.0}, {"is_reserved": 0, "type": "electric_scooter", "bike_id": "ca7b97f5c325d39f64de6589a30f69e5", "lat": 38.921589833333336, "lon": -77.033279, "rental_uris": {"android": "https://dc.lft.to/lastmile_qr_scan", "ios": "https://dc.lft.to/lastmile_qr_scan"}, "is_disabled": 0, "fusion_lat": 0.0, "name": "ca7b97f5c325d39f64de6589a30f69e5", "fusion_lon": 0.0}, {"is_reserved": 0, "type": "electric_scooter", "bike_id": "2fdd46f9e808db6a5c6e8fd652142d7b", "lat": 38.9072895, "lon": -77.03207583333334, "rental_uris": {"android": "https://dc.lft.to/lastmile_qr_scan", "ios": "https://dc.lft.to/lastmile_qr_scan"}, "is_disabled": 0, "fusion_lat": 0.0, "name": "2fdd46f9e808db6a5c6e8fd652142d7b", "fusion_lon": 0.0}, {"is_reserved": 0, "type": "electric_bike", "bike_id": "e292b6c25bf2a6688c1a00bd923e8c01", "lat": 38.921140666666666, "lon": -76.98879583333333, "rental_uris": {"android": "https://dc.lft.to/lastmile_qr_scan", "ios": "https://dc.lft.to/lastmile_qr_scan"}, "is_disabled": 0, "fusion_lat": 0.0, "name": "e292b6c25bf2a6688c1a00bd923e8c01", "fusion_lon": 0.0}, {"is_reserved": 0, "type": "electric_scooter", "bike_id": "fef550d078c2bf189c35d604f01867aa", "lat": 38.92427283333333, "lon": -77.02031466666666, "rental_uris": {"android": "https://dc.lft.to/lastmile_qr_scan", "ios": "https://dc.lft.to/lastmile_qr_scan"}, "is_disabled": 0, "fusion_lat": 0.0, "name": "fef550d078c2bf189c35d604f01867aa", "fusion_lon": 0.0}, {"is_reserved": 0, "type": "electric_scooter", "bike_id": "2837ab23fd9a2272f77aed5701dad00d", "lat": 38.918204333333335, "lon": -77.04515233333333, "rental_uris": {"android": "https://dc.lft.to/lastmile_qr_scan", "ios": "https://dc.lft.to/lastmile_qr_scan"}, "is_disabled": 0, "fusion_lat": 0.0, "name": "2837ab23fd9a2272f77aed5701dad00d", "fusion_lon": 0.0}, {"is_reserved": 0, "type": "electric_scooter", "bike_id": "c14a070a5f8971a72c3c2369a47d7459", "lat": 38.92026083333333, "lon": -77.01855666666667, "rental_uris": {"android": "https://dc.lft.to/lastmile_qr_scan", "ios": "https://dc.lft.to/lastmile_qr_scan"}, "is_disabled": 0, "fusion_lat": 0.0, "name": "c14a070a5f8971a72c3c2369a47d7459", "fusion_lon": 0.0}, {"is_reserved": 0, "type": "electric_scooter", "bike_id": "6693ddeb05245bcbd0875e7944174217", "lat": 38.89803283333333, "lon": -76.99504516666667, "rental_uris": {"android": "https://dc.lft.to/lastmile_qr_scan", "ios": "https://dc.lft.to/lastmile_qr_scan"}, "is_disabled": 0, "fusion_lat": 0.0, "name": "6693ddeb05245bcbd0875e7944174217", "fusion_lon": 0.0}, {"is_reserved": 0, "type": "electric_bike", "bike_id": "055e4cbd4d88a98ff72196950775f7fa", "lat": 38.9584435, "lon": -76.98590783333333, "rental_uris": {"android": "https://dc.lft.to/lastmile_qr_scan", "ios": "https://dc.lft.to/lastmile_qr_scan"}, "is_disabled": 0, "fusion_lat": 0.0, "name": "055e4cbd4d88a98ff72196950775f7fa", "fusion_lon": 0.0}, {"is_reserved": 0, "type": "electric_scooter", "bike_id": "1ca5812544cc9424ae49d67f01ede33b", "lat": 38.9018145, "lon": -76.9300485, "rental_uris": {"android": "https://dc.lft.to/lastmile_qr_scan", "ios": "https://dc.lft.to/lastmile_qr_scan"}, "is_disabled": 0, "fusion_lat": 0.0, "name": "1ca5812544cc9424ae49d67f01ede33b", "fusion_lon": 0.0}, {"is_reserved": 0, "type": "electric_scooter", "bike_id": "7001d6b6708e7e00f79772c17a92895f", "lat": 38.904013, "lon": -77.049012, "rental_uris": {"android": "https://dc.lft.to/lastmile_qr_scan", "ios": "https://dc.lft.to/lastmile_qr_scan"}, "is_disabled": 0, "fusion_lat": 0.0, "name": "7001d6b6708e7e00f79772c17a92895f", "fusion_lon": 0.0}, {"is_reserved": 0, "type": "electric_scooter", "bike_id": "5ac3f0c7ff4f0454791f502538c361a1", "lat": 38.915111833333334, "lon": -77.0218245, "rental_uris": {"android": "https://dc.lft.to/lastmile_qr_scan", "ios": "https://dc.lft.to/lastmile_qr_scan"}, "is_disabled": 0, "fusion_lat": 0.0, "name": "5ac3f0c7ff4f0454791f502538c361a1", "fusion_lon": 0.0}, {"is_reserved": 0, "type": "electric_scooter", "bike_id": "5cdcd612fa180c767af48d12c9cc62fe", "lat": 38.898511166666665, "lon": -76.990325, "rental_uris": {"android": "https://dc.lft.to/lastmile_qr_scan", "ios": "https://dc.lft.to/lastmile_qr_scan"}, "is_disabled": 0, "fusion_lat": 0.0, "name": "5cdcd612fa180c767af48d12c9cc62fe", "fusion_lon": 0.0}, {"is_reserved": 0, "type": "electric_scooter", "bike_id": "b865ce7bf18d0a202f05e47f6e48f91b", "lat": 38.931239833333336, "lon": -77.03878083333333, "rental_uris": {"android": "https://dc.lft.to/lastmile_qr_scan", "ios": "https://dc.lft.to/lastmile_qr_scan"}, "is_disabled": 0, "fusion_lat": 0.0, "name": "b865ce7bf18d0a202f05e47f6e48f91b", "fusion_lon": 0.0}, {"is_reserved": 0, "type": "electric_scooter", "bike_id": "95a2c073a9f459a1f626dad8eeb5e2cf", "lat": 38.921533, "lon": -77.07217866666667, "rental_uris": {"android": "https://dc.lft.to/lastmile_qr_scan", "ios": "https://dc.lft.to/lastmile_qr_scan"}, "is_disabled": 0, "fusion_lat": 0.0, "name": "95a2c073a9f459a1f626dad8eeb5e2cf", "fusion_lon": 0.0}, {"is_reserved": 0, "type": "electric_bike", "bike_id": "6c1f3ff68bbf355eb5bff4c079adaaa1", "lat": 38.8578715, "lon": -77.0996485, "rental_uris": {"android": "https://dc.lft.to/lastmile_qr_scan", "ios": "https://dc.lft.to/lastmile_qr_scan"}, "is_disabled": 0, "fusion_lat": 0.0, "name": "6c1f3ff68bbf355eb5bff4c079adaaa1", "fusion_lon": 0.0}, {"is_reserved": 0, "type": "electric_scooter", "bike_id": "1efe92218478ad1cce27d0f7f1f53d19", "lat": 38.906114, "lon": -77.0279145, "rental_uris": {"android": "https://dc.lft.to/lastmile_qr_scan", "ios": "https://dc.lft.to/lastmile_qr_scan"}, "is_disabled": 0, "fusion_lat": 0.0, "name": "1efe92218478ad1cce27d0f7f1f53d19", "fusion_lon": 0.0}, {"is_reserved": 0, "type": "electric_scooter", "bike_id": "ffd2ca78c35616f8526c6bc4ead4fd80", "lat": 38.9206455, "lon": -77.02250366666667, "rental_uris": {"android": "https://dc.lft.to/lastmile_qr_scan", "ios": "https://dc.lft.to/lastmile_qr_scan"}, "is_disabled": 0, "fusion_lat": 0.0, "name": "ffd2ca78c35616f8526c6bc4ead4fd80", "fusion_lon": 0.0}, {"is_reserved": 0, "type": "electric_scooter", "bike_id": "bf045d7c7b05959492c2a467d31631de", "lat": 38.901392666666666, "lon": -77.0320825, "rental_uris": {"android": "https://dc.lft.to/lastmile_qr_scan", "ios": "https://dc.lft.to/lastmile_qr_scan"}, "is_disabled": 0, "fusion_lat": 0.0, "name": "bf045d7c7b05959492c2a467d31631de", "fusion_lon": 0.0}, {"is_reserved": 0, "type": "electric_scooter", "bike_id": "30474cf343cf8237fddb2805dd608296", "lat": 38.94077766666667, "lon": -77.02904233333334, "rental_uris": {"android": "https://dc.lft.to/lastmile_qr_scan", "ios": "https://dc.lft.to/lastmile_qr_scan"}, "is_disabled": 0, "fusion_lat": 0.0, "name": "30474cf343cf8237fddb2805dd608296", "fusion_lon": 0.0}, {"is_reserved": 0, "type": "electric_bike", "bike_id": "22ac5fd756e9cf1b23c79b7741e85027", "lat": 38.8456265, "lon": -76.97059366666667, "rental_uris": {"android": "https://dc.lft.to/lastmile_qr_scan", "ios": "https://dc.lft.to/lastmile_qr_scan"}, "is_disabled": 0, "fusion_lat": 0.0, "name": "22ac5fd756e9cf1b23c79b7741e85027", "fusion_lon": 0.0}, {"is_reserved": 0, "type": "electric_scooter", "bike_id": "b0d4e4ac45d082a38531bf96b02c105b", "lat": 38.875984333333335, "lon": -77.00065733333334, "rental_uris": {"android": "https://dc.lft.to/lastmile_qr_scan", "ios": "https://dc.lft.to/lastmile_qr_scan"}, "is_disabled": 0, "fusion_lat": 0.0, "name": "b0d4e4ac45d082a38531bf96b02c105b", "fusion_lon": 0.0}, {"is_reserved": 0, "type": "electric_bike", "bike_id": "68c8c5f829ae1bae1868f78c758d6150", "lat": 38.8381, "lon": -77.09525916666666, "rental_uris": {"android": "https://dc.lft.to/lastmile_qr_scan", "ios": "https://dc.lft.to/lastmile_qr_scan"}, "is_disabled": 0, "fusion_lat": 0.0, "name": "68c8c5f829ae1bae1868f78c758d6150", "fusion_lon": 0.0}, {"is_reserved": 0, "type": "electric_scooter", "bike_id": "f21f01c6e189adae15809e5a6e7792a1", "lat": 38.87616083333333, "lon": -77.01247183333334, "rental_uris": {"android": "https://dc.lft.to/lastmile_qr_scan", "ios": "https://dc.lft.to/lastmile_qr_scan"}, "is_disabled": 0, "fusion_lat": 0.0, "name": "f21f01c6e189adae15809e5a6e7792a1", "fusion_lon": 0.0}, {"is_reserved": 0, "type": "electric_scooter", "bike_id": "0deb96452fd5a71ac9614c35e759fe6f", "lat": 38.911723333333335, "lon": -77.01095266666667, "rental_uris": {"android": "https://dc.lft.to/lastmile_qr_scan", "ios": "https://dc.lft.to/lastmile_qr_scan"}, "is_disabled": 0, "fusion_lat": 0.0, "name": "0deb96452fd5a71ac9614c35e759fe6f", "fusion_lon": 0.0}, {"is_reserved": 0, "type": "electric_scooter", "bike_id": "9a81f394c6270060c66f446fd2cac2d3", "lat": 38.9350335, "lon": -77.02004066666667, "rental_uris": {"android": "https://dc.lft.to/lastmile_qr_scan", "ios": "https://dc.lft.to/lastmile_qr_scan"}, "is_disabled": 0, "fusion_lat": 0.0, "name": "9a81f394c6270060c66f446fd2cac2d3", "fusion_lon": 0.0}, {"is_reserved": 0, "type": "electric_scooter", "bike_id": "a718415cdfd01a2c8a8ed1e5ecc55249", "lat": 38.91477833333333, "lon": -77.018198, "rental_uris": {"android": "https://dc.lft.to/lastmile_qr_scan", "ios": "https://dc.lft.to/lastmile_qr_scan"}, "is_disabled": 0, "fusion_lat": 0.0, "name": "a718415cdfd01a2c8a8ed1e5ecc55249", "fusion_lon": 0.0}, {"is_reserved": 0, "type": "electric_scooter", "bike_id": "a79a5e2690f556f48b1f3c4635d19fa7", "lat": 38.91132433333333, "lon": -76.9846155, "rental_uris": {"android": "https://dc.lft.to/lastmile_qr_scan", "ios": "https://dc.lft.to/lastmile_qr_scan"}, "is_disabled": 0, "fusion_lat": 0.0, "name": "a79a5e2690f556f48b1f3c4635d19fa7", "fusion_lon": 0.0}, {"is_reserved": 0, "type": "electric_bike", "bike_id": "166a3422d778398669d6e7ee1a2f03be", "lat": 38.936634, "lon": -77.03421266666666, "rental_uris": {"android": "https://dc.lft.to/lastmile_qr_scan", "ios": "https://dc.lft.to/lastmile_qr_scan"}, "is_disabled": 0, "fusion_lat": 0.0, "name": "166a3422d778398669d6e7ee1a2f03be", "fusion_lon": 0.0}, {"is_reserved": 0, "type": "electric_scooter", "bike_id": "dfe4c44c59d1238f7a685d11bc59045f", "lat": 38.90844366666666, "lon": -77.0206095, "rental_uris": {"android": "https://dc.lft.to/lastmile_qr_scan", "ios": "https://dc.lft.to/lastmile_qr_scan"}, "is_disabled": 0, "fusion_lat": 0.0, "name": "dfe4c44c59d1238f7a685d11bc59045f", "fusion_lon": 0.0}, {"is_reserved": 0, "type": "electric_scooter", "bike_id": "b7a47524363a4f20d4a2fd65cd0a7f45", "lat": 38.8965335, "lon": -77.0260775, "rental_uris": {"android": "https://dc.lft.to/lastmile_qr_scan", "ios": "https://dc.lft.to/lastmile_qr_scan"}, "is_disabled": 0, "fusion_lat": 0.0, "name": "b7a47524363a4f20d4a2fd65cd0a7f45", "fusion_lon": 0.0}, {"is_reserved": 0, "type": "electric_scooter", "bike_id": "de2efcaf9ae605ee93bd0498e398fea6", "lat": 38.9126705, "lon": -77.0177025, "rental_uris": {"android": "https://dc.lft.to/lastmile_qr_scan", "ios": "https://dc.lft.to/lastmile_qr_scan"}, "is_disabled": 0, "fusion_lat": 0.0, "name": "de2efcaf9ae605ee93bd0498e398fea6", "fusion_lon": 0.0}, {"is_reserved": 0, "type": "electric_scooter", "bike_id": "c126e266dfad108757118f9bd3a712f5", "lat": 38.931033, "lon": -77.02395933333334, "rental_uris": {"android": "https://dc.lft.to/lastmile_qr_scan", "ios": "https://dc.lft.to/lastmile_qr_scan"}, "is_disabled": 0, "fusion_lat": 0.0, "name": "c126e266dfad108757118f9bd3a712f5", "fusion_lon": 0.0}, {"is_reserved": 0, "type": "electric_scooter", "bike_id": "5b1b0e2696ee79850bc56fea2ebba481", "lat": 38.89503283333333, "lon": -76.9347695, "rental_uris": {"android": "https://dc.lft.to/lastmile_qr_scan", "ios": "https://dc.lft.to/lastmile_qr_scan"}, "is_disabled": 0, "fusion_lat": 0.0, "name": "5b1b0e2696ee79850bc56fea2ebba481", "fusion_lon": 0.0}, {"is_reserved": 0, "type": "electric_scooter", "bike_id": "fb588be6a686e1d0663aa71b5e2aae84", "lat": 38.90082133333333, "lon": -76.98002983333333, "rental_uris": {"android": "https://dc.lft.to/lastmile_qr_scan", "ios": "https://dc.lft.to/lastmile_qr_scan"}, "is_disabled": 0, "fusion_lat": 0.0, "name": "fb588be6a686e1d0663aa71b5e2aae84", "fusion_lon": 0.0}, {"is_reserved": 0, "type": "electric_bike", "bike_id": "03131a6733acdb4394763e467e462657", "lat": 38.9733705, "lon": -76.9957605, "rental_uris": {"android": "https://dc.lft.to/lastmile_qr_scan", "ios": "https://dc.lft.to/lastmile_qr_scan"}, "is_disabled": 0, "fusion_lat": 0.0, "name": "03131a6733acdb4394763e467e462657", "fusion_lon": 0.0}, {"is_reserved": 0, "type": "electric_bike", "bike_id": "7e72f0aacc8d647634c014edcb321a68", "lat": 39.042343833333334, "lon": -76.99734283333333, "rental_uris": {"android": "https://dc.lft.to/lastmile_qr_scan", "ios": "https://dc.lft.to/lastmile_qr_scan"}, "is_disabled": 0, "fusion_lat": 0.0, "name": "7e72f0aacc8d647634c014edcb321a68", "fusion_lon": 0.0}, {"is_reserved": 0, "type": "electric_scooter", "bike_id": "204347d9bd994705b270c08746ce23b3", "lat": 38.923698333333334, "lon": -77.02894, "rental_uris": {"android": "https://dc.lft.to/lastmile_qr_scan", "ios": "https://dc.lft.to/lastmile_qr_scan"}, "is_disabled": 0, "fusion_lat": 0.0, "name": "204347d9bd994705b270c08746ce23b3", "fusion_lon": 0.0}, {"is_reserved": 0, "type": "electric_scooter", "bike_id": "977f9cf9d8d5c7ead4864fdb8e552073", "lat": 38.92238233333333, "lon": -77.02124733333333, "rental_uris": {"android": "https://dc.lft.to/lastmile_qr_scan", "ios": "https://dc.lft.to/lastmile_qr_scan"}, "is_disabled": 0, "fusion_lat": 0.0, "name": "977f9cf9d8d5c7ead4864fdb8e552073", "fusion_lon": 0.0}, {"is_reserved": 0, "type": "electric_scooter", "bike_id": "673c803ae0d0cc01a4ee1c11e4e2be17", "lat": 38.91182466666667, "lon": -77.0049495, "rental_uris": {"android": "https://dc.lft.to/lastmile_qr_scan", "ios": "https://dc.lft.to/lastmile_qr_scan"}, "is_disabled": 0, "fusion_lat": 0.0, "name": "673c803ae0d0cc01a4ee1c11e4e2be17", "fusion_lon": 0.0}, {"is_reserved": 0, "type": "electric_scooter", "bike_id": "e2dd967fa5bcd9f7ea2775e2c43976b8", "lat": 38.92566766666667, "lon": -76.97008016666666, "rental_uris": {"android": "https://dc.lft.to/lastmile_qr_scan", "ios": "https://dc.lft.to/lastmile_qr_scan"}, "is_disabled": 0, "fusion_lat": 0.0, "name": "e2dd967fa5bcd9f7ea2775e2c43976b8", "fusion_lon": 0.0}, {"is_reserved": 0, "type": "electric_scooter", "bike_id": "55effca57014813dca173aa90f1c804b", "lat": 38.923306833333335, "lon": -77.036216, "rental_uris": {"android": "https://dc.lft.to/lastmile_qr_scan", "ios": "https://dc.lft.to/lastmile_qr_scan"}, "is_disabled": 0, "fusion_lat": 0.0, "name": "55effca57014813dca173aa90f1c804b", "fusion_lon": 0.0}, {"is_reserved": 0, "type": "electric_bike", "bike_id": "f5a2be2a76d040448e8cf69721842319", "lat": 38.95132566666667, "lon": -76.9659855, "rental_uris": {"android": "https://dc.lft.to/lastmile_qr_scan", "ios": "https://dc.lft.to/lastmile_qr_scan"}, "is_disabled": 0, "fusion_lat": 0.0, "name": "f5a2be2a76d040448e8cf69721842319", "fusion_lon": 0.0}, {"is_reserved": 0, "type": "electric_scooter", "bike_id": "89afdf034da9c1df591f4198862506f8", "lat": 38.899854833333336, "lon": -77.02291133333334, "rental_uris": {"android": "https://dc.lft.to/lastmile_qr_scan", "ios": "https://dc.lft.to/lastmile_qr_scan"}, "is_disabled": 0, "fusion_lat": 0.0, "name": "89afdf034da9c1df591f4198862506f8", "fusion_lon": 0.0}, {"is_reserved": 0, "type": "electric_scooter", "bike_id": "a54bfdea33415a28c29edbe0da50add0", "lat": 38.90036583333333, "lon": -76.99157683333334, "rental_uris": {"android": "https://dc.lft.to/lastmile_qr_scan", "ios": "https://dc.lft.to/lastmile_qr_scan"}, "is_disabled": 0, "fusion_lat": 0.0, "name": "a54bfdea33415a28c29edbe0da50add0", "fusion_lon": 0.0}, {"is_reserved": 0, "type": "electric_scooter", "bike_id": "3d7b55e92eb54735d0b59ca1a19cb83b", "lat": 38.93093483333333, "lon": -77.0344695, "rental_uris": {"android": "https://dc.lft.to/lastmile_qr_scan", "ios": "https://dc.lft.to/lastmile_qr_scan"}, "is_disabled": 0, "fusion_lat": 0.0, "name": "3d7b55e92eb54735d0b59ca1a19cb83b", "fusion_lon": 0.0}, {"is_reserved": 0, "type": "electric_scooter", "bike_id": "253220c818c5e3fc3ee704b8bf378edd", "lat": 38.899307666666665, "lon": -77.0319035, "rental_uris": {"android": "https://dc.lft.to/lastmile_qr_scan", "ios": "https://dc.lft.to/lastmile_qr_scan"}, "is_disabled": 0, "fusion_lat": 0.0, "name": "253220c818c5e3fc3ee704b8bf378edd", "fusion_lon": 0.0}, {"is_reserved": 0, "type": "electric_scooter", "bike_id": "27007cc277e68d955d00cf8bf7162bb3", "lat": 38.892221166666666, "lon": -77.023149, "rental_uris": {"android": "https://dc.lft.to/lastmile_qr_scan", "ios": "https://dc.lft.to/lastmile_qr_scan"}, "is_disabled": 0, "fusion_lat": 0.0, "name": "27007cc277e68d955d00cf8bf7162bb3", "fusion_lon": 0.0}, {"is_reserved": 0, "type": "electric_scooter", "bike_id": "f0cbfd8f27ef0444820c573d39ab55dd", "lat": 38.89360633333333, "lon": -76.94105383333333, "rental_uris": {"android": "https://dc.lft.to/lastmile_qr_scan", "ios": "https://dc.lft.to/lastmile_qr_scan"}, "is_disabled": 0, "fusion_lat": 0.0, "name": "f0cbfd8f27ef0444820c573d39ab55dd", "fusion_lon": 0.0}, {"is_reserved": 0, "type": "electric_scooter", "bike_id": "9462777fc2c33f7b5563bbfd15207346", "lat": 38.92969033333333, "lon": -77.02344233333334, "rental_uris": {"android": "https://dc.lft.to/lastmile_qr_scan", "ios": "https://dc.lft.to/lastmile_qr_scan"}, "is_disabled": 0, "fusion_lat": 0.0, "name": "9462777fc2c33f7b5563bbfd15207346", "fusion_lon": 0.0}, {"is_reserved": 0, "type": "electric_scooter", "bike_id": "4493d83647b79cd42c401fe88d6408c1", "lat": 38.922810166666665, "lon": -76.99773883333333, "rental_uris": {"android": "https://dc.lft.to/lastmile_qr_scan", "ios": "https://dc.lft.to/lastmile_qr_scan"}, "is_disabled": 0, "fusion_lat": 0.0, "name": "4493d83647b79cd42c401fe88d6408c1", "fusion_lon": 0.0}, {"is_reserved": 0, "type": "electric_scooter", "bike_id": "6c9ec497d81e432b9ff40d45f209bf29", "lat": 38.94733333333333, "lon": -77.024623, "rental_uris": {"android": "https://dc.lft.to/lastmile_qr_scan", "ios": "https://dc.lft.to/lastmile_qr_scan"}, "is_disabled": 0, "fusion_lat": 0.0, "name": "6c9ec497d81e432b9ff40d45f209bf29", "fusion_lon": 0.0}, {"is_reserved": 0, "type": "electric_scooter", "bike_id": "d053f9cf4de0c84caa40ff5c6e66892f", "lat": 38.9337095, "lon": -77.0572395, "rental_uris": {"android": "https://dc.lft.to/lastmile_qr_scan", "ios": "https://dc.lft.to/lastmile_qr_scan"}, "is_disabled": 0, "fusion_lat": 0.0, "name": "d053f9cf4de0c84caa40ff5c6e66892f", "fusion_lon": 0.0}, {"is_reserved": 0, "type": "electric_scooter", "bike_id": "9c6599d8bfeabc71c5affda6d1697987", "lat": 38.90065716666667, "lon": -76.9274715, "rental_uris": {"android": "https://dc.lft.to/lastmile_qr_scan", "ios": "https://dc.lft.to/lastmile_qr_scan"}, "is_disabled": 0, "fusion_lat": 0.0, "name": "9c6599d8bfeabc71c5affda6d1697987", "fusion_lon": 0.0}, {"is_reserved": 0, "type": "electric_scooter", "bike_id": "f6c79bc26c9bb05075a888c2af592c7e", "lat": 38.915821333333334, "lon": -77.01232683333333, "rental_uris": {"android": "https://dc.lft.to/lastmile_qr_scan", "ios": "https://dc.lft.to/lastmile_qr_scan"}, "is_disabled": 0, "fusion_lat": 0.0, "name": "f6c79bc26c9bb05075a888c2af592c7e", "fusion_lon": 0.0}, {"is_reserved": 0, "type": "electric_bike", "bike_id": "a62ea413e6cdd5d316030e71ad82866f", "lat": 38.91131383333333, "lon": -77.065725, "rental_uris": {"android": "https://dc.lft.to/lastmile_qr_scan", "ios": "https://dc.lft.to/lastmile_qr_scan"}, "is_disabled": 0, "fusion_lat": 0.0, "name": "a62ea413e6cdd5d316030e71ad82866f", "fusion_lon": 0.0}, {"is_reserved": 0, "type": "electric_scooter", "bike_id": "942aeff9ee5ba5989b4b9315fc391b58", "lat": 38.919887333333335, "lon": -77.02884483333334, "rental_uris": {"android": "https://dc.lft.to/lastmile_qr_scan", "ios": "https://dc.lft.to/lastmile_qr_scan"}, "is_disabled": 0, "fusion_lat": 0.0, "name": "942aeff9ee5ba5989b4b9315fc391b58", "fusion_lon": 0.0}, {"is_reserved": 0, "type": "electric_scooter", "bike_id": "6eaeca17b8e618592fb67d1a71cafd88", "lat": 38.914231, "lon": -77.03817183333334, "rental_uris": {"android": "https://dc.lft.to/lastmile_qr_scan", "ios": "https://dc.lft.to/lastmile_qr_scan"}, "is_disabled": 0, "fusion_lat": 0.0, "name": "6eaeca17b8e618592fb67d1a71cafd88", "fusion_lon": 0.0}, {"is_reserved": 0, "type": "electric_scooter", "bike_id": "da2e1e6fa2255631703d21dbc395d65a", "lat": 38.883953, "lon": -76.98981433333333, "rental_uris": {"android": "https://dc.lft.to/lastmile_qr_scan", "ios": "https://dc.lft.to/lastmile_qr_scan"}, "is_disabled": 0, "fusion_lat": 0.0, "name": "da2e1e6fa2255631703d21dbc395d65a", "fusion_lon": 0.0}, {"is_reserved": 0, "type": "electric_scooter", "bike_id": "3e14b3a645f99d8ec59e6f982fd17563", "lat": 38.94075816666667, "lon": -77.03334183333334, "rental_uris": {"android": "https://dc.lft.to/lastmile_qr_scan", "ios": "https://dc.lft.to/lastmile_qr_scan"}, "is_disabled": 0, "fusion_lat": 0.0, "name": "3e14b3a645f99d8ec59e6f982fd17563", "fusion_lon": 0.0}, {"is_reserved": 0, "type": "electric_scooter", "bike_id": "267774bebb7941a0983139881e143a92", "lat": 38.921048666666664, "lon": -77.01780166666667, "rental_uris": {"android": "https://dc.lft.to/lastmile_qr_scan", "ios": "https://dc.lft.to/lastmile_qr_scan"}, "is_disabled": 0, "fusion_lat": 0.0, "name": "267774bebb7941a0983139881e143a92", "fusion_lon": 0.0}, {"is_reserved": 0, "type": "electric_scooter", "bike_id": "619d0f60ac0e03fe928984e4a9b3b376", "lat": 38.87761016666666, "lon": -76.99421366666667, "rental_uris": {"android": "https://dc.lft.to/lastmile_qr_scan", "ios": "https://dc.lft.to/lastmile_qr_scan"}, "is_disabled": 0, "fusion_lat": 0.0, "name": "619d0f60ac0e03fe928984e4a9b3b376", "fusion_lon": 0.0}, {"is_reserved": 0, "type": "electric_scooter", "bike_id": "a263d3ce82a9f1ed580f4291b7ce2e9d", "lat": 38.94237533333333, "lon": -77.0358495, "rental_uris": {"android": "https://dc.lft.to/lastmile_qr_scan", "ios": "https://dc.lft.to/lastmile_qr_scan"}, "is_disabled": 0, "fusion_lat": 0.0, "name": "a263d3ce82a9f1ed580f4291b7ce2e9d", "fusion_lon": 0.0}, {"is_reserved": 0, "type": "electric_scooter", "bike_id": "b0e3860c5390980a4767f5e057d30ca0", "lat": 38.898847333333336, "lon": -76.93177216666666, "rental_uris": {"android": "https://dc.lft.to/lastmile_qr_scan", "ios": "https://dc.lft.to/lastmile_qr_scan"}, "is_disabled": 0, "fusion_lat": 0.0, "name": "b0e3860c5390980a4767f5e057d30ca0", "fusion_lon": 0.0}, {"is_reserved": 0, "type": "electric_scooter", "bike_id": "a7d0b5564489612086ecb2763b548b69", "lat": 38.885463333333334, "lon": -76.99039733333333, "rental_uris": {"android": "https://dc.lft.to/lastmile_qr_scan", "ios": "https://dc.lft.to/lastmile_qr_scan"}, "is_disabled": 0, "fusion_lat": 0.0, "name": "a7d0b5564489612086ecb2763b548b69", "fusion_lon": 0.0}, {"is_reserved": 0, "type": "electric_scooter", "bike_id": "4675381a5ef4283d138b7a3138298b9f", "lat": 38.91643916666666, "lon": -77.03915266666667, "rental_uris": {"android": "https://dc.lft.to/lastmile_qr_scan", "ios": "https://dc.lft.to/lastmile_qr_scan"}, "is_disabled": 0, "fusion_lat": 0.0, "name": "4675381a5ef4283d138b7a3138298b9f", "fusion_lon": 0.0}, {"is_reserved": 0, "type": "electric_scooter", "bike_id": "f06fbceeff8b93d720b563c7a31bb3e5", "lat": 38.872123333333334, "lon": -77.01353733333333, "rental_uris": {"android": "https://dc.lft.to/lastmile_qr_scan", "ios": "https://dc.lft.to/lastmile_qr_scan"}, "is_disabled": 0, "fusion_lat": 0.0, "name": "f06fbceeff8b93d720b563c7a31bb3e5", "fusion_lon": 0.0}, {"is_reserved": 0, "type": "electric_scooter", "bike_id": "c21e280582ae24c8e9317ebb90c0bfa3", "lat": 38.915533833333335, "lon": -77.03835316666667, "rental_uris": {"android": "https://dc.lft.to/lastmile_qr_scan", "ios": "https://dc.lft.to/lastmile_qr_scan"}, "is_disabled": 0, "fusion_lat": 0.0, "name": "c21e280582ae24c8e9317ebb90c0bfa3", "fusion_lon": 0.0}, {"is_reserved": 0, "type": "electric_scooter", "bike_id": "60951ed7db4923d264701542fe8d1d1e", "lat": 38.905440166666665, "lon": -77.05695883333334, "rental_uris": {"android": "https://dc.lft.to/lastmile_qr_scan", "ios": "https://dc.lft.to/lastmile_qr_scan"}, "is_disabled": 0, "fusion_lat": 0.0, "name": "60951ed7db4923d264701542fe8d1d1e", "fusion_lon": 0.0}, {"is_reserved": 0, "type": "electric_scooter", "bike_id": "8854f3de846a6bfc705414666c8de3aa", "lat": 38.8995045, "lon": -76.97914166666666, "rental_uris": {"android": "https://dc.lft.to/lastmile_qr_scan", "ios": "https://dc.lft.to/lastmile_qr_scan"}, "is_disabled": 0, "fusion_lat": 0.0, "name": "8854f3de846a6bfc705414666c8de3aa", "fusion_lon": 0.0}, {"is_reserved": 0, "type": "electric_scooter", "bike_id": "7aa727a3856f2b698d452b6b63da2b1b", "lat": 38.90930933333333, "lon": -76.99631516666666, "rental_uris": {"android": "https://dc.lft.to/lastmile_qr_scan", "ios": "https://dc.lft.to/lastmile_qr_scan"}, "is_disabled": 0, "fusion_lat": 0.0, "name": "7aa727a3856f2b698d452b6b63da2b1b", "fusion_lon": 0.0}, {"is_reserved": 0, "type": "electric_scooter", "bike_id": "042acd683deb472ed4967f7ca519a0db", "lat": 38.935262, "lon": -77.0194205, "rental_uris": {"android": "https://dc.lft.to/lastmile_qr_scan", "ios": "https://dc.lft.to/lastmile_qr_scan"}, "is_disabled": 0, "fusion_lat": 0.0, "name": "042acd683deb472ed4967f7ca519a0db", "fusion_lon": 0.0}, {"is_reserved": 0, "type": "electric_scooter", "bike_id": "a1250bb81884f7ac67242a48dba5fc97", "lat": 38.9064505, "lon": -76.98384983333334, "rental_uris": {"android": "https://dc.lft.to/lastmile_qr_scan", "ios": "https://dc.lft.to/lastmile_qr_scan"}, "is_disabled": 0, "fusion_lat": 0.0, "name": "a1250bb81884f7ac67242a48dba5fc97", "fusion_lon": 0.0}, {"is_reserved": 0, "type": "electric_scooter", "bike_id": "60cdb20cbbc16f32786dca3cc526d6a7", "lat": 38.88917433333334, "lon": -76.99384, "rental_uris": {"android": "https://dc.lft.to/lastmile_qr_scan", "ios": "https://dc.lft.to/lastmile_qr_scan"}, "is_disabled": 0, "fusion_lat": 0.0, "name": "60cdb20cbbc16f32786dca3cc526d6a7", "fusion_lon": 0.0}, {"is_reserved": 0, "type": "electric_scooter", "bike_id": "e1eae46a44287405dcb290b22593bc7a", "lat": 38.90002616666666, "lon": -77.01189083333334, "rental_uris": {"android": "https://dc.lft.to/lastmile_qr_scan", "ios": "https://dc.lft.to/lastmile_qr_scan"}, "is_disabled": 0, "fusion_lat": 0.0, "name": "e1eae46a44287405dcb290b22593bc7a", "fusion_lon": 0.0}, {"is_reserved": 0, "type": "electric_scooter", "bike_id": "8df32ebbf1c2affca68783fa07531e31", "lat": 38.882032333333335, "lon": -77.0060265, "rental_uris": {"android": "https://dc.lft.to/lastmile_qr_scan", "ios": "https://dc.lft.to/lastmile_qr_scan"}, "is_disabled": 0, "fusion_lat": 0.0, "name": "8df32ebbf1c2affca68783fa07531e31", "fusion_lon": 0.0}, {"is_reserved": 0, "type": "electric_scooter", "bike_id": "db91dcf38308ff9836816f5c407d5f0a", "lat": 38.92291, "lon": -77.03195483333333, "rental_uris": {"android": "https://dc.lft.to/lastmile_qr_scan", "ios": "https://dc.lft.to/lastmile_qr_scan"}, "is_disabled": 0, "fusion_lat": 0.0, "name": "db91dcf38308ff9836816f5c407d5f0a", "fusion_lon": 0.0}, {"is_reserved": 0, "type": "electric_scooter", "bike_id": "5e7b3989241dc4afb2b640895c020a0b", "lat": 38.921103, "lon": -77.0392905, "rental_uris": {"android": "https://dc.lft.to/lastmile_qr_scan", "ios": "https://dc.lft.to/lastmile_qr_scan"}, "is_disabled": 0, "fusion_lat": 0.0, "name": "5e7b3989241dc4afb2b640895c020a0b", "fusion_lon": 0.0}, {"is_reserved": 0, "type": "electric_scooter", "bike_id": "d2c0f2eb984ca4ef2ba34e2b78dc03c7", "lat": 38.89644916666666, "lon": -77.03311333333333, "rental_uris": {"android": "https://dc.lft.to/lastmile_qr_scan", "ios": "https://dc.lft.to/lastmile_qr_scan"}, "is_disabled": 0, "fusion_lat": 0.0, "name": "d2c0f2eb984ca4ef2ba34e2b78dc03c7", "fusion_lon": 0.0}, {"is_reserved": 0, "type": "electric_scooter", "bike_id": "8f682054970bb474aa99ff68e5985805", "lat": 38.959558666666666, "lon": -77.07262566666667, "rental_uris": {"android": "https://dc.lft.to/lastmile_qr_scan", "ios": "https://dc.lft.to/lastmile_qr_scan"}, "is_disabled": 0, "fusion_lat": 0.0, "name": "8f682054970bb474aa99ff68e5985805", "fusion_lon": 0.0}, {"is_reserved": 0, "type": "electric_scooter", "bike_id": "77ca4000b3d944826b04b83b4342d3d8", "lat": 38.932995, "lon": -77.03883983333333, "rental_uris": {"android": "https://dc.lft.to/lastmile_qr_scan", "ios": "https://dc.lft.to/lastmile_qr_scan"}, "is_disabled": 0, "fusion_lat": 0.0, "name": "77ca4000b3d944826b04b83b4342d3d8", "fusion_lon": 0.0}, {"is_reserved": 0, "type": "electric_scooter", "bike_id": "c3d3957afb27d3cbc2a0c24690e9e337", "lat": 38.8998135, "lon": -77.02633333333333, "rental_uris": {"android": "https://dc.lft.to/lastmile_qr_scan", "ios": "https://dc.lft.to/lastmile_qr_scan"}, "is_disabled": 0, "fusion_lat": 0.0, "name": "c3d3957afb27d3cbc2a0c24690e9e337", "fusion_lon": 0.0}, {"is_reserved": 0, "type": "electric_scooter", "bike_id": "697603adaedce7731b1773ea2eda370a", "lat": 38.905627333333335, "lon": -76.98145533333333, "rental_uris": {"android": "https://dc.lft.to/lastmile_qr_scan", "ios": "https://dc.lft.to/lastmile_qr_scan"}, "is_disabled": 0, "fusion_lat": 0.0, "name": "697603adaedce7731b1773ea2eda370a", "fusion_lon": 0.0}, {"is_reserved": 0, "type": "electric_scooter", "bike_id": "8ba2e8ed97ca991280fda997df0775f6", "lat": 38.9185205, "lon": -77.04529566666666, "rental_uris": {"android": "https://dc.lft.to/lastmile_qr_scan", "ios": "https://dc.lft.to/lastmile_qr_scan"}, "is_disabled": 0, "fusion_lat": 0.0, "name": "8ba2e8ed97ca991280fda997df0775f6", "fusion_lon": 0.0}, {"is_reserved": 0, "type": "electric_scooter", "bike_id": "d5d7d10d7c911aed16fd0588b0a4dca5", "lat": 38.9218675, "lon": -76.99625383333333, "rental_uris": {"android": "https://dc.lft.to/lastmile_qr_scan", "ios": "https://dc.lft.to/lastmile_qr_scan"}, "is_disabled": 0, "fusion_lat": 0.0, "name": "d5d7d10d7c911aed16fd0588b0a4dca5", "fusion_lon": 0.0}, {"is_reserved": 0, "type": "electric_scooter", "bike_id": "df05f5ea31fa8131bb646e406f9b2f40", "lat": 38.9056665, "lon": -77.026544, "rental_uris": {"android": "https://dc.lft.to/lastmile_qr_scan", "ios": "https://dc.lft.to/lastmile_qr_scan"}, "is_disabled": 0, "fusion_lat": 0.0, "name": "df05f5ea31fa8131bb646e406f9b2f40", "fusion_lon": 0.0}, {"is_reserved": 0, "type": "electric_bike", "bike_id": "6649a969595ddd9bde39ede113cfbc6e", "lat": 38.8493855, "lon": -77.11755433333333, "rental_uris": {"android": "https://dc.lft.to/lastmile_qr_scan", "ios": "https://dc.lft.to/lastmile_qr_scan"}, "is_disabled": 0, "fusion_lat": 0.0, "name": "6649a969595ddd9bde39ede113cfbc6e", "fusion_lon": 0.0}, {"is_reserved": 0, "type": "electric_scooter", "bike_id": "1132a17af42b3b68ecf787280bae5e01", "lat": 38.91694716666667, "lon": -77.0257305, "rental_uris": {"android": "https://dc.lft.to/lastmile_qr_scan", "ios": "https://dc.lft.to/lastmile_qr_scan"}, "is_disabled": 0, "fusion_lat": 0.0, "name": "1132a17af42b3b68ecf787280bae5e01", "fusion_lon": 0.0}, {"is_reserved": 0, "type": "electric_scooter", "bike_id": "11c13f985ea5740f219e04fdc1420004", "lat": 38.91289666666667, "lon": -77.04749816666667, "rental_uris": {"android": "https://dc.lft.to/lastmile_qr_scan", "ios": "https://dc.lft.to/lastmile_qr_scan"}, "is_disabled": 0, "fusion_lat": 0.0, "name": "11c13f985ea5740f219e04fdc1420004", "fusion_lon": 0.0}, {"is_reserved": 0, "type": "electric_scooter", "bike_id": "18135265a630ec0084330a9ec99e841f", "lat": 38.92027916666667, "lon": -77.01723183333333, "rental_uris": {"android": "https://dc.lft.to/lastmile_qr_scan", "ios": "https://dc.lft.to/lastmile_qr_scan"}, "is_disabled": 0, "fusion_lat": 0.0, "name": "18135265a630ec0084330a9ec99e841f", "fusion_lon": 0.0}, {"is_reserved": 0, "type": "electric_scooter", "bike_id": "7c88539bf1f133cfda12fda08873b7e3", "lat": 38.90569433333334, "lon": -77.04189866666667, "rental_uris": {"android": "https://dc.lft.to/lastmile_qr_scan", "ios": "https://dc.lft.to/lastmile_qr_scan"}, "is_disabled": 0, "fusion_lat": 0.0, "name": "7c88539bf1f133cfda12fda08873b7e3", "fusion_lon": 0.0}, {"is_reserved": 0, "type": "electric_scooter", "bike_id": "971bcc270c5f8fb360c869f44dde71ae", "lat": 38.926771333333335, "lon": -77.00732916666666, "rental_uris": {"android": "https://dc.lft.to/lastmile_qr_scan", "ios": "https://dc.lft.to/lastmile_qr_scan"}, "is_disabled": 0, "fusion_lat": 0.0, "name": "971bcc270c5f8fb360c869f44dde71ae", "fusion_lon": 0.0}, {"is_reserved": 0, "type": "electric_scooter", "bike_id": "2fc11e7b295c4a582bb1b8db99566a8a", "lat": 38.92698766666667, "lon": -77.02077966666667, "rental_uris": {"android": "https://dc.lft.to/lastmile_qr_scan", "ios": "https://dc.lft.to/lastmile_qr_scan"}, "is_disabled": 0, "fusion_lat": 0.0, "name": "2fc11e7b295c4a582bb1b8db99566a8a", "fusion_lon": 0.0}, {"is_reserved": 0, "type": "electric_scooter", "bike_id": "e0c5d6bdb34fe2e2189443f1e9f7b5db", "lat": 38.92151233333333, "lon": -77.03359566666667, "rental_uris": {"android": "https://dc.lft.to/lastmile_qr_scan", "ios": "https://dc.lft.to/lastmile_qr_scan"}, "is_disabled": 0, "fusion_lat": 0.0, "name": "e0c5d6bdb34fe2e2189443f1e9f7b5db", "fusion_lon": 0.0}, {"is_reserved": 0, "type": "electric_scooter", "bike_id": "8f32de4237cc86314d476e5f51054689", "lat": 38.89545583333334, "lon": -76.9833805, "rental_uris": {"android": "https://dc.lft.to/lastmile_qr_scan", "ios": "https://dc.lft.to/lastmile_qr_scan"}, "is_disabled": 0, "fusion_lat": 0.0, "name": "8f32de4237cc86314d476e5f51054689", "fusion_lon": 0.0}, {"is_reserved": 0, "type": "electric_scooter", "bike_id": "b9a3fb833af01de1c62654ffdd9a220c", "lat": 38.90480516666667, "lon": -77.00695933333333, "rental_uris": {"android": "https://dc.lft.to/lastmile_qr_scan", "ios": "https://dc.lft.to/lastmile_qr_scan"}, "is_disabled": 0, "fusion_lat": 0.0, "name": "b9a3fb833af01de1c62654ffdd9a220c", "fusion_lon": 0.0}, {"is_reserved": 0, "type": "electric_scooter", "bike_id": "06af1871d272f6d8678bab4873f2e910", "lat": 38.94011366666667, "lon": -77.01905683333334, "rental_uris": {"android": "https://dc.lft.to/lastmile_qr_scan", "ios": "https://dc.lft.to/lastmile_qr_scan"}, "is_disabled": 0, "fusion_lat": 0.0, "name": "06af1871d272f6d8678bab4873f2e910", "fusion_lon": 0.0}, {"is_reserved": 0, "type": "electric_scooter", "bike_id": "24615ea22ed93a91ecf8a91c064ca666", "lat": 38.908590333333336, "lon": -77.0465785, "rental_uris": {"android": "https://dc.lft.to/lastmile_qr_scan", "ios": "https://dc.lft.to/lastmile_qr_scan"}, "is_disabled": 0, "fusion_lat": 0.0, "name": "24615ea22ed93a91ecf8a91c064ca666", "fusion_lon": 0.0}, {"is_reserved": 0, "type": "electric_scooter", "bike_id": "2776bd4fa2ed0f7211b8a6eae330c966", "lat": 38.922436, "lon": -77.0352755, "rental_uris": {"android": "https://dc.lft.to/lastmile_qr_scan", "ios": "https://dc.lft.to/lastmile_qr_scan"}, "is_disabled": 0, "fusion_lat": 0.0, "name": "2776bd4fa2ed0f7211b8a6eae330c966", "fusion_lon": 0.0}, {"is_reserved": 0, "type": "electric_scooter", "bike_id": "64a604ad879d2f171e673eb2aacf489c", "lat": 38.923123333333336, "lon": -77.03713316666666, "rental_uris": {"android": "https://dc.lft.to/lastmile_qr_scan", "ios": "https://dc.lft.to/lastmile_qr_scan"}, "is_disabled": 0, "fusion_lat": 0.0, "name": "64a604ad879d2f171e673eb2aacf489c", "fusion_lon": 0.0}, {"is_reserved": 0, "type": "electric_scooter", "bike_id": "f1245a14d680248bbf8e970fd7ca491c", "lat": 38.90355266666667, "lon": -77.02202283333334, "rental_uris": {"android": "https://dc.lft.to/lastmile_qr_scan", "ios": "https://dc.lft.to/lastmile_qr_scan"}, "is_disabled": 0, "fusion_lat": 0.0, "name": "f1245a14d680248bbf8e970fd7ca491c", "fusion_lon": 0.0},