{"data": {"bikes": [{"fusion_lon": 0.0, "name": "87cfe3433264d00432f5936bc17e1c40", "rental_uris": {"android": "https://dc.lft.to/lastmile_qr_scan", "ios": "https://dc.lft.to/lastmile_qr_scan"}, "lat": 38.926461833333335, "bike_id": "87cfe3433264d00432f5936bc17e1c40", "is_disabled": 0, "lon": -77.040589, "is_reserved": 0, "fusion_lat": 0.0, "type": "electric_scooter"}, {"fusion_lon": 0.0, "name": "9c03095627d7db78a1bed4c812bab947", "rental_uris": {"android": "https://dc.lft.to/lastmile_qr_scan", "ios": "https://dc.lft.to/lastmile_qr_scan"}, "lat": 38.875999, "bike_id": "9c03095627d7db78a1bed4c812bab947", "is_disabled": 0, "lon": -77.00580716666667, "is_reserved": 0, "fusion_lat": 0.0, "type": "electric_scooter"}, {"fusion_lon": 0.0, "name": "d0a895e5e99fcadccc813e22a094bcf2", "rental_uris": {"android": "https://dc.lft.to/lastmile_qr_scan", "ios": "https://dc.lft.to/lastmile_qr_scan"}, "lat": 38.8988205, "bike_id": "d0a895e5e99fcadccc813e22a094bcf2", "is_disabled": 0, "lon": -76.9883765, "is_reserved": 0, "fusion_lat": 0.0, "type": "electric_scooter"}, {"fusion_lon": 0.0, "name": "ee0e656210a6f701f6bc289f93484b0c", "rental_uris": {"android": "https://dc.lft.to/lastmile_qr_scan", "ios": "https://dc.lft.to/lastmile_qr_scan"}, "lat": 38.8788825, "bike_id": "ee0e656210a6f701f6bc289f93484b0c", "is_disabled": 0, "lon": -77.022068, "is_reserved": 0, "fusion_lat": 0.0, "type": "electric_scooter"}, {"fusion_lon": 0.0, "name": "654a0976a94a18db7026d4ac48804d98", "rental_uris": {"android": "https://dc.lft.to/lastmile_qr_scan", "ios": "https://dc.lft.to/lastmile_qr_scan"}, "lat": 38.92661666666667, "bike_id": "654a0976a94a18db7026d4ac48804d98", "is_disabled": 0, "lon": -77.03028466666666, "is_reserved": 0, "fusion_lat": 0.0, "type": "electric_scooter"}, {"fusion_lon": 0.0, "name": "e1eeb4fa8ad4b042659a9f178175c673", "rental_uris": {"android": "https://dc.lft.to/lastmile_qr_scan", "ios": "https://dc.lft.to/lastmile_qr_scan"}, "lat": 38.91692666666667, "bike_id": "e1eeb4fa8ad4b042659a9f178175c673", "is_disabled": 0, "lon": -77.03111833333334, "is_reserved": 0, "fusion_lat": 0.0, "type": "electric_scooter"}, {"fusion_lon": 0.0, "name": "29d8e3bd4ee5c662fbe29f1f8cf36454", "rental_uris": {"android": "https://dc.lft.to/lastmile_qr_scan", "ios": "https://dc.lft.to/lastmile_qr_scan"}, "lat": 38.905156166666664, "bike_id": "29d8e3bd4ee5c662fbe29f1f8cf36454", "is_disabled": 0, "lon": -77.002094, "is_reserved": 0, "fusion_lat": 0.0, "type": "electric_scooter"}, {"fusion_lon": 0.0, "name": "822e94bc44e1bfccd41027ffcc942638", "rental_uris": {"android": "https://dc.lft.to/lastmile_qr_scan", "ios": "https://dc.lft.to/lastmile_qr_scan"}, "lat": 38.892236, "bike_id": "822e94bc44e1bfccd41027ffcc942638", "is_disabled": 0, "lon": -77.01724166666666, "is_reserved": 0, "fusion_lat": 0.0, "type": "electric_scooter"}, {"fusion_lon": 0.0, "name": "92d5585df28753fe2ed204bf680f0368", "rental_uris": {"android": "https://dc.lft.to/lastmile_qr_scan", "ios": "https://dc.lft.to/lastmile_qr_scan"}, "lat": 38.926010166666664, "bike_id": "92d5585df28753fe2ed204bf680f0368", "is_disabled": 0, "lon": -77.02156166666667, "is_reserved": 0, "fusion_lat": 0.0, "type": "electric_scooter"}, {"fusion_lon": 0.0, "name": "ba62d5bff570daf1d98f7b489f471aa7", "rental_uris": {"android": "https://dc.lft.to/lastmile_qr_scan", "ios": "https://dc.lft.to/lastmile_qr_scan"}, "lat": 38.90889283333333, "bike_id": "ba62d5bff570daf1d98f7b489f471aa7", "is_disabled": 0, "lon": -76.99136466666667, "is_reserved": 0, "fusion_lat": 0.0, "type": "electric_scooter"}, {"fusion_lon": 0.0, "name": "d9e06ae5e0a2db3111b5c428b455ce38", "rental_uris": {"android": "https://dc.lft.to/lastmile_qr_scan", "ios": "https://dc.lft.to/lastmile_qr_scan"}, "lat": 38.89499433333334, "bike_id": "d9e06ae5e0a2db3111b5c428b455ce38", "is_disabled": 0, "lon": -77.00212216666667, "is_reserved": 0, "fusion_lat": 0.0, "type": "electric_scooter"}, {"fusion_lon": 0.0, "name": "deeb5ea6be047c76ec082ba6f55ae537", "rental_uris": {"android": "https://dc.lft.to/lastmile_qr_scan", "ios": "https://dc.lft.to/lastmile_qr_scan"}, "lat": 38.900129, "bike_id": "deeb5ea6be047c76ec082ba6f55ae537", "is_disabled": 0, "lon": -76.9302695, "is_reserved": 0, "fusion_lat": 0.0, "type": "electric_scooter"}, {"fusion_lon": 0.0, "name": "f314e2d8c5c9d6c7bfa79eb723ffadbe", "rental_uris": {"android": "https://dc.lft.to/lastmile_qr_scan", "ios": "https://dc.lft.to/lastmile_qr_scan"}, "lat": 38.893030833333334, "bike_id": "f314e2d8c5c9d6c7bfa79eb723ffadbe", "is_disabled": 0, "lon": -76.92983433333333, "is_reserved": 0, "fusion_lat": 0.0, "type": "electric_scooter"}, {"fusion_lon": 0.0, "name": "c2e9cc6e29ed7c531943f09d75d47e93", "rental_uris": {"android": "https://dc.lft.to/lastmile_qr_scan", "ios": "https://dc.lft.to/lastmile_qr_scan"}, "lat": 38.9002555, "bike_id": "c2e9cc6e29ed7c531943f09d75d47e93", "is_disabled": 0, "lon": -77.00186666666667, "is_reserved": 0, "fusion_lat": 0.0, "type": "electric_scooter"}, {"fusion_lon": 0.0, "name": "674bdfaeccc90f1f69cb79f829e1cfce", "rental_uris": {"android": "https://dc.lft.to/lastmile_qr_scan", "ios": "https://dc.lft.to/lastmile_qr_scan"}, "lat": 38.88818233333333, "bike_id": "674bdfaeccc90f1f69cb79f829e1cfce", "is_disabled": 0, "lon": -76.977001, "is_reserved": 0, "fusion_lat": 0.0, "type": "electric_scooter"}, {"fusion_lon": 0.0, "name": "8e211a23a88190a63447d60d3de26172", "rental_uris": {"android": "https://dc.lft.to/lastmile_qr_scan", "ios": "https://dc.lft.to/lastmile_qr_scan"}, "lat": 38.92613433333333, "bike_id": "8e211a23a88190a63447d60d3de26172", "is_disabled": 0, "lon": -77.0216405, "is_reserved": 0, "fusion_lat": 0.0, "type": "electric_scooter"}, {"fusion_lon": 0.0, "name": "627dcf3edaa4019e4843289df3a07dc0", "rental_uris": {"android": "https://dc.lft.to/lastmile_qr_scan", "ios": "https://dc.lft.to/lastmile_qr_scan"}, "lat": 38.928820333333334, "bike_id": "627dcf3edaa4019e4843289df3a07dc0", "is_disabled": 0, "lon": -77.026021, "is_reserved": 0, "fusion_lat": 0.0, "type": "electric_scooter"}, {"fusion_lon": 0.0, "name": "c4a892bb56dbe995b25e6df607583b5f", "rental_uris": {"android": "https://dc.lft.to/lastmile_qr_scan", "ios": "https://dc.lft.to/lastmile_qr_scan"}, "lat": 38.916259, "bike_id": "c4a892bb56dbe995b25e6df607583b5f", "is_disabled": 0, "lon": -77.00192383333334, "is_reserved": 0, "fusion_lat": 0.0, "type": "electric_scooter"}, {"fusion_lon": 0.0, "name": "c1eb34d5d6cc1c5ffe52f1c1e1c31ae8", "rental_uris": {"android": "https://dc.lft.to/lastmile_qr_scan", "ios": "https://dc.lft.to/lastmile_qr_scan"}, "lat": 38.90834783333333, "bike_id": "c1eb34d5d6cc1c5ffe52f1c1e1c31ae8", "is_disabled": 0, "lon": -77.03839383333333, "is_reserved": 0, "fusion_lat": 0.0, "type": "electric_scooter"}, {"fusion_lon": 0.0, "name": "67285796599d33abf33a2ed84d2f9cb5", "rental_uris": {"android": "https://dc.lft.to/lastmile_qr_scan", "ios": "https://dc.lft.to/lastmile_qr_scan"}, "lat": 38.90725916666667, "bike_id": "67285796599d33abf33a2ed84d2f9cb5", "is_disabled": 0, "lon": -77.02982633333333, "is_reserved": 0, "fusion_lat": 0.0, "type": "electric_scooter"}, {"fusion_lon": 0.0, "name": "a4d004be6d4bbf21574cb45a58e12edc", "rental_uris": {"android": "https://dc.lft.to/lastmile_qr_scan", "ios": "https://dc.lft.to/lastmile_qr_scan"}, "lat": 38.92126716666667, "bike_id": "a4d004be6d4bbf21574cb45a58e12edc", "is_disabled": 0, "lon": -77.02167783333333, "is_reserved": 0, "fusion_lat": 0.0, "type": "electric_scooter"}, {"fusion_lon": 0.0, "name": "f83ef92be1d5f22410253cacb92c09c1", "rental_uris": {"android": "https://dc.lft.to/lastmile_qr_scan", "ios": "https://dc.lft.to/lastmile_qr_scan"}, "lat": 38.917577666666666, "bike_id": "f83ef92be1d5f22410253cacb92c09c1", "is_disabled": 0, "lon": -77.01213766666666, "is_reserved": 0, "fusion_lat": 0.0, "type": "electric_scooter"}, {"fusion_lon": 0.0, "name": "e5efcfed28d59129e9295dcce52d98e7", "rental_uris": {"android": "https://dc.lft.to/lastmile_qr_scan", "ios": "https://dc.lft.to/lastmile_qr_scan"}, "lat": 38.915586833333336, "bike_id": "e5efcfed28d59129e9295dcce52d98e7", "is_disabled": 0, "lon": -77.03666, "is_reserved": 0, "fusion_lat": 0.0, "type": "electric_scooter"}, {"fusion_lon": 0.0, "name": "a0734d181e060f05377dc82bf56df257", "rental_uris": {"android": "https://dc.lft.to/lastmile_qr_scan", "ios": "https://dc.lft.to/lastmile_qr_scan"}, "lat": 38.90194183333333, "bike_id": "a0734d181e060f05377dc82bf56df257", "is_disabled": 0, "lon": -77.02168416666666, "is_reserved": 0, "fusion_lat": 0.0, "type": "electric_scooter"}, {"fusion_lon": 0.0, "name": "af5bd97a4783272eb755893338ec46d8", "rental_uris": {"android": "https://dc.lft.to/lastmile_qr_scan", "ios": "https://dc.lft.to/lastmile_qr_scan"}, "lat": 38.90611366666667, "bike_id": "af5bd97a4783272eb755893338ec46d8", "is_disabled": 0, "lon": -77.04127633333333, "is_reserved": 0, "fusion_lat": 0.0, "type": "electric_scooter"}, {"fusion_lon": 0.0, "name": "041cb4faeb6f5b244e90b221ac42fb72", "rental_uris": {"android": "https://dc.lft.to/lastmile_qr_scan", "ios": "https://dc.lft.to/lastmile_qr_scan"}, "lat": 38.89169033333334, "bike_id": "041cb4faeb6f5b244e90b221ac42fb72", "is_disabled": 0, "lon": -77.01554783333333, "is_reserved": 0, "fusion_lat": 0.0, "type": "electric_scooter"}, {"fusion_lon": 0.0, "name": "ba9fdf868cf009caa0d84af3a9cf8cf2", "rental_uris": {"android": "https://dc.lft.to/lastmile_qr_scan", "ios": "https://dc.lft.to/lastmile_qr_scan"}, "lat": 38.908286, "bike_id": "ba9fdf868cf009caa0d84af3a9cf8cf2", "is_disabled": 0, "lon": -76.9415665, "is_reserved": 0, "fusion_lat": 0.0, "type": "electric_bike"}, {"fusion_lon": 0.0, "name": "3214d3ee1fa1ba9a3a7b95913c140212", "rental_uris": {"android": "https://dc.lft.to/lastmile_qr_scan", "ios": "https://dc.lft.to/lastmile_qr_scan"}, "lat": 38.89227783333333, "bike_id": "3214d3ee1fa1ba9a3a7b95913c140212", "is_disabled": 0, "lon": -77.0500375, "is_reserved": 0, "fusion_lat": 0.0, "type": "electric_scooter"}, {"fusion_lon": 0.0, "name": "c6c75ca23c0376eacc33f9e80984e898", "rental_uris": {"android": "https://dc.lft.to/lastmile_qr_scan", "ios": "https://dc.lft.to/lastmile_qr_scan"}, "lat": 38.924879, "bike_id": "c6c75ca23c0376eacc33f9e80984e898", "is_disabled": 0, "lon": -77.00891933333334, "is_reserved": 0, "fusion_lat": 0.0, "type": "electric_scooter"}, {"fusion_lon": 0.0, "name": "505a9a1a88a43accecdcba479fa1a906", "rental_uris": {"android": "https://dc.lft.to/lastmile_qr_scan", "ios": "https://dc.lft.to/lastmile_qr_scan"}, "lat": 38.922329166666664, "bike_id": "505a9a1a88a43accecdcba479fa1a906", "is_disabled": 0, "lon": -77.021496, "is_reserved": 0, "fusion_lat": 0.0, "type": "electric_scooter"}, {"fusion_lon": 0.0, "name": "6a82c00aeb34d8e6badd14eba706bd3c", "rental_uris": {"android": "https://dc.lft.to/lastmile_qr_scan", "ios": "https://dc.lft.to/lastmile_qr_scan"}, "lat": 38.891957833333336, "bike_id": "6a82c00aeb34d8e6badd14eba706bd3c", "is_disabled": 0, "lon": -76.9581275, "is_reserved": 0, "fusion_lat": 0.0, "type": "electric_scooter"}, {"fusion_lon": 0.0, "name": "77a8b9509860dbd93891ceef486de992", "rental_uris": {"android": "https://dc.lft.to/lastmile_qr_scan", "ios": "https://dc.lft.to/lastmile_qr_scan"}, "lat": 38.9111725, "bike_id": "77a8b9509860dbd93891ceef486de992", "is_disabled": 0, "lon": -77.04237133333334, "is_reserved": 0, "fusion_lat": 0.0, "type": "electric_scooter"}, {"fusion_lon": 0.0, "name": "d444e7ef07796675893ca17c6eb4ba3e", "rental_uris": {"android": "https://dc.lft.to/lastmile_qr_scan", "ios": "https://dc.lft.to/lastmile_qr_scan"}, "lat": 38.90242883333333, "bike_id": "d444e7ef07796675893ca17c6eb4ba3e", "is_disabled": 0, "lon": -77.01738183333333, "is_reserved": 0, "fusion_lat": 0.0, "type": "electric_scooter"}, {"fusion_lon": 0.0, "name": "c336e513679782bcd894c8310c8a02ab", "rental_uris": {"android": "https://dc.lft.to/lastmile_qr_scan", "ios": "https://dc.lft.to/lastmile_qr_scan"}, "lat": 38.90265683333333, "bike_id": "c336e513679782bcd894c8310c8a02ab", "is_disabled": 0, "lon": -77.00326383333334, "is_reserved": 0, "fusion_lat": 0.0, "type": "electric_scooter"}, {"fusion_lon": 0.0, "name": "665edb905b228f2aac230d219c773087", "rental_uris": {"android": "https://dc.lft.to/lastmile_qr_scan", "ios": "https://dc.lft.to/lastmile_qr_scan"}, "lat": 38.920536166666665, "bike_id": "665edb905b228f2aac230d219c773087", "is_disabled": 0, "lon": -77.04183116666667, "is_reserved": 0, "fusion_lat": 0.0, "type": "electric_scooter"}, {"fusion_lon": 0.0, "name": "ea306420b37bcb3c934b92ab3257296a", "rental_uris": {"android": "https://dc.lft.to/lastmile_qr_scan", "ios": "https://dc.lft.to/lastmile_qr_scan"}, "lat": 38.883724, "bike_id": "ea306420b37bcb3c934b92ab3257296a", "is_disabled": 0, "lon": -76.924217, "is_reserved": 0, "fusion_lat": 0.0, "type": "electric_scooter"}, {"fusion_lon": 0.0, "name": "7f30e31557a971faa4e3d6b3d5a63060", "rental_uris": {"android": "https://dc.lft.to/lastmile_qr_scan", "ios": "https://dc.lft.to/lastmile_qr_scan"}, "lat": 38.928765, "bike_id": "7f30e31557a971faa4e3d6b3d5a63060", "is_disabled": 0, "lon": -77.0333385, "is_reserved": 0, "fusion_lat": 0.0, "type": "electric_scooter"}, {"fusion_lon": 0.0, "name": "09a567541d602c58ec771aa870637924", "rental_uris": {"android": "https://dc.lft.to/lastmile_qr_scan", "ios": "https://dc.lft.to/lastmile_qr_scan"}, "lat": 38.908383666666666, "bike_id": "09a567541d602c58ec771aa870637924", "is_disabled": 0, "lon": -77.07305816666667, "is_reserved": 0, "fusion_lat": 0.0, "type": "electric_scooter"}, {"fusion_lon": 0.0, "name": "12cd67d7b7eef84f5ae236e00653223f", "rental_uris": {"android": "https://dc.lft.to/lastmile_qr_scan", "ios": "https://dc.lft.to/lastmile_qr_scan"}, "lat": 38.92360933333333, "bike_id": "12cd67d7b7eef84f5ae236e00653223f", "is_disabled": 0, "lon": -77.05051933333333, "is_reserved": 0, "fusion_lat": 0.0, "type": "electric_scooter"}, {"fusion_lon": 0.0, "name": "1a0dfd1ed1a3b42fbffafa44c146d8c4", "rental_uris": {"android": "https://dc.lft.to/lastmile_qr_scan", "ios": "https://dc.lft.to/lastmile_qr_scan"}, "lat": 38.9149185, "bike_id": "1a0dfd1ed1a3b42fbffafa44c146d8c4", "is_disabled": 0, "lon": -77.02175, "is_reserved": 0, "fusion_lat": 0.0, "type": "electric_scooter"}, {"fusion_lon": 0.0, "name": "b8ce9d97f1383d4f135e2d3f85d4c98f", "rental_uris": {"android": "https://dc.lft.to/lastmile_qr_scan", "ios": "https://dc.lft.to/lastmile_qr_scan"}, "lat": 38.9233475, "bike_id": "b8ce9d97f1383d4f135e2d3f85d4c98f", "is_disabled": 0, "lon": -77.03613433333334, "is_reserved": 0, "fusion_lat": 0.0, "type": "electric_scooter"}, {"fusion_lon": 0.0, "name": "d57410333e84fb51e1f6ae65feb203a5", "rental_uris": {"android": "https://dc.lft.to/lastmile_qr_scan", "ios": "https://dc.lft.to/lastmile_qr_scan"}, "lat": 38.905714833333334, "bike_id": "d57410333e84fb51e1f6ae65feb203a5", "is_disabled": 0, "lon": -77.0218325, "is_reserved": 0, "fusion_lat": 0.0, "type": "electric_scooter"}, {"fusion_lon": 0.0, "name": "9844e09ef7acb8225569b9b06e54bd8d", "rental_uris": {"android": "https://dc.lft.to/lastmile_qr_scan", "ios": "https://dc.lft.to/lastmile_qr_scan"}, "lat": 38.96610716666667, "bike_id": "9844e09ef7acb8225569b9b06e54bd8d", "is_disabled": 0, "lon": -77.02289716666667, "is_reserved": 0, "fusion_lat": 0.0, "type": "electric_scooter"}, {"fusion_lon": 0.0, "name": "1095c82520941f88be9b254b6bab861b", "rental_uris": {"android": "https://dc.lft.to/lastmile_qr_scan", "ios": "https://dc.lft.to/lastmile_qr_scan"}, "lat": 38.928733666666666, "bike_id": "1095c82520941f88be9b254b6bab861b", "is_disabled": 0, "lon": -77.0334505, "is_reserved": 0, "fusion_lat": 0.0, "type": "electric_scooter"}, {"fusion_lon": 0.0, "name": "c9fe79ccbd9a0233937687142784db4a", "rental_uris": {"android": "https://dc.lft.to/lastmile_qr_scan", "ios": "https://dc.lft.to/lastmile_qr_scan"}, "lat": 38.928761333333334, "bike_id": "c9fe79ccbd9a0233937687142784db4a", "is_disabled": 0, "lon": -77.01232283333333, "is_reserved": 0, "fusion_lat": 0.0, "type": "electric_scooter"}, {"fusion_lon": 0.0, "name": "c62c7d32ff661a436556768f50070c5b", "rental_uris": {"android": "https://dc.lft.to/lastmile_qr_scan", "ios": "https://dc.lft.to/lastmile_qr_scan"}, "lat": 38.99225833333333, "bike_id": "c62c7d32ff661a436556768f50070c5b", "is_disabled": 0, "lon": -77.0238175, "is_reserved": 0, "fusion_lat": 0.0, "type": "electric_bike"}, {"fusion_lon": 0.0, "name": "b645143812ef3ee552cdd9c109a4b49d", "rental_uris": {"android": "https://dc.lft.to/lastmile_qr_scan", "ios": "https://dc.lft.to/lastmile_qr_scan"}, "lat": 38.920685166666665, "bike_id": "b645143812ef3ee552cdd9c109a4b49d", "is_disabled": 0, "lon": -77.0232245, "is_reserved": 0, "fusion_lat": 0.0, "type": "electric_scooter"}, {"fusion_lon": 0.0, "name": "c4e6ddb83c4e4695c881ef9878cefad8", "rental_uris": {"android": "https://dc.lft.to/lastmile_qr_scan", "ios": "https://dc.lft.to/lastmile_qr_scan"}, "lat": 38.8953775, "bike_id": "c4e6ddb83c4e4695c881ef9878cefad8", "is_disabled": 0, "lon": -77.01201416666666, "is_reserved": 0, "fusion_lat": 0.0, "type": "electric_scooter"}, {"fusion_lon": 0.0, "name": "464c1585f0a17a60c16e626c0543d505", "rental_uris": {"android": "https://dc.lft.to/lastmile_qr_scan", "ios": "https://dc.lft.to/lastmile_qr_scan"}, "lat": 38.8578535, "bike_id": "464c1585f0a17a60c16e626c0543d505", "is_disabled": 0, "lon": -76.98751716666666, "is_reserved": 0, "fusion_lat": 0.0, "type": "electric_bike"}, {"fusion_lon": 0.0, "name": "6d41deb50ff58f4f5fdc2ffa65e420de", "rental_uris": {"android": "https://dc.lft.to/lastmile_qr_scan", "ios": "https://dc.lft.to/lastmile_qr_scan"}, "lat": 38.894191666666664, "bike_id": "6d41deb50ff58f4f5fdc2ffa65e420de", "is_disabled": 0, "lon": -76.99772983333334, "is_reserved": 0, "fusion_lat": 0.0, "type": "electric_scooter"}, {"fusion_lon": 0.0, "name": "bf0a0869074e05e557201aabba8993e3", "rental_uris": {"android": "https://dc.lft.to/lastmile_qr_scan", "ios": "https://dc.lft.to/lastmile_qr_scan"}, "lat": 38.961276833333336, "bike_id": "bf0a0869074e05e557201aabba8993e3", "is_disabled": 0, "lon": -77.03274366666666, "is_reserved": 0, "fusion_lat": 0.0, "type": "electric_bike"}, {"fusion_lon": 0.0, "name": "2d8e3fe8144153f3ea765b806db5c96a", "rental_uris": {"android": "https://dc.lft.to/lastmile_qr_scan", "ios": "https://dc.lft.to/lastmile_qr_scan"}, "lat": 38.88878833333333, "bike_id": "2d8e3fe8144153f3ea765b806db5c96a", "is_disabled": 0, "lon": -76.97731566666667, "is_reserved": 0, "fusion_lat": 0.0, "type": "electric_scooter"}, {"fusion_lon": 0.0, "name": "3625d66ec8e006d6ed1660261c7ce4c3", "rental_uris": {"android": "https://dc.lft.to/lastmile_qr_scan", "ios": "https://dc.lft.to/lastmile_qr_scan"}, "lat": 38.88612666666667, "bike_id": "3625d66ec8e006d6ed1660261c7ce4c3", "is_disabled": 0, "lon": -77.02170283333334, "is_reserved": 0, "fusion_lat": 0.0, "type": "electric_scooter"}, {"fusion_lon": 0.0, "name": "14e5cc5bb4f656ac5d81aa6f86713812", "rental_uris": {"android": "https://dc.lft.to/lastmile_qr_scan", "ios": "https://dc.lft.to/lastmile_qr_scan"}, "lat": 38.9260465, "bike_id": "14e5cc5bb4f656ac5d81aa6f86713812", "is_disabled": 0, "lon": -77.0215545, "is_reserved": 0, "fusion_lat": 0.0, "type": "electric_scooter"}, {"fusion_lon": 0.0, "name": "73266d4f5dbf2752b7be6de2cce5b9e1", "rental_uris": {"android": "https://dc.lft.to/lastmile_qr_scan", "ios": "https://dc.lft.to/lastmile_qr_scan"}, "lat": 38.9118, "bike_id": "73266d4f5dbf2752b7be6de2cce5b9e1", "is_disabled": 0, "lon": -77.06098116666666, "is_reserved": 0, "fusion_lat": 0.0, "type": "electric_scooter"}, {"fusion_lon": 0.0, "name": "53a3debeb5da1f02947aa678551fb088", "rental_uris": {"android": "https://dc.lft.to/lastmile_qr_scan", "ios": "https://dc.lft.to/lastmile_qr_scan"}, "lat": 38.922293333333336, "bike_id": "53a3debeb5da1f02947aa678551fb088", "is_disabled": 0, "lon": -76.9753375, "is_reserved": 0, "fusion_lat": 0.0, "type": "electric_scooter"}, {"fusion_lon": 0.0, "name": "ac416c8ef95bb001d91a0f7936db73e5", "rental_uris": {"android": "https://dc.lft.to/lastmile_qr_scan", "ios": "https://dc.lft.to/lastmile_qr_scan"}, "lat": 38.91012466666667, "bike_id": "ac416c8ef95bb001d91a0f7936db73e5", "is_disabled": 0, "lon": -77.02099, "is_reserved": 0, "fusion_lat": 0.0, "type": "electric_scooter"}, {"fusion_lon": 0.0, "name": "ecbd72627b4fe73e809eb63eed75baa9", "rental_uris": {"android": "https://dc.lft.to/lastmile_qr_scan", "ios": "https://dc.lft.to/lastmile_qr_scan"}, "lat": 38.92818116666667, "bike_id": "ecbd72627b4fe73e809eb63eed75baa9", "is_disabled": 0, "lon": -77.01406666666666, "is_reserved": 0, "fusion_lat": 0.0, "type": "electric_scooter"}, {"fusion_lon": 0.0, "name": "13025e873e400718b88d15c77ee69714", "rental_uris": {"android": "https://dc.lft.to/lastmile_qr_scan", "ios": "https://dc.lft.to/lastmile_qr_scan"}, "lat": 38.912682333333336, "bike_id": "13025e873e400718b88d15c77ee69714", "is_disabled": 0, "lon": -77.02208983333334, "is_reserved": 0, "fusion_lat": 0.0, "type": "electric_scooter"}, {"fusion_lon": 0.0, "name": "ce3733c7d74aed8f823e7439a530720a", "rental_uris": {"android": "https://dc.lft.to/lastmile_qr_scan", "ios": "https://dc.lft.to/lastmile_qr_scan"}, "lat": 38.891839, "bike_id": "ce3733c7d74aed8f823e7439a530720a", "is_disabled": 0, "lon": -76.93596666666667, "is_reserved": 0, "fusion_lat": 0.0, "type": "electric_scooter"}, {"fusion_lon": 0.0, "name": "5aac66b07987e17d4c7a621275bf1585", "rental_uris": {"android": "https://dc.lft.to/lastmile_qr_scan", "ios": "https://dc.lft.to/lastmile_qr_scan"}, "lat": 38.8970475, "bike_id": "5aac66b07987e17d4c7a621275bf1585", "is_disabled": 0, "lon": -77.02782966666666, "is_reserved": 0, "fusion_lat": 0.0, "type": "electric_scooter"}, {"fusion_lon": 0.0, "name": "ee2ce42713a27e7544bb1d6b3cbf267d", "rental_uris": {"android": "https://dc.lft.to/lastmile_qr_scan", "ios": "https://dc.lft.to/lastmile_qr_scan"}, "lat": 38.91815966666667, "bike_id": "ee2ce42713a27e7544bb1d6b3cbf267d", "is_disabled": 0, "lon": -77.0247695, "is_reserved": 0, "fusion_lat": 0.0, "type": "electric_scooter"}, {"fusion_lon": 0.0, "name": "9aa83bff10c697e428b049c29fa4ff3e", "rental_uris": {"android": "https://dc.lft.to/lastmile_qr_scan", "ios": "https://dc.lft.to/lastmile_qr_scan"}, "lat": 38.911138333333334, "bike_id": "9aa83bff10c697e428b049c29fa4ff3e", "is_disabled": 0, "lon": -77.03832083333333, "is_reserved": 0, "fusion_lat": 0.0, "type": "electric_scooter"}, {"fusion_lon": 0.0, "name": "efb1a1b1152e281ed1cb172ae0416287", "rental_uris": {"android": "https://dc.lft.to/lastmile_qr_scan", "ios": "https://dc.lft.to/lastmile_qr_scan"}, "lat": 38.9017845, "bike_id": "efb1a1b1152e281ed1cb172ae0416287", "is_disabled": 0, "lon": -76.98836016666667, "is_reserved": 0, "fusion_lat": 0.0, "type": "electric_scooter"}, {"fusion_lon": 0.0, "name": "cfc2e8829b3c0e58c1e264f9f31e2e08", "rental_uris": {"android": "https://dc.lft.to/lastmile_qr_scan", "ios": "https://dc.lft.to/lastmile_qr_scan"}, "lat": 38.923113666666666, "bike_id": "cfc2e8829b3c0e58c1e264f9f31e2e08", "is_disabled": 0, "lon": -77.03810266666666, "is_reserved": 0, "fusion_lat": 0.0, "type": "electric_scooter"}, {"fusion_lon": 0.0, "name": "46d428d30bd69bc44a04a7c4dc647517", "rental_uris": {"android": "https://dc.lft.to/lastmile_qr_scan", "ios": "https://dc.lft.to/lastmile_qr_scan"}, "lat": 38.902143333333335, "bike_id": "46d428d30bd69bc44a04a7c4dc647517", "is_disabled": 0, "lon": -77.0236885, "is_reserved": 0, "fusion_lat": 0.0, "type": "electric_scooter"}, {"fusion_lon": 0.0, "name": "580db2b00bdc532b558c17729bf42706", "rental_uris": {"android": "https://dc.lft.to/lastmile_qr_scan", "ios": "https://dc.lft.to/lastmile_qr_scan"}, "lat": 38.90694516666667, "bike_id": "580db2b00bdc532b558c17729bf42706", "is_disabled": 0, "lon": -76.9870455, "is_reserved": 0, "fusion_lat": 0.0, "type": "electric_scooter"}, {"fusion_lon": 0.0, "name": "b2c484b486085d87e6c12e8684f5ab61", "rental_uris": {"android": "https://dc.lft.to/lastmile_qr_scan", "ios": "https://dc.lft.to/lastmile_qr_scan"}, "lat": 38.9184465, "bike_id": "b2c484b486085d87e6c12e8684f5ab61", "is_disabled": 0, "lon": -77.03860466666667, "is_reserved": 0, "fusion_lat": 0.0, "type": "electric_scooter"}, {"fusion_lon": 0.0, "name": "eb2ff7846d320155447ac642ce7c4949", "rental_uris": {"android": "https://dc.lft.to/lastmile_qr_scan", "ios": "https://dc.lft.to/lastmile_qr_scan"}, "lat": 38.9254765, "bike_id": "eb2ff7846d320155447ac642ce7c4949", "is_disabled": 0, "lon": -77.03406416666667, "is_reserved": 0, "fusion_lat": 0.0, "type": "electric_scooter"}, {"fusion_lon": 0.0, "name": "c91bda4bba0f71b18d956f9818684684", "rental_uris": {"android": "https://dc.lft.to/lastmile_qr_scan", "ios": "https://dc.lft.to/lastmile_qr_scan"}, "lat": 38.89795866666667, "bike_id": "c91bda4bba0f71b18d956f9818684684", "is_disabled": 0, "lon": -77.01063933333333, "is_reserved": 0, "fusion_lat": 0.0, "type": "electric_scooter"}, {"fusion_lon": 0.0, "name": "8a145076919ae69435b23e6aa37347f0", "rental_uris": {"android": "https://dc.lft.to/lastmile_qr_scan", "ios": "https://dc.lft.to/lastmile_qr_scan"}, "lat": 38.901494166666666, "bike_id": "8a145076919ae69435b23e6aa37347f0", "is_disabled": 0, "lon": -76.97424566666666, "is_reserved": 0, "fusion_lat": 0.0, "type": "electric_scooter"}, {"fusion_lon": 0.0, "name": "e5a1d40bae3f8eee7ddff2ad3c97580d", "rental_uris": {"android": "https://dc.lft.to/lastmile_qr_scan", "ios": "https://dc.lft.to/lastmile_qr_scan"}, "lat": 38.9150855, "bike_id": "e5a1d40bae3f8eee7ddff2ad3c97580d", "is_disabled": 0, "lon": -77.03216633333334, "is_reserved": 0, "fusion_lat": 0.0, "type": "electric_scooter"}, {"fusion_lon": 0.0, "name": "403fe59c77e06ad7dbfad94cecdc51c4", "rental_uris": {"android": "https://dc.lft.to/lastmile_qr_scan", "ios": "https://dc.lft.to/lastmile_qr_scan"}, "lat": 38.92767166666667, "bike_id": "403fe59c77e06ad7dbfad94cecdc51c4", "is_disabled": 0, "lon": -77.03106516666666, "is_reserved": 0, "fusion_lat": 0.0, "type": "electric_scooter"}, {"fusion_lon": 0.0, "name": "da29f75515754f6316d0e79da4bfd8ad", "rental_uris": {"android": "https://dc.lft.to/lastmile_qr_scan", "ios": "https://dc.lft.to/lastmile_qr_scan"}, "lat": 38.920857833333336, "bike_id": "da29f75515754f6316d0e79da4bfd8ad", "is_disabled": 0, "lon": -77.023038, "is_reserved": 0, "fusion_lat": 0.0, "type": "electric_scooter"}, {"fusion_lon": 0.0, "name": "906ee4f2adc337cc51f30a75ec960ea3", "rental_uris": {"android": "https://dc.lft.to/lastmile_qr_scan", "ios": "https://dc.lft.to/lastmile_qr_scan"}, "lat": 38.918555166666664, "bike_id": "906ee4f2adc337cc51f30a75ec960ea3", "is_disabled": 0, "lon": -76.960873, "is_reserved": 0, "fusion_lat": 0.0, "type": "electric_bike"}, {"fusion_lon": 0.0, "name": "a216591cc52b590119d8ecccca9c6456", "rental_uris": {"android": "https://dc.lft.to/lastmile_qr_scan", "ios": "https://dc.lft.to/lastmile_qr_scan"}, "lat": 38.901190666666665, "bike_id": "a216591cc52b590119d8ecccca9c6456", "is_disabled": 0, "lon": -77.04995316666667, "is_reserved": 0, "fusion_lat": 0.0, "type": "electric_scooter"}, {"fusion_lon": 0.0, "name": "ac4d892c041e7d2d4f37a155ffe684ea", "rental_uris": {"android": "https://dc.lft.to/lastmile_qr_scan", "ios": "https://dc.lft.to/lastmile_qr_scan"}, "lat": 38.90012, "bike_id": "ac4d892c041e7d2d4f37a155ffe684ea", "is_disabled": 0, "lon": -77.04140283333334, "is_reserved": 0, "fusion_lat": 0.0, "type": "electric_scooter"}, {"fusion_lon": 0.0, "name": "4b58b02ea212d72461a9696a69ddba8d", "rental_uris": {"android": "https://dc.lft.to/lastmile_qr_scan", "ios": "https://dc.lft.to/lastmile_qr_scan"}, "lat": 38.9176325, "bike_id": "4b58b02ea212d72461a9696a69ddba8d", "is_disabled": 0, "lon": -77.0280565, "is_reserved": 0, "fusion_lat": 0.0, "type": "electric_scooter"}, {"fusion_lon": 0.0, "name": "29ab89c198d88450fcf6497d0fcedbba", "rental_uris": {"android": "https://dc.lft.to/lastmile_qr_scan", "ios": "https://dc.lft.to/lastmile_qr_scan"}, "lat": 38.905822666666666, "bike_id": "29ab89c198d88450fcf6497d0fcedbba", "is_disabled": 0, "lon": -77.046937, "is_reserved": 0, "fusion_lat": 0.0, "type": "electric_scooter"}, {"fusion_lon": 0.0, "name": "2c1b717119a383b17a99a2229a980b5a", "rental_uris": {"android": "https://dc.lft.to/lastmile_qr_scan", "ios": "https://dc.lft.to/lastmile_qr_scan"}, "lat": 38.89578866666667, "bike_id": "2c1b717119a383b17a99a2229a980b5a", "is_disabled": 0, "lon": -77.04146266666666, "is_reserved": 0, "fusion_lat": 0.0, "type": "electric_scooter"}, {"fusion_lon": 0.0, "name": "9a288c6cb3975870dc9033e0b8c09e5e", "rental_uris": {"android": "https://dc.lft.to/lastmile_qr_scan", "ios": "https://dc.lft.to/lastmile_qr_scan"}, "lat": 38.917364666666664, "bike_id": "9a288c6cb3975870dc9033e0b8c09e5e", "is_disabled": 0, "lon": -77.0211665, "is_reserved": 0, "fusion_lat": 0.0, "type": "electric_scooter"}, {"fusion_lon": 0.0, "name": "dfd9d5d6b2481f3376cad672a90fd8d3", "rental_uris": {"android": "https://dc.lft.to/lastmile_qr_scan", "ios": "https://dc.lft.to/lastmile_qr_scan"}, "lat": 38.900668833333334, "bike_id": "dfd9d5d6b2481f3376cad672a90fd8d3", "is_disabled": 0, "lon": -77.04942233333334, "is_reserved": 0, "fusion_lat": 0.0, "type": "electric_scooter"}, {"fusion_lon": 0.0, "name": "27b30ae3cf20bf66861afacf45c76c47", "rental_uris": {"android": "https://dc.lft.to/lastmile_qr_scan", "ios": "https://dc.lft.to/lastmile_qr_scan"}, "lat": 38.911014, "bike_id": "27b30ae3cf20bf66861afacf45c76c47", "is_disabled": 0, "lon": -77.0200155, "is_reserved": 0, "fusion_lat": 0.0, "type": "electric_scooter"}, {"fusion_lon": 0.0, "name": "17cb3f20b4a9dadda7fbf776ff0727d6", "rental_uris": {"android": "https://dc.lft.to/lastmile_qr_scan", "ios": "https://dc.lft.to/lastmile_qr_scan"}, "lat": 38.9233135, "bike_id": "17cb3f20b4a9dadda7fbf776ff0727d6", "is_disabled": 0, "lon": -77.05678983333334, "is_reserved": 0, "fusion_lat": 0.0, "type": "electric_scooter"}, {"fusion_lon": 0.0, "name": "9e79d5f301c42cb147159b572eca1aa5", "rental_uris": {"android": "https://dc.lft.to/lastmile_qr_scan", "ios": "https://dc.lft.to/lastmile_qr_scan"}, "lat": 38.90358633333334, "bike_id": "9e79d5f301c42cb147159b572eca1aa5", "is_disabled": 0, "lon": -77.02617266666667, "is_reserved": 0, "fusion_lat": 0.0, "type": "electric_scooter"}, {"fusion_lon": 0.0, "name": "85ac90384fcc6d21426eb83f574bd557", "rental_uris": {"android": "https://dc.lft.to/lastmile_qr_scan", "ios": "https://dc.lft.to/lastmile_qr_scan"}, "lat": 38.9184155, "bike_id": "85ac90384fcc6d21426eb83f574bd557", "is_disabled": 0, "lon": -77.02291066666666, "is_reserved": 0, "fusion_lat": 0.0, "type": "electric_scooter"}, {"fusion_lon": 0.0, "name": "893a51070cf044226a9250c15fd4e0c4", "rental_uris": {"android": "https://dc.lft.to/lastmile_qr_scan", "ios": "https://dc.lft.to/lastmile_qr_scan"}, "lat": 38.89470766666667, "bike_id": "893a51070cf044226a9250c15fd4e0c4", "is_disabled": 0, "lon": -77.02189783333333, "is_reserved": 0, "fusion_lat": 0.0, "type": "electric_scooter"}, {"fusion_lon": 0.0, "name": "edcc62dc088b9d5f865adb724f6fe809", "rental_uris": {"android": "https://dc.lft.to/lastmile_qr_scan", "ios": "https://dc.lft.to/lastmile_qr_scan"}, "lat": 38.9078565, "bike_id": "edcc62dc088b9d5f865adb724f6fe809", "is_disabled": 0, "lon": -77.0097155, "is_reserved": 0, "fusion_lat": 0.0, "type": "electric_scooter"}, {"fusion_lon": 0.0, "name": "9ac4345f64682197d0907ff934d4643b", "rental_uris": {"android": "https://dc.lft.to/lastmile_qr_scan", "ios": "https://dc.lft.to/lastmile_qr_scan"}, "lat": 38.91195033333333, "bike_id": "9ac4345f64682197d0907ff934d4643b", "is_disabled": 0, "lon": -77.03207966666666, "is_reserved": 0, "fusion_lat": 0.0, "type": "electric_scooter"}, {"fusion_lon": 0.0, "name": "7a8092339db05e521c3c33df2186d330", "rental_uris": {"android": "https://dc.lft.to/lastmile_qr_scan", "ios": "https://dc.lft.to/lastmile_qr_scan"}, "lat": 38.916131666666665, "bike_id": "7a8092339db05e521c3c33df2186d330", "is_disabled": 0, "lon": -77.04864883333333, "is_reserved": 0, "fusion_lat": 0.0, "type": "electric_scooter"}, {"fusion_lon": 0.0, "name": "688a57ad934e9f22dff2231620776c6e", "rental_uris": {"android": "https://dc.lft.to/lastmile_qr_scan", "ios": "https://dc.lft.to/lastmile_qr_scan"}, "lat": 38.915631, "bike_id": "688a57ad934e9f22dff2231620776c6e", "is_disabled": 0, "lon": -77.0068065, "is_reserved": 0, "fusion_lat": 0.0, "type": "electric_scooter"}, {"fusion_lon": 0.0, "name": "c9460f3fa16874ec7c0a67289d8ecba6", "rental_uris": {"android": "https://dc.lft.to/lastmile_qr_scan", "ios": "https://dc.lft.to/lastmile_qr_scan"}, "lat": 38.91585416666667, "bike_id": "c9460f3fa16874ec7c0a67289d8ecba6", "is_disabled": 0, "lon": -77.02954733333333, "is_reserved": 0, "fusion_lat": 0.0, "type": "electric_scooter"}, {"fusion_lon": 0.0, "name": "96297644b2fdc76ddd541f2525908095", "rental_uris": {"android": "https://dc.lft.to/lastmile_qr_scan", "ios": "https://dc.lft.to/lastmile_qr_scan"}, "lat": 38.89127583333333, "bike_id": "96297644b2fdc76ddd541f2525908095", "is_disabled": 0, "lon": -76.94058966666667, "is_reserved": 0, "fusion_lat": 0.0, "type": "electric_bike"}, {"fusion_lon": 0.0, "name": "c0e59b110da719925f2b2d4ee7fe3565", "rental_uris": {"android": "https://dc.lft.to/lastmile_qr_scan", "ios": "https://dc.lft.to/lastmile_qr_scan"}, "lat": 38.92463816666667, "bike_id": "c0e59b110da719925f2b2d4ee7fe3565", "is_disabled": 0, "lon": -77.03827666666666, "is_reserved": 0, "fusion_lat": 0.0, "type": "electric_scooter"}, {"fusion_lon": 0.0, "name": "c0ce3404d90a1cc423e35df0e0b7f990", "rental_uris": {"android": "https://dc.lft.to/lastmile_qr_scan", "ios": "https://dc.lft.to/lastmile_qr_scan"}, "lat": 38.913563, "bike_id": "c0ce3404d90a1cc423e35df0e0b7f990", "is_disabled": 0, "lon": -77.0334755, "is_reserved": 0, "fusion_lat": 0.0, "type": "electric_scooter"}, {"fusion_lon": 0.0, "name": "121e4804d328557598b36a4ab910680b", "rental_uris": {"android": "https://dc.lft.to/lastmile_qr_scan", "ios": "https://dc.lft.to/lastmile_qr_scan"}, "lat": 38.92085566666667, "bike_id": "121e4804d328557598b36a4ab910680b", "is_disabled": 0, "lon": -77.02538983333334, "is_reserved": 0, "fusion_lat": 0.0, "type": "electric_scooter"}, {"fusion_lon": 0.0, "name": "44dcb2bf69b9e3a4a73e0a2cd7023387", "rental_uris": {"android": "https://dc.lft.to/lastmile_qr_scan", "ios": "https://dc.lft.to/lastmile_qr_scan"}, "lat": 38.929849, "bike_id": "44dcb2bf69b9e3a4a73e0a2cd7023387", "is_disabled": 0, "lon": -77.03228783333333, "is_reserved": 0, "fusion_lat": 0.0, "type": "electric_scooter"}, {"fusion_lon": 0.0, "name": "7f66df7a501e288ea260ea7ddbaae40b", "rental_uris": {"android": "https://dc.lft.to/lastmile_qr_scan", "ios": "https://dc.lft.to/lastmile_qr_scan"}, "lat": 38.93739333333333, "bike_id": "7f66df7a501e288ea260ea7ddbaae40b", "is_disabled": 0, "lon": -77.0243635, "is_reserved": 0, "fusion_lat": 0.0, "type": "electric_scooter"}, {"fusion_lon": 0.0, "name": "f25a41031050bb4c8e6a307bdb59f1ab", "rental_uris": {"android": "https://dc.lft.to/lastmile_qr_scan", "ios": "https://dc.lft.to/lastmile_qr_scan"}, "lat": 38.88742933333333, "bike_id": "f25a41031050bb4c8e6a307bdb59f1ab", "is_disabled": 0, "lon": -77.02572683333334, "is_reserved": 0, "fusion_lat": 0.0, "type": "electric_scooter"}, {"fusion_lon": 0.0, "name": "1eba02b779e006cc616db142cebdeb69", "rental_uris": {"android": "https://dc.lft.to/lastmile_qr_scan", "ios": "https://dc.lft.to/lastmile_qr_scan"}, "lat": 38.9295515, "bike_id": "1eba02b779e006cc616db142cebdeb69", "is_disabled": 0, "lon": -77.01150266666667, "is_reserved": 0, "fusion_lat": 0.0, "type": "electric_scooter"}, {"fusion_lon": 0.0, "name": "1e3633f7fed1bf2083ee81dbc131d277", "rental_uris": {"android": "https://dc.lft.to/lastmile_qr_scan", "ios": "https://dc.lft.to/lastmile_qr_scan"}, "lat": 38.95109166666667, "bike_id": "1e3633f7fed1bf2083ee81dbc131d277", "is_disabled": 0, "lon": -77.01314783333333, "is_reserved": 0, "fusion_lat": 0.0, "type": "electric_scooter"}, {"fusion_lon": 0.0, "name": "5dad927e459fa33072142beac8748845", "rental_uris": {"android": "https://dc.lft.to/lastmile_qr_scan", "ios": "https://dc.lft.to/lastmile_qr_scan"}, "lat": 38.9069095, "bike_id": "5dad927e459fa33072142beac8748845", "is_disabled": 0, "lon": -77.05011733333333, "is_reserved": 0, "fusion_lat": 0.0, "type": "electric_scooter"}, {"fusion_lon": 0.0, "name": "2c1fc691e71c37e991f148ca4271064f", "rental_uris": {"android": "https://dc.lft.to/lastmile_qr_scan", "ios": "https://dc.lft.to/lastmile_qr_scan"}, "lat": 38.9002545, "bike_id": "2c1fc691e71c37e991f148ca4271064f", "is_disabled": 0, "lon": -77.01198966666666, "is_reserved": 0, "fusion_lat": 0.0, "type": "electric_scooter"}, {"fusion_lon": 0.0, "name": "ce8c91c07b3f97fdbff6447e55595ccb", "rental_uris": {"android": "https://dc.lft.to/lastmile_qr_scan", "ios": "https://dc.lft.to/lastmile_qr_scan"}, "lat": 38.90676666666667, "bike_id": "ce8c91c07b3f97fdbff6447e55595ccb", "is_disabled": 0, "lon": -77.0381695, "is_reserved": 0, "fusion_lat": 0.0, "type": "electric_scooter"}, {"fusion_lon": 0.0, "name": "d81adf91fb3cd84a95e299c17fba591c", "rental_uris": {"android": "https://dc.lft.to/lastmile_qr_scan", "ios": "https://dc.lft.to/lastmile_qr_scan"}, "lat": 38.902261333333335, "bike_id": "d81adf91fb3cd84a95e299c17fba591c", "is_disabled": 0, "lon": -77.04598933333334, "is_reserved": 0, "fusion_lat": 0.0, "type": "electric_scooter"}, {"fusion_lon": 0.0, "name": "f0fc417cbbf19e16a27b1a85b3fa6b2e", "rental_uris": {"android": "https://dc.lft.to/lastmile_qr_scan", "ios": "https://dc.lft.to/lastmile_qr_scan"}, "lat": 38.8756635, "bike_id": "f0fc417cbbf19e16a27b1a85b3fa6b2e", "is_disabled": 0, "lon": -77.00600433333334, "is_reserved": 0, "fusion_lat": 0.0, "type": "electric_scooter"}, {"fusion_lon": 0.0, "name": "8fb9bec5b51d8598e671c37ec27df48f", "rental_uris": {"android": "https://dc.lft.to/lastmile_qr_scan", "ios": "https://dc.lft.to/lastmile_qr_scan"}, "lat": 38.91487016666667, "bike_id": "8fb9bec5b51d8598e671c37ec27df48f", "is_disabled": 0, "lon": -77.00217283333333, "is_reserved": 0, "fusion_lat": 0.0, "type": "electric_scooter"}, {"fusion_lon": 0.0, "name": "eaabbc1f3ee6fe5123fb20ebb30aabb0", "rental_uris": {"android": "https://dc.lft.to/lastmile_qr_scan", "ios": "https://dc.lft.to/lastmile_qr_scan"}, "lat": 38.921914666666666, "bike_id": "eaabbc1f3ee6fe5123fb20ebb30aabb0", "is_disabled": 0, "lon": -77.03518266666667, "is_reserved": 0, "fusion_lat": 0.0, "type": "electric_scooter"}, {"fusion_lon": 0.0, "name": "11b84a90260af06fee61a4890febde2e", "rental_uris": {"android": "https://dc.lft.to/lastmile_qr_scan", "ios": "https://dc.lft.to/lastmile_qr_scan"}, "lat": 38.932232166666665, "bike_id": "11b84a90260af06fee61a4890febde2e", "is_disabled": 0, "lon": -77.0269425, "is_reserved": 0, "fusion_lat": 0.0, "type": "electric_scooter"}, {"fusion_lon": 0.0, "name": "707c910df03a85b6c49555c0217f535f", "rental_uris": {"android": "https://dc.lft.to/lastmile_qr_scan", "ios": "https://dc.lft.to/lastmile_qr_scan"}, "lat": 38.899136166666665, "bike_id": "707c910df03a85b6c49555c0217f535f", "is_disabled": 0, "lon": -77.0402405, "is_reserved": 0, "fusion_lat": 0.0, "type": "electric_scooter"}, {"fusion_lon": 0.0, "name": "1793b5508771cfcda65282472caf6562", "rental_uris": {"android": "https://dc.lft.to/lastmile_qr_scan", "ios": "https://dc.lft.to/lastmile_qr_scan"}, "lat": 38.92263966666667, "bike_id": "1793b5508771cfcda65282472caf6562", "is_disabled": 0, "lon": -77.0366225, "is_reserved": 0, "fusion_lat": 0.0, "type": "electric_scooter"}, {"fusion_lon": 0.0, "name": "6c02d3562a3a9240bf5f552a2c027eaa", "rental_uris": {"android": "https://dc.lft.to/lastmile_qr_scan", "ios": "https://dc.lft.to/lastmile_qr_scan"}, "lat": 38.857804, "bike_id": "6c02d3562a3a9240bf5f552a2c027eaa", "is_disabled": 0, "lon": -76.98758483333333, "is_reserved": 0, "fusion_lat": 0.0, "type": "electric_bike"}, {"fusion_lon": 0.0, "name": "76cce24da2c69ed78fadd2069834e883", "rental_uris": {"android": "https://dc.lft.to/lastmile_qr_scan", "ios": "https://dc.lft.to/lastmile_qr_scan"}, "lat": 38.900789833333334, "bike_id": "76cce24da2c69ed78fadd2069834e883", "is_disabled": 0, "lon": -77.02176533333333, "is_reserved": 0, "fusion_lat": 0.0, "type": "electric_scooter"}, {"fusion_lon": 0.0, "name": "fdc50592ba82050dae1f4bb42c1d9db2", "rental_uris": {"android": "https://dc.lft.to/lastmile_qr_scan", "ios": "https://dc.lft.to/lastmile_qr_scan"}, "lat": 38.92601966666667, "bike_id": "fdc50592ba82050dae1f4bb42c1d9db2", "is_disabled": 0, "lon": -77.02158216666666, "is_reserved": 0, "fusion_lat": 0.0, "type": "electric_scooter"}, {"fusion_lon": 0.0, "name": "9f8c1c70af75a60712b9e9ff91f23d1d", "rental_uris": {"android": "https://dc.lft.to/lastmile_qr_scan", "ios": "https://dc.lft.to/lastmile_qr_scan"}, "lat": 38.90955916666667, "bike_id": "9f8c1c70af75a60712b9e9ff91f23d1d", "is_disabled": 0, "lon": -77.01409783333334, "is_reserved": 0, "fusion_lat": 0.0, "type": "electric_scooter"}, {"fusion_lon": 0.0, "name": "915ffad92bb2bb6ebf8e6f116a69e2e5", "rental_uris": {"android": "https://dc.lft.to/lastmile_qr_scan", "ios": "https://dc.lft.to/lastmile_qr_scan"}, "lat": 38.90254633333333, "bike_id": "915ffad92bb2bb6ebf8e6f116a69e2e5", "is_disabled": 0, "lon": -77.01755233333333, "is_reserved": 0, "fusion_lat": 0.0, "type": "electric_scooter"}, {"fusion_lon": 0.0, "name": "f6e2ccb675dec2335226bbd69d582d3c", "rental_uris": {"android": "https://dc.lft.to/lastmile_qr_scan", "ios": "https://dc.lft.to/lastmile_qr_scan"}, "lat": 38.916926333333336, "bike_id": "f6e2ccb675dec2335226bbd69d582d3c", "is_disabled": 0, "lon": -77.02897533333334, "is_reserved": 0, "fusion_lat": 0.0, "type": "electric_scooter"}, {"fusion_lon": 0.0, "name": "3f0f6e52f16ad8c29cbbf97caf8db240", "rental_uris": {"android": "https://dc.lft.to/lastmile_qr_scan", "ios": "https://dc.lft.to/lastmile_qr_scan"}, "lat": 38.8243235, "bike_id": "3f0f6e52f16ad8c29cbbf97caf8db240", "is_disabled": 0, "lon": -77.120428, "is_reserved": 0, "fusion_lat": 0.0, "type": "electric_bike"}, {"fusion_lon": 0.0, "name": "43113ae8993c7d4bdb916536a179f00d", "rental_uris": {"android": "https://dc.lft.to/lastmile_qr_scan", "ios": "https://dc.lft.to/lastmile_qr_scan"}, "lat": 38.92468216666666, "bike_id": "43113ae8993c7d4bdb916536a179f00d", "is_disabled": 0, "lon": -77.02112633333333, "is_reserved": 0, "fusion_lat": 0.0, "type": "electric_scooter"}, {"fusion_lon": 0.0, "name": "95939083f913e2065dff2e9766ed2d7d", "rental_uris": {"android": "https://dc.lft.to/lastmile_qr_scan", "ios": "https://dc.lft.to/lastmile_qr_scan"}, "lat": 38.93973116666667, "bike_id": "95939083f913e2065dff2e9766ed2d7d", "is_disabled": 0, "lon": -76.98614183333333, "is_reserved": 0, "fusion_lat": 0.0, "type": "electric_bike"}, {"fusion_lon": 0.0, "name": "1e883bc3196722a319a69636511621d1", "rental_uris": {"android": "https://dc.lft.to/lastmile_qr_scan", "ios": "https://dc.lft.to/lastmile_qr_scan"}, "lat": 38.916870333333335, "bike_id": "1e883bc3196722a319a69636511621d1", "is_disabled": 0, "lon": -77.0239845, "is_reserved": 0, "fusion_lat": 0.0, "type": "electric_scooter"}, {"fusion_lon": 0.0, "name": "784899b5b14eb4136a522759372ebeb5", "rental_uris": {"android": "https://dc.lft.to/lastmile_qr_scan", "ios": "https://dc.lft.to/lastmile_qr_scan"}, "lat": 38.92972133333333, "bike_id": "784899b5b14eb4136a522759372ebeb5", "is_disabled": 0, "lon": -77.02793833333334, "is_reserved": 0, "fusion_lat": 0.0, "type": "electric_scooter"}, {"fusion_lon": 0.0, "name": "0498552775bd0fc8719ae916c96da14f", "rental_uris": {"android": "https://dc.lft.to/lastmile_qr_scan", "ios": "https://dc.lft.to/lastmile_qr_scan"}, "lat": 38.92468566666667, "bike_id": "0498552775bd0fc8719ae916c96da14f", "is_disabled": 0, "lon": -77.02204283333333, "is_reserved": 0, "fusion_lat": 0.0, "type": "electric_scooter"}, {"fusion_lon": 0.0, "name": "014271d1cbe489a137764e6ed6b70b6d", "rental_uris": {"android": "https://dc.lft.to/lastmile_qr_scan", "ios": "https://dc.lft.to/lastmile_qr_scan"}, "lat": 38.908846, "bike_id": "014271d1cbe489a137764e6ed6b70b6d", "is_disabled": 0, "lon": -77.04395883333333, "is_reserved": 0, "fusion_lat": 0.0, "type": "electric_scooter"}, {"fusion_lon": 0.0, "name": "36df18ef3d75a54ea4046516280ee26b", "rental_uris": {"android": "https://dc.lft.to/lastmile_qr_scan", "ios": "https://dc.lft.to/lastmile_qr_scan"}, "lat": 38.91561466666667, "bike_id": "36df18ef3d75a54ea4046516280ee26b", "is_disabled": 0, "lon": -77.031696, "is_reserved": 0, "fusion_lat": 0.0, "type": "electric_scooter"}, {"fusion_lon": 0.0, "name": "e547a3497ad9567458572ae92e467ff4", "rental_uris": {"android": "https://dc.lft.to/lastmile_qr_scan", "ios": "https://dc.lft.to/lastmile_qr_scan"}, "lat": 38.90150383333334, "bike_id": "e547a3497ad9567458572ae92e467ff4", "is_disabled": 0, "lon": -77.0444215, "is_reserved": 0, "fusion_lat": 0.0, "type": "electric_scooter"}, {"fusion_lon": 0.0, "name": "343564ca6ed4494b95f5cf975dae9b07", "rental_uris": {"android": "https://dc.lft.to/lastmile_qr_scan", "ios": "https://dc.lft.to/lastmile_qr_scan"}, "lat": 38.890481333333334, "bike_id": "343564ca6ed4494b95f5cf975dae9b07", "is_disabled": 0, "lon": -76.93754833333334, "is_reserved": 0, "fusion_lat": 0.0, "type": "electric_scooter"}, {"fusion_lon": 0.0, "name": "b67a1e50b2ae84f4aced60a6eb542581", "rental_uris": {"android": "https://dc.lft.to/lastmile_qr_scan", "ios": "https://dc.lft.to/lastmile_qr_scan"}, "lat": 38.90760483333333, "bike_id": "b67a1e50b2ae84f4aced60a6eb542581", "is_disabled": 0, "lon": -77.04149716666667, "is_reserved": 0, "fusion_lat": 0.0, "type": "electric_scooter"}, {"fusion_lon": 0.0, "name": "dea24dfe67ff17c2bdc989f244c6f8a2", "rental_uris": {"android": "https://dc.lft.to/lastmile_qr_scan", "ios": "https://dc.lft.to/lastmile_qr_scan"}, "lat": 38.941918, "bike_id": "dea24dfe67ff17c2bdc989f244c6f8a2", "is_disabled": 0, "lon": -77.0355405, "is_reserved": 0, "fusion_lat": 0.0, "type": "electric_scooter"}, {"fusion_lon": 0.0, "name": "b3b6f66122ca83c10fb96f60a9dff104", "rental_uris": {"android": "https://dc.lft.to/lastmile_qr_scan", "ios": "https://dc.lft.to/lastmile_qr_scan"}, "lat": 38.92884516666667, "bike_id": "b3b6f66122ca83c10fb96f60a9dff104", "is_disabled": 0, "lon": -77.01365183333333, "is_reserved": 0, "fusion_lat": 0.0, "type": "electric_scooter"}, {"fusion_lon": 0.0, "name": "9244740ef1df5fe6948391c5fcdfd073", "rental_uris": {"android": "https://dc.lft.to/lastmile_qr_scan", "ios": "https://dc.lft.to/lastmile_qr_scan"}, "lat": 38.911257666666664, "bike_id": "9244740ef1df5fe6948391c5fcdfd073", "is_disabled": 0, "lon": -77.02203433333334, "is_reserved": 0, "fusion_lat": 0.0, "type": "electric_scooter"}, {"fusion_lon": 0.0, "name": "5ffb3b146275496241913118a24934c7", "rental_uris": {"android": "https://dc.lft.to/lastmile_qr_scan", "ios": "https://dc.lft.to/lastmile_qr_scan"}, "lat": 38.923432, "bike_id": "5ffb3b146275496241913118a24934c7", "is_disabled": 0, "lon": -77.04852633333333, "is_reserved": 0, "fusion_lat": 0.0, "type": "electric_scooter"}, {"fusion_lon": 0.0, "name": "35a1e959b407eddb85f39cc5b5814fa1", "rental_uris": {"android": "https://dc.lft.to/lastmile_qr_scan", "ios": "https://dc.lft.to/lastmile_qr_scan"}, "lat": 38.906826333333335, "bike_id": "35a1e959b407eddb85f39cc5b5814fa1", "is_disabled": 0, "lon": -77.02695233333333, "is_reserved": 0, "fusion_lat": 0.0, "type": "electric_scooter"}, {"fusion_lon": 0.0, "name": "158fb399ae6f7b67b1f8d4b1ce491fdc", "rental_uris": {"android": "https://dc.lft.to/lastmile_qr_scan", "ios": "https://dc.lft.to/lastmile_qr_scan"}, "lat": 38.931201, "bike_id": "158fb399ae6f7b67b1f8d4b1ce491fdc", "is_disabled": 0, "lon": -77.0226425, "is_reserved": 0, "fusion_lat": 0.0, "type": "electric_scooter"}, {"fusion_lon": 0.0, "name": "339536ac8326df88fdec3c173a978e31", "rental_uris": {"android": "https://dc.lft.to/lastmile_qr_scan", "ios": "https://dc.lft.to/lastmile_qr_scan"}, "lat": 38.929754, "bike_id": "339536ac8326df88fdec3c173a978e31", "is_disabled": 0, "lon": -77.02793483333333, "is_reserved": 0, "fusion_lat": 0.0, "type": "electric_scooter"}, {"fusion_lon": 0.0, "name": "59ba61aefdf583321ae0f09fc894abfe", "rental_uris": {"android": "https://dc.lft.to/lastmile_qr_scan", "ios": "https://dc.lft.to/lastmile_qr_scan"}, "lat": 38.907576666666664, "bike_id": "59ba61aefdf583321ae0f09fc894abfe", "is_disabled": 0, "lon": -77.04523866666666, "is_reserved": 0, "fusion_lat": 0.0, "type": "electric_scooter"}, {"fusion_lon": 0.0, "name": "00b0fe25df3602247c903c88f007cb12", "rental_uris": {"android": "https://dc.lft.to/lastmile_qr_scan", "ios": "https://dc.lft.to/lastmile_qr_scan"}, "lat": 38.93412333333333, "bike_id": "00b0fe25df3602247c903c88f007cb12", "is_disabled": 0, "lon": -77.02508133333333, "is_reserved": 0, "fusion_lat": 0.0, "type": "electric_bike"}, {"fusion_lon": 0.0, "name": "4df5f68828140279942b529a5ca8a8f4", "rental_uris": {"android": "https://dc.lft.to/lastmile_qr_scan", "ios": "https://dc.lft.to/lastmile_qr_scan"}, "lat": 38.9156295, "bike_id": "4df5f68828140279942b529a5ca8a8f4", "is_disabled": 0, "lon": -77.03170466666667, "is_reserved": 0, "fusion_lat": 0.0, "type": "electric_scooter"}, {"fusion_lon": 0.0, "name": "69bb43f8926b3fbaaed28a3d3aab1645", "rental_uris": {"android": "https://dc.lft.to/lastmile_qr_scan", "ios": "https://dc.lft.to/lastmile_qr_scan"}, "lat": 38.88229416666667, "bike_id": "69bb43f8926b3fbaaed28a3d3aab1645", "is_disabled": 0, "lon": -76.99091133333333, "is_reserved": 0, "fusion_lat": 0.0, "type": "electric_scooter"}, {"fusion_lon": 0.0, "name": "fe1649b6d02e4edafc945745d96a6610", "rental_uris": {"android": "https://dc.lft.to/lastmile_qr_scan", "ios": "https://dc.lft.to/lastmile_qr_scan"}, "lat": 38.84672666666667, "bike_id": "fe1649b6d02e4edafc945745d96a6610", "is_disabled": 0, "lon": -77.139226, "is_reserved": 0, "fusion_lat": 0.0, "type": "electric_bike"}, {"fusion_lon": 0.0, "name": "5f0d0046bc7add148439d423e467b92f", "rental_uris": {"android": "https://dc.lft.to/lastmile_qr_scan", "ios": "https://dc.lft.to/lastmile_qr_scan"}, "lat": 38.913263666666666, "bike_id": "5f0d0046bc7add148439d423e467b92f", "is_disabled": 0, "lon": -77.0454965, "is_reserved": 0, "fusion_lat": 0.0, "type": "electric_scooter"}, {"fusion_lon": 0.0, "name": "15d4c55830f27c5586aac966b5d3b58e", "rental_uris": {"android": "https://dc.lft.to/lastmile_qr_scan", "ios": "https://dc.lft.to/lastmile_qr_scan"}, "lat": 38.93041733333333, "bike_id": "15d4c55830f27c5586aac966b5d3b58e", "is_disabled": 0, "lon": -76.95836733333333, "is_reserved": 0, "fusion_lat": 0.0, "type": "electric_scooter"}, {"fusion_lon": 0.0, "name": "4f26ad9afc85163bf9f46a61a3a63ec2", "rental_uris": {"android": "https://dc.lft.to/lastmile_qr_scan", "ios": "https://dc.lft.to/lastmile_qr_scan"}, "lat": 38.959558333333334, "bike_id": "4f26ad9afc85163bf9f46a61a3a63ec2", "is_disabled": 0, "lon": -77.03055, "is_reserved": 0, "fusion_lat": 0.0, "type": "electric_bike"}, {"fusion_lon": 0.0, "name": "f5b8fa524a44abe99abeaa56b174815f", "rental_uris": {"android": "https://dc.lft.to/lastmile_qr_scan", "ios": "https://dc.lft.to/lastmile_qr_scan"}, "lat": 38.916808, "bike_id": "f5b8fa524a44abe99abeaa56b174815f", "is_disabled": 0, "lon": -77.03207416666666, "is_reserved": 0, "fusion_lat": 0.0, "type": "electric_scooter"}, {"fusion_lon": 0.0, "name": "f32939f9f2d91c69b1446ee24b6cb50f", "rental_uris": {"android": "https://dc.lft.to/lastmile_qr_scan", "ios": "https://dc.lft.to/lastmile_qr_scan"}, "lat": 38.920795166666664, "bike_id": "f32939f9f2d91c69b1446ee24b6cb50f", "is_disabled": 0, "lon": -77.03562033333333, "is_reserved": 0, "fusion_lat": 0.0, "type": "electric_scooter"}, {"fusion_lon": 0.0, "name": "53308e681a0984a55093ca83133fed10", "rental_uris": {"android": "https://dc.lft.to/lastmile_qr_scan", "ios": "https://dc.lft.to/lastmile_qr_scan"}, "lat": 38.904099333333335, "bike_id": "53308e681a0984a55093ca83133fed10", "is_disabled": 0, "lon": -76.97332316666666, "is_reserved": 0, "fusion_lat": 0.0, "type": "electric_scooter"}, {"fusion_lon": 0.0, "name": "20eb5e329d67dbcae4942d975e6553d3", "rental_uris": {"android": "https://dc.lft.to/lastmile_qr_scan", "ios": "https://dc.lft.to/lastmile_qr_scan"}, "lat": 38.884389166666665, "bike_id": "20eb5e329d67dbcae4942d975e6553d3", "is_disabled": 0, "lon": -77.0234375, "is_reserved": 0, "fusion_lat": 0.0, "type": "electric_scooter"}, {"fusion_lon": 0.0, "name": "872e99e0806dbdacbe5e63fe872094b6", "rental_uris": {"android": "https://dc.lft.to/lastmile_qr_scan", "ios": "https://dc.lft.to/lastmile_qr_scan"}, "lat": 38.922715333333336, "bike_id": "872e99e0806dbdacbe5e63fe872094b6", "is_disabled": 0, "lon": -77.04281816666666, "is_reserved": 0, "fusion_lat": 0.0, "type": "electric_scooter"}, {"fusion_lon": 0.0, "name": "126e0ba66d93297bece5312884608ab1", "rental_uris": {"android": "https://dc.lft.to/lastmile_qr_scan", "ios": "https://dc.lft.to/lastmile_qr_scan"}, "lat": 38.93113016666667, "bike_id": "126e0ba66d93297bece5312884608ab1", "is_disabled": 0, "lon": -77.03028866666666, "is_reserved": 0, "fusion_lat": 0.0, "type": "electric_scooter"}, {"fusion_lon": 0.0, "name": "00d0c3a7dd4eda531d4fbbdc67000ae6", "rental_uris": {"android": "https://dc.lft.to/lastmile_qr_scan", "ios": "https://dc.lft.to/lastmile_qr_scan"}, "lat": 38.91954716666667, "bike_id": "00d0c3a7dd4eda531d4fbbdc67000ae6", "is_disabled": 0, "lon": -77.01386916666667, "is_reserved": 0, "fusion_lat": 0.0, "type": "electric_scooter"}, {"fusion_lon": 0.0, "name": "4b68ac18bd282b91ec9a5e2ab6b7b681", "rental_uris": {"android": "https://dc.lft.to/lastmile_qr_scan", "ios": "https://dc.lft.to/lastmile_qr_scan"}, "lat": 38.85445883333333, "bike_id": "4b68ac18bd282b91ec9a5e2ab6b7b681", "is_disabled": 0, "lon": -76.9860595, "is_reserved": 0, "fusion_lat": 0.0, "type": "electric_bike"}, {"fusion_lon": 0.0, "name": "4aa82a825d764a20130b5eab9bf0bd92", "rental_uris": {"android": "https://dc.lft.to/lastmile_qr_scan", "ios": "https://dc.lft.to/lastmile_qr_scan"}, "lat": 38.90930216666667, "bike_id": "4aa82a825d764a20130b5eab9bf0bd92", "is_disabled": 0, "lon": -77.0384045, "is_reserved": 0, "fusion_lat": 0.0, "type": "electric_scooter"}, {"fusion_lon": 0.0, "name": "41810fce7af82ffcbfd66167a8250252", "rental_uris": {"android": "https://dc.lft.to/lastmile_qr_scan", "ios": "https://dc.lft.to/lastmile_qr_scan"}, "lat": 38.894539, "bike_id": "41810fce7af82ffcbfd66167a8250252", "is_disabled": 0, "lon": -77.0266155, "is_reserved": 0, "fusion_lat": 0.0, "type": "electric_scooter"}, {"fusion_lon": 0.0, "name": "d3c9835daf83f4e4edbbc11fb3046e15", "rental_uris": {"android": "https://dc.lft.to/lastmile_qr_scan", "ios": "https://dc.lft.to/lastmile_qr_scan"}, "lat": 38.9436885, "bike_id": "d3c9835daf83f4e4edbbc11fb3046e15", "is_disabled": 0, "lon": -77.06097833333334, "is_reserved": 0, "fusion_lat": 0.0, "type": "electric_scooter"}, {"fusion_lon": 0.0, "name": "396fa803d7b065733711f41f8ccd77ad", "rental_uris": {"android": "https://dc.lft.to/lastmile_qr_scan", "ios": "https://dc.lft.to/lastmile_qr_scan"}, "lat": 38.846166, "bike_id": "396fa803d7b065733711f41f8ccd77ad", "is_disabled": 0, "lon": -76.9693135, "is_reserved": 0, "fusion_lat": 0.0, "type": "electric_bike"}, {"fusion_lon": 0.0, "name": "a600441ce34763d2c58ed3c79c48e380", "rental_uris": {"android": "https://dc.lft.to/lastmile_qr_scan", "ios": "https://dc.lft.to/lastmile_qr_scan"}, "lat": 38.9012985, "bike_id": "a600441ce34763d2c58ed3c79c48e380", "is_disabled": 0, "lon": -77.0031835, "is_reserved": 0, "fusion_lat": 0.0, "type": "electric_scooter"}, {"fusion_lon": 0.0, "name": "21a3d4459676030ae1536a7c36650edc", "rental_uris": {"android": "https://dc.lft.to/lastmile_qr_scan", "ios": "https://dc.lft.to/lastmile_qr_scan"}, "lat": 38.88991433333333, "bike_id": "21a3d4459676030ae1536a7c36650edc", "is_disabled": 0, "lon": -76.99513616666667, "is_reserved": 0, "fusion_lat": 0.0, "type": "electric_scooter"}, {"fusion_lon": 0.0, "name": "7fee396ecd84d7d37592347b8b744dcf", "rental_uris": {"android": "https://dc.lft.to/lastmile_qr_scan", "ios": "https://dc.lft.to/lastmile_qr_scan"}, "lat": 38.916962, "bike_id": "7fee396ecd84d7d37592347b8b744dcf", "is_disabled": 0, "lon": -77.01193966666666, "is_reserved": 0, "fusion_lat": 0.0, "type": "electric_scooter"}, {"fusion_lon": 0.0, "name": "ad900323b652efbc4f09826a8753f723", "rental_uris": {"android": "https://dc.lft.to/lastmile_qr_scan", "ios": "https://dc.lft.to/lastmile_qr_scan"}, "lat": 38.8961905, "bike_id": "ad900323b652efbc4f09826a8753f723", "is_disabled": 0, "lon": -77.0303645, "is_reserved": 0, "fusion_lat": 0.0, "type": "electric_scooter"}, {"fusion_lon": 0.0, "name": "c97c4dc50f0726d8a784a4f744608bf9", "rental_uris": {"android": "https://dc.lft.to/lastmile_qr_scan", "ios": "https://dc.lft.to/lastmile_qr_scan"}, "lat": 38.88772066666667, "bike_id": "c97c4dc50f0726d8a784a4f744608bf9", "is_disabled": 0, "lon": -76.93265583333333, "is_reserved": 0, "fusion_lat": 0.0, "type": "electric_scooter"}, {"fusion_lon": 0.0, "name": "9c38a3fc626552810a2fb925884fb1a5", "rental_uris": {"android": "https://dc.lft.to/lastmile_qr_scan", "ios": "https://dc.lft.to/lastmile_qr_scan"}, "lat": 38.90142266666667, "bike_id": "9c38a3fc626552810a2fb925884fb1a5", "is_disabled": 0, "lon": -77.049959, "is_reserved": 0, "fusion_lat": 0.0, "type": "electric_scooter"}, {"fusion_lon": 0.0, "name": "5d8817ab5de9fb4562ad8925d4af71e0", "rental_uris": {"android": "https://dc.lft.to/lastmile_qr_scan", "ios": "https://dc.lft.to/lastmile_qr_scan"}, "lat": 38.91416733333333, "bike_id": "5d8817ab5de9fb4562ad8925d4af71e0", "is_disabled": 0, "lon": -77.03257083333334, "is_reserved": 0, "fusion_lat": 0.0, "type": "electric_scooter"}, {"fusion_lon": 0.0, "name": "17aead07e54bfe764963b1fb98a61f51", "rental_uris": {"android": "https://dc.lft.to/lastmile_qr_scan", "ios": "https://dc.lft.to/lastmile_qr_scan"}, "lat": 38.9125035, "bike_id": "17aead07e54bfe764963b1fb98a61f51", "is_disabled": 0, "lon": -77.0222245, "is_reserved": 0, "fusion_lat": 0.0, "type": "electric_scooter"}, {"fusion_lon": 0.0, "name": "877998ec3dd1ea688f3356a2247ab5c9", "rental_uris": {"android": "https://dc.lft.to/lastmile_qr_scan", "ios": "https://dc.lft.to/lastmile_qr_scan"}, "lat": 38.9530155, "bike_id": "877998ec3dd1ea688f3356a2247ab5c9", "is_disabled": 0, "lon": -77.027771, "is_reserved": 0, "fusion_lat": 0.0, "type": "electric_scooter"}, {"fusion_lon": 0.0, "name": "94b8da4607b6c7644a855abff582d44e", "rental_uris": {"android": "https://dc.lft.to/lastmile_qr_scan", "ios": "https://dc.lft.to/lastmile_qr_scan"}, "lat": 38.8921865, "bike_id": "94b8da4607b6c7644a855abff582d44e", "is_disabled": 0, "lon": -77.02314116666666, "is_reserved": 0, "fusion_lat": 0.0, "type": "electric_scooter"}, {"fusion_lon": 0.0, "name": "09026874bc1079f548b21c7e7e292cf3", "rental_uris": {"android": "https://dc.lft.to/lastmile_qr_scan", "ios": "https://dc.lft.to/lastmile_qr_scan"}, "lat": 38.89599616666667, "bike_id": "09026874bc1079f548b21c7e7e292cf3", "is_disabled": 0, "lon": -76.96782616666667, "is_reserved": 0, "fusion_lat": 0.0, "type": "electric_bike"}, {"fusion_lon": 0.0, "name": "3a5154bf3f754cfd089ec7ad3a477058", "rental_uris": {"android": "https://dc.lft.to/lastmile_qr_scan", "ios": "https://dc.lft.to/lastmile_qr_scan"}, "lat": 38.906773666666666, "bike_id": "3a5154bf3f754cfd089ec7ad3a477058", "is_disabled": 0, "lon": -77.026942, "is_reserved": 0, "fusion_lat": 0.0, "type": "electric_scooter"}, {"fusion_lon": 0.0, "name": "453a242c8f24a64227b5d58222108941", "rental_uris": {"android": "https://dc.lft.to/lastmile_qr_scan", "ios": "https://dc.lft.to/lastmile_qr_scan"}, "lat": 38.9085125, "bike_id": "453a242c8f24a64227b5d58222108941", "is_disabled": 0, "lon": -77.000422, "is_reserved": 0, "fusion_lat": 0.0, "type": "electric_scooter"}, {"fusion_lon": 0.0, "name": "10b365c7a402a4096bea94f400229aed", "rental_uris": {"android": "https://dc.lft.to/lastmile_qr_scan", "ios": "https://dc.lft.to/lastmile_qr_scan"}, "lat": 38.917079333333334, "bike_id": "10b365c7a402a4096bea94f400229aed", "is_disabled": 0, "lon": -77.0386715, "is_reserved": 0, "fusion_lat": 0.0, "type": "electric_scooter"}, {"fusion_lon": 0.0, "name": "9c98b8dfdc45afcac3541ec9af4aaca0", "rental_uris": {"android": "https://dc.lft.to/lastmile_qr_scan", "ios": "https://dc.lft.to/lastmile_qr_scan"}, "lat": 38.926892, "bike_id": "9c98b8dfdc45afcac3541ec9af4aaca0", "is_disabled": 0, "lon": -77.02966083333334, "is_reserved": 0, "fusion_lat": 0.0, "type": "electric_scooter"}, {"fusion_lon": 0.0, "name": "fccddecb89387dc949701deae426b2f7", "rental_uris": {"android": "https://dc.lft.to/lastmile_qr_scan", "ios": "https://dc.lft.to/lastmile_qr_scan"}, "lat": 38.924824666666666, "bike_id": "fccddecb89387dc949701deae426b2f7", "is_disabled": 0, "lon": -77.03900816666666, "is_reserved": 0, "fusion_lat": 0.0, "type": "electric_scooter"}, {"fusion_lon": 0.0, "name": "4aced65081108da4f229292b1d503e49", "rental_uris": {"android": "https://dc.lft.to/lastmile_qr_scan", "ios": "https://dc.lft.to/lastmile_qr_scan"}, "lat": 38.9042595, "bike_id": "4aced65081108da4f229292b1d503e49", "is_disabled": 0, "lon": -77.02589633333334, "is_reserved": 0, "fusion_lat": 0.0, "type": "electric_scooter"}, {"fusion_lon": 0.0, "name": "38b1b31418a1e02ac74ed80b86faadef", "rental_uris": {"android": "https://dc.lft.to/lastmile_qr_scan", "ios": "https://dc.lft.to/lastmile_qr_scan"}, "lat": 38.896502, "bike_id": "38b1b31418a1e02ac74ed80b86faadef", "is_disabled": 0, "lon": -77.0503615, "is_reserved": 0, "fusion_lat": 0.0, "type": "electric_scooter"}, {"fusion_lon": 0.0, "name": "08dbb5b28dc77fdb2c96eb30b57514f1", "rental_uris": {"android": "https://dc.lft.to/lastmile_qr_scan", "ios": "https://dc.lft.to/lastmile_qr_scan"}, "lat": 38.883721, "bike_id": "08dbb5b28dc77fdb2c96eb30b57514f1", "is_disabled": 0, "lon": -76.995194, "is_reserved": 0, "fusion_lat": 0.0, "type": "electric_scooter"}, {"fusion_lon": 0.0, "name": "157ca637faf51ec095f243f2e4e39d9a", "rental_uris": {"android": "https://dc.lft.to/lastmile_qr_scan", "ios": "https://dc.lft.to/lastmile_qr_scan"}, "lat": 38.9067925, "bike_id": "157ca637faf51ec095f243f2e4e39d9a", "is_disabled": 0, "lon": -77.02696, "is_reserved": 0, "fusion_lat": 0.0, "type": "electric_scooter"}, {"fusion_lon": 0.0, "name": "0f498fac59826a4d65a384056992c059", "rental_uris": {"android": "https://dc.lft.to/lastmile_qr_scan", "ios": "https://dc.lft.to/lastmile_qr_scan"}, "lat": 38.893061833333334, "bike_id": "0f498fac59826a4d65a384056992c059", "is_disabled": 0, "lon": -76.93965466666667, "is_reserved": 0, "fusion_lat": 0.0, "type": "electric_scooter"}, {"fusion_lon": 0.0, "name": "7b6b4683b2e6b76d5418179655805235", "rental_uris": {"android": "https://dc.lft.to/lastmile_qr_scan", "ios": "https://dc.lft.to/lastmile_qr_scan"}, "lat": 38.944389666666666, "bike_id": "7b6b4683b2e6b76d5418179655805235", "is_disabled": 0, "lon": -77.06348816666667, "is_reserved": 0, "fusion_lat": 0.0, "type": "electric_scooter"}, {"fusion_lon": 0.0, "name": "2b55d44b07d61b94d641bfcd3242ba50", "rental_uris": {"android": "https://dc.lft.to/lastmile_qr_scan", "ios": "https://dc.lft.to/lastmile_qr_scan"}, "lat": 38.906892666666664, "bike_id": "2b55d44b07d61b94d641bfcd3242ba50", "is_disabled": 0, "lon": -77.04883766666667, "is_reserved": 0, "fusion_lat": 0.0, "type": "electric_scooter"}, {"fusion_lon": 0.0, "name": "21ddc68b8367348195ca107ef2b7ba2e", "rental_uris": {"android": "https://dc.lft.to/lastmile_qr_scan", "ios": "https://dc.lft.to/lastmile_qr_scan"}, "lat": 38.92360433333333, "bike_id": "21ddc68b8367348195ca107ef2b7ba2e", "is_disabled": 0, "lon": -77.0502755, "is_reserved": 0, "fusion_lat": 0.0, "type": "electric_scooter"}, {"fusion_lon": 0.0, "name": "8d168d8c4d7d6b3a161b971183cfcfa5", "rental_uris": {"android": "https://dc.lft.to/lastmile_qr_scan", "ios": "https://dc.lft.to/lastmile_qr_scan"}, "lat": 38.847570833333336, "bike_id": "8d168d8c4d7d6b3a161b971183cfcfa5", "is_disabled": 0, "lon": -77.053744, "is_reserved": 0, "fusion_lat": 0.0, "type": "electric_bike"}, {"fusion_lon": 0.0, "name": "90e88513afe22589352750c5f9029b72", "rental_uris": {"android": "https://dc.lft.to/lastmile_qr_scan", "ios": "https://dc.lft.to/lastmile_qr_scan"}, "lat": 38.922708666666665, "bike_id": "90e88513afe22589352750c5f9029b72", "is_disabled": 0, "lon": -77.02962383333333, "is_reserved": 0, "fusion_lat": 0.0, "type": "electric_scooter"}, {"fusion_lon": 0.0, "name": "32bb661faa542689a8640dbc1487c107", "rental_uris": {"android": "https://dc.lft.to/lastmile_qr_scan", "ios": "https://dc.lft.to/lastmile_qr_scan"}, "lat": 38.92599466666667, "bike_id": "32bb661faa542689a8640dbc1487c107", "is_disabled": 0, "lon": -77.02156566666666, "is_reserved": 0, "fusion_lat": 0.0, "type": "electric_scooter"}, {"fusion_lon": 0.0, "name": "31d59b5219ba003e31b0a48e34a46096", "rental_uris": {"android": "https://dc.lft.to/lastmile_qr_scan", "ios": "https://dc.lft.to/lastmile_qr_scan"}, "lat": 38.910502666666666, "bike_id": "31d59b5219ba003e31b0a48e34a46096", "is_disabled": 0, "lon": -77.0532405, "is_reserved": 0, "fusion_lat": 0.0, "type": "electric_scooter"}, {"fusion_lon": 0.0, "name": "714d9867b4ec0313bec185b92ea59203", "rental_uris": {"android": "https://dc.lft.to/lastmile_qr_scan", "ios": "https://dc.lft.to/lastmile_qr_scan"}, "lat": 38.93613283333333, "bike_id": "714d9867b4ec0313bec185b92ea59203", "is_disabled": 0, "lon": -77.05598133333334, "is_reserved": 0, "fusion_lat": 0.0, "type": "electric_scooter"}, {"fusion_lon": 0.0, "name": "e9b6e93d987874b72e5b4cfc7ef35029", "rental_uris": {"android": "https://dc.lft.to/lastmile_qr_scan", "ios": "https://dc.lft.to/lastmile_qr_scan"}, "lat": 38.92364416666667, "bike_id": "e9b6e93d987874b72e5b4cfc7ef35029", "is_disabled": 0, "lon": -77.05131283333333, "is_reserved": 0, "fusion_lat": 0.0, "type": "electric_scooter"}, {"fusion_lon": 0.0, "name": "18956d319ba7b7b3ee6f40bd50e1c46f", "rental_uris": {"android": "https://dc.lft.to/lastmile_qr_scan", "ios": "https://dc.lft.to/lastmile_qr_scan"}, "lat": 38.9058925, "bike_id": "18956d319ba7b7b3ee6f40bd50e1c46f", "is_disabled": 0, "lon": -77.041075, "is_reserved": 0, "fusion_lat": 0.0, "type": "electric_scooter"}, {"fusion_lon": 0.0, "name": "bd2f6273ee3f76e0463c24ee7c29f044", "rental_uris": {"android": "https://dc.lft.to/lastmile_qr_scan", "ios": "https://dc.lft.to/lastmile_qr_scan"}, "lat": 38.89628833333333, "bike_id": "bd2f6273ee3f76e0463c24ee7c29f044", "is_disabled": 0, "lon": -77.03222816666667, "is_reserved": 0, "fusion_lat": 0.0, "type": "electric_scooter"}, {"fusion_lon": 0.0, "name": "b271fba5ca76801dc59218a5513b7fa2", "rental_uris": {"android": "https://dc.lft.to/lastmile_qr_scan", "ios": "https://dc.lft.to/lastmile_qr_scan"}, "lat": 38.89489783333333, "bike_id": "b271fba5ca76801dc59218a5513b7fa2", "is_disabled": 0, "lon": -76.9489315, "is_reserved": 0, "fusion_lat": 0.0, "type": "electric_scooter"}, {"fusion_lon": 0.0, "name": "9d7874bb8868ebf9334500fa1bbead47", "rental_uris": {"android": "https://dc.lft.to/lastmile_qr_scan", "ios": "https://dc.lft.to/lastmile_qr_scan"}, "lat": 38.875385666666666, "bike_id": "9d7874bb8868ebf9334500fa1bbead47", "is_disabled": 0, "lon": -77.01758016666666, "is_reserved": 0, "fusion_lat": 0.0, "type": "electric_scooter"}, {"fusion_lon": 0.0, "name": "c6faee748792c4c7a2af7feb7dc64f49", "rental_uris": {"android": "https://dc.lft.to/lastmile_qr_scan", "ios": "https://dc.lft.to/lastmile_qr_scan"}, "lat": 38.8979085, "bike_id": "c6faee748792c4c7a2af7feb7dc64f49", "is_disabled": 0, "lon": -77.050028, "is_reserved": 0, "fusion_lat": 0.0, "type": "electric_scooter"}, {"fusion_lon": 0.0, "name": "2ff69485e7a7cfe6c64f8ba32e4677c5", "rental_uris": {"android": "https://dc.lft.to/lastmile_qr_scan", "ios": "https://dc.lft.to/lastmile_qr_scan"}, "lat": 38.927943166666665, "bike_id": "2ff69485e7a7cfe6c64f8ba32e4677c5", "is_disabled": 0, "lon": -77.036962, "is_reserved": 0, "fusion_lat": 0.0, "type": "electric_scooter"}, {"fusion_lon": 0.0, "name": "3e2620a91bff5c1c6aa59e8cfa4a2da6", "rental_uris": {"android": "https://dc.lft.to/lastmile_qr_scan", "ios": "https://dc.lft.to/lastmile_qr_scan"}, "lat": 38.897119833333335, "bike_id": "3e2620a91bff5c1c6aa59e8cfa4a2da6", "is_disabled": 0, "lon": -77.02167283333333, "is_reserved": 0, "fusion_lat": 0.0, "type": "electric_scooter"}, {"fusion_lon": 0.0, "name": "34f6692990241c706e48c6a85905593d", "rental_uris": {"android": "https://dc.lft.to/lastmile_qr_scan", "ios": "https://dc.lft.to/lastmile_qr_scan"}, "lat": 38.90170083333334, "bike_id": "34f6692990241c706e48c6a85905593d", "is_disabled": 0, "lon": -76.98072666666667, "is_reserved": 0, "fusion_lat": 0.0, "type": "electric_scooter"}, {"fusion_lon": 0.0, "name": "9bd9049e508afa44d81edfef578a8290", "rental_uris": {"android": "https://dc.lft.to/lastmile_qr_scan", "ios": "https://dc.lft.to/lastmile_qr_scan"}, "lat": 38.922503, "bike_id": "9bd9049e508afa44d81edfef578a8290", "is_disabled": 0, "lon": -77.03049033333333, "is_reserved": 0, "fusion_lat": 0.0, "type": "electric_scooter"}, {"fusion_lon": 0.0, "name": "fea1fcd9812dcd81e0a0640ebfd70bd6", "rental_uris": {"android": "https://dc.lft.to/lastmile_qr_scan", "ios": "https://dc.lft.to/lastmile_qr_scan"}, "lat": 38.91908433333333, "bike_id": "fea1fcd9812dcd81e0a0640ebfd70bd6", "is_disabled": 0, "lon": -77.04629816666667, "is_reserved": 0, "fusion_lat": 0.0, "type": "electric_scooter"}, {"fusion_lon": 0.0, "name": "05987de70d57b96c2f4d85c5ef18410a", "rental_uris": {"android": "https://dc.lft.to/lastmile_qr_scan", "ios": "https://dc.lft.to/lastmile_qr_scan"}, "lat": 38.857069333333335, "bike_id": "05987de70d57b96c2f4d85c5ef18410a", "is_disabled": 0, "lon": -76.98128016666666, "is_reserved": 0, "fusion_lat": 0.0, "type": "electric_scooter"}, {"fusion_lon": 0.0, "name": "a92255ce3cd49ae7876cad517391f76a", "rental_uris": {"android": "https://dc.lft.to/lastmile_qr_scan", "ios": "https://dc.lft.to/lastmile_qr_scan"}, "lat": 38.875673666666664, "bike_id": "a92255ce3cd49ae7876cad517391f76a", "is_disabled": 0, "lon": -77.00605066666667, "is_reserved": 0, "fusion_lat": 0.0, "type": "electric_scooter"}, {"fusion_lon": 0.0, "name": "cfd1f1781c2596127be2b1885c5a2ff9", "rental_uris": {"android": "https://dc.lft.to/lastmile_qr_scan", "ios": "https://dc.lft.to/lastmile_qr_scan"}, "lat": 38.92594116666667, "bike_id": "cfd1f1781c2596127be2b1885c5a2ff9", "is_disabled": 0, "lon": -77.02489666666666, "is_reserved": 0, "fusion_lat": 0.0, "type": "electric_scooter"}, {"fusion_lon": 0.0, "name": "f2aefb077f2cbfb83df65268485fdfcd", "rental_uris": {"android": "https://dc.lft.to/lastmile_qr_scan", "ios": "https://dc.lft.to/lastmile_qr_scan"}, "lat": 38.92737533333333, "bike_id": "f2aefb077f2cbfb83df65268485fdfcd", "is_disabled": 0, "lon": -77.02592233333333, "is_reserved": 0, "fusion_lat": 0.0, "type": "electric_scooter"}, {"fusion_lon": 0.0, "name": "be30498de9093b5e4bd371a08eae27a3", "rental_uris": {"android": "https://dc.lft.to/lastmile_qr_scan", "ios": "https://dc.lft.to/lastmile_qr_scan"}, "lat": 38.91881633333333, "bike_id": "be30498de9093b5e4bd371a08eae27a3", "is_disabled": 0, "lon": -77.01897116666666, "is_reserved": 0, "fusion_lat": 0.0, "type": "electric_scooter"}, {"fusion_lon": 0.0, "name": "08dd4b96334d284d4f0c206c8edf964b", "rental_uris": {"android": "https://dc.lft.to/lastmile_qr_scan", "ios": "https://dc.lft.to/lastmile_qr_scan"}, "lat": 38.864716, "bike_id": "08dd4b96334d284d4f0c206c8edf964b", "is_disabled": 0, "lon": -76.98235883333334, "is_reserved": 0, "fusion_lat": 0.0, "type": "electric_scooter"}, {"fusion_lon": 0.0, "name": "91dfd238c8d86bf98e726c9517739da6", "rental_uris": {"android": "https://dc.lft.to/lastmile_qr_scan", "ios": "https://dc.lft.to/lastmile_qr_scan"}, "lat": 38.929898666666666, "bike_id": "91dfd238c8d86bf98e726c9517739da6", "is_disabled": 0, "lon": -77.032309, "is_reserved": 0, "fusion_lat": 0.0, "type": "electric_scooter"}, {"fusion_lon": 0.0, "name": "d2806e22b05dfa64c46c1315b3160be9", "rental_uris": {"android": "https://dc.lft.to/lastmile_qr_scan", "ios": "https://dc.lft.to/lastmile_qr_scan"}, "lat": 38.86507866666667, "bike_id": "d2806e22b05dfa64c46c1315b3160be9", "is_disabled": 0, "lon": -76.96901566666666, "is_reserved": 0, "fusion_lat": 0.0, "type": "electric_scooter"}, {"fusion_lon": 0.0, "name": "ab1c10442c423237452a9f2a4809ba02", "rental_uris": {"android": "https://dc.lft.to/lastmile_qr_scan", "ios": "https://dc.lft.to/lastmile_qr_scan"}, "lat": 38.90553883333333, "bike_id": "ab1c10442c423237452a9f2a4809ba02", "is_disabled": 0, "lon": -77.03250816666667, "is_reserved": 0, "fusion_lat": 0.0, "type": "electric_scooter"}, {"fusion_lon": 0.0, "name": "1f72beef832971d3bd40443142ea9aa8", "rental_uris": {"android": "https://dc.lft.to/lastmile_qr_scan", "ios": "https://dc.lft.to/lastmile_qr_scan"}, "lat": 38.9208045, "bike_id": "1f72beef832971d3bd40443142ea9aa8", "is_disabled": 0, "lon": -77.02314183333333, "is_reserved": 0, "fusion_lat": 0.0, "type": "electric_scooter"}, {"fusion_lon": 0.0, "name": "32bdc0a27707c0a68c2b39056ef0bbf8", "rental_uris": {"android": "https://dc.lft.to/lastmile_qr_scan", "ios": "https://dc.lft.to/lastmile_qr_scan"}, "lat": 38.924439, "bike_id": "32bdc0a27707c0a68c2b39056ef0bbf8", "is_disabled": 0, "lon": -77.0215895, "is_reserved": 0, "fusion_lat": 0.0, "type": "electric_scooter"}, {"fusion_lon": 0.0, "name": "c3c22c95d5f1d5ae74e742b547b07395", "rental_uris": {"android": "https://dc.lft.to/lastmile_qr_scan", "ios": "https://dc.lft.to/lastmile_qr_scan"}, "lat": 38.9967245, "bike_id": "c3c22c95d5f1d5ae74e742b547b07395", "is_disabled": 0, "lon": -77.03780083333334, "is_reserved": 0, "fusion_lat": 0.0, "type": "electric_bike"}, {"fusion_lon": 0.0, "name": "f6b988039599d327807da6b675054240", "rental_uris": {"android": "https://dc.lft.to/lastmile_qr_scan", "ios": "https://dc.lft.to/lastmile_qr_scan"}, "lat": 38.903716, "bike_id": "f6b988039599d327807da6b675054240", "is_disabled": 0, "lon": -77.03216733333333, "is_reserved": 0, "fusion_lat": 0.0, "type": "electric_scooter"}, {"fusion_lon": 0.0, "name": "888037bf156f80d154020f293ec40af4", "rental_uris": {"android": "https://dc.lft.to/lastmile_qr_scan", "ios": "https://dc.lft.to/lastmile_qr_scan"}, "lat": 38.96918733333333, "bike_id": "888037bf156f80d154020f293ec40af4", "is_disabled": 0, "lon": -76.9949365, "is_reserved": 0, "fusion_lat": 0.0, "type": "electric_bike"}, {"fusion_lon": 0.0, "name": "1f951bc71208657c84070c73de339a45", "rental_uris": {"android": "https://dc.lft.to/lastmile_qr_scan", "ios": "https://dc.lft.to/lastmile_qr_scan"}, "lat": 38.92439516666666, "bike_id": "1f951bc71208657c84070c73de339a45", "is_disabled": 0, "lon": -77.0520955, "is_reserved": 0, "fusion_lat": 0.0, "type": "electric_scooter"}, {"fusion_lon": 0.0, "name": "0cb0949d03cf18dda4898d970d68edbd", "rental_uris": {"android": "https://dc.lft.to/lastmile_qr_scan", "ios": "https://dc.lft.to/lastmile_qr_scan"}, "lat": 38.92470433333333, "bike_id": "0cb0949d03cf18dda4898d970d68edbd", "is_disabled": 0, "lon": -77.02204266666666, "is_reserved": 0, "fusion_lat": 0.0, "type": "electric_scooter"}, {"fusion_lon": 0.0, "name": "42164e185194ea41fcd5ea7be0b786f8", "rental_uris": {"android": "https://dc.lft.to/lastmile_qr_scan", "ios": "https://dc.lft.to/lastmile_qr_scan"}, "lat": 38.91358666666667, "bike_id": "42164e185194ea41fcd5ea7be0b786f8", "is_disabled": 0, "lon": -77.02004766666667, "is_reserved": 0, "fusion_lat": 0.0, "type": "electric_scooter"}, {"fusion_lon": 0.0, "name": "3d7b5fbb38b199b5ee233ccc30fa291c", "rental_uris": {"android": "https://dc.lft.to/lastmile_qr_scan", "ios": "https://dc.lft.to/lastmile_qr_scan"}, "lat": 38.93379683333333, "bike_id": "3d7b5fbb38b199b5ee233ccc30fa291c", "is_disabled": 0, "lon": -77.03250216666666, "is_reserved": 0, "fusion_lat": 0.0, "type": "electric_scooter"}, {"fusion_lon": 0.0, "name": "e6371d0a465c99213bd0580ebc1081dd", "rental_uris": {"android": "https://dc.lft.to/lastmile_qr_scan", "ios": "https://dc.lft.to/lastmile_qr_scan"}, "lat": 38.87863183333333, "bike_id": "e6371d0a465c99213bd0580ebc1081dd", "is_disabled": 0, "lon": -77.00482733333334, "is_reserved": 0, "fusion_lat": 0.0, "type": "electric_scooter"}, {"fusion_lon": 0.0, "name": "8a980e5859b68ccbb6ff92271978a891", "rental_uris": {"android": "https://dc.lft.to/lastmile_qr_scan", "ios": "https://dc.lft.to/lastmile_qr_scan"}, "lat": 38.91984166666667, "bike_id": "8a980e5859b68ccbb6ff92271978a891", "is_disabled": 0, "lon": -77.03267883333334, "is_reserved": 0, "fusion_lat": 0.0, "type": "electric_scooter"}, {"fusion_lon": 0.0, "name": "3814710337931a37ac2c7b61794b9945", "rental_uris": {"android": "https://dc.lft.to/lastmile_qr_scan", "ios": "https://dc.lft.to/lastmile_qr_scan"}, "lat": 38.92612783333333, "bike_id": "3814710337931a37ac2c7b61794b9945", "is_disabled": 0, "lon": -77.02172583333333, "is_reserved": 0, "fusion_lat": 0.0, "type": "electric_scooter"}, {"fusion_lon": 0.0, "name": "bc3896842b01ed9b95b7f76e2e40ea9f", "rental_uris": {"android": "https://dc.lft.to/lastmile_qr_scan", "ios": "https://dc.lft.to/lastmile_qr_scan"}, "lat": 38.9263315, "bike_id": "bc3896842b01ed9b95b7f76e2e40ea9f", "is_disabled": 0, "lon": -77.022304, "is_reserved": 0, "fusion_lat": 0.0, "type": "electric_scooter"}, {"fusion_lon": 0.0, "name": "04d758e1f33b74e3b4a06ea0b49ae282", "rental_uris": {"android": "https://dc.lft.to/lastmile_qr_scan", "ios": "https://dc.lft.to/lastmile_qr_scan"}, "lat": 38.91820516666667, "bike_id": "04d758e1f33b74e3b4a06ea0b49ae282", "is_disabled": 0, "lon": -77.04172283333334, "is_reserved": 0, "fusion_lat": 0.0, "type": "electric_scooter"}, {"fusion_lon": 0.0, "name": "194ef17318260b13701b17d11bd5a603", "rental_uris": {"android": "https://dc.lft.to/lastmile_qr_scan", "ios": "https://dc.lft.to/lastmile_qr_scan"}, "lat": 38.918451, "bike_id": "194ef17318260b13701b17d11bd5a603", "is_disabled": 0, "lon": -77.038597, "is_reserved": 0, "fusion_lat": 0.0, "type": "electric_scooter"}, {"fusion_lon": 0.0, "name": "0cfe2254e7263fed1c5e31b29ab3bfad", "rental_uris": {"android": "https://dc.lft.to/lastmile_qr_scan", "ios": "https://dc.lft.to/lastmile_qr_scan"}, "lat": 38.92250383333333, "bike_id": "0cfe2254e7263fed1c5e31b29ab3bfad", "is_disabled": 0, "lon": -77.019483, "is_reserved": 0, "fusion_lat": 0.0, "type": "electric_scooter"}, {"fusion_lon": 0.0, "name": "4651f39735725d02d315b674bf59fe1b", "rental_uris": {"android": "https://dc.lft.to/lastmile_qr_scan", "ios": "https://dc.lft.to/lastmile_qr_scan"}, "lat": 38.90910566666667, "bike_id": "4651f39735725d02d315b674bf59fe1b", "is_disabled": 0, "lon": -77.04348116666667, "is_reserved": 0, "fusion_lat": 0.0, "type": "electric_scooter"}, {"fusion_lon": 0.0, "name": "8b1859ee42123e18b18500be6cf8def0", "rental_uris": {"android": "https://dc.lft.to/lastmile_qr_scan", "ios": "https://dc.lft.to/lastmile_qr_scan"}, "lat": 38.903496833333335, "bike_id": "8b1859ee42123e18b18500be6cf8def0", "is_disabled": 0, "lon": -77.06199966666667, "is_reserved": 0, "fusion_lat": 0.0, "type": "electric_scooter"}, {"fusion_lon": 0.0, "name": "f4519584e9aec11e08485d7c1a0e7fe6", "rental_uris": {"android": "https://dc.lft.to/lastmile_qr_scan", "ios": "https://dc.lft.to/lastmile_qr_scan"}, "lat": 38.92358633333333, "bike_id": "f4519584e9aec11e08485d7c1a0e7fe6", "is_disabled": 0, "lon": -77.01915716666667, "is_reserved": 0, "fusion_lat": 0.0, "type": "electric_scooter"}, {"fusion_lon": 0.0, "name": "0b828881e0568e8e067a3cd08cc0bfbc", "rental_uris": {"android": "https://dc.lft.to/lastmile_qr_scan", "ios": "https://dc.lft.to/lastmile_qr_scan"}, "lat": 38.92795483333333, "bike_id": "0b828881e0568e8e067a3cd08cc0bfbc", "is_disabled": 0, "lon": -77.0369655, "is_reserved": 0, "fusion_lat": 0.0, "type": "electric_scooter"}, {"fusion_lon": 0.0, "name": "bf4b41e84dcdfe85efa874fc45f75cd6", "rental_uris": {"android": "https://dc.lft.to/lastmile_qr_scan", "ios": "https://dc.lft.to/lastmile_qr_scan"}, "lat": 38.9101795, "bike_id": "bf4b41e84dcdfe85efa874fc45f75cd6", "is_disabled": 0, "lon": -77.03859916666667, "is_reserved": 0, "fusion_lat": 0.0, "type": "electric_scooter"}, {"fusion_lon": 0.0, "name": "df6f0116f7f0659a971596ec91387776", "rental_uris": {"android": "https://dc.lft.to/lastmile_qr_scan", "ios": "https://dc.lft.to/lastmile_qr_scan"}, "lat": 38.9384905, "bike_id": "df6f0116f7f0659a971596ec91387776", "is_disabled": 0, "lon": -77.024518, "is_reserved": 0, "fusion_lat": 0.0, "type": "electric_scooter"}, {"fusion_lon": 0.0, "name": "1e2e7d01a1f4fc9f0ad4de536de3eb38", "rental_uris": {"android": "https://dc.lft.to/lastmile_qr_scan", "ios": "https://dc.lft.to/lastmile_qr_scan"}, "lat": 38.950663, "bike_id": "1e2e7d01a1f4fc9f0ad4de536de3eb38", "is_disabled": 0, "lon": -77.0663555, "is_reserved": 0, "fusion_lat": 0.0, "type": "electric_bike"}, {"fusion_lon": 0.0, "name": "cdb791257a564dc71a9cc94e236f5632", "rental_uris": {"android": "https://dc.lft.to/lastmile_qr_scan", "ios": "https://dc.lft.to/lastmile_qr_scan"}, "lat": 38.8969555, "bike_id": "cdb791257a564dc71a9cc94e236f5632", "is_disabled": 0, "lon": -77.04342583333333, "is_reserved": 0, "fusion_lat": 0.0, "type": "electric_scooter"}, {"fusion_lon": 0.0, "name": "d3d29ac6142d08e21c7fd26019090aea", "rental_uris": {"android": "https://dc.lft.to/lastmile_qr_scan", "ios": "https://dc.lft.to/lastmile_qr_scan"}, "lat": 38.9140305, "bike_id": "d3d29ac6142d08e21c7fd26019090aea", "is_disabled": 0, "lon": -77.01843116666667, "is_reserved": 0, "fusion_lat": 0.0, "type": "electric_scooter"}, {"fusion_lon": 0.0, "name": "1821f9365103e3977b343516e923c608", "rental_uris": {"android": "https://dc.lft.to/lastmile_qr_scan", "ios": "https://dc.lft.to/lastmile_qr_scan"}, "lat": 38.88133966666667, "bike_id": "1821f9365103e3977b343516e923c608", "is_disabled": 0, "lon": -77.01301133333334, "is_reserved": 0, "fusion_lat": 0.0, "type": "electric_scooter"}, {"fusion_lon": 0.0, "name": "9b4b0292d26b58632382b32dff0a2548", "rental_uris": {"android": "https://dc.lft.to/lastmile_qr_scan", "ios": "https://dc.lft.to/lastmile_qr_scan"}, "lat": 38.89745116666667, "bike_id": "9b4b0292d26b58632382b32dff0a2548", "is_disabled": 0, "lon": -76.97684166666667, "is_reserved": 0, "fusion_lat": 0.0, "type": "electric_scooter"}, {"fusion_lon": 0.0, "name": "2eaf25f126a7af4a979e0e5a4714927d", "rental_uris": {"android": "https://dc.lft.to/lastmile_qr_scan", "ios": "https://dc.lft.to/lastmile_qr_scan"}, "lat": 38.930142000000004, "bike_id": "2eaf25f126a7af4a979e0e5a4714927d", "is_disabled": 0, "lon": -77.06189266666667, "is_reserved": 0, "fusion_lat": 0.0, "type": "electric_scooter"}, {"fusion_lon": 0.0, "name": "a75e5905c2b93b3f95fb05a11d09e049", "rental_uris": {"android": "https://dc.lft.to/lastmile_qr_scan", "ios": "https://dc.lft.to/lastmile_qr_scan"}, "lat": 38.901554833333336, "bike_id": "a75e5905c2b93b3f95fb05a11d09e049", "is_disabled": 0, "lon": -76.97425783333334, "is_reserved": 0, "fusion_lat": 0.0, "type": "electric_scooter"}, {"fusion_lon": 0.0, "name": "82463198ef1d3d97e01b05f8ff5fbe18", "rental_uris": {"android": "https://dc.lft.to/lastmile_qr_scan", "ios": "https://dc.lft.to/lastmile_qr_scan"}, "lat": 38.88401833333333, "bike_id": "82463198ef1d3d97e01b05f8ff5fbe18", "is_disabled": 0, "lon": -76.99622533333333, "is_reserved": 0, "fusion_lat": 0.0, "type": "electric_scooter"}, {"fusion_lon": 0.0, "name": "6feaf86ac61a609791fa18361446859a", "rental_uris": {"android": "https://dc.lft.to/lastmile_qr_scan", "ios": "https://dc.lft.to/lastmile_qr_scan"}, "lat": 38.902256666666666, "bike_id": "6feaf86ac61a609791fa18361446859a", "is_disabled": 0, "lon": -77.0327085, "is_reserved": 0, "fusion_lat": 0.0, "type": "electric_scooter"}, {"fusion_lon": 0.0, "name": "65a3072d6608164738ff8c1c0aebc958", "rental_uris": {"android": "https://dc.lft.to/lastmile_qr_scan", "ios": "https://dc.lft.to/lastmile_qr_scan"}, "lat": 38.915319333333336, "bike_id": "65a3072d6608164738ff8c1c0aebc958", "is_disabled": 0, "lon": -77.04465816666666, "is_reserved": 0, "fusion_lat": 0.0, "type": "electric_scooter"}, {"fusion_lon": 0.0, "name": "5b6a946d38e76b4fbd3677b2e4130e51", "rental_uris": {"android": "https://dc.lft.to/lastmile_qr_scan", "ios": "https://dc.lft.to/lastmile_qr_scan"}, "lat": 38.90889883333333, "bike_id": "5b6a946d38e76b4fbd3677b2e4130e51", "is_disabled": 0, "lon": -77.0229065, "is_reserved": 0, "fusion_lat": 0.0, "type": "electric_scooter"}, {"fusion_lon": 0.0, "name": "f44240a54b5741c539adeb115bf0261f", "rental_uris": {"android": "https://dc.lft.to/lastmile_qr_scan", "ios": "https://dc.lft.to/lastmile_qr_scan"}, "lat": 38.95891966666667, "bike_id": "f44240a54b5741c539adeb115bf0261f", "is_disabled": 0, "lon": -76.9704725, "is_reserved": 0, "fusion_lat": 0.0, "type": "electric_bike"}, {"fusion_lon": 0.0, "name": "d7c1697de759fa5589091ac501bb161e", "rental_uris": {"android": "https://dc.lft.to/lastmile_qr_scan", "ios": "https://dc.lft.to/lastmile_qr_scan"}, "lat": 38.9147615, "bike_id": "d7c1697de759fa5589091ac501bb161e", "is_disabled": 0, "lon": -77.01887733333334, "is_reserved": 0, "fusion_lat": 0.0, "type": "electric_scooter"}, {"fusion_lon": 0.0, "name": "a1b898fdd9072adc360cb09a75652af1", "rental_uris": {"android": "https://dc.lft.to/lastmile_qr_scan", "ios": "https://dc.lft.to/lastmile_qr_scan"}, "lat": 38.91713166666667, "bike_id": "a1b898fdd9072adc360cb09a75652af1", "is_disabled": 0, "lon": -77.0386735, "is_reserved": 0, "fusion_lat": 0.0, "type": "electric_scooter"}, {"fusion_lon": 0.0, "name": "0bfba14dc5bdfacc028491efe5add2b9", "rental_uris": {"android": "https://dc.lft.to/lastmile_qr_scan", "ios": "https://dc.lft.to/lastmile_qr_scan"}, "lat": 38.9603005, "bike_id": "0bfba14dc5bdfacc028491efe5add2b9", "is_disabled": 0, "lon": -77.03325233333334, "is_reserved": 0, "fusion_lat": 0.0, "type": "electric_scooter"}, {"fusion_lon": 0.0, "name": "e7f0b37457de369022ecb380b3c6614b", "rental_uris": {"android": "https://dc.lft.to/lastmile_qr_scan", "ios": "https://dc.lft.to/lastmile_qr_scan"}, "lat": 38.93404183333333, "bike_id": "e7f0b37457de369022ecb380b3c6614b", "is_disabled": 0, "lon": -77.03821916666666, "is_reserved": 0, "fusion_lat": 0.0, "type": "electric_scooter"}, {"fusion_lon": 0.0, "name": "135061a2a133c647d7beba8dfdb20300", "rental_uris": {"android": "https://dc.lft.to/lastmile_qr_scan", "ios": "https://dc.lft.to/lastmile_qr_scan"}, "lat": 38.8766025, "bike_id": "135061a2a133c647d7beba8dfdb20300", "is_disabled": 0, "lon": -77.01168266666667, "is_reserved": 0, "fusion_lat": 0.0, "type": "electric_scooter"}, {"fusion_lon": 0.0, "name": "57946fa563a0fa50e81c3e8398f90b74", "rental_uris": {"android": "https://dc.lft.to/lastmile_qr_scan", "ios": "https://dc.lft.to/lastmile_qr_scan"}, "lat": 38.784636166666665, "bike_id": "57946fa563a0fa50e81c3e8398f90b74", "is_disabled": 0, "lon": -77.05438816666667, "is_reserved": 0, "fusion_lat": 0.0, "type": "electric_bike"}, {"fusion_lon": 0.0, "name": "fa66f458fff6a64d6b5c5745d089b330", "rental_uris": {"android": "https://dc.lft.to/lastmile_qr_scan", "ios": "https://dc.lft.to/lastmile_qr_scan"}, "lat": 38.87291233333333, "bike_id": "fa66f458fff6a64d6b5c5745d089b330", "is_disabled": 0, "lon": -77.00230666666667, "is_reserved": 0, "fusion_lat": 0.0, "type": "electric_scooter"}, {"fusion_lon": 0.0, "name": "45c9137abf359dd2d897a937e7948ae0", "rental_uris": {"android": "https://dc.lft.to/lastmile_qr_scan", "ios": "https://dc.lft.to/lastmile_qr_scan"}, "lat": 38.8963855, "bike_id": "45c9137abf359dd2d897a937e7948ae0", "is_disabled": 0, "lon": -77.02291833333334, "is_reserved": 0, "fusion_lat": 0.0, "type": "electric_scooter"}, {"fusion_lon": 0.0, "name": "fd56024e6677dc4ac0ad2a7776d7b281", "rental_uris": {"android": "https://dc.lft.to/lastmile_qr_scan", "ios": "https://dc.lft.to/lastmile_qr_scan"}, "lat": 38.8978485, "bike_id": "fd56024e6677dc4ac0ad2a7776d7b281", "is_disabled": 0, "lon": -77.02718866666666, "is_reserved": 0, "fusion_lat": 0.0, "type": "electric_scooter"}, {"fusion_lon": 0.0, "name": "59ca0c2b39f974ecb7dd1004c39c4980", "rental_uris": {"android": "https://dc.lft.to/lastmile_qr_scan", "ios": "https://dc.lft.to/lastmile_qr_scan"}, "lat": 38.96223583333333, "bike_id": "59ca0c2b39f974ecb7dd1004c39c4980", "is_disabled": 0, "lon": -77.013609, "is_reserved": 0, "fusion_lat": 0.0, "type": "electric_scooter"}, {"fusion_lon": 0.0, "name": "bebcc55cdf58247aa73af5006d85b9b9", "rental_uris": {"android": "https://dc.lft.to/lastmile_qr_scan", "ios": "https://dc.lft.to/lastmile_qr_scan"}, "lat": 38.931652, "bike_id": "bebcc55cdf58247aa73af5006d85b9b9", "is_disabled": 0, "lon": -77.038853, "is_reserved": 0, "fusion_lat": 0.0, "type": "electric_scooter"}, {"fusion_lon": 0.0, "name": "ed014eb3c2f64d83778514688b6a6176", "rental_uris": {"android": "https://dc.lft.to/lastmile_qr_scan", "ios": "https://dc.lft.to/lastmile_qr_scan"}, "lat": 38.90844533333333, "bike_id": "ed014eb3c2f64d83778514688b6a6176", "is_disabled": 0, "lon": -77.0435075, "is_reserved": 0, "fusion_lat": 0.0, "type": "electric_scooter"}, {"fusion_lon": 0.0, "name": "034c35ea2b420730f41f0b246c16226f", "rental_uris": {"android": "https://dc.lft.to/lastmile_qr_scan", "ios": "https://dc.lft.to/lastmile_qr_scan"}, "lat": 38.89641983333333, "bike_id": "034c35ea2b420730f41f0b246c16226f", "is_disabled": 0, "lon": -77.02958133333334, "is_reserved": 0, "fusion_lat": 0.0, "type": "electric_scooter"}, {"fusion_lon": 0.0, "name": "aeaefd8ccd8624818140ac542929184a", "rental_uris": {"android": "https://dc.lft.to/lastmile_qr_scan", "ios": "https://dc.lft.to/lastmile_qr_scan"}, "lat": 38.928724833333334, "bike_id": "aeaefd8ccd8624818140ac542929184a", "is_disabled": 0, "lon": -77.03337166666667, "is_reserved": 0, "fusion_lat": 0.0, "type": "electric_scooter"}, {"fusion_lon": 0.0, "name": "2fd7a423764471ddb4463c9401ba71bb", "rental_uris": {"android": "https://dc.lft.to/lastmile_qr_scan", "ios": "https://dc.lft.to/lastmile_qr_scan"}, "lat": 38.8921865, "bike_id": "2fd7a423764471ddb4463c9401ba71bb", "is_disabled": 0, "lon": -77.0436145, "is_reserved": 0, "fusion_lat": 0.0, "type": "electric_scooter"}, {"fusion_lon": 0.0, "name": "fafa60434376ee526c61318c69c6d10c", "rental_uris": {"android": "https://dc.lft.to/lastmile_qr_scan", "ios": "https://dc.lft.to/lastmile_qr_scan"}, "lat": 38.9250985, "bike_id": "fafa60434376ee526c61318c69c6d10c", "is_disabled": 0, "lon": -77.02286633333334, "is_reserved": 0, "fusion_lat": 0.0, "type": "electric_scooter"}, {"fusion_lon": 0.0, "name": "2e67a07e5bee2a49a7b774825f87be7e", "rental_uris": {"android": "https://dc.lft.to/lastmile_qr_scan", "ios": "https://dc.lft.to/lastmile_qr_scan"}, "lat": 39.007226, "bike_id": "2e67a07e5bee2a49a7b774825f87be7e", "is_disabled": 0, "lon": -76.98140283333333, "is_reserved": 0, "fusion_lat": 0.0, "type": "electric_bike"}, {"fusion_lon": 0.0, "name": "7dc6790ed6eab00675bed75e336d4af5", "rental_uris": {"android": "https://dc.lft.to/lastmile_qr_scan", "ios": "https://dc.lft.to/lastmile_qr_scan"}, "lat": 38.92393666666667, "bike_id": "7dc6790ed6eab00675bed75e336d4af5", "is_disabled": 0, "lon": -77.0204215, "is_reserved": 0, "fusion_lat": 0.0, "type": "electric_scooter"}, {"fusion_lon": 0.0, "name": "51608a9112ae1d0b2acd820eb23b850d", "rental_uris": {"android": "https://dc.lft.to/lastmile_qr_scan", "ios": "https://dc.lft.to/lastmile_qr_scan"}, "lat": 39.0077715, "bike_id": "51608a9112ae1d0b2acd820eb23b850d", "is_disabled": 0, "lon": -76.8899405, "is_reserved": 0, "fusion_lat": 0.0, "type": "electric_bike"}, {"fusion_lon": 0.0, "name": "6d4937e73b700edefad566a30c199301", "rental_uris": {"android": "https://dc.lft.to/lastmile_qr_scan", "ios": "https://dc.lft.to/lastmile_qr_scan"}, "lat": 38.912607333333334, "bike_id": "6d4937e73b700edefad566a30c199301", "is_disabled": 0, "lon": -77.03206483333334, "is_reserved": 0, "fusion_lat": 0.0, "type": "electric_scooter"}, {"fusion_lon": 0.0, "name": "d6f8186e172898cb14eeded9356e1966", "rental_uris": {"android": "https://dc.lft.to/lastmile_qr_scan", "ios": "https://dc.lft.to/lastmile_qr_scan"}, "lat": 38.90866183333333, "bike_id": "d6f8186e172898cb14eeded9356e1966", "is_disabled": 0, "lon": -77.03223133333333, "is_reserved": 0, "fusion_lat": 0.0, "type": "electric_scooter"}, {"fusion_lon": 0.0, "name": "b5c8eedd31e778f47ecf04e645d5160b", "rental_uris": {"android": "https://dc.lft.to/lastmile_qr_scan", "ios": "https://dc.lft.to/lastmile_qr_scan"}, "lat": 38.90023433333333, "bike_id": "b5c8eedd31e778f47ecf04e645d5160b", "is_disabled": 0, "lon": -77.017839, "is_reserved": 0, "fusion_lat": 0.0, "type": "electric_scooter"}, {"fusion_lon": 0.0, "name": "c11986a468a6da8b49401f771a5b603d", "rental_uris": {"android": "https://dc.lft.to/lastmile_qr_scan", "ios": "https://dc.lft.to/lastmile_qr_scan"}, "lat": 38.90787, "bike_id": "c11986a468a6da8b49401f771a5b603d", "is_disabled": 0, "lon": -76.99423216666666, "is_reserved": 0, "fusion_lat": 0.0, "type": "electric_scooter"}, {"fusion_lon": 0.0, "name": "d1b9ea9c7ff36832f9bde8cc30e51d9e", "rental_uris": {"android": "https://dc.lft.to/lastmile_qr_scan", "ios": "https://dc.lft.to/lastmile_qr_scan"}, "lat": 38.849009, "bike_id": "d1b9ea9c7ff36832f9bde8cc30e51d9e", "is_disabled": 0, "lon": -77.077959, "is_reserved": 0, "fusion_lat": 0.0, "type": "electric_bike"}, {"fusion_lon": 0.0, "name": "5194af7bd5c33c3b6bf2f441bfd51807", "rental_uris": {"android": "https://dc.lft.to/lastmile_qr_scan", "ios": "https://dc.lft.to/lastmile_qr_scan"}, "lat": 38.90382916666667, "bike_id": "5194af7bd5c33c3b6bf2f441bfd51807", "is_disabled": 0, "lon": -77.01849683333333, "is_reserved": 0, "fusion_lat": 0.0, "type": "electric_scooter"}, {"fusion_lon": 0.0, "name": "fc46dd7d2d3861bf09286c67138bbca9", "rental_uris": {"android": "https://dc.lft.to/lastmile_qr_scan", "ios": "https://dc.lft.to/lastmile_qr_scan"}, "lat": 38.91932883333333, "bike_id": "fc46dd7d2d3861bf09286c67138bbca9", "is_disabled": 0, "lon": -77.04634866666666, "is_reserved": 0, "fusion_lat": 0.0, "type": "electric_scooter"}, {"fusion_lon": 0.0, "name": "3c332ecedb793581e9237b666a71919f", "rental_uris": {"android": "https://dc.lft.to/lastmile_qr_scan", "ios": "https://dc.lft.to/lastmile_qr_scan"}, "lat": 38.9465425, "bike_id": "3c332ecedb793581e9237b666a71919f", "is_disabled": 0, "lon": -77.06472766666667, "is_reserved": 0, "fusion_lat": 0.0, "type": "electric_scooter"}, {"fusion_lon": 0.0, "name": "49693c7ba6fab532f182e76299aa098d", "rental_uris": {"android": "https://dc.lft.to/lastmile_qr_scan", "ios": "https://dc.lft.to/lastmile_qr_scan"}, "lat": 38.91561466666667, "bike_id": "49693c7ba6fab532f182e76299aa098d", "is_disabled": 0, "lon": -77.0070125, "is_reserved": 0, "fusion_lat": 0.0, "type": "electric_scooter"}, {"fusion_lon": 0.0, "name": "e03dde90469434acf9296a0c4a0416bb", "rental_uris": {"android": "https://dc.lft.to/lastmile_qr_scan", "ios": "https://dc.lft.to/lastmile_qr_scan"}, "lat": 38.90436616666667, "bike_id": "e03dde90469434acf9296a0c4a0416bb", "is_disabled": 0, "lon": -77.0284665, "is_reserved": 0, "fusion_lat": 0.0, "type": "electric_scooter"}, {"fusion_lon": 0.0, "name": "011b72b6f64567915ea06e5aca96662e", "rental_uris": {"android": "https://dc.lft.to/lastmile_qr_scan", "ios": "https://dc.lft.to/lastmile_qr_scan"}, "lat": 38.90029533333333, "bike_id": "011b72b6f64567915ea06e5aca96662e", "is_disabled": 0, "lon": -76.9986715, "is_reserved": 0, "fusion_lat": 0.0, "type": "electric_scooter"}, {"fusion_lon": 0.0, "name": "cc82d44ee0921e3092b97faacd5fcc6e", "rental_uris": {"android": "https://dc.lft.to/lastmile_qr_scan", "ios": "https://dc.lft.to/lastmile_qr_scan"}, "lat": 38.94367483333333, "bike_id": "cc82d44ee0921e3092b97faacd5fcc6e", "is_disabled": 0, "lon": -77.0608545, "is_reserved": 0, "fusion_lat": 0.0, "type": "electric_scooter"}, {"fusion_lon": 0.0, "name": "bc270cca7e277675cfc363d0f5fa5ee0", "rental_uris": {"android": "https://dc.lft.to/lastmile_qr_scan", "ios": "https://dc.lft.to/lastmile_qr_scan"}, "lat": 38.91752433333333, "bike_id": "bc270cca7e277675cfc363d0f5fa5ee0", "is_disabled": 0, "lon": -77.02105433333334, "is_reserved": 0, "fusion_lat": 0.0, "type": "electric_scooter"}, {"fusion_lon": 0.0, "name": "86228355f19cc05659bb54debc4fd047", "rental_uris": {"android": "https://dc.lft.to/lastmile_qr_scan", "ios": "https://dc.lft.to/lastmile_qr_scan"}, "lat": 38.92267833333333, "bike_id": "86228355f19cc05659bb54debc4fd047", "is_disabled": 0, "lon": -77.033943, "is_reserved": 0, "fusion_lat": 0.0, "type": "electric_scooter"}, {"fusion_lon": 0.0, "name": "b8280ccfefe43a9aeb86bd26b268e6ce", "rental_uris": {"android": "https://dc.lft.to/lastmile_qr_scan", "ios": "https://dc.lft.to/lastmile_qr_scan"}, "lat": 38.9613325, "bike_id": "b8280ccfefe43a9aeb86bd26b268e6ce", "is_disabled": 0, "lon": -77.0003295, "is_reserved": 0, "fusion_lat": 0.0, "type": "electric_scooter"}, {"fusion_lon": 0.0, "name": "f3db79480aecb7d159b60d7b3dba0a6f", "rental_uris": {"android": "https://dc.lft.to/lastmile_qr_scan", "ios": "https://dc.lft.to/lastmile_qr_scan"}, "lat": 38.91871616666667, "bike_id": "f3db79480aecb7d159b60d7b3dba0a6f", "is_disabled": 0, "lon": -77.0448345, "is_reserved": 0, "fusion_lat": 0.0, "type": "electric_scooter"}, {"fusion_lon": 0.0, "name": "8167602bff130a1007a736038fcd2fd8", "rental_uris": {"android": "https://dc.lft.to/lastmile_qr_scan", "ios": "https://dc.lft.to/lastmile_qr_scan"}, "lat": 38.920559, "bike_id": "8167602bff130a1007a736038fcd2fd8", "is_disabled": 0, "lon": -76.99125633333334, "is_reserved": 0, "fusion_lat": 0.0, "type": "electric_bike"}, {"fusion_lon": 0.0, "name": "fa8b4d2c21c57759588eb9c04d438b4e", "rental_uris": {"android": "https://dc.lft.to/lastmile_qr_scan", "ios": "https://dc.lft.to/lastmile_qr_scan"}, "lat": 38.876871, "bike_id": "fa8b4d2c21c57759588eb9c04d438b4e", "is_disabled": 0, "lon": -77.0006595, "is_reserved": 0, "fusion_lat": 0.0, "type": "electric_scooter"}, {"fusion_lon": 0.0, "name": "bf99be10575731c03f2606ef16b1232c", "rental_uris": {"android": "https://dc.lft.to/lastmile_qr_scan", "ios": "https://dc.lft.to/lastmile_qr_scan"}, "lat": 38.921721833333336, "bike_id": "bf99be10575731c03f2606ef16b1232c", "is_disabled": 0, "lon": -77.02665216666666, "is_reserved": 0, "fusion_lat": 0.0, "type": "electric_scooter"}, {"fusion_lon": 0.0, "name": "35461ef95e42ba9e83ec84a0fdb68bc3", "rental_uris": {"android": "https://dc.lft.to/lastmile_qr_scan", "ios": "https://dc.lft.to/lastmile_qr_scan"}, "lat": 38.926039, "bike_id": "35461ef95e42ba9e83ec84a0fdb68bc3", "is_disabled": 0, "lon": -77.02157033333333, "is_reserved": 0, "fusion_lat": 0.0, "type": "electric_scooter"}, {"fusion_lon": 0.0, "name": "07cef5c74aae0ea2a6eb3223dc40f73c", "rental_uris": {"android": "https://dc.lft.to/lastmile_qr_scan", "ios": "https://dc.lft.to/lastmile_qr_scan"}, "lat": 38.920899166666665, "bike_id": "07cef5c74aae0ea2a6eb3223dc40f73c", "is_disabled": 0, "lon": -77.0231985, "is_reserved": 0, "fusion_lat": 0.0, "type": "electric_scooter"}, {"fusion_lon": 0.0, "name": "01d0dc87004ece04c11d80bc94f36777", "rental_uris": {"android": "https://dc.lft.to/lastmile_qr_scan", "ios": "https://dc.lft.to/lastmile_qr_scan"}, "lat": 38.957551, "bike_id": "01d0dc87004ece04c11d80bc94f36777", "is_disabled": 0, "lon": -77.0091525, "is_reserved": 0, "fusion_lat": 0.0, "type": "electric_scooter"}, {"fusion_lon": 0.0, "name": "d68a1c210647375a34337059a2a3cb8e", "rental_uris": {"android": "https://dc.lft.to/lastmile_qr_scan", "ios": "https://dc.lft.to/lastmile_qr_scan"}, "lat": 38.912481666666665, "bike_id": "d68a1c210647375a34337059a2a3cb8e", "is_disabled": 0, "lon": -77.0318665, "is_reserved": 0, "fusion_lat": 0.0, "type": "electric_scooter"}, {"fusion_lon": 0.0, "name": "c26ae6410a267fdfadfa6beaaa9c4868", "rental_uris": {"android": "https://dc.lft.to/lastmile_qr_scan", "ios": "https://dc.lft.to/lastmile_qr_scan"}, "lat": 38.92143033333333, "bike_id": "c26ae6410a267fdfadfa6beaaa9c4868", "is_disabled": 0, "lon": -77.03380516666667, "is_reserved": 0, "fusion_lat": 0.0, "type": "electric_scooter"}, {"fusion_lon": 0.0, "name": "7258d666479a4b0c1671e82c4a738c40", "rental_uris": {"android": "https://dc.lft.to/lastmile_qr_scan", "ios": "https://dc.lft.to/lastmile_qr_scan"}, "lat": 38.8923115, "bike_id": "7258d666479a4b0c1671e82c4a738c40", "is_disabled": 0, "lon": -77.02385366666667, "is_reserved": 0, "fusion_lat": 0.0, "type": "electric_scooter"}, {"fusion_lon": 0.0, "name": "5a1f906fa60cc1894ae40e45637d53a7", "rental_uris": {"android": "https://dc.lft.to/lastmile_qr_scan", "ios": "https://dc.lft.to/lastmile_qr_scan"},