{"data": {"bikes": [{"is_disabled": 0, "is_reserved": 0, "type": "electric_scooter", "lon": -77.02345066666666, "fusion_lon": 0.0, "lat": 38.942928, "rental_uris": {"android": "https://dc.lft.to/lastmile_qr_scan", "ios": "https://dc.lft.to/lastmile_qr_scan"}, "fusion_lat": 0.0, "name": "2a9266bf91ac5e3acaa1117575600a87", "bike_id": "2a9266bf91ac5e3acaa1117575600a87"}, {"is_disabled": 0, "is_reserved": 0, "type": "electric_bike", "lon": -77.19546233333334, "fusion_lon": 0.0, "lat": 39.115127333333334, "rental_uris": {"android": "https://dc.lft.to/lastmile_qr_scan", "ios": "https://dc.lft.to/lastmile_qr_scan"}, "fusion_lat": 0.0, "name": "a3579a9ab12340c184a893e1ec4e7fc6", "bike_id": "a3579a9ab12340c184a893e1ec4e7fc6"}, {"is_disabled": 0, "is_reserved": 0, "type": "electric_scooter", "lon": -77.059056, "fusion_lon": 0.0, "lat": 38.90540683333333, "rental_uris": {"android": "https://dc.lft.to/lastmile_qr_scan", "ios": "https://dc.lft.to/lastmile_qr_scan"}, "fusion_lat": 0.0, "name": "5cecf5569ec07f7b6341400056c83621", "bike_id": "5cecf5569ec07f7b6341400056c83621"}, {"is_disabled": 0, "is_reserved": 0, "type": "electric_scooter", "lon": -77.01757333333333, "fusion_lon": 0.0, "lat": 38.8858075, "rental_uris": {"android": "https://dc.lft.to/lastmile_qr_scan", "ios": "https://dc.lft.to/lastmile_qr_scan"}, "fusion_lat": 0.0, "name": "5105a35334120caf3eb1a7ab95f54e4c", "bike_id": "5105a35334120caf3eb1a7ab95f54e4c"}, {"is_disabled": 0, "is_reserved": 0, "type": "electric_bike", "lon": -77.04976133333334, "fusion_lon": 0.0, "lat": 38.9924495, "rental_uris": {"android": "https://dc.lft.to/lastmile_qr_scan", "ios": "https://dc.lft.to/lastmile_qr_scan"}, "fusion_lat": 0.0, "name": "60a009eb9cc91105d652e5a12b59c5fe", "bike_id": "60a009eb9cc91105d652e5a12b59c5fe"}, {"is_disabled": 0, "is_reserved": 0, "type": "electric_scooter", "lon": -77.02550516666666, "fusion_lon": 0.0, "lat": 38.91634616666666, "rental_uris": {"android": "https://dc.lft.to/lastmile_qr_scan", "ios": "https://dc.lft.to/lastmile_qr_scan"}, "fusion_lat": 0.0, "name": "5403f69c49a31d25016201255aa1b59a", "bike_id": "5403f69c49a31d25016201255aa1b59a"}, {"is_disabled": 0, "is_reserved": 0, "type": "electric_scooter", "lon": -77.0467225, "fusion_lon": 0.0, "lat": 38.915679833333336, "rental_uris": {"android": "https://dc.lft.to/lastmile_qr_scan", "ios": "https://dc.lft.to/lastmile_qr_scan"}, "fusion_lat": 0.0, "name": "a19b76b24c0fa1759ec3ceb1e0dafb05", "bike_id": "a19b76b24c0fa1759ec3ceb1e0dafb05"}, {"is_disabled": 0, "is_reserved": 0, "type": "electric_scooter", "lon": -77.0500345, "fusion_lon": 0.0, "lat": 38.89229016666667, "rental_uris": {"android": "https://dc.lft.to/lastmile_qr_scan", "ios": "https://dc.lft.to/lastmile_qr_scan"}, "fusion_lat": 0.0, "name": "4915f8bc702ee8b19fbf3c5be9164f9c", "bike_id": "4915f8bc702ee8b19fbf3c5be9164f9c"}, {"is_disabled": 0, "is_reserved": 0, "type": "electric_scooter", "lon": -77.011087, "fusion_lon": 0.0, "lat": 38.90357016666667, "rental_uris": {"android": "https://dc.lft.to/lastmile_qr_scan", "ios": "https://dc.lft.to/lastmile_qr_scan"}, "fusion_lat": 0.0, "name": "353693a7695d347bf7418d5ce3e467c3", "bike_id": "353693a7695d347bf7418d5ce3e467c3"}, {"is_disabled": 0, "is_reserved": 0, "type": "electric_scooter", "lon": -77.02559733333334, "fusion_lon": 0.0, "lat": 38.8922055, "rental_uris": {"android": "https://dc.lft.to/lastmile_qr_scan", "ios": "https://dc.lft.to/lastmile_qr_scan"}, "fusion_lat": 0.0, "name": "0ac500b1955c4135ebacfc274c391902", "bike_id": "0ac500b1955c4135ebacfc274c391902"}, {"is_disabled": 0, "is_reserved": 0, "type": "electric_scooter", "lon": -76.99957633333334, "fusion_lon": 0.0, "lat": 38.8428625, "rental_uris": {"android": "https://dc.lft.to/lastmile_qr_scan", "ios": "https://dc.lft.to/lastmile_qr_scan"}, "fusion_lat": 0.0, "name": "5eb7b2de843c8422631a5483f96c8e77", "bike_id": "5eb7b2de843c8422631a5483f96c8e77"}, {"is_disabled": 0, "is_reserved": 0, "type": "electric_scooter", "lon": -77.03172433333333, "fusion_lon": 0.0, "lat": 38.91610033333333, "rental_uris": {"android": "https://dc.lft.to/lastmile_qr_scan", "ios": "https://dc.lft.to/lastmile_qr_scan"}, "fusion_lat": 0.0, "name": "50ac5cd3d62227c8a141b63c03a76237", "bike_id": "50ac5cd3d62227c8a141b63c03a76237"}, {"is_disabled": 0, "is_reserved": 0, "type": "electric_bike", "lon": -76.94955633333333, "fusion_lon": 0.0, "lat": 38.93502733333333, "rental_uris": {"android": "https://dc.lft.to/lastmile_qr_scan", "ios": "https://dc.lft.to/lastmile_qr_scan"}, "fusion_lat": 0.0, "name": "bed28822bf42a60b7f11ea51997c1c75", "bike_id": "bed28822bf42a60b7f11ea51997c1c75"}, {"is_disabled": 0, "is_reserved": 0, "type": "electric_scooter", "lon": -76.98965166666666, "fusion_lon": 0.0, "lat": 38.90243266666667, "rental_uris": {"android": "https://dc.lft.to/lastmile_qr_scan", "ios": "https://dc.lft.to/lastmile_qr_scan"}, "fusion_lat": 0.0, "name": "ccacf43cb4ed923f18a62622bdd7f9fd", "bike_id": "ccacf43cb4ed923f18a62622bdd7f9fd"}, {"is_disabled": 0, "is_reserved": 0, "type": "electric_scooter", "lon": -77.03178016666666, "fusion_lon": 0.0, "lat": 38.930611999999996, "rental_uris": {"android": "https://dc.lft.to/lastmile_qr_scan", "ios": "https://dc.lft.to/lastmile_qr_scan"}, "fusion_lat": 0.0, "name": "a4d615b22d5a6b5d1dbbc471fec82cfb", "bike_id": "a4d615b22d5a6b5d1dbbc471fec82cfb"}, {"is_disabled": 0, "is_reserved": 0, "type": "electric_scooter", "lon": -77.03634133333334, "fusion_lon": 0.0, "lat": 38.902827333333335, "rental_uris": {"android": "https://dc.lft.to/lastmile_qr_scan", "ios": "https://dc.lft.to/lastmile_qr_scan"}, "fusion_lat": 0.0, "name": "73be435e38aa08604cf26181a070815b", "bike_id": "73be435e38aa08604cf26181a070815b"}, {"is_disabled": 0, "is_reserved": 0, "type": "electric_scooter", "lon": -77.01614483333333, "fusion_lon": 0.0, "lat": 38.8723065, "rental_uris": {"android": "https://dc.lft.to/lastmile_qr_scan", "ios": "https://dc.lft.to/lastmile_qr_scan"}, "fusion_lat": 0.0, "name": "4603cadd9a5d37b9c6fba5dbdd375e08", "bike_id": "4603cadd9a5d37b9c6fba5dbdd375e08"}, {"is_disabled": 0, "is_reserved": 0, "type": "electric_bike", "lon": -77.06948783333333, "fusion_lon": 0.0, "lat": 38.990595166666665, "rental_uris": {"android": "https://dc.lft.to/lastmile_qr_scan", "ios": "https://dc.lft.to/lastmile_qr_scan"}, "fusion_lat": 0.0, "name": "da55f1ae25fc0f8d824ff650f533767c", "bike_id": "da55f1ae25fc0f8d824ff650f533767c"}, {"is_disabled": 0, "is_reserved": 0, "type": "electric_scooter", "lon": -77.02157216666667, "fusion_lon": 0.0, "lat": 38.92604333333333, "rental_uris": {"android": "https://dc.lft.to/lastmile_qr_scan", "ios": "https://dc.lft.to/lastmile_qr_scan"}, "fusion_lat": 0.0, "name": "e5211dbb926d25aff11bef40e128597b", "bike_id": "e5211dbb926d25aff11bef40e128597b"}, {"is_disabled": 0, "is_reserved": 0, "type": "electric_scooter", "lon": -77.041021, "fusion_lon": 0.0, "lat": 38.89844383333333, "rental_uris": {"android": "https://dc.lft.to/lastmile_qr_scan", "ios": "https://dc.lft.to/lastmile_qr_scan"}, "fusion_lat": 0.0, "name": "9dd18377bed95fc9404d0a5c0cf639c4", "bike_id": "9dd18377bed95fc9404d0a5c0cf639c4"}, {"is_disabled": 0, "is_reserved": 0, "type": "electric_scooter", "lon": -77.05547283333334, "fusion_lon": 0.0, "lat": 38.930131333333335, "rental_uris": {"android": "https://dc.lft.to/lastmile_qr_scan", "ios": "https://dc.lft.to/lastmile_qr_scan"}, "fusion_lat": 0.0, "name": "4e6c22a4f14d66fb2cc1a35d800c79e7", "bike_id": "4e6c22a4f14d66fb2cc1a35d800c79e7"}, {"is_disabled": 0, "is_reserved": 0, "type": "electric_scooter", "lon": -76.98706466666667, "fusion_lon": 0.0, "lat": 38.866999, "rental_uris": {"android": "https://dc.lft.to/lastmile_qr_scan", "ios": "https://dc.lft.to/lastmile_qr_scan"}, "fusion_lat": 0.0, "name": "7d8be237aea85ff827a5685898ff6a93", "bike_id": "7d8be237aea85ff827a5685898ff6a93"}, {"is_disabled": 0, "is_reserved": 0, "type": "electric_scooter", "lon": -76.98873833333333, "fusion_lon": 0.0, "lat": 38.89210466666667, "rental_uris": {"android": "https://dc.lft.to/lastmile_qr_scan", "ios": "https://dc.lft.to/lastmile_qr_scan"}, "fusion_lat": 0.0, "name": "23b3b8b085c98e5402068a9306eb0467", "bike_id": "23b3b8b085c98e5402068a9306eb0467"}, {"is_disabled": 0, "is_reserved": 0, "type": "electric_scooter", "lon": -77.0442625, "fusion_lon": 0.0, "lat": 38.90125716666667, "rental_uris": {"android": "https://dc.lft.to/lastmile_qr_scan", "ios": "https://dc.lft.to/lastmile_qr_scan"}, "fusion_lat": 0.0, "name": "e8ce1d3b5c48b7145788292ea8911cc8", "bike_id": "e8ce1d3b5c48b7145788292ea8911cc8"}, {"is_disabled": 0, "is_reserved": 0, "type": "electric_bike", "lon": -77.09562316666667, "fusion_lon": 0.0, "lat": 38.91705483333333, "rental_uris": {"android": "https://dc.lft.to/lastmile_qr_scan", "ios": "https://dc.lft.to/lastmile_qr_scan"}, "fusion_lat": 0.0, "name": "d4bb3423b94c6868e804e057b6bc03d9", "bike_id": "d4bb3423b94c6868e804e057b6bc03d9"}, {"is_disabled": 0, "is_reserved": 0, "type": "electric_scooter", "lon": -77.02555266666667, "fusion_lon": 0.0, "lat": 38.9016805, "rental_uris": {"android": "https://dc.lft.to/lastmile_qr_scan", "ios": "https://dc.lft.to/lastmile_qr_scan"}, "fusion_lat": 0.0, "name": "57f4e123d46ca9a0d93ba23c902faa75", "bike_id": "57f4e123d46ca9a0d93ba23c902faa75"}, {"is_disabled": 0, "is_reserved": 0, "type": "electric_scooter", "lon": -77.04648283333333, "fusion_lon": 0.0, "lat": 38.91015633333333, "rental_uris": {"android": "https://dc.lft.to/lastmile_qr_scan", "ios": "https://dc.lft.to/lastmile_qr_scan"}, "fusion_lat": 0.0, "name": "cf8765d1bc72c74e1a82dcbac92094c2", "bike_id": "cf8765d1bc72c74e1a82dcbac92094c2"}, {"is_disabled": 0, "is_reserved": 0, "type": "electric_bike", "lon": -76.99568583333334, "fusion_lon": 0.0, "lat": 39.007856833333335, "rental_uris": {"android": "https://dc.lft.to/lastmile_qr_scan", "ios": "https://dc.lft.to/lastmile_qr_scan"}, "fusion_lat": 0.0, "name": "7aab8c3431135915e3092ba2e315c7fe", "bike_id": "7aab8c3431135915e3092ba2e315c7fe"}, {"is_disabled": 0, "is_reserved": 0, "type": "electric_scooter", "lon": -77.036582, "fusion_lon": 0.0, "lat": 38.917320833333335, "rental_uris": {"android": "https://dc.lft.to/lastmile_qr_scan", "ios": "https://dc.lft.to/lastmile_qr_scan"}, "fusion_lat": 0.0, "name": "5b05c7cde6092d6c768b4e3d913092cf", "bike_id": "5b05c7cde6092d6c768b4e3d913092cf"}, {"is_disabled": 0, "is_reserved": 0, "type": "electric_bike", "lon": -77.12504933333334, "fusion_lon": 0.0, "lat": 39.02425233333334, "rental_uris": {"android": "https://dc.lft.to/lastmile_qr_scan", "ios": "https://dc.lft.to/lastmile_qr_scan"}, "fusion_lat": 0.0, "name": "cf3b491cf07b49e369938a5b2bcfbe15", "bike_id": "cf3b491cf07b49e369938a5b2bcfbe15"}, {"is_disabled": 0, "is_reserved": 0, "type": "electric_scooter", "lon": -77.02667616666666, "fusion_lon": 0.0, "lat": 38.896006166666666, "rental_uris": {"android": "https://dc.lft.to/lastmile_qr_scan", "ios": "https://dc.lft.to/lastmile_qr_scan"}, "fusion_lat": 0.0, "name": "64d03c2181bc194d701c512c5376c644", "bike_id": "64d03c2181bc194d701c512c5376c644"}, {"is_disabled": 0, "is_reserved": 0, "type": "electric_scooter", "lon": -77.03206633333333, "fusion_lon": 0.0, "lat": 38.92581766666667, "rental_uris": {"android": "https://dc.lft.to/lastmile_qr_scan", "ios": "https://dc.lft.to/lastmile_qr_scan"}, "fusion_lat": 0.0, "name": "62b7ffc796c398f78ee47aeae2dbe16a", "bike_id": "62b7ffc796c398f78ee47aeae2dbe16a"}, {"is_disabled": 0, "is_reserved": 0, "type": "electric_scooter", "lon": -77.00622416666667, "fusion_lon": 0.0, "lat": 38.8719525, "rental_uris": {"android": "https://dc.lft.to/lastmile_qr_scan", "ios": "https://dc.lft.to/lastmile_qr_scan"}, "fusion_lat": 0.0, "name": "c8bc3976102d8d6134eec6bb36338a90", "bike_id": "c8bc3976102d8d6134eec6bb36338a90"}, {"is_disabled": 0, "is_reserved": 0, "type": "electric_scooter", "lon": -77.042904, "fusion_lon": 0.0, "lat": 38.91656, "rental_uris": {"android": "https://dc.lft.to/lastmile_qr_scan", "ios": "https://dc.lft.to/lastmile_qr_scan"}, "fusion_lat": 0.0, "name": "f0ad25cbaaf4fac81774a565fb7a0bb3", "bike_id": "f0ad25cbaaf4fac81774a565fb7a0bb3"}, {"is_disabled": 0, "is_reserved": 0, "type": "electric_scooter", "lon": -77.02170383333333, "fusion_lon": 0.0, "lat": 38.94293783333333, "rental_uris": {"android": "https://dc.lft.to/lastmile_qr_scan", "ios": "https://dc.lft.to/lastmile_qr_scan"}, "fusion_lat": 0.0, "name": "af064e0f0043878f2164653dc9687029", "bike_id": "af064e0f0043878f2164653dc9687029"}, {"is_disabled": 0, "is_reserved": 0, "type": "electric_scooter", "lon": -77.0042465, "fusion_lon": 0.0, "lat": 38.87692083333334, "rental_uris": {"android": "https://dc.lft.to/lastmile_qr_scan", "ios": "https://dc.lft.to/lastmile_qr_scan"}, "fusion_lat": 0.0, "name": "b140d9fb6eb66021bfa6c2cb1ec44a72", "bike_id": "b140d9fb6eb66021bfa6c2cb1ec44a72"}, {"is_disabled": 0, "is_reserved": 0, "type": "electric_bike", "lon": -77.13231816666666, "fusion_lon": 0.0, "lat": 38.869748666666666, "rental_uris": {"android": "https://dc.lft.to/lastmile_qr_scan", "ios": "https://dc.lft.to/lastmile_qr_scan"}, "fusion_lat": 0.0, "name": "284130d7b080e7643a460065d1059515", "bike_id": "284130d7b080e7643a460065d1059515"}, {"is_disabled": 0, "is_reserved": 0, "type": "electric_scooter", "lon": -77.06604016666667, "fusion_lon": 0.0, "lat": 38.90743716666667, "rental_uris": {"android": "https://dc.lft.to/lastmile_qr_scan", "ios": "https://dc.lft.to/lastmile_qr_scan"}, "fusion_lat": 0.0, "name": "6448ff4d0900095f0b84ca5c6cf30f7e", "bike_id": "6448ff4d0900095f0b84ca5c6cf30f7e"}, {"is_disabled": 0, "is_reserved": 0, "type": "electric_scooter", "lon": -77.035968, "fusion_lon": 0.0, "lat": 38.9169665, "rental_uris": {"android": "https://dc.lft.to/lastmile_qr_scan", "ios": "https://dc.lft.to/lastmile_qr_scan"}, "fusion_lat": 0.0, "name": "3c312ca19b2956141da92dc669dd67dc", "bike_id": "3c312ca19b2956141da92dc669dd67dc"}, {"is_disabled": 0, "is_reserved": 0, "type": "electric_scooter", "lon": -77.00583133333333, "fusion_lon": 0.0, "lat": 38.875146666666666, "rental_uris": {"android": "https://dc.lft.to/lastmile_qr_scan", "ios": "https://dc.lft.to/lastmile_qr_scan"}, "fusion_lat": 0.0, "name": "6a3f910c91f48b37b0156252025f2fb5", "bike_id": "6a3f910c91f48b37b0156252025f2fb5"}, {"is_disabled": 0, "is_reserved": 0, "type": "electric_scooter", "lon": -77.02511183333333, "fusion_lon": 0.0, "lat": 38.9009065, "rental_uris": {"android": "https://dc.lft.to/lastmile_qr_scan", "ios": "https://dc.lft.to/lastmile_qr_scan"}, "fusion_lat": 0.0, "name": "f293efa96afad82e1f1f0f55e4ada94d", "bike_id": "f293efa96afad82e1f1f0f55e4ada94d"}, {"is_disabled": 0, "is_reserved": 0, "type": "electric_scooter", "lon": -77.028087, "fusion_lon": 0.0, "lat": 38.9074255, "rental_uris": {"android": "https://dc.lft.to/lastmile_qr_scan", "ios": "https://dc.lft.to/lastmile_qr_scan"}, "fusion_lat": 0.0, "name": "53006f6f6341533f03b162fdf16bfbbc", "bike_id": "53006f6f6341533f03b162fdf16bfbbc"}, {"is_disabled": 0, "is_reserved": 0, "type": "electric_scooter", "lon": -77.015372, "fusion_lon": 0.0, "lat": 38.8862845, "rental_uris": {"android": "https://dc.lft.to/lastmile_qr_scan", "ios": "https://dc.lft.to/lastmile_qr_scan"}, "fusion_lat": 0.0, "name": "0a7a5d2c2499362985a62aa6e096e44b", "bike_id": "0a7a5d2c2499362985a62aa6e096e44b"}, {"is_disabled": 0, "is_reserved": 0, "type": "electric_scooter", "lon": -77.027531, "fusion_lon": 0.0, "lat": 38.88154866666667, "rental_uris": {"android": "https://dc.lft.to/lastmile_qr_scan", "ios": "https://dc.lft.to/lastmile_qr_scan"}, "fusion_lat": 0.0, "name": "cac13f020affcf8dac73082cbce6cbe8", "bike_id": "cac13f020affcf8dac73082cbce6cbe8"}, {"is_disabled": 0, "is_reserved": 0, "type": "electric_scooter", "lon": -77.00374766666667, "fusion_lon": 0.0, "lat": 38.877496, "rental_uris": {"android": "https://dc.lft.to/lastmile_qr_scan", "ios": "https://dc.lft.to/lastmile_qr_scan"}, "fusion_lat": 0.0, "name": "a3b19f70ac1fcc2d2d4ebfa0792d15cb", "bike_id": "a3b19f70ac1fcc2d2d4ebfa0792d15cb"}, {"is_disabled": 0, "is_reserved": 0, "type": "electric_scooter", "lon": -77.033099, "fusion_lon": 0.0, "lat": 38.8981845, "rental_uris": {"android": "https://dc.lft.to/lastmile_qr_scan", "ios": "https://dc.lft.to/lastmile_qr_scan"}, "fusion_lat": 0.0, "name": "8e18b27d9b6e773bd03711df1b58609b", "bike_id": "8e18b27d9b6e773bd03711df1b58609b"}, {"is_disabled": 0, "is_reserved": 0, "type": "electric_scooter", "lon": -77.04140516666666, "fusion_lon": 0.0, "lat": 38.9213425, "rental_uris": {"android": "https://dc.lft.to/lastmile_qr_scan", "ios": "https://dc.lft.to/lastmile_qr_scan"}, "fusion_lat": 0.0, "name": "ee5298da02e09199a1806e9a482a0418", "bike_id": "ee5298da02e09199a1806e9a482a0418"}, {"is_disabled": 0, "is_reserved": 0, "type": "electric_scooter", "lon": -77.02386283333334, "fusion_lon": 0.0, "lat": 38.920720833333334, "rental_uris": {"android": "https://dc.lft.to/lastmile_qr_scan", "ios": "https://dc.lft.to/lastmile_qr_scan"}, "fusion_lat": 0.0, "name": "50c8fab608059323db9b3069845320f5", "bike_id": "50c8fab608059323db9b3069845320f5"}, {"is_disabled": 0, "is_reserved": 0, "type": "electric_scooter", "lon": -77.0272205, "fusion_lon": 0.0, "lat": 38.92478416666667, "rental_uris": {"android": "https://dc.lft.to/lastmile_qr_scan", "ios": "https://dc.lft.to/lastmile_qr_scan"}, "fusion_lat": 0.0, "name": "11e5ea97d9ad17d91710ed1b229f400f", "bike_id": "11e5ea97d9ad17d91710ed1b229f400f"}, {"is_disabled": 0, "is_reserved": 0, "type": "electric_scooter", "lon": -77.02046633333333, "fusion_lon": 0.0, "lat": 38.958719333333335, "rental_uris": {"android": "https://dc.lft.to/lastmile_qr_scan", "ios": "https://dc.lft.to/lastmile_qr_scan"}, "fusion_lat": 0.0, "name": "1066bb6d6fc15acccce072e48236e557", "bike_id": "1066bb6d6fc15acccce072e48236e557"}, {"is_disabled": 0, "is_reserved": 0, "type": "electric_scooter", "lon": -76.99052833333333, "fusion_lon": 0.0, "lat": 38.863584333333336, "rental_uris": {"android": "https://dc.lft.to/lastmile_qr_scan", "ios": "https://dc.lft.to/lastmile_qr_scan"}, "fusion_lat": 0.0, "name": "d2ca542126d68dfffa8e8964b4fbc96f", "bike_id": "d2ca542126d68dfffa8e8964b4fbc96f"}, {"is_disabled": 0, "is_reserved": 0, "type": "electric_bike", "lon": -77.10649766666667, "fusion_lon": 0.0, "lat": 39.030018166666665, "rental_uris": {"android": "https://dc.lft.to/lastmile_qr_scan", "ios": "https://dc.lft.to/lastmile_qr_scan"}, "fusion_lat": 0.0, "name": "d69b0612303a0b2f44dc57ec51cb3430", "bike_id": "d69b0612303a0b2f44dc57ec51cb3430"}, {"is_disabled": 0, "is_reserved": 0, "type": "electric_scooter", "lon": -77.04405533333333, "fusion_lon": 0.0, "lat": 38.929486833333335, "rental_uris": {"android": "https://dc.lft.to/lastmile_qr_scan", "ios": "https://dc.lft.to/lastmile_qr_scan"}, "fusion_lat": 0.0, "name": "f6509c3d1f307ea0bb4318a8eb6a8c03", "bike_id": "f6509c3d1f307ea0bb4318a8eb6a8c03"}, {"is_disabled": 0, "is_reserved": 0, "type": "electric_scooter", "lon": -77.039649, "fusion_lon": 0.0, "lat": 38.90544083333333, "rental_uris": {"android": "https://dc.lft.to/lastmile_qr_scan", "ios": "https://dc.lft.to/lastmile_qr_scan"}, "fusion_lat": 0.0, "name": "c164a0cdf81e422a73866fca8fe75ba9", "bike_id": "c164a0cdf81e422a73866fca8fe75ba9"}, {"is_disabled": 0, "is_reserved": 0, "type": "electric_scooter", "lon": -77.0205295, "fusion_lon": 0.0, "lat": 38.941254, "rental_uris": {"android": "https://dc.lft.to/lastmile_qr_scan", "ios": "https://dc.lft.to/lastmile_qr_scan"}, "fusion_lat": 0.0, "name": "f92d09fd5f57d39616953cf6973402c3", "bike_id": "f92d09fd5f57d39616953cf6973402c3"}, {"is_disabled": 0, "is_reserved": 0, "type": "electric_scooter", "lon": -77.01960383333333, "fusion_lon": 0.0, "lat": 38.90552066666667, "rental_uris": {"android": "https://dc.lft.to/lastmile_qr_scan", "ios": "https://dc.lft.to/lastmile_qr_scan"}, "fusion_lat": 0.0, "name": "e68c9b734d736ed55c41e1b5fd13177d", "bike_id": "e68c9b734d736ed55c41e1b5fd13177d"}, {"is_disabled": 0, "is_reserved": 0, "type": "electric_scooter", "lon": -77.01245983333334, "fusion_lon": 0.0, "lat": 38.931099833333334, "rental_uris": {"android": "https://dc.lft.to/lastmile_qr_scan", "ios": "https://dc.lft.to/lastmile_qr_scan"}, "fusion_lat": 0.0, "name": "414a9ce22ce7b98b2ecf06923ce11ca2", "bike_id": "414a9ce22ce7b98b2ecf06923ce11ca2"}, {"is_disabled": 0, "is_reserved": 0, "type": "electric_scooter", "lon": -77.02468316666666, "fusion_lon": 0.0, "lat": 38.93756116666667, "rental_uris": {"android": "https://dc.lft.to/lastmile_qr_scan", "ios": "https://dc.lft.to/lastmile_qr_scan"}, "fusion_lat": 0.0, "name": "9e415584f9079c0fb75768a751cca4b1", "bike_id": "9e415584f9079c0fb75768a751cca4b1"}, {"is_disabled": 0, "is_reserved": 0, "type": "electric_scooter", "lon": -77.0281795, "fusion_lon": 0.0, "lat": 38.931762166666665, "rental_uris": {"android": "https://dc.lft.to/lastmile_qr_scan", "ios": "https://dc.lft.to/lastmile_qr_scan"}, "fusion_lat": 0.0, "name": "6454dda66ba6411234614380d7e66482", "bike_id": "6454dda66ba6411234614380d7e66482"}, {"is_disabled": 0, "is_reserved": 0, "type": "electric_scooter", "lon": -77.012083, "fusion_lon": 0.0, "lat": 38.918243833333335, "rental_uris": {"android": "https://dc.lft.to/lastmile_qr_scan", "ios": "https://dc.lft.to/lastmile_qr_scan"}, "fusion_lat": 0.0, "name": "86746414d1836ead7461e39dcac3e2b9", "bike_id": "86746414d1836ead7461e39dcac3e2b9"}, {"is_disabled": 0, "is_reserved": 0, "type": "electric_scooter", "lon": -76.99855233333334, "fusion_lon": 0.0, "lat": 38.908786166666665, "rental_uris": {"android": "https://dc.lft.to/lastmile_qr_scan", "ios": "https://dc.lft.to/lastmile_qr_scan"}, "fusion_lat": 0.0, "name": "8e6309b7ad084e867abde61ae32505c2", "bike_id": "8e6309b7ad084e867abde61ae32505c2"}, {"is_disabled": 0, "is_reserved": 0, "type": "electric_scooter", "lon": -77.05215916666667, "fusion_lon": 0.0, "lat": 38.9247715, "rental_uris": {"android": "https://dc.lft.to/lastmile_qr_scan", "ios": "https://dc.lft.to/lastmile_qr_scan"}, "fusion_lat": 0.0, "name": "f4da0d53db91efff038ceef747c2736d", "bike_id": "f4da0d53db91efff038ceef747c2736d"}, {"is_disabled": 0, "is_reserved": 0, "type": "electric_scooter", "lon": -77.02713133333333, "fusion_lon": 0.0, "lat": 38.918008666666665, "rental_uris": {"android": "https://dc.lft.to/lastmile_qr_scan", "ios": "https://dc.lft.to/lastmile_qr_scan"}, "fusion_lat": 0.0, "name": "0898a2f26c7c5f1a6df93e9bae326a4e", "bike_id": "0898a2f26c7c5f1a6df93e9bae326a4e"}, {"is_disabled": 0, "is_reserved": 0, "type": "electric_scooter", "lon": -77.03779316666666, "fusion_lon": 0.0, "lat": 38.903289, "rental_uris": {"android": "https://dc.lft.to/lastmile_qr_scan", "ios": "https://dc.lft.to/lastmile_qr_scan"}, "fusion_lat": 0.0, "name": "c56dc1543229255393d4824781596f53", "bike_id": "c56dc1543229255393d4824781596f53"}, {"is_disabled": 0, "is_reserved": 0, "type": "electric_scooter", "lon": -77.02232766666667, "fusion_lon": 0.0, "lat": 38.923374333333335, "rental_uris": {"android": "https://dc.lft.to/lastmile_qr_scan", "ios": "https://dc.lft.to/lastmile_qr_scan"}, "fusion_lat": 0.0, "name": "547cc26ed1a36d3aee464aed6180d1e0", "bike_id": "547cc26ed1a36d3aee464aed6180d1e0"}, {"is_disabled": 0, "is_reserved": 0, "type": "electric_scooter", "lon": -77.02851266666667, "fusion_lon": 0.0, "lat": 38.932665166666666, "rental_uris": {"android": "https://dc.lft.to/lastmile_qr_scan", "ios": "https://dc.lft.to/lastmile_qr_scan"}, "fusion_lat": 0.0, "name": "c83f1623615bd6d67daf801ee0b9c72c", "bike_id": "c83f1623615bd6d67daf801ee0b9c72c"}, {"is_disabled": 0, "is_reserved": 0, "type": "electric_scooter", "lon": -77.04247616666666, "fusion_lon": 0.0, "lat": 38.945485, "rental_uris": {"android": "https://dc.lft.to/lastmile_qr_scan", "ios": "https://dc.lft.to/lastmile_qr_scan"}, "fusion_lat": 0.0, "name": "2ed6cf0a0bbbdc86ba9511ce6b6de983", "bike_id": "2ed6cf0a0bbbdc86ba9511ce6b6de983"}, {"is_disabled": 0, "is_reserved": 0, "type": "electric_scooter", "lon": -77.05941633333333, "fusion_lon": 0.0, "lat": 38.936756, "rental_uris": {"android": "https://dc.lft.to/lastmile_qr_scan", "ios": "https://dc.lft.to/lastmile_qr_scan"}, "fusion_lat": 0.0, "name": "7199864f8a2b8bbd350d38dbbe071d66", "bike_id": "7199864f8a2b8bbd350d38dbbe071d66"}, {"is_disabled": 0, "is_reserved": 0, "type": "electric_scooter", "lon": -76.9463285, "fusion_lon": 0.0, "lat": 38.89832366666667, "rental_uris": {"android": "https://dc.lft.to/lastmile_qr_scan", "ios": "https://dc.lft.to/lastmile_qr_scan"}, "fusion_lat": 0.0, "name": "4fabfa2c9753baed859c2fb51025d7dd", "bike_id": "4fabfa2c9753baed859c2fb51025d7dd"}, {"is_disabled": 0, "is_reserved": 0, "type": "electric_scooter", "lon": -77.038558, "fusion_lon": 0.0, "lat": 38.918352666666664, "rental_uris": {"android": "https://dc.lft.to/lastmile_qr_scan", "ios": "https://dc.lft.to/lastmile_qr_scan"}, "fusion_lat": 0.0, "name": "84b42cf4971c9e3eb2e9046298a9d00f", "bike_id": "84b42cf4971c9e3eb2e9046298a9d00f"}, {"is_disabled": 0, "is_reserved": 0, "type": "electric_scooter", "lon": -77.04442483333334, "fusion_lon": 0.0, "lat": 38.91253416666667, "rental_uris": {"android": "https://dc.lft.to/lastmile_qr_scan", "ios": "https://dc.lft.to/lastmile_qr_scan"}, "fusion_lat": 0.0, "name": "9c739993e63e1194872cc7be9cae3635", "bike_id": "9c739993e63e1194872cc7be9cae3635"}, {"is_disabled": 0, "is_reserved": 0, "type": "electric_scooter", "lon": -76.9903265, "fusion_lon": 0.0, "lat": 38.8985555, "rental_uris": {"android": "https://dc.lft.to/lastmile_qr_scan", "ios": "https://dc.lft.to/lastmile_qr_scan"}, "fusion_lat": 0.0, "name": "43aa4ca8674c9073a5498776c6db2b54", "bike_id": "43aa4ca8674c9073a5498776c6db2b54"}, {"is_disabled": 0, "is_reserved": 0, "type": "electric_bike", "lon": -76.9882715, "fusion_lon": 0.0, "lat": 38.985635333333335, "rental_uris": {"android": "https://dc.lft.to/lastmile_qr_scan", "ios": "https://dc.lft.to/lastmile_qr_scan"}, "fusion_lat": 0.0, "name": "5eea96bbce27650c8143644741cd7772", "bike_id": "5eea96bbce27650c8143644741cd7772"}, {"is_disabled": 0, "is_reserved": 0, "type": "electric_scooter", "lon": -77.02626383333333, "fusion_lon": 0.0, "lat": 38.979455, "rental_uris": {"android": "https://dc.lft.to/lastmile_qr_scan", "ios": "https://dc.lft.to/lastmile_qr_scan"}, "fusion_lat": 0.0, "name": "1e997260bd4eaeb0c27b0a426e5af693", "bike_id": "1e997260bd4eaeb0c27b0a426e5af693"}, {"is_disabled": 0, "is_reserved": 0, "type": "electric_scooter", "lon": -77.02741816666666, "fusion_lon": 0.0, "lat": 38.943046, "rental_uris": {"android": "https://dc.lft.to/lastmile_qr_scan", "ios": "https://dc.lft.to/lastmile_qr_scan"}, "fusion_lat": 0.0, "name": "ab8bad7b54d004b66785c30be8ece552", "bike_id": "ab8bad7b54d004b66785c30be8ece552"}, {"is_disabled": 0, "is_reserved": 0, "type": "electric_scooter", "lon": -77.026572, "fusion_lon": 0.0, "lat": 38.9327435, "rental_uris": {"android": "https://dc.lft.to/lastmile_qr_scan", "ios": "https://dc.lft.to/lastmile_qr_scan"}, "fusion_lat": 0.0, "name": "8da7886f561a986dd72bb072af8d1fe6", "bike_id": "8da7886f561a986dd72bb072af8d1fe6"}, {"is_disabled": 0, "is_reserved": 0, "type": "electric_scooter", "lon": -77.03859633333333, "fusion_lon": 0.0, "lat": 38.90376166666667, "rental_uris": {"android": "https://dc.lft.to/lastmile_qr_scan", "ios": "https://dc.lft.to/lastmile_qr_scan"}, "fusion_lat": 0.0, "name": "c20de7ec5b4ca30419468541c7cc01ff", "bike_id": "c20de7ec5b4ca30419468541c7cc01ff"}, {"is_disabled": 0, "is_reserved": 0, "type": "electric_scooter", "lon": -77.04010883333333, "fusion_lon": 0.0, "lat": 38.91796566666667, "rental_uris": {"android": "https://dc.lft.to/lastmile_qr_scan", "ios": "https://dc.lft.to/lastmile_qr_scan"}, "fusion_lat": 0.0, "name": "dc95a1db88fd9ab7266bfee2c798113c", "bike_id": "dc95a1db88fd9ab7266bfee2c798113c"}, {"is_disabled": 0, "is_reserved": 0, "type": "electric_scooter", "lon": -77.034619, "fusion_lon": 0.0, "lat": 38.902507166666666, "rental_uris": {"android": "https://dc.lft.to/lastmile_qr_scan", "ios": "https://dc.lft.to/lastmile_qr_scan"}, "fusion_lat": 0.0, "name": "1fea84c344bd972bd67c36f74b83fab5", "bike_id": "1fea84c344bd972bd67c36f74b83fab5"}, {"is_disabled": 0, "is_reserved": 0, "type": "electric_scooter", "lon": -77.04259, "fusion_lon": 0.0, "lat": 38.910400333333335, "rental_uris": {"android": "https://dc.lft.to/lastmile_qr_scan", "ios": "https://dc.lft.to/lastmile_qr_scan"}, "fusion_lat": 0.0, "name": "159877986cfc7aa589d37f06ae45ac7b", "bike_id": "159877986cfc7aa589d37f06ae45ac7b"}, {"is_disabled": 0, "is_reserved": 0, "type": "electric_scooter", "lon": -76.94119483333333, "fusion_lon": 0.0, "lat": 38.88450266666667, "rental_uris": {"android": "https://dc.lft.to/lastmile_qr_scan", "ios": "https://dc.lft.to/lastmile_qr_scan"}, "fusion_lat": 0.0, "name": "450cca9c6d29f76bd6b109afac2725fe", "bike_id": "450cca9c6d29f76bd6b109afac2725fe"}, {"is_disabled": 0, "is_reserved": 0, "type": "electric_scooter", "lon": -76.99060583333333, "fusion_lon": 0.0, "lat": 38.84408416666667, "rental_uris": {"android": "https://dc.lft.to/lastmile_qr_scan", "ios": "https://dc.lft.to/lastmile_qr_scan"}, "fusion_lat": 0.0, "name": "2c7333f0e5fec6797773a41911766583", "bike_id": "2c7333f0e5fec6797773a41911766583"}, {"is_disabled": 0, "is_reserved": 0, "type": "electric_scooter", "lon": -77.02985766666667, "fusion_lon": 0.0, "lat": 38.93232366666667, "rental_uris": {"android": "https://dc.lft.to/lastmile_qr_scan", "ios": "https://dc.lft.to/lastmile_qr_scan"}, "fusion_lat": 0.0, "name": "0f08f52edd2d5fe993852b867bbde7b7", "bike_id": "0f08f52edd2d5fe993852b867bbde7b7"}, {"is_disabled": 0, "is_reserved": 0, "type": "electric_scooter", "lon": -77.0239065, "fusion_lon": 0.0, "lat": 38.95737366666667, "rental_uris": {"android": "https://dc.lft.to/lastmile_qr_scan", "ios": "https://dc.lft.to/lastmile_qr_scan"}, "fusion_lat": 0.0, "name": "6351a3ef8c00060ab30e7d27bfd681f0", "bike_id": "6351a3ef8c00060ab30e7d27bfd681f0"}, {"is_disabled": 0, "is_reserved": 0, "type": "electric_scooter", "lon": -77.04696533333333, "fusion_lon": 0.0, "lat": 38.8973935, "rental_uris": {"android": "https://dc.lft.to/lastmile_qr_scan", "ios": "https://dc.lft.to/lastmile_qr_scan"}, "fusion_lat": 0.0, "name": "52f58e444766c93b46d6a0b039e44fff", "bike_id": "52f58e444766c93b46d6a0b039e44fff"}, {"is_disabled": 0, "is_reserved": 0, "type": "electric_scooter", "lon": -77.03892266666666, "fusion_lon": 0.0, "lat": 38.924961833333334, "rental_uris": {"android": "https://dc.lft.to/lastmile_qr_scan", "ios": "https://dc.lft.to/lastmile_qr_scan"}, "fusion_lat": 0.0, "name": "9d2346ca4c698f044efc56f7d7bb8d60", "bike_id": "9d2346ca4c698f044efc56f7d7bb8d60"}, {"is_disabled": 0, "is_reserved": 0, "type": "electric_scooter", "lon": -77.02084766666667, "fusion_lon": 0.0, "lat": 38.93009633333333, "rental_uris": {"android": "https://dc.lft.to/lastmile_qr_scan", "ios": "https://dc.lft.to/lastmile_qr_scan"}, "fusion_lat": 0.0, "name": "8ed95ed2ca3b1896d483c73805da892f", "bike_id": "8ed95ed2ca3b1896d483c73805da892f"}, {"is_disabled": 0, "is_reserved": 0, "type": "electric_scooter", "lon": -77.05158333333334, "fusion_lon": 0.0, "lat": 38.905821833333334, "rental_uris": {"android": "https://dc.lft.to/lastmile_qr_scan", "ios": "https://dc.lft.to/lastmile_qr_scan"}, "fusion_lat": 0.0, "name": "a0bdea01680e0a044cbe47ccb4d0472f", "bike_id": "a0bdea01680e0a044cbe47ccb4d0472f"}, {"is_disabled": 0, "is_reserved": 0, "type": "electric_bike", "lon": -76.95220216666667, "fusion_lon": 0.0, "lat": 38.89237716666667, "rental_uris": {"android": "https://dc.lft.to/lastmile_qr_scan", "ios": "https://dc.lft.to/lastmile_qr_scan"}, "fusion_lat": 0.0, "name": "42bd53cf1f2f82fab00987e0ce9e635f", "bike_id": "42bd53cf1f2f82fab00987e0ce9e635f"}, {"is_disabled": 0, "is_reserved": 0, "type": "electric_scooter", "lon": -77.01405466666667, "fusion_lon": 0.0, "lat": 38.928720166666665, "rental_uris": {"android": "https://dc.lft.to/lastmile_qr_scan", "ios": "https://dc.lft.to/lastmile_qr_scan"}, "fusion_lat": 0.0, "name": "8132fd81651b3a4c208d9ebd33e6068d", "bike_id": "8132fd81651b3a4c208d9ebd33e6068d"}, {"is_disabled": 0, "is_reserved": 0, "type": "electric_scooter", "lon": -77.003292, "fusion_lon": 0.0, "lat": 38.893549166666666, "rental_uris": {"android": "https://dc.lft.to/lastmile_qr_scan", "ios": "https://dc.lft.to/lastmile_qr_scan"}, "fusion_lat": 0.0, "name": "83e2b97d25b2d14001fc61b31b1c9ec1", "bike_id": "83e2b97d25b2d14001fc61b31b1c9ec1"}, {"is_disabled": 0, "is_reserved": 0, "type": "electric_scooter", "lon": -77.05424316666667, "fusion_lon": 0.0, "lat": 38.899156, "rental_uris": {"android": "https://dc.lft.to/lastmile_qr_scan", "ios": "https://dc.lft.to/lastmile_qr_scan"}, "fusion_lat": 0.0, "name": "fa6799031d572be46bfa421f1591aa4d", "bike_id": "fa6799031d572be46bfa421f1591aa4d"}, {"is_disabled": 0, "is_reserved": 0, "type": "electric_scooter", "lon": -77.03831983333333, "fusion_lon": 0.0, "lat": 38.90324583333334, "rental_uris": {"android": "https://dc.lft.to/lastmile_qr_scan", "ios": "https://dc.lft.to/lastmile_qr_scan"}, "fusion_lat": 0.0, "name": "9abbe434d2d7872efa7fececedd006cf", "bike_id": "9abbe434d2d7872efa7fececedd006cf"}, {"is_disabled": 0, "is_reserved": 0, "type": "electric_scooter", "lon": -77.00833483333334, "fusion_lon": 0.0, "lat": 38.912574666666664, "rental_uris": {"android": "https://dc.lft.to/lastmile_qr_scan", "ios": "https://dc.lft.to/lastmile_qr_scan"}, "fusion_lat": 0.0, "name": "e4659ea160be26d588669aaede3981c3", "bike_id": "e4659ea160be26d588669aaede3981c3"}, {"is_disabled": 0, "is_reserved": 0, "type": "electric_bike", "lon": -76.889054, "fusion_lon": 0.0, "lat": 38.925940833333335, "rental_uris": {"android": "https://dc.lft.to/lastmile_qr_scan", "ios": "https://dc.lft.to/lastmile_qr_scan"}, "fusion_lat": 0.0, "name": "da068c0637b331a526519b6b14a3a19f", "bike_id": "da068c0637b331a526519b6b14a3a19f"}, {"is_disabled": 0, "is_reserved": 0, "type": "electric_scooter", "lon": -77.040728, "fusion_lon": 0.0, "lat": 38.896163, "rental_uris": {"android": "https://dc.lft.to/lastmile_qr_scan", "ios": "https://dc.lft.to/lastmile_qr_scan"}, "fusion_lat": 0.0, "name": "70b6707a2039a0f918aa7d2c0f1875ec", "bike_id": "70b6707a2039a0f918aa7d2c0f1875ec"}, {"is_disabled": 0, "is_reserved": 0, "type": "electric_scooter", "lon": -77.021645, "fusion_lon": 0.0, "lat": 38.9260965, "rental_uris": {"android": "https://dc.lft.to/lastmile_qr_scan", "ios": "https://dc.lft.to/lastmile_qr_scan"}, "fusion_lat": 0.0, "name": "14b59adf61410bd270e0de62769a3f8c", "bike_id": "14b59adf61410bd270e0de62769a3f8c"}, {"is_disabled": 0, "is_reserved": 0, "type": "electric_scooter", "lon": -77.0031385, "fusion_lon": 0.0, "lat": 38.840326, "rental_uris": {"android": "https://dc.lft.to/lastmile_qr_scan", "ios": "https://dc.lft.to/lastmile_qr_scan"}, "fusion_lat": 0.0, "name": "b49943f9ce10f17186a8572c25b73499", "bike_id": "b49943f9ce10f17186a8572c25b73499"}, {"is_disabled": 0, "is_reserved": 0, "type": "electric_scooter", "lon": -77.04093933333333, "fusion_lon": 0.0, "lat": 38.90008733333333, "rental_uris": {"android": "https://dc.lft.to/lastmile_qr_scan", "ios": "https://dc.lft.to/lastmile_qr_scan"}, "fusion_lat": 0.0, "name": "386de481d1f9c498cc30149c9f0b5ff6", "bike_id": "386de481d1f9c498cc30149c9f0b5ff6"}, {"is_disabled": 0, "is_reserved": 0, "type": "electric_scooter", "lon": -76.94895233333334, "fusion_lon": 0.0, "lat": 38.8952415, "rental_uris": {"android": "https://dc.lft.to/lastmile_qr_scan", "ios": "https://dc.lft.to/lastmile_qr_scan"}, "fusion_lat": 0.0, "name": "a31d9033da8d20fb1f19655a9c27d368", "bike_id": "a31d9033da8d20fb1f19655a9c27d368"}, {"is_disabled": 0, "is_reserved": 0, "type": "electric_scooter", "lon": -76.97381033333333, "fusion_lon": 0.0, "lat": 38.883707333333334, "rental_uris": {"android": "https://dc.lft.to/lastmile_qr_scan", "ios": "https://dc.lft.to/lastmile_qr_scan"}, "fusion_lat": 0.0, "name": "3afe7c230a82650c01c19b2e7cbeb62f", "bike_id": "3afe7c230a82650c01c19b2e7cbeb62f"}, {"is_disabled": 0, "is_reserved": 0, "type": "electric_scooter", "lon": -76.9478295, "fusion_lon": 0.0, "lat": 38.88464466666667, "rental_uris": {"android": "https://dc.lft.to/lastmile_qr_scan", "ios": "https://dc.lft.to/lastmile_qr_scan"}, "fusion_lat": 0.0, "name": "4e2c046667b2edb4182e9494a2422474", "bike_id": "4e2c046667b2edb4182e9494a2422474"}, {"is_disabled": 0, "is_reserved": 0, "type": "electric_scooter", "lon": -77.04389966666666, "fusion_lon": 0.0, "lat": 38.90585316666667, "rental_uris": {"android": "https://dc.lft.to/lastmile_qr_scan", "ios": "https://dc.lft.to/lastmile_qr_scan"}, "fusion_lat": 0.0, "name": "26c0c37d16306f342a88803ae6c0fe25", "bike_id": "26c0c37d16306f342a88803ae6c0fe25"}, {"is_disabled": 0, "is_reserved": 0, "type": "electric_scooter", "lon": -77.0365785, "fusion_lon": 0.0, "lat": 38.9549945, "rental_uris": {"android": "https://dc.lft.to/lastmile_qr_scan", "ios": "https://dc.lft.to/lastmile_qr_scan"}, "fusion_lat": 0.0, "name": "a756d8a6114f9e8cd86ff8f3a0c4205b", "bike_id": "a756d8a6114f9e8cd86ff8f3a0c4205b"}, {"is_disabled": 0, "is_reserved": 0, "type": "electric_scooter", "lon": -77.05415633333334, "fusion_lon": 0.0, "lat": 38.950462333333334, "rental_uris": {"android": "https://dc.lft.to/lastmile_qr_scan", "ios": "https://dc.lft.to/lastmile_qr_scan"}, "fusion_lat": 0.0, "name": "0d7cf793fcbc5785b80efacd1b6072ba", "bike_id": "0d7cf793fcbc5785b80efacd1b6072ba"}, {"is_disabled": 0, "is_reserved": 0, "type": "electric_scooter", "lon": -77.02222383333333, "fusion_lon": 0.0, "lat": 38.935530166666666, "rental_uris": {"android": "https://dc.lft.to/lastmile_qr_scan", "ios": "https://dc.lft.to/lastmile_qr_scan"}, "fusion_lat": 0.0, "name": "3e1f8da5b91026ba88157e01c0dd24bd", "bike_id": "3e1f8da5b91026ba88157e01c0dd24bd"}, {"is_disabled": 0, "is_reserved": 0, "type": "electric_scooter", "lon": -77.04779633333334, "fusion_lon": 0.0, "lat": 38.89776083333334, "rental_uris": {"android": "https://dc.lft.to/lastmile_qr_scan", "ios": "https://dc.lft.to/lastmile_qr_scan"}, "fusion_lat": 0.0, "name": "be1c68eaaa7a71489455ee692d25430b", "bike_id": "be1c68eaaa7a71489455ee692d25430b"}, {"is_disabled": 0, "is_reserved": 0, "type": "electric_scooter", "lon": -77.02799183333333, "fusion_lon": 0.0, "lat": 38.91217783333333, "rental_uris": {"android": "https://dc.lft.to/lastmile_qr_scan", "ios": "https://dc.lft.to/lastmile_qr_scan"}, "fusion_lat": 0.0, "name": "68d2493cbabb8b606630572d2b6887b7", "bike_id": "68d2493cbabb8b606630572d2b6887b7"}, {"is_disabled": 0, "is_reserved": 0, "type": "electric_scooter", "lon": -77.0503805, "fusion_lon": 0.0, "lat": 38.923570166666664, "rental_uris": {"android": "https://dc.lft.to/lastmile_qr_scan", "ios": "https://dc.lft.to/lastmile_qr_scan"}, "fusion_lat": 0.0, "name": "95fac8ef8824cb34a85f5df4b21717de", "bike_id": "95fac8ef8824cb34a85f5df4b21717de"}, {"is_disabled": 0, "is_reserved": 0, "type": "electric_scooter", "lon": -77.051072, "fusion_lon": 0.0, "lat": 38.92363016666667, "rental_uris": {"android": "https://dc.lft.to/lastmile_qr_scan", "ios": "https://dc.lft.to/lastmile_qr_scan"}, "fusion_lat": 0.0, "name": "42cee034fc04e8c6d37ae3aa3909a459", "bike_id": "42cee034fc04e8c6d37ae3aa3909a459"}, {"is_disabled": 0, "is_reserved": 0, "type": "electric_bike", "lon": -76.90757, "fusion_lon": 0.0, "lat": 38.92437233333333, "rental_uris": {"android": "https://dc.lft.to/lastmile_qr_scan", "ios": "https://dc.lft.to/lastmile_qr_scan"}, "fusion_lat": 0.0, "name": "6066d45c51a695b616553320d56510e7", "bike_id": "6066d45c51a695b616553320d56510e7"}, {"is_disabled": 0, "is_reserved": 0, "type": "electric_scooter", "lon": -77.02481933333334, "fusion_lon": 0.0, "lat": 38.938827833333335, "rental_uris": {"android": "https://dc.lft.to/lastmile_qr_scan", "ios": "https://dc.lft.to/lastmile_qr_scan"}, "fusion_lat": 0.0, "name": "1a2c0b2a91327164714d1258d6f9be64", "bike_id": "1a2c0b2a91327164714d1258d6f9be64"}, {"is_disabled": 0, "is_reserved": 0, "type": "electric_scooter", "lon": -77.032547, "fusion_lon": 0.0, "lat": 38.9148385, "rental_uris": {"android": "https://dc.lft.to/lastmile_qr_scan", "ios": "https://dc.lft.to/lastmile_qr_scan"}, "fusion_lat": 0.0, "name": "b41dafac0706a1fcbeaefb635d8e20aa", "bike_id": "b41dafac0706a1fcbeaefb635d8e20aa"}, {"is_disabled": 0, "is_reserved": 0, "type": "electric_scooter", "lon": -77.04678783333334, "fusion_lon": 0.0, "lat": 38.91571233333333, "rental_uris": {"android": "https://dc.lft.to/lastmile_qr_scan", "ios": "https://dc.lft.to/lastmile_qr_scan"}, "fusion_lat": 0.0, "name": "d98f5e68807c1c552f41a7650e5b1775", "bike_id": "d98f5e68807c1c552f41a7650e5b1775"}, {"is_disabled": 0, "is_reserved": 0, "type": "electric_scooter", "lon": -77.03660233333333, "fusion_lon": 0.0, "lat": 38.911348833333335, "rental_uris": {"android": "https://dc.lft.to/lastmile_qr_scan", "ios": "https://dc.lft.to/lastmile_qr_scan"}, "fusion_lat": 0.0, "name": "8b0bfc5c389f40b57a58894394bf79e1", "bike_id": "8b0bfc5c389f40b57a58894394bf79e1"}, {"is_disabled": 0, "is_reserved": 0, "type": "electric_scooter", "lon": -77.021654, "fusion_lon": 0.0, "lat": 38.9429595, "rental_uris": {"android": "https://dc.lft.to/lastmile_qr_scan", "ios": "https://dc.lft.to/lastmile_qr_scan"}, "fusion_lat": 0.0, "name": "fc3b103cd75f346fceb7fd53bedf9c52", "bike_id": "fc3b103cd75f346fceb7fd53bedf9c52"}, {"is_disabled": 0, "is_reserved": 0, "type": "electric_bike", "lon": -76.97994466666667, "fusion_lon": 0.0, "lat": 38.877568333333336, "rental_uris": {"android": "https://dc.lft.to/lastmile_qr_scan", "ios": "https://dc.lft.to/lastmile_qr_scan"}, "fusion_lat": 0.0, "name": "4610cf801466db54087e3040f37ef06d", "bike_id": "4610cf801466db54087e3040f37ef06d"}, {"is_disabled": 0, "is_reserved": 0, "type": "electric_scooter", "lon": -77.00282333333334, "fusion_lon": 0.0, "lat": 38.885062, "rental_uris": {"android": "https://dc.lft.to/lastmile_qr_scan", "ios": "https://dc.lft.to/lastmile_qr_scan"}, "fusion_lat": 0.0, "name": "df8c1056ca139e69263fd571bd7a30c9", "bike_id": "df8c1056ca139e69263fd571bd7a30c9"}, {"is_disabled": 0, "is_reserved": 0, "type": "electric_scooter", "lon": -77.04379133333333, "fusion_lon": 0.0, "lat": 38.902322, "rental_uris": {"android": "https://dc.lft.to/lastmile_qr_scan", "ios": "https://dc.lft.to/lastmile_qr_scan"}, "fusion_lat": 0.0, "name": "004c506f0797b5408f9e0eed7fc6632a", "bike_id": "004c506f0797b5408f9e0eed7fc6632a"}, {"is_disabled": 0, "is_reserved": 0, "type": "electric_scooter", "lon": -76.985989, "fusion_lon": 0.0, "lat": 38.9065545, "rental_uris": {"android": "https://dc.lft.to/lastmile_qr_scan", "ios": "https://dc.lft.to/lastmile_qr_scan"}, "fusion_lat": 0.0, "name": "ece03da9a0d3ee2f0eed50e74a7b99a8", "bike_id": "ece03da9a0d3ee2f0eed50e74a7b99a8"}, {"is_disabled": 0, "is_reserved": 0, "type": "electric_scooter", "lon": -76.99518683333334, "fusion_lon": 0.0, "lat": 38.8837085, "rental_uris": {"android": "https://dc.lft.to/lastmile_qr_scan", "ios": "https://dc.lft.to/lastmile_qr_scan"}, "fusion_lat": 0.0, "name": "ab40e2e56c3b965d9c8120a66092dd80", "bike_id": "ab40e2e56c3b965d9c8120a66092dd80"}, {"is_disabled": 0, "is_reserved": 0, "type": "electric_scooter", "lon": -77.0559975, "fusion_lon": 0.0, "lat": 38.936976333333334, "rental_uris": {"android": "https://dc.lft.to/lastmile_qr_scan", "ios": "https://dc.lft.to/lastmile_qr_scan"}, "fusion_lat": 0.0, "name": "6408ec64607701dcedfcc1c02d8b746c", "bike_id": "6408ec64607701dcedfcc1c02d8b746c"}, {"is_disabled": 0, "is_reserved": 0, "type": "electric_scooter", "lon": -77.037881, "fusion_lon": 0.0, "lat": 38.926242333333334, "rental_uris": {"android": "https://dc.lft.to/lastmile_qr_scan", "ios": "https://dc.lft.to/lastmile_qr_scan"}, "fusion_lat": 0.0, "name": "558ce6d3075b41a9dd73f8c7db324775", "bike_id": "558ce6d3075b41a9dd73f8c7db324775"}, {"is_disabled": 0, "is_reserved": 0, "type": "electric_scooter", "lon": -77.02723733333333, "fusion_lon": 0.0, "lat": 38.90854, "rental_uris": {"android": "https://dc.lft.to/lastmile_qr_scan", "ios": "https://dc.lft.to/lastmile_qr_scan"}, "fusion_lat": 0.0, "name": "18a87ea00edf37b093d89501add7ec36", "bike_id": "18a87ea00edf37b093d89501add7ec36"}, {"is_disabled": 0, "is_reserved": 0, "type": "electric_scooter", "lon": -77.03059316666666, "fusion_lon": 0.0, "lat": 38.93978166666667, "rental_uris": {"android": "https://dc.lft.to/lastmile_qr_scan", "ios": "https://dc.lft.to/lastmile_qr_scan"}, "fusion_lat": 0.0, "name": "3b8c9ef155fcc8b4662444acc9cbbadf", "bike_id": "3b8c9ef155fcc8b4662444acc9cbbadf"}, {"is_disabled": 0, "is_reserved": 0, "type": "electric_scooter", "lon": -77.0136395, "fusion_lon": 0.0, "lat": 38.879009833333335, "rental_uris": {"android": "https://dc.lft.to/lastmile_qr_scan", "ios": "https://dc.lft.to/lastmile_qr_scan"}, "fusion_lat": 0.0, "name": "b951bda4d1fc7419eff0350724d5cbf8", "bike_id": "b951bda4d1fc7419eff0350724d5cbf8"}, {"is_disabled": 0, "is_reserved": 0, "type": "electric_bike", "lon": -77.36093416666667, "fusion_lon": 0.0, "lat": 38.939598333333336, "rental_uris": {"android": "https://dc.lft.to/lastmile_qr_scan", "ios": "https://dc.lft.to/lastmile_qr_scan"}, "fusion_lat": 0.0, "name": "b74e4a56cc19aef2cd67363d4d948124", "bike_id": "b74e4a56cc19aef2cd67363d4d948124"}, {"is_disabled": 0, "is_reserved": 0, "type": "electric_scooter", "lon": -77.04336533333333, "fusion_lon": 0.0, "lat": 38.91541333333333, "rental_uris": {"android": "https://dc.lft.to/lastmile_qr_scan", "ios": "https://dc.lft.to/lastmile_qr_scan"}, "fusion_lat": 0.0, "name": "3feede7819c6faac20a557eeb3bc55f8", "bike_id": "3feede7819c6faac20a557eeb3bc55f8"}, {"is_disabled": 0, "is_reserved": 0, "type": "electric_scooter", "lon": -76.99396533333334, "fusion_lon": 0.0, "lat": 38.92158216666667, "rental_uris": {"android": "https://dc.lft.to/lastmile_qr_scan", "ios": "https://dc.lft.to/lastmile_qr_scan"}, "fusion_lat": 0.0, "name": "b0b44a66b5328dd0ef8a7ddd9060642c", "bike_id": "b0b44a66b5328dd0ef8a7ddd9060642c"}, {"is_disabled": 0, "is_reserved": 0, "type": "electric_scooter", "lon": -77.00206516666667, "fusion_lon": 0.0, "lat": 38.891471333333335, "rental_uris": {"android": "https://dc.lft.to/lastmile_qr_scan", "ios": "https://dc.lft.to/lastmile_qr_scan"}, "fusion_lat": 0.0, "name": "c4aa35a254358744c2ba7449ff1e5724", "bike_id": "c4aa35a254358744c2ba7449ff1e5724"}, {"is_disabled": 0, "is_reserved": 0, "type": "electric_scooter", "lon": -77.03044466666667, "fusion_lon": 0.0, "lat": 38.939774666666665, "rental_uris": {"android": "https://dc.lft.to/lastmile_qr_scan", "ios": "https://dc.lft.to/lastmile_qr_scan"}, "fusion_lat": 0.0, "name": "a72a3beeb56502bb7da5c4ab7715ce4c", "bike_id": "a72a3beeb56502bb7da5c4ab7715ce4c"}, {"is_disabled": 0, "is_reserved": 0, "type": "electric_scooter", "lon": -77.02373616666667, "fusion_lon": 0.0, "lat": 38.901959833333336, "rental_uris": {"android": "https://dc.lft.to/lastmile_qr_scan", "ios": "https://dc.lft.to/lastmile_qr_scan"}, "fusion_lat": 0.0, "name": "0e96869e240e6e66c20919025579d3fb", "bike_id": "0e96869e240e6e66c20919025579d3fb"}, {"is_disabled": 0, "is_reserved": 0, "type": "electric_scooter", "lon": -76.99031866666667, "fusion_lon": 0.0, "lat": 38.90038033333333, "rental_uris": {"android": "https://dc.lft.to/lastmile_qr_scan", "ios": "https://dc.lft.to/lastmile_qr_scan"}, "fusion_lat": 0.0, "name": "bdacf51fd21e8a68febbc47b5c212eed", "bike_id": "bdacf51fd21e8a68febbc47b5c212eed"}, {"is_disabled": 0, "is_reserved": 0, "type": "electric_scooter", "lon": -77.026081, "fusion_lon": 0.0, "lat": 38.92444616666667, "rental_uris": {"android": "https://dc.lft.to/lastmile_qr_scan", "ios": "https://dc.lft.to/lastmile_qr_scan"}, "fusion_lat": 0.0, "name": "11f62b5db2d0c5e88cf300a552745a65", "bike_id": "11f62b5db2d0c5e88cf300a552745a65"}, {"is_disabled": 0, "is_reserved": 0, "type": "electric_scooter", "lon": -76.96527233333333, "fusion_lon": 0.0, "lat": 38.87629116666667, "rental_uris": {"android": "https://dc.lft.to/lastmile_qr_scan", "ios": "https://dc.lft.to/lastmile_qr_scan"}, "fusion_lat": 0.0, "name": "97cda3a96d3b0b616021be9c7302c029", "bike_id": "97cda3a96d3b0b616021be9c7302c029"}, {"is_disabled": 0, "is_reserved": 0, "type": "electric_scooter", "lon": -77.04101083333333, "fusion_lon": 0.0, "lat": 38.90883316666667, "rental_uris": {"android": "https://dc.lft.to/lastmile_qr_scan", "ios": "https://dc.lft.to/lastmile_qr_scan"}, "fusion_lat": 0.0, "name": "8090c0848597f34ec65b6e4465e5ba87", "bike_id": "8090c0848597f34ec65b6e4465e5ba87"}, {"is_disabled": 0, "is_reserved": 0, "type": "electric_scooter", "lon": -77.04143983333333, "fusion_lon": 0.0, "lat": 38.922948, "rental_uris": {"android": "https://dc.lft.to/lastmile_qr_scan", "ios": "https://dc.lft.to/lastmile_qr_scan"}, "fusion_lat": 0.0, "name": "4bed6a4cec5f0525f9c089d28acdcef8", "bike_id": "4bed6a4cec5f0525f9c089d28acdcef8"}, {"is_disabled": 0, "is_reserved": 0, "type": "electric_scooter", "lon": -77.041379, "fusion_lon": 0.0, "lat": 38.90014166666667, "rental_uris": {"android": "https://dc.lft.to/lastmile_qr_scan", "ios": "https://dc.lft.to/lastmile_qr_scan"}, "fusion_lat": 0.0, "name": "cc0dcf4e093436ba747db6c91279b573", "bike_id": "cc0dcf4e093436ba747db6c91279b573"}, {"is_disabled": 0, "is_reserved": 0, "type": "electric_scooter", "lon": -77.0305565, "fusion_lon": 0.0, "lat": 38.96426816666666, "rental_uris": {"android": "https://dc.lft.to/lastmile_qr_scan", "ios": "https://dc.lft.to/lastmile_qr_scan"}, "fusion_lat": 0.0, "name": "20a2d710eb726becf125c7ec3805497f", "bike_id": "20a2d710eb726becf125c7ec3805497f"}, {"is_disabled": 0, "is_reserved": 0, "type": "electric_scooter", "lon": -77.0680195, "fusion_lon": 0.0, "lat": 38.904954333333336, "rental_uris": {"android": "https://dc.lft.to/lastmile_qr_scan", "ios": "https://dc.lft.to/lastmile_qr_scan"}, "fusion_lat": 0.0, "name": "c3ee5273eb53e77e98fb3f3b62063673", "bike_id": "c3ee5273eb53e77e98fb3f3b62063673"}, {"is_disabled": 0, "is_reserved": 0, "type": "electric_bike", "lon": -77.035152, "fusion_lon": 0.0, "lat": 38.922362166666666, "rental_uris": {"android": "https://dc.lft.to/lastmile_qr_scan", "ios": "https://dc.lft.to/lastmile_qr_scan"}, "fusion_lat": 0.0, "name": "ad1255f3092ae870c3b857c06f0e79ad", "bike_id": "ad1255f3092ae870c3b857c06f0e79ad"}, {"is_disabled": 0, "is_reserved": 0, "type": "electric_scooter", "lon": -77.003353, "fusion_lon": 0.0, "lat": 38.895237333333334, "rental_uris": {"android": "https://dc.lft.to/lastmile_qr_scan", "ios": "https://dc.lft.to/lastmile_qr_scan"}, "fusion_lat": 0.0, "name": "1f3d8195025015df58cdf958b13aafa5", "bike_id": "1f3d8195025015df58cdf958b13aafa5"}, {"is_disabled": 0, "is_reserved": 0, "type": "electric_scooter", "lon": -77.059177, "fusion_lon": 0.0, "lat": 38.936517, "rental_uris": {"android": "https://dc.lft.to/lastmile_qr_scan", "ios": "https://dc.lft.to/lastmile_qr_scan"}, "fusion_lat": 0.0, "name": "14ae03fe17a1697eb5054c1f51b5619f", "bike_id": "14ae03fe17a1697eb5054c1f51b5619f"}, {"is_disabled": 0, "is_reserved": 0, "type": "electric_scooter", "lon": -77.03188133333333, "fusion_lon": 0.0, "lat": 38.892315833333335, "rental_uris": {"android": "https://dc.lft.to/lastmile_qr_scan", "ios": "https://dc.lft.to/lastmile_qr_scan"}, "fusion_lat": 0.0, "name": "c34117bd50c1253a75bd593bfb794cb8", "bike_id": "c34117bd50c1253a75bd593bfb794cb8"}, {"is_disabled": 0, "is_reserved": 0, "type": "electric_scooter", "lon": -77.03658583333333, "fusion_lon": 0.0, "lat": 38.917306333333336, "rental_uris": {"android": "https://dc.lft.to/lastmile_qr_scan", "ios": "https://dc.lft.to/lastmile_qr_scan"}, "fusion_lat": 0.0, "name": "ee23ec04d2286ae637aec68d46973a47", "bike_id": "ee23ec04d2286ae637aec68d46973a47"}, {"is_disabled": 0, "is_reserved": 0, "type": "electric_scooter", "lon": -77.03635116666666, "fusion_lon": 0.0, "lat": 38.91816716666666, "rental_uris": {"android": "https://dc.lft.to/lastmile_qr_scan", "ios": "https://dc.lft.to/lastmile_qr_scan"}, "fusion_lat": 0.0, "name": "21fec279290ae69eb550c9f074284d91", "bike_id": "21fec279290ae69eb550c9f074284d91"}, {"is_disabled": 0, "is_reserved": 0, "type": "electric_scooter", "lon": -77.02973833333333, "fusion_lon": 0.0, "lat": 38.907114, "rental_uris": {"android": "https://dc.lft.to/lastmile_qr_scan", "ios": "https://dc.lft.to/lastmile_qr_scan"}, "fusion_lat": 0.0, "name": "002f158b8bb35e9a2d05b1a6facbdf46", "bike_id": "002f158b8bb35e9a2d05b1a6facbdf46"}, {"is_disabled": 0, "is_reserved": 0, "type": "electric_scooter", "lon": -77.03853166666667, "fusion_lon": 0.0, "lat": 38.91754066666667, "rental_uris": {"android": "https://dc.lft.to/lastmile_qr_scan", "ios": "https://dc.lft.to/lastmile_qr_scan"}, "fusion_lat": 0.0, "name": "6f774c38e6d075f13d6dd4bde6b7504f", "bike_id": "6f774c38e6d075f13d6dd4bde6b7504f"}, {"is_disabled": 0, "is_reserved": 0, "type": "electric_bike", "lon": -77.12510333333333, "fusion_lon": 0.0, "lat": 39.02429216666667, "rental_uris": {"android": "https://dc.lft.to/lastmile_qr_scan", "ios": "https://dc.lft.to/lastmile_qr_scan"}, "fusion_lat": 0.0, "name": "ff1e0cf3392b051de872f94bfd33211a", "bike_id": "ff1e0cf3392b051de872f94bfd33211a"}, {"is_disabled": 0, "is_reserved": 0, "type": "electric_scooter", "lon": -77.032197, "fusion_lon": 0.0, "lat": 38.92550333333333, "rental_uris": {"android": "https://dc.lft.to/lastmile_qr_scan", "ios": "https://dc.lft.to/lastmile_qr_scan"}, "fusion_lat": 0.0, "name": "ce24423de78c573fb7c2f1e5f99298ad", "bike_id": "ce24423de78c573fb7c2f1e5f99298ad"}, {"is_disabled": 0, "is_reserved": 0, "type": "electric_scooter", "lon": -77.02225783333333, "fusion_lon": 0.0, "lat": 38.912728666666666, "rental_uris": {"android": "https://dc.lft.to/lastmile_qr_scan", "ios": "https://dc.lft.to/lastmile_qr_scan"}, "fusion_lat": 0.0, "name": "dbb3443072f4e1059d3558360c993bd2", "bike_id": "dbb3443072f4e1059d3558360c993bd2"}, {"is_disabled": 0, "is_reserved": 0, "type": "electric_scooter", "lon": -77.03215066666667, "fusion_lon": 0.0, "lat": 38.9159625, "rental_uris": {"android": "https://dc.lft.to/lastmile_qr_scan", "ios": "https://dc.lft.to/lastmile_qr_scan"}, "fusion_lat": 0.0, "name": "4659630b064c08e85c08d7b807b1c26d", "bike_id": "4659630b064c08e85c08d7b807b1c26d"}, {"is_disabled": 0, "is_reserved": 0, "type": "electric_scooter", "lon": -77.028283, "fusion_lon": 0.0, "lat": 38.948332, "rental_uris": {"android": "https://dc.lft.to/lastmile_qr_scan", "ios": "https://dc.lft.to/lastmile_qr_scan"}, "fusion_lat": 0.0, "name": "ed067d5a3b5c0452d770e35d75602600", "bike_id": "ed067d5a3b5c0452d770e35d75602600"}, {"is_disabled": 0, "is_reserved": 0, "type": "electric_scooter", "lon": -77.038904, "fusion_lon": 0.0, "lat": 38.9019475, "rental_uris": {"android": "https://dc.lft.to/lastmile_qr_scan", "ios": "https://dc.lft.to/lastmile_qr_scan"}, "fusion_lat": 0.0, "name": "5717712dc44d8d5106120ea36c216a41", "bike_id": "5717712dc44d8d5106120ea36c216a41"}, {"is_disabled": 0, "is_reserved": 0, "type": "electric_scooter", "lon": -76.93836033333334, "fusion_lon": 0.0, "lat": 38.89008066666667, "rental_uris": {"android": "https://dc.lft.to/lastmile_qr_scan", "ios": "https://dc.lft.to/lastmile_qr_scan"}, "fusion_lat": 0.0, "name": "e176f3737025663e42e4158a22cc45d4", "bike_id": "e176f3737025663e42e4158a22cc45d4"}, {"is_disabled": 0, "is_reserved": 0, "type": "electric_scooter", "lon": -77.05141816666666, "fusion_lon": 0.0, "lat": 38.906322, "rental_uris": {"android": "https://dc.lft.to/lastmile_qr_scan", "ios": "https://dc.lft.to/lastmile_qr_scan"}, "fusion_lat": 0.0, "name": "9fb4bac5196f36ddcd581f051cb8649c", "bike_id": "9fb4bac5196f36ddcd581f051cb8649c"}, {"is_disabled": 0, "is_reserved": 0, "type": "electric_scooter", "lon": -77.0083435, "fusion_lon": 0.0, "lat": 38.876541333333336, "rental_uris": {"android": "https://dc.lft.to/lastmile_qr_scan", "ios": "https://dc.lft.to/lastmile_qr_scan"}, "fusion_lat": 0.0, "name": "1effc85c0bfb5575dc5d2ad2b672e9cc", "bike_id": "1effc85c0bfb5575dc5d2ad2b672e9cc"}, {"is_disabled": 0, "is_reserved": 0, "type": "electric_scooter", "lon": -77.050663, "fusion_lon": 0.0, "lat": 38.9005785, "rental_uris": {"android": "https://dc.lft.to/lastmile_qr_scan", "ios": "https://dc.lft.to/lastmile_qr_scan"}, "fusion_lat": 0.0, "name": "ef30ba862f8138114490f44b0acd2469", "bike_id": "ef30ba862f8138114490f44b0acd2469"}, {"is_disabled": 0, "is_reserved": 0, "type": "electric_bike", "lon": -76.90815616666667, "fusion_lon": 0.0, "lat": 38.994526666666665, "rental_uris": {"android": "https://dc.lft.to/lastmile_qr_scan", "ios": "https://dc.lft.to/lastmile_qr_scan"}, "fusion_lat": 0.0, "name": "f9c09253408c91b45e52347a298f0ea3", "bike_id": "f9c09253408c91b45e52347a298f0ea3"}, {"is_disabled": 0, "is_reserved": 0, "type": "electric_scooter", "lon": -77.050941, "fusion_lon": 0.0, "lat": 38.92342283333333, "rental_uris": {"android": "https://dc.lft.to/lastmile_qr_scan", "ios": "https://dc.lft.to/lastmile_qr_scan"}, "fusion_lat": 0.0, "name": "03a76a588052e9219e47579187783ff0", "bike_id": "03a76a588052e9219e47579187783ff0"}, {"is_disabled": 0, "is_reserved": 0, "type": "electric_scooter", "lon": -76.94896933333334, "fusion_lon": 0.0, "lat": 38.895293333333335, "rental_uris": {"android": "https://dc.lft.to/lastmile_qr_scan", "ios": "https://dc.lft.to/lastmile_qr_scan"}, "fusion_lat": 0.0, "name": "f84986b7d66db8481579500008cf62a2", "bike_id": "f84986b7d66db8481579500008cf62a2"}, {"is_disabled": 0, "is_reserved": 0, "type": "electric_scooter", "lon": -77.01625733333333, "fusion_lon": 0.0, "lat": 38.882965, "rental_uris": {"android": "https://dc.lft.to/lastmile_qr_scan", "ios": "https://dc.lft.to/lastmile_qr_scan"}, "fusion_lat": 0.0, "name": "a172bcc13276e66c20a5ab9fbacfd288", "bike_id": "a172bcc13276e66c20a5ab9fbacfd288"}, {"is_disabled": 0, "is_reserved": 0, "type": "electric_bike", "lon": -76.9789675, "fusion_lon": 0.0, "lat": 38.85492283333333, "rental_uris": {"android": "https://dc.lft.to/lastmile_qr_scan", "ios": "https://dc.lft.to/lastmile_qr_scan"}, "fusion_lat": 0.0, "name": "f55cf2ecc6b3b9b2f377de5b30a4857b", "bike_id": "f55cf2ecc6b3b9b2f377de5b30a4857b"}, {"is_disabled": 0, "is_reserved": 0, "type": "electric_scooter", "lon": -76.9986815, "fusion_lon": 0.0, "lat": 38.90011533333333, "rental_uris": {"android": "https://dc.lft.to/lastmile_qr_scan", "ios": "https://dc.lft.to/lastmile_qr_scan"}, "fusion_lat": 0.0, "name": "506d2bdf71a3aad4b5cdbd89368ea8f6", "bike_id": "506d2bdf71a3aad4b5cdbd89368ea8f6"}, {"is_disabled": 0, "is_reserved": 0, "type": "electric_scooter", "lon": -77.02930766666667, "fusion_lon": 0.0, "lat": 38.895138, "rental_uris": {"android": "https://dc.lft.to/lastmile_qr_scan", "ios": "https://dc.lft.to/lastmile_qr_scan"}, "fusion_lat": 0.0, "name": "a382fdcc8c884f048fdc332ebefe3e19", "bike_id": "a382fdcc8c884f048fdc332ebefe3e19"}, {"is_disabled": 0, "is_reserved": 0, "type": "electric_scooter", "lon": -77.00333666666667, "fusion_lon": 0.0, "lat": 38.883208, "rental_uris": {"android": "https://dc.lft.to/lastmile_qr_scan", "ios": "https://dc.lft.to/lastmile_qr_scan"}, "fusion_lat": 0.0, "name": "62b5aeae937e20f6fef4732a5f84971c", "bike_id": "62b5aeae937e20f6fef4732a5f84971c"}, {"is_disabled": 0, "is_reserved": 0, "type": "electric_scooter", "lon": -76.99536383333333, "fusion_lon": 0.0, "lat": 38.862546333333334, "rental_uris": {"android": "https://dc.lft.to/lastmile_qr_scan", "ios": "https://dc.lft.to/lastmile_qr_scan"}, "fusion_lat": 0.0, "name": "24eed49515fc32d284f3149c9bfd924c", "bike_id": "24eed49515fc32d284f3149c9bfd924c"}, {"is_disabled": 0, "is_reserved": 0, "type": "electric_scooter", "lon": -77.066586, "fusion_lon": 0.0, "lat": 38.903637333333336, "rental_uris": {"android": "https://dc.lft.to/lastmile_qr_scan", "ios": "https://dc.lft.to/lastmile_qr_scan"}, "fusion_lat": 0.0, "name": "948c854f5b46899d0fc22d10595f1f84", "bike_id": "948c854f5b46899d0fc22d10595f1f84"}, {"is_disabled": 0, "is_reserved": 0, "type": "electric_scooter", "lon": -76.983367, "fusion_lon": 0.0, "lat": 38.912733, "rental_uris": {"android": "https://dc.lft.to/lastmile_qr_scan", "ios": "https://dc.lft.to/lastmile_qr_scan"}, "fusion_lat": 0.0, "name": "31c968195dfde47742db19a3bddcf096", "bike_id": "31c968195dfde47742db19a3bddcf096"}, {"is_disabled": 0, "is_reserved": 0, "type": "electric_bike", "lon": -76.9159365, "fusion_lon": 0.0, "lat": 38.880109833333336, "rental_uris": {"android": "https://dc.lft.to/lastmile_qr_scan", "ios": "https://dc.lft.to/lastmile_qr_scan"}, "fusion_lat": 0.0, "name": "3089eb43cf1777407d6f2ebee1a2feb1", "bike_id": "3089eb43cf1777407d6f2ebee1a2feb1"}, {"is_disabled": 0, "is_reserved": 0, "type": "electric_scooter", "lon": -77.0279535, "fusion_lon": 0.0, "lat": 38.930848833333336, "rental_uris": {"android": "https://dc.lft.to/lastmile_qr_scan", "ios": "https://dc.lft.to/lastmile_qr_scan"}, "fusion_lat": 0.0, "name": "1e69b930dc49af4d0111aec9c6b13b8a", "bike_id": "1e69b930dc49af4d0111aec9c6b13b8a"}, {"is_disabled": 0, "is_reserved": 0, "type": "electric_scooter", "lon": -77.02812866666666, "fusion_lon": 0.0, "lat": 38.96167366666667, "rental_uris": {"android": "https://dc.lft.to/lastmile_qr_scan", "ios": "https://dc.lft.to/lastmile_qr_scan"}, "fusion_lat": 0.0, "name": "3765a5ecaa3a5ab953ee0f0869fca476", "bike_id": "3765a5ecaa3a5ab953ee0f0869fca476"}, {"is_disabled": 0, "is_reserved": 0, "type": "electric_bike", "lon": -76.98201716666667, "fusion_lon": 0.0, "lat": 38.9850535, "rental_uris": {"android": "https://dc.lft.to/lastmile_qr_scan", "ios": "https://dc.lft.to/lastmile_qr_scan"}, "fusion_lat": 0.0, "name": "c805aefb954c0b7c8344eb4832747413", "bike_id": "c805aefb954c0b7c8344eb4832747413"}, {"is_disabled": 0, "is_reserved": 0, "type": "electric_scooter", "lon": -77.03188566666667, "fusion_lon": 0.0, "lat": 38.91926483333334, "rental_uris": {"android": "https://dc.lft.to/lastmile_qr_scan", "ios": "https://dc.lft.to/lastmile_qr_scan"}, "fusion_lat": 0.0, "name": "fc1675ad12e72f4bcbc57d8b6cf2c72b", "bike_id": "fc1675ad12e72f4bcbc57d8b6cf2c72b"}, {"is_disabled": 0, "is_reserved": 0, "type": "electric_scooter", "lon": -77.0072815, "fusion_lon": 0.0, "lat": 38.8766135, "rental_uris": {"android": "https://dc.lft.to/lastmile_qr_scan", "ios": "https://dc.lft.to/lastmile_qr_scan"}, "fusion_lat": 0.0, "name": "39779e28de596e3ba1f2aad7091ec826", "bike_id": "39779e28de596e3ba1f2aad7091ec826"}, {"is_disabled": 0, "is_reserved": 0, "type": "electric_scooter", "lon": -77.0040295, "fusion_lon": 0.0, "lat": 38.9110245, "rental_uris": {"android": "https://dc.lft.to/lastmile_qr_scan", "ios": "https://dc.lft.to/lastmile_qr_scan"}, "fusion_lat": 0.0, "name": "07a852721c040e9b71e80e3e8111d07e", "bike_id": "07a852721c040e9b71e80e3e8111d07e"}, {"is_disabled": 0, "is_reserved": 0, "type": "electric_scooter", "lon": -77.03157283333333, "fusion_lon": 0.0, "lat": 38.9272535, "rental_uris": {"android": "https://dc.lft.to/lastmile_qr_scan", "ios": "https://dc.lft.to/lastmile_qr_scan"}, "fusion_lat": 0.0, "name": "99144d7947daaa0bd6b0be4f60680f04", "bike_id": "99144d7947daaa0bd6b0be4f60680f04"}, {"is_disabled": 0, "is_reserved": 0, "type": "electric_scooter", "lon": -77.02582266666667, "fusion_lon": 0.0, "lat": 38.94211633333333, "rental_uris": {"android": "https://dc.lft.to/lastmile_qr_scan", "ios": "https://dc.lft.to/lastmile_qr_scan"}, "fusion_lat": 0.0, "name": "b44ee3f7df3911c3007181e912284579", "bike_id": "b44ee3f7df3911c3007181e912284579"}, {"is_disabled": 0, "is_reserved": 0, "type": "electric_scooter", "lon": -77.03752566666667, "fusion_lon": 0.0, "lat": 38.9290575, "rental_uris": {"android": "https://dc.lft.to/lastmile_qr_scan", "ios": "https://dc.lft.to/lastmile_qr_scan"}, "fusion_lat": 0.0, "name": "f4a8bb7020404a519cc9c47cc32fff24", "bike_id": "f4a8bb7020404a519cc9c47cc32fff24"}, {"is_disabled": 0, "is_reserved": 0, "type": "electric_scooter", "lon": -77.03350933333333, "fusion_lon": 0.0, "lat": 38.89623783333333, "rental_uris": {"android": "https://dc.lft.to/lastmile_qr_scan", "ios": "https://dc.lft.to/lastmile_qr_scan"}, "fusion_lat": 0.0, "name": "b0b6e3898d95b9546882f2f517ce6fa6", "bike_id": "b0b6e3898d95b9546882f2f517ce6fa6"}, {"is_disabled": 0, "is_reserved": 0, "type": "electric_scooter", "lon": -77.038589, "fusion_lon": 0.0, "lat": 38.9180575, "rental_uris": {"android": "https://dc.lft.to/lastmile_qr_scan", "ios": "https://dc.lft.to/lastmile_qr_scan"}, "fusion_lat": 0.0, "name": "76e6a10fb039620fa5c79f80775c05a2", "bike_id": "76e6a10fb039620fa5c79f80775c05a2"}, {"is_disabled": 0, "is_reserved": 0, "type": "electric_scooter", "lon": -77.0129645, "fusion_lon": 0.0, "lat": 38.886415166666666, "rental_uris": {"android": "https://dc.lft.to/lastmile_qr_scan", "ios": "https://dc.lft.to/lastmile_qr_scan"}, "fusion_lat": 0.0, "name": "d146298f6a7a961e14f8f6b8e034ed6b", "bike_id": "d146298f6a7a961e14f8f6b8e034ed6b"}, {"is_disabled": 0, "is_reserved": 0, "type": "electric_scooter", "lon": -77.00438816666667, "fusion_lon": 0.0, "lat": 38.87745666666667, "rental_uris": {"android": "https://dc.lft.to/lastmile_qr_scan", "ios": "https://dc.lft.to/lastmile_qr_scan"}, "fusion_lat": 0.0, "name": "32a94ec24db9f4fe556bbd444ea3f4c9", "bike_id": "32a94ec24db9f4fe556bbd444ea3f4c9"}, {"is_disabled": 0, "is_reserved": 0, "type": "electric_scooter", "lon": -77.02495333333333, "fusion_lon": 0.0, "lat": 38.91807333333333, "rental_uris": {"android": "https://dc.lft.to/lastmile_qr_scan", "ios": "https://dc.lft.to/lastmile_qr_scan"}, "fusion_lat": 0.0, "name": "0f39181672c54a1e39637ad1bc392b89", "bike_id": "0f39181672c54a1e39637ad1bc392b89"}, {"is_disabled": 0, "is_reserved": 0, "type": "electric_scooter", "lon": -77.03050933333333, "fusion_lon": 0.0, "lat": 38.899717833333334, "rental_uris": {"android": "https://dc.lft.to/lastmile_qr_scan", "ios": "https://dc.lft.to/lastmile_qr_scan"}, "fusion_lat": 0.0, "name": "b11076e0c20cbd59e2476ad97a9d9e85", "bike_id": "b11076e0c20cbd59e2476ad97a9d9e85"}, {"is_disabled": 0, "is_reserved": 0, "type": "electric_scooter", "lon": -77.01611783333334, "fusion_lon": 0.0, "lat": 38.887466833333335, "rental_uris": {"android": "https://dc.lft.to/lastmile_qr_scan", "ios": "https://dc.lft.to/lastmile_qr_scan"}, "fusion_lat": 0.0, "name": "db1184d4e6d591ecc3d5d00c276c2c7d", "bike_id": "db1184d4e6d591ecc3d5d00c276c2c7d"}, {"is_disabled": 0, "is_reserved": 0, "type": "electric_bike", "lon": -77.043583, "fusion_lon": 0.0, "lat": 38.83181366666667, "rental_uris": {"android": "https://dc.lft.to/lastmile_qr_scan", "ios": "https://dc.lft.to/lastmile_qr_scan"}, "fusion_lat": 0.0, "name": "2960397edfad8dceedf4ade8305e4577", "bike_id": "2960397edfad8dceedf4ade8305e4577"}, {"is_disabled": 0, "is_reserved": 0, "type": "electric_scooter", "lon": -76.9336125, "fusion_lon": 0.0, "lat": 38.899210333333336, "rental_uris": {"android": "https://dc.lft.to/lastmile_qr_scan", "ios": "https://dc.lft.to/lastmile_qr_scan"}, "fusion_lat": 0.0, "name": "92ea07d87e78315bca8d59468e297d7d", "bike_id": "92ea07d87e78315bca8d59468e297d7d"}, {"is_disabled": 0, "is_reserved": 0, "type": "electric_scooter", "lon": -77.02844933333333, "fusion_lon": 0.0, "lat": 38.92234783333333, "rental_uris": {"android": "https://dc.lft.to/lastmile_qr_scan", "ios": "https://dc.lft.to/lastmile_qr_scan"}, "fusion_lat": 0.0, "name": "9eac7b609f3508f3d89a6501cb1b24f9", "bike_id": "9eac7b609f3508f3d89a6501cb1b24f9"}, {"is_disabled": 0, "is_reserved": 0, "type": "electric_scooter", "lon": -76.99004133333334, "fusion_lon": 0.0, "lat": 38.865055166666664, "rental_uris": {"android": "https://dc.lft.to/lastmile_qr_scan", "ios": "https://dc.lft.to/lastmile_qr_scan"}, "fusion_lat": 0.0, "name": "714982b00254f14fa5186d31dcff251d", "bike_id": "714982b00254f14fa5186d31dcff251d"}, {"is_disabled": 0, "is_reserved": 0, "type": "electric_scooter", "lon": -77.04471033333333, "fusion_lon": 0.0, "lat": 38.91260533333333, "rental_uris": {"android": "https://dc.lft.to/lastmile_qr_scan", "ios": "https://dc.lft.to/lastmile_qr_scan"}, "fusion_lat": 0.0, "name": "3f9a1e475a28c79858c530840bc60c8d", "bike_id": "3f9a1e475a28c79858c530840bc60c8d"}, {"is_disabled": 0, "is_reserved": 0, "type": "electric_scooter", "lon": -77.02483983333333, "fusion_lon": 0.0, "lat": 38.918723, "rental_uris": {"android": "https://dc.lft.to/lastmile_qr_scan", "ios": "https://dc.lft.to/lastmile_qr_scan"}, "fusion_lat": 0.0, "name": "40be6d2ddae01e2b360d193d996a5319", "bike_id": "40be6d2ddae01e2b360d193d996a5319"}, {"is_disabled": 0, "is_reserved": 0, "type": "electric_scooter", "lon": -77.02210016666666, "fusion_lon": 0.0, "lat": 38.89604933333333, "rental_uris": {"android": "https://dc.lft.to/lastmile_qr_scan", "ios": "https://dc.lft.to/lastmile_qr_scan"}, "fusion_lat": 0.0, "name": "c0fdd9d0e6a849b7a53b8ef109ba55b5", "bike_id": "c0fdd9d0e6a849b7a53b8ef109ba55b5"}, {"is_disabled": 0, "is_reserved": 0, "type": "electric_bike", "lon": -76.98331316666666, "fusion_lon": 0.0, "lat": 38.966040666666665, "rental_uris": {"android": "https://dc.lft.to/lastmile_qr_scan", "ios": "https://dc.lft.to/lastmile_qr_scan"}, "fusion_lat": 0.0, "name": "2048692114028a16d28dcdf0ee681c29", "bike_id": "2048692114028a16d28dcdf0ee681c29"}, {"is_disabled": 0, "is_reserved": 0, "type": "electric_scooter", "lon": -77.05439933333334, "fusion_lon": 0.0, "lat": 38.89605233333333, "rental_uris": {"android": "https://dc.lft.to/lastmile_qr_scan", "ios": "https://dc.lft.to/lastmile_qr_scan"}, "fusion_lat": 0.0, "name": "2dda2781e97e8b2546f846e90742fa04", "bike_id": "2dda2781e97e8b2546f846e90742fa04"}, {"is_disabled": 0, "is_reserved": 0, "type": "electric_bike", "lon": -77.00954433333334, "fusion_lon": 0.0, "lat": 38.9070395, "rental_uris": {"android": "https://dc.lft.to/lastmile_qr_scan", "ios": "https://dc.lft.to/lastmile_qr_scan"}, "fusion_lat": 0.0, "name": "39af27f7a77040d09166645f29ed10ee", "bike_id": "39af27f7a77040d09166645f29ed10ee"}, {"is_disabled": 0, "is_reserved": 0, "type": "electric_scooter", "lon": -76.94824733333333, "fusion_lon": 0.0, "lat": 38.88513366666667, "rental_uris": {"android": "https://dc.lft.to/lastmile_qr_scan", "ios": "https://dc.lft.to/lastmile_qr_scan"}, "fusion_lat": 0.0, "name": "858cea1be229ead1a956eed46b2b900a", "bike_id": "858cea1be229ead1a956eed46b2b900a"}, {"is_disabled": 0, "is_reserved": 0, "type": "electric_scooter", "lon": -76.9787545, "fusion_lon": 0.0, "lat": 38.927272333333335, "rental_uris": {"android": "https://dc.lft.to/lastmile_qr_scan", "ios": "https://dc.lft.to/lastmile_qr_scan"}, "fusion_lat": 0.0, "name": "d261cd575747963806ad58e796f01611", "bike_id": "d261cd575747963806ad58e796f01611"}, {"is_disabled": 0, "is_reserved": 0, "type": "electric_scooter", "lon": -77.02286533333333, "fusion_lon": 0.0, "lat": 38.91656716666667, "rental_uris": {"android": "https://dc.lft.to/lastmile_qr_scan", "ios": "https://dc.lft.to/lastmile_qr_scan"}, "fusion_lat": 0.0, "name": "f1614d132927b23d1bf58ff23d5fdfe7", "bike_id": "f1614d132927b23d1bf58ff23d5fdfe7"}, {"is_disabled": 0, "is_reserved": 0, "type": "electric_scooter", "lon": -77.03763516666666, "fusion_lon": 0.0, "lat": 38.916886833333336, "rental_uris": {"android": "https://dc.lft.to/lastmile_qr_scan", "ios": "https://dc.lft.to/lastmile_qr_scan"}, "fusion_lat": 0.0, "name": "0f9e9c64507779e8a67d8ef2e4233b41", "bike_id": "0f9e9c64507779e8a67d8ef2e4233b41"}, {"is_disabled": 0, "is_reserved": 0, "type": "electric_scooter", "lon": -77.0383145, "fusion_lon": 0.0, "lat": 38.903261, "rental_uris": {"android": "https://dc.lft.to/lastmile_qr_scan", "ios": "https://dc.lft.to/lastmile_qr_scan"}, "fusion_lat": 0.0, "name": "3d83d2a42654618a3bd7ce602edbbe68", "bike_id": "3d83d2a42654618a3bd7ce602edbbe68"}, {"is_disabled": 0, "is_reserved": 0, "type": "electric_scooter", "lon": -77.01624633333333, "fusion_lon": 0.0, "lat": 38.90195816666667, "rental_uris": {"android": "https://dc.lft.to/lastmile_qr_scan", "ios": "https://dc.lft.to/lastmile_qr_scan"}, "fusion_lat": 0.0, "name": "5f9390071b01ae01e5d65f1da3876b02", "bike_id": "5f9390071b01ae01e5d65f1da3876b02"}, {"is_disabled": 0, "is_reserved": 0, "type": "electric_scooter", "lon": -77.02345216666667, "fusion_lon": 0.0, "lat": 38.915998, "rental_uris": {"android": "https://dc.lft.to/lastmile_qr_scan", "ios": "https://dc.lft.to/lastmile_qr_scan"}, "fusion_lat": 0.0, "name": "c2f52387adad3a12e3d1f7fbcb4e2091", "bike_id": "c2f52387adad3a12e3d1f7fbcb4e2091"}, {"is_disabled": 0, "is_reserved": 0, "type": "electric_scooter", "lon": -77.04065433333334, "fusion_lon": 0.0, "lat": 38.89869366666667, "rental_uris": {"android": "https://dc.lft.to/lastmile_qr_scan", "ios": "https://dc.lft.to/lastmile_qr_scan"}, "fusion_lat": 0.0, "name": "9c22efbc86524f64888c786fae71026d", "bike_id": "9c22efbc86524f64888c786fae71026d"}, {"is_disabled": 0, "is_reserved": 0, "type": "electric_scooter", "lon": -77.01946716666667, "fusion_lon": 0.0, "lat": 38.922503, "rental_uris": {"android": "https://dc.lft.to/lastmile_qr_scan", "ios": "https://dc.lft.to/lastmile_qr_scan"}, "fusion_lat": 0.0, "name": "35c25239ced0e570048b04da258b614a", "bike_id": "35c25239ced0e570048b04da258b614a"}, {"is_disabled": 0, "is_reserved": 0, "type": "electric_scooter", "lon": -77.04532583333334, "fusion_lon": 0.0, "lat": 38.9177485, "rental_uris": {"android": "https://dc.lft.to/lastmile_qr_scan", "ios": "https://dc.lft.to/lastmile_qr_scan"}, "fusion_lat": 0.0, "name": "16237d6008aedcd4dedc084c1c40a24b", "bike_id": "16237d6008aedcd4dedc084c1c40a24b"}, {"is_disabled": 0, "is_reserved": 0, "type": "electric_scooter", "lon": -77.04362383333333, "fusion_lon": 0.0, "lat": 38.89817133333333, "rental_uris": {"android": "https://dc.lft.to/lastmile_qr_scan", "ios": "https://dc.lft.to/lastmile_qr_scan"}, "fusion_lat": 0.0, "name": "abbf61207d549733d5cee2c5b230bca6", "bike_id": "abbf61207d549733d5cee2c5b230bca6"}, {"is_disabled": 0, "is_reserved": 0, "type": "electric_scooter", "lon": -77.04376366666666, "fusion_lon": 0.0, "lat": 38.901166833333335, "rental_uris": {"android": "https://dc.lft.to/lastmile_qr_scan", "ios": "https://dc.lft.to/lastmile_qr_scan"}, "fusion_lat": 0.0, "name": "031dec5f3a64363a7421ccde2719172c", "bike_id": "031dec5f3a64363a7421ccde2719172c"}, {"is_disabled": 0, "is_reserved": 0, "type": "electric_bike", "lon": -77.07898366666667, "fusion_lon": 0.0, "lat": 38.83940033333333, "rental_uris": {"android": "https://dc.lft.to/lastmile_qr_scan", "ios": "https://dc.lft.to/lastmile_qr_scan"}, "fusion_lat": 0.0, "name": "45b5201afa5fe67f6c2be24e7abc976b", "bike_id": "45b5201afa5fe67f6c2be24e7abc976b"}, {"is_disabled": 0, "is_reserved": 0, "type": "electric_scooter", "lon": -77.02920333333333, "fusion_lon": 0.0, "lat": 38.8980715, "rental_uris": {"android": "https://dc.lft.to/lastmile_qr_scan", "ios": "https://dc.lft.to/lastmile_qr_scan"}, "fusion_lat": 0.0, "name": "18e9e07cb9011a4f0a7ef9c7d676c570", "bike_id": "18e9e07cb9011a4f0a7ef9c7d676c570"}, {"is_disabled": 0, "is_reserved": 0, "type": "electric_scooter", "lon": -77.00694133333333, "fusion_lon": 0.0, "lat": 38.90527216666667, "rental_uris": {"android": "https://dc.lft.to/lastmile_qr_scan", "ios": "https://dc.lft.to/lastmile_qr_scan"}, "fusion_lat": 0.0, "name": "7cd2f733ccd5905714831b92589ab0ed", "bike_id": "7cd2f733ccd5905714831b92589ab0ed"}, {"is_disabled": 0, "is_reserved": 0, "type": "electric_bike", "lon": -77.0617235, "fusion_lon": 0.0, "lat": 38.8127135, "rental_uris": {"android": "https://dc.lft.to/lastmile_qr_scan", "ios": "https://dc.lft.to/lastmile_qr_scan"}, "fusion_lat": 0.0, "name": "46148d83c5858e9b78d0149d135d7936", "bike_id": "46148d83c5858e9b78d0149d135d7936"}, {"is_disabled": 0, "is_reserved": 0, "type": "electric_scooter", "lon": -77.061004, "fusion_lon": 0.0, "lat": 38.9128805, "rental_uris": {"android": "https://dc.lft.to/lastmile_qr_scan", "ios": "https://dc.lft.to/lastmile_qr_scan"}, "fusion_lat": 0.0, "name": "f57bde36c54b143b9147a1af02cbb42b", "bike_id": "f57bde36c54b143b9147a1af02cbb42b"}, {"is_disabled": 0, "is_reserved": 0, "type": "electric_scooter", "lon": -77.0240285, "fusion_lon": 0.0, "lat": 38.9168175, "rental_uris": {"android": "https://dc.lft.to/lastmile_qr_scan", "ios": "https://dc.lft.to/lastmile_qr_scan"}, "fusion_lat": 0.0, "name": "a503a408d1e866bbd37889b790732918", "bike_id": "a503a408d1e866bbd37889b790732918"}, {"is_disabled": 0, "is_reserved": 0, "type": "electric_scooter", "lon": -77.033962, "fusion_lon": 0.0, "lat": 38.919686, "rental_uris": {"android": "https://dc.lft.to/lastmile_qr_scan", "ios": "https://dc.lft.to/lastmile_qr_scan"}, "fusion_lat": 0.0, "name": "c73509d62a91e5c4b745b68d4cf00aaf", "bike_id": "c73509d62a91e5c4b745b68d4cf00aaf"}, {"is_disabled": 0, "is_reserved": 0, "type": "electric_scooter", "lon": -77.01012983333334, "fusion_lon": 0.0, "lat": 38.8796915, "rental_uris": {"android": "https://dc.lft.to/lastmile_qr_scan", "ios": "https://dc.lft.to/lastmile_qr_scan"}, "fusion_lat": 0.0, "name": "72a98ab92550c1f94729dbda3e9ad226", "bike_id": "72a98ab92550c1f94729dbda3e9ad226"}, {"is_disabled": 0, "is_reserved": 0, "type": "electric_scooter", "lon": -77.02843783333333, "fusion_lon": 0.0, "lat": 38.937573, "rental_uris": {"android": "https://dc.lft.to/lastmile_qr_scan", "ios": "https://dc.lft.to/lastmile_qr_scan"}, "fusion_lat": 0.0, "name": "855b029e29b975ad15c92c0dd939a6db", "bike_id": "855b029e29b975ad15c92c0dd939a6db"}, {"is_disabled": 0, "is_reserved": 0, "type": "electric_scooter", "lon": -77.026061, "fusion_lon": 0.0, "lat": 38.916348666666664, "rental_uris": {"android": "https://dc.lft.to/lastmile_qr_scan", "ios": "https://dc.lft.to/lastmile_qr_scan"}, "fusion_lat": 0.0, "name": "27fc889d326a1f8c1fd937229aa8577a", "bike_id": "27fc889d326a1f8c1fd937229aa8577a"}, {"is_disabled": 0, "is_reserved": 0, "type": "electric_scooter", "lon": -76.98769866666666, "fusion_lon": 0.0, "lat": 38.9117105, "rental_uris": {"android": "https://dc.lft.to/lastmile_qr_scan", "ios": "https://dc.lft.to/lastmile_qr_scan"}, "fusion_lat": 0.0, "name": "704423ff763dc1a107061b10f4151d4c", "bike_id": "704423ff763dc1a107061b10f4151d4c"}, {"is_disabled": 0, "is_reserved": 0, "type": "electric_bike", "lon": -76.93228783333333, "fusion_lon": 0.0, "lat": 38.86592366666667, "rental_uris": {"android": "https://dc.lft.to/lastmile_qr_scan", "ios": "https://dc.lft.to/lastmile_qr_scan"}, "fusion_lat": 0.0, "name": "6e74978b7583a19a41e3fcef943b1625", "bike_id": "6e74978b7583a19a41e3fcef943b1625"}, {"is_disabled": 0, "is_reserved": 0, "type": "electric_scooter", "lon": -77.0368845, "fusion_lon": 0.0, "lat": 38.908265666666665, "rental_uris": {"android": "https://dc.lft.to/lastmile_qr_scan", "ios": "https://dc.lft.to/lastmile_qr_scan"}, "fusion_lat": 0.0, "name": "0e32cde29fa04f01ee5fa728384d6c9d", "bike_id": "0e32cde29fa04f01ee5fa728384d6c9d"}, {"is_disabled": 0, "is_reserved": 0, "type": "electric_scooter", "lon": -77.04741433333334, "fusion_lon": 0.0, "lat": 38.90588266666666, "rental_uris": {"android": "https://dc.lft.to/lastmile_qr_scan", "ios": "https://dc.lft.to/lastmile_qr_scan"}, "fusion_lat": 0.0, "name": "19d0ccc6178086a985c6ad18f058d618", "bike_id": "19d0ccc6178086a985c6ad18f058d618"}, {"is_disabled": 0, "is_reserved": 0, "type": "electric_scooter", "lon": -77.01845783333333, "fusion_lon": 0.0, "lat": 38.92198833333333, "rental_uris": {"android": "https://dc.lft.to/lastmile_qr_scan", "ios": "https://dc.lft.to/lastmile_qr_scan"}, "fusion_lat": 0.0, "name": "c5c39b66c3f91f5dc631751483e6f204", "bike_id": "c5c39b66c3f91f5dc631751483e6f204"}, {"is_disabled": 0, "is_reserved": 0, "type": "electric_scooter", "lon": -77.04653433333333, "fusion_lon": 0.0, "lat": 38.892363833333334, "rental_uris": {"android": "https://dc.lft.to/lastmile_qr_scan", "ios": "https://dc.lft.to/lastmile_qr_scan"}, "fusion_lat": 0.0, "name": "59096d0528c9c0867b5556e4174e84a0", "bike_id": "59096d0528c9c0867b5556e4174e84a0"}, {"is_disabled": 0, "is_reserved": 0, "type": "electric_bike", "lon": -77.12585116666666, "fusion_lon": 0.0, "lat": 38.851441, "rental_uris": {"android": "https://dc.lft.to/lastmile_qr_scan", "ios": "https://dc.lft.to/lastmile_qr_scan"}, "fusion_lat": 0.0, "name": "cbeb3f4af32ee37dc69239cb68f5a919", "bike_id": "cbeb3f4af32ee37dc69239cb68f5a919"}, {"is_disabled": 0, "is_reserved": 0, "type": "electric_scooter", "lon": -77.03216, "fusion_lon": 0.0, "lat": 38.91748916666667, "rental_uris": {"android": "https://dc.lft.to/lastmile_qr_scan", "ios": "https://dc.lft.to/lastmile_qr_scan"}, "fusion_lat": 0.0, "name": "76e541b27db58f9342e15b1fcd647eee", "bike_id": "76e541b27db58f9342e15b1fcd647eee"}, {"is_disabled": 0, "is_reserved": 0, "type": "electric_scooter", "lon": -77.02350266666667, "fusion_lon": 0.0, "lat": 38.9196085, "rental_uris": {"android": "https://dc.lft.to/lastmile_qr_scan", "ios": "https://dc.lft.to/lastmile_qr_scan"}, "fusion_lat": 0.0, "name": "79d5d2504e94a0b7c4bc8d16182cce55", "bike_id": "79d5d2504e94a0b7c4bc8d16182cce55"}, {"is_disabled": 0, "is_reserved": 0, "type": "electric_bike", "lon": -77.00046, "fusion_lon": 0.0, "lat": 38.87623466666667, "rental_uris": {"android": "https://dc.lft.to/lastmile_qr_scan", "ios": "https://dc.lft.to/lastmile_qr_scan"}, "fusion_lat": 0.0, "name": "4e83a13d6b40369edc1dc04743aac2b2", "bike_id": "4e83a13d6b40369edc1dc04743aac2b2"}, {"is_disabled": 0, "is_reserved": 0, "type": "electric_scooter", "lon": -76.99701116666667, "fusion_lon": 0.0, "lat": 38.838550833333336, "rental_uris": {"android": "https://dc.lft.to/lastmile_qr_scan", "ios": "https://dc.lft.to/lastmile_qr_scan"}, "fusion_lat": 0.0, "name": "7b2fe4a1d173c6b440c0739303ef06ab", "bike_id": "7b2fe4a1d173c6b440c0739303ef06ab"}, {"is_disabled": 0, "is_reserved": 0, "type": "electric_scooter", "lon": -77.0375095, "fusion_lon": 0.0, "lat": 38.91269916666667, "rental_uris": {"android": "https://dc.lft.to/lastmile_qr_scan", "ios": "https://dc.lft.to/lastmile_qr_scan"}, "fusion_lat": 0.0, "name": "10ad6d8cf7152b1c656379c4b430190c", "bike_id": "10ad6d8cf7152b1c656379c4b430190c"}, {"is_disabled": 0, "is_reserved": 0, "type": "electric_scooter", "lon": -77.03421683333333, "fusion_lon": 0.0, "lat": 38.935391333333335, "rental_uris": {"android": "https://dc.lft.to/lastmile_qr_scan", "ios": "https://dc.lft.to/lastmile_qr_scan"}, "fusion_lat": 0.0, "name": "4e4844690d2f5718bf14862697bf6da0", "bike_id": "4e4844690d2f5718bf14862697bf6da0"}, {"is_disabled": 0, "is_reserved": 0, "type": "electric_scooter", "lon": -76.94060333333333, "fusion_lon": 0.0, "lat": 38.890168833333334, "rental_uris": {"android": "https://dc.lft.to/lastmile_qr_scan", "ios": "https://dc.lft.to/lastmile_qr_scan"}, "fusion_lat": 0.0, "name": "2feeda6164d68a3fc452fdf99b6a6537", "bike_id": "2feeda6164d68a3fc452fdf99b6a6537"}, {"is_disabled": 0, "is_reserved": 0, "type": "electric_scooter", "lon": -77.04588216666667, "fusion_lon": 0.0, "lat": 38.91714483333333, "rental_uris": {"android": "https://dc.lft.to/lastmile_qr_scan", "ios": "https://dc.lft.to/lastmile_qr_scan"}, "fusion_lat": 0.0, "name": "41e3e440307e66a16a3fba42e9523be9", "bike_id": "41e3e440307e66a16a3fba42e9523be9"}, {"is_disabled": 0, "is_reserved": 0, "type": "electric_bike", "lon": -77.09584316666667, "fusion_lon": 0.0, "lat": 38.83788216666667, "rental_uris": {"android": "https://dc.lft.to/lastmile_qr_scan", "ios": "https://dc.lft.to/lastmile_qr_scan"}, "fusion_lat": 0.0, "name": "7c032f0b4440a4bf44ecf52728893d66", "bike_id": "7c032f0b4440a4bf44ecf52728893d66"}, {"is_disabled": 0, "is_reserved": 0, "type": "electric_scooter", "lon": -76.9488975, "fusion_lon": 0.0, "lat": 38.895134666666664, "rental_uris": {"android": "https://dc.lft.to/lastmile_qr_scan", "ios": "https://dc.lft.to/lastmile_qr_scan"}, "fusion_lat": 0.0, "name": "4996b0e4ba70728b23eba3e9a26f9f3c", "bike_id": "4996b0e4ba70728b23eba3e9a26f9f3c"}, {"is_disabled": 0, "is_reserved": 0, "type": "electric_scooter", "lon": -77.0349645, "fusion_lon": 0.0, "lat": 38.9169765, "rental_uris": {"android": "https://dc.lft.to/lastmile_qr_scan", "ios": "https://dc.lft.to/lastmile_qr_scan"}, "fusion_lat": 0.0, "name": "888d14be63a7f73bf33178300b1d2deb", "bike_id": "888d14be63a7f73bf33178300b1d2deb"}, {"is_disabled": 0, "is_reserved": 0, "type": "electric_scooter", "lon": -77.05005316666667, "fusion_lon": 0.0, "lat": 38.89229366666667, "rental_uris": {"android": "https://dc.lft.to/lastmile_qr_scan", "ios": "https://dc.lft.to/lastmile_qr_scan"}, "fusion_lat": 0.0, "name": "d174fc749632cd6c596211dfaaacf28b", "bike_id": "d174fc749632cd6c596211dfaaacf28b"}, {"is_disabled": 0, "is_reserved": 0, "type": "electric_scooter", "lon": -76.99226566666667, "fusion_lon": 0.0, "lat": 38.89887083333333, "rental_uris": {"android": "https://dc.lft.to/lastmile_qr_scan", "ios": "https://dc.lft.to/lastmile_qr_scan"}, "fusion_lat": 0.0, "name": "34f00d5ad6f68387bb1982d30cc4f947", "bike_id": "34f00d5ad6f68387bb1982d30cc4f947"}, {"is_disabled": 0, "is_reserved": 0, "type": "electric_scooter", "lon": -77.025801, "fusion_lon": 0.0, "lat": 38.89948916666667, "rental_uris": {"android": "https://dc.lft.to/lastmile_qr_scan", "ios": "https://dc.lft.to/lastmile_qr_scan"}, "fusion_lat": 0.0, "name": "dec930e270ea4ca5900d30d462085021", "bike_id": "dec930e270ea4ca5900d30d462085021"}, {"is_disabled": 0, "is_reserved": 0, "type": "electric_bike", "lon": -77.1477555, "fusion_lon": 0.0, "lat": 39.09590516666667, "rental_uris": {"android": "https://dc.lft.to/lastmile_qr_scan", "ios": "https://dc.lft.to/lastmile_qr_scan"}, "fusion_lat": 0.0, "name": "81239855e198c7a2782735ce778ca715", "bike_id": "81239855e198c7a2782735ce778ca715"}, {"is_disabled": 0, "is_reserved": 0, "type": "electric_scooter", "lon": -76.99693683333334, "fusion_lon": 0.0, "lat": 38.8603, "rental_uris": {"android": "https://dc.lft.to/lastmile_qr_scan", "ios": "https://dc.lft.to/lastmile_qr_scan"}, "fusion_lat": 0.0, "name": "06f9381b8c96f28e5d1013487a2bca12", "bike_id": "06f9381b8c96f28e5d1013487a2bca12"}, {"is_disabled": 0, "is_reserved": 0, "type": "electric_scooter", "lon": -77.01394183333333, "fusion_lon": 0.0, "lat": 38.88033883333333, "rental_uris": {"android": "https://dc.lft.to/lastmile_qr_scan", "ios": "https://dc.lft.to/lastmile_qr_scan"}, "fusion_lat": 0.0, "name": "7123be1c42b7970af23c7d3e6b53eb06", "bike_id": "7123be1c42b7970af23c7d3e6b53eb06"}, {"is_disabled": 0, "is_reserved": 0, "type": "electric_scooter", "lon": -76.979103, "fusion_lon": 0.0, "lat": 38.89435616666667, "rental_uris": {"android": "https://dc.lft.to/lastmile_qr_scan", "ios": "https://dc.lft.to/lastmile_qr_scan"}, "fusion_lat": 0.0, "name": "40c185257f1f6c27168bf2926f094646", "bike_id": "40c185257f1f6c27168bf2926f094646"}, {"is_disabled": 0, "is_reserved": 0, "type": "electric_scooter", "lon": -77.04163333333334, "fusion_lon": 0.0, "lat": 38.919128666666666, "rental_uris": {"android": "https://dc.lft.to/lastmile_qr_scan", "ios": "https://dc.lft.to/lastmile_qr_scan"}, "fusion_lat": 0.0, "name": "b11edfed9dce266e1e0a068525d79084", "bike_id": "b11edfed9dce266e1e0a068525d79084"}, {"is_disabled": 0, "is_reserved": 0, "type": "electric_scooter", "lon": -77.0149665, "fusion_lon": 0.0, "lat": 38.95648666666666, "rental_uris": {"android": "https://dc.lft.to/lastmile_qr_scan", "ios": "https://dc.lft.to/lastmile_qr_scan"}, "fusion_lat": 0.0, "name": "132fb4d0ec7b26e2e08fb7785ce78ba3", "bike_id": "132fb4d0ec7b26e2e08fb7785ce78ba3"}, {"is_disabled": 0, "is_reserved": 0, "type": "electric_scooter", "lon": -77.032088, "fusion_lon": 0.0, "lat": 38.93967583333333, "rental_uris": {"android": "https://dc.lft.to/lastmile_qr_scan", "ios": "https://dc.lft.to/lastmile_qr_scan"}, "fusion_lat": 0.0, "name": "2c39a31897b380e085f56b594af26966", "bike_id": "2c39a31897b380e085f56b594af26966"}, {"is_disabled": 0, "is_reserved": 0, "type": "electric_scooter", "lon": -77.0310055, "fusion_lon": 0.0, "lat": 38.925750666666666, "rental_uris": {"android": "https://dc.lft.to/lastmile_qr_scan", "ios": "https://dc.lft.to/lastmile_qr_scan"}, "fusion_lat": 0.0, "name": "849ff753bbfec4ef3f928fd3eb70a9e3", "bike_id": "849ff753bbfec4ef3f928fd3eb70a9e3"}, {"is_disabled": 0, "is_reserved": 0, "type": "electric_scooter", "lon": -77.0507225, "fusion_lon": 0.0, "lat": 38.90072983333334, "rental_uris": {"android": "https://dc.lft.to/lastmile_qr_scan", "ios": "https://dc.lft.to/lastmile_qr_scan"}, "fusion_lat": 0.0, "name": "b64fa943a6e5a15543149a755d590133", "bike_id": "b64fa943a6e5a15543149a755d590133"}, {"is_disabled": 0, "is_reserved": 0, "type": "electric_scooter", "lon": -77.02203183333333, "fusion_lon": 0.0, "lat": 38.89590366666667, "rental_uris": {"android": "https://dc.lft.to/lastmile_qr_scan", "ios": "https://dc.lft.to/lastmile_qr_scan"}, "fusion_lat": 0.0, "name": "4dcd37426b23980d03bf4900a2cfac64", "bike_id": "4dcd37426b23980d03bf4900a2cfac64"}, {"is_disabled": 0, "is_reserved": 0, "type": "electric_scooter", "lon": -77.01950583333333, "fusion_lon": 0.0, "lat": 38.9225505, "rental_uris": {"android": "https://dc.lft.to/lastmile_qr_scan", "ios": "https://dc.lft.to/lastmile_qr_scan"}, "fusion_lat": 0.0, "name": "08001c76de5e41f5cc17ed95352b1dea", "bike_id": "08001c76de5e41f5cc17ed95352b1dea"}, {"is_disabled": 0, "is_reserved": 0, "type": "electric_scooter", "lon": -77.0033355, "fusion_lon": 0.0, "lat": 38.893535, "rental_uris": {"android": "https://dc.lft.to/lastmile_qr_scan", "ios": "https://dc.lft.to/lastmile_qr_scan"}, "fusion_lat": 0.0, "name": "7fb0f93e73807c70839d50c29f254964", "bike_id": "7fb0f93e73807c70839d50c29f254964"}, {"is_disabled": 0, "is_reserved": 0, "type": "electric_bike", "lon": -77.10682516666667, "fusion_lon": 0.0, "lat": 38.93582383333333, "rental_uris": {"android": "https://dc.lft.to/lastmile_qr_scan", "ios": "https://dc.lft.to/lastmile_qr_scan"}, "fusion_lat": 0.0, "name": "a5008099cc499f967ff366fe75519da1", "bike_id": "a5008099cc499f967ff366fe75519da1"}, {"is_disabled": 0, "is_reserved": 0, "type": "electric_scooter", "lon": -77.03316083333333, "fusion_lon": 0.0, "lat": 38.91414733333333, "rental_uris": {"android": "https://dc.lft.to/lastmile_qr_scan", "ios": "https://dc.lft.to/lastmile_qr_scan"}, "fusion_lat": 0.0, "name": "4e39eff7fc4340424376e7655be303d0", "bike_id": "4e39eff7fc4340424376e7655be303d0"}, {"is_disabled": 0, "is_reserved": 0, "type": "electric_scooter", "lon": -76.98662, "fusion_lon": 0.0, "lat": 38.901502666666666, "rental_uris": {"android": "https://dc.lft.to/lastmile_qr_scan", "ios": "https://dc.lft.to/lastmile_qr_scan"}, "fusion_lat": 0.0, "name": "bd8ce54dc818b6cddbd2b000b272fa83", "bike_id": "bd8ce54dc818b6cddbd2b000b272fa83"}, {"is_disabled": 0, "is_reserved": 0, "type": "electric_bike", "lon": -76.98746433333334, "fusion_lon": 0.0, "lat": 38.85783266666667, "rental_uris": {"android": "https://dc.lft.to/lastmile_qr_scan", "ios": "https://dc.lft.to/lastmile_qr_scan"}, "fusion_lat": 0.0, "name": "d791ee09bafe77c7cf3ed74a73f4af27", "bike_id": "d791ee09bafe77c7cf3ed74a73f4af27"}, {"is_disabled": 0, "is_reserved": 0, "type": "electric_scooter", "lon": -77.04416666666667, "fusion_lon": 0.0, "lat": 38.91774983333333, "rental_uris": {"android": "https://dc.lft.to/lastmile_qr_scan", "ios": "https://dc.lft.to/lastmile_qr_scan"}, "fusion_lat": 0.0, "name": "fb37e7bd6cc576be157b0522fce5294e", "bike_id": "fb37e7bd6cc576be157b0522fce5294e"}, {"is_disabled": 0, "is_reserved": 0, "type": "electric_scooter", "lon": -77.005898, "fusion_lon": 0.0, "lat": 38.906137, "rental_uris": {"android": "https://dc.lft.to/lastmile_qr_scan", "ios": "https://dc.lft.to/lastmile_qr_scan"}, "fusion_lat": 0.0, "name": "68891194eb211f2f05ff1aa84bcbabbf", "bike_id": "68891194eb211f2f05ff1aa84bcbabbf"}, {"is_disabled": 0, "is_reserved": 0, "type": "electric_scooter", "lon": -77.02656733333333, "fusion_lon": 0.0, "lat": 38.89217216666667, "rental_uris": {"android": "https://dc.lft.to/lastmile_qr_scan", "ios": "https://dc.lft.to/lastmile_qr_scan"}, "fusion_lat": 0.0, "name": "6f2cf06d65327ae727d0ecb9efe892ff", "bike_id": "6f2cf06d65327ae727d0ecb9efe892ff"}, {"is_disabled": 0, "is_reserved": 0, "type": "electric_scooter", "lon": -77.02623683333333, "fusion_lon": 0.0, "lat": 38.93342533333333, "rental_uris": {"android": "https://dc.lft.to/lastmile_qr_scan", "ios": "https://dc.lft.to/lastmile_qr_scan"}, "fusion_lat": 0.0, "name": "dcfc803313bb33698e69f9611a40c5e1", "bike_id": "dcfc803313bb33698e69f9611a40c5e1"}, {"is_disabled": 0, "is_reserved": 0, "type": "electric_bike", "lon": -77.04905033333333, "fusion_lon": 0.0, "lat": 38.855177, "rental_uris": {"android": "https://dc.lft.to/lastmile_qr_scan", "ios": "https://dc.lft.to/lastmile_qr_scan"}, "fusion_lat": 0.0, "name": "97b1e58ea9898339ebb910dee9e0357c", "bike_id": "97b1e58ea9898339ebb910dee9e0357c"}, {"is_disabled": 0, "is_reserved": 0, "type": "electric_scooter", "lon": -77.0389215, "fusion_lon": 0.0, "lat": 38.92235983333333, "rental_uris": {"android": "https://dc.lft.to/lastmile_qr_scan", "ios": "https://dc.lft.to/lastmile_qr_scan"}, "fusion_lat": 0.0, "name": "db383c9699cd195354143d215f65d8ee", "bike_id": "db383c9699cd195354143d215f65d8ee"}, {"is_disabled": 0, "is_reserved": 0, "type": "electric_scooter", "lon": -77.03437416666667, "fusion_lon": 0.0, "lat": 38.9180425, "rental_uris": {"android": "https://dc.lft.to/lastmile_qr_scan", "ios": "https://dc.lft.to/lastmile_qr_scan"}, "fusion_lat": 0.0, "name": "bace1b677359f7318df9261161265114", "bike_id": "bace1b677359f7318df9261161265114"}, {"is_disabled": 0, "is_reserved": 0, "type": "electric_scooter", "lon": -77.03830116666667, "fusion_lon": 0.0, "lat": 38.911117, "rental_uris": {"android": "https://dc.lft.to/lastmile_qr_scan", "ios": "https://dc.lft.to/lastmile_qr_scan"}, "fusion_lat": 0.0, "name": "0654bb18438814df98173a686cb7ac8a", "bike_id": "0654bb18438814df98173a686cb7ac8a"}, {"is_disabled": 0, "is_reserved": 0, "type": "electric_scooter", "lon": -77.03570683333334, "fusion_lon": 0.0, "lat": 38.907464833333336, "rental_uris": {"android": "https://dc.lft.to/lastmile_qr_scan", "ios": "https://dc.lft.to/lastmile_qr_scan"}, "fusion_lat": 0.0, "name": "d7cf0e75f2e7b644cd2eb8a73db522a4", "bike_id": "d7cf0e75f2e7b644cd2eb8a73db522a4"}, {"is_disabled": 0, "is_reserved": 0, "type": "electric_scooter", "lon": -77.00436216666667, "fusion_lon": 0.0, "lat": 38.87704183333334, "rental_uris": {"android": "https://dc.lft.to/lastmile_qr_scan", "ios": "https://dc.lft.to/lastmile_qr_scan"}, "fusion_lat": 0.0, "name": "51b8fac93762f31724dcc058968c0829", "bike_id": "51b8fac93762f31724dcc058968c0829"}, {"is_disabled": 0, "is_reserved": 0, "type": "electric_scooter", "lon": -77.0248985, "fusion_lon": 0.0, "lat": 38.90249883333333, "rental_uris": {"android": "https://dc.lft.to/lastmile_qr_scan", "ios": "https://dc.lft.to/lastmile_qr_scan"}, "fusion_lat": 0.0, "name": "745683593336bc1e68f5ca7c6ca1022f", "bike_id": "745683593336bc1e68f5ca7c6ca1022f"}, {"is_disabled": 0, "is_reserved": 0, "type": "electric_scooter", "lon": -77.0255805, "fusion_lon": 0.0, "lat": 38.8922415, "rental_uris": {"android": "https://dc.lft.to/lastmile_qr_scan", "ios": "https://dc.lft.to/lastmile_qr_scan"}, "fusion_lat": 0.0, "name": "cba148313ae9b5321d08f19150131b90", "bike_id": "cba148313ae9b5321d08f19150131b90"}, {"is_disabled": 0, "is_reserved": 0, "type": "electric_scooter", "lon": -77.03232083333333, "fusion_lon": 0.0, "lat": 38.901107333333336, "rental_uris": {"android": "https://dc.lft.to/lastmile_qr_scan", "ios": "https://dc.lft.to/lastmile_qr_scan"}, "fusion_lat": 0.0, "name": "d9dfe9c21252cd0a7237e2b0bc4b6077", "bike_id": "d9dfe9c21252cd0a7237e2b0bc4b6077"}, {"is_disabled": 0, "is_reserved": 0, "type": "electric_scooter", "lon": -77.02596983333333, "fusion_lon": 0.0, "lat": 38.97587033333333, "rental_uris": {"android": "https://dc.lft.to/lastmile_qr_scan", "ios": "https://dc.lft.to/lastmile_qr_scan"}, "fusion_lat": 0.0, "name": "dbd2c8afac66511e285b2587a2000675", "bike_id": "dbd2c8afac66511e285b2587a2000675"}, {"is_disabled": 0, "is_reserved": 0, "type": "electric_scooter", "lon": -77.03354816666666, "fusion_lon": 0.0, "lat": 38.92441516666667, "rental_uris": {"android": "https://dc.lft.to/lastmile_qr_scan", "ios": "https://dc.lft.to/lastmile_qr_scan"}, "fusion_lat": 0.0, "name": "a2d58d0f4e903f0a5a0d632d8f2e1dfa", "bike_id": "a2d58d0f4e903f0a5a0d632d8f2e1dfa"}, {"is_disabled": 0, "is_reserved": 0, "type": "electric_scooter", "lon": -76.933843, "fusion_lon": 0.0, "lat": 38.89908616666666, "rental_uris": {"android": "https://dc.lft.to/lastmile_qr_scan", "ios": "https://dc.lft.to/lastmile_qr_scan"}, "fusion_lat": 0.0, "name": "b6c951304da84140dde3fe0c649a5cc9", "bike_id": "b6c951304da84140dde3fe0c649a5cc9"}, {"is_disabled": 0, "is_reserved": 0, "type": "electric_scooter", "lon": -76.998637, "fusion_lon": 0.0, "lat": 38.900125833333334, "rental_uris": {"android": "https://dc.lft.to/lastmile_qr_scan", "ios": "https://dc.lft.to/lastmile_qr_scan"}, "fusion_lat": 0.0, "name": "679404a3112ac3ddd83fe60a1a57a3a5", "bike_id": "679404a3112ac3ddd83fe60a1a57a3a5"}, {"is_disabled": 0, "is_reserved": 0, "type": "electric_bike", "lon": -76.9617485, "fusion_lon": 0.0, "lat": 38.91861316666667, "rental_uris": {"android": "https://dc.lft.to/lastmile_qr_scan", "ios": "https://dc.lft.to/lastmile_qr_scan"}, "fusion_lat": 0.0, "name": "7486ac55a5fdb0b06883812fd18708ed", "bike_id": "7486ac55a5fdb0b06883812fd18708ed"}, {"is_disabled": 0, "is_reserved": 0, "type": "electric_bike", "lon": -76.92934333333334, "fusion_lon": 0.0, "lat": 38.90290533333334, "rental_uris": {"android": "https://dc.lft.to/lastmile_qr_scan", "ios": "https://dc.lft.to/lastmile_qr_scan"}, "fusion_lat": 0.0, "name": "4c0257357da9cd5e59623a8b6bf6907d", "bike_id": "4c0257357da9cd5e59623a8b6bf6907d"}, {"is_disabled": 0, "is_reserved": 0, "type": "electric_scooter", "lon": -77.07015083333333, "fusion_lon": 0.0, "lat": 38.905900333333335, "rental_uris": {"android": "https://dc.lft.to/lastmile_qr_scan", "ios": "https://dc.lft.to/lastmile_qr_scan"}, "fusion_lat": 0.0, "name": "ad53b1b1746564271c3f67de6e1b4d41", "bike_id": "ad53b1b1746564271c3f67de6e1b4d41"}, {"is_disabled": 0, "is_reserved": 0, "type": "electric_scooter", "lon": -77.0394065, "fusion_lon": 0.0, "lat": 38.90714716666667, "rental_uris": {"android": "https://dc.lft.to/lastmile_qr_scan", "ios": "https://dc.lft.to/lastmile_qr_scan"}, "fusion_lat": 0.0, "name": "f03640348afdc15e868e76d3d91bb3ee", "bike_id": "f03640348afdc15e868e76d3d91bb3ee"}, {"is_disabled": 0, "is_reserved": 0, "type": "electric_scooter", "lon": -77.01177983333334, "fusion_lon": 0.0, "lat": 38.870686166666665, "rental_uris": {"android": "https://dc.lft.to/lastmile_qr_scan", "ios": "https://dc.lft.to/lastmile_qr_scan"}, "fusion_lat": 0.0, "name": "1a9f09ac0bb198b5e9e1e7ce9930855c", "bike_id": "1a9f09ac0bb198b5e9e1e7ce9930855c"}, {"is_disabled": 0, "is_reserved": 0, "type": "electric_bike", "lon": -77.00580566666666, "fusion_lon": 0.0, "lat": 38.836955333333336, "rental_uris": {"android": "https://dc.lft.to/lastmile_qr_scan", "ios": "https://dc.lft.to/lastmile_qr_scan"}, "fusion_lat": 0.0, "name": "565493cda9457cac2301e6dd9bfe05ba", "bike_id": "565493cda9457cac2301e6dd9bfe05ba"}, {"is_disabled": 0, "is_reserved": 0, "type": "electric_scooter", "lon": -77.03144583333334, "fusion_lon": 0.0, "lat": 38.91266983333333, "rental_uris": {"android": "https://dc.lft.to/lastmile_qr_scan", "ios": "https://dc.lft.to/lastmile_qr_scan"}, "fusion_lat": 0.0, "name": "8d81a1e4a7c605808d88bfdd4fabf102", "bike_id": "8d81a1e4a7c605808d88bfdd4fabf102"}, {"is_disabled": 0, "is_reserved": 0, "type": "electric_scooter", "lon": -77.03878416666667, "fusion_lon": 0.0, "lat": 38.934305333333334, "rental_uris": {"android": "https://dc.lft.to/lastmile_qr_scan", "ios": "https://dc.lft.to/lastmile_qr_scan"}, "fusion_lat": 0.0, "name": "bbaf0a8e7fd3d092de2a2f8d4dddd192", "bike_id": "bbaf0a8e7fd3d092de2a2f8d4dddd192"}, {"is_disabled": 0, "is_reserved": 0, "type": "electric_scooter", "lon": -76.995767, "fusion_lon": 0.0, "lat": 38.92073583333333, "rental_uris": {"android": "https://dc.lft.to/lastmile_qr_scan", "ios": "https://dc.lft.to/lastmile_qr_scan"}, "fusion_lat": 0.0, "name": "a17f41b979043e4417088afdc6fb024c", "bike_id": "a17f41b979043e4417088afdc6fb024c"}, {"is_disabled": 0, "is_reserved": 0, "type": "electric_scooter", "lon": -77.025396, "fusion_lon": 0.0, "lat": 38.907159166666666, "rental_uris": {"android": "https://dc.lft.to/lastmile_qr_scan", "ios": "https://dc.lft.to/lastmile_qr_scan"}, "fusion_lat": 0.0, "name": "b93a6d04f05f77bd64784ac89c51c3a5", "bike_id": "b93a6d04f05f77bd64784ac89c51c3a5"},