{"data": {"bikes": [{"type": "electric_scooter", "rental_uris": {"android": "https://dc.lft.to/lastmile_qr_scan", "ios": "https://dc.lft.to/lastmile_qr_scan"}, "name": "a3d109707cc9383ac624232367708c09", "lat": 38.912594666666664, "is_reserved": 0, "fusion_lon": 0.0, "fusion_lat": 0.0, "is_disabled": 0, "bike_id": "a3d109707cc9383ac624232367708c09", "lon": -77.039343}, {"type": "electric_scooter", "rental_uris": {"android": "https://dc.lft.to/lastmile_qr_scan", "ios": "https://dc.lft.to/lastmile_qr_scan"}, "name": "002640001df84985066881a5baf80ac2", "lat": 38.92504516666666, "is_reserved": 0, "fusion_lon": 0.0, "fusion_lat": 0.0, "is_disabled": 0, "bike_id": "002640001df84985066881a5baf80ac2", "lon": -77.03780583333334}, {"type": "electric_scooter", "rental_uris": {"android": "https://dc.lft.to/lastmile_qr_scan", "ios": "https://dc.lft.to/lastmile_qr_scan"}, "name": "ba464cf417d0da117b99e528d6790672", "lat": 38.885024333333334, "is_reserved": 0, "fusion_lon": 0.0, "fusion_lat": 0.0, "is_disabled": 0, "bike_id": "ba464cf417d0da117b99e528d6790672", "lon": -77.00223916666667}, {"type": "electric_scooter", "rental_uris": {"android": "https://dc.lft.to/lastmile_qr_scan", "ios": "https://dc.lft.to/lastmile_qr_scan"}, "name": "f19ed0c6aead27bf4a5d60fe1cab7180", "lat": 38.903873, "is_reserved": 0, "fusion_lon": 0.0, "fusion_lat": 0.0, "is_disabled": 0, "bike_id": "f19ed0c6aead27bf4a5d60fe1cab7180", "lon": -77.028329}, {"type": "electric_scooter", "rental_uris": {"android": "https://dc.lft.to/lastmile_qr_scan", "ios": "https://dc.lft.to/lastmile_qr_scan"}, "name": "e145c672e0de6e4f91f328ccea46dc8b", "lat": 38.92602433333333, "is_reserved": 0, "fusion_lon": 0.0, "fusion_lat": 0.0, "is_disabled": 0, "bike_id": "e145c672e0de6e4f91f328ccea46dc8b", "lon": -77.02155816666667}, {"type": "electric_scooter", "rental_uris": {"android": "https://dc.lft.to/lastmile_qr_scan", "ios": "https://dc.lft.to/lastmile_qr_scan"}, "name": "48460413479bb748ac62b68eecd24327", "lat": 38.913582166666664, "is_reserved": 0, "fusion_lon": 0.0, "fusion_lat": 0.0, "is_disabled": 0, "bike_id": "48460413479bb748ac62b68eecd24327", "lon": -77.0199655}, {"type": "electric_bike", "rental_uris": {"android": "https://dc.lft.to/lastmile_qr_scan", "ios": "https://dc.lft.to/lastmile_qr_scan"}, "name": "a51f7fa05eca6dd39b2c31adaf4df157", "lat": 38.813309333333336, "is_reserved": 0, "fusion_lon": 0.0, "fusion_lat": 0.0, "is_disabled": 0, "bike_id": "a51f7fa05eca6dd39b2c31adaf4df157", "lon": -77.0508505}, {"type": "electric_bike", "rental_uris": {"android": "https://dc.lft.to/lastmile_qr_scan", "ios": "https://dc.lft.to/lastmile_qr_scan"}, "name": "bb8148424a499705aa40b37b8b118b06", "lat": 39.010934166666665, "is_reserved": 0, "fusion_lon": 0.0, "fusion_lat": 0.0, "is_disabled": 0, "bike_id": "bb8148424a499705aa40b37b8b118b06", "lon": -77.04959666666667}, {"type": "electric_bike", "rental_uris": {"android": "https://dc.lft.to/lastmile_qr_scan", "ios": "https://dc.lft.to/lastmile_qr_scan"}, "name": "5fb0ab278aebb98330fae2892e58363e", "lat": 38.9149315, "is_reserved": 0, "fusion_lon": 0.0, "fusion_lat": 0.0, "is_disabled": 0, "bike_id": "5fb0ab278aebb98330fae2892e58363e", "lon": -77.02175116666666}, {"type": "electric_scooter", "rental_uris": {"android": "https://dc.lft.to/lastmile_qr_scan", "ios": "https://dc.lft.to/lastmile_qr_scan"}, "name": "16ebc06e0b3f081768c59ec69204b681", "lat": 38.90737983333333, "is_reserved": 0, "fusion_lon": 0.0, "fusion_lat": 0.0, "is_disabled": 0, "bike_id": "16ebc06e0b3f081768c59ec69204b681", "lon": -77.01310733333334}, {"type": "electric_scooter", "rental_uris": {"android": "https://dc.lft.to/lastmile_qr_scan", "ios": "https://dc.lft.to/lastmile_qr_scan"}, "name": "db72e05e3dbace108ac3e7a44d49d412", "lat": 38.9031525, "is_reserved": 0, "fusion_lon": 0.0, "fusion_lat": 0.0, "is_disabled": 0, "bike_id": "db72e05e3dbace108ac3e7a44d49d412", "lon": -77.02205683333334}, {"type": "electric_scooter", "rental_uris": {"android": "https://dc.lft.to/lastmile_qr_scan", "ios": "https://dc.lft.to/lastmile_qr_scan"}, "name": "fc54992864a6c2bfc18d8a33b519f6c4", "lat": 38.914811, "is_reserved": 0, "fusion_lon": 0.0, "fusion_lat": 0.0, "is_disabled": 0, "bike_id": "fc54992864a6c2bfc18d8a33b519f6c4", "lon": -77.0324955}, {"type": "electric_scooter", "rental_uris": {"android": "https://dc.lft.to/lastmile_qr_scan", "ios": "https://dc.lft.to/lastmile_qr_scan"}, "name": "8dbf92adeecf32c07161c31356c5a51e", "lat": 38.908774666666666, "is_reserved": 0, "fusion_lon": 0.0, "fusion_lat": 0.0, "is_disabled": 0, "bike_id": "8dbf92adeecf32c07161c31356c5a51e", "lon": -77.03192633333333}, {"type": "electric_scooter", "rental_uris": {"android": "https://dc.lft.to/lastmile_qr_scan", "ios": "https://dc.lft.to/lastmile_qr_scan"}, "name": "fc38ca5dffc1b67df7273efc047cb75a", "lat": 38.904723, "is_reserved": 0, "fusion_lon": 0.0, "fusion_lat": 0.0, "is_disabled": 0, "bike_id": "fc38ca5dffc1b67df7273efc047cb75a", "lon": -77.03573616666667}, {"type": "electric_scooter", "rental_uris": {"android": "https://dc.lft.to/lastmile_qr_scan", "ios": "https://dc.lft.to/lastmile_qr_scan"}, "name": "6b5bb603b9b271fced6ea183dc2ef720", "lat": 38.915592333333336, "is_reserved": 0, "fusion_lon": 0.0, "fusion_lat": 0.0, "is_disabled": 0, "bike_id": "6b5bb603b9b271fced6ea183dc2ef720", "lon": -77.0068135}, {"type": "electric_scooter", "rental_uris": {"android": "https://dc.lft.to/lastmile_qr_scan", "ios": "https://dc.lft.to/lastmile_qr_scan"}, "name": "128c51a68a18369cb3925f329c9a1960", "lat": 38.89467916666667, "is_reserved": 0, "fusion_lon": 0.0, "fusion_lat": 0.0, "is_disabled": 0, "bike_id": "128c51a68a18369cb3925f329c9a1960", "lon": -77.022128}, {"type": "electric_scooter", "rental_uris": {"android": "https://dc.lft.to/lastmile_qr_scan", "ios": "https://dc.lft.to/lastmile_qr_scan"}, "name": "d722ea28d9d64fffb076a8a184b4b83a", "lat": 38.898453333333336, "is_reserved": 0, "fusion_lon": 0.0, "fusion_lat": 0.0, "is_disabled": 0, "bike_id": "d722ea28d9d64fffb076a8a184b4b83a", "lon": -77.03210816666666}, {"type": "electric_scooter", "rental_uris": {"android": "https://dc.lft.to/lastmile_qr_scan", "ios": "https://dc.lft.to/lastmile_qr_scan"}, "name": "32d104a153a7bfe3b9fa650d56e8b77a", "lat": 38.91618316666667, "is_reserved": 0, "fusion_lon": 0.0, "fusion_lat": 0.0, "is_disabled": 0, "bike_id": "32d104a153a7bfe3b9fa650d56e8b77a", "lon": -77.048588}, {"type": "electric_scooter", "rental_uris": {"android": "https://dc.lft.to/lastmile_qr_scan", "ios": "https://dc.lft.to/lastmile_qr_scan"}, "name": "1249680c196164ebb9daa5146f5405d7", "lat": 38.902533166666664, "is_reserved": 0, "fusion_lon": 0.0, "fusion_lat": 0.0, "is_disabled": 0, "bike_id": "1249680c196164ebb9daa5146f5405d7", "lon": -77.03033416666666}, {"type": "electric_scooter", "rental_uris": {"android": "https://dc.lft.to/lastmile_qr_scan", "ios": "https://dc.lft.to/lastmile_qr_scan"}, "name": "28744f1d5b1783d499af81c6385ee189", "lat": 38.9172355, "is_reserved": 0, "fusion_lon": 0.0, "fusion_lat": 0.0, "is_disabled": 0, "bike_id": "28744f1d5b1783d499af81c6385ee189", "lon": -77.02590016666667}, {"type": "electric_bike", "rental_uris": {"android": "https://dc.lft.to/lastmile_qr_scan", "ios": "https://dc.lft.to/lastmile_qr_scan"}, "name": "eabbc9ce59a76ee71a0008fc9e172d6b", "lat": 38.891251833333335, "is_reserved": 0, "fusion_lon": 0.0, "fusion_lat": 0.0, "is_disabled": 0, "bike_id": "eabbc9ce59a76ee71a0008fc9e172d6b", "lon": -76.940573}, {"type": "electric_scooter", "rental_uris": {"android": "https://dc.lft.to/lastmile_qr_scan", "ios": "https://dc.lft.to/lastmile_qr_scan"}, "name": "3cffc4d4494b4634f8e0ba8a75bf8194", "lat": 38.905678, "is_reserved": 0, "fusion_lon": 0.0, "fusion_lat": 0.0, "is_disabled": 0, "bike_id": "3cffc4d4494b4634f8e0ba8a75bf8194", "lon": -77.00579966666666}, {"type": "electric_scooter", "rental_uris": {"android": "https://dc.lft.to/lastmile_qr_scan", "ios": "https://dc.lft.to/lastmile_qr_scan"}, "name": "b0ab14df28535ffaef3933bfe19b9234", "lat": 38.906682833333335, "is_reserved": 0, "fusion_lon": 0.0, "fusion_lat": 0.0, "is_disabled": 0, "bike_id": "b0ab14df28535ffaef3933bfe19b9234", "lon": -77.04283133333334}, {"type": "electric_scooter", "rental_uris": {"android": "https://dc.lft.to/lastmile_qr_scan", "ios": "https://dc.lft.to/lastmile_qr_scan"}, "name": "da849c02699bdd3c6d69dc3e1a8cd010", "lat": 38.9135055, "is_reserved": 0, "fusion_lon": 0.0, "fusion_lat": 0.0, "is_disabled": 0, "bike_id": "da849c02699bdd3c6d69dc3e1a8cd010", "lon": -77.03360216666667}, {"type": "electric_scooter", "rental_uris": {"android": "https://dc.lft.to/lastmile_qr_scan", "ios": "https://dc.lft.to/lastmile_qr_scan"}, "name": "10c3f7451ffe78ee1cf86e13f055e0b4", "lat": 38.8935255, "is_reserved": 0, "fusion_lon": 0.0, "fusion_lat": 0.0, "is_disabled": 0, "bike_id": "10c3f7451ffe78ee1cf86e13f055e0b4", "lon": -77.0151745}, {"type": "electric_scooter", "rental_uris": {"android": "https://dc.lft.to/lastmile_qr_scan", "ios": "https://dc.lft.to/lastmile_qr_scan"}, "name": "c227abeb5b11cb102682aed0cc4dd5e5", "lat": 38.924375166666664, "is_reserved": 0, "fusion_lon": 0.0, "fusion_lat": 0.0, "is_disabled": 0, "bike_id": "c227abeb5b11cb102682aed0cc4dd5e5", "lon": -77.02244516666667}, {"type": "electric_scooter", "rental_uris": {"android": "https://dc.lft.to/lastmile_qr_scan", "ios": "https://dc.lft.to/lastmile_qr_scan"}, "name": "8e0d54fce2d6a199f08cfc3ceb72a64d", "lat": 38.92478416666667, "is_reserved": 0, "fusion_lon": 0.0, "fusion_lat": 0.0, "is_disabled": 0, "bike_id": "8e0d54fce2d6a199f08cfc3ceb72a64d", "lon": -77.03831366666667}, {"type": "electric_scooter", "rental_uris": {"android": "https://dc.lft.to/lastmile_qr_scan", "ios": "https://dc.lft.to/lastmile_qr_scan"}, "name": "39656afe950003370ea7d6d259c88259", "lat": 38.88487633333333, "is_reserved": 0, "fusion_lon": 0.0, "fusion_lat": 0.0, "is_disabled": 0, "bike_id": "39656afe950003370ea7d6d259c88259", "lon": -77.02192033333333}, {"type": "electric_scooter", "rental_uris": {"android": "https://dc.lft.to/lastmile_qr_scan", "ios": "https://dc.lft.to/lastmile_qr_scan"}, "name": "5b1798c20412d7b5ece67039aafe503d", "lat": 38.920658833333334, "is_reserved": 0, "fusion_lon": 0.0, "fusion_lat": 0.0, "is_disabled": 0, "bike_id": "5b1798c20412d7b5ece67039aafe503d", "lon": -77.03462616666667}, {"type": "electric_scooter", "rental_uris": {"android": "https://dc.lft.to/lastmile_qr_scan", "ios": "https://dc.lft.to/lastmile_qr_scan"}, "name": "c3be210353c7f844cc3ebae06d9ced05", "lat": 38.89844033333333, "is_reserved": 0, "fusion_lon": 0.0, "fusion_lat": 0.0, "is_disabled": 0, "bike_id": "c3be210353c7f844cc3ebae06d9ced05", "lon": -77.030502}, {"type": "electric_bike", "rental_uris": {"android": "https://dc.lft.to/lastmile_qr_scan", "ios": "https://dc.lft.to/lastmile_qr_scan"}, "name": "06061d68fa5763b1f142caf2da6be0b8", "lat": 38.88255316666667, "is_reserved": 0, "fusion_lon": 0.0, "fusion_lat": 0.0, "is_disabled": 0, "bike_id": "06061d68fa5763b1f142caf2da6be0b8", "lon": -77.11175466666667}, {"type": "electric_scooter", "rental_uris": {"android": "https://dc.lft.to/lastmile_qr_scan", "ios": "https://dc.lft.to/lastmile_qr_scan"}, "name": "f666a53db19d2b4d9b4c5ca806617d58", "lat": 38.924764833333334, "is_reserved": 0, "fusion_lon": 0.0, "fusion_lat": 0.0, "is_disabled": 0, "bike_id": "f666a53db19d2b4d9b4c5ca806617d58", "lon": -77.03151566666666}, {"type": "electric_scooter", "rental_uris": {"android": "https://dc.lft.to/lastmile_qr_scan", "ios": "https://dc.lft.to/lastmile_qr_scan"}, "name": "48eb3b7366a44691638c4009f308fbd4", "lat": 38.9047235, "is_reserved": 0, "fusion_lon": 0.0, "fusion_lat": 0.0, "is_disabled": 0, "bike_id": "48eb3b7366a44691638c4009f308fbd4", "lon": -77.041741}, {"type": "electric_scooter", "rental_uris": {"android": "https://dc.lft.to/lastmile_qr_scan", "ios": "https://dc.lft.to/lastmile_qr_scan"}, "name": "052c8cdfd93a7e988e02eed8bc092c1e", "lat": 38.923139166666665, "is_reserved": 0, "fusion_lon": 0.0, "fusion_lat": 0.0, "is_disabled": 0, "bike_id": "052c8cdfd93a7e988e02eed8bc092c1e", "lon": -77.02905166666666}, {"type": "electric_scooter", "rental_uris": {"android": "https://dc.lft.to/lastmile_qr_scan", "ios": "https://dc.lft.to/lastmile_qr_scan"}, "name": "ef6292a34bd6a72504f62dde450545ed", "lat": 38.964090666666664, "is_reserved": 0, "fusion_lon": 0.0, "fusion_lat": 0.0, "is_disabled": 0, "bike_id": "ef6292a34bd6a72504f62dde450545ed", "lon": -77.032882}, {"type": "electric_scooter", "rental_uris": {"android": "https://dc.lft.to/lastmile_qr_scan", "ios": "https://dc.lft.to/lastmile_qr_scan"}, "name": "3b28b1621cfca2d6e827c6ada6f79649", "lat": 38.926873, "is_reserved": 0, "fusion_lon": 0.0, "fusion_lat": 0.0, "is_disabled": 0, "bike_id": "3b28b1621cfca2d6e827c6ada6f79649", "lon": -77.02963383333334}, {"type": "electric_scooter", "rental_uris": {"android": "https://dc.lft.to/lastmile_qr_scan", "ios": "https://dc.lft.to/lastmile_qr_scan"}, "name": "639758593b23581b89bdc832184bd646", "lat": 38.90264916666667, "is_reserved": 0, "fusion_lon": 0.0, "fusion_lat": 0.0, "is_disabled": 0, "bike_id": "639758593b23581b89bdc832184bd646", "lon": -77.03032516666667}, {"type": "electric_scooter", "rental_uris": {"android": "https://dc.lft.to/lastmile_qr_scan", "ios": "https://dc.lft.to/lastmile_qr_scan"}, "name": "44c5fdd9eb677dca0e2f66837e42a112", "lat": 38.92481316666667, "is_reserved": 0, "fusion_lon": 0.0, "fusion_lat": 0.0, "is_disabled": 0, "bike_id": "44c5fdd9eb677dca0e2f66837e42a112", "lon": -77.05210733333334}, {"type": "electric_scooter", "rental_uris": {"android": "https://dc.lft.to/lastmile_qr_scan", "ios": "https://dc.lft.to/lastmile_qr_scan"}, "name": "4fa5176559b5f0286f8db41703cbc62b", "lat": 38.903461166666666, "is_reserved": 0, "fusion_lon": 0.0, "fusion_lat": 0.0, "is_disabled": 0, "bike_id": "4fa5176559b5f0286f8db41703cbc62b", "lon": -77.02586516666666}, {"type": "electric_scooter", "rental_uris": {"android": "https://dc.lft.to/lastmile_qr_scan", "ios": "https://dc.lft.to/lastmile_qr_scan"}, "name": "487da713f8ee9dacdcc5b925b36a027b", "lat": 38.87499916666667, "is_reserved": 0, "fusion_lon": 0.0, "fusion_lat": 0.0, "is_disabled": 0, "bike_id": "487da713f8ee9dacdcc5b925b36a027b", "lon": -76.99794016666667}, {"type": "electric_scooter", "rental_uris": {"android": "https://dc.lft.to/lastmile_qr_scan", "ios": "https://dc.lft.to/lastmile_qr_scan"}, "name": "babfd298d7256ee93daf5432069539c4", "lat": 38.9241805, "is_reserved": 0, "fusion_lon": 0.0, "fusion_lat": 0.0, "is_disabled": 0, "bike_id": "babfd298d7256ee93daf5432069539c4", "lon": -77.019434}, {"type": "electric_scooter", "rental_uris": {"android": "https://dc.lft.to/lastmile_qr_scan", "ios": "https://dc.lft.to/lastmile_qr_scan"}, "name": "0efd65838fad0fad45a3f52a1baca3d3", "lat": 38.8922305, "is_reserved": 0, "fusion_lon": 0.0, "fusion_lat": 0.0, "is_disabled": 0, "bike_id": "0efd65838fad0fad45a3f52a1baca3d3", "lon": -77.04867266666666}, {"type": "electric_scooter", "rental_uris": {"android": "https://dc.lft.to/lastmile_qr_scan", "ios": "https://dc.lft.to/lastmile_qr_scan"}, "name": "b6f447e34fcbe318a5150130d3e2838b", "lat": 38.92391816666667, "is_reserved": 0, "fusion_lon": 0.0, "fusion_lat": 0.0, "is_disabled": 0, "bike_id": "b6f447e34fcbe318a5150130d3e2838b", "lon": -77.03411}, {"type": "electric_scooter", "rental_uris": {"android": "https://dc.lft.to/lastmile_qr_scan", "ios": "https://dc.lft.to/lastmile_qr_scan"}, "name": "172920b5e446e39f0258e1dcf201793e", "lat": 38.939106333333335, "is_reserved": 0, "fusion_lon": 0.0, "fusion_lat": 0.0, "is_disabled": 0, "bike_id": "172920b5e446e39f0258e1dcf201793e", "lon": -77.03259616666666}, {"type": "electric_scooter", "rental_uris": {"android": "https://dc.lft.to/lastmile_qr_scan", "ios": "https://dc.lft.to/lastmile_qr_scan"}, "name": "6a68c6a405e43b9e5d9e16891c204645", "lat": 38.91325416666667, "is_reserved": 0, "fusion_lon": 0.0, "fusion_lat": 0.0, "is_disabled": 0, "bike_id": "6a68c6a405e43b9e5d9e16891c204645", "lon": -77.02279316666667}, {"type": "electric_scooter", "rental_uris": {"android": "https://dc.lft.to/lastmile_qr_scan", "ios": "https://dc.lft.to/lastmile_qr_scan"}, "name": "52a2dade9503bbce8e7707e0a9df4814", "lat": 38.89958433333334, "is_reserved": 0, "fusion_lon": 0.0, "fusion_lat": 0.0, "is_disabled": 0, "bike_id": "52a2dade9503bbce8e7707e0a9df4814", "lon": -77.0281385}, {"type": "electric_scooter", "rental_uris": {"android": "https://dc.lft.to/lastmile_qr_scan", "ios": "https://dc.lft.to/lastmile_qr_scan"}, "name": "fda3ddb0e5b48723889e96b0e7f34aaf", "lat": 38.927936333333335, "is_reserved": 0, "fusion_lon": 0.0, "fusion_lat": 0.0, "is_disabled": 0, "bike_id": "fda3ddb0e5b48723889e96b0e7f34aaf", "lon": -77.05332083333333}, {"type": "electric_scooter", "rental_uris": {"android": "https://dc.lft.to/lastmile_qr_scan", "ios": "https://dc.lft.to/lastmile_qr_scan"}, "name": "1b1bb85507d0c060b1d81e4e914e5296", "lat": 38.909583166666664, "is_reserved": 0, "fusion_lon": 0.0, "fusion_lat": 0.0, "is_disabled": 0, "bike_id": "1b1bb85507d0c060b1d81e4e914e5296", "lon": -77.034346}, {"type": "electric_scooter", "rental_uris": {"android": "https://dc.lft.to/lastmile_qr_scan", "ios": "https://dc.lft.to/lastmile_qr_scan"}, "name": "dd4bf1aa1659de26d16828a738f0a30a", "lat": 38.909601333333335, "is_reserved": 0, "fusion_lon": 0.0, "fusion_lat": 0.0, "is_disabled": 0, "bike_id": "dd4bf1aa1659de26d16828a738f0a30a", "lon": -77.032241}, {"type": "electric_scooter", "rental_uris": {"android": "https://dc.lft.to/lastmile_qr_scan", "ios": "https://dc.lft.to/lastmile_qr_scan"}, "name": "9b864a61748bd8b055770acc45cbea13", "lat": 38.9003115, "is_reserved": 0, "fusion_lon": 0.0, "fusion_lat": 0.0, "is_disabled": 0, "bike_id": "9b864a61748bd8b055770acc45cbea13", "lon": -77.0362095}, {"type": "electric_scooter", "rental_uris": {"android": "https://dc.lft.to/lastmile_qr_scan", "ios": "https://dc.lft.to/lastmile_qr_scan"}, "name": "41a0109969572c32d3a340c67e073b74", "lat": 38.89518966666667, "is_reserved": 0, "fusion_lon": 0.0, "fusion_lat": 0.0, "is_disabled": 0, "bike_id": "41a0109969572c32d3a340c67e073b74", "lon": -76.99211366666667}, {"type": "electric_scooter", "rental_uris": {"android": "https://dc.lft.to/lastmile_qr_scan", "ios": "https://dc.lft.to/lastmile_qr_scan"}, "name": "45bebfbb7f68d496e7decdaf207f978f", "lat": 38.9557745, "is_reserved": 0, "fusion_lon": 0.0, "fusion_lat": 0.0, "is_disabled": 0, "bike_id": "45bebfbb7f68d496e7decdaf207f978f", "lon": -77.0701}, {"type": "electric_scooter", "rental_uris": {"android": "https://dc.lft.to/lastmile_qr_scan", "ios": "https://dc.lft.to/lastmile_qr_scan"}, "name": "3bb13c39204e90713736af66563d420e", "lat": 38.91547383333333, "is_reserved": 0, "fusion_lon": 0.0, "fusion_lat": 0.0, "is_disabled": 0, "bike_id": "3bb13c39204e90713736af66563d420e", "lon": -77.04456483333334}, {"type": "electric_scooter", "rental_uris": {"android": "https://dc.lft.to/lastmile_qr_scan", "ios": "https://dc.lft.to/lastmile_qr_scan"}, "name": "2ccc74287370ecd0dc3657d40c801ea8", "lat": 38.886882, "is_reserved": 0, "fusion_lon": 0.0, "fusion_lat": 0.0, "is_disabled": 0, "bike_id": "2ccc74287370ecd0dc3657d40c801ea8", "lon": -76.976366}, {"type": "electric_scooter", "rental_uris": {"android": "https://dc.lft.to/lastmile_qr_scan", "ios": "https://dc.lft.to/lastmile_qr_scan"}, "name": "4c245f4b91d2c2ee93fb9c2ef34b316a", "lat": 38.90273416666667, "is_reserved": 0, "fusion_lon": 0.0, "fusion_lat": 0.0, "is_disabled": 0, "bike_id": "4c245f4b91d2c2ee93fb9c2ef34b316a", "lon": -77.03354383333334}, {"type": "electric_scooter", "rental_uris": {"android": "https://dc.lft.to/lastmile_qr_scan", "ios": "https://dc.lft.to/lastmile_qr_scan"}, "name": "127e9015c758205695fcc190ac396598", "lat": 38.89724666666667, "is_reserved": 0, "fusion_lon": 0.0, "fusion_lat": 0.0, "is_disabled": 0, "bike_id": "127e9015c758205695fcc190ac396598", "lon": -77.0213705}, {"type": "electric_scooter", "rental_uris": {"android": "https://dc.lft.to/lastmile_qr_scan", "ios": "https://dc.lft.to/lastmile_qr_scan"}, "name": "d16f7b156515342532fce1cb46ae48ab", "lat": 38.91974716666667, "is_reserved": 0, "fusion_lon": 0.0, "fusion_lat": 0.0, "is_disabled": 0, "bike_id": "d16f7b156515342532fce1cb46ae48ab", "lon": -77.01799016666666}, {"type": "electric_scooter", "rental_uris": {"android": "https://dc.lft.to/lastmile_qr_scan", "ios": "https://dc.lft.to/lastmile_qr_scan"}, "name": "fd5d59b511b4542a8daa10cf2e34850d", "lat": 38.876683666666665, "is_reserved": 0, "fusion_lon": 0.0, "fusion_lat": 0.0, "is_disabled": 0, "bike_id": "fd5d59b511b4542a8daa10cf2e34850d", "lon": -76.99602633333333}, {"type": "electric_bike", "rental_uris": {"android": "https://dc.lft.to/lastmile_qr_scan", "ios": "https://dc.lft.to/lastmile_qr_scan"}, "name": "e36438fd116bb8d8dad96db33acfbe0c", "lat": 38.80563883333333, "is_reserved": 0, "fusion_lon": 0.0, "fusion_lat": 0.0, "is_disabled": 0, "bike_id": "e36438fd116bb8d8dad96db33acfbe0c", "lon": -77.132283}, {"type": "electric_scooter", "rental_uris": {"android": "https://dc.lft.to/lastmile_qr_scan", "ios": "https://dc.lft.to/lastmile_qr_scan"}, "name": "3496a6b959cd9f191f174f8128d8896c", "lat": 38.8806545, "is_reserved": 0, "fusion_lon": 0.0, "fusion_lat": 0.0, "is_disabled": 0, "bike_id": "3496a6b959cd9f191f174f8128d8896c", "lon": -77.0255055}, {"type": "electric_bike", "rental_uris": {"android": "https://dc.lft.to/lastmile_qr_scan", "ios": "https://dc.lft.to/lastmile_qr_scan"}, "name": "8dd47edba15b9d5767d672e62f6d79d1", "lat": 38.8708225, "is_reserved": 0, "fusion_lon": 0.0, "fusion_lat": 0.0, "is_disabled": 0, "bike_id": "8dd47edba15b9d5767d672e62f6d79d1", "lon": -77.0119465}, {"type": "electric_scooter", "rental_uris": {"android": "https://dc.lft.to/lastmile_qr_scan", "ios": "https://dc.lft.to/lastmile_qr_scan"}, "name": "883d68afa72da9cf8e185b7ed21facb2", "lat": 38.91651066666667, "is_reserved": 0, "fusion_lon": 0.0, "fusion_lat": 0.0, "is_disabled": 0, "bike_id": "883d68afa72da9cf8e185b7ed21facb2", "lon": -77.0225285}, {"type": "electric_bike", "rental_uris": {"android": "https://dc.lft.to/lastmile_qr_scan", "ios": "https://dc.lft.to/lastmile_qr_scan"}, "name": "046fe93b91ae74f2cfff134c1927ded7", "lat": 38.9479825, "is_reserved": 0, "fusion_lon": 0.0, "fusion_lat": 0.0, "is_disabled": 0, "bike_id": "046fe93b91ae74f2cfff134c1927ded7", "lon": -76.942511}, {"type": "electric_scooter", "rental_uris": {"android": "https://dc.lft.to/lastmile_qr_scan", "ios": "https://dc.lft.to/lastmile_qr_scan"}, "name": "01a755ecbd4f87ebb35e5e47157fadd5", "lat": 38.89545183333333, "is_reserved": 0, "fusion_lon": 0.0, "fusion_lat": 0.0, "is_disabled": 0, "bike_id": "01a755ecbd4f87ebb35e5e47157fadd5", "lon": -76.983383}, {"type": "electric_scooter", "rental_uris": {"android": "https://dc.lft.to/lastmile_qr_scan", "ios": "https://dc.lft.to/lastmile_qr_scan"}, "name": "a6499f4ed19671c43b42caeaa8f0c115", "lat": 38.91696833333334, "is_reserved": 0, "fusion_lon": 0.0, "fusion_lat": 0.0, "is_disabled": 0, "bike_id": "a6499f4ed19671c43b42caeaa8f0c115", "lon": -77.03134516666667}, {"type": "electric_scooter", "rental_uris": {"android": "https://dc.lft.to/lastmile_qr_scan", "ios": "https://dc.lft.to/lastmile_qr_scan"}, "name": "25784a3a57510cf744a17ba3f78cbb71", "lat": 38.90771433333333, "is_reserved": 0, "fusion_lon": 0.0, "fusion_lat": 0.0, "is_disabled": 0, "bike_id": "25784a3a57510cf744a17ba3f78cbb71", "lon": -77.02452633333333}, {"type": "electric_scooter", "rental_uris": {"android": "https://dc.lft.to/lastmile_qr_scan", "ios": "https://dc.lft.to/lastmile_qr_scan"}, "name": "b8abd596a1127e2ef6f2237d8ee0b8c6", "lat": 38.899713166666665, "is_reserved": 0, "fusion_lon": 0.0, "fusion_lat": 0.0, "is_disabled": 0, "bike_id": "b8abd596a1127e2ef6f2237d8ee0b8c6", "lon": -77.03196533333333}, {"type": "electric_scooter", "rental_uris": {"android": "https://dc.lft.to/lastmile_qr_scan", "ios": "https://dc.lft.to/lastmile_qr_scan"}, "name": "876cd29008b0a275386b5547830f084e", "lat": 38.926542, "is_reserved": 0, "fusion_lon": 0.0, "fusion_lat": 0.0, "is_disabled": 0, "bike_id": "876cd29008b0a275386b5547830f084e", "lon": -77.04077133333334}, {"type": "electric_scooter", "rental_uris": {"android": "https://dc.lft.to/lastmile_qr_scan", "ios": "https://dc.lft.to/lastmile_qr_scan"}, "name": "631b27cce780f1b82f95456ff4cc8211", "lat": 38.927997166666664, "is_reserved": 0, "fusion_lon": 0.0, "fusion_lat": 0.0, "is_disabled": 0, "bike_id": "631b27cce780f1b82f95456ff4cc8211", "lon": -77.05533483333333}, {"type": "electric_scooter", "rental_uris": {"android": "https://dc.lft.to/lastmile_qr_scan", "ios": "https://dc.lft.to/lastmile_qr_scan"}, "name": "a0935c620dcf8816b0a3c4f4e1c6e025", "lat": 38.876751166666665, "is_reserved": 0, "fusion_lon": 0.0, "fusion_lat": 0.0, "is_disabled": 0, "bike_id": "a0935c620dcf8816b0a3c4f4e1c6e025", "lon": -77.019732}, {"type": "electric_bike", "rental_uris": {"android": "https://dc.lft.to/lastmile_qr_scan", "ios": "https://dc.lft.to/lastmile_qr_scan"}, "name": "4357470a165cff1de572a6718ada0341", "lat": 38.89386966666667, "is_reserved": 0, "fusion_lon": 0.0, "fusion_lat": 0.0, "is_disabled": 0, "bike_id": "4357470a165cff1de572a6718ada0341", "lon": -76.86849383333333}, {"type": "electric_scooter", "rental_uris": {"android": "https://dc.lft.to/lastmile_qr_scan", "ios": "https://dc.lft.to/lastmile_qr_scan"}, "name": "38d19a2e58800e0cb968715fbdc99248", "lat": 38.920608, "is_reserved": 0, "fusion_lon": 0.0, "fusion_lat": 0.0, "is_disabled": 0, "bike_id": "38d19a2e58800e0cb968715fbdc99248", "lon": -77.022944}, {"type": "electric_scooter", "rental_uris": {"android": "https://dc.lft.to/lastmile_qr_scan", "ios": "https://dc.lft.to/lastmile_qr_scan"}, "name": "f62cefc23be62198204082735aba2997", "lat": 38.89535033333333, "is_reserved": 0, "fusion_lon": 0.0, "fusion_lat": 0.0, "is_disabled": 0, "bike_id": "f62cefc23be62198204082735aba2997", "lon": -77.03114833333333}, {"type": "electric_scooter", "rental_uris": {"android": "https://dc.lft.to/lastmile_qr_scan", "ios": "https://dc.lft.to/lastmile_qr_scan"}, "name": "9ff4faab1d6cc88390db3ab75f8b9d35", "lat": 38.92123516666667, "is_reserved": 0, "fusion_lon": 0.0, "fusion_lat": 0.0, "is_disabled": 0, "bike_id": "9ff4faab1d6cc88390db3ab75f8b9d35", "lon": -77.02103733333334}, {"type": "electric_scooter", "rental_uris": {"android": "https://dc.lft.to/lastmile_qr_scan", "ios": "https://dc.lft.to/lastmile_qr_scan"}, "name": "a358d73cfcf07d5adbdce08cfe52a8de", "lat": 38.9225755, "is_reserved": 0, "fusion_lon": 0.0, "fusion_lat": 0.0, "is_disabled": 0, "bike_id": "a358d73cfcf07d5adbdce08cfe52a8de", "lon": -77.019532}, {"type": "electric_scooter", "rental_uris": {"android": "https://dc.lft.to/lastmile_qr_scan", "ios": "https://dc.lft.to/lastmile_qr_scan"}, "name": "7fe8a03832b465d8489ac24056ff3564", "lat": 38.90727533333333, "is_reserved": 0, "fusion_lon": 0.0, "fusion_lat": 0.0, "is_disabled": 0, "bike_id": "7fe8a03832b465d8489ac24056ff3564", "lon": -77.03179516666667}, {"type": "electric_scooter", "rental_uris": {"android": "https://dc.lft.to/lastmile_qr_scan", "ios": "https://dc.lft.to/lastmile_qr_scan"}, "name": "833c8bbf80df8a8aa681bf363adc9669", "lat": 38.9038945, "is_reserved": 0, "fusion_lon": 0.0, "fusion_lat": 0.0, "is_disabled": 0, "bike_id": "833c8bbf80df8a8aa681bf363adc9669", "lon": -76.98102416666667}, {"type": "electric_scooter", "rental_uris": {"android": "https://dc.lft.to/lastmile_qr_scan", "ios": "https://dc.lft.to/lastmile_qr_scan"}, "name": "b895663a9682c4ba790bbdbdfa03a1a4", "lat": 38.91109516666667, "is_reserved": 0, "fusion_lon": 0.0, "fusion_lat": 0.0, "is_disabled": 0, "bike_id": "b895663a9682c4ba790bbdbdfa03a1a4", "lon": -77.0445425}, {"type": "electric_scooter", "rental_uris": {"android": "https://dc.lft.to/lastmile_qr_scan", "ios": "https://dc.lft.to/lastmile_qr_scan"}, "name": "fc5d1a9bee29cdd7cc064c63b61520c3", "lat": 38.90427116666667, "is_reserved": 0, "fusion_lon": 0.0, "fusion_lat": 0.0, "is_disabled": 0, "bike_id": "fc5d1a9bee29cdd7cc064c63b61520c3", "lon": -77.02510866666667}, {"type": "electric_scooter", "rental_uris": {"android": "https://dc.lft.to/lastmile_qr_scan", "ios": "https://dc.lft.to/lastmile_qr_scan"}, "name": "5e67508cbc4df6b35a14dc3ed0004bf5", "lat": 38.9237055, "is_reserved": 0, "fusion_lon": 0.0, "fusion_lat": 0.0, "is_disabled": 0, "bike_id": "5e67508cbc4df6b35a14dc3ed0004bf5", "lon": -77.03052783333334}, {"type": "electric_scooter", "rental_uris": {"android": "https://dc.lft.to/lastmile_qr_scan", "ios": "https://dc.lft.to/lastmile_qr_scan"}, "name": "549a42368681f7869551d2bc34ac0e1a", "lat": 38.9024655, "is_reserved": 0, "fusion_lon": 0.0, "fusion_lat": 0.0, "is_disabled": 0, "bike_id": "549a42368681f7869551d2bc34ac0e1a", "lon": -77.042068}, {"type": "electric_scooter", "rental_uris": {"android": "https://dc.lft.to/lastmile_qr_scan", "ios": "https://dc.lft.to/lastmile_qr_scan"}, "name": "9f3835ef04a1e4f1199f26f4023d271a", "lat": 38.9238925, "is_reserved": 0, "fusion_lon": 0.0, "fusion_lat": 0.0, "is_disabled": 0, "bike_id": "9f3835ef04a1e4f1199f26f4023d271a", "lon": -76.99594366666666}, {"type": "electric_scooter", "rental_uris": {"android": "https://dc.lft.to/lastmile_qr_scan", "ios": "https://dc.lft.to/lastmile_qr_scan"}, "name": "a08e924027091b2ce28196f49bee092b", "lat": 38.890179333333336, "is_reserved": 0, "fusion_lon": 0.0, "fusion_lat": 0.0, "is_disabled": 0, "bike_id": "a08e924027091b2ce28196f49bee092b", "lon": -76.937194}, {"type": "electric_scooter", "rental_uris": {"android": "https://dc.lft.to/lastmile_qr_scan", "ios": "https://dc.lft.to/lastmile_qr_scan"}, "name": "6701b976d4f8689b8947c81372366921", "lat": 38.89029716666667, "is_reserved": 0, "fusion_lon": 0.0, "fusion_lat": 0.0, "is_disabled": 0, "bike_id": "6701b976d4f8689b8947c81372366921", "lon": -76.93717366666667}, {"type": "electric_scooter", "rental_uris": {"android": "https://dc.lft.to/lastmile_qr_scan", "ios": "https://dc.lft.to/lastmile_qr_scan"}, "name": "5fcc7588badc0f4d8129b898276ac757", "lat": 38.89681483333333, "is_reserved": 0, "fusion_lon": 0.0, "fusion_lat": 0.0, "is_disabled": 0, "bike_id": "5fcc7588badc0f4d8129b898276ac757", "lon": -76.93667333333333}, {"type": "electric_scooter", "rental_uris": {"android": "https://dc.lft.to/lastmile_qr_scan", "ios": "https://dc.lft.to/lastmile_qr_scan"}, "name": "6eaf7c32923ec1ccddf4d905c8f2609e", "lat": 38.892233833333336, "is_reserved": 0, "fusion_lon": 0.0, "fusion_lat": 0.0, "is_disabled": 0, "bike_id": "6eaf7c32923ec1ccddf4d905c8f2609e", "lon": -77.026317}, {"type": "electric_bike", "rental_uris": {"android": "https://dc.lft.to/lastmile_qr_scan", "ios": "https://dc.lft.to/lastmile_qr_scan"}, "name": "607d7224716bde502c05b3602a5f1d73", "lat": 38.803836833333335, "is_reserved": 0, "fusion_lon": 0.0, "fusion_lat": 0.0, "is_disabled": 0, "bike_id": "607d7224716bde502c05b3602a5f1d73", "lon": -76.98813733333333}, {"type": "electric_scooter", "rental_uris": {"android": "https://dc.lft.to/lastmile_qr_scan", "ios": "https://dc.lft.to/lastmile_qr_scan"}, "name": "ffcad272accdd12f311ceaf1cc1f9b9c", "lat": 38.90958716666667, "is_reserved": 0, "fusion_lon": 0.0, "fusion_lat": 0.0, "is_disabled": 0, "bike_id": "ffcad272accdd12f311ceaf1cc1f9b9c", "lon": -77.03303416666667}, {"type": "electric_scooter", "rental_uris": {"android": "https://dc.lft.to/lastmile_qr_scan", "ios": "https://dc.lft.to/lastmile_qr_scan"}, "name": "8bdc2ebe794b24c95cbcf38a1e4123d0", "lat": 38.8802295, "is_reserved": 0, "fusion_lon": 0.0, "fusion_lat": 0.0, "is_disabled": 0, "bike_id": "8bdc2ebe794b24c95cbcf38a1e4123d0", "lon": -76.94328283333333}, {"type": "electric_scooter", "rental_uris": {"android": "https://dc.lft.to/lastmile_qr_scan", "ios": "https://dc.lft.to/lastmile_qr_scan"}, "name": "8d572c37eb1becaf635547dc2eeedbe2", "lat": 38.866617, "is_reserved": 0, "fusion_lon": 0.0, "fusion_lat": 0.0, "is_disabled": 0, "bike_id": "8d572c37eb1becaf635547dc2eeedbe2", "lon": -76.9790885}, {"type": "electric_scooter", "rental_uris": {"android": "https://dc.lft.to/lastmile_qr_scan", "ios": "https://dc.lft.to/lastmile_qr_scan"}, "name": "c688ece481ccae8f48c68f39dfd8b540", "lat": 38.897295666666665, "is_reserved": 0, "fusion_lon": 0.0, "fusion_lat": 0.0, "is_disabled": 0, "bike_id": "c688ece481ccae8f48c68f39dfd8b540", "lon": -76.99516416666667}, {"type": "electric_scooter", "rental_uris": {"android": "https://dc.lft.to/lastmile_qr_scan", "ios": "https://dc.lft.to/lastmile_qr_scan"}, "name": "08024c120bd1115ecae951b0d16bdba1", "lat": 38.905713166666665, "is_reserved": 0, "fusion_lon": 0.0, "fusion_lat": 0.0, "is_disabled": 0, "bike_id": "08024c120bd1115ecae951b0d16bdba1", "lon": -77.0348525}, {"type": "electric_scooter", "rental_uris": {"android": "https://dc.lft.to/lastmile_qr_scan", "ios": "https://dc.lft.to/lastmile_qr_scan"}, "name": "d080526e84e14231f323ccfb79dceb79", "lat": 38.91885166666667, "is_reserved": 0, "fusion_lon": 0.0, "fusion_lat": 0.0, "is_disabled": 0, "bike_id": "d080526e84e14231f323ccfb79dceb79", "lon": -77.02765566666666}, {"type": "electric_scooter", "rental_uris": {"android": "https://dc.lft.to/lastmile_qr_scan", "ios": "https://dc.lft.to/lastmile_qr_scan"}, "name": "ceec8c6ae9fe5aef6dd9d2173921dda8", "lat": 38.92885, "is_reserved": 0, "fusion_lon": 0.0, "fusion_lat": 0.0, "is_disabled": 0, "bike_id": "ceec8c6ae9fe5aef6dd9d2173921dda8", "lon": -77.033585}, {"type": "electric_scooter", "rental_uris": {"android": "https://dc.lft.to/lastmile_qr_scan", "ios": "https://dc.lft.to/lastmile_qr_scan"}, "name": "c8010ea6301d43b199a5a6d5b866571d", "lat": 38.907776, "is_reserved": 0, "fusion_lon": 0.0, "fusion_lat": 0.0, "is_disabled": 0, "bike_id": "c8010ea6301d43b199a5a6d5b866571d", "lon": -77.037617}, {"type": "electric_bike", "rental_uris": {"android": "https://dc.lft.to/lastmile_qr_scan", "ios": "https://dc.lft.to/lastmile_qr_scan"}, "name": "d2969d5abbbabebdf942b28bbc8cd099", "lat": 38.845065, "is_reserved": 0, "fusion_lon": 0.0, "fusion_lat": 0.0, "is_disabled": 0, "bike_id": "d2969d5abbbabebdf942b28bbc8cd099", "lon": -76.99354533333333}, {"type": "electric_scooter", "rental_uris": {"android": "https://dc.lft.to/lastmile_qr_scan", "ios": "https://dc.lft.to/lastmile_qr_scan"}, "name": "f4a6c42500e3006ae8fe494256e01b9a", "lat": 38.9207005, "is_reserved": 0, "fusion_lon": 0.0, "fusion_lat": 0.0, "is_disabled": 0, "bike_id": "f4a6c42500e3006ae8fe494256e01b9a", "lon": -77.02369483333334}, {"type": "electric_scooter", "rental_uris": {"android": "https://dc.lft.to/lastmile_qr_scan", "ios": "https://dc.lft.to/lastmile_qr_scan"}, "name": "a344f83d965ebced67edf88471ffb146", "lat": 38.887100833333335, "is_reserved": 0, "fusion_lon": 0.0, "fusion_lat": 0.0, "is_disabled": 0, "bike_id": "a344f83d965ebced67edf88471ffb146", "lon": -77.02221983333334}, {"type": "electric_scooter", "rental_uris": {"android": "https://dc.lft.to/lastmile_qr_scan", "ios": "https://dc.lft.to/lastmile_qr_scan"}, "name": "592a44d9c5a93710ba6ddd0c94ef2f22", "lat": 38.900094333333335, "is_reserved": 0, "fusion_lon": 0.0, "fusion_lat": 0.0, "is_disabled": 0, "bike_id": "592a44d9c5a93710ba6ddd0c94ef2f22", "lon": -77.0113835}, {"type": "electric_scooter", "rental_uris": {"android": "https://dc.lft.to/lastmile_qr_scan", "ios": "https://dc.lft.to/lastmile_qr_scan"}, "name": "2e4acb2cf5a65ba4a631a7fdf86c92c5", "lat": 38.90837, "is_reserved": 0, "fusion_lon": 0.0, "fusion_lat": 0.0, "is_disabled": 0, "bike_id": "2e4acb2cf5a65ba4a631a7fdf86c92c5", "lon": -77.04352583333333}, {"type": "electric_scooter", "rental_uris": {"android": "https://dc.lft.to/lastmile_qr_scan", "ios": "https://dc.lft.to/lastmile_qr_scan"}, "name": "769b8c216ab818d52b59276a45a07167", "lat": 38.908372166666666, "is_reserved": 0, "fusion_lon": 0.0, "fusion_lat": 0.0, "is_disabled": 0, "bike_id": "769b8c216ab818d52b59276a45a07167", "lon": -77.00225}, {"type": "electric_scooter", "rental_uris": {"android": "https://dc.lft.to/lastmile_qr_scan", "ios": "https://dc.lft.to/lastmile_qr_scan"}, "name": "1255f4b7f5aa805c69fb6d06f55fde99", "lat": 38.91700616666667, "is_reserved": 0, "fusion_lon": 0.0, "fusion_lat": 0.0, "is_disabled": 0, "bike_id": "1255f4b7f5aa805c69fb6d06f55fde99", "lon": -77.03131633333334}, {"type": "electric_scooter", "rental_uris": {"android": "https://dc.lft.to/lastmile_qr_scan", "ios": "https://dc.lft.to/lastmile_qr_scan"}, "name": "2462086ad87870e81905f0af6cf870c2", "lat": 38.91038616666667, "is_reserved": 0, "fusion_lon": 0.0, "fusion_lat": 0.0, "is_disabled": 0, "bike_id": "2462086ad87870e81905f0af6cf870c2", "lon": -77.02203083333333}, {"type": "electric_scooter", "rental_uris": {"android": "https://dc.lft.to/lastmile_qr_scan", "ios": "https://dc.lft.to/lastmile_qr_scan"}, "name": "95f72335a9e43705715582f97d4e59f2", "lat": 38.90888566666667, "is_reserved": 0, "fusion_lon": 0.0, "fusion_lat": 0.0, "is_disabled": 0, "bike_id": "95f72335a9e43705715582f97d4e59f2", "lon": -77.04054516666666}, {"type": "electric_scooter", "rental_uris": {"android": "https://dc.lft.to/lastmile_qr_scan", "ios": "https://dc.lft.to/lastmile_qr_scan"}, "name": "e5b9989e8a432d5aee26d70c62c1ff5c", "lat": 38.897340166666666, "is_reserved": 0, "fusion_lon": 0.0, "fusion_lat": 0.0, "is_disabled": 0, "bike_id": "e5b9989e8a432d5aee26d70c62c1ff5c", "lon": -77.03005716666667}, {"type": "electric_scooter", "rental_uris": {"android": "https://dc.lft.to/lastmile_qr_scan", "ios": "https://dc.lft.to/lastmile_qr_scan"}, "name": "aae8c79b7de1085731ffb14d64f2cd28", "lat": 38.943812, "is_reserved": 0, "fusion_lon": 0.0, "fusion_lat": 0.0, "is_disabled": 0, "bike_id": "aae8c79b7de1085731ffb14d64f2cd28", "lon": -77.06038516666666}, {"type": "electric_scooter", "rental_uris": {"android": "https://dc.lft.to/lastmile_qr_scan", "ios": "https://dc.lft.to/lastmile_qr_scan"}, "name": "20e918fa0a9018960ac6f966ab487429", "lat": 38.897993, "is_reserved": 0, "fusion_lon": 0.0, "fusion_lat": 0.0, "is_disabled": 0, "bike_id": "20e918fa0a9018960ac6f966ab487429", "lon": -77.04611283333334}, {"type": "electric_scooter", "rental_uris": {"android": "https://dc.lft.to/lastmile_qr_scan", "ios": "https://dc.lft.to/lastmile_qr_scan"}, "name": "8f638a33e9b1faedb76cda32f67f9c52", "lat": 38.902536166666664, "is_reserved": 0, "fusion_lon": 0.0, "fusion_lat": 0.0, "is_disabled": 0, "bike_id": "8f638a33e9b1faedb76cda32f67f9c52", "lon": -77.04531883333334}, {"type": "electric_scooter", "rental_uris": {"android": "https://dc.lft.to/lastmile_qr_scan", "ios": "https://dc.lft.to/lastmile_qr_scan"}, "name": "b1a68b4dd2cebfc380a6aab36ebaabd3", "lat": 38.892411833333334, "is_reserved": 0, "fusion_lon": 0.0, "fusion_lat": 0.0, "is_disabled": 0, "bike_id": "b1a68b4dd2cebfc380a6aab36ebaabd3", "lon": -77.031848}, {"type": "electric_scooter", "rental_uris": {"android": "https://dc.lft.to/lastmile_qr_scan", "ios": "https://dc.lft.to/lastmile_qr_scan"}, "name": "1e02f97d195c8e184b12f255fd65440b", "lat": 38.9084885, "is_reserved": 0, "fusion_lon": 0.0, "fusion_lat": 0.0, "is_disabled": 0, "bike_id": "1e02f97d195c8e184b12f255fd65440b", "lon": -76.99965166666667}, {"type": "electric_scooter", "rental_uris": {"android": "https://dc.lft.to/lastmile_qr_scan", "ios": "https://dc.lft.to/lastmile_qr_scan"}, "name": "13fa87b1166882d352f023af796da667", "lat": 38.897950333333334, "is_reserved": 0, "fusion_lon": 0.0, "fusion_lat": 0.0, "is_disabled": 0, "bike_id": "13fa87b1166882d352f023af796da667", "lon": -77.01603683333333}, {"type": "electric_scooter", "rental_uris": {"android": "https://dc.lft.to/lastmile_qr_scan", "ios": "https://dc.lft.to/lastmile_qr_scan"}, "name": "3b328dcd5d95264806fdc6f6fa1e9076", "lat": 38.9161625, "is_reserved": 0, "fusion_lon": 0.0, "fusion_lat": 0.0, "is_disabled": 0, "bike_id": "3b328dcd5d95264806fdc6f6fa1e9076", "lon": -77.03163566666667}, {"type": "electric_scooter", "rental_uris": {"android": "https://dc.lft.to/lastmile_qr_scan", "ios": "https://dc.lft.to/lastmile_qr_scan"}, "name": "ce09d993d674aca461c92141e12f68b5", "lat": 38.906723, "is_reserved": 0, "fusion_lon": 0.0, "fusion_lat": 0.0, "is_disabled": 0, "bike_id": "ce09d993d674aca461c92141e12f68b5", "lon": -76.980289}, {"type": "electric_scooter", "rental_uris": {"android": "https://dc.lft.to/lastmile_qr_scan", "ios": "https://dc.lft.to/lastmile_qr_scan"}, "name": "7ba4f3841910a80fcc32b98a2c302141", "lat": 38.91577866666667, "is_reserved": 0, "fusion_lon": 0.0, "fusion_lat": 0.0, "is_disabled": 0, "bike_id": "7ba4f3841910a80fcc32b98a2c302141", "lon": -77.01233716666667}, {"type": "electric_scooter", "rental_uris": {"android": "https://dc.lft.to/lastmile_qr_scan", "ios": "https://dc.lft.to/lastmile_qr_scan"}, "name": "30b282897873e27126ac117103eacaad", "lat": 38.892259333333335, "is_reserved": 0, "fusion_lon": 0.0, "fusion_lat": 0.0, "is_disabled": 0, "bike_id": "30b282897873e27126ac117103eacaad", "lon": -77.03022733333333}, {"type": "electric_bike", "rental_uris": {"android": "https://dc.lft.to/lastmile_qr_scan", "ios": "https://dc.lft.to/lastmile_qr_scan"}, "name": "54c29bd192abce373a25b9356489ecba", "lat": 38.819169333333335, "is_reserved": 0, "fusion_lon": 0.0, "fusion_lat": 0.0, "is_disabled": 0, "bike_id": "54c29bd192abce373a25b9356489ecba", "lon": -77.1265845}, {"type": "electric_scooter", "rental_uris": {"android": "https://dc.lft.to/lastmile_qr_scan", "ios": "https://dc.lft.to/lastmile_qr_scan"}, "name": "e9e658e1de99167f7beabc01e04f00b7", "lat": 38.897176, "is_reserved": 0, "fusion_lon": 0.0, "fusion_lat": 0.0, "is_disabled": 0, "bike_id": "e9e658e1de99167f7beabc01e04f00b7", "lon": -77.0279585}, {"type": "electric_scooter", "rental_uris": {"android": "https://dc.lft.to/lastmile_qr_scan", "ios": "https://dc.lft.to/lastmile_qr_scan"}, "name": "73733a1aff5f8746b28bae5f4c2049c0", "lat": 38.8972785, "is_reserved": 0, "fusion_lon": 0.0, "fusion_lat": 0.0, "is_disabled": 0, "bike_id": "73733a1aff5f8746b28bae5f4c2049c0", "lon": -77.03354233333333}, {"type": "electric_scooter", "rental_uris": {"android": "https://dc.lft.to/lastmile_qr_scan", "ios": "https://dc.lft.to/lastmile_qr_scan"}, "name": "97cae03b7cfc025abd850259ac44c477", "lat": 38.913587666666665, "is_reserved": 0, "fusion_lon": 0.0, "fusion_lat": 0.0, "is_disabled": 0, "bike_id": "97cae03b7cfc025abd850259ac44c477", "lon": -77.03859933333334}, {"type": "electric_bike", "rental_uris": {"android": "https://dc.lft.to/lastmile_qr_scan", "ios": "https://dc.lft.to/lastmile_qr_scan"}, "name": "7763ff06c87e371b1785e1d93463ad4c", "lat": 38.88508783333333, "is_reserved": 0, "fusion_lon": 0.0, "fusion_lat": 0.0, "is_disabled": 0, "bike_id": "7763ff06c87e371b1785e1d93463ad4c", "lon": -76.95628383333333}, {"type": "electric_scooter", "rental_uris": {"android": "https://dc.lft.to/lastmile_qr_scan", "ios": "https://dc.lft.to/lastmile_qr_scan"}, "name": "2bb556e4e165fe386d7e3fed4a70bf7d", "lat": 38.924871333333336, "is_reserved": 0, "fusion_lon": 0.0, "fusion_lat": 0.0, "is_disabled": 0, "bike_id": "2bb556e4e165fe386d7e3fed4a70bf7d", "lon": -77.02243616666667}, {"type": "electric_scooter", "rental_uris": {"android": "https://dc.lft.to/lastmile_qr_scan", "ios": "https://dc.lft.to/lastmile_qr_scan"}, "name": "cd13dd9e8c6e98e36a4c7899b65d1377", "lat": 38.92473916666667, "is_reserved": 0, "fusion_lon": 0.0, "fusion_lat": 0.0, "is_disabled": 0, "bike_id": "cd13dd9e8c6e98e36a4c7899b65d1377", "lon": -77.02219366666667}, {"type": "electric_scooter", "rental_uris": {"android": "https://dc.lft.to/lastmile_qr_scan", "ios": "https://dc.lft.to/lastmile_qr_scan"}, "name": "0e68e4d92122f1350bdd7977b52ddffa", "lat": 38.943321166666664, "is_reserved": 0, "fusion_lon": 0.0, "fusion_lat": 0.0, "is_disabled": 0, "bike_id": "0e68e4d92122f1350bdd7977b52ddffa", "lon": -77.02686333333334}, {"type": "electric_scooter", "rental_uris": {"android": "https://dc.lft.to/lastmile_qr_scan", "ios": "https://dc.lft.to/lastmile_qr_scan"}, "name": "b3e24a116d945e7d1b26d6ad5e5a6da3", "lat": 38.906531333333334, "is_reserved": 0, "fusion_lon": 0.0, "fusion_lat": 0.0, "is_disabled": 0, "bike_id": "b3e24a116d945e7d1b26d6ad5e5a6da3", "lon": -77.00896683333333}, {"type": "electric_scooter", "rental_uris": {"android": "https://dc.lft.to/lastmile_qr_scan", "ios": "https://dc.lft.to/lastmile_qr_scan"}, "name": "e4244830944541b0fce2762466aedb00", "lat": 38.927985666666665, "is_reserved": 0, "fusion_lon": 0.0, "fusion_lat": 0.0, "is_disabled": 0, "bike_id": "e4244830944541b0fce2762466aedb00", "lon": -77.05424233333333}, {"type": "electric_scooter", "rental_uris": {"android": "https://dc.lft.to/lastmile_qr_scan", "ios": "https://dc.lft.to/lastmile_qr_scan"}, "name": "e7534cfe56b39ae13ee589502d9344d4", "lat": 38.89607133333333, "is_reserved": 0, "fusion_lon": 0.0, "fusion_lat": 0.0, "is_disabled": 0, "bike_id": "e7534cfe56b39ae13ee589502d9344d4", "lon": -77.045141}, {"type": "electric_scooter", "rental_uris": {"android": "https://dc.lft.to/lastmile_qr_scan", "ios": "https://dc.lft.to/lastmile_qr_scan"}, "name": "f8d74d6251a3388a25e2da6407250f5b", "lat": 38.922368, "is_reserved": 0, "fusion_lon": 0.0, "fusion_lat": 0.0, "is_disabled": 0, "bike_id": "f8d74d6251a3388a25e2da6407250f5b", "lon": -77.02147666666667}, {"type": "electric_scooter", "rental_uris": {"android": "https://dc.lft.to/lastmile_qr_scan", "ios": "https://dc.lft.to/lastmile_qr_scan"}, "name": "1f46e850709b5528e1be1b50dde07964", "lat": 38.92418516666667, "is_reserved": 0, "fusion_lon": 0.0, "fusion_lat": 0.0, "is_disabled": 0, "bike_id": "1f46e850709b5528e1be1b50dde07964", "lon": -77.04556066666666}, {"type": "electric_scooter", "rental_uris": {"android": "https://dc.lft.to/lastmile_qr_scan", "ios": "https://dc.lft.to/lastmile_qr_scan"}, "name": "241c202a6af2a789e830aa585e895c83", "lat": 38.92060983333333, "is_reserved": 0, "fusion_lon": 0.0, "fusion_lat": 0.0, "is_disabled": 0, "bike_id": "241c202a6af2a789e830aa585e895c83", "lon": -77.025107}, {"type": "electric_scooter", "rental_uris": {"android": "https://dc.lft.to/lastmile_qr_scan", "ios": "https://dc.lft.to/lastmile_qr_scan"}, "name": "0c45e2c06cc7f9b6c95742764ca1b383", "lat": 38.90055266666667, "is_reserved": 0, "fusion_lon": 0.0, "fusion_lat": 0.0, "is_disabled": 0, "bike_id": "0c45e2c06cc7f9b6c95742764ca1b383", "lon": -77.04698166666667}, {"type": "electric_bike", "rental_uris": {"android": "https://dc.lft.to/lastmile_qr_scan", "ios": "https://dc.lft.to/lastmile_qr_scan"}, "name": "a1a39229a215d4fa2b1843d5897af602", "lat": 38.806551166666665, "is_reserved": 0, "fusion_lon": 0.0, "fusion_lat": 0.0, "is_disabled": 0, "bike_id": "a1a39229a215d4fa2b1843d5897af602", "lon": -77.08762166666666}, {"type": "electric_scooter", "rental_uris": {"android": "https://dc.lft.to/lastmile_qr_scan", "ios": "https://dc.lft.to/lastmile_qr_scan"}, "name": "ffc8a97503de3308cb4afc6d80a9ca47", "lat": 38.90227016666667, "is_reserved": 0, "fusion_lon": 0.0, "fusion_lat": 0.0, "is_disabled": 0, "bike_id": "ffc8a97503de3308cb4afc6d80a9ca47", "lon": -77.02822383333333}, {"type": "electric_scooter", "rental_uris": {"android": "https://dc.lft.to/lastmile_qr_scan", "ios": "https://dc.lft.to/lastmile_qr_scan"}, "name": "6f85b6ee72e8c0c0dece99785b028d17", "lat": 38.93891833333333, "is_reserved": 0, "fusion_lon": 0.0, "fusion_lat": 0.0, "is_disabled": 0, "bike_id": "6f85b6ee72e8c0c0dece99785b028d17", "lon": -77.017637}, {"type": "electric_scooter", "rental_uris": {"android": "https://dc.lft.to/lastmile_qr_scan", "ios": "https://dc.lft.to/lastmile_qr_scan"}, "name": "174455aeb7f76bc94edf2d5b17fee374", "lat": 38.87731383333333, "is_reserved": 0, "fusion_lon": 0.0, "fusion_lat": 0.0, "is_disabled": 0, "bike_id": "174455aeb7f76bc94edf2d5b17fee374", "lon": -77.00591133333333}, {"type": "electric_scooter", "rental_uris": {"android": "https://dc.lft.to/lastmile_qr_scan", "ios": "https://dc.lft.to/lastmile_qr_scan"}, "name": "fb18d4a75be9398be1a59b289d41a8cf", "lat": 38.892458, "is_reserved": 0, "fusion_lon": 0.0, "fusion_lat": 0.0, "is_disabled": 0, "bike_id": "fb18d4a75be9398be1a59b289d41a8cf", "lon": -77.02003083333334}, {"type": "electric_bike", "rental_uris": {"android": "https://dc.lft.to/lastmile_qr_scan", "ios": "https://dc.lft.to/lastmile_qr_scan"}, "name": "3d361989a3310d7708d2989f585c7884", "lat": 38.94314516666667, "is_reserved": 0, "fusion_lon": 0.0, "fusion_lat": 0.0, "is_disabled": 0, "bike_id": "3d361989a3310d7708d2989f585c7884", "lon": -76.99018466666666}, {"type": "electric_scooter", "rental_uris": {"android": "https://dc.lft.to/lastmile_qr_scan", "ios": "https://dc.lft.to/lastmile_qr_scan"}, "name": "913cbe7be7c3f1de5771b74620f5ba77", "lat": 38.888183833333336, "is_reserved": 0, "fusion_lon": 0.0, "fusion_lat": 0.0, "is_disabled": 0, "bike_id": "913cbe7be7c3f1de5771b74620f5ba77", "lon": -76.9770535}, {"type": "electric_scooter", "rental_uris": {"android": "https://dc.lft.to/lastmile_qr_scan", "ios": "https://dc.lft.to/lastmile_qr_scan"}, "name": "c1423d2e61ac63dbb80fa241728d82a7", "lat": 38.912438333333334, "is_reserved": 0, "fusion_lon": 0.0, "fusion_lat": 0.0, "is_disabled": 0, "bike_id": "c1423d2e61ac63dbb80fa241728d82a7", "lon": -76.98668583333334}, {"type": "electric_scooter", "rental_uris": {"android": "https://dc.lft.to/lastmile_qr_scan", "ios": "https://dc.lft.to/lastmile_qr_scan"}, "name": "99fcb709cbafd7b3a1c09b12fbb99b77", "lat": 38.96023483333333, "is_reserved": 0, "fusion_lon": 0.0, "fusion_lat": 0.0, "is_disabled": 0, "bike_id": "99fcb709cbafd7b3a1c09b12fbb99b77", "lon": -77.0243035}, {"type": "electric_scooter", "rental_uris": {"android": "https://dc.lft.to/lastmile_qr_scan", "ios": "https://dc.lft.to/lastmile_qr_scan"}, "name": "511c63aa5be560f12bd6c48ec5664976", "lat": 38.92468216666666, "is_reserved": 0, "fusion_lon": 0.0, "fusion_lat": 0.0, "is_disabled": 0, "bike_id": "511c63aa5be560f12bd6c48ec5664976", "lon": -77.02203166666666}, {"type": "electric_scooter", "rental_uris": {"android": "https://dc.lft.to/lastmile_qr_scan", "ios": "https://dc.lft.to/lastmile_qr_scan"}, "name": "311c5554a2ef42482af4575b56ea9903", "lat": 38.900408666666664, "is_reserved": 0, "fusion_lon": 0.0, "fusion_lat": 0.0, "is_disabled": 0, "bike_id": "311c5554a2ef42482af4575b56ea9903", "lon": -77.04343216666666}, {"type": "electric_scooter", "rental_uris": {"android": "https://dc.lft.to/lastmile_qr_scan", "ios": "https://dc.lft.to/lastmile_qr_scan"}, "name": "71db68b557e304aa3b30f540c0940852", "lat": 38.9306385, "is_reserved": 0, "fusion_lon": 0.0, "fusion_lat": 0.0, "is_disabled": 0, "bike_id": "71db68b557e304aa3b30f540c0940852", "lon": -77.05574416666667}, {"type": "electric_bike", "rental_uris": {"android": "https://dc.lft.to/lastmile_qr_scan", "ios": "https://dc.lft.to/lastmile_qr_scan"}, "name": "597b591f68f3c87a1dcb181cdb8422d8", "lat": 38.84273533333333, "is_reserved": 0, "fusion_lon": 0.0, "fusion_lat": 0.0, "is_disabled": 0, "bike_id": "597b591f68f3c87a1dcb181cdb8422d8", "lon": -76.98839883333333}, {"type": "electric_scooter", "rental_uris": {"android": "https://dc.lft.to/lastmile_qr_scan", "ios": "https://dc.lft.to/lastmile_qr_scan"}, "name": "0c66969df349ab89e9b5e2cedfec324a", "lat": 38.8964575, "is_reserved": 0, "fusion_lon": 0.0, "fusion_lat": 0.0, "is_disabled": 0, "bike_id": "0c66969df349ab89e9b5e2cedfec324a", "lon": -77.02404516666667}, {"type": "electric_scooter", "rental_uris": {"android": "https://dc.lft.to/lastmile_qr_scan", "ios": "https://dc.lft.to/lastmile_qr_scan"}, "name": "bfbe932f474c5901748086ec2a51ed54", "lat": 38.926564166666665, "is_reserved": 0, "fusion_lon": 0.0, "fusion_lat": 0.0, "is_disabled": 0, "bike_id": "bfbe932f474c5901748086ec2a51ed54", "lon": -77.0372935}, {"type": "electric_scooter", "rental_uris": {"android": "https://dc.lft.to/lastmile_qr_scan", "ios": "https://dc.lft.to/lastmile_qr_scan"}, "name": "d2eb66e9dd30c29440b46e19a68a097a", "lat": 38.903665833333335, "is_reserved": 0, "fusion_lon": 0.0, "fusion_lat": 0.0, "is_disabled": 0, "bike_id": "d2eb66e9dd30c29440b46e19a68a097a", "lon": -77.035435}, {"type": "electric_scooter", "rental_uris": {"android": "https://dc.lft.to/lastmile_qr_scan", "ios": "https://dc.lft.to/lastmile_qr_scan"}, "name": "7ef75461274b6d6a5906305be7bf94e0", "lat": 38.881960666666664, "is_reserved": 0, "fusion_lon": 0.0, "fusion_lat": 0.0, "is_disabled": 0, "bike_id": "7ef75461274b6d6a5906305be7bf94e0", "lon": -77.028585}, {"type": "electric_scooter", "rental_uris": {"android": "https://dc.lft.to/lastmile_qr_scan", "ios": "https://dc.lft.to/lastmile_qr_scan"}, "name": "67d026276e685755c131bfdfa1c552a0", "lat": 38.93145483333333, "is_reserved": 0, "fusion_lon": 0.0, "fusion_lat": 0.0, "is_disabled": 0, "bike_id": "67d026276e685755c131bfdfa1c552a0", "lon": -77.05695483333334}, {"type": "electric_scooter", "rental_uris": {"android": "https://dc.lft.to/lastmile_qr_scan", "ios": "https://dc.lft.to/lastmile_qr_scan"}, "name": "e8fe68e8de3c4f82c874a77136415e2b", "lat": 38.9060525, "is_reserved": 0, "fusion_lon": 0.0, "fusion_lat": 0.0, "is_disabled": 0, "bike_id": "e8fe68e8de3c4f82c874a77136415e2b", "lon": -77.0404635}, {"type": "electric_scooter", "rental_uris": {"android": "https://dc.lft.to/lastmile_qr_scan", "ios": "https://dc.lft.to/lastmile_qr_scan"}, "name": "730906570cc675887afa6d3a4bc1ab0c", "lat": 38.90114033333333, "is_reserved": 0, "fusion_lon": 0.0, "fusion_lat": 0.0, "is_disabled": 0, "bike_id": "730906570cc675887afa6d3a4bc1ab0c", "lon": -77.03702283333334}, {"type": "electric_scooter", "rental_uris": {"android": "https://dc.lft.to/lastmile_qr_scan", "ios": "https://dc.lft.to/lastmile_qr_scan"}, "name": "9078d964ea905f6d35ace7d6134668a6", "lat": 38.90909216666667, "is_reserved": 0, "fusion_lon": 0.0, "fusion_lat": 0.0, "is_disabled": 0, "bike_id": "9078d964ea905f6d35ace7d6134668a6", "lon": -77.00286583333333}, {"type": "electric_scooter", "rental_uris": {"android": "https://dc.lft.to/lastmile_qr_scan", "ios": "https://dc.lft.to/lastmile_qr_scan"}, "name": "17f43870c9f877fc7686dc304dd027ff", "lat": 38.908953, "is_reserved": 0, "fusion_lon": 0.0, "fusion_lat": 0.0, "is_disabled": 0, "bike_id": "17f43870c9f877fc7686dc304dd027ff", "lon": -77.0438455}, {"type": "electric_scooter", "rental_uris": {"android": "https://dc.lft.to/lastmile_qr_scan", "ios": "https://dc.lft.to/lastmile_qr_scan"}, "name": "63a0b09f4944fcfa0a4eebe0fd06699c", "lat": 38.899987, "is_reserved": 0, "fusion_lon": 0.0, "fusion_lat": 0.0, "is_disabled": 0, "bike_id": "63a0b09f4944fcfa0a4eebe0fd06699c", "lon": -77.041249}, {"type": "electric_scooter", "rental_uris": {"android": "https://dc.lft.to/lastmile_qr_scan", "ios": "https://dc.lft.to/lastmile_qr_scan"}, "name": "4fdc880ad4e403337c7513a07e6cc1ba", "lat": 38.924706666666665, "is_reserved": 0, "fusion_lon": 0.0, "fusion_lat": 0.0, "is_disabled": 0, "bike_id": "4fdc880ad4e403337c7513a07e6cc1ba", "lon": -77.02202316666667}, {"type": "electric_scooter", "rental_uris": {"android": "https://dc.lft.to/lastmile_qr_scan", "ios": "https://dc.lft.to/lastmile_qr_scan"}, "name": "299988042d46418cbb768e40128da4ee", "lat": 38.90508116666667, "is_reserved": 0, "fusion_lon": 0.0, "fusion_lat": 0.0, "is_disabled": 0, "bike_id": "299988042d46418cbb768e40128da4ee", "lon": -77.0434645}, {"type": "electric_scooter", "rental_uris": {"android": "https://dc.lft.to/lastmile_qr_scan", "ios": "https://dc.lft.to/lastmile_qr_scan"}, "name": "eb53c6f0a0e93e3ac8c35140c4dc9e8c", "lat": 38.907501833333335, "is_reserved": 0, "fusion_lon": 0.0, "fusion_lat": 0.0, "is_disabled": 0, "bike_id": "eb53c6f0a0e93e3ac8c35140c4dc9e8c", "lon": -77.04158366666667}, {"type": "electric_scooter", "rental_uris": {"android": "https://dc.lft.to/lastmile_qr_scan", "ios": "https://dc.lft.to/lastmile_qr_scan"}, "name": "6c474692ff0223b82dc8ee670b528c99", "lat": 38.901313, "is_reserved": 0, "fusion_lon": 0.0, "fusion_lat": 0.0, "is_disabled": 0, "bike_id": "6c474692ff0223b82dc8ee670b528c99", "lon": -77.04439466666666}, {"type": "electric_scooter", "rental_uris": {"android": "https://dc.lft.to/lastmile_qr_scan", "ios": "https://dc.lft.to/lastmile_qr_scan"}, "name": "a33cacf0202cbe3b96dfda8f9951c719", "lat": 38.910226, "is_reserved": 0, "fusion_lon": 0.0, "fusion_lat": 0.0, "is_disabled": 0, "bike_id": "a33cacf0202cbe3b96dfda8f9951c719", "lon": -77.042815}, {"type": "electric_scooter", "rental_uris": {"android": "https://dc.lft.to/lastmile_qr_scan", "ios": "https://dc.lft.to/lastmile_qr_scan"}, "name": "ab1748501d1117a6285d1d41428888cd", "lat": 38.885196, "is_reserved": 0, "fusion_lon": 0.0, "fusion_lat": 0.0, "is_disabled": 0, "bike_id": "ab1748501d1117a6285d1d41428888cd", "lon": -76.92002183333334}, {"type": "electric_scooter", "rental_uris": {"android": "https://dc.lft.to/lastmile_qr_scan", "ios": "https://dc.lft.to/lastmile_qr_scan"}, "name": "f54a0dd152214681a19302f95f3d58c4", "lat": 38.91689366666667, "is_reserved": 0, "fusion_lon": 0.0, "fusion_lat": 0.0, "is_disabled": 0, "bike_id": "f54a0dd152214681a19302f95f3d58c4", "lon": -77.02301683333333}, {"type": "electric_scooter", "rental_uris": {"android": "https://dc.lft.to/lastmile_qr_scan", "ios": "https://dc.lft.to/lastmile_qr_scan"}, "name": "a1b12a8bf5f132e72b19acc319ffcd6c", "lat": 38.94193816666667, "is_reserved": 0, "fusion_lon": 0.0, "fusion_lat": 0.0, "is_disabled": 0, "bike_id": "a1b12a8bf5f132e72b19acc319ffcd6c", "lon": -77.03556233333333}, {"type": "electric_scooter", "rental_uris": {"android": "https://dc.lft.to/lastmile_qr_scan", "ios": "https://dc.lft.to/lastmile_qr_scan"}, "name": "ba1db6a322b68a7fb173019daedada05", "lat": 38.928762, "is_reserved": 0, "fusion_lon": 0.0, "fusion_lat": 0.0, "is_disabled": 0, "bike_id": "ba1db6a322b68a7fb173019daedada05", "lon": -77.01361916666667}, {"type": "electric_scooter", "rental_uris": {"android": "https://dc.lft.to/lastmile_qr_scan", "ios": "https://dc.lft.to/lastmile_qr_scan"}, "name": "255fa9394172810bc4dc9b8da3ae308b", "lat": 38.89235566666667, "is_reserved": 0, "fusion_lon": 0.0, "fusion_lat": 0.0, "is_disabled": 0, "bike_id": "255fa9394172810bc4dc9b8da3ae308b", "lon": -77.03183883333334}, {"type": "electric_scooter", "rental_uris": {"android": "https://dc.lft.to/lastmile_qr_scan", "ios": "https://dc.lft.to/lastmile_qr_scan"}, "name": "e9f1ea0da54303f4808e0f1d93f33e92", "lat": 38.9083435, "is_reserved": 0, "fusion_lon": 0.0, "fusion_lat": 0.0, "is_disabled": 0, "bike_id": "e9f1ea0da54303f4808e0f1d93f33e92", "lon": -77.03845016666666}, {"type": "electric_scooter", "rental_uris": {"android": "https://dc.lft.to/lastmile_qr_scan", "ios": "https://dc.lft.to/lastmile_qr_scan"}, "name": "f2419e87f4980b5a8408b3fed9b1d637", "lat": 38.905069166666664, "is_reserved": 0, "fusion_lon": 0.0, "fusion_lat": 0.0, "is_disabled": 0, "bike_id": "f2419e87f4980b5a8408b3fed9b1d637", "lon": -77.04351583333333}, {"type": "electric_scooter", "rental_uris": {"android": "https://dc.lft.to/lastmile_qr_scan", "ios": "https://dc.lft.to/lastmile_qr_scan"}, "name": "bbe4b335670a687087821b7d40c5c8aa", "lat": 38.88442383333334, "is_reserved": 0, "fusion_lon": 0.0, "fusion_lat": 0.0, "is_disabled": 0, "bike_id": "bbe4b335670a687087821b7d40c5c8aa", "lon": -76.95770583333334}, {"type": "electric_scooter", "rental_uris": {"android": "https://dc.lft.to/lastmile_qr_scan", "ios": "https://dc.lft.to/lastmile_qr_scan"}, "name": "33c1a94b7a07a9c5476790d10b7973de", "lat": 38.91816466666667, "is_reserved": 0, "fusion_lon": 0.0, "fusion_lat": 0.0, "is_disabled": 0, "bike_id": "33c1a94b7a07a9c5476790d10b7973de", "lon": -77.02476916666667}, {"type": "electric_scooter", "rental_uris": {"android": "https://dc.lft.to/lastmile_qr_scan", "ios": "https://dc.lft.to/lastmile_qr_scan"}, "name": "b44931838ed3805974727222a451302f", "lat": 38.896161, "is_reserved": 0, "fusion_lon": 0.0, "fusion_lat": 0.0, "is_disabled": 0, "bike_id": "b44931838ed3805974727222a451302f", "lon": -77.04076316666666}, {"type": "electric_scooter", "rental_uris": {"android": "https://dc.lft.to/lastmile_qr_scan", "ios": "https://dc.lft.to/lastmile_qr_scan"}, "name": "76602edb42012781c7d192aa60cf7fcf", "lat": 38.89224983333333, "is_reserved": 0, "fusion_lon": 0.0, "fusion_lat": 0.0, "is_disabled": 0, "bike_id": "76602edb42012781c7d192aa60cf7fcf", "lon": -77.025642}, {"type": "electric_scooter", "rental_uris": {"android": "https://dc.lft.to/lastmile_qr_scan", "ios": "https://dc.lft.to/lastmile_qr_scan"}, "name": "36f1dd2ecd14b9a6ea26a0d64458a80c", "lat": 38.929252166666664, "is_reserved": 0, "fusion_lon": 0.0, "fusion_lat": 0.0, "is_disabled": 0, "bike_id": "36f1dd2ecd14b9a6ea26a0d64458a80c", "lon": -77.0328215}, {"type": "electric_scooter", "rental_uris": {"android": "https://dc.lft.to/lastmile_qr_scan", "ios": "https://dc.lft.to/lastmile_qr_scan"}, "name": "2423a02c04cf3dc3e7b15d67042c82a0", "lat": 38.901426666666666, "is_reserved": 0, "fusion_lon": 0.0, "fusion_lat": 0.0, "is_disabled": 0, "bike_id": "2423a02c04cf3dc3e7b15d67042c82a0", "lon": -77.03905883333333}, {"type": "electric_scooter", "rental_uris": {"android": "https://dc.lft.to/lastmile_qr_scan", "ios": "https://dc.lft.to/lastmile_qr_scan"}, "name": "497d6dd6c4a1630067f02a2695fe2f29", "lat": 38.907290833333334, "is_reserved": 0, "fusion_lon": 0.0, "fusion_lat": 0.0, "is_disabled": 0, "bike_id": "497d6dd6c4a1630067f02a2695fe2f29", "lon": -77.039439}, {"type": "electric_scooter", "rental_uris": {"android": "https://dc.lft.to/lastmile_qr_scan", "ios": "https://dc.lft.to/lastmile_qr_scan"}, "name": "36a4429e8d7d50a0a84ef04fc4157dff", "lat": 38.961213, "is_reserved": 0, "fusion_lon": 0.0, "fusion_lat": 0.0, "is_disabled": 0, "bike_id": "36a4429e8d7d50a0a84ef04fc4157dff", "lon": -77.02798233333333}, {"type": "electric_scooter", "rental_uris": {"android": "https://dc.lft.to/lastmile_qr_scan", "ios": "https://dc.lft.to/lastmile_qr_scan"}, "name": "d7e0836e466bf05344bcefeeec099e16", "lat": 38.90729183333333, "is_reserved": 0, "fusion_lon": 0.0, "fusion_lat": 0.0, "is_disabled": 0, "bike_id": "d7e0836e466bf05344bcefeeec099e16", "lon": -77.05017533333333}, {"type": "electric_scooter", "rental_uris": {"android": "https://dc.lft.to/lastmile_qr_scan", "ios": "https://dc.lft.to/lastmile_qr_scan"}, "name": "8196160b5bcc47c58a1aaa00fe7f6dff", "lat": 38.889847, "is_reserved": 0, "fusion_lon": 0.0, "fusion_lat": 0.0, "is_disabled": 0, "bike_id": "8196160b5bcc47c58a1aaa00fe7f6dff", "lon": -77.003168}, {"type": "electric_scooter", "rental_uris": {"android": "https://dc.lft.to/lastmile_qr_scan", "ios": "https://dc.lft.to/lastmile_qr_scan"}, "name": "77358f83beb7f64519ade03d4f4fa550", "lat": 38.89897883333333, "is_reserved": 0, "fusion_lon": 0.0, "fusion_lat": 0.0, "is_disabled": 0, "bike_id": "77358f83beb7f64519ade03d4f4fa550", "lon": -76.97601133333333}, {"type": "electric_scooter", "rental_uris": {"android": "https://dc.lft.to/lastmile_qr_scan", "ios": "https://dc.lft.to/lastmile_qr_scan"}, "name": "4cba6a824323a3b8edf5b7af3e8dbbc1", "lat": 38.928960333333336, "is_reserved": 0, "fusion_lon": 0.0, "fusion_lat": 0.0, "is_disabled": 0, "bike_id": "4cba6a824323a3b8edf5b7af3e8dbbc1", "lon": -77.032812}, {"type": "electric_scooter", "rental_uris": {"android": "https://dc.lft.to/lastmile_qr_scan", "ios": "https://dc.lft.to/lastmile_qr_scan"}, "name": "0b078efa97f8fa2928d5dacde5a61386", "lat": 38.86525283333334, "is_reserved": 0, "fusion_lon": 0.0, "fusion_lat": 0.0, "is_disabled": 0, "bike_id": "0b078efa97f8fa2928d5dacde5a61386", "lon": -76.96906016666667}, {"type": "electric_scooter", "rental_uris": {"android": "https://dc.lft.to/lastmile_qr_scan", "ios": "https://dc.lft.to/lastmile_qr_scan"}, "name": "0a205fa070d951fb7d9e12259a16de7d", "lat": 38.90394633333333, "is_reserved": 0, "fusion_lon": 0.0, "fusion_lat": 0.0, "is_disabled": 0, "bike_id": "0a205fa070d951fb7d9e12259a16de7d", "lon": -77.03429733333333}, {"type": "electric_scooter", "rental_uris": {"android": "https://dc.lft.to/lastmile_qr_scan", "ios": "https://dc.lft.to/lastmile_qr_scan"}, "name": "cd75139d9e83f2ceae3d138f921c2c6f", "lat": 38.888357166666665, "is_reserved": 0, "fusion_lon": 0.0, "fusion_lat": 0.0, "is_disabled": 0, "bike_id": "cd75139d9e83f2ceae3d138f921c2c6f", "lon": -76.98691566666666}, {"type": "electric_scooter", "rental_uris": {"android": "https://dc.lft.to/lastmile_qr_scan", "ios": "https://dc.lft.to/lastmile_qr_scan"}, "name": "5408793dbb7b9bcb664455f0e9e72ec4", "lat": 38.890477833333335, "is_reserved": 0, "fusion_lon": 0.0, "fusion_lat": 0.0, "is_disabled": 0, "bike_id": "5408793dbb7b9bcb664455f0e9e72ec4", "lon": -76.93756966666666}, {"type": "electric_scooter", "rental_uris": {"android": "https://dc.lft.to/lastmile_qr_scan", "ios": "https://dc.lft.to/lastmile_qr_scan"}, "name": "769311d288410df9acc6ae2661ea0b63", "lat": 38.920260999999996, "is_reserved": 0, "fusion_lon": 0.0, "fusion_lat": 0.0, "is_disabled": 0, "bike_id": "769311d288410df9acc6ae2661ea0b63", "lon": -77.02808183333333}, {"type": "electric_scooter", "rental_uris": {"android": "https://dc.lft.to/lastmile_qr_scan", "ios": "https://dc.lft.to/lastmile_qr_scan"}, "name": "4f4c1db6d556d5181a7df1fd9045ae25", "lat": 38.8988825, "is_reserved": 0, "fusion_lon": 0.0, "fusion_lat": 0.0, "is_disabled": 0, "bike_id": "4f4c1db6d556d5181a7df1fd9045ae25", "lon": -77.0332295}, {"type": "electric_scooter", "rental_uris": {"android": "https://dc.lft.to/lastmile_qr_scan", "ios": "https://dc.lft.to/lastmile_qr_scan"}, "name": "df026ddb013937533dd586009641b76a", "lat": 38.928599, "is_reserved": 0, "fusion_lon": 0.0, "fusion_lat": 0.0, "is_disabled": 0, "bike_id": "df026ddb013937533dd586009641b76a", "lon": -77.03193416666667}, {"type": "electric_scooter", "rental_uris": {"android": "https://dc.lft.to/lastmile_qr_scan", "ios": "https://dc.lft.to/lastmile_qr_scan"}, "name": "2b762529baf28670d5101c1d4d999b49", "lat": 38.919763333333336, "is_reserved": 0, "fusion_lon": 0.0, "fusion_lat": 0.0, "is_disabled": 0, "bike_id": "2b762529baf28670d5101c1d4d999b49", "lon": -77.0217505}, {"type": "electric_scooter", "rental_uris": {"android": "https://dc.lft.to/lastmile_qr_scan", "ios": "https://dc.lft.to/lastmile_qr_scan"}, "name": "d1a60373bfcbee69083b40764c6cb3d0", "lat": 38.926583666666666, "is_reserved": 0, "fusion_lon": 0.0, "fusion_lat": 0.0, "is_disabled": 0, "bike_id": "d1a60373bfcbee69083b40764c6cb3d0", "lon": -77.03731483333334}, {"type": "electric_scooter", "rental_uris": {"android": "https://dc.lft.to/lastmile_qr_scan", "ios": "https://dc.lft.to/lastmile_qr_scan"}, "name": "65f70d1c4ca74eaf12a0725e54fe0dce", "lat": 38.917009666666665, "is_reserved": 0, "fusion_lon": 0.0, "fusion_lat": 0.0, "is_disabled": 0, "bike_id": "65f70d1c4ca74eaf12a0725e54fe0dce", "lon": -77.04340766666667}, {"type": "electric_scooter", "rental_uris": {"android": "https://dc.lft.to/lastmile_qr_scan", "ios": "https://dc.lft.to/lastmile_qr_scan"}, "name": "0c0bee368604fd3035f84fd4748f64a1", "lat": 38.8839525, "is_reserved": 0, "fusion_lon": 0.0, "fusion_lat": 0.0, "is_disabled": 0, "bike_id": "0c0bee368604fd3035f84fd4748f64a1", "lon": -76.988398}, {"type": "electric_scooter", "rental_uris": {"android": "https://dc.lft.to/lastmile_qr_scan", "ios": "https://dc.lft.to/lastmile_qr_scan"}, "name": "947f3c03f37f07f280b6a0ee852c59d0", "lat": 38.910092666666664, "is_reserved": 0, "fusion_lon": 0.0, "fusion_lat": 0.0, "is_disabled": 0, "bike_id": "947f3c03f37f07f280b6a0ee852c59d0", "lon": -76.993992}, {"type": "electric_scooter", "rental_uris": {"android": "https://dc.lft.to/lastmile_qr_scan", "ios": "https://dc.lft.to/lastmile_qr_scan"}, "name": "90b44efc34e54ca7749ef4555326e2c1", "lat": 38.90510233333333, "is_reserved": 0, "fusion_lon": 0.0, "fusion_lat": 0.0, "is_disabled": 0, "bike_id": "90b44efc34e54ca7749ef4555326e2c1", "lon": -77.044909}, {"type": "electric_bike", "rental_uris": {"android": "https://dc.lft.to/lastmile_qr_scan", "ios": "https://dc.lft.to/lastmile_qr_scan"}, "name": "5dfdade37d271340283bd96152fe5fa8", "lat": 38.90330183333333, "is_reserved": 0, "fusion_lon": 0.0, "fusion_lat": 0.0, "is_disabled": 0, "bike_id": "5dfdade37d271340283bd96152fe5fa8", "lon": -76.97532016666666}, {"type": "electric_scooter", "rental_uris": {"android": "https://dc.lft.to/lastmile_qr_scan", "ios": "https://dc.lft.to/lastmile_qr_scan"}, "name": "df5473e22e117233db1d2d32cdb3b8f4", "lat": 38.9165065, "is_reserved": 0, "fusion_lon": 0.0, "fusion_lat": 0.0, "is_disabled": 0, "bike_id": "df5473e22e117233db1d2d32cdb3b8f4", "lon": -77.03658916666667}, {"type": "electric_scooter", "rental_uris": {"android": "https://dc.lft.to/lastmile_qr_scan", "ios": "https://dc.lft.to/lastmile_qr_scan"}, "name": "52512411cef7e5703f0cb7c21b471460", "lat": 38.90077316666667, "is_reserved": 0, "fusion_lon": 0.0, "fusion_lat": 0.0, "is_disabled": 0, "bike_id": "52512411cef7e5703f0cb7c21b471460", "lon": -77.02189366666667}, {"type": "electric_scooter", "rental_uris": {"android": "https://dc.lft.to/lastmile_qr_scan", "ios": "https://dc.lft.to/lastmile_qr_scan"}, "name": "53178095a0f61a9a1ac203efd218a91c", "lat": 38.90014716666667, "is_reserved": 0, "fusion_lon": 0.0, "fusion_lat": 0.0, "is_disabled": 0, "bike_id": "53178095a0f61a9a1ac203efd218a91c", "lon": -77.01183166666667}, {"type": "electric_scooter", "rental_uris": {"android": "https://dc.lft.to/lastmile_qr_scan", "ios": "https://dc.lft.to/lastmile_qr_scan"}, "name": "205f567d42b158dda2e44ce4f6fba2f8", "lat": 38.903852666666666, "is_reserved": 0, "fusion_lon": 0.0, "fusion_lat": 0.0, "is_disabled": 0, "bike_id": "205f567d42b158dda2e44ce4f6fba2f8", "lon": -77.03441816666667}, {"type": "electric_scooter", "rental_uris": {"android": "https://dc.lft.to/lastmile_qr_scan", "ios": "https://dc.lft.to/lastmile_qr_scan"}, "name": "2f9b18d67eb9c6f91eaa2a1242423f73", "lat": 38.9036465, "is_reserved": 0, "fusion_lon": 0.0, "fusion_lat": 0.0, "is_disabled": 0, "bike_id": "2f9b18d67eb9c6f91eaa2a1242423f73", "lon": -77.04499433333334}, {"type": "electric_scooter", "rental_uris": {"android": "https://dc.lft.to/lastmile_qr_scan", "ios": "https://dc.lft.to/lastmile_qr_scan"}, "name": "79e5af0919005831fcdc9e6dbae3d828", "lat": 38.909583833333336, "is_reserved": 0, "fusion_lon": 0.0, "fusion_lat": 0.0, "is_disabled": 0, "bike_id": "79e5af0919005831fcdc9e6dbae3d828", "lon": -77.0321715}, {"type": "electric_scooter", "rental_uris": {"android": "https://dc.lft.to/lastmile_qr_scan", "ios": "https://dc.lft.to/lastmile_qr_scan"}, "name": "f881c34caebbe9c3fde9818d66ed6914", "lat": 38.910208, "is_reserved": 0, "fusion_lon": 0.0, "fusion_lat": 0.0, "is_disabled": 0, "bike_id": "f881c34caebbe9c3fde9818d66ed6914", "lon": -76.993737}, {"type": "electric_scooter", "rental_uris": {"android": "https://dc.lft.to/lastmile_qr_scan", "ios": "https://dc.lft.to/lastmile_qr_scan"}, "name": "4f3a573152697797a57eb4f0417e690e", "lat": 38.9168985, "is_reserved": 0, "fusion_lon": 0.0, "fusion_lat": 0.0, "is_disabled": 0, "bike_id": "4f3a573152697797a57eb4f0417e690e", "lon": -77.03832016666667}, {"type": "electric_scooter", "rental_uris": {"android": "https://dc.lft.to/lastmile_qr_scan", "ios": "https://dc.lft.to/lastmile_qr_scan"}, "name": "909e20c25c71cad86eaba289417dfdb1", "lat": 38.90622666666667, "is_reserved": 0, "fusion_lon": 0.0, "fusion_lat": 0.0, "is_disabled": 0, "bike_id": "909e20c25c71cad86eaba289417dfdb1", "lon": -76.99328716666666}, {"type": "electric_scooter", "rental_uris": {"android": "https://dc.lft.to/lastmile_qr_scan", "ios": "https://dc.lft.to/lastmile_qr_scan"}, "name": "9d11ade2e778e13936a1ebe0c4ac133e", "lat": 38.902739333333336, "is_reserved": 0, "fusion_lon": 0.0, "fusion_lat": 0.0, "is_disabled": 0, "bike_id": "9d11ade2e778e13936a1ebe0c4ac133e", "lon": -77.05810833333334}, {"type": "electric_scooter", "rental_uris": {"android": "https://dc.lft.to/lastmile_qr_scan", "ios": "https://dc.lft.to/lastmile_qr_scan"}, "name": "9e4df1a7cf704893717509e09a7e274d", "lat": 38.92061783333333, "is_reserved": 0, "fusion_lon": 0.0, "fusion_lat": 0.0, "is_disabled": 0, "bike_id": "9e4df1a7cf704893717509e09a7e274d", "lon": -77.02293766666666}, {"type": "electric_scooter", "rental_uris": {"android": "https://dc.lft.to/lastmile_qr_scan", "ios": "https://dc.lft.to/lastmile_qr_scan"}, "name": "ab47f5ec2b8ae9de08d67c6a641f6fe7", "lat": 38.975184666666664, "is_reserved": 0, "fusion_lon": 0.0, "fusion_lat": 0.0, "is_disabled": 0, "bike_id": "ab47f5ec2b8ae9de08d67c6a641f6fe7", "lon": -77.01732933333334}, {"type": "electric_scooter", "rental_uris": {"android": "https://dc.lft.to/lastmile_qr_scan", "ios": "https://dc.lft.to/lastmile_qr_scan"}, "name": "63601e3ec5e484cb6cb5cedc55f9e60c", "lat": 38.88374183333333, "is_reserved": 0, "fusion_lon": 0.0, "fusion_lat": 0.0, "is_disabled": 0, "bike_id": "63601e3ec5e484cb6cb5cedc55f9e60c", "lon": -76.99521983333334}, {"type": "electric_scooter", "rental_uris": {"android": "https://dc.lft.to/lastmile_qr_scan", "ios": "https://dc.lft.to/lastmile_qr_scan"}, "name": "e06a54a7c5e17939c141438d06c5f23f", "lat": 38.87526183333333, "is_reserved": 0, "fusion_lon": 0.0, "fusion_lat": 0.0, "is_disabled": 0, "bike_id": "e06a54a7c5e17939c141438d06c5f23f", "lon": -77.012267}, {"type": "electric_scooter", "rental_uris": {"android": "https://dc.lft.to/lastmile_qr_scan", "ios": "https://dc.lft.to/lastmile_qr_scan"}, "name": "eb1b18e55d76299556a45f2b08e7a18c", "lat": 38.924155, "is_reserved": 0, "fusion_lon": 0.0, "fusion_lat": 0.0, "is_disabled": 0, "bike_id": "eb1b18e55d76299556a45f2b08e7a18c", "lon": -77.02002733333333}, {"type": "electric_scooter", "rental_uris": {"android": "https://dc.lft.to/lastmile_qr_scan", "ios": "https://dc.lft.to/lastmile_qr_scan"}, "name": "8974e88259fd8796ef8c16497e6c02a2", "lat": 38.90424316666667, "is_reserved": 0, "fusion_lon": 0.0, "fusion_lat": 0.0, "is_disabled": 0, "bike_id": "8974e88259fd8796ef8c16497e6c02a2", "lon": -77.02593066666667}, {"type": "electric_scooter", "rental_uris": {"android": "https://dc.lft.to/lastmile_qr_scan", "ios": "https://dc.lft.to/lastmile_qr_scan"}, "name": "ec0130632a1baf6558883f8d424de9ab", "lat": 38.9225065, "is_reserved": 0, "fusion_lon": 0.0, "fusion_lat": 0.0, "is_disabled": 0, "bike_id": "ec0130632a1baf6558883f8d424de9ab", "lon": -77.030428}, {"type": "electric_scooter", "rental_uris": {"android": "https://dc.lft.to/lastmile_qr_scan", "ios": "https://dc.lft.to/lastmile_qr_scan"}, "name": "7a0c77a34c927e78f1fa6155888331eb", "lat": 38.88074966666667, "is_reserved": 0, "fusion_lon": 0.0, "fusion_lat": 0.0, "is_disabled": 0, "bike_id": "7a0c77a34c927e78f1fa6155888331eb", "lon": -76.99164333333333}, {"type": "electric_scooter", "rental_uris": {"android": "https://dc.lft.to/lastmile_qr_scan", "ios": "https://dc.lft.to/lastmile_qr_scan"}, "name": "0af630083ea46479fe9c1c0cfb879a4a", "lat": 38.864764, "is_reserved": 0, "fusion_lon": 0.0, "fusion_lat": 0.0, "is_disabled": 0, "bike_id": "0af630083ea46479fe9c1c0cfb879a4a", "lon": -76.98236033333333}, {"type": "electric_scooter", "rental_uris": {"android": "https://dc.lft.to/lastmile_qr_scan", "ios": "https://dc.lft.to/lastmile_qr_scan"}, "name": "c682ef14813c7e5cded00dc695edeafa", "lat": 38.86508516666667, "is_reserved": 0, "fusion_lon": 0.0, "fusion_lat": 0.0, "is_disabled": 0, "bike_id": "c682ef14813c7e5cded00dc695edeafa", "lon": -76.9690055}, {"type": "electric_scooter", "rental_uris": {"android": "https://dc.lft.to/lastmile_qr_scan", "ios": "https://dc.lft.to/lastmile_qr_scan"}, "name": "4989d188e5a9060513d105312d3d11f0", "lat": 38.931906833333336, "is_reserved": 0, "fusion_lon": 0.0, "fusion_lat": 0.0, "is_disabled": 0, "bike_id": "4989d188e5a9060513d105312d3d11f0", "lon": -77.02831883333333}, {"type": "electric_scooter", "rental_uris": {"android": "https://dc.lft.to/lastmile_qr_scan", "ios": "https://dc.lft.to/lastmile_qr_scan"}, "name": "aaa22bf5cef7327bf6b1d860d49a9204", "lat": 38.92857816666667, "is_reserved": 0, "fusion_lon": 0.0, "fusion_lat": 0.0, "is_disabled": 0, "bike_id": "aaa22bf5cef7327bf6b1d860d49a9204", "lon": -77.05425216666667}, {"type": "electric_scooter", "rental_uris": {"android": "https://dc.lft.to/lastmile_qr_scan", "ios": "https://dc.lft.to/lastmile_qr_scan"}, "name": "6eb157b73da5a57ef18abfcd543f51de", "lat": 38.89830416666667, "is_reserved": 0, "fusion_lon": 0.0, "fusion_lat": 0.0, "is_disabled": 0, "bike_id": "6eb157b73da5a57ef18abfcd543f51de", "lon": -77.02828766666667}, {"type": "electric_scooter", "rental_uris": {"android": "https://dc.lft.to/lastmile_qr_scan", "ios": "https://dc.lft.to/lastmile_qr_scan"}, "name": "049a22b14ae23d5331400042fcdaf884", "lat": 38.92603016666666, "is_reserved": 0, "fusion_lon": 0.0, "fusion_lat": 0.0, "is_disabled": 0, "bike_id": "049a22b14ae23d5331400042fcdaf884", "lon": -77.02492466666666}, {"type": "electric_scooter", "rental_uris": {"android": "https://dc.lft.to/lastmile_qr_scan", "ios": "https://dc.lft.to/lastmile_qr_scan"}, "name": "ee99bb9d01a38572d90acb90192416c8", "lat": 38.8755955, "is_reserved": 0, "fusion_lon": 0.0, "fusion_lat": 0.0, "is_disabled": 0, "bike_id": "ee99bb9d01a38572d90acb90192416c8", "lon": -77.0059455}, {"type": "electric_scooter", "rental_uris": {"android": "https://dc.lft.to/lastmile_qr_scan", "ios": "https://dc.lft.to/lastmile_qr_scan"}, "name": "894af147a36d0dc13ab09be683eff096", "lat": 38.857069, "is_reserved": 0, "fusion_lon": 0.0, "fusion_lat": 0.0, "is_disabled": 0, "bike_id": "894af147a36d0dc13ab09be683eff096", "lon": -76.9813245}, {"type": "electric_scooter", "rental_uris": {"android": "https://dc.lft.to/lastmile_qr_scan", "ios": "https://dc.lft.to/lastmile_qr_scan"}, "name": "2f77201918b8cf1b623b4d21e86a2e59", "lat": 38.918814166666664, "is_reserved": 0, "fusion_lon": 0.0, "fusion_lat": 0.0, "is_disabled": 0, "bike_id": "2f77201918b8cf1b623b4d21e86a2e59", "lon": -77.0189425}, {"type": "electric_scooter", "rental_uris": {"android": "https://dc.lft.to/lastmile_qr_scan", "ios": "https://dc.lft.to/lastmile_qr_scan"}, "name": "57b7d9e9a8345a09f158f575262da047", "lat": 38.901687, "is_reserved": 0, "fusion_lon": 0.0, "fusion_lat": 0.0, "is_disabled": 0, "bike_id": "57b7d9e9a8345a09f158f575262da047", "lon": -76.98073116666667}, {"type": "electric_bike", "rental_uris": {"android": "https://dc.lft.to/lastmile_qr_scan", "ios": "https://dc.lft.to/lastmile_qr_scan"}, "name": "e927eeb6f8b7db0bdc919d7524079be6", "lat": 38.83586016666667, "is_reserved": 0, "fusion_lon": 0.0, "fusion_lat": 0.0, "is_disabled": 0, "bike_id": "e927eeb6f8b7db0bdc919d7524079be6", "lon": -76.99030933333333}, {"type": "electric_scooter", "rental_uris": {"android": "https://dc.lft.to/lastmile_qr_scan", "ios": "https://dc.lft.to/lastmile_qr_scan"}, "name": "fc4d295a881301eb8f298163a00efc28", "lat": 38.9612245, "is_reserved": 0, "fusion_lon": 0.0, "fusion_lat": 0.0, "is_disabled": 0, "bike_id": "fc4d295a881301eb8f298163a00efc28", "lon": -77.02793733333333}, {"type": "electric_scooter", "rental_uris": {"android": "https://dc.lft.to/lastmile_qr_scan", "ios": "https://dc.lft.to/lastmile_qr_scan"}, "name": "960408566e2cc062be8ed227a5b560fb", "lat": 38.8899075, "is_reserved": 0, "fusion_lon": 0.0, "fusion_lat": 0.0, "is_disabled": 0, "bike_id": "960408566e2cc062be8ed227a5b560fb", "lon": -77.00316}, {"type": "electric_scooter", "rental_uris": {"android": "https://dc.lft.to/lastmile_qr_scan", "ios": "https://dc.lft.to/lastmile_qr_scan"}, "name": "2d469243c771bf689adec0368921add5", "lat": 38.930607, "is_reserved": 0, "fusion_lon": 0.0, "fusion_lat": 0.0, "is_disabled": 0, "bike_id": "2d469243c771bf689adec0368921add5", "lon": -77.02788016666666}, {"type": "electric_scooter", "rental_uris": {"android": "https://dc.lft.to/lastmile_qr_scan", "ios": "https://dc.lft.to/lastmile_qr_scan"}, "name": "3bf97e50df1c1049ca00981975ac4bae", "lat": 38.895319, "is_reserved": 0, "fusion_lon": 0.0, "fusion_lat": 0.0, "is_disabled": 0, "bike_id": "3bf97e50df1c1049ca00981975ac4bae", "lon": -77.03351016666667}, {"type": "electric_scooter", "rental_uris": {"android": "https://dc.lft.to/lastmile_qr_scan", "ios": "https://dc.lft.to/lastmile_qr_scan"}, "name": "156531f39e200da27a3f9696df694526", "lat": 38.92154416666666, "is_reserved": 0, "fusion_lon": 0.0, "fusion_lat": 0.0, "is_disabled": 0, "bike_id": "156531f39e200da27a3f9696df694526", "lon": -77.03533083333333}, {"type": "electric_scooter", "rental_uris": {"android": "https://dc.lft.to/lastmile_qr_scan", "ios": "https://dc.lft.to/lastmile_qr_scan"}, "name": "d04f694179d02ec4ad63c09ab488758e", "lat": 38.91635016666667, "is_reserved": 0, "fusion_lon": 0.0, "fusion_lat": 0.0, "is_disabled": 0, "bike_id": "d04f694179d02ec4ad63c09ab488758e", "lon": -77.04600916666666}, {"type": "electric_scooter", "rental_uris": {"android": "https://dc.lft.to/lastmile_qr_scan", "ios": "https://dc.lft.to/lastmile_qr_scan"}, "name": "044d60740c17fd429039a6076c7cbb6b", "lat": 38.89099516666667, "is_reserved": 0, "fusion_lon": 0.0, "fusion_lat": 0.0, "is_disabled": 0, "bike_id": "044d60740c17fd429039a6076c7cbb6b", "lon": -77.0020985}, {"type": "electric_scooter", "rental_uris": {"android": "https://dc.lft.to/lastmile_qr_scan", "ios": "https://dc.lft.to/lastmile_qr_scan"}, "name": "033b36231cebf9aacd5ec2ee78a7e6b1", "lat": 38.92426583333334, "is_reserved": 0, "fusion_lon": 0.0, "fusion_lat": 0.0, "is_disabled": 0, "bike_id": "033b36231cebf9aacd5ec2ee78a7e6b1", "lon": -77.036314}, {"type": "electric_scooter", "rental_uris": {"android": "https://dc.lft.to/lastmile_qr_scan", "ios": "https://dc.lft.to/lastmile_qr_scan"}, "name": "d09a871011dabcc097aa234b88cf007c", "lat": 38.893647666666666, "is_reserved": 0, "fusion_lon": 0.0, "fusion_lat": 0.0, "is_disabled": 0, "bike_id": "d09a871011dabcc097aa234b88cf007c", "lon": -77.00329583333334}, {"type": "electric_scooter", "rental_uris": {"android": "https://dc.lft.to/lastmile_qr_scan", "ios": "https://dc.lft.to/lastmile_qr_scan"}, "name": "abbd85a03fa3618b1f8d26012d498cfa", "lat": 38.9033505, "is_reserved": 0, "fusion_lon": 0.0, "fusion_lat": 0.0, "is_disabled": 0, "bike_id": "abbd85a03fa3618b1f8d26012d498cfa", "lon": -76.97612516666666}, {"type": "electric_bike", "rental_uris": {"android": "https://dc.lft.to/lastmile_qr_scan", "ios": "https://dc.lft.to/lastmile_qr_scan"}, "name": "ddc3b1d9d759f5f50b7b2325b981f2c5", "lat": 38.838331, "is_reserved": 0, "fusion_lon": 0.0, "fusion_lat": 0.0, "is_disabled": 0, "bike_id": "ddc3b1d9d759f5f50b7b2325b981f2c5", "lon": -77.07913966666666}, {"type": "electric_scooter", "rental_uris": {"android": "https://dc.lft.to/lastmile_qr_scan", "ios": "https://dc.lft.to/lastmile_qr_scan"}, "name": "dc13a16be554b99c434ee22b1a4558c1", "lat": 38.95538166666667, "is_reserved": 0, "fusion_lon": 0.0, "fusion_lat": 0.0, "is_disabled": 0, "bike_id": "dc13a16be554b99c434ee22b1a4558c1", "lon": -76.99570583333333}, {"type": "electric_scooter", "rental_uris": {"android": "https://dc.lft.to/lastmile_qr_scan", "ios": "https://dc.lft.to/lastmile_qr_scan"}, "name": "47809efd45af706635644193d7371409", "lat": 38.924195833333336, "is_reserved": 0, "fusion_lon": 0.0, "fusion_lat": 0.0, "is_disabled": 0, "bike_id": "47809efd45af706635644193d7371409", "lon": -77.01952733333333}, {"type": "electric_scooter", "rental_uris": {"android": "https://dc.lft.to/lastmile_qr_scan", "ios": "https://dc.lft.to/lastmile_qr_scan"}, "name": "aef7d46b68534b55d5b84135b78d2b15", "lat": 38.92340983333333, "is_reserved": 0, "fusion_lon": 0.0, "fusion_lat": 0.0, "is_disabled": 0, "bike_id": "aef7d46b68534b55d5b84135b78d2b15", "lon": -77.05083966666666}, {"type": "electric_bike", "rental_uris": {"android": "https://dc.lft.to/lastmile_qr_scan", "ios": "https://dc.lft.to/lastmile_qr_scan"}, "name": "201309627bd6400b55cfdc88f55011a9", "lat": 38.91895316666667, "is_reserved": 0, "fusion_lon": 0.0, "fusion_lat": 0.0, "is_disabled": 0, "bike_id": "201309627bd6400b55cfdc88f55011a9", "lon": -77.101728}, {"type": "electric_scooter", "rental_uris": {"android": "https://dc.lft.to/lastmile_qr_scan", "ios": "https://dc.lft.to/lastmile_qr_scan"}, "name": "8afe182098291a6b79ae1404b31ee25e", "lat": 38.900474, "is_reserved": 0, "fusion_lon": 0.0, "fusion_lat": 0.0, "is_disabled": 0, "bike_id": "8afe182098291a6b79ae1404b31ee25e", "lon": -77.04342183333333}, {"type": "electric_scooter", "rental_uris": {"android": "https://dc.lft.to/lastmile_qr_scan", "ios": "https://dc.lft.to/lastmile_qr_scan"}, "name": "52e92b497ff28c6498af739855692f1e", "lat": 38.915369, "is_reserved": 0, "fusion_lon": 0.0, "fusion_lat": 0.0, "is_disabled": 0, "bike_id": "52e92b497ff28c6498af739855692f1e", "lon": -77.031933}, {"type": "electric_bike", "rental_uris": {"android": "https://dc.lft.to/lastmile_qr_scan", "ios": "https://dc.lft.to/lastmile_qr_scan"}, "name": "fd664eacfb40ffeb7ebcc8bf9e3ab357", "lat": 38.94151083333333, "is_reserved": 0, "fusion_lon": 0.0, "fusion_lat": 0.0, "is_disabled": 0, "bike_id": "fd664eacfb40ffeb7ebcc8bf9e3ab357", "lon": -77.002006}, {"type": "electric_scooter", "rental_uris": {"android": "https://dc.lft.to/lastmile_qr_scan", "ios": "https://dc.lft.to/lastmile_qr_scan"}, "name": "05a7f2d9bb9022dc88806c6df18cde58", "lat": 38.8923755, "is_reserved": 0, "fusion_lon": 0.0, "fusion_lat": 0.0, "is_disabled": 0, "bike_id": "05a7f2d9bb9022dc88806c6df18cde58", "lon": -77.03213083333333}, {"type": "electric_bike", "rental_uris": {"android": "https://dc.lft.to/lastmile_qr_scan", "ios": "https://dc.lft.to/lastmile_qr_scan"}, "name": "0dcfaae3be00347de3c3e0ebcd3a41ab", "lat": 38.89654133333333, "is_reserved": 0, "fusion_lon": 0.0, "fusion_lat": 0.0, "is_disabled": 0, "bike_id": "0dcfaae3be00347de3c3e0ebcd3a41ab", "lon": -77.1331265}, {"type": "electric_bike", "rental_uris": {"android": "https://dc.lft.to/lastmile_qr_scan", "ios": "https://dc.lft.to/lastmile_qr_scan"}, "name": "ec2594baaa2166fddaf4528a94a93792", "lat": 38.9262225, "is_reserved": 0, "fusion_lon": 0.0, "fusion_lat": 0.0, "is_disabled": 0, "bike_id": "ec2594baaa2166fddaf4528a94a93792", "lon": -77.00588816666667}, {"type": "electric_scooter", "rental_uris": {"android": "https://dc.lft.to/lastmile_qr_scan", "ios": "https://dc.lft.to/lastmile_qr_scan"}, "name": "679f5a699bb1b265cff75d0c1655c979", "lat": 38.91550383333333, "is_reserved": 0, "fusion_lon": 0.0, "fusion_lat": 0.0, "is_disabled": 0, "bike_id": "679f5a699bb1b265cff75d0c1655c979", "lon": -77.036627}, {"type": "electric_scooter", "rental_uris": {"android": "https://dc.lft.to/lastmile_qr_scan", "ios": "https://dc.lft.to/lastmile_qr_scan"}, "name": "1407700d0b486a2fe6526a95f220c629", "lat": 38.95631, "is_reserved": 0, "fusion_lon": 0.0, "fusion_lat": 0.0, "is_disabled": 0, "bike_id": "1407700d0b486a2fe6526a95f220c629", "lon": -77.0295225}, {"type": "electric_bike", "rental_uris": {"android": "https://dc.lft.to/lastmile_qr_scan", "ios": "https://dc.lft.to/lastmile_qr_scan"}, "name": "6c2ab89af3012f0e51a3aa43f9663c3e", "lat": 38.94923, "is_reserved": 0, "fusion_lon": 0.0, "fusion_lat": 0.0, "is_disabled": 0, "bike_id": "6c2ab89af3012f0e51a3aa43f9663c3e", "lon": -76.95919866666667}, {"type": "electric_scooter", "rental_uris": {"android": "https://dc.lft.to/lastmile_qr_scan", "ios": "https://dc.lft.to/lastmile_qr_scan"}, "name": "e3ecc60f04f98f09f77d69108f21ffd1", "lat": 38.88072716666667, "is_reserved": 0, "fusion_lon": 0.0, "fusion_lat": 0.0, "is_disabled": 0, "bike_id": "e3ecc60f04f98f09f77d69108f21ffd1", "lon": -77.03721633333333}, {"type": "electric_scooter", "rental_uris": {"android": "https://dc.lft.to/lastmile_qr_scan", "ios": "https://dc.lft.to/lastmile_qr_scan"}, "name": "fefd31f558757a62901487deb804717a", "lat": 38.915921166666664, "is_reserved": 0, "fusion_lon": 0.0, "fusion_lat": 0.0, "is_disabled": 0, "bike_id": "fefd31f558757a62901487deb804717a", "lon": -77.03175233333333}, {"type": "electric_scooter", "rental_uris": {"android": "https://dc.lft.to/lastmile_qr_scan", "ios": "https://dc.lft.to/lastmile_qr_scan"}, "name": "656c2749cf246f316de6ec6ce9c79f19", "lat": 38.893672333333335, "is_reserved": 0, "fusion_lon": 0.0, "fusion_lat": 0.0, "is_disabled": 0, "bike_id": "656c2749cf246f316de6ec6ce9c79f19", "lon": -76.98463183333334}, {"type": "electric_scooter", "rental_uris": {"android": "https://dc.lft.to/lastmile_qr_scan", "ios": "https://dc.lft.to/lastmile_qr_scan"}, "name": "e48bfe45298054ed7e4811a0dd33327d", "lat": 38.873135833333336, "is_reserved": 0, "fusion_lon": 0.0, "fusion_lat": 0.0, "is_disabled": 0, "bike_id": "e48bfe45298054ed7e4811a0dd33327d", "lon": -77.01388883333334}, {"type": "electric_scooter", "rental_uris": {"android": "https://dc.lft.to/lastmile_qr_scan", "ios": "https://dc.lft.to/lastmile_qr_scan"}, "name": "443ac3c630fb0a52cfc0097a98691786", "lat": 38.902733833333336, "is_reserved": 0, "fusion_lon": 0.0, "fusion_lat": 0.0, "is_disabled": 0, "bike_id": "443ac3c630fb0a52cfc0097a98691786", "lon": -77.03066066666666}, {"type": "electric_scooter", "rental_uris": {"android": "https://dc.lft.to/lastmile_qr_scan", "ios": "https://dc.lft.to/lastmile_qr_scan"}, "name": "840be7f41227c2c5167efda07a1e2e43", "lat": 38.89616133333333, "is_reserved": 0, "fusion_lon": 0.0, "fusion_lat": 0.0, "is_disabled": 0, "bike_id": "840be7f41227c2c5167efda07a1e2e43", "lon": -76.9297405}, {"type": "electric_scooter", "rental_uris": {"android": "https://dc.lft.to/lastmile_qr_scan", "ios": "https://dc.lft.to/lastmile_qr_scan"}, "name": "bd1eaf03d28d474b962a79ff5cd31abb", "lat": 38.90536816666667, "is_reserved": 0, "fusion_lon": 0.0, "fusion_lat": 0.0, "is_disabled": 0, "bike_id": "bd1eaf03d28d474b962a79ff5cd31abb", "lon": -77.05907416666666}, {"type": "electric_scooter", "rental_uris": {"android": "https://dc.lft.to/lastmile_qr_scan", "ios": "https://dc.lft.to/lastmile_qr_scan"}, "name": "d6c6a303c2e9b661e2f51e2d7d27581e", "lat": 38.929353666666664, "is_reserved": 0, "fusion_lon": 0.0, "fusion_lat": 0.0, "is_disabled": 0, "bike_id": "d6c6a303c2e9b661e2f51e2d7d27581e", "lon": -77.03277633333333}, {"type": "electric_scooter", "rental_uris": {"android": "https://dc.lft.to/lastmile_qr_scan", "ios": "https://dc.lft.to/lastmile_qr_scan"}, "name": "cdd3a18a803ff567f2f72247dc1ff9e3", "lat": 38.92241466666667, "is_reserved": 0, "fusion_lon": 0.0, "fusion_lat": 0.0, "is_disabled": 0, "bike_id": "cdd3a18a803ff567f2f72247dc1ff9e3", "lon": -77.03664516666667}, {"type": "electric_scooter", "rental_uris": {"android": "https://dc.lft.to/lastmile_qr_scan", "ios": "https://dc.lft.to/lastmile_qr_scan"}, "name": "212c4395bda39e93a7cee12a32c14612", "lat": 38.885017500000004, "is_reserved": 0, "fusion_lon": 0.0, "fusion_lat": 0.0, "is_disabled": 0, "bike_id": "212c4395bda39e93a7cee12a32c14612", "lon": -77.02179816666667}, {"type": "electric_scooter", "rental_uris": {"android": "https://dc.lft.to/lastmile_qr_scan", "ios": "https://dc.lft.to/lastmile_qr_scan"}, "name": "4cec9d68472535b0374c32fc752c9815", "lat": 38.89941066666667, "is_reserved": 0, "fusion_lon": 0.0, "fusion_lat": 0.0, "is_disabled": 0, "bike_id": "4cec9d68472535b0374c32fc752c9815", "lon": -77.0392465}, {"type": "electric_scooter", "rental_uris": {"android": "https://dc.lft.to/lastmile_qr_scan", "ios": "https://dc.lft.to/lastmile_qr_scan"}, "name": "d8277be093ec4e9868dd49035e88e96c", "lat": 38.9416645, "is_reserved": 0, "fusion_lon": 0.0, "fusion_lat": 0.0, "is_disabled": 0, "bike_id": "d8277be093ec4e9868dd49035e88e96c", "lon": -77.025601}, {"type": "electric_scooter", "rental_uris": {"android": "https://dc.lft.to/lastmile_qr_scan", "ios": "https://dc.lft.to/lastmile_qr_scan"}, "name": "fc01e121aa1fb98f2e3ff4c4b5857639", "lat": 38.898567, "is_reserved": 0, "fusion_lon": 0.0, "fusion_lat": 0.0, "is_disabled": 0, "bike_id": "fc01e121aa1fb98f2e3ff4c4b5857639", "lon": -77.04333916666667}, {"type": "electric_scooter", "rental_uris": {"android": "https://dc.lft.to/lastmile_qr_scan", "ios": "https://dc.lft.to/lastmile_qr_scan"}, "name": "e2bb4e83205481ffec25831411f15852", "lat": 38.920649, "is_reserved": 0, "fusion_lon": 0.0, "fusion_lat": 0.0, "is_disabled": 0, "bike_id": "e2bb4e83205481ffec25831411f15852", "lon": -77.03466733333333}, {"type": "electric_scooter", "rental_uris": {"android": "https://dc.lft.to/lastmile_qr_scan", "ios": "https://dc.lft.to/lastmile_qr_scan"}, "name": "6db8a7bc765529cd01f010bad5e10610", "lat": 38.9072485, "is_reserved": 0, "fusion_lon": 0.0, "fusion_lat": 0.0, "is_disabled": 0, "bike_id": "6db8a7bc765529cd01f010bad5e10610", "lon": -77.02560116666666}, {"type": "electric_scooter", "rental_uris": {"android": "https://dc.lft.to/lastmile_qr_scan", "ios": "https://dc.lft.to/lastmile_qr_scan"}, "name": "cd986b413ad3291e3b6fef398613e151", "lat": 38.9461845, "is_reserved": 0, "fusion_lon": 0.0, "fusion_lat": 0.0, "is_disabled": 0, "bike_id": "cd986b413ad3291e3b6fef398613e151", "lon": -77.0802615}, {"type": "electric_bike", "rental_uris": {"android": "https://dc.lft.to/lastmile_qr_scan", "ios": "https://dc.lft.to/lastmile_qr_scan"}, "name": "42a44b8f74dc8516cd3939d394c433a6", "lat": 38.90891633333333, "is_reserved": 0, "fusion_lon": 0.0, "fusion_lat": 0.0, "is_disabled": 0, "bike_id": "42a44b8f74dc8516cd3939d394c433a6", "lon": -77.06904816666666}, {"type": "electric_scooter", "rental_uris": {"android": "https://dc.lft.to/lastmile_qr_scan", "ios": "https://dc.lft.to/lastmile_qr_scan"}, "name": "c25c8b989705eecdaa5097228e4efdc2", "lat": 38.92582016666667, "is_reserved": 0, "fusion_lon": 0.0, "fusion_lat": 0.0, "is_disabled": 0, "bike_id": "c25c8b989705eecdaa5097228e4efdc2", "lon": -77.037376}, {"type": "electric_scooter", "rental_uris": {"android": "https://dc.lft.to/lastmile_qr_scan", "ios": "https://dc.lft.to/lastmile_qr_scan"}, "name": "f26f04b8161dacefd88501c9ddf279b4", "lat": 38.903364333333336, "is_reserved": 0, "fusion_lon": 0.0, "fusion_lat": 0.0, "is_disabled": 0, "bike_id": "f26f04b8161dacefd88501c9ddf279b4", "lon": -77.0385275}, {"type": "electric_scooter", "rental_uris": {"android": "https://dc.lft.to/lastmile_qr_scan", "ios": "https://dc.lft.to/lastmile_qr_scan"}, "name": "8453a0e8ec80e2857ecfd46876f99d41", "lat": 38.942464333333334, "is_reserved": 0, "fusion_lon": 0.0, "fusion_lat": 0.0, "is_disabled": 0, "bike_id": "8453a0e8ec80e2857ecfd46876f99d41", "lon": -77.02175116666666}, {"type": "electric_scooter", "rental_uris": {"android": "https://dc.lft.to/lastmile_qr_scan", "ios": "https://dc.lft.to/lastmile_qr_scan"}, "name": "b0d88382a580fd39e48a12839270a481", "lat": 38.9058585, "is_reserved": 0, "fusion_lon": 0.0, "fusion_lat": 0.0, "is_disabled": 0, "bike_id": "b0d88382a580fd39e48a12839270a481", "lon": -77.0424275}, {"type": "electric_scooter", "rental_uris": {"android": "https://dc.lft.to/lastmile_qr_scan", "ios": "https://dc.lft.to/lastmile_qr_scan"}, "name": "0cb99381a2097bceb336d17b2b1be05b", "lat": 38.94978966666667, "is_reserved": 0, "fusion_lon": 0.0, "fusion_lat": 0.0, "is_disabled": 0, "bike_id": "0cb99381a2097bceb336d17b2b1be05b", "lon": -77.02020966666667}, {"type": "electric_scooter", "rental_uris": {"android": "https://dc.lft.to/lastmile_qr_scan", "ios": "https://dc.lft.to/lastmile_qr_scan"}, "name": "0ee2d4c1de6ce7434a2c2b7fbe98e763", "lat": 38.923609166666665, "is_reserved": 0, "fusion_lon": 0.0, "fusion_lat": 0.0, "is_disabled": 0, "bike_id": "0ee2d4c1de6ce7434a2c2b7fbe98e763", "lon": -77.01914416666666}, {"type": "electric_scooter", "rental_uris": {"android": "https://dc.lft.to/lastmile_qr_scan", "ios": "https://dc.lft.to/lastmile_qr_scan"}, "name": "96467c3f0af2f8a823c6fb79c729bd48", "lat": 38.90354133333334, "is_reserved": 0, "fusion_lon": 0.0, "fusion_lat": 0.0, "is_disabled": 0, "bike_id": "96467c3f0af2f8a823c6fb79c729bd48", "lon": -77.02596116666666}, {"type": "electric_scooter", "rental_uris": {"android": "https://dc.lft.to/lastmile_qr_scan", "ios": "https://dc.lft.to/lastmile_qr_scan"}, "name": "8e7679cf42bdde5b6f11b1571f502604", "lat": 38.9342545, "is_reserved": 0, "fusion_lon": 0.0, "fusion_lat": 0.0, "is_disabled": 0, "bike_id": "8e7679cf42bdde5b6f11b1571f502604", "lon": -77.04001533333333}, {"type": "electric_scooter", "rental_uris": {"android": "https://dc.lft.to/lastmile_qr_scan", "ios": "https://dc.lft.to/lastmile_qr_scan"}, "name": "133302d76c385fb93e8051b9e359e2d5", "lat": 38.91047783333333, "is_reserved": 0, "fusion_lon": 0.0, "fusion_lat": 0.0, "is_disabled": 0, "bike_id": "133302d76c385fb93e8051b9e359e2d5", "lon": -77.010915}, {"type": "electric_scooter", "rental_uris": {"android": "https://dc.lft.to/lastmile_qr_scan", "ios": "https://dc.lft.to/lastmile_qr_scan"}, "name": "e072989d96d67b2e22db3123496ac597", "lat": 38.926016833333335, "is_reserved": 0, "fusion_lon": 0.0, "fusion_lat": 0.0, "is_disabled": 0, "bike_id": "e072989d96d67b2e22db3123496ac597", "lon": -77.02156833333333}, {"type": "electric_scooter", "rental_uris": {"android": "https://dc.lft.to/lastmile_qr_scan", "ios": "https://dc.lft.to/lastmile_qr_scan"}, "name": "73e0a5db7f8d6ee7cd5c7de114e7de47", "lat": 38.934579166666666, "is_reserved": 0, "fusion_lon": 0.0, "fusion_lat": 0.0, "is_disabled": 0, "bike_id": "73e0a5db7f8d6ee7cd5c7de114e7de47", "lon": -77.05810483333333}, {"type": "electric_bike", "rental_uris": {"android": "https://dc.lft.to/lastmile_qr_scan", "ios": "https://dc.lft.to/lastmile_qr_scan"}, "name": "7bb7a4b5073d333d4892b5dee8d31075", "lat": 38.95087916666667, "is_reserved": 0, "fusion_lon": 0.0, "fusion_lat": 0.0, "is_disabled": 0, "bike_id": "7bb7a4b5073d333d4892b5dee8d31075", "lon": -76.9979255}, {"type": "electric_scooter", "rental_uris": {"android": "https://dc.lft.to/lastmile_qr_scan", "ios": "https://dc.lft.to/lastmile_qr_scan"}, "name": "feb0672ab7fafc444cbc2aebeeacca0e", "lat": 38.9097245, "is_reserved": 0, "fusion_lon": 0.0, "fusion_lat": 0.0, "is_disabled": 0, "bike_id": "feb0672ab7fafc444cbc2aebeeacca0e", "lon": -77.03226183333334}, {"type": "electric_scooter", "rental_uris": {"android": "https://dc.lft.to/lastmile_qr_scan", "ios": "https://dc.lft.to/lastmile_qr_scan"}, "name": "d0146b7d5923b8aac436b4699d4dd8b5", "lat": 38.903464166666666, "is_reserved": 0, "fusion_lon": 0.0, "fusion_lat": 0.0, "is_disabled": 0, "bike_id": "d0146b7d5923b8aac436b4699d4dd8b5", "lon": -77.03231016666666}, {"type": "electric_scooter", "rental_uris": {"android": "https://dc.lft.to/lastmile_qr_scan", "ios": "https://dc.lft.to/lastmile_qr_scan"}, "name": "71fed1c26ee81b262f7d8308cc5120e4", "lat": 38.893651, "is_reserved": 0, "fusion_lon": 0.0, "fusion_lat": 0.0, "is_disabled": 0, "bike_id": "71fed1c26ee81b262f7d8308cc5120e4", "lon": -77.00072866666666}, {"type": "electric_scooter", "rental_uris": {"android": "https://dc.lft.to/lastmile_qr_scan", "ios": "https://dc.lft.to/lastmile_qr_scan"}, "name": "a5bd4330efcee0a9d40e78f40d7cbed1", "lat": 38.905101333333334, "is_reserved": 0, "fusion_lon": 0.0, "fusion_lat": 0.0, "is_disabled": 0, "bike_id": "a5bd4330efcee0a9d40e78f40d7cbed1", "lon": -76.9848685}, {"type": "electric_scooter", "rental_uris": {"android": "https://dc.lft.to/lastmile_qr_scan", "ios": "https://dc.lft.to/lastmile_qr_scan"}, "name": "a9483b54323d5ef9204ec280a27a9704", "lat": 38.8957685, "is_reserved": 0, "fusion_lon": 0.0, "fusion_lat": 0.0, "is_disabled": 0, "bike_id": "a9483b54323d5ef9204ec280a27a9704", "lon": -77.04137633333333}, {"type": "electric_scooter", "rental_uris": {"android": "https://dc.lft.to/lastmile_qr_scan", "ios": "https://dc.lft.to/lastmile_qr_scan"}, "name": "60629cc3bc7339e8ce02c4ddbce2d504", "lat": 38.898246666666665, "is_reserved": 0, "fusion_lon": 0.0, "fusion_lat": 0.0, "is_disabled": 0, "bike_id": "60629cc3bc7339e8ce02c4ddbce2d504", "lon": -77.04114933333334}, {"type": "electric_scooter", "rental_uris": {"android": "https://dc.lft.to/lastmile_qr_scan", "ios": "https://dc.lft.to/lastmile_qr_scan"}, "name": "ad737993dd65637aa962e3cec5da628e", "lat": 38.914171333333336, "is_reserved": 0, "fusion_lon": 0.0, "fusion_lat": 0.0, "is_disabled": 0, "bike_id": "ad737993dd65637aa962e3cec5da628e", "lon": -77.03168216666667}, {"type": "electric_scooter", "rental_uris": {"android": "https://dc.lft.to/lastmile_qr_scan", "ios": "https://dc.lft.to/lastmile_qr_scan"}, "name": "8a2e1dee283600aacae36787e923fcdf", "lat": 38.91738333333333, "is_reserved": 0, "fusion_lon": 0.0, "fusion_lat": 0.0, "is_disabled": 0, "bike_id": "8a2e1dee283600aacae36787e923fcdf", "lon": -77.02117483333333}, {"type": "electric_scooter", "rental_uris": {"android": "https://dc.lft.to/lastmile_qr_scan", "ios": "https://dc.lft.to/lastmile_qr_scan"}, "name": "bd40cc58a9898d29891d7f2421d9e3ca", "lat": 38.89968283333333, "is_reserved": 0, "fusion_lon": 0.0, "fusion_lat": 0.0, "is_disabled": 0, "bike_id": "bd40cc58a9898d29891d7f2421d9e3ca", "lon": -77.04844366666667},