{"data": {"bikes": [{"fusion_lon": 0.0, "name": "008805729c3c990541dcc67bf48abf7d", "rental_uris": {"android": "https://dc.lft.to/lastmile_qr_scan", "ios": "https://dc.lft.to/lastmile_qr_scan"}, "lat": 38.94262283333333, "bike_id": "008805729c3c990541dcc67bf48abf7d", "is_disabled": 0, "lon": -77.02842033333333, "is_reserved": 0, "fusion_lat": 0.0, "type": "electric_scooter"}, {"fusion_lon": 0.0, "name": "327ca01130a8ad7acbde353e0b34b74a", "rental_uris": {"android": "https://dc.lft.to/lastmile_qr_scan", "ios": "https://dc.lft.to/lastmile_qr_scan"}, "lat": 39.094347166666665, "bike_id": "327ca01130a8ad7acbde353e0b34b74a", "is_disabled": 0, "lon": -77.1345975, "is_reserved": 0, "fusion_lat": 0.0, "type": "electric_bike"}, {"fusion_lon": 0.0, "name": "6bcf37671aa08feec04d8f7e23672805", "rental_uris": {"android": "https://dc.lft.to/lastmile_qr_scan", "ios": "https://dc.lft.to/lastmile_qr_scan"}, "lat": 38.916889833333336, "bike_id": "6bcf37671aa08feec04d8f7e23672805", "is_disabled": 0, "lon": -77.03828116666666, "is_reserved": 0, "fusion_lat": 0.0, "type": "electric_scooter"}, {"fusion_lon": 0.0, "name": "a68aad5f36a61504b79b8fa2ceba1d03", "rental_uris": {"android": "https://dc.lft.to/lastmile_qr_scan", "ios": "https://dc.lft.to/lastmile_qr_scan"}, "lat": 38.88388783333333, "bike_id": "a68aad5f36a61504b79b8fa2ceba1d03", "is_disabled": 0, "lon": -76.98560183333333, "is_reserved": 0, "fusion_lat": 0.0, "type": "electric_scooter"}, {"fusion_lon": 0.0, "name": "752a4d266b50e4973e40d2195dd1263c", "rental_uris": {"android": "https://dc.lft.to/lastmile_qr_scan", "ios": "https://dc.lft.to/lastmile_qr_scan"}, "lat": 38.91908866666667, "bike_id": "752a4d266b50e4973e40d2195dd1263c", "is_disabled": 0, "lon": -77.013626, "is_reserved": 0, "fusion_lat": 0.0, "type": "electric_scooter"}, {"fusion_lon": 0.0, "name": "1ee1770c85ef7faa095d868f90cfe45c", "rental_uris": {"android": "https://dc.lft.to/lastmile_qr_scan", "ios": "https://dc.lft.to/lastmile_qr_scan"}, "lat": 38.93635116666667, "bike_id": "1ee1770c85ef7faa095d868f90cfe45c", "is_disabled": 0, "lon": -77.060057, "is_reserved": 0, "fusion_lat": 0.0, "type": "electric_scooter"}, {"fusion_lon": 0.0, "name": "9ec38ae8838bb6d77d381d182664bd38", "rental_uris": {"android": "https://dc.lft.to/lastmile_qr_scan", "ios": "https://dc.lft.to/lastmile_qr_scan"}, "lat": 38.9237865, "bike_id": "9ec38ae8838bb6d77d381d182664bd38", "is_disabled": 0, "lon": -77.021265, "is_reserved": 0, "fusion_lat": 0.0, "type": "electric_scooter"}, {"fusion_lon": 0.0, "name": "9fde472bf5c3d19413051c994fe2a634", "rental_uris": {"android": "https://dc.lft.to/lastmile_qr_scan", "ios": "https://dc.lft.to/lastmile_qr_scan"}, "lat": 38.9007535, "bike_id": "9fde472bf5c3d19413051c994fe2a634", "is_disabled": 0, "lon": -77.01315383333333, "is_reserved": 0, "fusion_lat": 0.0, "type": "electric_scooter"}, {"fusion_lon": 0.0, "name": "19350f94f139e8495d5631428d702a64", "rental_uris": {"android": "https://dc.lft.to/lastmile_qr_scan", "ios": "https://dc.lft.to/lastmile_qr_scan"}, "lat": 38.91271033333334, "bike_id": "19350f94f139e8495d5631428d702a64", "is_disabled": 0, "lon": -77.0221045, "is_reserved": 0, "fusion_lat": 0.0, "type": "electric_scooter"}, {"fusion_lon": 0.0, "name": "1caba118e91fa0f83ae21ffefb77c454", "rental_uris": {"android": "https://dc.lft.to/lastmile_qr_scan", "ios": "https://dc.lft.to/lastmile_qr_scan"}, "lat": 38.895029666666666, "bike_id": "1caba118e91fa0f83ae21ffefb77c454", "is_disabled": 0, "lon": -77.021895, "is_reserved": 0, "fusion_lat": 0.0, "type": "electric_scooter"}, {"fusion_lon": 0.0, "name": "36181a46e98d685fe908be5b2a2f8b2e", "rental_uris": {"android": "https://dc.lft.to/lastmile_qr_scan", "ios": "https://dc.lft.to/lastmile_qr_scan"}, "lat": 38.89870333333333, "bike_id": "36181a46e98d685fe908be5b2a2f8b2e", "is_disabled": 0, "lon": -77.03282916666667, "is_reserved": 0, "fusion_lat": 0.0, "type": "electric_scooter"}, {"fusion_lon": 0.0, "name": "7010b59e99545d8466bcac7b9263c079", "rental_uris": {"android": "https://dc.lft.to/lastmile_qr_scan", "ios": "https://dc.lft.to/lastmile_qr_scan"}, "lat": 38.900139833333334, "bike_id": "7010b59e99545d8466bcac7b9263c079", "is_disabled": 0, "lon": -77.021741, "is_reserved": 0, "fusion_lat": 0.0, "type": "electric_scooter"}, {"fusion_lon": 0.0, "name": "4bc47d0ce53ee322d0bc2384251e461e", "rental_uris": {"android": "https://dc.lft.to/lastmile_qr_scan", "ios": "https://dc.lft.to/lastmile_qr_scan"}, "lat": 38.89707383333333, "bike_id": "4bc47d0ce53ee322d0bc2384251e461e", "is_disabled": 0, "lon": -76.99117216666667, "is_reserved": 0, "fusion_lat": 0.0, "type": "electric_scooter"}, {"fusion_lon": 0.0, "name": "f6b6c0352e4abf4514ded9d198bd9ee5", "rental_uris": {"android": "https://dc.lft.to/lastmile_qr_scan", "ios": "https://dc.lft.to/lastmile_qr_scan"}, "lat": 38.90677866666667, "bike_id": "f6b6c0352e4abf4514ded9d198bd9ee5", "is_disabled": 0, "lon": -77.0268975, "is_reserved": 0, "fusion_lat": 0.0, "type": "electric_scooter"}, {"fusion_lon": 0.0, "name": "e88698b55e055c208f49101fe1fb739f", "rental_uris": {"android": "https://dc.lft.to/lastmile_qr_scan", "ios": "https://dc.lft.to/lastmile_qr_scan"}, "lat": 38.90241066666667, "bike_id": "e88698b55e055c208f49101fe1fb739f", "is_disabled": 0, "lon": -77.00197666666666, "is_reserved": 0, "fusion_lat": 0.0, "type": "electric_scooter"}, {"fusion_lon": 0.0, "name": "9d4c7b693dfe7542d1d8c8029b3c2705", "rental_uris": {"android": "https://dc.lft.to/lastmile_qr_scan", "ios": "https://dc.lft.to/lastmile_qr_scan"}, "lat": 38.9013325, "bike_id": "9d4c7b693dfe7542d1d8c8029b3c2705", "is_disabled": 0, "lon": -77.03050866666666, "is_reserved": 0, "fusion_lat": 0.0, "type": "electric_scooter"}, {"fusion_lon": 0.0, "name": "bbacfdf14f2fa488b41ca9d662a36898", "rental_uris": {"android": "https://dc.lft.to/lastmile_qr_scan", "ios": "https://dc.lft.to/lastmile_qr_scan"}, "lat": 38.90165366666667, "bike_id": "bbacfdf14f2fa488b41ca9d662a36898", "is_disabled": 0, "lon": -77.02186733333333, "is_reserved": 0, "fusion_lat": 0.0, "type": "electric_scooter"}, {"fusion_lon": 0.0, "name": "c3906a087dbf4b15520785ac549815d7", "rental_uris": {"android": "https://dc.lft.to/lastmile_qr_scan", "ios": "https://dc.lft.to/lastmile_qr_scan"}, "lat": 38.87172833333333, "bike_id": "c3906a087dbf4b15520785ac549815d7", "is_disabled": 0, "lon": -77.00625933333333, "is_reserved": 0, "fusion_lat": 0.0, "type": "electric_scooter"}, {"fusion_lon": 0.0, "name": "e8bf216b6cd52961aa12259b06b6d32d", "rental_uris": {"android": "https://dc.lft.to/lastmile_qr_scan", "ios": "https://dc.lft.to/lastmile_qr_scan"}, "lat": 38.90047633333333, "bike_id": "e8bf216b6cd52961aa12259b06b6d32d", "is_disabled": 0, "lon": -76.9855025, "is_reserved": 0, "fusion_lat": 0.0, "type": "electric_scooter"}, {"fusion_lon": 0.0, "name": "c89f1e06a23c93c8d8632e292bfba7e0", "rental_uris": {"android": "https://dc.lft.to/lastmile_qr_scan", "ios": "https://dc.lft.to/lastmile_qr_scan"}, "lat": 38.9344775, "bike_id": "c89f1e06a23c93c8d8632e292bfba7e0", "is_disabled": 0, "lon": -77.089682, "is_reserved": 0, "fusion_lat": 0.0, "type": "electric_scooter"}, {"fusion_lon": 0.0, "name": "2e3893a74e265d2c4c70e152a57c9dc3", "rental_uris": {"android": "https://dc.lft.to/lastmile_qr_scan", "ios": "https://dc.lft.to/lastmile_qr_scan"}, "lat": 38.90601733333333, "bike_id": "2e3893a74e265d2c4c70e152a57c9dc3", "is_disabled": 0, "lon": -77.02609583333333, "is_reserved": 0, "fusion_lat": 0.0, "type": "electric_scooter"}, {"fusion_lon": 0.0, "name": "e633c7725856cecc9a12a4d7d384afb6", "rental_uris": {"android": "https://dc.lft.to/lastmile_qr_scan", "ios": "https://dc.lft.to/lastmile_qr_scan"}, "lat": 38.915750833333334, "bike_id": "e633c7725856cecc9a12a4d7d384afb6", "is_disabled": 0, "lon": -77.02412533333333, "is_reserved": 0, "fusion_lat": 0.0, "type": "electric_scooter"}, {"fusion_lon": 0.0, "name": "e3c902a3a2f0c08ff5ff548eb4a8f9ad", "rental_uris": {"android": "https://dc.lft.to/lastmile_qr_scan", "ios": "https://dc.lft.to/lastmile_qr_scan"}, "lat": 38.92375916666667, "bike_id": "e3c902a3a2f0c08ff5ff548eb4a8f9ad", "is_disabled": 0, "lon": -77.03049616666667, "is_reserved": 0, "fusion_lat": 0.0, "type": "electric_scooter"}, {"fusion_lon": 0.0, "name": "3a1be9b8799857440433651a3ef4704b", "rental_uris": {"android": "https://dc.lft.to/lastmile_qr_scan", "ios": "https://dc.lft.to/lastmile_qr_scan"}, "lat": 38.938404, "bike_id": "3a1be9b8799857440433651a3ef4704b", "is_disabled": 0, "lon": -77.02444016666666, "is_reserved": 0, "fusion_lat": 0.0, "type": "electric_scooter"}, {"fusion_lon": 0.0, "name": "b80c5c9e547439fe99e5542c7508eea7", "rental_uris": {"android": "https://dc.lft.to/lastmile_qr_scan", "ios": "https://dc.lft.to/lastmile_qr_scan"}, "lat": 38.90246883333333, "bike_id": "b80c5c9e547439fe99e5542c7508eea7", "is_disabled": 0, "lon": -77.01600266666667, "is_reserved": 0, "fusion_lat": 0.0, "type": "electric_scooter"}, {"fusion_lon": 0.0, "name": "d730bd54bab0c9d675743d93d549ba29", "rental_uris": {"android": "https://dc.lft.to/lastmile_qr_scan", "ios": "https://dc.lft.to/lastmile_qr_scan"}, "lat": 38.92261533333333, "bike_id": "d730bd54bab0c9d675743d93d549ba29", "is_disabled": 0, "lon": -77.073301, "is_reserved": 0, "fusion_lat": 0.0, "type": "electric_scooter"}, {"fusion_lon": 0.0, "name": "f6025e24009bd3ba522e595ebbdb2214", "rental_uris": {"android": "https://dc.lft.to/lastmile_qr_scan", "ios": "https://dc.lft.to/lastmile_qr_scan"}, "lat": 38.957194, "bike_id": "f6025e24009bd3ba522e595ebbdb2214", "is_disabled": 0, "lon": -77.00234566666667, "is_reserved": 0, "fusion_lat": 0.0, "type": "electric_scooter"}, {"fusion_lon": 0.0, "name": "4930b27f77210945055f1fd229999aa7", "rental_uris": {"android": "https://dc.lft.to/lastmile_qr_scan", "ios": "https://dc.lft.to/lastmile_qr_scan"}, "lat": 38.969361166666665, "bike_id": "4930b27f77210945055f1fd229999aa7", "is_disabled": 0, "lon": -77.027074, "is_reserved": 0, "fusion_lat": 0.0, "type": "electric_scooter"}, {"fusion_lon": 0.0, "name": "65f0b8ab75a59b24dde1450f6f08a822", "rental_uris": {"android": "https://dc.lft.to/lastmile_qr_scan", "ios": "https://dc.lft.to/lastmile_qr_scan"}, "lat": 38.90459233333333, "bike_id": "65f0b8ab75a59b24dde1450f6f08a822", "is_disabled": 0, "lon": -77.02946333333334, "is_reserved": 0, "fusion_lat": 0.0, "type": "electric_scooter"}, {"fusion_lon": 0.0, "name": "0a748a56fd8006a772eec36c795d23a4", "rental_uris": {"android": "https://dc.lft.to/lastmile_qr_scan", "ios": "https://dc.lft.to/lastmile_qr_scan"}, "lat": 38.92329766666667, "bike_id": "0a748a56fd8006a772eec36c795d23a4", "is_disabled": 0, "lon": -77.03780466666667, "is_reserved": 0, "fusion_lat": 0.0, "type": "electric_scooter"}, {"fusion_lon": 0.0, "name": "1194b362bc11d1a40983d7c37bce99b5", "rental_uris": {"android": "https://dc.lft.to/lastmile_qr_scan", "ios": "https://dc.lft.to/lastmile_qr_scan"}, "lat": 38.9267205, "bike_id": "1194b362bc11d1a40983d7c37bce99b5", "is_disabled": 0, "lon": -77.0150275, "is_reserved": 0, "fusion_lat": 0.0, "type": "electric_scooter"}, {"fusion_lon": 0.0, "name": "f4079b51c5df72b3fc764ab5991d744a", "rental_uris": {"android": "https://dc.lft.to/lastmile_qr_scan", "ios": "https://dc.lft.to/lastmile_qr_scan"}, "lat": 38.907176166666666, "bike_id": "f4079b51c5df72b3fc764ab5991d744a", "is_disabled": 0, "lon": -77.02392033333334, "is_reserved": 0, "fusion_lat": 0.0, "type": "electric_scooter"}, {"fusion_lon": 0.0, "name": "8a1aaedaaf2ec11752ab42dc58b1a780", "rental_uris": {"android": "https://dc.lft.to/lastmile_qr_scan", "ios": "https://dc.lft.to/lastmile_qr_scan"}, "lat": 38.92387883333333, "bike_id": "8a1aaedaaf2ec11752ab42dc58b1a780", "is_disabled": 0, "lon": -77.025547, "is_reserved": 0, "fusion_lat": 0.0, "type": "electric_scooter"}, {"fusion_lon": 0.0, "name": "73f3a1c8b2ea370bd32959a6992c0f53", "rental_uris": {"android": "https://dc.lft.to/lastmile_qr_scan", "ios": "https://dc.lft.to/lastmile_qr_scan"}, "lat": 38.905289, "bike_id": "73f3a1c8b2ea370bd32959a6992c0f53", "is_disabled": 0, "lon": -77.05997916666666, "is_reserved": 0, "fusion_lat": 0.0, "type": "electric_scooter"}, {"fusion_lon": 0.0, "name": "b18291213e67020562d6336d1a26200f", "rental_uris": {"android": "https://dc.lft.to/lastmile_qr_scan", "ios": "https://dc.lft.to/lastmile_qr_scan"}, "lat": 38.92830883333333, "bike_id": "b18291213e67020562d6336d1a26200f", "is_disabled": 0, "lon": -77.03296283333333, "is_reserved": 0, "fusion_lat": 0.0, "type": "electric_scooter"}, {"fusion_lon": 0.0, "name": "d074472dc2d6e0dd4aa669ef7094b68d", "rental_uris": {"android": "https://dc.lft.to/lastmile_qr_scan", "ios": "https://dc.lft.to/lastmile_qr_scan"}, "lat": 38.899056333333334, "bike_id": "d074472dc2d6e0dd4aa669ef7094b68d", "is_disabled": 0, "lon": -76.98824216666667, "is_reserved": 0, "fusion_lat": 0.0, "type": "electric_scooter"}, {"fusion_lon": 0.0, "name": "231d314ac6180f8b73d55b9f0512f307", "rental_uris": {"android": "https://dc.lft.to/lastmile_qr_scan", "ios": "https://dc.lft.to/lastmile_qr_scan"}, "lat": 38.9236255, "bike_id": "231d314ac6180f8b73d55b9f0512f307", "is_disabled": 0, "lon": -77.076402, "is_reserved": 0, "fusion_lat": 0.0, "type": "electric_scooter"}, {"fusion_lon": 0.0, "name": "7fa5234a4cd548be4f051d21862a9624", "rental_uris": {"android": "https://dc.lft.to/lastmile_qr_scan", "ios": "https://dc.lft.to/lastmile_qr_scan"}, "lat": 38.916920166666664, "bike_id": "7fa5234a4cd548be4f051d21862a9624", "is_disabled": 0, "lon": -77.03632383333333, "is_reserved": 0, "fusion_lat": 0.0, "type": "electric_scooter"}, {"fusion_lon": 0.0, "name": "7dc9187ab301f7ec4eb11e8dcfba2bd6", "rental_uris": {"android": "https://dc.lft.to/lastmile_qr_scan", "ios": "https://dc.lft.to/lastmile_qr_scan"}, "lat": 38.9370225, "bike_id": "7dc9187ab301f7ec4eb11e8dcfba2bd6", "is_disabled": 0, "lon": -77.05598483333333, "is_reserved": 0, "fusion_lat": 0.0, "type": "electric_scooter"}, {"fusion_lon": 0.0, "name": "897ec8b1fb7d710f73747d563a6e29cb", "rental_uris": {"android": "https://dc.lft.to/lastmile_qr_scan", "ios": "https://dc.lft.to/lastmile_qr_scan"}, "lat": 38.919863166666666, "bike_id": "897ec8b1fb7d710f73747d563a6e29cb", "is_disabled": 0, "lon": -77.0275505, "is_reserved": 0, "fusion_lat": 0.0, "type": "electric_scooter"}, {"fusion_lon": 0.0, "name": "1943962b7ce938b666324931746ac596", "rental_uris": {"android": "https://dc.lft.to/lastmile_qr_scan", "ios": "https://dc.lft.to/lastmile_qr_scan"}, "lat": 38.9263605, "bike_id": "1943962b7ce938b666324931746ac596", "is_disabled": 0, "lon": -77.03505733333333, "is_reserved": 0, "fusion_lat": 0.0, "type": "electric_scooter"}, {"fusion_lon": 0.0, "name": "68549fa8133e65bb4f798a3f889a7a8b", "rental_uris": {"android": "https://dc.lft.to/lastmile_qr_scan", "ios": "https://dc.lft.to/lastmile_qr_scan"}, "lat": 38.917209, "bike_id": "68549fa8133e65bb4f798a3f889a7a8b", "is_disabled": 0, "lon": -77.02952783333333, "is_reserved": 0, "fusion_lat": 0.0, "type": "electric_scooter"}, {"fusion_lon": 0.0, "name": "5648f8b2ff334a1602b19e401f1d5c05", "rental_uris": {"android": "https://dc.lft.to/lastmile_qr_scan", "ios": "https://dc.lft.to/lastmile_qr_scan"}, "lat": 38.9164955, "bike_id": "5648f8b2ff334a1602b19e401f1d5c05", "is_disabled": 0, "lon": -77.01022816666666, "is_reserved": 0, "fusion_lat": 0.0, "type": "electric_scooter"}, {"fusion_lon": 0.0, "name": "bb04695850fbd606ac099542dbd857ca", "rental_uris": {"android": "https://dc.lft.to/lastmile_qr_scan", "ios": "https://dc.lft.to/lastmile_qr_scan"}, "lat": 38.828515833333334, "bike_id": "bb04695850fbd606ac099542dbd857ca", "is_disabled": 0, "lon": -77.0590345, "is_reserved": 0, "fusion_lat": 0.0, "type": "electric_bike"}, {"fusion_lon": 0.0, "name": "30afcb0b0efc6b2229ec3d2c07bc9e74", "rental_uris": {"android": "https://dc.lft.to/lastmile_qr_scan", "ios": "https://dc.lft.to/lastmile_qr_scan"}, "lat": 38.93840683333333, "bike_id": "30afcb0b0efc6b2229ec3d2c07bc9e74", "is_disabled": 0, "lon": -77.0245265, "is_reserved": 0, "fusion_lat": 0.0, "type": "electric_scooter"}, {"fusion_lon": 0.0, "name": "5851335d230ddc063245c44d9775ebba", "rental_uris": {"android": "https://dc.lft.to/lastmile_qr_scan", "ios": "https://dc.lft.to/lastmile_qr_scan"}, "lat": 38.92343433333333, "bike_id": "5851335d230ddc063245c44d9775ebba", "is_disabled": 0, "lon": -77.054237, "is_reserved": 0, "fusion_lat": 0.0, "type": "electric_scooter"}, {"fusion_lon": 0.0, "name": "1d4de26409b5db798dc764fbf2bc4e0c", "rental_uris": {"android": "https://dc.lft.to/lastmile_qr_scan", "ios": "https://dc.lft.to/lastmile_qr_scan"}, "lat": 38.91473333333333, "bike_id": "1d4de26409b5db798dc764fbf2bc4e0c", "is_disabled": 0, "lon": -77.04009883333333, "is_reserved": 0, "fusion_lat": 0.0, "type": "electric_scooter"}, {"fusion_lon": 0.0, "name": "5a6bc9ffc1531d1a8ecdbb4a52e6d78c", "rental_uris": {"android": "https://dc.lft.to/lastmile_qr_scan", "ios": "https://dc.lft.to/lastmile_qr_scan"}, "lat": 38.941675000000004, "bike_id": "5a6bc9ffc1531d1a8ecdbb4a52e6d78c", "is_disabled": 0, "lon": -77.025562, "is_reserved": 0, "fusion_lat": 0.0, "type": "electric_scooter"}, {"fusion_lon": 0.0, "name": "2c481f1291832bc8963d84486c8149d9", "rental_uris": {"android": "https://dc.lft.to/lastmile_qr_scan", "ios": "https://dc.lft.to/lastmile_qr_scan"}, "lat": 38.8757425, "bike_id": "2c481f1291832bc8963d84486c8149d9", "is_disabled": 0, "lon": -77.005744, "is_reserved": 0, "fusion_lat": 0.0, "type": "electric_scooter"}, {"fusion_lon": 0.0, "name": "f5bfddec956a5ac7d93b1624c25db29b", "rental_uris": {"android": "https://dc.lft.to/lastmile_qr_scan", "ios": "https://dc.lft.to/lastmile_qr_scan"}, "lat": 38.871979333333336, "bike_id": "f5bfddec956a5ac7d93b1624c25db29b", "is_disabled": 0, "lon": -77.00931683333333, "is_reserved": 0, "fusion_lat": 0.0, "type": "electric_scooter"}, {"fusion_lon": 0.0, "name": "5df392e4f81f6ce79a010c0160db27cd", "rental_uris": {"android": "https://dc.lft.to/lastmile_qr_scan", "ios": "https://dc.lft.to/lastmile_qr_scan"}, "lat": 38.909625, "bike_id": "5df392e4f81f6ce79a010c0160db27cd", "is_disabled": 0, "lon": -77.02446016666667, "is_reserved": 0, "fusion_lat": 0.0, "type": "electric_scooter"}, {"fusion_lon": 0.0, "name": "49bd0e0f2daa4afdd3baf956ee502995", "rental_uris": {"android": "https://dc.lft.to/lastmile_qr_scan", "ios": "https://dc.lft.to/lastmile_qr_scan"}, "lat": 38.907803666666666, "bike_id": "49bd0e0f2daa4afdd3baf956ee502995", "is_disabled": 0, "lon": -76.998561, "is_reserved": 0, "fusion_lat": 0.0, "type": "electric_scooter"}, {"fusion_lon": 0.0, "name": "52a5f71f8496e9384abc4974b50ee7b1", "rental_uris": {"android": "https://dc.lft.to/lastmile_qr_scan", "ios": "https://dc.lft.to/lastmile_qr_scan"}, "lat": 38.973695, "bike_id": "52a5f71f8496e9384abc4974b50ee7b1", "is_disabled": 0, "lon": -77.01864033333334, "is_reserved": 0, "fusion_lat": 0.0, "type": "electric_scooter"}, {"fusion_lon": 0.0, "name": "96e0435d1af0fde9edb749aeaf261915", "rental_uris": {"android": "https://dc.lft.to/lastmile_qr_scan", "ios": "https://dc.lft.to/lastmile_qr_scan"}, "lat": 38.9176345, "bike_id": "96e0435d1af0fde9edb749aeaf261915", "is_disabled": 0, "lon": -77.00916566666666, "is_reserved": 0, "fusion_lat": 0.0, "type": "electric_scooter"}, {"fusion_lon": 0.0, "name": "95eac1399ed72c3c45d6af17ecdcc329", "rental_uris": {"android": "https://dc.lft.to/lastmile_qr_scan", "ios": "https://dc.lft.to/lastmile_qr_scan"}, "lat": 38.909482, "bike_id": "95eac1399ed72c3c45d6af17ecdcc329", "is_disabled": 0, "lon": -77.0448315, "is_reserved": 0, "fusion_lat": 0.0, "type": "electric_scooter"}, {"fusion_lon": 0.0, "name": "fa6e54d273cb757f62a80700d03a95ab", "rental_uris": {"android": "https://dc.lft.to/lastmile_qr_scan", "ios": "https://dc.lft.to/lastmile_qr_scan"}, "lat": 38.90585683333333, "bike_id": "fa6e54d273cb757f62a80700d03a95ab", "is_disabled": 0, "lon": -77.0469265, "is_reserved": 0, "fusion_lat": 0.0, "type": "electric_scooter"}, {"fusion_lon": 0.0, "name": "4445efe1c6a05eee8f922b2e4e463328", "rental_uris": {"android": "https://dc.lft.to/lastmile_qr_scan", "ios": "https://dc.lft.to/lastmile_qr_scan"}, "lat": 38.91630983333334, "bike_id": "4445efe1c6a05eee8f922b2e4e463328", "is_disabled": 0, "lon": -77.03194366666666, "is_reserved": 0, "fusion_lat": 0.0, "type": "electric_scooter"}, {"fusion_lon": 0.0, "name": "74b6b581941201a2d003080969845abb", "rental_uris": {"android": "https://dc.lft.to/lastmile_qr_scan", "ios": "https://dc.lft.to/lastmile_qr_scan"}, "lat": 38.808658666666666, "bike_id": "74b6b581941201a2d003080969845abb", "is_disabled": 0, "lon": -77.11254766666667, "is_reserved": 0, "fusion_lat": 0.0, "type": "electric_bike"}, {"fusion_lon": 0.0, "name": "d5d3818686ea58ef1f41615138b548eb", "rental_uris": {"android": "https://dc.lft.to/lastmile_qr_scan", "ios": "https://dc.lft.to/lastmile_qr_scan"}, "lat": 38.87176216666667, "bike_id": "d5d3818686ea58ef1f41615138b548eb", "is_disabled": 0, "lon": -77.2339245, "is_reserved": 0, "fusion_lat": 0.0, "type": "electric_bike"}, {"fusion_lon": 0.0, "name": "d28dd01aa6963bb01e3414dcf5666951", "rental_uris": {"android": "https://dc.lft.to/lastmile_qr_scan", "ios": "https://dc.lft.to/lastmile_qr_scan"}, "lat": 38.9036675, "bike_id": "d28dd01aa6963bb01e3414dcf5666951", "is_disabled": 0, "lon": -76.99834983333334, "is_reserved": 0, "fusion_lat": 0.0, "type": "electric_scooter"}, {"fusion_lon": 0.0, "name": "0acd7341f6a57bd8ba7ab98ce7ea826f", "rental_uris": {"android": "https://dc.lft.to/lastmile_qr_scan", "ios": "https://dc.lft.to/lastmile_qr_scan"}, "lat": 38.91655733333333, "bike_id": "0acd7341f6a57bd8ba7ab98ce7ea826f", "is_disabled": 0, "lon": -77.00951533333334, "is_reserved": 0, "fusion_lat": 0.0, "type": "electric_scooter"}, {"fusion_lon": 0.0, "name": "ead1aab53376735cd718e04452618e1f", "rental_uris": {"android": "https://dc.lft.to/lastmile_qr_scan", "ios": "https://dc.lft.to/lastmile_qr_scan"}, "lat": 38.905297833333336, "bike_id": "ead1aab53376735cd718e04452618e1f", "is_disabled": 0, "lon": -77.06238283333333, "is_reserved": 0, "fusion_lat": 0.0, "type": "electric_scooter"}, {"fusion_lon": 0.0, "name": "9a74860859a5ffcde6c17680ab9dd88b", "rental_uris": {"android": "https://dc.lft.to/lastmile_qr_scan", "ios": "https://dc.lft.to/lastmile_qr_scan"}, "lat": 38.91671233333334, "bike_id": "9a74860859a5ffcde6c17680ab9dd88b", "is_disabled": 0, "lon": -77.02948333333333, "is_reserved": 0, "fusion_lat": 0.0, "type": "electric_scooter"}, {"fusion_lon": 0.0, "name": "e45041eeacb1e80cb34624bdbb538567", "rental_uris": {"android": "https://dc.lft.to/lastmile_qr_scan", "ios": "https://dc.lft.to/lastmile_qr_scan"}, "lat": 38.94331966666667, "bike_id": "e45041eeacb1e80cb34624bdbb538567", "is_disabled": 0, "lon": -77.02689283333333, "is_reserved": 0, "fusion_lat": 0.0, "type": "electric_scooter"}, {"fusion_lon": 0.0, "name": "6434addb6b486464b2f26e74ed15f185", "rental_uris": {"android": "https://dc.lft.to/lastmile_qr_scan", "ios": "https://dc.lft.to/lastmile_qr_scan"}, "lat": 38.907705166666666, "bike_id": "6434addb6b486464b2f26e74ed15f185", "is_disabled": 0, "lon": -77.0454615, "is_reserved": 0, "fusion_lat": 0.0, "type": "electric_scooter"}, {"fusion_lon": 0.0, "name": "badacc07e8fa16c9874a624d1a630961", "rental_uris": {"android": "https://dc.lft.to/lastmile_qr_scan", "ios": "https://dc.lft.to/lastmile_qr_scan"}, "lat": 38.8961105, "bike_id": "badacc07e8fa16c9874a624d1a630961", "is_disabled": 0, "lon": -77.04514916666666, "is_reserved": 0, "fusion_lat": 0.0, "type": "electric_scooter"}, {"fusion_lon": 0.0, "name": "898f3a1df0b00f5e58df63fa5ed0a80c", "rental_uris": {"android": "https://dc.lft.to/lastmile_qr_scan", "ios": "https://dc.lft.to/lastmile_qr_scan"}, "lat": 38.929957, "bike_id": "898f3a1df0b00f5e58df63fa5ed0a80c", "is_disabled": 0, "lon": -77.02209316666666, "is_reserved": 0, "fusion_lat": 0.0, "type": "electric_scooter"}, {"fusion_lon": 0.0, "name": "f0430bbdb5948cbe8f0e3c6687f8b6d7", "rental_uris": {"android": "https://dc.lft.to/lastmile_qr_scan", "ios": "https://dc.lft.to/lastmile_qr_scan"}, "lat": 38.905228, "bike_id": "f0430bbdb5948cbe8f0e3c6687f8b6d7", "is_disabled": 0, "lon": -77.0297595, "is_reserved": 0, "fusion_lat": 0.0, "type": "electric_scooter"}, {"fusion_lon": 0.0, "name": "b368be14c74adf54d8ca6bccb436951f", "rental_uris": {"android": "https://dc.lft.to/lastmile_qr_scan", "ios": "https://dc.lft.to/lastmile_qr_scan"}, "lat": 38.92487833333333, "bike_id": "b368be14c74adf54d8ca6bccb436951f", "is_disabled": 0, "lon": -77.02249016666667, "is_reserved": 0, "fusion_lat": 0.0, "type": "electric_scooter"}, {"fusion_lon": 0.0, "name": "f3c03d1167ce202047ff1210017822ea", "rental_uris": {"android": "https://dc.lft.to/lastmile_qr_scan", "ios": "https://dc.lft.to/lastmile_qr_scan"}, "lat": 38.92471583333333, "bike_id": "f3c03d1167ce202047ff1210017822ea", "is_disabled": 0, "lon": -77.02219583333333, "is_reserved": 0, "fusion_lat": 0.0, "type": "electric_scooter"}, {"fusion_lon": 0.0, "name": "474002fb3cdd161ec5a391253520bc72", "rental_uris": {"android": "https://dc.lft.to/lastmile_qr_scan", "ios": "https://dc.lft.to/lastmile_qr_scan"}, "lat": 38.922399166666665, "bike_id": "474002fb3cdd161ec5a391253520bc72", "is_disabled": 0, "lon": -77.0214505, "is_reserved": 0, "fusion_lat": 0.0, "type": "electric_scooter"}, {"fusion_lon": 0.0, "name": "afbbbbf1ceda487559431ddec64cbbc0", "rental_uris": {"android": "https://dc.lft.to/lastmile_qr_scan", "ios": "https://dc.lft.to/lastmile_qr_scan"}, "lat": 38.9205185, "bike_id": "afbbbbf1ceda487559431ddec64cbbc0", "is_disabled": 0, "lon": -77.0236215, "is_reserved": 0, "fusion_lat": 0.0, "type": "electric_scooter"}, {"fusion_lon": 0.0, "name": "1ecc68baaafe52b42e46e3aecc3c2e05", "rental_uris": {"android": "https://dc.lft.to/lastmile_qr_scan", "ios": "https://dc.lft.to/lastmile_qr_scan"}, "lat": 38.900312666666665, "bike_id": "1ecc68baaafe52b42e46e3aecc3c2e05", "is_disabled": 0, "lon": -76.98757116666667, "is_reserved": 0, "fusion_lat": 0.0, "type": "electric_scooter"}, {"fusion_lon": 0.0, "name": "352b05e72863425fdc3033c3b7153040", "rental_uris": {"android": "https://dc.lft.to/lastmile_qr_scan", "ios": "https://dc.lft.to/lastmile_qr_scan"}, "lat": 38.9241905, "bike_id": "352b05e72863425fdc3033c3b7153040", "is_disabled": 0, "lon": -77.0455415, "is_reserved": 0, "fusion_lat": 0.0, "type": "electric_scooter"}, {"fusion_lon": 0.0, "name": "afba90a45dbe58b411225012a4678e02", "rental_uris": {"android": "https://dc.lft.to/lastmile_qr_scan", "ios": "https://dc.lft.to/lastmile_qr_scan"}, "lat": 38.91632716666667, "bike_id": "afba90a45dbe58b411225012a4678e02", "is_disabled": 0, "lon": -77.03933933333333, "is_reserved": 0, "fusion_lat": 0.0, "type": "electric_scooter"}, {"fusion_lon": 0.0, "name": "416701dde57092d0d50e126c149f94ae", "rental_uris": {"android": "https://dc.lft.to/lastmile_qr_scan", "ios": "https://dc.lft.to/lastmile_qr_scan"}, "lat": 38.90669116666667, "bike_id": "416701dde57092d0d50e126c149f94ae", "is_disabled": 0, "lon": -76.9802425, "is_reserved": 0, "fusion_lat": 0.0, "type": "electric_scooter"}, {"fusion_lon": 0.0, "name": "33e84dec930637817442cdb595c742f6", "rental_uris": {"android": "https://dc.lft.to/lastmile_qr_scan", "ios": "https://dc.lft.to/lastmile_qr_scan"}, "lat": 38.91330716666667, "bike_id": "33e84dec930637817442cdb595c742f6", "is_disabled": 0, "lon": -77.03180233333333, "is_reserved": 0, "fusion_lat": 0.0, "type": "electric_scooter"}, {"fusion_lon": 0.0, "name": "744bf39b355bac7b13b2ad0f0b3da398", "rental_uris": {"android": "https://dc.lft.to/lastmile_qr_scan", "ios": "https://dc.lft.to/lastmile_qr_scan"}, "lat": 38.90493883333333, "bike_id": "744bf39b355bac7b13b2ad0f0b3da398", "is_disabled": 0, "lon": -76.97737066666667, "is_reserved": 0, "fusion_lat": 0.0, "type": "electric_scooter"}, {"fusion_lon": 0.0, "name": "2e18d34f899a57cc755799b55696a32d", "rental_uris": {"android": "https://dc.lft.to/lastmile_qr_scan", "ios": "https://dc.lft.to/lastmile_qr_scan"}, "lat": 38.89467233333333, "bike_id": "2e18d34f899a57cc755799b55696a32d", "is_disabled": 0, "lon": -76.99710416666667, "is_reserved": 0, "fusion_lat": 0.0, "type": "electric_scooter"}, {"fusion_lon": 0.0, "name": "266c090ab442df339a42a53c96be407e", "rental_uris": {"android": "https://dc.lft.to/lastmile_qr_scan", "ios": "https://dc.lft.to/lastmile_qr_scan"}, "lat": 38.9332785, "bike_id": "266c090ab442df339a42a53c96be407e", "is_disabled": 0, "lon": -77.02917966666666, "is_reserved": 0, "fusion_lat": 0.0, "type": "electric_scooter"}, {"fusion_lon": 0.0, "name": "0823170bf042bc65cd2b2cf74f7e7467", "rental_uris": {"android": "https://dc.lft.to/lastmile_qr_scan", "ios": "https://dc.lft.to/lastmile_qr_scan"}, "lat": 38.9313525, "bike_id": "0823170bf042bc65cd2b2cf74f7e7467", "is_disabled": 0, "lon": -77.07860116666667, "is_reserved": 0, "fusion_lat": 0.0, "type": "electric_scooter"}, {"fusion_lon": 0.0, "name": "92c3da7572aabea2501f03a830229dab", "rental_uris": {"android": "https://dc.lft.to/lastmile_qr_scan", "ios": "https://dc.lft.to/lastmile_qr_scan"}, "lat": 38.900864166666665, "bike_id": "92c3da7572aabea2501f03a830229dab", "is_disabled": 0, "lon": -77.047508, "is_reserved": 0, "fusion_lat": 0.0, "type": "electric_scooter"}, {"fusion_lon": 0.0, "name": "f30480ec5255b8ab06ad3266d5f12226", "rental_uris": {"android": "https://dc.lft.to/lastmile_qr_scan", "ios": "https://dc.lft.to/lastmile_qr_scan"}, "lat": 38.95912466666667, "bike_id": "f30480ec5255b8ab06ad3266d5f12226", "is_disabled": 0, "lon": -77.00019316666666, "is_reserved": 0, "fusion_lat": 0.0, "type": "electric_scooter"}, {"fusion_lon": 0.0, "name": "fabc2d07c68d05df28df40a0cf97784e", "rental_uris": {"android": "https://dc.lft.to/lastmile_qr_scan", "ios": "https://dc.lft.to/lastmile_qr_scan"}, "lat": 38.8923085, "bike_id": "fabc2d07c68d05df28df40a0cf97784e", "is_disabled": 0, "lon": -77.05006366666667, "is_reserved": 0, "fusion_lat": 0.0, "type": "electric_scooter"}, {"fusion_lon": 0.0, "name": "a6439851d07abd36437d8fb7ab31bd1f", "rental_uris": {"android": "https://dc.lft.to/lastmile_qr_scan", "ios": "https://dc.lft.to/lastmile_qr_scan"}, "lat": 38.852551166666665, "bike_id": "a6439851d07abd36437d8fb7ab31bd1f", "is_disabled": 0, "lon": -77.05316116666667, "is_reserved": 0, "fusion_lat": 0.0, "type": "electric_bike"}, {"fusion_lon": 0.0, "name": "96c812fcf13d0a0b441ee4d0941ec858", "rental_uris": {"android": "https://dc.lft.to/lastmile_qr_scan", "ios": "https://dc.lft.to/lastmile_qr_scan"}, "lat": 38.90032683333333, "bike_id": "96c812fcf13d0a0b441ee4d0941ec858", "is_disabled": 0, "lon": -76.9962495, "is_reserved": 0, "fusion_lat": 0.0, "type": "electric_scooter"}, {"fusion_lon": 0.0, "name": "6cf7492a6a7205cd0f8dcaf826f42a4c", "rental_uris": {"android": "https://dc.lft.to/lastmile_qr_scan", "ios": "https://dc.lft.to/lastmile_qr_scan"}, "lat": 38.903326, "bike_id": "6cf7492a6a7205cd0f8dcaf826f42a4c", "is_disabled": 0, "lon": -76.98225566666666, "is_reserved": 0, "fusion_lat": 0.0, "type": "electric_scooter"}, {"fusion_lon": 0.0, "name": "4c76d580742881becdff5fc4dc3a54db", "rental_uris": {"android": "https://dc.lft.to/lastmile_qr_scan", "ios": "https://dc.lft.to/lastmile_qr_scan"}, "lat": 38.91568916666667, "bike_id": "4c76d580742881becdff5fc4dc3a54db", "is_disabled": 0, "lon": -77.04878716666667, "is_reserved": 0, "fusion_lat": 0.0, "type": "electric_scooter"}, {"fusion_lon": 0.0, "name": "a258ad039c71d01bbed2c4488dc3c243", "rental_uris": {"android": "https://dc.lft.to/lastmile_qr_scan", "ios": "https://dc.lft.to/lastmile_qr_scan"}, "lat": 38.903901166666664, "bike_id": "a258ad039c71d01bbed2c4488dc3c243", "is_disabled": 0, "lon": -77.01848216666667, "is_reserved": 0, "fusion_lat": 0.0, "type": "electric_scooter"}, {"fusion_lon": 0.0, "name": "4a8d0c1fe8f1f59473a86cc946c7e426", "rental_uris": {"android": "https://dc.lft.to/lastmile_qr_scan", "ios": "https://dc.lft.to/lastmile_qr_scan"}, "lat": 39.0072045, "bike_id": "4a8d0c1fe8f1f59473a86cc946c7e426", "is_disabled": 0, "lon": -76.98143366666666, "is_reserved": 0, "fusion_lat": 0.0, "type": "electric_bike"}, {"fusion_lon": 0.0, "name": "c1d5c0d222bc45c29b477ceca275af40", "rental_uris": {"android": "https://dc.lft.to/lastmile_qr_scan", "ios": "https://dc.lft.to/lastmile_qr_scan"}, "lat": 38.9464045, "bike_id": "c1d5c0d222bc45c29b477ceca275af40", "is_disabled": 0, "lon": -77.06491233333334, "is_reserved": 0, "fusion_lat": 0.0, "type": "electric_scooter"}, {"fusion_lon": 0.0, "name": "99bd3d87ce50b4bcc5bb3f8b0218f34f", "rental_uris": {"android": "https://dc.lft.to/lastmile_qr_scan", "ios": "https://dc.lft.to/lastmile_qr_scan"}, "lat": 38.89452033333333, "bike_id": "99bd3d87ce50b4bcc5bb3f8b0218f34f", "is_disabled": 0, "lon": -76.97482633333334, "is_reserved": 0, "fusion_lat": 0.0, "type": "electric_bike"}, {"fusion_lon": 0.0, "name": "0665923573b738082e8129c155016fe6", "rental_uris": {"android": "https://dc.lft.to/lastmile_qr_scan", "ios": "https://dc.lft.to/lastmile_qr_scan"}, "lat": 39.0078425, "bike_id": "0665923573b738082e8129c155016fe6", "is_disabled": 0, "lon": -76.89000516666667, "is_reserved": 0, "fusion_lat": 0.0, "type": "electric_bike"}, {"fusion_lon": 0.0, "name": "382e99d17a1bc854b0190e2a72c83c73", "rental_uris": {"android": "https://dc.lft.to/lastmile_qr_scan", "ios": "https://dc.lft.to/lastmile_qr_scan"}, "lat": 38.91563333333333, "bike_id": "382e99d17a1bc854b0190e2a72c83c73", "is_disabled": 0, "lon": -77.00699466666667, "is_reserved": 0, "fusion_lat": 0.0, "type": "electric_scooter"}, {"fusion_lon": 0.0, "name": "4859bd21c1dde2bd847217c28d6a57fa", "rental_uris": {"android": "https://dc.lft.to/lastmile_qr_scan", "ios": "https://dc.lft.to/lastmile_qr_scan"}, "lat": 38.92393916666666, "bike_id": "4859bd21c1dde2bd847217c28d6a57fa", "is_disabled": 0, "lon": -77.020421, "is_reserved": 0, "fusion_lat": 0.0, "type": "electric_scooter"}, {"fusion_lon": 0.0, "name": "6b97d821ad80550ff5f0b96919ec59f0", "rental_uris": {"android": "https://dc.lft.to/lastmile_qr_scan", "ios": "https://dc.lft.to/lastmile_qr_scan"}, "lat": 38.90026266666667, "bike_id": "6b97d821ad80550ff5f0b96919ec59f0", "is_disabled": 0, "lon": -76.99860533333333, "is_reserved": 0, "fusion_lat": 0.0, "type": "electric_scooter"}, {"fusion_lon": 0.0, "name": "51892f36ad294ce19f20a9195ae5bc5c", "rental_uris": {"android": "https://dc.lft.to/lastmile_qr_scan", "ios": "https://dc.lft.to/lastmile_qr_scan"}, "lat": 38.925119, "bike_id": "51892f36ad294ce19f20a9195ae5bc5c", "is_disabled": 0, "lon": -77.02283966666667, "is_reserved": 0, "fusion_lat": 0.0, "type": "electric_scooter"}, {"fusion_lon": 0.0, "name": "69b2142ddb6635e2813300a6cf8e7ac0", "rental_uris": {"android": "https://dc.lft.to/lastmile_qr_scan", "ios": "https://dc.lft.to/lastmile_qr_scan"}, "lat": 38.84899933333333, "bike_id": "69b2142ddb6635e2813300a6cf8e7ac0", "is_disabled": 0, "lon": -77.07797683333334, "is_reserved": 0, "fusion_lat": 0.0, "type": "electric_bike"}, {"fusion_lon": 0.0, "name": "28ace450df52d65486a2e8105a8e164a", "rental_uris": {"android": "https://dc.lft.to/lastmile_qr_scan", "ios": "https://dc.lft.to/lastmile_qr_scan"}, "lat": 38.912594, "bike_id": "28ace450df52d65486a2e8105a8e164a", "is_disabled": 0, "lon": -77.03207466666667, "is_reserved": 0, "fusion_lat": 0.0, "type": "electric_scooter"}, {"fusion_lon": 0.0, "name": "783bd05d06a8185c6df6a8ab4819f712", "rental_uris": {"android": "https://dc.lft.to/lastmile_qr_scan", "ios": "https://dc.lft.to/lastmile_qr_scan"}, "lat": 38.91921716666667, "bike_id": "783bd05d06a8185c6df6a8ab4819f712", "is_disabled": 0, "lon": -77.04626883333333, "is_reserved": 0, "fusion_lat": 0.0, "type": "electric_scooter"}, {"fusion_lon": 0.0, "name": "9270a5cdc424e6b96d65cd954812d0f9", "rental_uris": {"android": "https://dc.lft.to/lastmile_qr_scan", "ios": "https://dc.lft.to/lastmile_qr_scan"}, "lat": 38.90789183333333, "bike_id": "9270a5cdc424e6b96d65cd954812d0f9", "is_disabled": 0, "lon": -76.994272, "is_reserved": 0, "fusion_lat": 0.0, "type": "electric_scooter"}, {"fusion_lon": 0.0, "name": "c1fff7e4defcced1183cb2cb68aebf24", "rental_uris": {"android": "https://dc.lft.to/lastmile_qr_scan", "ios": "https://dc.lft.to/lastmile_qr_scan"}, "lat": 38.90870366666667, "bike_id": "c1fff7e4defcced1183cb2cb68aebf24", "is_disabled": 0, "lon": -77.03223666666666, "is_reserved": 0, "fusion_lat": 0.0, "type": "electric_scooter"}, {"fusion_lon": 0.0, "name": "6ec322e624b070b967fb3c63396250f0", "rental_uris": {"android": "https://dc.lft.to/lastmile_qr_scan", "ios": "https://dc.lft.to/lastmile_qr_scan"}, "lat": 38.90433783333334, "bike_id": "6ec322e624b070b967fb3c63396250f0", "is_disabled": 0, "lon": -77.0284285, "is_reserved": 0, "fusion_lat": 0.0, "type": "electric_scooter"}, {"fusion_lon": 0.0, "name": "dab7bd824a654c04882a04cd6b8b48a8", "rental_uris": {"android": "https://dc.lft.to/lastmile_qr_scan", "ios": "https://dc.lft.to/lastmile_qr_scan"}, "lat": 38.90037133333333, "bike_id": "dab7bd824a654c04882a04cd6b8b48a8", "is_disabled": 0, "lon": -77.01769033333333, "is_reserved": 0, "fusion_lat": 0.0, "type": "electric_scooter"}, {"fusion_lon": 0.0, "name": "9f4ae88cc95c64ee41aab7f59adfb8b1", "rental_uris": {"android": "https://dc.lft.to/lastmile_qr_scan", "ios": "https://dc.lft.to/lastmile_qr_scan"}, "lat": 38.916290333333336, "bike_id": "9f4ae88cc95c64ee41aab7f59adfb8b1", "is_disabled": 0, "lon": -77.048621, "is_reserved": 0, "fusion_lat": 0.0, "type": "electric_scooter"}, {"fusion_lon": 0.0, "name": "b2ce5249f9f2759ae48e0e11c480a412", "rental_uris": {"android": "https://dc.lft.to/lastmile_qr_scan", "ios": "https://dc.lft.to/lastmile_qr_scan"}, "lat": 38.891286, "bike_id": "b2ce5249f9f2759ae48e0e11c480a412", "is_disabled": 0, "lon": -76.94058066666666, "is_reserved": 0, "fusion_lat": 0.0, "type": "electric_bike"}, {"fusion_lon": 0.0, "name": "81907064695defc89525ef534190b11b", "rental_uris": {"android": "https://dc.lft.to/lastmile_qr_scan", "ios": "https://dc.lft.to/lastmile_qr_scan"}, "lat": 38.924697333333334, "bike_id": "81907064695defc89525ef534190b11b", "is_disabled": 0, "lon": -77.0382505, "is_reserved": 0, "fusion_lat": 0.0, "type": "electric_scooter"}, {"fusion_lon": 0.0, "name": "850b3655701322d5615fabf2b8b1125a", "rental_uris": {"android": "https://dc.lft.to/lastmile_qr_scan", "ios": "https://dc.lft.to/lastmile_qr_scan"}, "lat": 38.91100616666667, "bike_id": "850b3655701322d5615fabf2b8b1125a", "is_disabled": 0, "lon": -77.020033, "is_reserved": 0, "fusion_lat": 0.0, "type": "electric_scooter"}, {"fusion_lon": 0.0, "name": "779eff6a4caeb40a9a94cb015caf39eb", "rental_uris": {"android": "https://dc.lft.to/lastmile_qr_scan", "ios": "https://dc.lft.to/lastmile_qr_scan"}, "lat": 38.923306, "bike_id": "779eff6a4caeb40a9a94cb015caf39eb", "is_disabled": 0, "lon": -77.05679683333334, "is_reserved": 0, "fusion_lat": 0.0, "type": "electric_scooter"}, {"fusion_lon": 0.0, "name": "bc7c94968b3ac9ae5a913d498e08a148", "rental_uris": {"android": "https://dc.lft.to/lastmile_qr_scan", "ios": "https://dc.lft.to/lastmile_qr_scan"}, "lat": 38.91358666666667, "bike_id": "bc7c94968b3ac9ae5a913d498e08a148", "is_disabled": 0, "lon": -77.03348383333334, "is_reserved": 0, "fusion_lat": 0.0, "type": "electric_scooter"}, {"fusion_lon": 0.0, "name": "e0a8c1c0d1b7687b429e67ef849ccfd3", "rental_uris": {"android": "https://dc.lft.to/lastmile_qr_scan", "ios": "https://dc.lft.to/lastmile_qr_scan"}, "lat": 38.90789766666666, "bike_id": "e0a8c1c0d1b7687b429e67ef849ccfd3", "is_disabled": 0, "lon": -77.00967533333333, "is_reserved": 0, "fusion_lat": 0.0, "type": "electric_scooter"}, {"fusion_lon": 0.0, "name": "8a69d754b81a5f93c7085286dcd52339", "rental_uris": {"android": "https://dc.lft.to/lastmile_qr_scan", "ios": "https://dc.lft.to/lastmile_qr_scan"}, "lat": 38.91587533333333, "bike_id": "8a69d754b81a5f93c7085286dcd52339", "is_disabled": 0, "lon": -77.02952183333333, "is_reserved": 0, "fusion_lat": 0.0, "type": "electric_scooter"}, {"fusion_lon": 0.0, "name": "3662c104c86d7c2911ea84bbdf66dbcf", "rental_uris": {"android": "https://dc.lft.to/lastmile_qr_scan", "ios": "https://dc.lft.to/lastmile_qr_scan"}, "lat": 38.90357983333333, "bike_id": "3662c104c86d7c2911ea84bbdf66dbcf", "is_disabled": 0, "lon": -77.02619833333334, "is_reserved": 0, "fusion_lat": 0.0, "type": "electric_scooter"}, {"fusion_lon": 0.0, "name": "b3ba2c53744fec497ef676ef4a58815b", "rental_uris": {"android": "https://dc.lft.to/lastmile_qr_scan", "ios": "https://dc.lft.to/lastmile_qr_scan"}, "lat": 38.91850766666667, "bike_id": "b3ba2c53744fec497ef676ef4a58815b", "is_disabled": 0, "lon": -77.02295366666667, "is_reserved": 0, "fusion_lat": 0.0, "type": "electric_scooter"}, {"fusion_lon": 0.0, "name": "b194406e4fdc57a3d4670498e306505f", "rental_uris": {"android": "https://dc.lft.to/lastmile_qr_scan", "ios": "https://dc.lft.to/lastmile_qr_scan"}, "lat": 38.894799, "bike_id": "b194406e4fdc57a3d4670498e306505f", "is_disabled": 0, "lon": -77.02204083333334, "is_reserved": 0, "fusion_lat": 0.0, "type": "electric_scooter"}, {"fusion_lon": 0.0, "name": "32d34ace7f69d214cf48154c107af384", "rental_uris": {"android": "https://dc.lft.to/lastmile_qr_scan", "ios": "https://dc.lft.to/lastmile_qr_scan"}, "lat": 38.90080433333333, "bike_id": "32d34ace7f69d214cf48154c107af384", "is_disabled": 0, "lon": -77.04925866666666, "is_reserved": 0, "fusion_lat": 0.0, "type": "electric_scooter"}, {"fusion_lon": 0.0, "name": "dc2559569f034c3a4cb1ad3f2cfa2aa0", "rental_uris": {"android": "https://dc.lft.to/lastmile_qr_scan", "ios": "https://dc.lft.to/lastmile_qr_scan"}, "lat": 38.91561883333333, "bike_id": "dc2559569f034c3a4cb1ad3f2cfa2aa0", "is_disabled": 0, "lon": -77.006809, "is_reserved": 0, "fusion_lat": 0.0, "type": "electric_scooter"}, {"fusion_lon": 0.0, "name": "a21aa8552f36128fbbdb435942f36e6a", "rental_uris": {"android": "https://dc.lft.to/lastmile_qr_scan", "ios": "https://dc.lft.to/lastmile_qr_scan"}, "lat": 38.9065025, "bike_id": "a21aa8552f36128fbbdb435942f36e6a", "is_disabled": 0, "lon": -77.05919983333334, "is_reserved": 0, "fusion_lat": 0.0, "type": "electric_scooter"}, {"fusion_lon": 0.0, "name": "e531c7bfa7797a221748e11bc5fbda92", "rental_uris": {"android": "https://dc.lft.to/lastmile_qr_scan", "ios": "https://dc.lft.to/lastmile_qr_scan"}, "lat": 38.918674, "bike_id": "e531c7bfa7797a221748e11bc5fbda92", "is_disabled": 0, "lon": -77.04832283333333, "is_reserved": 0, "fusion_lat": 0.0, "type": "electric_scooter"}, {"fusion_lon": 0.0, "name": "32bee0916ed4290b789aa8e8f4cc7a58", "rental_uris": {"android": "https://dc.lft.to/lastmile_qr_scan", "ios": "https://dc.lft.to/lastmile_qr_scan"}, "lat": 38.8886825, "bike_id": "32bee0916ed4290b789aa8e8f4cc7a58", "is_disabled": 0, "lon": -77.04002866666667, "is_reserved": 0, "fusion_lat": 0.0, "type": "electric_scooter"}, {"fusion_lon": 0.0, "name": "e209dbf471dfb7d3649ed8d77a2afcad", "rental_uris": {"android": "https://dc.lft.to/lastmile_qr_scan", "ios": "https://dc.lft.to/lastmile_qr_scan"}, "lat": 38.903330833333335, "bike_id": "e209dbf471dfb7d3649ed8d77a2afcad", "is_disabled": 0, "lon": -76.93368883333333, "is_reserved": 0, "fusion_lat": 0.0, "type": "electric_bike"}, {"fusion_lon": 0.0, "name": "975d8a031acbed334a9be6c20f95a53a", "rental_uris": {"android": "https://dc.lft.to/lastmile_qr_scan", "ios": "https://dc.lft.to/lastmile_qr_scan"}, "lat": 38.91177116666667, "bike_id": "975d8a031acbed334a9be6c20f95a53a", "is_disabled": 0, "lon": -77.03855616666667, "is_reserved": 0, "fusion_lat": 0.0, "type": "electric_scooter"}, {"fusion_lon": 0.0, "name": "e89c6e19703e15b8b8964d8531f50732", "rental_uris": {"android": "https://dc.lft.to/lastmile_qr_scan", "ios": "https://dc.lft.to/lastmile_qr_scan"}, "lat": 38.923614666666666, "bike_id": "e89c6e19703e15b8b8964d8531f50732", "is_disabled": 0, "lon": -77.05031266666667, "is_reserved": 0, "fusion_lat": 0.0, "type": "electric_scooter"}, {"fusion_lon": 0.0, "name": "21a16411e284608d123c338581951a1a", "rental_uris": {"android": "https://dc.lft.to/lastmile_qr_scan", "ios": "https://dc.lft.to/lastmile_qr_scan"}, "lat": 38.79334566666667, "bike_id": "21a16411e284608d123c338581951a1a", "is_disabled": 0, "lon": -77.00058716666666, "is_reserved": 0, "fusion_lat": 0.0, "type": "electric_bike"}, {"fusion_lon": 0.0, "name": "678a1fcb437f81d326980141a1b11454", "rental_uris": {"android": "https://dc.lft.to/lastmile_qr_scan", "ios": "https://dc.lft.to/lastmile_qr_scan"}, "lat": 38.93121083333333, "bike_id": "678a1fcb437f81d326980141a1b11454", "is_disabled": 0, "lon": -77.02069566666667, "is_reserved": 0, "fusion_lat": 0.0, "type": "electric_scooter"}, {"fusion_lon": 0.0, "name": "ce31865f0bfc1e63d7362dc4e9f1781c", "rental_uris": {"android": "https://dc.lft.to/lastmile_qr_scan", "ios": "https://dc.lft.to/lastmile_qr_scan"}, "lat": 38.90624116666667, "bike_id": "ce31865f0bfc1e63d7362dc4e9f1781c", "is_disabled": 0, "lon": -77.0414555, "is_reserved": 0, "fusion_lat": 0.0, "type": "electric_scooter"}, {"fusion_lon": 0.0, "name": "5e8e580b10fa3e8e10af73090102d708", "rental_uris": {"android": "https://dc.lft.to/lastmile_qr_scan", "ios": "https://dc.lft.to/lastmile_qr_scan"}, "lat": 38.907293333333335, "bike_id": "5e8e580b10fa3e8e10af73090102d708", "is_disabled": 0, "lon": -77.02987133333333, "is_reserved": 0, "fusion_lat": 0.0, "type": "electric_scooter"}, {"fusion_lon": 0.0, "name": "78bb691b2bc9a9644400bd5b5c40a4e0", "rental_uris": {"android": "https://dc.lft.to/lastmile_qr_scan", "ios": "https://dc.lft.to/lastmile_qr_scan"}, "lat": 38.8917025, "bike_id": "78bb691b2bc9a9644400bd5b5c40a4e0", "is_disabled": 0, "lon": -77.01549583333333, "is_reserved": 0, "fusion_lat": 0.0, "type": "electric_scooter"}, {"fusion_lon": 0.0, "name": "f4f3b11856fc443b89f92bbb22872ed9", "rental_uris": {"android": "https://dc.lft.to/lastmile_qr_scan", "ios": "https://dc.lft.to/lastmile_qr_scan"}, "lat": 38.931134166666666, "bike_id": "f4f3b11856fc443b89f92bbb22872ed9", "is_disabled": 0, "lon": -77.0209475, "is_reserved": 0, "fusion_lat": 0.0, "type": "electric_scooter"}, {"fusion_lon": 0.0, "name": "f55956ddf3a23e4406119d364ff898e3", "rental_uris": {"android": "https://dc.lft.to/lastmile_qr_scan", "ios": "https://dc.lft.to/lastmile_qr_scan"}, "lat": 38.90843816666667, "bike_id": "f55956ddf3a23e4406119d364ff898e3", "is_disabled": 0, "lon": -77.03846766666666, "is_reserved": 0, "fusion_lat": 0.0, "type": "electric_scooter"}, {"fusion_lon": 0.0, "name": "70d6a89a0ebd113c038865b168ee8b2a", "rental_uris": {"android": "https://dc.lft.to/lastmile_qr_scan", "ios": "https://dc.lft.to/lastmile_qr_scan"}, "lat": 38.921273666666664, "bike_id": "70d6a89a0ebd113c038865b168ee8b2a", "is_disabled": 0, "lon": -77.0214235, "is_reserved": 0, "fusion_lat": 0.0, "type": "electric_scooter"}, {"fusion_lon": 0.0, "name": "f1289e61ba5761b284533f4d157db58d", "rental_uris": {"android": "https://dc.lft.to/lastmile_qr_scan", "ios": "https://dc.lft.to/lastmile_qr_scan"}, "lat": 38.90828533333333, "bike_id": "f1289e61ba5761b284533f4d157db58d", "is_disabled": 0, "lon": -76.94158066666667, "is_reserved": 0, "fusion_lat": 0.0, "type": "electric_bike"}, {"fusion_lon": 0.0, "name": "ccb24c801904d1444b80ff83e42a9787", "rental_uris": {"android": "https://dc.lft.to/lastmile_qr_scan", "ios": "https://dc.lft.to/lastmile_qr_scan"}, "lat": 38.92091, "bike_id": "ccb24c801904d1444b80ff83e42a9787", "is_disabled": 0, "lon": -77.02413566666667, "is_reserved": 0, "fusion_lat": 0.0, "type": "electric_scooter"}, {"fusion_lon": 0.0, "name": "3294f8b4f66cc1a3a49a98e88065ac11", "rental_uris": {"android": "https://dc.lft.to/lastmile_qr_scan", "ios": "https://dc.lft.to/lastmile_qr_scan"}, "lat": 38.898383333333335, "bike_id": "3294f8b4f66cc1a3a49a98e88065ac11", "is_disabled": 0, "lon": -77.03324533333333, "is_reserved": 0, "fusion_lat": 0.0, "type": "electric_scooter"}, {"fusion_lon": 0.0, "name": "086b10df5212f375c1d9d07a5c27a817", "rental_uris": {"android": "https://dc.lft.to/lastmile_qr_scan", "ios": "https://dc.lft.to/lastmile_qr_scan"}, "lat": 38.9224125, "bike_id": "086b10df5212f375c1d9d07a5c27a817", "is_disabled": 0, "lon": -77.0285135, "is_reserved": 0, "fusion_lat": 0.0, "type": "electric_scooter"}, {"fusion_lon": 0.0, "name": "532fd06578b434120dd38e4c3aa5c431", "rental_uris": {"android": "https://dc.lft.to/lastmile_qr_scan", "ios": "https://dc.lft.to/lastmile_qr_scan"}, "lat": 38.926414666666666, "bike_id": "532fd06578b434120dd38e4c3aa5c431", "is_disabled": 0, "lon": -77.02505566666666, "is_reserved": 0, "fusion_lat": 0.0, "type": "electric_scooter"}, {"fusion_lon": 0.0, "name": "1314fddbab0bbc3bbd0d54c0cb230e86", "rental_uris": {"android": "https://dc.lft.to/lastmile_qr_scan", "ios": "https://dc.lft.to/lastmile_qr_scan"}, "lat": 38.87712633333334, "bike_id": "1314fddbab0bbc3bbd0d54c0cb230e86", "is_disabled": 0, "lon": -77.01645533333334, "is_reserved": 0, "fusion_lat": 0.0, "type": "electric_scooter"}, {"fusion_lon": 0.0, "name": "063ac22eb4addda928ad68b2c3dc2032", "rental_uris": {"android": "https://dc.lft.to/lastmile_qr_scan", "ios": "https://dc.lft.to/lastmile_qr_scan"}, "lat": 38.91649233333333, "bike_id": "063ac22eb4addda928ad68b2c3dc2032", "is_disabled": 0, "lon": -77.0295665, "is_reserved": 0, "fusion_lat": 0.0, "type": "electric_scooter"}, {"fusion_lon": 0.0, "name": "1580af56bcd6eece9158131e576cd595", "rental_uris": {"android": "https://dc.lft.to/lastmile_qr_scan", "ios": "https://dc.lft.to/lastmile_qr_scan"}, "lat": 38.94732233333333, "bike_id": "1580af56bcd6eece9158131e576cd595", "is_disabled": 0, "lon": -77.0654545, "is_reserved": 0, "fusion_lat": 0.0, "type": "electric_scooter"}, {"fusion_lon": 0.0, "name": "08387b11efb422c6fe0bddd36ba28c97", "rental_uris": {"android": "https://dc.lft.to/lastmile_qr_scan", "ios": "https://dc.lft.to/lastmile_qr_scan"}, "lat": 38.928582, "bike_id": "08387b11efb422c6fe0bddd36ba28c97", "is_disabled": 0, "lon": -77.028758, "is_reserved": 0, "fusion_lat": 0.0, "type": "electric_scooter"}, {"fusion_lon": 0.0, "name": "3e8738d1fcb04518e26d080aea31c696", "rental_uris": {"android": "https://dc.lft.to/lastmile_qr_scan", "ios": "https://dc.lft.to/lastmile_qr_scan"}, "lat": 38.915397166666665, "bike_id": "3e8738d1fcb04518e26d080aea31c696", "is_disabled": 0, "lon": -77.04473116666666, "is_reserved": 0, "fusion_lat": 0.0, "type": "electric_scooter"}, {"fusion_lon": 0.0, "name": "b7bb64ab5222b0caf7893543b3b50aae", "rental_uris": {"android": "https://dc.lft.to/lastmile_qr_scan", "ios": "https://dc.lft.to/lastmile_qr_scan"}, "lat": 38.9296655, "bike_id": "b7bb64ab5222b0caf7893543b3b50aae", "is_disabled": 0, "lon": -77.04203883333334, "is_reserved": 0, "fusion_lat": 0.0, "type": "electric_scooter"}, {"fusion_lon": 0.0, "name": "f3f73718713f2c5e2b563ccd1b48fbe1", "rental_uris": {"android": "https://dc.lft.to/lastmile_qr_scan", "ios": "https://dc.lft.to/lastmile_qr_scan"}, "lat": 38.93037183333333, "bike_id": "f3f73718713f2c5e2b563ccd1b48fbe1", "is_disabled": 0, "lon": -77.0295905, "is_reserved": 0, "fusion_lat": 0.0, "type": "electric_scooter"}, {"fusion_lon": 0.0, "name": "b88a461546c51be4a37a7029d9c43cea", "rental_uris": {"android": "https://dc.lft.to/lastmile_qr_scan", "ios": "https://dc.lft.to/lastmile_qr_scan"}, "lat": 38.900152, "bike_id": "b88a461546c51be4a37a7029d9c43cea", "is_disabled": 0, "lon": -77.04093416666667, "is_reserved": 0, "fusion_lat": 0.0, "type": "electric_scooter"}, {"fusion_lon": 0.0, "name": "a0371f557975ae2b6d082b5edabd01d7", "rental_uris": {"android": "https://dc.lft.to/lastmile_qr_scan", "ios": "https://dc.lft.to/lastmile_qr_scan"}, "lat": 38.926547, "bike_id": "a0371f557975ae2b6d082b5edabd01d7", "is_disabled": 0, "lon": -77.04271183333333, "is_reserved": 0, "fusion_lat": 0.0, "type": "electric_scooter"}, {"fusion_lon": 0.0, "name": "d24dad2d13208b987df7251153a03fd8", "rental_uris": {"android": "https://dc.lft.to/lastmile_qr_scan", "ios": "https://dc.lft.to/lastmile_qr_scan"}, "lat": 38.926229666666664, "bike_id": "d24dad2d13208b987df7251153a03fd8", "is_disabled": 0, "lon": -77.02233133333333, "is_reserved": 0, "fusion_lat": 0.0, "type": "electric_scooter"}, {"fusion_lon": 0.0, "name": "24e99268f2576cf97581a099f43488a4", "rental_uris": {"android": "https://dc.lft.to/lastmile_qr_scan", "ios": "https://dc.lft.to/lastmile_qr_scan"}, "lat": 38.996716, "bike_id": "24e99268f2576cf97581a099f43488a4", "is_disabled": 0, "lon": -77.03810166666666, "is_reserved": 0, "fusion_lat": 0.0, "type": "electric_bike"}, {"fusion_lon": 0.0, "name": "37dcc04020801571e1f4d147f1675f0d", "rental_uris": {"android": "https://dc.lft.to/lastmile_qr_scan", "ios": "https://dc.lft.to/lastmile_qr_scan"}, "lat": 38.918024833333334, "bike_id": "37dcc04020801571e1f4d147f1675f0d", "is_disabled": 0, "lon": -77.0344895, "is_reserved": 0, "fusion_lat": 0.0, "type": "electric_scooter"}, {"fusion_lon": 0.0, "name": "c87b33a8b699b690b53773e76517c512", "rental_uris": {"android": "https://dc.lft.to/lastmile_qr_scan", "ios": "https://dc.lft.to/lastmile_qr_scan"}, "lat": 38.921787333333334, "bike_id": "c87b33a8b699b690b53773e76517c512", "is_disabled": 0, "lon": -77.0422395, "is_reserved": 0, "fusion_lat": 0.0, "type": "electric_scooter"}, {"fusion_lon": 0.0, "name": "1e77e16c5ee542445a29263e293d232a", "rental_uris": {"android": "https://dc.lft.to/lastmile_qr_scan", "ios": "https://dc.lft.to/lastmile_qr_scan"}, "lat": 38.91843466666667, "bike_id": "1e77e16c5ee542445a29263e293d232a", "is_disabled": 0, "lon": -77.03857883333333, "is_reserved": 0, "fusion_lat": 0.0, "type": "electric_scooter"}, {"fusion_lon": 0.0, "name": "5438549969a52505ba50ce663a8595d1", "rental_uris": {"android": "https://dc.lft.to/lastmile_qr_scan", "ios": "https://dc.lft.to/lastmile_qr_scan"}, "lat": 38.96916516666667, "bike_id": "5438549969a52505ba50ce663a8595d1", "is_disabled": 0, "lon": -76.99491566666667, "is_reserved": 0, "fusion_lat": 0.0, "type": "electric_bike"}, {"fusion_lon": 0.0, "name": "f1df647ab6a9ccfea49dedacdb67546a", "rental_uris": {"android": "https://dc.lft.to/lastmile_qr_scan", "ios": "https://dc.lft.to/lastmile_qr_scan"}, "lat": 38.903873833333336, "bike_id": "f1df647ab6a9ccfea49dedacdb67546a", "is_disabled": 0, "lon": -77.03202316666666, "is_reserved": 0, "fusion_lat": 0.0, "type": "electric_scooter"}, {"fusion_lon": 0.0, "name": "74fe809a2ccf9491feade5f834c7ea60", "rental_uris": {"android": "https://dc.lft.to/lastmile_qr_scan", "ios": "https://dc.lft.to/lastmile_qr_scan"}, "lat": 38.88809833333333, "bike_id": "74fe809a2ccf9491feade5f834c7ea60", "is_disabled": 0, "lon": -76.939677, "is_reserved": 0, "fusion_lat": 0.0, "type": "electric_scooter"}, {"fusion_lon": 0.0, "name": "8a879c96099760922a6834990de70386", "rental_uris": {"android": "https://dc.lft.to/lastmile_qr_scan", "ios": "https://dc.lft.to/lastmile_qr_scan"}, "lat": 38.918745666666666, "bike_id": "8a879c96099760922a6834990de70386", "is_disabled": 0, "lon": -77.03502783333333, "is_reserved": 0, "fusion_lat": 0.0, "type": "electric_scooter"}, {"fusion_lon": 0.0, "name": "27ab1edef1077c0c604dd2510f262d26", "rental_uris": {"android": "https://dc.lft.to/lastmile_qr_scan", "ios": "https://dc.lft.to/lastmile_qr_scan"}, "lat": 38.92450566666667, "bike_id": "27ab1edef1077c0c604dd2510f262d26", "is_disabled": 0, "lon": -77.021553, "is_reserved": 0, "fusion_lat": 0.0, "type": "electric_scooter"}, {"fusion_lon": 0.0, "name": "24642584c7f2930e01809d7b12d0964a", "rental_uris": {"android": "https://dc.lft.to/lastmile_qr_scan", "ios": "https://dc.lft.to/lastmile_qr_scan"}, "lat": 38.92110916666667, "bike_id": "24642584c7f2930e01809d7b12d0964a", "is_disabled": 0, "lon": -77.04683833333333, "is_reserved": 0, "fusion_lat": 0.0, "type": "electric_scooter"}, {"fusion_lon": 0.0, "name": "d6e03e476410a7ce9f2a31b6334ee989", "rental_uris": {"android": "https://dc.lft.to/lastmile_qr_scan", "ios": "https://dc.lft.to/lastmile_qr_scan"}, "lat": 38.9136125, "bike_id": "d6e03e476410a7ce9f2a31b6334ee989", "is_disabled": 0, "lon": -77.0199785, "is_reserved": 0, "fusion_lat": 0.0, "type": "electric_scooter"}, {"fusion_lon": 0.0, "name": "8d6964ad936460aaee2e2173cc4c0fb7", "rental_uris": {"android": "https://dc.lft.to/lastmile_qr_scan", "ios": "https://dc.lft.to/lastmile_qr_scan"}, "lat": 38.87854016666667, "bike_id": "8d6964ad936460aaee2e2173cc4c0fb7", "is_disabled": 0, "lon": -77.004896, "is_reserved": 0, "fusion_lat": 0.0, "type": "electric_scooter"}, {"fusion_lon": 0.0, "name": "b178bf0074dcd3cda381bdb2ce2d5e98", "rental_uris": {"android": "https://dc.lft.to/lastmile_qr_scan", "ios": "https://dc.lft.to/lastmile_qr_scan"}, "lat": 38.9247205, "bike_id": "b178bf0074dcd3cda381bdb2ce2d5e98", "is_disabled": 0, "lon": -77.02205283333333, "is_reserved": 0, "fusion_lat": 0.0, "type": "electric_scooter"}, {"fusion_lon": 0.0, "name": "2ae1c010464d4b38f4b08f32c70de22f", "rental_uris": {"android": "https://dc.lft.to/lastmile_qr_scan", "ios": "https://dc.lft.to/lastmile_qr_scan"}, "lat": 38.8972495, "bike_id": "2ae1c010464d4b38f4b08f32c70de22f", "is_disabled": 0, "lon": -77.032122, "is_reserved": 0, "fusion_lat": 0.0, "type": "electric_scooter"}, {"fusion_lon": 0.0, "name": "1b5badf5f18d91f30bd14ca24669e55d", "rental_uris": {"android": "https://dc.lft.to/lastmile_qr_scan", "ios": "https://dc.lft.to/lastmile_qr_scan"}, "lat": 38.900774, "bike_id": "1b5badf5f18d91f30bd14ca24669e55d", "is_disabled": 0, "lon": -76.98838716666667, "is_reserved": 0, "fusion_lat": 0.0, "type": "electric_scooter"}, {"fusion_lon": 0.0, "name": "ce360845083db83b5918a4f65f7ff78d", "rental_uris": {"android": "https://dc.lft.to/lastmile_qr_scan", "ios": "https://dc.lft.to/lastmile_qr_scan"}, "lat": 38.9055035, "bike_id": "ce360845083db83b5918a4f65f7ff78d", "is_disabled": 0, "lon": -77.02604583333333, "is_reserved": 0, "fusion_lat": 0.0, "type": "electric_scooter"}, {"fusion_lon": 0.0, "name": "d20c304b88fe0a3b7cf3ce9564fea263", "rental_uris": {"android": "https://dc.lft.to/lastmile_qr_scan", "ios": "https://dc.lft.to/lastmile_qr_scan"}, "lat": 38.876455166666666, "bike_id": "d20c304b88fe0a3b7cf3ce9564fea263", "is_disabled": 0, "lon": -77.01570283333334, "is_reserved": 0, "fusion_lat": 0.0, "type": "electric_scooter"}, {"fusion_lon": 0.0, "name": "e5064b5190d7a3f58e0b2454a6a62cc5", "rental_uris": {"android": "https://dc.lft.to/lastmile_qr_scan", "ios": "https://dc.lft.to/lastmile_qr_scan"}, "lat": 38.90133183333333, "bike_id": "e5064b5190d7a3f58e0b2454a6a62cc5", "is_disabled": 0, "lon": -77.04539333333334, "is_reserved": 0, "fusion_lat": 0.0, "type": "electric_scooter"}, {"fusion_lon": 0.0, "name": "95f8a6b8d5bfd8ecb4532aecd29d070f", "rental_uris": {"android": "https://dc.lft.to/lastmile_qr_scan", "ios": "https://dc.lft.to/lastmile_qr_scan"}, "lat": 38.90908, "bike_id": "95f8a6b8d5bfd8ecb4532aecd29d070f", "is_disabled": 0, "lon": -77.0726475, "is_reserved": 0, "fusion_lat": 0.0, "type": "electric_scooter"}, {"fusion_lon": 0.0, "name": "a1ee00ae6257e93f0fa5a6fdd574c621", "rental_uris": {"android": "https://dc.lft.to/lastmile_qr_scan", "ios": "https://dc.lft.to/lastmile_qr_scan"}, "lat": 38.89412466666667, "bike_id": "a1ee00ae6257e93f0fa5a6fdd574c621", "is_disabled": 0, "lon": -76.97890583333333, "is_reserved": 0, "fusion_lat": 0.0, "type": "electric_bike"}, {"fusion_lon": 0.0, "name": "a1691a548dacb91475381891c749cb27", "rental_uris": {"android": "https://dc.lft.to/lastmile_qr_scan", "ios": "https://dc.lft.to/lastmile_qr_scan"}, "lat": 38.935986, "bike_id": "a1691a548dacb91475381891c749cb27", "is_disabled": 0, "lon": -77.02116783333334, "is_reserved": 0, "fusion_lat": 0.0, "type": "electric_bike"}, {"fusion_lon": 0.0, "name": "b0668aca044e2aadd2cea072bd84df91", "rental_uris": {"android": "https://dc.lft.to/lastmile_qr_scan", "ios": "https://dc.lft.to/lastmile_qr_scan"}, "lat": 38.9309945, "bike_id": "b0668aca044e2aadd2cea072bd84df91", "is_disabled": 0, "lon": -77.0248165, "is_reserved": 0, "fusion_lat": 0.0, "type": "electric_scooter"}, {"fusion_lon": 0.0, "name": "706c9756fbfa410846ca31e47dbc12c7", "rental_uris": {"android": "https://dc.lft.to/lastmile_qr_scan", "ios": "https://dc.lft.to/lastmile_qr_scan"}, "lat": 38.91005216666667, "bike_id": "706c9756fbfa410846ca31e47dbc12c7", "is_disabled": 0, "lon": -77.031974, "is_reserved": 0, "fusion_lat": 0.0, "type": "electric_scooter"}, {"fusion_lon": 0.0, "name": "51991a6887a35ee62c6c6c5dd5d9a215", "rental_uris": {"android": "https://dc.lft.to/lastmile_qr_scan", "ios": "https://dc.lft.to/lastmile_qr_scan"}, "lat": 38.91117366666667, "bike_id": "51991a6887a35ee62c6c6c5dd5d9a215", "is_disabled": 0, "lon": -77.03839, "is_reserved": 0, "fusion_lat": 0.0, "type": "electric_scooter"}, {"fusion_lon": 0.0, "name": "efdbd91efc92531a86fc0064a2732f3d", "rental_uris": {"android": "https://dc.lft.to/lastmile_qr_scan", "ios": "https://dc.lft.to/lastmile_qr_scan"}, "lat": 38.915068833333336, "bike_id": "efdbd91efc92531a86fc0064a2732f3d", "is_disabled": 0, "lon": -77.03205866666667, "is_reserved": 0, "fusion_lat": 0.0, "type": "electric_scooter"}, {"fusion_lon": 0.0, "name": "fac2bc99374b2529d12a922d67d6c02a", "rental_uris": {"android": "https://dc.lft.to/lastmile_qr_scan", "ios": "https://dc.lft.to/lastmile_qr_scan"}, "lat": 38.882833833333336, "bike_id": "fac2bc99374b2529d12a922d67d6c02a", "is_disabled": 0, "lon": -76.93237833333333, "is_reserved": 0, "fusion_lat": 0.0, "type": "electric_bike"}, {"fusion_lon": 0.0, "name": "f1953944ff7ec1ac277829766b543e4b", "rental_uris": {"android": "https://dc.lft.to/lastmile_qr_scan", "ios": "https://dc.lft.to/lastmile_qr_scan"}, "lat": 38.892322, "bike_id": "f1953944ff7ec1ac277829766b543e4b", "is_disabled": 0, "lon": -77.0337425, "is_reserved": 0, "fusion_lat": 0.0, "type": "electric_scooter"}, {"fusion_lon": 0.0, "name": "6c4ad29940e396b67878b578ebfccc9c", "rental_uris": {"android": "https://dc.lft.to/lastmile_qr_scan", "ios": "https://dc.lft.to/lastmile_qr_scan"}, "lat": 38.9140075, "bike_id": "6c4ad29940e396b67878b578ebfccc9c", "is_disabled": 0, "lon": -77.02207233333333, "is_reserved": 0, "fusion_lat": 0.0, "type": "electric_scooter"}, {"fusion_lon": 0.0, "name": "dbd563617adc4fc1126086016bfbbb24", "rental_uris": {"android": "https://dc.lft.to/lastmile_qr_scan", "ios": "https://dc.lft.to/lastmile_qr_scan"}, "lat": 38.89697833333334, "bike_id": "dbd563617adc4fc1126086016bfbbb24", "is_disabled": 0, "lon": -77.04338466666667, "is_reserved": 0, "fusion_lat": 0.0, "type": "electric_scooter"}, {"fusion_lon": 0.0, "name": "dcd26ec60ebba35f7973ebdbead0b4bc", "rental_uris": {"android": "https://dc.lft.to/lastmile_qr_scan", "ios": "https://dc.lft.to/lastmile_qr_scan"}, "lat": 38.9285535, "bike_id": "dcd26ec60ebba35f7973ebdbead0b4bc", "is_disabled": 0, "lon": -77.03357683333333, "is_reserved": 0, "fusion_lat": 0.0, "type": "electric_scooter"}, {"fusion_lon": 0.0, "name": "df10f47d70b9ee7a7e57ba8a8aa26d3b", "rental_uris": {"android": "https://dc.lft.to/lastmile_qr_scan", "ios": "https://dc.lft.to/lastmile_qr_scan"}, "lat": 38.89625783333334, "bike_id": "df10f47d70b9ee7a7e57ba8a8aa26d3b", "is_disabled": 0, "lon": -77.02377683333333, "is_reserved": 0, "fusion_lat": 0.0, "type": "electric_scooter"}, {"fusion_lon": 0.0, "name": "9c38c54289584ae6c00b504e984842fb", "rental_uris": {"android": "https://dc.lft.to/lastmile_qr_scan", "ios": "https://dc.lft.to/lastmile_qr_scan"}, "lat": 38.937732, "bike_id": "9c38c54289584ae6c00b504e984842fb", "is_disabled": 0, "lon": -77.02455866666666, "is_reserved": 0, "fusion_lat": 0.0, "type": "electric_scooter"}, {"fusion_lon": 0.0, "name": "8774c2292a59ecaa27a84de3d8dec484", "rental_uris": {"android": "https://dc.lft.to/lastmile_qr_scan", "ios": "https://dc.lft.to/lastmile_qr_scan"}, "lat": 38.899828666666664, "bike_id": "8774c2292a59ecaa27a84de3d8dec484", "is_disabled": 0, "lon": -77.04191433333334, "is_reserved": 0, "fusion_lat": 0.0, "type": "electric_scooter"}, {"fusion_lon": 0.0, "name": "92083efe6b47d344007bdca1e16a6c2d", "rental_uris": {"android": "https://dc.lft.to/lastmile_qr_scan", "ios": "https://dc.lft.to/lastmile_qr_scan"}, "lat": 38.881386, "bike_id": "92083efe6b47d344007bdca1e16a6c2d", "is_disabled": 0, "lon": -77.0223285, "is_reserved": 0, "fusion_lat": 0.0, "type": "electric_scooter"}, {"fusion_lon": 0.0, "name": "4a0010306b06d8597d6891c2a6347aaf", "rental_uris": {"android": "https://dc.lft.to/lastmile_qr_scan", "ios": "https://dc.lft.to/lastmile_qr_scan"}, "lat": 38.90217466666667, "bike_id": "4a0010306b06d8597d6891c2a6347aaf", "is_disabled": 0, "lon": -77.02366466666666, "is_reserved": 0, "fusion_lat": 0.0, "type": "electric_scooter"}, {"fusion_lon": 0.0, "name": "62e393e8eb9cb28c5dc2f0ce758ae9ce", "rental_uris": {"android": "https://dc.lft.to/lastmile_qr_scan", "ios": "https://dc.lft.to/lastmile_qr_scan"}, "lat": 38.892144, "bike_id": "62e393e8eb9cb28c5dc2f0ce758ae9ce", "is_disabled": 0, "lon": -76.99570866666667, "is_reserved": 0, "fusion_lat": 0.0, "type": "electric_scooter"}, {"fusion_lon": 0.0, "name": "dc27bfbae6526f7955cf7a1daee6dabe", "rental_uris": {"android": "https://dc.lft.to/lastmile_qr_scan", "ios": "https://dc.lft.to/lastmile_qr_scan"}, "lat": 38.8464405, "bike_id": "dc27bfbae6526f7955cf7a1daee6dabe", "is_disabled": 0, "lon": -76.9707315, "is_reserved": 0, "fusion_lat": 0.0, "type": "electric_bike"}, {"fusion_lon": 0.0, "name": "3a7e94847a3ab7cd96bf61ea75423167", "rental_uris": {"android": "https://dc.lft.to/lastmile_qr_scan", "ios": "https://dc.lft.to/lastmile_qr_scan"}, "lat": 38.90827266666667, "bike_id": "3a7e94847a3ab7cd96bf61ea75423167", "is_disabled": 0, "lon": -77.03498833333333, "is_reserved": 0, "fusion_lat": 0.0, "type": "electric_scooter"}, {"fusion_lon": 0.0, "name": "771206624f8e0e31f8cf5b94c0d064cf", "rental_uris": {"android": "https://dc.lft.to/lastmile_qr_scan", "ios": "https://dc.lft.to/lastmile_qr_scan"}, "lat": 38.879117, "bike_id": "771206624f8e0e31f8cf5b94c0d064cf", "is_disabled": 0, "lon": -77.00990583333333, "is_reserved": 0, "fusion_lat": 0.0, "type": "electric_scooter"}, {"fusion_lon": 0.0, "name": "798a723b4c14235106c15e30e9041437", "rental_uris": {"android": "https://dc.lft.to/lastmile_qr_scan", "ios": "https://dc.lft.to/lastmile_qr_scan"}, "lat": 38.93061266666667, "bike_id": "798a723b4c14235106c15e30e9041437", "is_disabled": 0, "lon": -77.0278935, "is_reserved": 0, "fusion_lat": 0.0, "type": "electric_scooter"}, {"fusion_lon": 0.0, "name": "cc6df63ecf07f02f2867e4b9d205fa51", "rental_uris": {"android": "https://dc.lft.to/lastmile_qr_scan", "ios": "https://dc.lft.to/lastmile_qr_scan"}, "lat": 38.92263466666667, "bike_id": "cc6df63ecf07f02f2867e4b9d205fa51", "is_disabled": 0, "lon": -77.03070083333333, "is_reserved": 0, "fusion_lat": 0.0, "type": "electric_scooter"}, {"fusion_lon": 0.0, "name": "1f3740a66103042536fcb6537539e107", "rental_uris": {"android": "https://dc.lft.to/lastmile_qr_scan", "ios": "https://dc.lft.to/lastmile_qr_scan"}, "lat": 38.913635666666664, "bike_id": "1f3740a66103042536fcb6537539e107", "is_disabled": 0, "lon": -77.0919495, "is_reserved": 0, "fusion_lat": 0.0, "type": "electric_scooter"}, {"fusion_lon": 0.0, "name": "e2cd85942f2134654c15bf09ad0404b7", "rental_uris": {"android": "https://dc.lft.to/lastmile_qr_scan", "ios": "https://dc.lft.to/lastmile_qr_scan"}, "lat": 38.907302, "bike_id": "e2cd85942f2134654c15bf09ad0404b7", "is_disabled": 0, "lon": -77.02800083333334, "is_reserved": 0, "fusion_lat": 0.0, "type": "electric_scooter"}, {"fusion_lon": 0.0, "name": "47345b10864c5575540c8da5cf2a0aa7", "rental_uris": {"android": "https://dc.lft.to/lastmile_qr_scan", "ios": "https://dc.lft.to/lastmile_qr_scan"}, "lat": 38.9224825, "bike_id": "47345b10864c5575540c8da5cf2a0aa7", "is_disabled": 0, "lon": -77.03082433333333, "is_reserved": 0, "fusion_lat": 0.0, "type": "electric_scooter"}, {"fusion_lon": 0.0, "name": "8470b83013029aa99d06f8b940f1d49f", "rental_uris": {"android": "https://dc.lft.to/lastmile_qr_scan", "ios": "https://dc.lft.to/lastmile_qr_scan"}, "lat": 38.9003655, "bike_id": "8470b83013029aa99d06f8b940f1d49f", "is_disabled": 0, "lon": -76.9884125, "is_reserved": 0, "fusion_lat": 0.0, "type": "electric_scooter"}, {"fusion_lon": 0.0, "name": "28fb7dac4726989e5ba72f60eeaa11f7", "rental_uris": {"android": "https://dc.lft.to/lastmile_qr_scan", "ios": "https://dc.lft.to/lastmile_qr_scan"}, "lat": 38.901796, "bike_id": "28fb7dac4726989e5ba72f60eeaa11f7", "is_disabled": 0, "lon": -77.0239935, "is_reserved": 0, "fusion_lat": 0.0, "type": "electric_scooter"}, {"fusion_lon": 0.0, "name": "b35c0a401439844a410f81cb23afc886", "rental_uris": {"android": "https://dc.lft.to/lastmile_qr_scan", "ios": "https://dc.lft.to/lastmile_qr_scan"}, "lat": 38.964004833333334, "bike_id": "b35c0a401439844a410f81cb23afc886", "is_disabled": 0, "lon": -77.02771983333334, "is_reserved": 0, "fusion_lat": 0.0, "type": "electric_scooter"}, {"fusion_lon": 0.0, "name": "7173855f8a6a78069e7f68fa0c9f6877", "rental_uris": {"android": "https://dc.lft.to/lastmile_qr_scan", "ios": "https://dc.lft.to/lastmile_qr_scan"}, "lat": 38.8988775, "bike_id": "7173855f8a6a78069e7f68fa0c9f6877", "is_disabled": 0, "lon": -77.03283066666667, "is_reserved": 0, "fusion_lat": 0.0, "type": "electric_scooter"}, {"fusion_lon": 0.0, "name": "c3c06ad8a164e7f546331b498abae4b6", "rental_uris": {"android": "https://dc.lft.to/lastmile_qr_scan", "ios": "https://dc.lft.to/lastmile_qr_scan"}, "lat": 38.91657383333333, "bike_id": "c3c06ad8a164e7f546331b498abae4b6", "is_disabled": 0, "lon": -77.04639516666667, "is_reserved": 0, "fusion_lat": 0.0, "type": "electric_scooter"}, {"fusion_lon": 0.0, "name": "baa4e8dc968e627ed15301bab98c3e7f", "rental_uris": {"android": "https://dc.lft.to/lastmile_qr_scan", "ios": "https://dc.lft.to/lastmile_qr_scan"}, "lat": 38.903697, "bike_id": "baa4e8dc968e627ed15301bab98c3e7f", "is_disabled": 0, "lon": -77.01768183333333, "is_reserved": 0, "fusion_lat": 0.0, "type": "electric_scooter"}, {"fusion_lon": 0.0, "name": "90c02a7c4744f97384aeba934b510cf1", "rental_uris": {"android": "https://dc.lft.to/lastmile_qr_scan", "ios": "https://dc.lft.to/lastmile_qr_scan"}, "lat": 38.84055266666667, "bike_id": "90c02a7c4744f97384aeba934b510cf1", "is_disabled": 0, "lon": -76.9766775, "is_reserved": 0, "fusion_lat": 0.0, "type": "electric_scooter"}, {"fusion_lon": 0.0, "name": "2e754d579b36ce119f4709878fb431ea", "rental_uris": {"android": "https://dc.lft.to/lastmile_qr_scan", "ios": "https://dc.lft.to/lastmile_qr_scan"}, "lat": 38.91703616666667, "bike_id": "2e754d579b36ce119f4709878fb431ea", "is_disabled": 0, "lon": -77.04225516666666, "is_reserved": 0, "fusion_lat": 0.0, "type": "electric_scooter"}, {"fusion_lon": 0.0, "name": "25fbab6e82ecd369f48c94dfe1623551", "rental_uris": {"android": "https://dc.lft.to/lastmile_qr_scan", "ios": "https://dc.lft.to/lastmile_qr_scan"}, "lat": 38.80686816666667, "bike_id": "25fbab6e82ecd369f48c94dfe1623551", "is_disabled": 0, "lon": -77.13389583333333, "is_reserved": 0, "fusion_lat": 0.0, "type": "electric_bike"}, {"fusion_lon": 0.0, "name": "8d5b54759d228532ac48ccabdb7ef7a6", "rental_uris": {"android": "https://dc.lft.to/lastmile_qr_scan", "ios": "https://dc.lft.to/lastmile_qr_scan"}, "lat": 38.89618166666666, "bike_id": "8d5b54759d228532ac48ccabdb7ef7a6", "is_disabled": 0, "lon": -76.90756916666666, "is_reserved": 0, "fusion_lat": 0.0, "type": "electric_bike"}, {"fusion_lon": 0.0, "name": "af4221adb059766ea939934ec301913d", "rental_uris": {"android": "https://dc.lft.to/lastmile_qr_scan", "ios": "https://dc.lft.to/lastmile_qr_scan"}, "lat": 38.90024233333333, "bike_id": "af4221adb059766ea939934ec301913d", "is_disabled": 0, "lon": -76.998608, "is_reserved": 0, "fusion_lat": 0.0, "type": "electric_scooter"}, {"fusion_lon": 0.0, "name": "bfa977583078b65d0a29ee9e29ce9977", "rental_uris": {"android": "https://dc.lft.to/lastmile_qr_scan", "ios": "https://dc.lft.to/lastmile_qr_scan"}, "lat": 38.914549666666666, "bike_id": "bfa977583078b65d0a29ee9e29ce9977", "is_disabled": 0, "lon": -77.04171366666667, "is_reserved": 0, "fusion_lat": 0.0, "type": "electric_scooter"}, {"fusion_lon": 0.0, "name": "4ba2b5561559440da9f8d73dfc5a0f6f", "rental_uris": {"android": "https://dc.lft.to/lastmile_qr_scan", "ios": "https://dc.lft.to/lastmile_qr_scan"}, "lat": 38.908677833333336, "bike_id": "4ba2b5561559440da9f8d73dfc5a0f6f", "is_disabled": 0, "lon": -77.08594633333334, "is_reserved": 0, "fusion_lat": 0.0, "type": "electric_scooter"}, {"fusion_lon": 0.0, "name": "f90a23c6d7c09498f8e16b081d12fe0a", "rental_uris": {"android": "https://dc.lft.to/lastmile_qr_scan", "ios": "https://dc.lft.to/lastmile_qr_scan"}, "lat": 38.92031866666667, "bike_id": "f90a23c6d7c09498f8e16b081d12fe0a", "is_disabled": 0, "lon": -77.01121616666667, "is_reserved": 0, "fusion_lat": 0.0, "type": "electric_scooter"}, {"fusion_lon": 0.0, "name": "a6084b132e3e73486f388f5d60c914d4", "rental_uris": {"android": "https://dc.lft.to/lastmile_qr_scan", "ios": "https://dc.lft.to/lastmile_qr_scan"}, "lat": 38.9246325, "bike_id": "a6084b132e3e73486f388f5d60c914d4", "is_disabled": 0, "lon": -77.02260833333334, "is_reserved": 0, "fusion_lat": 0.0, "type": "electric_scooter"}, {"fusion_lon": 0.0, "name": "180137d2a52e2cafe32705d90452e475", "rental_uris": {"android": "https://dc.lft.to/lastmile_qr_scan", "ios": "https://dc.lft.to/lastmile_qr_scan"}, "lat": 38.9007505, "bike_id": "180137d2a52e2cafe32705d90452e475", "is_disabled": 0, "lon": -77.04469216666666, "is_reserved": 0, "fusion_lat": 0.0, "type": "electric_scooter"}, {"fusion_lon": 0.0, "name": "d8302423a567bbcdac5194b159e9a201", "rental_uris": {"android": "https://dc.lft.to/lastmile_qr_scan", "ios": "https://dc.lft.to/lastmile_qr_scan"}, "lat": 38.90320083333334, "bike_id": "d8302423a567bbcdac5194b159e9a201", "is_disabled": 0, "lon": -76.98152566666667, "is_reserved": 0, "fusion_lat": 0.0, "type": "electric_scooter"}, {"fusion_lon": 0.0, "name": "db7150868401c8905b62e8a2d84ece90", "rental_uris": {"android": "https://dc.lft.to/lastmile_qr_scan", "ios": "https://dc.lft.to/lastmile_qr_scan"}, "lat": 38.913394833333335, "bike_id": "db7150868401c8905b62e8a2d84ece90", "is_disabled": 0, "lon": -77.00224016666667, "is_reserved": 0, "fusion_lat": 0.0, "type": "electric_scooter"}, {"fusion_lon": 0.0, "name": "ee4b4c54f82d89d082313497a902ef3c", "rental_uris": {"android": "https://dc.lft.to/lastmile_qr_scan", "ios": "https://dc.lft.to/lastmile_qr_scan"}, "lat": 38.91688633333333, "bike_id": "ee4b4c54f82d89d082313497a902ef3c", "is_disabled": 0, "lon": -77.01592383333333, "is_reserved": 0, "fusion_lat": 0.0, "type": "electric_scooter"}, {"fusion_lon": 0.0, "name": "bc93d1f1d3fa85bca03434e57b5d7e6e", "rental_uris": {"android": "https://dc.lft.to/lastmile_qr_scan", "ios": "https://dc.lft.to/lastmile_qr_scan"}, "lat": 38.8954465, "bike_id": "bc93d1f1d3fa85bca03434e57b5d7e6e", "is_disabled": 0, "lon": -77.01108933333333, "is_reserved": 0, "fusion_lat": 0.0, "type": "electric_scooter"}, {"fusion_lon": 0.0, "name": "4022c1e712c878c49238007908101599", "rental_uris": {"android": "https://dc.lft.to/lastmile_qr_scan", "ios": "https://dc.lft.to/lastmile_qr_scan"}, "lat": 38.88038183333333, "bike_id": "4022c1e712c878c49238007908101599", "is_disabled": 0, "lon": -77.00369533333334, "is_reserved": 0, "fusion_lat": 0.0, "type": "electric_scooter"}, {"fusion_lon": 0.0, "name": "b2704f5416615bc6cdea73d9789d7daf", "rental_uris": {"android": "https://dc.lft.to/lastmile_qr_scan", "ios": "https://dc.lft.to/lastmile_qr_scan"}, "lat": 38.936334, "bike_id": "b2704f5416615bc6cdea73d9789d7daf", "is_disabled": 0, "lon": -77.03261766666667, "is_reserved": 0, "fusion_lat": 0.0, "type": "electric_scooter"}, {"fusion_lon": 0.0, "name": "329839d7f1a75282f0a015fb0455c5f5", "rental_uris": {"android": "https://dc.lft.to/lastmile_qr_scan", "ios": "https://dc.lft.to/lastmile_qr_scan"}, "lat": 38.895437333333334, "bike_id": "329839d7f1a75282f0a015fb0455c5f5", "is_disabled": 0, "lon": -76.98337183333334, "is_reserved": 0, "fusion_lat": 0.0, "type": "electric_scooter"}, {"fusion_lon": 0.0, "name": "ab97a0955eb12bae796e5a702a77ce9e", "rental_uris": {"android": "https://dc.lft.to/lastmile_qr_scan", "ios": "https://dc.lft.to/lastmile_qr_scan"}, "lat": 38.90251883333333, "bike_id": "ab97a0955eb12bae796e5a702a77ce9e", "is_disabled": 0, "lon": -77.01739433333333, "is_reserved": 0, "fusion_lat": 0.0, "type": "electric_scooter"}, {"fusion_lon": 0.0, "name": "97beb73313d2d0990063742ba7b3f09d", "rental_uris": {"android": "https://dc.lft.to/lastmile_qr_scan", "ios": "https://dc.lft.to/lastmile_qr_scan"}, "lat": 38.907695333333336, "bike_id": "97beb73313d2d0990063742ba7b3f09d", "is_disabled": 0, "lon": -77.0597775, "is_reserved": 0, "fusion_lat": 0.0, "type": "electric_scooter"}, {"fusion_lon": 0.0, "name": "f4a4dc6688e7263ca19aa814f6ee193e", "rental_uris": {"android": "https://dc.lft.to/lastmile_qr_scan", "ios": "https://dc.lft.to/lastmile_qr_scan"}, "lat": 38.92477, "bike_id": "f4a4dc6688e7263ca19aa814f6ee193e", "is_disabled": 0, "lon": -77.038292, "is_reserved": 0, "fusion_lat": 0.0, "type": "electric_scooter"}, {"fusion_lon": 0.0, "name": "0b0d61a8652882f6845e6b450999b36d", "rental_uris": {"android": "https://dc.lft.to/lastmile_qr_scan", "ios": "https://dc.lft.to/lastmile_qr_scan"}, "lat": 38.944612666666664, "bike_id": "0b0d61a8652882f6845e6b450999b36d", "is_disabled": 0, "lon": -77.06392783333334, "is_reserved": 0, "fusion_lat": 0.0, "type": "electric_scooter"}, {"fusion_lon": 0.0, "name": "d64797c97aa9524f5b215fd8d4893da8", "rental_uris": {"android": "https://dc.lft.to/lastmile_qr_scan", "ios": "https://dc.lft.to/lastmile_qr_scan"}, "lat": 38.941773, "bike_id": "d64797c97aa9524f5b215fd8d4893da8", "is_disabled": 0, "lon": -77.02338933333333, "is_reserved": 0, "fusion_lat": 0.0, "type": "electric_scooter"}, {"fusion_lon": 0.0, "name": "0d8112731a76878459414713cfc670ca", "rental_uris": {"android": "https://dc.lft.to/lastmile_qr_scan", "ios": "https://dc.lft.to/lastmile_qr_scan"}, "lat": 38.92319883333333, "bike_id": "0d8112731a76878459414713cfc670ca", "is_disabled": 0, "lon": -77.0404165, "is_reserved": 0, "fusion_lat": 0.0, "type": "electric_scooter"}, {"fusion_lon": 0.0, "name": "9c7cf75dd3dd346dacb1f03da81ad448", "rental_uris": {"android": "https://dc.lft.to/lastmile_qr_scan", "ios": "https://dc.lft.to/lastmile_qr_scan"}, "lat": 38.898863, "bike_id": "9c7cf75dd3dd346dacb1f03da81ad448", "is_disabled": 0, "lon": -76.98833116666667, "is_reserved": 0, "fusion_lat": 0.0, "type": "electric_scooter"}, {"fusion_lon": 0.0, "name": "fc24812dc5119e1afc74a0c0d86eb7ce", "rental_uris": {"android": "https://dc.lft.to/lastmile_qr_scan", "ios": "https://dc.lft.to/lastmile_qr_scan"}, "lat": 38.87782116666666, "bike_id": "fc24812dc5119e1afc74a0c0d86eb7ce", "is_disabled": 0, "lon": -77.01205933333334, "is_reserved": 0, "fusion_lat": 0.0, "type": "electric_bike"}, {"fusion_lon": 0.0, "name": "ed3f0b5cca78e4593ee3428052fb4c43", "rental_uris": {"android": "https://dc.lft.to/lastmile_qr_scan", "ios": "https://dc.lft.to/lastmile_qr_scan"}, "lat": 38.924607, "bike_id": "ed3f0b5cca78e4593ee3428052fb4c43", "is_disabled": 0, "lon": -77.032937, "is_reserved": 0, "fusion_lat": 0.0, "type": "electric_scooter"}, {"fusion_lon": 0.0, "name": "1db39670c600a82c0d738c95221c9efe", "rental_uris": {"android": "https://dc.lft.to/lastmile_qr_scan", "ios": "https://dc.lft.to/lastmile_qr_scan"}, "lat": 38.91843866666667, "bike_id": "1db39670c600a82c0d738c95221c9efe", "is_disabled": 0, "lon": -77.03860066666667, "is_reserved": 0, "fusion_lat": 0.0, "type": "electric_scooter"}, {"fusion_lon": 0.0, "name": "4df4710ad8ffee879948a983d6269043", "rental_uris": {"android": "https://dc.lft.to/lastmile_qr_scan", "ios": "https://dc.lft.to/lastmile_qr_scan"}, "lat": 38.890968, "bike_id": "4df4710ad8ffee879948a983d6269043", "is_disabled": 0, "lon": -76.942521, "is_reserved": 0, "fusion_lat": 0.0, "type": "electric_scooter"}, {"fusion_lon": 0.0, "name": "6f3735659b98ff9f58edae55ca395459", "rental_uris": {"android": "https://dc.lft.to/lastmile_qr_scan", "ios": "https://dc.lft.to/lastmile_qr_scan"}, "lat": 38.892259333333335, "bike_id": "6f3735659b98ff9f58edae55ca395459", "is_disabled": 0, "lon": -77.0172335, "is_reserved": 0, "fusion_lat": 0.0, "type": "electric_scooter"}, {"fusion_lon": 0.0, "name": "a4c26b79749f55f5e7dcd6e028689fe2", "rental_uris": {"android": "https://dc.lft.to/lastmile_qr_scan", "ios": "https://dc.lft.to/lastmile_qr_scan"}, "lat": 38.89508683333333, "bike_id": "a4c26b79749f55f5e7dcd6e028689fe2", "is_disabled": 0, "lon": -77.0467225, "is_reserved": 0, "fusion_lat": 0.0, "type": "electric_scooter"}, {"fusion_lon": 0.0, "name": "8cdd2c0a290fca650b745348bed9d827", "rental_uris": {"android": "https://dc.lft.to/lastmile_qr_scan", "ios": "https://dc.lft.to/lastmile_qr_scan"}, "lat": 38.8773655, "bike_id": "8cdd2c0a290fca650b745348bed9d827", "is_disabled": 0, "lon": -76.994859, "is_reserved": 0, "fusion_lat": 0.0, "type": "electric_scooter"}, {"fusion_lon": 0.0, "name": "5fee8d68b7faa7081d2368002152fe93", "rental_uris": {"android": "https://dc.lft.to/lastmile_qr_scan", "ios": "https://dc.lft.to/lastmile_qr_scan"}, "lat": 38.9236645, "bike_id": "5fee8d68b7faa7081d2368002152fe93", "is_disabled": 0, "lon": -77.01954666666667, "is_reserved": 0, "fusion_lat": 0.0, "type": "electric_scooter"}, {"fusion_lon": 0.0, "name": "61ea096966725fa2ab9f83d31e49e00f", "rental_uris": {"android": "https://dc.lft.to/lastmile_qr_scan", "ios": "https://dc.lft.to/lastmile_qr_scan"}, "lat": 38.948029, "bike_id": "61ea096966725fa2ab9f83d31e49e00f", "is_disabled": 0, "lon": -76.959738, "is_reserved": 0, "fusion_lat": 0.0, "type": "electric_bike"}, {"fusion_lon": 0.0, "name": "392af5045fd58534cf151fcfad028e7b", "rental_uris": {"android": "https://dc.lft.to/lastmile_qr_scan", "ios": "https://dc.lft.to/lastmile_qr_scan"}, "lat": 38.90053133333333, "bike_id": "392af5045fd58534cf151fcfad028e7b", "is_disabled": 0, "lon": -76.984899, "is_reserved": 0, "fusion_lat": 0.0, "type": "electric_scooter"}, {"fusion_lon": 0.0, "name": "bf5c668f88b14f7a531b5e18e377a5f0", "rental_uris": {"android": "https://dc.lft.to/lastmile_qr_scan", "ios": "https://dc.lft.to/lastmile_qr_scan"}, "lat": 38.9047615, "bike_id": "bf5c668f88b14f7a531b5e18e377a5f0", "is_disabled": 0, "lon": -77.02588116666666, "is_reserved": 0, "fusion_lat": 0.0, "type": "electric_scooter"}, {"fusion_lon": 0.0, "name": "c099cdb97dcf8176e56e08f84d4e7b2f", "rental_uris": {"android": "https://dc.lft.to/lastmile_qr_scan", "ios": "https://dc.lft.to/lastmile_qr_scan"}, "lat": 38.924624, "bike_id": "c099cdb97dcf8176e56e08f84d4e7b2f", "is_disabled": 0, "lon": -77.03948416666667, "is_reserved": 0, "fusion_lat": 0.0, "type": "electric_scooter"}, {"fusion_lon": 0.0, "name": "3dd10cd2d437e0d02e493c2c9cca1dde", "rental_uris": {"android": "https://dc.lft.to/lastmile_qr_scan", "ios": "https://dc.lft.to/lastmile_qr_scan"}, "lat": 38.90572183333333, "bike_id": "3dd10cd2d437e0d02e493c2c9cca1dde", "is_disabled": 0, "lon": -77.0434705, "is_reserved": 0, "fusion_lat": 0.0, "type": "electric_scooter"}, {"fusion_lon": 0.0, "name": "00255f83105850839870bac08b3e8860", "rental_uris": {"android": "https://dc.lft.to/lastmile_qr_scan", "ios": "https://dc.lft.to/lastmile_qr_scan"}, "lat": 39.029236166666664, "bike_id": "00255f83105850839870bac08b3e8860", "is_disabled": 0, "lon": -77.0135555, "is_reserved": 0, "fusion_lat": 0.0, "type": "electric_bike"}, {"fusion_lon": 0.0, "name": "08af825af65fbd2b8e29412a80a02195", "rental_uris": {"android": "https://dc.lft.to/lastmile_qr_scan", "ios": "https://dc.lft.to/lastmile_qr_scan"}, "lat": 38.9197155, "bike_id": "08af825af65fbd2b8e29412a80a02195", "is_disabled": 0, "lon": -77.04214716666667, "is_reserved": 0, "fusion_lat": 0.0, "type": "electric_scooter"}, {"fusion_lon": 0.0, "name": "51cf4b9045ac857f5855614fda27b9ff", "rental_uris": {"android": "https://dc.lft.to/lastmile_qr_scan", "ios": "https://dc.lft.to/lastmile_qr_scan"}, "lat": 38.913481833333336, "bike_id": "51cf4b9045ac857f5855614fda27b9ff", "is_disabled": 0, "lon": -77.01223083333333, "is_reserved": 0, "fusion_lat": 0.0, "type": "electric_scooter"}, {"fusion_lon": 0.0, "name": "ea766aae33104fc7fe36f3fd6d8e02f6", "rental_uris": {"android": "https://dc.lft.to/lastmile_qr_scan", "ios": "https://dc.lft.to/lastmile_qr_scan"}, "lat": 38.8924155, "bike_id": "ea766aae33104fc7fe36f3fd6d8e02f6", "is_disabled": 0, "lon": -77.0125975, "is_reserved": 0, "fusion_lat": 0.0, "type": "electric_scooter"}, {"fusion_lon": 0.0, "name": "4c2cf08a3445759047bf5b49422d55c2", "rental_uris": {"android": "https://dc.lft.to/lastmile_qr_scan", "ios": "https://dc.lft.to/lastmile_qr_scan"}, "lat": 38.91056966666667, "bike_id": "4c2cf08a3445759047bf5b49422d55c2", "is_disabled": 0, "lon": -77.02192366666667, "is_reserved": 0, "fusion_lat": 0.0, "type": "electric_scooter"}, {"fusion_lon": 0.0, "name": "77477544d6f0eb4fd6ebbc2e614a4d3d", "rental_uris": {"android": "https://dc.lft.to/lastmile_qr_scan", "ios": "https://dc.lft.to/lastmile_qr_scan"}, "lat": 38.9089415, "bike_id": "77477544d6f0eb4fd6ebbc2e614a4d3d", "is_disabled": 0, "lon": -76.98978266666667, "is_reserved": 0, "fusion_lat": 0.0, "type": "electric_scooter"}, {"fusion_lon": 0.0, "name": "1bf3ba60eaed0e7f343d548f971e2842", "rental_uris": {"android": "https://dc.lft.to/lastmile_qr_scan", "ios": "https://dc.lft.to/lastmile_qr_scan"}, "lat": 38.90027383333333, "bike_id": "1bf3ba60eaed0e7f343d548f971e2842", "is_disabled": 0, "lon": -76.988562, "is_reserved": 0, "fusion_lat": 0.0, "type": "electric_scooter"}, {"fusion_lon": 0.0, "name": "eaaf33b367d3539e38b3d4c5c0f7d0c1", "rental_uris": {"android": "https://dc.lft.to/lastmile_qr_scan", "ios": "https://dc.lft.to/lastmile_qr_scan"}, "lat": 38.905642, "bike_id": "eaaf33b367d3539e38b3d4c5c0f7d0c1", "is_disabled": 0, "lon": -77.04899033333334, "is_reserved": 0, "fusion_lat": 0.0, "type": "electric_scooter"}, {"fusion_lon": 0.0, "name": "4f18c0788cd056625a81270624a1009c", "rental_uris": {"android": "https://dc.lft.to/lastmile_qr_scan", "ios": "https://dc.lft.to/lastmile_qr_scan"}, "lat": 38.90244716666667, "bike_id": "4f18c0788cd056625a81270624a1009c", "is_disabled": 0, "lon": -77.01738, "is_reserved": 0, "fusion_lat": 0.0, "type": "electric_scooter"}, {"fusion_lon": 0.0, "name": "306b9db94de22f5c454f7a6815e37a77", "rental_uris": {"android": "https://dc.lft.to/lastmile_qr_scan", "ios": "https://dc.lft.to/lastmile_qr_scan"}, "lat": 38.892237333333334, "bike_id": "306b9db94de22f5c454f7a6815e37a77", "is_disabled": 0, "lon": -77.033405, "is_reserved": 0, "fusion_lat": 0.0, "type": "electric_scooter"}, {"fusion_lon": 0.0, "name": "a5dcfcfe86b2628126a4cfc80d20d7a1", "rental_uris": {"android": "https://dc.lft.to/lastmile_qr_scan", "ios": "https://dc.lft.to/lastmile_qr_scan"}, "lat": 38.926532333333334, "bike_id": "a5dcfcfe86b2628126a4cfc80d20d7a1", "is_disabled": 0, "lon": -77.024215, "is_reserved": 0, "fusion_lat": 0.0, "type": "electric_scooter"}, {"fusion_lon": 0.0, "name": "9aa08402c1190384cf12fca8eda2238c", "rental_uris": {"android": "https://dc.lft.to/lastmile_qr_scan", "ios": "https://dc.lft.to/lastmile_qr_scan"}, "lat": 38.888182666666665, "bike_id": "9aa08402c1190384cf12fca8eda2238c", "is_disabled": 0, "lon": -76.97707766666667, "is_reserved": 0, "fusion_lat": 0.0, "type": "electric_scooter"}, {"fusion_lon": 0.0, "name": "1b352f23a4d7fcd73180ead35db73e18", "rental_uris": {"android": "https://dc.lft.to/lastmile_qr_scan", "ios": "https://dc.lft.to/lastmile_qr_scan"}, "lat": 38.900210333333334, "bike_id": "1b352f23a4d7fcd73180ead35db73e18", "is_disabled": 0, "lon": -77.01187566666667, "is_reserved": 0, "fusion_lat": 0.0, "type": "electric_scooter"}, {"fusion_lon": 0.0, "name": "b68e26e6f2d55847ce4cb183fb4bfaf4", "rental_uris": {"android": "https://dc.lft.to/lastmile_qr_scan", "ios": "https://dc.lft.to/lastmile_qr_scan"}, "lat": 38.964689166666666, "bike_id": "b68e26e6f2d55847ce4cb183fb4bfaf4", "is_disabled": 0, "lon": -77.03563083333333, "is_reserved": 0, "fusion_lat": 0.0, "type": "electric_bike"}, {"fusion_lon": 0.0, "name": "28d3f9cd5a0d5a189ba2df6186e53afd", "rental_uris": {"android": "https://dc.lft.to/lastmile_qr_scan", "ios": "https://dc.lft.to/lastmile_qr_scan"}, "lat": 38.916804, "bike_id": "28d3f9cd5a0d5a189ba2df6186e53afd", "is_disabled": 0, "lon": -77.01578466666666, "is_reserved": 0, "fusion_lat": 0.0, "type": "electric_scooter"}, {"fusion_lon": 0.0, "name": "624d5e469191f79ba4d43fbe75a1a2b0", "rental_uris": {"android": "https://dc.lft.to/lastmile_qr_scan", "ios": "https://dc.lft.to/lastmile_qr_scan"}, "lat": 38.90161716666667, "bike_id": "624d5e469191f79ba4d43fbe75a1a2b0", "is_disabled": 0, "lon": -76.98073083333334, "is_reserved": 0, "fusion_lat": 0.0, "type": "electric_scooter"}, {"fusion_lon": 0.0, "name": "f947d3f2040e7b9bcee89231a5d0e1a0", "rental_uris": {"android": "https://dc.lft.to/lastmile_qr_scan", "ios": "https://dc.lft.to/lastmile_qr_scan"}, "lat": 38.90562666666667, "bike_id": "f947d3f2040e7b9bcee89231a5d0e1a0", "is_disabled": 0, "lon": -77.04563183333333, "is_reserved": 0, "fusion_lat": 0.0, "type": "electric_scooter"}, {"fusion_lon": 0.0, "name": "df6558b8b1b21b93be201c48f1a7bc62", "rental_uris": {"android": "https://dc.lft.to/lastmile_qr_scan", "ios": "https://dc.lft.to/lastmile_qr_scan"}, "lat": 38.925413666666664, "bike_id": "df6558b8b1b21b93be201c48f1a7bc62", "is_disabled": 0, "lon": -77.0789535, "is_reserved": 0, "fusion_lat": 0.0, "type": "electric_bike"}, {"fusion_lon": 0.0, "name": "0b8799ef8ddb91d57368de063287e241", "rental_uris": {"android": "https://dc.lft.to/lastmile_qr_scan", "ios": "https://dc.lft.to/lastmile_qr_scan"}, "lat": 38.90677916666667, "bike_id": "0b8799ef8ddb91d57368de063287e241", "is_disabled": 0, "lon": -77.02690133333333, "is_reserved": 0, "fusion_lat": 0.0, "type": "electric_scooter"}, {"fusion_lon": 0.0, "name": "cabdc5b5fe411375597c2571e544150f", "rental_uris": {"android": "https://dc.lft.to/lastmile_qr_scan", "ios": "https://dc.lft.to/lastmile_qr_scan"}, "lat": 38.90698116666667, "bike_id": "cabdc5b5fe411375597c2571e544150f", "is_disabled": 0, "lon": -77.00978483333333, "is_reserved": 0, "fusion_lat": 0.0, "type": "electric_scooter"}, {"fusion_lon": 0.0, "name": "b827ccab06e31a4fee514188fadceee3", "rental_uris": {"android": "https://dc.lft.to/lastmile_qr_scan", "ios": "https://dc.lft.to/lastmile_qr_scan"}, "lat": 38.900406, "bike_id": "b827ccab06e31a4fee514188fadceee3", "is_disabled": 0, "lon": -77.00196216666667, "is_reserved": 0, "fusion_lat": 0.0, "type": "electric_scooter"}, {"fusion_lon": 0.0, "name": "bcc77da341c6fa244f32a4fe36366265", "rental_uris": {"android": "https://dc.lft.to/lastmile_qr_scan", "ios": "https://dc.lft.to/lastmile_qr_scan"}, "lat": 38.88532383333333, "bike_id": "bcc77da341c6fa244f32a4fe36366265", "is_disabled": 0, "lon": -76.97960016666667, "is_reserved": 0, "fusion_lat": 0.0, "type": "electric_scooter"}, {"fusion_lon": 0.0, "name": "31d025c8d25385f962806517affc0510", "rental_uris": {"android": "https://dc.lft.to/lastmile_qr_scan", "ios": "https://dc.lft.to/lastmile_qr_scan"}, "lat": 38.895525666666664, "bike_id": "31d025c8d25385f962806517affc0510", "is_disabled": 0, "lon": -76.9889825, "is_reserved": 0, "fusion_lat": 0.0, "type": "electric_scooter"}, {"fusion_lon": 0.0, "name": "d08847e3331512eb7ea9b7a44cd48af4", "rental_uris": {"android": "https://dc.lft.to/lastmile_qr_scan", "ios": "https://dc.lft.to/lastmile_qr_scan"}, "lat": 38.91422983333333, "bike_id": "d08847e3331512eb7ea9b7a44cd48af4", "is_disabled": 0, "lon": -77.03182716666667, "is_reserved": 0, "fusion_lat": 0.0, "type": "electric_scooter"}, {"fusion_lon": 0.0, "name": "59a6b2d811e9bd6e01099daeff232411", "rental_uris": {"android": "https://dc.lft.to/lastmile_qr_scan", "ios": "https://dc.lft.to/lastmile_qr_scan"}, "lat": 38.935225833333334, "bike_id": "59a6b2d811e9bd6e01099daeff232411", "is_disabled": 0, "lon": -77.033772, "is_reserved": 0, "fusion_lat": 0.0, "type": "electric_scooter"}, {"fusion_lon": 0.0, "name": "93295949fdd32efc01a81deb5023f249", "rental_uris": {"android": "https://dc.lft.to/lastmile_qr_scan", "ios": "https://dc.lft.to/lastmile_qr_scan"}, "lat": 38.92480833333333, "bike_id": "93295949fdd32efc01a81deb5023f249", "is_disabled": 0, "lon": -77.02898883333333, "is_reserved": 0, "fusion_lat": 0.0, "type": "electric_scooter"}, {"fusion_lon": 0.0, "name": "9a2f28e145151f82b62aa1d0c39a9e24", "rental_uris": {"android": "https://dc.lft.to/lastmile_qr_scan", "ios": "https://dc.lft.to/lastmile_qr_scan"}, "lat": 38.879292666666665, "bike_id": "9a2f28e145151f82b62aa1d0c39a9e24", "is_disabled": 0, "lon": -77.0069555, "is_reserved": 0, "fusion_lat": 0.0, "type": "electric_scooter"}, {"fusion_lon": 0.0, "name": "f9bfc019e562f62b6ac5fd2f425b44bc", "rental_uris": {"android": "https://dc.lft.to/lastmile_qr_scan", "ios": "https://dc.lft.to/lastmile_qr_scan"}, "lat": 38.930400166666665, "bike_id": "f9bfc019e562f62b6ac5fd2f425b44bc", "is_disabled": 0, "lon": -77.03678433333333, "is_reserved": 0, "fusion_lat": 0.0, "type": "electric_bike"}, {"fusion_lon": 0.0, "name": "916c976feed91f647a0d1687d763680b", "rental_uris": {"android": "https://dc.lft.to/lastmile_qr_scan", "ios": "https://dc.lft.to/lastmile_qr_scan"}, "lat": 38.936794166666665, "bike_id": "916c976feed91f647a0d1687d763680b", "is_disabled": 0, "lon": -77.035726, "is_reserved": 0, "fusion_lat": 0.0, "type": "electric_scooter"}, {"fusion_lon": 0.0, "name": "036dd1b982e601875e0eb8138bce94f2", "rental_uris": {"android": "https://dc.lft.to/lastmile_qr_scan", "ios": "https://dc.lft.to/lastmile_qr_scan"}, "lat": 38.90095516666667, "bike_id": "036dd1b982e601875e0eb8138bce94f2", "is_disabled": 0, "lon": -77.0364995, "is_reserved": 0, "fusion_lat": 0.0, "type": "electric_scooter"}, {"fusion_lon": 0.0, "name": "39044d2389276ba6911bc4d0dbf674de", "rental_uris": {"android": "https://dc.lft.to/lastmile_qr_scan", "ios": "https://dc.lft.to/lastmile_qr_scan"}, "lat": 38.935543333333335, "bike_id": "39044d2389276ba6911bc4d0dbf674de", "is_disabled": 0, "lon": -76.99781216666666, "is_reserved": 0, "fusion_lat": 0.0, "type": "electric_scooter"}, {"fusion_lon": 0.0, "name": "b577e99be58a48104f6b35b3f67fa445", "rental_uris": {"android": "https://dc.lft.to/lastmile_qr_scan", "ios": "https://dc.lft.to/lastmile_qr_scan"}, "lat": 38.9266875, "bike_id": "b577e99be58a48104f6b35b3f67fa445", "is_disabled": 0, "lon": -77.01507466666666, "is_reserved": 0, "fusion_lat": 0.0, "type": "electric_scooter"}, {"fusion_lon": 0.0, "name": "bfb25e4fb6cd2a801722315f8ceb8287", "rental_uris": {"android": "https://dc.lft.to/lastmile_qr_scan", "ios": "https://dc.lft.to/lastmile_qr_scan"}, "lat": 38.8757625, "bike_id": "bfb25e4fb6cd2a801722315f8ceb8287", "is_disabled": 0, "lon": -77.00581066666666, "is_reserved": 0, "fusion_lat": 0.0, "type": "electric_scooter"}, {"fusion_lon": 0.0, "name": "2afa3acab97d03d99682062dfb1bedb2", "rental_uris": {"android": "https://dc.lft.to/lastmile_qr_scan", "ios": "https://dc.lft.to/lastmile_qr_scan"}, "lat": 38.92809483333333, "bike_id": "2afa3acab97d03d99682062dfb1bedb2", "is_disabled": 0, "lon": -77.03269733333333, "is_reserved": 0, "fusion_lat": 0.0, "type": "electric_scooter"}, {"fusion_lon": 0.0, "name": "5bef55479fdfc30c3391c724521cf7f5", "rental_uris": {"android": "https://dc.lft.to/lastmile_qr_scan", "ios": "https://dc.lft.to/lastmile_qr_scan"}, "lat": 38.928751, "bike_id": "5bef55479fdfc30c3391c724521cf7f5", "is_disabled": 0, "lon": -77.03483816666666, "is_reserved": 0, "fusion_lat": 0.0, "type": "electric_scooter"}, {"fusion_lon": 0.0, "name": "def5302ee51a9e14cf134168159c1ea6", "rental_uris": {"android": "https://dc.lft.to/lastmile_qr_scan", "ios": "https://dc.lft.to/lastmile_qr_scan"}, "lat": 38.89340933333333, "bike_id": "def5302ee51a9e14cf134168159c1ea6", "is_disabled": 0, "lon": -77.03165083333333, "is_reserved": 0, "fusion_lat": 0.0, "type": "electric_scooter"}, {"fusion_lon": 0.0, "name": "f5ed20411632a7e631f18dfae06c1636", "rental_uris": {"android": "https://dc.lft.to/lastmile_qr_scan", "ios": "https://dc.lft.to/lastmile_qr_scan"}, "lat": 38.92142883333333, "bike_id": "f5ed20411632a7e631f18dfae06c1636", "is_disabled": 0, "lon": -77.03516216666667, "is_reserved": 0, "fusion_lat": 0.0, "type": "electric_scooter"}, {"fusion_lon": 0.0, "name": "2ee2c3db85770a4246f783e38dce51bb", "rental_uris": {"android": "https://dc.lft.to/lastmile_qr_scan", "ios": "https://dc.lft.to/lastmile_qr_scan"}, "lat": 38.93554533333333, "bike_id": "2ee2c3db85770a4246f783e38dce51bb", "is_disabled": 0, "lon": -77.032646, "is_reserved": 0, "fusion_lat": 0.0, "type": "electric_scooter"}, {"fusion_lon": 0.0, "name": "4a7adcc8d738d0d01ff816ccbe1a7176", "rental_uris": {"android": "https://dc.lft.to/lastmile_qr_scan", "ios": "https://dc.lft.to/lastmile_qr_scan"}, "lat": 38.89345133333333, "bike_id": "4a7adcc8d738d0d01ff816ccbe1a7176", "is_disabled": 0, "lon": -76.99381983333333, "is_reserved": 0, "fusion_lat": 0.0, "type": "electric_scooter"}, {"fusion_lon": 0.0, "name": "1911e60af708695e9ca74f90b1aa925f", "rental_uris": {"android": "https://dc.lft.to/lastmile_qr_scan", "ios": "https://dc.lft.to/lastmile_qr_scan"}, "lat": 38.899093, "bike_id": "1911e60af708695e9ca74f90b1aa925f", "is_disabled": 0, "lon": -77.020162, "is_reserved": 0, "fusion_lat": 0.0, "type": "electric_scooter"}, {"fusion_lon": 0.0, "name": "762a6af1242e1ab889645b0531ad7015", "rental_uris": {"android": "https://dc.lft.to/lastmile_qr_scan", "ios": "https://dc.lft.to/lastmile_qr_scan"}, "lat": 38.93523283333333, "bike_id": "762a6af1242e1ab889645b0531ad7015", "is_disabled": 0, "lon": -77.028409, "is_reserved": 0, "fusion_lat": 0.0, "type": "electric_scooter"}, {"fusion_lon": 0.0, "name": "7ef1f933a0bae65a4cfe6bbd49f9a739", "rental_uris": {"android": "https://dc.lft.to/lastmile_qr_scan", "ios": "https://dc.lft.to/lastmile_qr_scan"}, "lat": 38.90266066666667, "bike_id": "7ef1f933a0bae65a4cfe6bbd49f9a739", "is_disabled": 0, "lon": -77.03132083333334, "is_reserved": 0, "fusion_lat": 0.0, "type": "electric_scooter"}, {"fusion_lon": 0.0, "name": "795bad6118e4f557a643cd29d36a2598", "rental_uris": {"android": "https://dc.lft.to/lastmile_qr_scan", "ios": "https://dc.lft.to/lastmile_qr_scan"}, "lat": 38.89908883333333, "bike_id": "795bad6118e4f557a643cd29d36a2598", "is_disabled": 0, "lon": -76.93388583333333, "is_reserved": 0, "fusion_lat": 0.0, "type": "electric_scooter"}, {"fusion_lon": 0.0, "name": "5643c41cc4e5e5988ae35f4000d47e39", "rental_uris": {"android": "https://dc.lft.to/lastmile_qr_scan", "ios": "https://dc.lft.to/lastmile_qr_scan"}, "lat": 38.91657466666667, "bike_id": "5643c41cc4e5e5988ae35f4000d47e39", "is_disabled": 0, "lon": -77.03187983333333, "is_reserved": 0, "fusion_lat": 0.0, "type": "electric_scooter"}, {"fusion_lon": 0.0, "name": "59f898f1c74f05c31912dcf00bcffeb7", "rental_uris": {"android": "https://dc.lft.to/lastmile_qr_scan", "ios": "https://dc.lft.to/lastmile_qr_scan"}, "lat": 38.91820283333333, "bike_id": "59f898f1c74f05c31912dcf00bcffeb7", "is_disabled": 0, "lon": -77.02318933333333, "is_reserved": 0, "fusion_lat": 0.0, "type": "electric_scooter"}, {"fusion_lon": 0.0, "name": "c999bdc78b938ec7b6700f062f2643cf", "rental_uris": {"android": "https://dc.lft.to/lastmile_qr_scan", "ios": "https://dc.lft.to/lastmile_qr_scan"}, "lat": 38.950868, "bike_id": "c999bdc78b938ec7b6700f062f2643cf", "is_disabled": 0, "lon": -76.99796083333334, "is_reserved": 0, "fusion_lat": 0.0, "type": "electric_scooter"}, {"fusion_lon": 0.0, "name": "dbff01a220458fd6eeca7c0382907007", "rental_uris": {"android": "https://dc.lft.to/lastmile_qr_scan", "ios": "https://dc.lft.to/lastmile_qr_scan"}, "lat": 38.879958333333335, "bike_id": "dbff01a220458fd6eeca7c0382907007", "is_disabled": 0, "lon": -77.037382, "is_reserved": 0, "fusion_lat": 0.0, "type": "electric_scooter"}, {"fusion_lon": 0.0, "name": "ddf93e00d151eb855828f172136e7c6b", "rental_uris": {"android": "https://dc.lft.to/lastmile_qr_scan", "ios": "https://dc.lft.to/lastmile_qr_scan"}, "lat": 38.90511466666667, "bike_id": "ddf93e00d151eb855828f172136e7c6b", "is_disabled": 0, "lon": -77.05118566666667, "is_reserved": 0, "fusion_lat": 0.0, "type": "electric_scooter"}, {"fusion_lon": 0.0, "name": "fa5a2c44a7c00f3e9a62142bd35eb193", "rental_uris": {"android": "https://dc.lft.to/lastmile_qr_scan", "ios": "https://dc.lft.to/lastmile_qr_scan"}, "lat": 38.90964316666667, "bike_id": "fa5a2c44a7c00f3e9a62142bd35eb193", "is_disabled": 0, "lon": -77.0357335, "is_reserved": 0, "fusion_lat": 0.0, "type": "electric_scooter"}, {"fusion_lon": 0.0, "name": "6e8119cf76b2d311e581f7f441916899", "rental_uris": {"android": "https://dc.lft.to/lastmile_qr_scan", "ios": "https://dc.lft.to/lastmile_qr_scan"},