{"data": {"bikes": [{"is_reserved": 0, "type": "electric_scooter", "bike_id": "49a1311ff33ec5569c6a94a3e655ef58", "lat": 38.91269583333333, "lon": -77.03873866666666, "rental_uris": {"android": "https://dc.lft.to/lastmile_qr_scan", "ios": "https://dc.lft.to/lastmile_qr_scan"}, "is_disabled": 0, "fusion_lat": 0.0, "name": "49a1311ff33ec5569c6a94a3e655ef58", "fusion_lon": 0.0}, {"is_reserved": 0, "type": "electric_scooter", "bike_id": "0d8d50acc93dc61838830c5e0afcad12", "lat": 38.8987635, "lon": -76.93183033333334, "rental_uris": {"android": "https://dc.lft.to/lastmile_qr_scan", "ios": "https://dc.lft.to/lastmile_qr_scan"}, "is_disabled": 0, "fusion_lat": 0.0, "name": "0d8d50acc93dc61838830c5e0afcad12", "fusion_lon": 0.0}, {"is_reserved": 0, "type": "electric_scooter", "bike_id": "2dc355858a4c49e44d47aeb922358b95", "lat": 38.9262605, "lon": -77.0350425, "rental_uris": {"android": "https://dc.lft.to/lastmile_qr_scan", "ios": "https://dc.lft.to/lastmile_qr_scan"}, "is_disabled": 0, "fusion_lat": 0.0, "name": "2dc355858a4c49e44d47aeb922358b95", "fusion_lon": 0.0}, {"is_reserved": 0, "type": "electric_scooter", "bike_id": "391bbf873cc30ac263c067bca876b1d0", "lat": 38.8874395, "lon": -77.0135125, "rental_uris": {"android": "https://dc.lft.to/lastmile_qr_scan", "ios": "https://dc.lft.to/lastmile_qr_scan"}, "is_disabled": 0, "fusion_lat": 0.0, "name": "391bbf873cc30ac263c067bca876b1d0", "fusion_lon": 0.0}, {"is_reserved": 0, "type": "electric_bike", "bike_id": "f8209bb9cd0f650519fb94f3589f9d21", "lat": 38.9053285, "lon": -77.04188633333334, "rental_uris": {"android": "https://dc.lft.to/lastmile_qr_scan", "ios": "https://dc.lft.to/lastmile_qr_scan"}, "is_disabled": 0, "fusion_lat": 0.0, "name": "f8209bb9cd0f650519fb94f3589f9d21", "fusion_lon": 0.0}, {"is_reserved": 0, "type": "electric_scooter", "bike_id": "6cc7357fefb1b97da7b9463353848221", "lat": 38.9060935, "lon": -77.00915733333333, "rental_uris": {"android": "https://dc.lft.to/lastmile_qr_scan", "ios": "https://dc.lft.to/lastmile_qr_scan"}, "is_disabled": 0, "fusion_lat": 0.0, "name": "6cc7357fefb1b97da7b9463353848221", "fusion_lon": 0.0}, {"is_reserved": 0, "type": "electric_scooter", "bike_id": "797897f721b4ee4623bbee1262d6a3a6", "lat": 38.91416383333333, "lon": -77.0221095, "rental_uris": {"android": "https://dc.lft.to/lastmile_qr_scan", "ios": "https://dc.lft.to/lastmile_qr_scan"}, "is_disabled": 0, "fusion_lat": 0.0, "name": "797897f721b4ee4623bbee1262d6a3a6", "fusion_lon": 0.0}, {"is_reserved": 0, "type": "electric_scooter", "bike_id": "d1cddec25a55d4b0d60926725733c5d5", "lat": 38.89363933333333, "lon": -76.98682066666667, "rental_uris": {"android": "https://dc.lft.to/lastmile_qr_scan", "ios": "https://dc.lft.to/lastmile_qr_scan"}, "is_disabled": 0, "fusion_lat": 0.0, "name": "d1cddec25a55d4b0d60926725733c5d5", "fusion_lon": 0.0}, {"is_reserved": 0, "type": "electric_scooter", "bike_id": "cae1f8e553d4a4e67d1411ede5d6b2e3", "lat": 38.924455333333334, "lon": -77.02027633333333, "rental_uris": {"android": "https://dc.lft.to/lastmile_qr_scan", "ios": "https://dc.lft.to/lastmile_qr_scan"}, "is_disabled": 0, "fusion_lat": 0.0, "name": "cae1f8e553d4a4e67d1411ede5d6b2e3", "fusion_lon": 0.0}, {"is_reserved": 0, "type": "electric_scooter", "bike_id": "a999f4ecb0eae371908ba904c6779915", "lat": 38.912747, "lon": -77.03867716666667, "rental_uris": {"android": "https://dc.lft.to/lastmile_qr_scan", "ios": "https://dc.lft.to/lastmile_qr_scan"}, "is_disabled": 0, "fusion_lat": 0.0, "name": "a999f4ecb0eae371908ba904c6779915", "fusion_lon": 0.0}, {"is_reserved": 0, "type": "electric_scooter", "bike_id": "1e40cb10e89d8f60aadcf71ab34d6d23", "lat": 38.91711, "lon": -77.03873666666667, "rental_uris": {"android": "https://dc.lft.to/lastmile_qr_scan", "ios": "https://dc.lft.to/lastmile_qr_scan"}, "is_disabled": 0, "fusion_lat": 0.0, "name": "1e40cb10e89d8f60aadcf71ab34d6d23", "fusion_lon": 0.0}, {"is_reserved": 0, "type": "electric_scooter", "bike_id": "e3d07460acebf039a66cb7c2553e9a44", "lat": 38.89494933333334, "lon": -76.9278615, "rental_uris": {"android": "https://dc.lft.to/lastmile_qr_scan", "ios": "https://dc.lft.to/lastmile_qr_scan"}, "is_disabled": 0, "fusion_lat": 0.0, "name": "e3d07460acebf039a66cb7c2553e9a44", "fusion_lon": 0.0}, {"is_reserved": 0, "type": "electric_scooter", "bike_id": "38c5be78aeb263e666f6dfe3b4c3fa94", "lat": 38.989934833333336, "lon": -77.033616, "rental_uris": {"android": "https://dc.lft.to/lastmile_qr_scan", "ios": "https://dc.lft.to/lastmile_qr_scan"}, "is_disabled": 0, "fusion_lat": 0.0, "name": "38c5be78aeb263e666f6dfe3b4c3fa94", "fusion_lon": 0.0}, {"is_reserved": 0, "type": "electric_scooter", "bike_id": "420f831a4752692b1c1054323b8efd4e", "lat": 38.92289066666667, "lon": -77.03660616666667, "rental_uris": {"android": "https://dc.lft.to/lastmile_qr_scan", "ios": "https://dc.lft.to/lastmile_qr_scan"}, "is_disabled": 0, "fusion_lat": 0.0, "name": "420f831a4752692b1c1054323b8efd4e", "fusion_lon": 0.0}, {"is_reserved": 0, "type": "electric_scooter", "bike_id": "72dbe06dd071aabc3c547d7735dba5d0", "lat": 38.935813333333336, "lon": -77.03263866666667, "rental_uris": {"android": "https://dc.lft.to/lastmile_qr_scan", "ios": "https://dc.lft.to/lastmile_qr_scan"}, "is_disabled": 0, "fusion_lat": 0.0, "name": "72dbe06dd071aabc3c547d7735dba5d0", "fusion_lon": 0.0}, {"is_reserved": 0, "type": "electric_scooter", "bike_id": "cd50833bc3db97dbbc1c53a668b7031d", "lat": 38.902988, "lon": -77.03664583333334, "rental_uris": {"android": "https://dc.lft.to/lastmile_qr_scan", "ios": "https://dc.lft.to/lastmile_qr_scan"}, "is_disabled": 0, "fusion_lat": 0.0, "name": "cd50833bc3db97dbbc1c53a668b7031d", "fusion_lon": 0.0}, {"is_reserved": 0, "type": "electric_scooter", "bike_id": "de066b5b4b6b48411f3f760d7df8e443", "lat": 38.927461666666666, "lon": -77.0538225, "rental_uris": {"android": "https://dc.lft.to/lastmile_qr_scan", "ios": "https://dc.lft.to/lastmile_qr_scan"}, "is_disabled": 0, "fusion_lat": 0.0, "name": "de066b5b4b6b48411f3f760d7df8e443", "fusion_lon": 0.0}, {"is_reserved": 0, "type": "electric_scooter", "bike_id": "20ec25696783a2bbd0e0b15a87881942", "lat": 38.87505616666667, "lon": -77.003274, "rental_uris": {"android": "https://dc.lft.to/lastmile_qr_scan", "ios": "https://dc.lft.to/lastmile_qr_scan"}, "is_disabled": 0, "fusion_lat": 0.0, "name": "20ec25696783a2bbd0e0b15a87881942", "fusion_lon": 0.0}, {"is_reserved": 0, "type": "electric_scooter", "bike_id": "61701e192fdc2167732cb5d1fc85116b", "lat": 38.91752066666667, "lon": -77.01711216666666, "rental_uris": {"android": "https://dc.lft.to/lastmile_qr_scan", "ios": "https://dc.lft.to/lastmile_qr_scan"}, "is_disabled": 0, "fusion_lat": 0.0, "name": "61701e192fdc2167732cb5d1fc85116b", "fusion_lon": 0.0}, {"is_reserved": 0, "type": "electric_scooter", "bike_id": "ece4940f50e6fef9b45fe680d4aa1f07", "lat": 38.8843825, "lon": -77.02461433333333, "rental_uris": {"android": "https://dc.lft.to/lastmile_qr_scan", "ios": "https://dc.lft.to/lastmile_qr_scan"}, "is_disabled": 0, "fusion_lat": 0.0, "name": "ece4940f50e6fef9b45fe680d4aa1f07", "fusion_lon": 0.0}, {"is_reserved": 0, "type": "electric_scooter", "bike_id": "e18b7c78b1966a9acbbe7c9824cddff6", "lat": 38.94010166666666, "lon": -77.027369, "rental_uris": {"android": "https://dc.lft.to/lastmile_qr_scan", "ios": "https://dc.lft.to/lastmile_qr_scan"}, "is_disabled": 0, "fusion_lat": 0.0, "name": "e18b7c78b1966a9acbbe7c9824cddff6", "fusion_lon": 0.0}, {"is_reserved": 0, "type": "electric_scooter", "bike_id": "496720b22ca88578f223347cc22afc7a", "lat": 38.90673616666667, "lon": -77.0762555, "rental_uris": {"android": "https://dc.lft.to/lastmile_qr_scan", "ios": "https://dc.lft.to/lastmile_qr_scan"}, "is_disabled": 0, "fusion_lat": 0.0, "name": "496720b22ca88578f223347cc22afc7a", "fusion_lon": 0.0}, {"is_reserved": 0, "type": "electric_scooter", "bike_id": "1e7e6a7d5ac9663ac2825e88899fb968", "lat": 38.91829833333333, "lon": -77.02593333333333, "rental_uris": {"android": "https://dc.lft.to/lastmile_qr_scan", "ios": "https://dc.lft.to/lastmile_qr_scan"}, "is_disabled": 0, "fusion_lat": 0.0, "name": "1e7e6a7d5ac9663ac2825e88899fb968", "fusion_lon": 0.0}, {"is_reserved": 0, "type": "electric_scooter", "bike_id": "a1278d12d5f950b98717f5299ce6ae44", "lat": 38.935385, "lon": -77.02429583333333, "rental_uris": {"android": "https://dc.lft.to/lastmile_qr_scan", "ios": "https://dc.lft.to/lastmile_qr_scan"}, "is_disabled": 0, "fusion_lat": 0.0, "name": "a1278d12d5f950b98717f5299ce6ae44", "fusion_lon": 0.0}, {"is_reserved": 0, "type": "electric_scooter", "bike_id": "3f7f3e3b7c7148caa897a7d3d3794776", "lat": 38.883885166666666, "lon": -77.04604783333333, "rental_uris": {"android": "https://dc.lft.to/lastmile_qr_scan", "ios": "https://dc.lft.to/lastmile_qr_scan"}, "is_disabled": 0, "fusion_lat": 0.0, "name": "3f7f3e3b7c7148caa897a7d3d3794776", "fusion_lon": 0.0}, {"is_reserved": 0, "type": "electric_scooter", "bike_id": "adcdcb996eb6940d96d18359b83a52b9", "lat": 38.933826333333336, "lon": -77.04544466666667, "rental_uris": {"android": "https://dc.lft.to/lastmile_qr_scan", "ios": "https://dc.lft.to/lastmile_qr_scan"}, "is_disabled": 0, "fusion_lat": 0.0, "name": "adcdcb996eb6940d96d18359b83a52b9", "fusion_lon": 0.0}, {"is_reserved": 0, "type": "electric_scooter", "bike_id": "42815596fae4bc96d0ea44dc16b3556b", "lat": 38.924843833333334, "lon": -77.027205, "rental_uris": {"android": "https://dc.lft.to/lastmile_qr_scan", "ios": "https://dc.lft.to/lastmile_qr_scan"}, "is_disabled": 0, "fusion_lat": 0.0, "name": "42815596fae4bc96d0ea44dc16b3556b", "fusion_lon": 0.0}, {"is_reserved": 0, "type": "electric_scooter", "bike_id": "293e237e59aab6e0b40f51b484bd5788", "lat": 38.91438816666667, "lon": -77.04153983333333, "rental_uris": {"android": "https://dc.lft.to/lastmile_qr_scan", "ios": "https://dc.lft.to/lastmile_qr_scan"}, "is_disabled": 0, "fusion_lat": 0.0, "name": "293e237e59aab6e0b40f51b484bd5788", "fusion_lon": 0.0}, {"is_reserved": 0, "type": "electric_bike", "bike_id": "4da6bed957656f9b45e95c41c6616ba7", "lat": 38.894587, "lon": -77.19129533333333, "rental_uris": {"android": "https://dc.lft.to/lastmile_qr_scan", "ios": "https://dc.lft.to/lastmile_qr_scan"}, "is_disabled": 0, "fusion_lat": 0.0, "name": "4da6bed957656f9b45e95c41c6616ba7", "fusion_lon": 0.0}, {"is_reserved": 0, "type": "electric_scooter", "bike_id": "0145fc9227499dcee0457d2486a3d535", "lat": 38.93353483333333, "lon": -77.03410966666667, "rental_uris": {"android": "https://dc.lft.to/lastmile_qr_scan", "ios": "https://dc.lft.to/lastmile_qr_scan"}, "is_disabled": 0, "fusion_lat": 0.0, "name": "0145fc9227499dcee0457d2486a3d535", "fusion_lon": 0.0}, {"is_reserved": 0, "type": "electric_scooter", "bike_id": "551bf6f6bb15a17d1d167d645fcf3a34", "lat": 38.881243833333336, "lon": -77.01972816666667, "rental_uris": {"android": "https://dc.lft.to/lastmile_qr_scan", "ios": "https://dc.lft.to/lastmile_qr_scan"}, "is_disabled": 0, "fusion_lat": 0.0, "name": "551bf6f6bb15a17d1d167d645fcf3a34", "fusion_lon": 0.0}, {"is_reserved": 0, "type": "electric_scooter", "bike_id": "574c5ee548cbb0e5478bf79b78ca5afb", "lat": 38.897180166666665, "lon": -77.0080065, "rental_uris": {"android": "https://dc.lft.to/lastmile_qr_scan", "ios": "https://dc.lft.to/lastmile_qr_scan"}, "is_disabled": 0, "fusion_lat": 0.0, "name": "574c5ee548cbb0e5478bf79b78ca5afb", "fusion_lon": 0.0}, {"is_reserved": 0, "type": "electric_scooter", "bike_id": "e64b53b41bd6efd3d8a884ac0841f3b0", "lat": 38.9180675, "lon": -77.02488166666667, "rental_uris": {"android": "https://dc.lft.to/lastmile_qr_scan", "ios": "https://dc.lft.to/lastmile_qr_scan"}, "is_disabled": 0, "fusion_lat": 0.0, "name": "e64b53b41bd6efd3d8a884ac0841f3b0", "fusion_lon": 0.0}, {"is_reserved": 0, "type": "electric_scooter", "bike_id": "bfe7d61d5a23b9cc5116ca42efde7b52", "lat": 38.9116715, "lon": -77.04491116666667, "rental_uris": {"android": "https://dc.lft.to/lastmile_qr_scan", "ios": "https://dc.lft.to/lastmile_qr_scan"}, "is_disabled": 0, "fusion_lat": 0.0, "name": "bfe7d61d5a23b9cc5116ca42efde7b52", "fusion_lon": 0.0}, {"is_reserved": 0, "type": "electric_scooter", "bike_id": "2c2e126d799fa88987195607fcd56dcf", "lat": 38.903510833333335, "lon": -77.025744, "rental_uris": {"android": "https://dc.lft.to/lastmile_qr_scan", "ios": "https://dc.lft.to/lastmile_qr_scan"}, "is_disabled": 0, "fusion_lat": 0.0, "name": "2c2e126d799fa88987195607fcd56dcf", "fusion_lon": 0.0}, {"is_reserved": 0, "type": "electric_scooter", "bike_id": "174ee9d46087ff97ff5299df0eb8ecc1", "lat": 38.892320166666664, "lon": -77.031843, "rental_uris": {"android": "https://dc.lft.to/lastmile_qr_scan", "ios": "https://dc.lft.to/lastmile_qr_scan"}, "is_disabled": 0, "fusion_lat": 0.0, "name": "174ee9d46087ff97ff5299df0eb8ecc1", "fusion_lon": 0.0}, {"is_reserved": 0, "type": "electric_scooter", "bike_id": "acd74846ca582c69a2fb77f8f42a396b", "lat": 38.921997166666664, "lon": -77.04699766666667, "rental_uris": {"android": "https://dc.lft.to/lastmile_qr_scan", "ios": "https://dc.lft.to/lastmile_qr_scan"}, "is_disabled": 0, "fusion_lat": 0.0, "name": "acd74846ca582c69a2fb77f8f42a396b", "fusion_lon": 0.0}, {"is_reserved": 0, "type": "electric_scooter", "bike_id": "47c7c13c20756166557d18599f773ede", "lat": 38.885302, "lon": -76.9962295, "rental_uris": {"android": "https://dc.lft.to/lastmile_qr_scan", "ios": "https://dc.lft.to/lastmile_qr_scan"}, "is_disabled": 0, "fusion_lat": 0.0, "name": "47c7c13c20756166557d18599f773ede", "fusion_lon": 0.0}, {"is_reserved": 0, "type": "electric_scooter", "bike_id": "0ef4dd270dfc7154d5d3a257343c7390", "lat": 38.9037865, "lon": -77.03191283333334, "rental_uris": {"android": "https://dc.lft.to/lastmile_qr_scan", "ios": "https://dc.lft.to/lastmile_qr_scan"}, "is_disabled": 0, "fusion_lat": 0.0, "name": "0ef4dd270dfc7154d5d3a257343c7390", "fusion_lon": 0.0}, {"is_reserved": 0, "type": "electric_scooter", "bike_id": "60da354ff15c4435843858fd4043ab25", "lat": 38.89880333333333, "lon": -76.9318135, "rental_uris": {"android": "https://dc.lft.to/lastmile_qr_scan", "ios": "https://dc.lft.to/lastmile_qr_scan"}, "is_disabled": 0, "fusion_lat": 0.0, "name": "60da354ff15c4435843858fd4043ab25", "fusion_lon": 0.0}, {"is_reserved": 0, "type": "electric_scooter", "bike_id": "46bee822e61fddd786b0cc8dafcc9957", "lat": 38.90106016666667, "lon": -77.04863216666666, "rental_uris": {"android": "https://dc.lft.to/lastmile_qr_scan", "ios": "https://dc.lft.to/lastmile_qr_scan"}, "is_disabled": 0, "fusion_lat": 0.0, "name": "46bee822e61fddd786b0cc8dafcc9957", "fusion_lon": 0.0}, {"is_reserved": 0, "type": "electric_scooter", "bike_id": "016bb50e5c8cd616a3fd43f2799b2d58", "lat": 38.9162315, "lon": -77.045795, "rental_uris": {"android": "https://dc.lft.to/lastmile_qr_scan", "ios": "https://dc.lft.to/lastmile_qr_scan"}, "is_disabled": 0, "fusion_lat": 0.0, "name": "016bb50e5c8cd616a3fd43f2799b2d58", "fusion_lon": 0.0}, {"is_reserved": 0, "type": "electric_scooter", "bike_id": "f4ede5680eabf96ae2448fcdd2be6d51", "lat": 38.92629266666667, "lon": -77.03626516666667, "rental_uris": {"android": "https://dc.lft.to/lastmile_qr_scan", "ios": "https://dc.lft.to/lastmile_qr_scan"}, "is_disabled": 0, "fusion_lat": 0.0, "name": "f4ede5680eabf96ae2448fcdd2be6d51", "fusion_lon": 0.0}, {"is_reserved": 0, "type": "electric_scooter", "bike_id": "5071f6119d4d0ce28a812d5a380daa53", "lat": 38.917502999999996, "lon": -77.028086, "rental_uris": {"android": "https://dc.lft.to/lastmile_qr_scan", "ios": "https://dc.lft.to/lastmile_qr_scan"}, "is_disabled": 0, "fusion_lat": 0.0, "name": "5071f6119d4d0ce28a812d5a380daa53", "fusion_lon": 0.0}, {"is_reserved": 0, "type": "electric_scooter", "bike_id": "ff5b245dea598b1614756b40a9d1c7f9", "lat": 38.942316, "lon": -77.07153966666667, "rental_uris": {"android": "https://dc.lft.to/lastmile_qr_scan", "ios": "https://dc.lft.to/lastmile_qr_scan"}, "is_disabled": 0, "fusion_lat": 0.0, "name": "ff5b245dea598b1614756b40a9d1c7f9", "fusion_lon": 0.0}, {"is_reserved": 0, "type": "electric_scooter", "bike_id": "ccbba72c9d7bee026c812d03ed3b3b2d", "lat": 38.919872166666664, "lon": -77.04166083333334, "rental_uris": {"android": "https://dc.lft.to/lastmile_qr_scan", "ios": "https://dc.lft.to/lastmile_qr_scan"}, "is_disabled": 0, "fusion_lat": 0.0, "name": "ccbba72c9d7bee026c812d03ed3b3b2d", "fusion_lon": 0.0}, {"is_reserved": 0, "type": "electric_scooter", "bike_id": "6db562e298ebd4db83083efd1a02a19b", "lat": 38.906925666666666, "lon": -77.062513, "rental_uris": {"android": "https://dc.lft.to/lastmile_qr_scan", "ios": "https://dc.lft.to/lastmile_qr_scan"}, "is_disabled": 0, "fusion_lat": 0.0, "name": "6db562e298ebd4db83083efd1a02a19b", "fusion_lon": 0.0}, {"is_reserved": 0, "type": "electric_scooter", "bike_id": "4a3838051cfc2f9d131020b81f53dc58", "lat": 38.87569333333333, "lon": -77.00582966666667, "rental_uris": {"android": "https://dc.lft.to/lastmile_qr_scan", "ios": "https://dc.lft.to/lastmile_qr_scan"}, "is_disabled": 0, "fusion_lat": 0.0, "name": "4a3838051cfc2f9d131020b81f53dc58", "fusion_lon": 0.0}, {"is_reserved": 0, "type": "electric_scooter", "bike_id": "01a7bf8a002084329df6f97c733fb361", "lat": 38.906668833333335, "lon": -77.00921316666667, "rental_uris": {"android": "https://dc.lft.to/lastmile_qr_scan", "ios": "https://dc.lft.to/lastmile_qr_scan"}, "is_disabled": 0, "fusion_lat": 0.0, "name": "01a7bf8a002084329df6f97c733fb361", "fusion_lon": 0.0}, {"is_reserved": 0, "type": "electric_scooter", "bike_id": "3e6b84bcea01c9ccca2a98a8eaa49dda", "lat": 38.92041183333333, "lon": -77.04187966666667, "rental_uris": {"android": "https://dc.lft.to/lastmile_qr_scan", "ios": "https://dc.lft.to/lastmile_qr_scan"}, "is_disabled": 0, "fusion_lat": 0.0, "name": "3e6b84bcea01c9ccca2a98a8eaa49dda", "fusion_lon": 0.0}, {"is_reserved": 0, "type": "electric_scooter", "bike_id": "018c76b8681d654035aae7dc5926d52b", "lat": 38.92770816666667, "lon": -77.0278635, "rental_uris": {"android": "https://dc.lft.to/lastmile_qr_scan", "ios": "https://dc.lft.to/lastmile_qr_scan"}, "is_disabled": 0, "fusion_lat": 0.0, "name": "018c76b8681d654035aae7dc5926d52b", "fusion_lon": 0.0}, {"is_reserved": 0, "type": "electric_scooter", "bike_id": "8e338eb6cbef8e3900470eb6cc208876", "lat": 38.927536333333336, "lon": -77.02449533333333, "rental_uris": {"android": "https://dc.lft.to/lastmile_qr_scan", "ios": "https://dc.lft.to/lastmile_qr_scan"}, "is_disabled": 0, "fusion_lat": 0.0, "name": "8e338eb6cbef8e3900470eb6cc208876", "fusion_lon": 0.0}, {"is_reserved": 0, "type": "electric_scooter", "bike_id": "d5cd56b90eabc2e0542df14268333b51", "lat": 38.92840566666667, "lon": -77.05503833333333, "rental_uris": {"android": "https://dc.lft.to/lastmile_qr_scan", "ios": "https://dc.lft.to/lastmile_qr_scan"}, "is_disabled": 0, "fusion_lat": 0.0, "name": "d5cd56b90eabc2e0542df14268333b51", "fusion_lon": 0.0}, {"is_reserved": 0, "type": "electric_scooter", "bike_id": "0bc1f705f5872454ddf99fd4c9a0bfcb", "lat": 38.90737283333333, "lon": -77.01092433333334, "rental_uris": {"android": "https://dc.lft.to/lastmile_qr_scan", "ios": "https://dc.lft.to/lastmile_qr_scan"}, "is_disabled": 0, "fusion_lat": 0.0, "name": "0bc1f705f5872454ddf99fd4c9a0bfcb", "fusion_lon": 0.0}, {"is_reserved": 0, "type": "electric_scooter", "bike_id": "10c3ac4e6cc9fd399e8b7980f4523888", "lat": 38.919509166666664, "lon": -77.01351933333333, "rental_uris": {"android": "https://dc.lft.to/lastmile_qr_scan", "ios": "https://dc.lft.to/lastmile_qr_scan"}, "is_disabled": 0, "fusion_lat": 0.0, "name": "10c3ac4e6cc9fd399e8b7980f4523888", "fusion_lon": 0.0}, {"is_reserved": 0, "type": "electric_scooter", "bike_id": "a01c9db2f51c7f0a4caf02a4e9f45cd9", "lat": 38.94080666666667, "lon": -77.05495583333334, "rental_uris": {"android": "https://dc.lft.to/lastmile_qr_scan", "ios": "https://dc.lft.to/lastmile_qr_scan"}, "is_disabled": 0, "fusion_lat": 0.0, "name": "a01c9db2f51c7f0a4caf02a4e9f45cd9", "fusion_lon": 0.0}, {"is_reserved": 0, "type": "electric_scooter", "bike_id": "93c0de8f8216edd1a5e9d39ab006247a", "lat": 38.918838666666666, "lon": -77.03506333333333, "rental_uris": {"android": "https://dc.lft.to/lastmile_qr_scan", "ios": "https://dc.lft.to/lastmile_qr_scan"}, "is_disabled": 0, "fusion_lat": 0.0, "name": "93c0de8f8216edd1a5e9d39ab006247a", "fusion_lon": 0.0}, {"is_reserved": 0, "type": "electric_scooter", "bike_id": "053c5517a142bc6668b01a3d4b43b52c", "lat": 38.924975833333335, "lon": -77.03238633333333, "rental_uris": {"android": "https://dc.lft.to/lastmile_qr_scan", "ios": "https://dc.lft.to/lastmile_qr_scan"}, "is_disabled": 0, "fusion_lat": 0.0, "name": "053c5517a142bc6668b01a3d4b43b52c", "fusion_lon": 0.0}, {"is_reserved": 0, "type": "electric_scooter", "bike_id": "c685df8f41b06ad47a248ea595ce7703", "lat": 38.9003755, "lon": -76.99157833333334, "rental_uris": {"android": "https://dc.lft.to/lastmile_qr_scan", "ios": "https://dc.lft.to/lastmile_qr_scan"}, "is_disabled": 0, "fusion_lat": 0.0, "name": "c685df8f41b06ad47a248ea595ce7703", "fusion_lon": 0.0}, {"is_reserved": 0, "type": "electric_scooter", "bike_id": "0a39e65c500b3f4ecbf76b5d038ffd95", "lat": 38.923443666666664, "lon": -77.01896116666667, "rental_uris": {"android": "https://dc.lft.to/lastmile_qr_scan", "ios": "https://dc.lft.to/lastmile_qr_scan"}, "is_disabled": 0, "fusion_lat": 0.0, "name": "0a39e65c500b3f4ecbf76b5d038ffd95", "fusion_lon": 0.0}, {"is_reserved": 0, "type": "electric_scooter", "bike_id": "1935223b0e30fc6a6c59726dc2bcf1a3", "lat": 38.89354516666667, "lon": -77.0280155, "rental_uris": {"android": "https://dc.lft.to/lastmile_qr_scan", "ios": "https://dc.lft.to/lastmile_qr_scan"}, "is_disabled": 0, "fusion_lat": 0.0, "name": "1935223b0e30fc6a6c59726dc2bcf1a3", "fusion_lon": 0.0}, {"is_reserved": 0, "type": "electric_scooter", "bike_id": "d4530724365c62c7c6d946b95b5ece38", "lat": 38.87478133333333, "lon": -77.003365, "rental_uris": {"android": "https://dc.lft.to/lastmile_qr_scan", "ios": "https://dc.lft.to/lastmile_qr_scan"}, "is_disabled": 0, "fusion_lat": 0.0, "name": "d4530724365c62c7c6d946b95b5ece38", "fusion_lon": 0.0}, {"is_reserved": 0, "type": "electric_scooter", "bike_id": "87ba43fc111ca456ede54d051ba22c79", "lat": 38.8984975, "lon": -77.01295433333334, "rental_uris": {"android": "https://dc.lft.to/lastmile_qr_scan", "ios": "https://dc.lft.to/lastmile_qr_scan"}, "is_disabled": 0, "fusion_lat": 0.0, "name": "87ba43fc111ca456ede54d051ba22c79", "fusion_lon": 0.0}, {"is_reserved": 0, "type": "electric_bike", "bike_id": "563e0e68bb26efe28ece21ca53661de0", "lat": 38.999364166666666, "lon": -77.05134416666667, "rental_uris": {"android": "https://dc.lft.to/lastmile_qr_scan", "ios": "https://dc.lft.to/lastmile_qr_scan"}, "is_disabled": 0, "fusion_lat": 0.0, "name": "563e0e68bb26efe28ece21ca53661de0", "fusion_lon": 0.0}, {"is_reserved": 0, "type": "electric_scooter", "bike_id": "eadf47ac042d39d5629fb2de0f297c11", "lat": 38.892286666666664, "lon": -77.04369, "rental_uris": {"android": "https://dc.lft.to/lastmile_qr_scan", "ios": "https://dc.lft.to/lastmile_qr_scan"}, "is_disabled": 0, "fusion_lat": 0.0, "name": "eadf47ac042d39d5629fb2de0f297c11", "fusion_lon": 0.0}, {"is_reserved": 0, "type": "electric_scooter", "bike_id": "4c438ad9a5ec2a46c56b15e2a0a07dfa", "lat": 38.91416566666667, "lon": -77.02460383333333, "rental_uris": {"android": "https://dc.lft.to/lastmile_qr_scan", "ios": "https://dc.lft.to/lastmile_qr_scan"}, "is_disabled": 0, "fusion_lat": 0.0, "name": "4c438ad9a5ec2a46c56b15e2a0a07dfa", "fusion_lon": 0.0}, {"is_reserved": 0, "type": "electric_scooter", "bike_id": "ad857539f2b6d614850a22d227604871", "lat": 38.907237, "lon": -77.02168683333333, "rental_uris": {"android": "https://dc.lft.to/lastmile_qr_scan", "ios": "https://dc.lft.to/lastmile_qr_scan"}, "is_disabled": 0, "fusion_lat": 0.0, "name": "ad857539f2b6d614850a22d227604871", "fusion_lon": 0.0}, {"is_reserved": 0, "type": "electric_scooter", "bike_id": "c595dfa333cc7c1e11ee84380076aef0", "lat": 38.897344, "lon": -77.04418233333334, "rental_uris": {"android": "https://dc.lft.to/lastmile_qr_scan", "ios": "https://dc.lft.to/lastmile_qr_scan"}, "is_disabled": 0, "fusion_lat": 0.0, "name": "c595dfa333cc7c1e11ee84380076aef0", "fusion_lon": 0.0}, {"is_reserved": 0, "type": "electric_scooter", "bike_id": "5b69db688f68847a3b65668990efd4b5", "lat": 38.905476166666666, "lon": -77.0570015, "rental_uris": {"android": "https://dc.lft.to/lastmile_qr_scan", "ios": "https://dc.lft.to/lastmile_qr_scan"}, "is_disabled": 0, "fusion_lat": 0.0, "name": "5b69db688f68847a3b65668990efd4b5", "fusion_lon": 0.0}, {"is_reserved": 0, "type": "electric_bike", "bike_id": "f62235c08cc8916d9b05a6fb313b64ee", "lat": 38.972701, "lon": -77.14968583333334, "rental_uris": {"android": "https://dc.lft.to/lastmile_qr_scan", "ios": "https://dc.lft.to/lastmile_qr_scan"}, "is_disabled": 0, "fusion_lat": 0.0, "name": "f62235c08cc8916d9b05a6fb313b64ee", "fusion_lon": 0.0}, {"is_reserved": 0, "type": "electric_scooter", "bike_id": "464d2c3c7f78bab5b75a96d103a4a9f5", "lat": 38.897336, "lon": -77.02172216666666, "rental_uris": {"android": "https://dc.lft.to/lastmile_qr_scan", "ios": "https://dc.lft.to/lastmile_qr_scan"}, "is_disabled": 0, "fusion_lat": 0.0, "name": "464d2c3c7f78bab5b75a96d103a4a9f5", "fusion_lon": 0.0}, {"is_reserved": 0, "type": "electric_scooter", "bike_id": "2c481837c16da1cdd3fdd10494d3a908", "lat": 38.92583, "lon": -77.02938216666666, "rental_uris": {"android": "https://dc.lft.to/lastmile_qr_scan", "ios": "https://dc.lft.to/lastmile_qr_scan"}, "is_disabled": 0, "fusion_lat": 0.0, "name": "2c481837c16da1cdd3fdd10494d3a908", "fusion_lon": 0.0}, {"is_reserved": 0, "type": "electric_scooter", "bike_id": "c36bc76edf0739c601f7a7b5f7bac026", "lat": 38.93027683333333, "lon": -77.037874, "rental_uris": {"android": "https://dc.lft.to/lastmile_qr_scan", "ios": "https://dc.lft.to/lastmile_qr_scan"}, "is_disabled": 0, "fusion_lat": 0.0, "name": "c36bc76edf0739c601f7a7b5f7bac026", "fusion_lon": 0.0}, {"is_reserved": 0, "type": "electric_scooter", "bike_id": "b86ed5d6e373032967b7a0b21e87b9a9", "lat": 38.91411516666667, "lon": -77.02724983333333, "rental_uris": {"android": "https://dc.lft.to/lastmile_qr_scan", "ios": "https://dc.lft.to/lastmile_qr_scan"}, "is_disabled": 0, "fusion_lat": 0.0, "name": "b86ed5d6e373032967b7a0b21e87b9a9", "fusion_lon": 0.0}, {"is_reserved": 0, "type": "electric_scooter", "bike_id": "8a810c9c8478034839ec89c542d729e8", "lat": 38.93464916666667, "lon": -77.027679, "rental_uris": {"android": "https://dc.lft.to/lastmile_qr_scan", "ios": "https://dc.lft.to/lastmile_qr_scan"}, "is_disabled": 0, "fusion_lat": 0.0, "name": "8a810c9c8478034839ec89c542d729e8", "fusion_lon": 0.0}, {"is_reserved": 0, "type": "electric_scooter", "bike_id": "4484f683956023401bbaa47b8bef0496", "lat": 38.950939166666664, "lon": -77.02535133333333, "rental_uris": {"android": "https://dc.lft.to/lastmile_qr_scan", "ios": "https://dc.lft.to/lastmile_qr_scan"}, "is_disabled": 0, "fusion_lat": 0.0, "name": "4484f683956023401bbaa47b8bef0496", "fusion_lon": 0.0}, {"is_reserved": 0, "type": "electric_scooter", "bike_id": "50ed1b3d0dd712efea8359765b8a7442", "lat": 38.9157085, "lon": -77.02968483333333, "rental_uris": {"android": "https://dc.lft.to/lastmile_qr_scan", "ios": "https://dc.lft.to/lastmile_qr_scan"}, "is_disabled": 0, "fusion_lat": 0.0, "name": "50ed1b3d0dd712efea8359765b8a7442", "fusion_lon": 0.0}, {"is_reserved": 0, "type": "electric_scooter", "bike_id": "e4f994535209fdc14253aa0246680f49", "lat": 38.897947333333335, "lon": -77.02703133333333, "rental_uris": {"android": "https://dc.lft.to/lastmile_qr_scan", "ios": "https://dc.lft.to/lastmile_qr_scan"}, "is_disabled": 0, "fusion_lat": 0.0, "name": "e4f994535209fdc14253aa0246680f49", "fusion_lon": 0.0}, {"is_reserved": 0, "type": "electric_scooter", "bike_id": "55b060d42a426627bcbbfdf21b0c0c59", "lat": 38.93454966666667, "lon": -77.0295225, "rental_uris": {"android": "https://dc.lft.to/lastmile_qr_scan", "ios": "https://dc.lft.to/lastmile_qr_scan"}, "is_disabled": 0, "fusion_lat": 0.0, "name": "55b060d42a426627bcbbfdf21b0c0c59", "fusion_lon": 0.0}, {"is_reserved": 0, "type": "electric_bike", "bike_id": "e02f7edadc913eb2d8eebbd1b1bba03e", "lat": 38.883449666666664, "lon": -76.93628, "rental_uris": {"android": "https://dc.lft.to/lastmile_qr_scan", "ios": "https://dc.lft.to/lastmile_qr_scan"}, "is_disabled": 0, "fusion_lat": 0.0, "name": "e02f7edadc913eb2d8eebbd1b1bba03e", "fusion_lon": 0.0}, {"is_reserved": 0, "type": "electric_scooter", "bike_id": "257876da68728dd25b22943a7886b5ce", "lat": 38.921181833333335, "lon": -77.02218266666667, "rental_uris": {"android": "https://dc.lft.to/lastmile_qr_scan", "ios": "https://dc.lft.to/lastmile_qr_scan"}, "is_disabled": 0, "fusion_lat": 0.0, "name": "257876da68728dd25b22943a7886b5ce", "fusion_lon": 0.0}, {"is_reserved": 0, "type": "electric_scooter", "bike_id": "bbdb01bb8c0feaa94f44b9072d5d10a2", "lat": 38.93070266666667, "lon": -77.03818766666667, "rental_uris": {"android": "https://dc.lft.to/lastmile_qr_scan", "ios": "https://dc.lft.to/lastmile_qr_scan"}, "is_disabled": 0, "fusion_lat": 0.0, "name": "bbdb01bb8c0feaa94f44b9072d5d10a2", "fusion_lon": 0.0}, {"is_reserved": 0, "type": "electric_scooter", "bike_id": "9c2b4b09175b5450bc5dca5918a3a22c", "lat": 38.9073035, "lon": -77.02443133333334, "rental_uris": {"android": "https://dc.lft.to/lastmile_qr_scan", "ios": "https://dc.lft.to/lastmile_qr_scan"}, "is_disabled": 0, "fusion_lat": 0.0, "name": "9c2b4b09175b5450bc5dca5918a3a22c", "fusion_lon": 0.0}, {"is_reserved": 0, "type": "electric_scooter", "bike_id": "2fa82d5892b11196dfe29fc552c0f281", "lat": 38.923817166666666, "lon": -77.0295445, "rental_uris": {"android": "https://dc.lft.to/lastmile_qr_scan", "ios": "https://dc.lft.to/lastmile_qr_scan"}, "is_disabled": 0, "fusion_lat": 0.0, "name": "2fa82d5892b11196dfe29fc552c0f281", "fusion_lon": 0.0}, {"is_reserved": 0, "type": "electric_scooter", "bike_id": "d070e3e6d003e181ca2616256298aa7d", "lat": 38.922459333333336, "lon": -77.035186, "rental_uris": {"android": "https://dc.lft.to/lastmile_qr_scan", "ios": "https://dc.lft.to/lastmile_qr_scan"}, "is_disabled": 0, "fusion_lat": 0.0, "name": "d070e3e6d003e181ca2616256298aa7d", "fusion_lon": 0.0}, {"is_reserved": 0, "type": "electric_scooter", "bike_id": "5ebe6047f9537ed114e4428e9809a4cc", "lat": 38.931462833333335, "lon": -77.03830833333333, "rental_uris": {"android": "https://dc.lft.to/lastmile_qr_scan", "ios": "https://dc.lft.to/lastmile_qr_scan"}, "is_disabled": 0, "fusion_lat": 0.0, "name": "5ebe6047f9537ed114e4428e9809a4cc", "fusion_lon": 0.0}, {"is_reserved": 0, "type": "electric_scooter", "bike_id": "8a18e1ca2218fe0cc8255d37231fa86f", "lat": 38.937236, "lon": -77.03634066666666, "rental_uris": {"android": "https://dc.lft.to/lastmile_qr_scan", "ios": "https://dc.lft.to/lastmile_qr_scan"}, "is_disabled": 0, "fusion_lat": 0.0, "name": "8a18e1ca2218fe0cc8255d37231fa86f", "fusion_lon": 0.0}, {"is_reserved": 0, "type": "electric_scooter", "bike_id": "35d7ffd8da9e8d531a4e38afd9df7ef8", "lat": 38.900843, "lon": -77.049581, "rental_uris": {"android": "https://dc.lft.to/lastmile_qr_scan", "ios": "https://dc.lft.to/lastmile_qr_scan"}, "is_disabled": 0, "fusion_lat": 0.0, "name": "35d7ffd8da9e8d531a4e38afd9df7ef8", "fusion_lon": 0.0}, {"is_reserved": 0, "type": "electric_scooter", "bike_id": "422bbc5e24b091a0498c7369b1d5a4c8", "lat": 38.89246583333333, "lon": -77.03341916666666, "rental_uris": {"android": "https://dc.lft.to/lastmile_qr_scan", "ios": "https://dc.lft.to/lastmile_qr_scan"}, "is_disabled": 0, "fusion_lat": 0.0, "name": "422bbc5e24b091a0498c7369b1d5a4c8", "fusion_lon": 0.0}, {"is_reserved": 0, "type": "electric_scooter", "bike_id": "4b16e0dac79d027cd3be0350bd12c232", "lat": 38.934047166666666, "lon": -77.02843, "rental_uris": {"android": "https://dc.lft.to/lastmile_qr_scan", "ios": "https://dc.lft.to/lastmile_qr_scan"}, "is_disabled": 0, "fusion_lat": 0.0, "name": "4b16e0dac79d027cd3be0350bd12c232", "fusion_lon": 0.0}, {"is_reserved": 0, "type": "electric_scooter", "bike_id": "3218b527c4d56f24300308e6bb3fd0c7", "lat": 38.887388333333334, "lon": -77.02392916666666, "rental_uris": {"android": "https://dc.lft.to/lastmile_qr_scan", "ios": "https://dc.lft.to/lastmile_qr_scan"}, "is_disabled": 0, "fusion_lat": 0.0, "name": "3218b527c4d56f24300308e6bb3fd0c7", "fusion_lon": 0.0}, {"is_reserved": 0, "type": "electric_scooter", "bike_id": "fbaff950b162741edd0e1b8518e0e93f", "lat": 38.89228266666667, "lon": -77.044839, "rental_uris": {"android": "https://dc.lft.to/lastmile_qr_scan", "ios": "https://dc.lft.to/lastmile_qr_scan"}, "is_disabled": 0, "fusion_lat": 0.0, "name": "fbaff950b162741edd0e1b8518e0e93f", "fusion_lon": 0.0}, {"is_reserved": 0, "type": "electric_scooter", "bike_id": "5226ac429a20f05acbca442097207e2b", "lat": 38.898886, "lon": -76.99357016666667, "rental_uris": {"android": "https://dc.lft.to/lastmile_qr_scan", "ios": "https://dc.lft.to/lastmile_qr_scan"}, "is_disabled": 0, "fusion_lat": 0.0, "name": "5226ac429a20f05acbca442097207e2b", "fusion_lon": 0.0}, {"is_reserved": 0, "type": "electric_scooter", "bike_id": "f332e0828044feed9653798c93a1ed77", "lat": 38.902447333333335, "lon": -77.0285305, "rental_uris": {"android": "https://dc.lft.to/lastmile_qr_scan", "ios": "https://dc.lft.to/lastmile_qr_scan"}, "is_disabled": 0, "fusion_lat": 0.0, "name": "f332e0828044feed9653798c93a1ed77", "fusion_lon": 0.0}, {"is_reserved": 0, "type": "electric_scooter", "bike_id": "14c0d6cf5e6dc845b56953a21ff85723", "lat": 38.9337245, "lon": -77.03466466666667, "rental_uris": {"android": "https://dc.lft.to/lastmile_qr_scan", "ios": "https://dc.lft.to/lastmile_qr_scan"}, "is_disabled": 0, "fusion_lat": 0.0, "name": "14c0d6cf5e6dc845b56953a21ff85723", "fusion_lon": 0.0}, {"is_reserved": 0, "type": "electric_scooter", "bike_id": "324b4faea2f3a5e815a023aa86d60b89", "lat": 38.9241885, "lon": -77.02008883333333, "rental_uris": {"android": "https://dc.lft.to/lastmile_qr_scan", "ios": "https://dc.lft.to/lastmile_qr_scan"}, "is_disabled": 0, "fusion_lat": 0.0, "name": "324b4faea2f3a5e815a023aa86d60b89", "fusion_lon": 0.0}, {"is_reserved": 0, "type": "electric_bike", "bike_id": "cd0ac1bee190ddb1bcdc20f3eba3c7b1", "lat": 38.877364166666666, "lon": -77.11849533333333, "rental_uris": {"android": "https://dc.lft.to/lastmile_qr_scan", "ios": "https://dc.lft.to/lastmile_qr_scan"}, "is_disabled": 0, "fusion_lat": 0.0, "name": "cd0ac1bee190ddb1bcdc20f3eba3c7b1", "fusion_lon": 0.0}, {"is_reserved": 0, "type": "electric_scooter", "bike_id": "817779f978b74d31458b4dbe4315eeea", "lat": 38.88395366666666, "lon": -77.03008316666667, "rental_uris": {"android": "https://dc.lft.to/lastmile_qr_scan", "ios": "https://dc.lft.to/lastmile_qr_scan"}, "is_disabled": 0, "fusion_lat": 0.0, "name": "817779f978b74d31458b4dbe4315eeea", "fusion_lon": 0.0}, {"is_reserved": 0, "type": "electric_scooter", "bike_id": "6e11fd9a3f7ced3dc2065dbd2a36890c", "lat": 38.901081166666664, "lon": -77.01620483333333, "rental_uris": {"android": "https://dc.lft.to/lastmile_qr_scan", "ios": "https://dc.lft.to/lastmile_qr_scan"}, "is_disabled": 0, "fusion_lat": 0.0, "name": "6e11fd9a3f7ced3dc2065dbd2a36890c", "fusion_lon": 0.0}, {"is_reserved": 0, "type": "electric_scooter", "bike_id": "ee09cc4a500ddb7de6851bdeda5a5fc6", "lat": 38.88747333333333, "lon": -77.017385, "rental_uris": {"android": "https://dc.lft.to/lastmile_qr_scan", "ios": "https://dc.lft.to/lastmile_qr_scan"}, "is_disabled": 0, "fusion_lat": 0.0, "name": "ee09cc4a500ddb7de6851bdeda5a5fc6", "fusion_lon": 0.0}, {"is_reserved": 0, "type": "electric_scooter", "bike_id": "abc3b3ca72a3e772fe8ea456a136b9b1", "lat": 38.93786683333333, "lon": -77.07449433333333, "rental_uris": {"android": "https://dc.lft.to/lastmile_qr_scan", "ios": "https://dc.lft.to/lastmile_qr_scan"}, "is_disabled": 0, "fusion_lat": 0.0, "name": "abc3b3ca72a3e772fe8ea456a136b9b1", "fusion_lon": 0.0}, {"is_reserved": 0, "type": "electric_scooter", "bike_id": "97b8c2853d6afb83ecf927450eb46f9a", "lat": 38.9400705, "lon": -77.02734083333333, "rental_uris": {"android": "https://dc.lft.to/lastmile_qr_scan", "ios": "https://dc.lft.to/lastmile_qr_scan"}, "is_disabled": 0, "fusion_lat": 0.0, "name": "97b8c2853d6afb83ecf927450eb46f9a", "fusion_lon": 0.0}, {"is_reserved": 0, "type": "electric_scooter", "bike_id": "379fc90b9a94709526a0ca790e4e88ce", "lat": 38.91249666666667, "lon": -77.03848633333334, "rental_uris": {"android": "https://dc.lft.to/lastmile_qr_scan", "ios": "https://dc.lft.to/lastmile_qr_scan"}, "is_disabled": 0, "fusion_lat": 0.0, "name": "379fc90b9a94709526a0ca790e4e88ce", "fusion_lon": 0.0}, {"is_reserved": 0, "type": "electric_scooter", "bike_id": "aef9fb6ad34296b5ee27a2a957fd6466", "lat": 38.905705, "lon": -76.9977575, "rental_uris": {"android": "https://dc.lft.to/lastmile_qr_scan", "ios": "https://dc.lft.to/lastmile_qr_scan"}, "is_disabled": 0, "fusion_lat": 0.0, "name": "aef9fb6ad34296b5ee27a2a957fd6466", "fusion_lon": 0.0}, {"is_reserved": 0, "type": "electric_bike", "bike_id": "42c11e1550efa52e2fb5cac64c9c47c8", "lat": 38.908044833333335, "lon": -77.02385966666667, "rental_uris": {"android": "https://dc.lft.to/lastmile_qr_scan", "ios": "https://dc.lft.to/lastmile_qr_scan"}, "is_disabled": 0, "fusion_lat": 0.0, "name": "42c11e1550efa52e2fb5cac64c9c47c8", "fusion_lon": 0.0}, {"is_reserved": 0, "type": "electric_scooter", "bike_id": "545264f4d70218997f5044689c229337", "lat": 38.94978016666666, "lon": -77.024456, "rental_uris": {"android": "https://dc.lft.to/lastmile_qr_scan", "ios": "https://dc.lft.to/lastmile_qr_scan"}, "is_disabled": 0, "fusion_lat": 0.0, "name": "545264f4d70218997f5044689c229337", "fusion_lon": 0.0}, {"is_reserved": 0, "type": "electric_scooter", "bike_id": "7c44e4680a0c1edb54e60af9b6470fa5", "lat": 38.89955783333333, "lon": -77.0539125, "rental_uris": {"android": "https://dc.lft.to/lastmile_qr_scan", "ios": "https://dc.lft.to/lastmile_qr_scan"}, "is_disabled": 0, "fusion_lat": 0.0, "name": "7c44e4680a0c1edb54e60af9b6470fa5", "fusion_lon": 0.0}, {"is_reserved": 0, "type": "electric_scooter", "bike_id": "14ba173a99f3eea9fb2490fc4f48ea34", "lat": 38.928703166666665, "lon": -77.03443633333333, "rental_uris": {"android": "https://dc.lft.to/lastmile_qr_scan", "ios": "https://dc.lft.to/lastmile_qr_scan"}, "is_disabled": 0, "fusion_lat": 0.0, "name": "14ba173a99f3eea9fb2490fc4f48ea34", "fusion_lon": 0.0}, {"is_reserved": 0, "type": "electric_bike", "bike_id": "cc365595720c4bf9025b281e745c73cb", "lat": 38.95601516666667, "lon": -76.995346, "rental_uris": {"android": "https://dc.lft.to/lastmile_qr_scan", "ios": "https://dc.lft.to/lastmile_qr_scan"}, "is_disabled": 0, "fusion_lat": 0.0, "name": "cc365595720c4bf9025b281e745c73cb", "fusion_lon": 0.0}, {"is_reserved": 0, "type": "electric_scooter", "bike_id": "975898ac8b5e8edd920e692a346b7acf", "lat": 38.90462566666667, "lon": -77.00326883333334, "rental_uris": {"android": "https://dc.lft.to/lastmile_qr_scan", "ios": "https://dc.lft.to/lastmile_qr_scan"}, "is_disabled": 0, "fusion_lat": 0.0, "name": "975898ac8b5e8edd920e692a346b7acf", "fusion_lon": 0.0}, {"is_reserved": 0, "type": "electric_scooter", "bike_id": "29a0e1786e7ee4e30707b27a0576924c", "lat": 38.924501666666664, "lon": -77.02035383333333, "rental_uris": {"android": "https://dc.lft.to/lastmile_qr_scan", "ios": "https://dc.lft.to/lastmile_qr_scan"}, "is_disabled": 0, "fusion_lat": 0.0, "name": "29a0e1786e7ee4e30707b27a0576924c", "fusion_lon": 0.0}, {"is_reserved": 0, "type": "electric_scooter", "bike_id": "8804723585d47ba82852c1ff4151f27a", "lat": 38.91320916666667, "lon": -77.014448, "rental_uris": {"android": "https://dc.lft.to/lastmile_qr_scan", "ios": "https://dc.lft.to/lastmile_qr_scan"}, "is_disabled": 0, "fusion_lat": 0.0, "name": "8804723585d47ba82852c1ff4151f27a", "fusion_lon": 0.0}, {"is_reserved": 0, "type": "electric_bike", "bike_id": "4af530f157364cdc1bd8235078396dd4", "lat": 38.959548166666664, "lon": -77.019826, "rental_uris": {"android": "https://dc.lft.to/lastmile_qr_scan", "ios": "https://dc.lft.to/lastmile_qr_scan"}, "is_disabled": 0, "fusion_lat": 0.0, "name": "4af530f157364cdc1bd8235078396dd4", "fusion_lon": 0.0}, {"is_reserved": 0, "type": "electric_bike", "bike_id": "a9b521906dfe918efefb1c0dbeb73d88", "lat": 38.832986166666664, "lon": -77.0841, "rental_uris": {"android": "https://dc.lft.to/lastmile_qr_scan", "ios": "https://dc.lft.to/lastmile_qr_scan"}, "is_disabled": 0, "fusion_lat": 0.0, "name": "a9b521906dfe918efefb1c0dbeb73d88", "fusion_lon": 0.0}, {"is_reserved": 0, "type": "electric_scooter", "bike_id": "3a900a96c4cb9cd58777492eeefec4ec", "lat": 38.90077333333333, "lon": -77.02161916666667, "rental_uris": {"android": "https://dc.lft.to/lastmile_qr_scan", "ios": "https://dc.lft.to/lastmile_qr_scan"}, "is_disabled": 0, "fusion_lat": 0.0, "name": "3a900a96c4cb9cd58777492eeefec4ec", "fusion_lon": 0.0}, {"is_reserved": 0, "type": "electric_scooter", "bike_id": "14ef4b815cef51d427408180ac27dac7", "lat": 38.90018533333333, "lon": -77.04027383333333, "rental_uris": {"android": "https://dc.lft.to/lastmile_qr_scan", "ios": "https://dc.lft.to/lastmile_qr_scan"}, "is_disabled": 0, "fusion_lat": 0.0, "name": "14ef4b815cef51d427408180ac27dac7", "fusion_lon": 0.0}, {"is_reserved": 0, "type": "electric_scooter", "bike_id": "744dd23f2b0d6e6b381ba6dd132220c5", "lat": 38.897528333333334, "lon": -77.00775233333333, "rental_uris": {"android": "https://dc.lft.to/lastmile_qr_scan", "ios": "https://dc.lft.to/lastmile_qr_scan"}, "is_disabled": 0, "fusion_lat": 0.0, "name": "744dd23f2b0d6e6b381ba6dd132220c5", "fusion_lon": 0.0}, {"is_reserved": 0, "type": "electric_scooter", "bike_id": "c21ece95c9e49a31106434cc75d146e7", "lat": 38.92814, "lon": -77.02847283333334, "rental_uris": {"android": "https://dc.lft.to/lastmile_qr_scan", "ios": "https://dc.lft.to/lastmile_qr_scan"}, "is_disabled": 0, "fusion_lat": 0.0, "name": "c21ece95c9e49a31106434cc75d146e7", "fusion_lon": 0.0}, {"is_reserved": 0, "type": "electric_scooter", "bike_id": "83e65e97d98524bc2f135ac42e25a3c1", "lat": 38.928398, "lon": -77.006032, "rental_uris": {"android": "https://dc.lft.to/lastmile_qr_scan", "ios": "https://dc.lft.to/lastmile_qr_scan"}, "is_disabled": 0, "fusion_lat": 0.0, "name": "83e65e97d98524bc2f135ac42e25a3c1", "fusion_lon": 0.0}, {"is_reserved": 0, "type": "electric_scooter", "bike_id": "449596d209a2dd77eb1c40c4fba4fc03", "lat": 38.92929133333333, "lon": -77.02007883333333, "rental_uris": {"android": "https://dc.lft.to/lastmile_qr_scan", "ios": "https://dc.lft.to/lastmile_qr_scan"}, "is_disabled": 0, "fusion_lat": 0.0, "name": "449596d209a2dd77eb1c40c4fba4fc03", "fusion_lon": 0.0}, {"is_reserved": 0, "type": "electric_scooter", "bike_id": "90730e24d70579864e3d64408f3780dd", "lat": 38.901768833333335, "lon": -77.024885, "rental_uris": {"android": "https://dc.lft.to/lastmile_qr_scan", "ios": "https://dc.lft.to/lastmile_qr_scan"}, "is_disabled": 0, "fusion_lat": 0.0, "name": "90730e24d70579864e3d64408f3780dd", "fusion_lon": 0.0}, {"is_reserved": 0, "type": "electric_scooter", "bike_id": "f835fd3fe0ce8c4fabe257dc73c948a3", "lat": 38.911167166666665, "lon": -77.045057, "rental_uris": {"android": "https://dc.lft.to/lastmile_qr_scan", "ios": "https://dc.lft.to/lastmile_qr_scan"}, "is_disabled": 0, "fusion_lat": 0.0, "name": "f835fd3fe0ce8c4fabe257dc73c948a3", "fusion_lon": 0.0}, {"is_reserved": 0, "type": "electric_scooter", "bike_id": "8454e07e5a7b7acafc0ece4216716174", "lat": 38.9352525, "lon": -77.0194065, "rental_uris": {"android": "https://dc.lft.to/lastmile_qr_scan", "ios": "https://dc.lft.to/lastmile_qr_scan"}, "is_disabled": 0, "fusion_lat": 0.0, "name": "8454e07e5a7b7acafc0ece4216716174", "fusion_lon": 0.0}, {"is_reserved": 0, "type": "electric_scooter", "bike_id": "bfcda2140bb7d2d919a27a4a781980bf", "lat": 38.9111355, "lon": -77.03212833333333, "rental_uris": {"android": "https://dc.lft.to/lastmile_qr_scan", "ios": "https://dc.lft.to/lastmile_qr_scan"}, "is_disabled": 0, "fusion_lat": 0.0, "name": "bfcda2140bb7d2d919a27a4a781980bf", "fusion_lon": 0.0}, {"is_reserved": 0, "type": "electric_scooter", "bike_id": "fed6c8f98bbd86831c666fee734f7dc4", "lat": 38.884385, "lon": -76.95766233333333, "rental_uris": {"android": "https://dc.lft.to/lastmile_qr_scan", "ios": "https://dc.lft.to/lastmile_qr_scan"}, "is_disabled": 0, "fusion_lat": 0.0, "name": "fed6c8f98bbd86831c666fee734f7dc4", "fusion_lon": 0.0}, {"is_reserved": 0, "type": "electric_scooter", "bike_id": "d53220ccd728a64e0d3ffb3536df2ad5", "lat": 38.90346733333333, "lon": -77.02569466666667, "rental_uris": {"android": "https://dc.lft.to/lastmile_qr_scan", "ios": "https://dc.lft.to/lastmile_qr_scan"}, "is_disabled": 0, "fusion_lat": 0.0, "name": "d53220ccd728a64e0d3ffb3536df2ad5", "fusion_lon": 0.0}, {"is_reserved": 0, "type": "electric_scooter", "bike_id": "c82b494a3254f0a4b929b2bcac3f591d", "lat": 38.923691833333336, "lon": -77.04149083333333, "rental_uris": {"android": "https://dc.lft.to/lastmile_qr_scan", "ios": "https://dc.lft.to/lastmile_qr_scan"}, "is_disabled": 0, "fusion_lat": 0.0, "name": "c82b494a3254f0a4b929b2bcac3f591d", "fusion_lon": 0.0}, {"is_reserved": 0, "type": "electric_scooter", "bike_id": "ee9c1ef859c14943d6a56d7ad1d00fce", "lat": 38.90583483333333, "lon": -77.00596366666667, "rental_uris": {"android": "https://dc.lft.to/lastmile_qr_scan", "ios": "https://dc.lft.to/lastmile_qr_scan"}, "is_disabled": 0, "fusion_lat": 0.0, "name": "ee9c1ef859c14943d6a56d7ad1d00fce", "fusion_lon": 0.0}, {"is_reserved": 0, "type": "electric_bike", "bike_id": "42f9171062f447fd978e1b8cf8ec2ab0", "lat": 39.08492416666667, "lon": -76.95057883333334, "rental_uris": {"android": "https://dc.lft.to/lastmile_qr_scan", "ios": "https://dc.lft.to/lastmile_qr_scan"}, "is_disabled": 0, "fusion_lat": 0.0, "name": "42f9171062f447fd978e1b8cf8ec2ab0", "fusion_lon": 0.0}, {"is_reserved": 0, "type": "electric_scooter", "bike_id": "7cf66d30deb8cb7c5bcc545a751d2875", "lat": 38.933791166666666, "lon": -76.995088, "rental_uris": {"android": "https://dc.lft.to/lastmile_qr_scan", "ios": "https://dc.lft.to/lastmile_qr_scan"}, "is_disabled": 0, "fusion_lat": 0.0, "name": "7cf66d30deb8cb7c5bcc545a751d2875", "fusion_lon": 0.0}, {"is_reserved": 0, "type": "electric_scooter", "bike_id": "929573a96760e47be457d9eb29e5d51f", "lat": 38.94433466666667, "lon": -76.97961366666667, "rental_uris": {"android": "https://dc.lft.to/lastmile_qr_scan", "ios": "https://dc.lft.to/lastmile_qr_scan"}, "is_disabled": 0, "fusion_lat": 0.0, "name": "929573a96760e47be457d9eb29e5d51f", "fusion_lon": 0.0}, {"is_reserved": 0, "type": "electric_scooter", "bike_id": "3bfae8f187da8ba6c7249b386e157a07", "lat": 38.92589783333333, "lon": -77.02592716666666, "rental_uris": {"android": "https://dc.lft.to/lastmile_qr_scan", "ios": "https://dc.lft.to/lastmile_qr_scan"}, "is_disabled": 0, "fusion_lat": 0.0, "name": "3bfae8f187da8ba6c7249b386e157a07", "fusion_lon": 0.0}, {"is_reserved": 0, "type": "electric_scooter", "bike_id": "cec739ebcb81beb937d64ca291f29001", "lat": 38.9110835, "lon": -77.03827783333334, "rental_uris": {"android": "https://dc.lft.to/lastmile_qr_scan", "ios": "https://dc.lft.to/lastmile_qr_scan"}, "is_disabled": 0, "fusion_lat": 0.0, "name": "cec739ebcb81beb937d64ca291f29001", "fusion_lon": 0.0}, {"is_reserved": 0, "type": "electric_scooter", "bike_id": "3dc3769a59a9c6aa126551c09254699d", "lat": 38.915836166666665, "lon": -77.0123345, "rental_uris": {"android": "https://dc.lft.to/lastmile_qr_scan", "ios": "https://dc.lft.to/lastmile_qr_scan"}, "is_disabled": 0, "fusion_lat": 0.0, "name": "3dc3769a59a9c6aa126551c09254699d", "fusion_lon": 0.0}, {"is_reserved": 0, "type": "electric_scooter", "bike_id": "e08b6a90182a07413ef6b64d200efbc5", "lat": 38.920411, "lon": -77.01219666666667, "rental_uris": {"android": "https://dc.lft.to/lastmile_qr_scan", "ios": "https://dc.lft.to/lastmile_qr_scan"}, "is_disabled": 0, "fusion_lat": 0.0, "name": "e08b6a90182a07413ef6b64d200efbc5", "fusion_lon": 0.0}, {"is_reserved": 0, "type": "electric_scooter", "bike_id": "40f192a4c18e1d84ee41d1bac48fb12e", "lat": 38.92091583333333, "lon": -77.02520216666667, "rental_uris": {"android": "https://dc.lft.to/lastmile_qr_scan", "ios": "https://dc.lft.to/lastmile_qr_scan"}, "is_disabled": 0, "fusion_lat": 0.0, "name": "40f192a4c18e1d84ee41d1bac48fb12e", "fusion_lon": 0.0}, {"is_reserved": 0, "type": "electric_scooter", "bike_id": "e3e5548078704981906f84394534750c", "lat": 38.9000545, "lon": -77.02305433333333, "rental_uris": {"android": "https://dc.lft.to/lastmile_qr_scan", "ios": "https://dc.lft.to/lastmile_qr_scan"}, "is_disabled": 0, "fusion_lat": 0.0, "name": "e3e5548078704981906f84394534750c", "fusion_lon": 0.0}, {"is_reserved": 0, "type": "electric_scooter", "bike_id": "0dbdc4493a928fa5289b38e1665658a0", "lat": 38.904418, "lon": -77.03111916666667, "rental_uris": {"android": "https://dc.lft.to/lastmile_qr_scan", "ios": "https://dc.lft.to/lastmile_qr_scan"}, "is_disabled": 0, "fusion_lat": 0.0, "name": "0dbdc4493a928fa5289b38e1665658a0", "fusion_lon": 0.0}, {"is_reserved": 0, "type": "electric_scooter", "bike_id": "dc9f920894ce0578955ac84353ef5f2c", "lat": 38.90870066666667, "lon": -77.0459305, "rental_uris": {"android": "https://dc.lft.to/lastmile_qr_scan", "ios": "https://dc.lft.to/lastmile_qr_scan"}, "is_disabled": 0, "fusion_lat": 0.0, "name": "dc9f920894ce0578955ac84353ef5f2c", "fusion_lon": 0.0}, {"is_reserved": 0, "type": "electric_scooter", "bike_id": "4fba93b045ecdd4cdc9892f4edd1fcbd", "lat": 38.9062695, "lon": -77.06513833333334, "rental_uris": {"android": "https://dc.lft.to/lastmile_qr_scan", "ios": "https://dc.lft.to/lastmile_qr_scan"}, "is_disabled": 0, "fusion_lat": 0.0, "name": "4fba93b045ecdd4cdc9892f4edd1fcbd", "fusion_lon": 0.0}, {"is_reserved": 0, "type": "electric_scooter", "bike_id": "6415c6bdae6e7a00ac9f14abcb659032", "lat": 38.93029166666667, "lon": -77.02357566666667, "rental_uris": {"android": "https://dc.lft.to/lastmile_qr_scan", "ios": "https://dc.lft.to/lastmile_qr_scan"}, "is_disabled": 0, "fusion_lat": 0.0, "name": "6415c6bdae6e7a00ac9f14abcb659032", "fusion_lon": 0.0}, {"is_reserved": 0, "type": "electric_scooter", "bike_id": "cfc3972d00c3f9792c675b5ba3e13783", "lat": 38.9117925, "lon": -77.023031, "rental_uris": {"android": "https://dc.lft.to/lastmile_qr_scan", "ios": "https://dc.lft.to/lastmile_qr_scan"}, "is_disabled": 0, "fusion_lat": 0.0, "name": "cfc3972d00c3f9792c675b5ba3e13783", "fusion_lon": 0.0}, {"is_reserved": 0, "type": "electric_scooter", "bike_id": "b231aa28df3e7daf77ec4f52e4b68b1f", "lat": 38.926059333333335, "lon": -77.02158616666667, "rental_uris": {"android": "https://dc.lft.to/lastmile_qr_scan", "ios": "https://dc.lft.to/lastmile_qr_scan"}, "is_disabled": 0, "fusion_lat": 0.0, "name": "b231aa28df3e7daf77ec4f52e4b68b1f", "fusion_lon": 0.0}, {"is_reserved": 0, "type": "electric_scooter", "bike_id": "6db4c6a35462913ab2af926a817a1c56", "lat": 38.90721883333333, "lon": -77.047925, "rental_uris": {"android": "https://dc.lft.to/lastmile_qr_scan", "ios": "https://dc.lft.to/lastmile_qr_scan"}, "is_disabled": 0, "fusion_lat": 0.0, "name": "6db4c6a35462913ab2af926a817a1c56", "fusion_lon": 0.0}, {"is_reserved": 0, "type": "electric_scooter", "bike_id": "cdaec1860ac2f79da731a8dd8c832b13", "lat": 38.922068833333334, "lon": -77.0390495, "rental_uris": {"android": "https://dc.lft.to/lastmile_qr_scan", "ios": "https://dc.lft.to/lastmile_qr_scan"}, "is_disabled": 0, "fusion_lat": 0.0, "name": "cdaec1860ac2f79da731a8dd8c832b13", "fusion_lon": 0.0}, {"is_reserved": 0, "type": "electric_scooter", "bike_id": "9d7399542d4ede10a7998283190da019", "lat": 38.924557, "lon": -77.020304, "rental_uris": {"android": "https://dc.lft.to/lastmile_qr_scan", "ios": "https://dc.lft.to/lastmile_qr_scan"}, "is_disabled": 0, "fusion_lat": 0.0, "name": "9d7399542d4ede10a7998283190da019", "fusion_lon": 0.0}, {"is_reserved": 0, "type": "electric_scooter", "bike_id": "b7ec72b7734195cd0b143294e99124d7", "lat": 38.90064183333333, "lon": -76.98560133333334, "rental_uris": {"android": "https://dc.lft.to/lastmile_qr_scan", "ios": "https://dc.lft.to/lastmile_qr_scan"}, "is_disabled": 0, "fusion_lat": 0.0, "name": "b7ec72b7734195cd0b143294e99124d7", "fusion_lon": 0.0}, {"is_reserved": 0, "type": "electric_scooter", "bike_id": "362e487347fa49e4ce66f4ec7a13c98a", "lat": 38.892483666666664, "lon": -77.03347666666667, "rental_uris": {"android": "https://dc.lft.to/lastmile_qr_scan", "ios": "https://dc.lft.to/lastmile_qr_scan"}, "is_disabled": 0, "fusion_lat": 0.0, "name": "362e487347fa49e4ce66f4ec7a13c98a", "fusion_lon": 0.0}, {"is_reserved": 0, "type": "electric_scooter", "bike_id": "e2753d1680def5d1921916097951fbe3", "lat": 38.9017315, "lon": -77.0238095, "rental_uris": {"android": "https://dc.lft.to/lastmile_qr_scan", "ios": "https://dc.lft.to/lastmile_qr_scan"}, "is_disabled": 0, "fusion_lat": 0.0, "name": "e2753d1680def5d1921916097951fbe3", "fusion_lon": 0.0}, {"is_reserved": 0, "type": "electric_scooter", "bike_id": "25c1b0eb66830da59308e75ce4895206", "lat": 38.93335283333333, "lon": -77.02909683333333, "rental_uris": {"android": "https://dc.lft.to/lastmile_qr_scan", "ios": "https://dc.lft.to/lastmile_qr_scan"}, "is_disabled": 0, "fusion_lat": 0.0, "name": "25c1b0eb66830da59308e75ce4895206", "fusion_lon": 0.0}, {"is_reserved": 0, "type": "electric_scooter", "bike_id": "f1141a7ec6ee7e14efbba753b332d041", "lat": 38.89859666666667, "lon": -77.02220433333333, "rental_uris": {"android": "https://dc.lft.to/lastmile_qr_scan", "ios": "https://dc.lft.to/lastmile_qr_scan"}, "is_disabled": 0, "fusion_lat": 0.0, "name": "f1141a7ec6ee7e14efbba753b332d041", "fusion_lon": 0.0}, {"is_reserved": 0, "type": "electric_scooter", "bike_id": "17c4aeb986661508c90d5c2d72bcada5", "lat": 38.919216, "lon": -77.04803933333334, "rental_uris": {"android": "https://dc.lft.to/lastmile_qr_scan", "ios": "https://dc.lft.to/lastmile_qr_scan"}, "is_disabled": 0, "fusion_lat": 0.0, "name": "17c4aeb986661508c90d5c2d72bcada5", "fusion_lon": 0.0}, {"is_reserved": 0, "type": "electric_scooter", "bike_id": "b2f97cb9715b4d4d42670a6e5e0d8dac", "lat": 38.89618866666667, "lon": -77.04682933333333, "rental_uris": {"android": "https://dc.lft.to/lastmile_qr_scan", "ios": "https://dc.lft.to/lastmile_qr_scan"}, "is_disabled": 0, "fusion_lat": 0.0, "name": "b2f97cb9715b4d4d42670a6e5e0d8dac", "fusion_lon": 0.0}, {"is_reserved": 0, "type": "electric_scooter", "bike_id": "db598d95c32666872394098b3d76e7b0", "lat": 38.925757833333336, "lon": -76.99494483333334, "rental_uris": {"android": "https://dc.lft.to/lastmile_qr_scan", "ios": "https://dc.lft.to/lastmile_qr_scan"}, "is_disabled": 0, "fusion_lat": 0.0, "name": "db598d95c32666872394098b3d76e7b0", "fusion_lon": 0.0}, {"is_reserved": 0, "type": "electric_scooter", "bike_id": "fc914b0175990da58c3ee921ade02ff1", "lat": 38.91131133333333, "lon": -77.04420116666667, "rental_uris": {"android": "https://dc.lft.to/lastmile_qr_scan", "ios": "https://dc.lft.to/lastmile_qr_scan"}, "is_disabled": 0, "fusion_lat": 0.0, "name": "fc914b0175990da58c3ee921ade02ff1", "fusion_lon": 0.0}, {"is_reserved": 0, "type": "electric_scooter", "bike_id": "46031aaa4a67a15a3eddd6370dc46fe0", "lat": 38.89927733333333, "lon": -76.9783365, "rental_uris": {"android": "https://dc.lft.to/lastmile_qr_scan", "ios": "https://dc.lft.to/lastmile_qr_scan"}, "is_disabled": 0, "fusion_lat": 0.0, "name": "46031aaa4a67a15a3eddd6370dc46fe0", "fusion_lon": 0.0}, {"is_reserved": 0, "type": "electric_scooter", "bike_id": "e2155f81f5c48d23325a92afa3a4482d", "lat": 38.89222916666667, "lon": -77.02220883333334, "rental_uris": {"android": "https://dc.lft.to/lastmile_qr_scan", "ios": "https://dc.lft.to/lastmile_qr_scan"}, "is_disabled": 0, "fusion_lat": 0.0, "name": "e2155f81f5c48d23325a92afa3a4482d", "fusion_lon": 0.0}, {"is_reserved": 0, "type": "electric_scooter", "bike_id": "44d2917890c0dea97b3dd5738a943c59", "lat": 38.897573666666666, "lon": -77.001991, "rental_uris": {"android": "https://dc.lft.to/lastmile_qr_scan", "ios": "https://dc.lft.to/lastmile_qr_scan"}, "is_disabled": 0, "fusion_lat": 0.0, "name": "44d2917890c0dea97b3dd5738a943c59", "fusion_lon": 0.0}, {"is_reserved": 0, "type": "electric_scooter", "bike_id": "326798775905d88b5eab04b78409a2c2", "lat": 38.91120083333333, "lon": -77.04501883333333, "rental_uris": {"android": "https://dc.lft.to/lastmile_qr_scan", "ios": "https://dc.lft.to/lastmile_qr_scan"}, "is_disabled": 0, "fusion_lat": 0.0, "name": "326798775905d88b5eab04b78409a2c2", "fusion_lon": 0.0}, {"is_reserved": 0, "type": "electric_scooter", "bike_id": "cddfe8d9cdcf4d152741532152996a4c", "lat": 38.9261125, "lon": -77.05178183333334, "rental_uris": {"android": "https://dc.lft.to/lastmile_qr_scan", "ios": "https://dc.lft.to/lastmile_qr_scan"}, "is_disabled": 0, "fusion_lat": 0.0, "name": "cddfe8d9cdcf4d152741532152996a4c", "fusion_lon": 0.0}, {"is_reserved": 0, "type": "electric_scooter", "bike_id": "42c37c0108c4839f69d41a9e88314bd1", "lat": 38.8851, "lon": -77.01114183333334, "rental_uris": {"android": "https://dc.lft.to/lastmile_qr_scan", "ios": "https://dc.lft.to/lastmile_qr_scan"}, "is_disabled": 0, "fusion_lat": 0.0, "name": "42c37c0108c4839f69d41a9e88314bd1", "fusion_lon": 0.0}, {"is_reserved": 0, "type": "electric_scooter", "bike_id": "298d44dc14ddfde15beab97ee9dab06f", "lat": 38.9083335, "lon": -76.98717033333334, "rental_uris": {"android": "https://dc.lft.to/lastmile_qr_scan", "ios": "https://dc.lft.to/lastmile_qr_scan"}, "is_disabled": 0, "fusion_lat": 0.0, "name": "298d44dc14ddfde15beab97ee9dab06f", "fusion_lon": 0.0}, {"is_reserved": 0, "type": "electric_scooter", "bike_id": "9f750f9d8cb1389b1bf57d8c83f70e71", "lat": 38.918166666666664, "lon": -77.03172116666667, "rental_uris": {"android": "https://dc.lft.to/lastmile_qr_scan", "ios": "https://dc.lft.to/lastmile_qr_scan"}, "is_disabled": 0, "fusion_lat": 0.0, "name": "9f750f9d8cb1389b1bf57d8c83f70e71", "fusion_lon": 0.0}, {"is_reserved": 0, "type": "electric_scooter", "bike_id": "d1ea6d35e0e6fe8f891e4b81b00043c9", "lat": 38.88631083333333, "lon": -77.0153225, "rental_uris": {"android": "https://dc.lft.to/lastmile_qr_scan", "ios": "https://dc.lft.to/lastmile_qr_scan"}, "is_disabled": 0, "fusion_lat": 0.0, "name": "d1ea6d35e0e6fe8f891e4b81b00043c9", "fusion_lon": 0.0}, {"is_reserved": 0, "type": "electric_scooter", "bike_id": "b218cbd84f87ce280f52bbd520d45959", "lat": 38.905847, "lon": -77.0060295, "rental_uris": {"android": "https://dc.lft.to/lastmile_qr_scan", "ios": "https://dc.lft.to/lastmile_qr_scan"}, "is_disabled": 0, "fusion_lat": 0.0, "name": "b218cbd84f87ce280f52bbd520d45959", "fusion_lon": 0.0}, {"is_reserved": 0, "type": "electric_scooter", "bike_id": "2aafd837d74e3132972412a67829fda2", "lat": 38.88604383333333, "lon": -77.004006, "rental_uris": {"android": "https://dc.lft.to/lastmile_qr_scan", "ios": "https://dc.lft.to/lastmile_qr_scan"}, "is_disabled": 0, "fusion_lat": 0.0, "name": "2aafd837d74e3132972412a67829fda2", "fusion_lon": 0.0}, {"is_reserved": 0, "type": "electric_bike", "bike_id": "cffcd54fd7d93262803c0d23e28f4d12", "lat": 38.991065166666665, "lon": -76.88152166666667, "rental_uris": {"android": "https://dc.lft.to/lastmile_qr_scan", "ios": "https://dc.lft.to/lastmile_qr_scan"}, "is_disabled": 0, "fusion_lat": 0.0, "name": "cffcd54fd7d93262803c0d23e28f4d12", "fusion_lon": 0.0}, {"is_reserved": 0, "type": "electric_bike", "bike_id": "a8663ef26b40c6b7f8acc98a99c72913", "lat": 38.84337933333333, "lon": -76.99747016666667, "rental_uris": {"android": "https://dc.lft.to/lastmile_qr_scan", "ios": "https://dc.lft.to/lastmile_qr_scan"}, "is_disabled": 0, "fusion_lat": 0.0, "name": "a8663ef26b40c6b7f8acc98a99c72913", "fusion_lon": 0.0}, {"is_reserved": 0, "type": "electric_scooter", "bike_id": "1dbc75828c89dd1e1eea1ad5db65b795", "lat": 38.942019333333334, "lon": -77.02518816666667, "rental_uris": {"android": "https://dc.lft.to/lastmile_qr_scan", "ios": "https://dc.lft.to/lastmile_qr_scan"}, "is_disabled": 0, "fusion_lat": 0.0, "name": "1dbc75828c89dd1e1eea1ad5db65b795", "fusion_lon": 0.0}, {"is_reserved": 0, "type": "electric_scooter", "bike_id": "2782e131cf3c98d0ec7635dce2c1bc89", "lat": 38.92003666666667, "lon": -76.98506283333333, "rental_uris": {"android": "https://dc.lft.to/lastmile_qr_scan", "ios": "https://dc.lft.to/lastmile_qr_scan"}, "is_disabled": 0, "fusion_lat": 0.0, "name": "2782e131cf3c98d0ec7635dce2c1bc89", "fusion_lon": 0.0}, {"is_reserved": 0, "type": "electric_scooter", "bike_id": "dbddc6446579a5d4392f5906a2c34fc0", "lat": 38.93116116666667, "lon": -77.0248375, "rental_uris": {"android": "https://dc.lft.to/lastmile_qr_scan", "ios": "https://dc.lft.to/lastmile_qr_scan"}, "is_disabled": 0, "fusion_lat": 0.0, "name": "dbddc6446579a5d4392f5906a2c34fc0", "fusion_lon": 0.0}, {"is_reserved": 0, "type": "electric_scooter", "bike_id": "98e39fb1717b41556e51fd48b76c5dab", "lat": 38.91578233333333, "lon": -77.01999833333333, "rental_uris": {"android": "https://dc.lft.to/lastmile_qr_scan", "ios": "https://dc.lft.to/lastmile_qr_scan"}, "is_disabled": 0, "fusion_lat": 0.0, "name": "98e39fb1717b41556e51fd48b76c5dab", "fusion_lon": 0.0}, {"is_reserved": 0, "type": "electric_bike", "bike_id": "3ac413f8b250e96dc3eb6bebccfd5268", "lat": 38.84562416666667, "lon": -76.97055966666667, "rental_uris": {"android": "https://dc.lft.to/lastmile_qr_scan", "ios": "https://dc.lft.to/lastmile_qr_scan"}, "is_disabled": 0, "fusion_lat": 0.0, "name": "3ac413f8b250e96dc3eb6bebccfd5268", "fusion_lon": 0.0}, {"is_reserved": 0, "type": "electric_bike", "bike_id": "efc996b5a3d04f535556024064686832", "lat": 38.838154833333334, "lon": -77.09523933333334, "rental_uris": {"android": "https://dc.lft.to/lastmile_qr_scan", "ios": "https://dc.lft.to/lastmile_qr_scan"}, "is_disabled": 0, "fusion_lat": 0.0, "name": "efc996b5a3d04f535556024064686832", "fusion_lon": 0.0}, {"is_reserved": 0, "type": "electric_scooter", "bike_id": "92c679a167668fdbde9f6d201bf55009", "lat": 38.9408255, "lon": -77.0291185, "rental_uris": {"android": "https://dc.lft.to/lastmile_qr_scan", "ios": "https://dc.lft.to/lastmile_qr_scan"}, "is_disabled": 0, "fusion_lat": 0.0, "name": "92c679a167668fdbde9f6d201bf55009", "fusion_lon": 0.0}, {"is_reserved": 0, "type": "electric_scooter", "bike_id": "34114b110a0ed5eb4144a2288501e09b", "lat": 38.914757333333334, "lon": -77.01816983333333, "rental_uris": {"android": "https://dc.lft.to/lastmile_qr_scan", "ios": "https://dc.lft.to/lastmile_qr_scan"}, "is_disabled": 0, "fusion_lat": 0.0, "name": "34114b110a0ed5eb4144a2288501e09b", "fusion_lon": 0.0}, {"is_reserved": 0, "type": "electric_scooter", "bike_id": "3639b66d0d586b0470e606bc245babaf", "lat": 38.887399, "lon": -77.01531433333334, "rental_uris": {"android": "https://dc.lft.to/lastmile_qr_scan", "ios": "https://dc.lft.to/lastmile_qr_scan"}, "is_disabled": 0, "fusion_lat": 0.0, "name": "3639b66d0d586b0470e606bc245babaf", "fusion_lon": 0.0}, {"is_reserved": 0, "type": "electric_scooter", "bike_id": "3574248d5728650374961c823d24bb7b", "lat": 38.8762675, "lon": -77.0124825, "rental_uris": {"android": "https://dc.lft.to/lastmile_qr_scan", "ios": "https://dc.lft.to/lastmile_qr_scan"}, "is_disabled": 0, "fusion_lat": 0.0, "name": "3574248d5728650374961c823d24bb7b", "fusion_lon": 0.0}, {"is_reserved": 0, "type": "electric_scooter", "bike_id": "ce1cc9d8d4517662389c6aa36762bf2a", "lat": 38.917367666666664, "lon": -77.04177783333333, "rental_uris": {"android": "https://dc.lft.to/lastmile_qr_scan", "ios": "https://dc.lft.to/lastmile_qr_scan"}, "is_disabled": 0, "fusion_lat": 0.0, "name": "ce1cc9d8d4517662389c6aa36762bf2a", "fusion_lon": 0.0}, {"is_reserved": 0, "type": "electric_scooter", "bike_id": "6cf097e6187d87684c41ec9170b794dc", "lat": 38.892252, "lon": -77.0242455, "rental_uris": {"android": "https://dc.lft.to/lastmile_qr_scan", "ios": "https://dc.lft.to/lastmile_qr_scan"}, "is_disabled": 0, "fusion_lat": 0.0, "name": "6cf097e6187d87684c41ec9170b794dc", "fusion_lon": 0.0}, {"is_reserved": 0, "type": "electric_scooter", "bike_id": "0bbee22dab4377a22bf87536df08c70c", "lat": 38.884113666666664, "lon": -77.02555283333334, "rental_uris": {"android": "https://dc.lft.to/lastmile_qr_scan", "ios": "https://dc.lft.to/lastmile_qr_scan"}, "is_disabled": 0, "fusion_lat": 0.0, "name": "0bbee22dab4377a22bf87536df08c70c", "fusion_lon": 0.0}, {"is_reserved": 0, "type": "electric_scooter", "bike_id": "5733e2ee7711f780c84ac96a513a47fc", "lat": 38.93048, "lon": -77.08316583333334, "rental_uris": {"android": "https://dc.lft.to/lastmile_qr_scan", "ios": "https://dc.lft.to/lastmile_qr_scan"}, "is_disabled": 0, "fusion_lat": 0.0, "name": "5733e2ee7711f780c84ac96a513a47fc", "fusion_lon": 0.0}, {"is_reserved": 0, "type": "electric_scooter", "bike_id": "022a5b0858befc1c8f634c520f5697b7", "lat": 38.898308666666665, "lon": -77.0482465, "rental_uris": {"android": "https://dc.lft.to/lastmile_qr_scan", "ios": "https://dc.lft.to/lastmile_qr_scan"}, "is_disabled": 0, "fusion_lat": 0.0, "name": "022a5b0858befc1c8f634c520f5697b7", "fusion_lon": 0.0}, {"is_reserved": 0, "type": "electric_scooter", "bike_id": "164fc28ceb13837548ef084879902007", "lat": 38.92388316666667, "lon": -77.0274185, "rental_uris": {"android": "https://dc.lft.to/lastmile_qr_scan", "ios": "https://dc.lft.to/lastmile_qr_scan"}, "is_disabled": 0, "fusion_lat": 0.0, "name": "164fc28ceb13837548ef084879902007", "fusion_lon": 0.0}, {"is_reserved": 0, "type": "electric_scooter", "bike_id": "0a522772945e10d44421a2931c142eff", "lat": 38.906229833333335, "lon": -77.03300366666667, "rental_uris": {"android": "https://dc.lft.to/lastmile_qr_scan", "ios": "https://dc.lft.to/lastmile_qr_scan"}, "is_disabled": 0, "fusion_lat": 0.0, "name": "0a522772945e10d44421a2931c142eff", "fusion_lon": 0.0}, {"is_reserved": 0, "type": "electric_scooter", "bike_id": "9f8f6d13699b76d0bf0a314c9694803c", "lat": 38.904874, "lon": -77.04894716666666, "rental_uris": {"android": "https://dc.lft.to/lastmile_qr_scan", "ios": "https://dc.lft.to/lastmile_qr_scan"}, "is_disabled": 0, "fusion_lat": 0.0, "name": "9f8f6d13699b76d0bf0a314c9694803c", "fusion_lon": 0.0}, {"is_reserved": 0, "type": "electric_scooter", "bike_id": "44dcf0211282a0265ed812705ba6e2f9", "lat": 38.9024105, "lon": -77.02779166666667, "rental_uris": {"android": "https://dc.lft.to/lastmile_qr_scan", "ios": "https://dc.lft.to/lastmile_qr_scan"}, "is_disabled": 0, "fusion_lat": 0.0, "name": "44dcf0211282a0265ed812705ba6e2f9", "fusion_lon": 0.0}, {"is_reserved": 0, "type": "electric_scooter", "bike_id": "263933cae41e66acf84024f33e8e4f5c", "lat": 38.8955335, "lon": -77.01120216666666, "rental_uris": {"android": "https://dc.lft.to/lastmile_qr_scan", "ios": "https://dc.lft.to/lastmile_qr_scan"}, "is_disabled": 0, "fusion_lat": 0.0, "name": "263933cae41e66acf84024f33e8e4f5c", "fusion_lon": 0.0}, {"is_reserved": 0, "type": "electric_scooter", "bike_id": "6266a0aa94a141504edf0338e653e7a9", "lat": 38.898438666666664, "lon": -77.02865816666667, "rental_uris": {"android": "https://dc.lft.to/lastmile_qr_scan", "ios": "https://dc.lft.to/lastmile_qr_scan"}, "is_disabled": 0, "fusion_lat": 0.0, "name": "6266a0aa94a141504edf0338e653e7a9", "fusion_lon": 0.0}, {"is_reserved": 0, "type": "electric_scooter", "bike_id": "1646a5fc88e1711e181267e70571b81c", "lat": 38.91956666666667, "lon": -77.04456683333333, "rental_uris": {"android": "https://dc.lft.to/lastmile_qr_scan", "ios": "https://dc.lft.to/lastmile_qr_scan"}, "is_disabled": 0, "fusion_lat": 0.0, "name": "1646a5fc88e1711e181267e70571b81c", "fusion_lon": 0.0}, {"is_reserved": 0, "type": "electric_scooter", "bike_id": "340ec6e318f502dced31393fa27de273", "lat": 38.891866666666665, "lon": -77.01592616666667, "rental_uris": {"android": "https://dc.lft.to/lastmile_qr_scan", "ios": "https://dc.lft.to/lastmile_qr_scan"}, "is_disabled": 0, "fusion_lat": 0.0, "name": "340ec6e318f502dced31393fa27de273", "fusion_lon": 0.0}, {"is_reserved": 0, "type": "electric_scooter", "bike_id": "897aa9a4ff279d5cbbba148f075acf21", "lat": 38.903902, "lon": -77.03164783333334, "rental_uris": {"android": "https://dc.lft.to/lastmile_qr_scan", "ios": "https://dc.lft.to/lastmile_qr_scan"}, "is_disabled": 0, "fusion_lat": 0.0, "name": "897aa9a4ff279d5cbbba148f075acf21", "fusion_lon": 0.0}, {"is_reserved": 0, "type": "electric_scooter", "bike_id": "ebba70595a1dd0105ff31768fcafbe4b", "lat": 38.8967655, "lon": -77.01202683333334, "rental_uris": {"android": "https://dc.lft.to/lastmile_qr_scan", "ios": "https://dc.lft.to/lastmile_qr_scan"}, "is_disabled": 0, "fusion_lat": 0.0, "name": "ebba70595a1dd0105ff31768fcafbe4b", "fusion_lon": 0.0}, {"is_reserved": 0, "type": "electric_scooter", "bike_id": "31de247144cd242700b4752abd2db486", "lat": 38.90852233333333, "lon": -77.03456733333333, "rental_uris": {"android": "https://dc.lft.to/lastmile_qr_scan", "ios": "https://dc.lft.to/lastmile_qr_scan"}, "is_disabled": 0, "fusion_lat": 0.0, "name": "31de247144cd242700b4752abd2db486", "fusion_lon": 0.0}, {"is_reserved": 0, "type": "electric_scooter", "bike_id": "677aa0108160bf2d5bb5d09e89126867", "lat": 38.91801483333333, "lon": -77.02707383333333, "rental_uris": {"android": "https://dc.lft.to/lastmile_qr_scan", "ios": "https://dc.lft.to/lastmile_qr_scan"}, "is_disabled": 0, "fusion_lat": 0.0, "name": "677aa0108160bf2d5bb5d09e89126867", "fusion_lon": 0.0}, {"is_reserved": 0, "type": "electric_scooter", "bike_id": "0ab1478a98d0c026208cb25709be25c5", "lat": 38.92550633333333, "lon": -76.999516, "rental_uris": {"android": "https://dc.lft.to/lastmile_qr_scan", "ios": "https://dc.lft.to/lastmile_qr_scan"}, "is_disabled": 0, "fusion_lat": 0.0, "name": "0ab1478a98d0c026208cb25709be25c5", "fusion_lon": 0.0}, {"is_reserved": 0, "type": "electric_bike", "bike_id": "0018062b6da945f627fd6cc81d21209d", "lat": 38.920363, "lon": -76.99560666666666, "rental_uris": {"android": "https://dc.lft.to/lastmile_qr_scan", "ios": "https://dc.lft.to/lastmile_qr_scan"}, "is_disabled": 0, "fusion_lat": 0.0, "name": "0018062b6da945f627fd6cc81d21209d", "fusion_lon": 0.0}, {"is_reserved": 0, "type": "electric_scooter", "bike_id": "32b9286d169a7554e7a223adbcc6c76f", "lat": 38.90396, "lon": -77.02738583333333, "rental_uris": {"android": "https://dc.lft.to/lastmile_qr_scan", "ios": "https://dc.lft.to/lastmile_qr_scan"}, "is_disabled": 0, "fusion_lat": 0.0, "name": "32b9286d169a7554e7a223adbcc6c76f", "fusion_lon": 0.0}, {"is_reserved": 0, "type": "electric_scooter", "bike_id": "3ecebbc90875983a9bc4b2c062a2bb60", "lat": 38.900438666666666, "lon": -77.01812816666667, "rental_uris": {"android": "https://dc.lft.to/lastmile_qr_scan", "ios": "https://dc.lft.to/lastmile_qr_scan"}, "is_disabled": 0, "fusion_lat": 0.0, "name": "3ecebbc90875983a9bc4b2c062a2bb60", "fusion_lon": 0.0}, {"is_reserved": 0, "type": "electric_scooter", "bike_id": "5302c97c2a7651fe4b8b43a6f1da0bc2", "lat": 38.923477166666665, "lon": -77.03498583333334, "rental_uris": {"android": "https://dc.lft.to/lastmile_qr_scan", "ios": "https://dc.lft.to/lastmile_qr_scan"}, "is_disabled": 0, "fusion_lat": 0.0, "name": "5302c97c2a7651fe4b8b43a6f1da0bc2", "fusion_lon": 0.0}, {"is_reserved": 0, "type": "electric_scooter", "bike_id": "cab95ebef343c05999a33cc25afbd59b", "lat": 38.94325766666667, "lon": -77.07575616666666, "rental_uris": {"android": "https://dc.lft.to/lastmile_qr_scan", "ios": "https://dc.lft.to/lastmile_qr_scan"}, "is_disabled": 0, "fusion_lat": 0.0, "name": "cab95ebef343c05999a33cc25afbd59b", "fusion_lon": 0.0}, {"is_reserved": 0, "type": "electric_scooter", "bike_id": "92720e852b4dd8edcd36f4123f1eb011", "lat": 38.926657666666664, "lon": -77.036186, "rental_uris": {"android": "https://dc.lft.to/lastmile_qr_scan", "ios": "https://dc.lft.to/lastmile_qr_scan"}, "is_disabled": 0, "fusion_lat": 0.0, "name": "92720e852b4dd8edcd36f4123f1eb011", "fusion_lon": 0.0}, {"is_reserved": 0, "type": "electric_scooter", "bike_id": "f7aba1763452c812a98b6d733295d21a", "lat": 38.90791433333333, "lon": -77.009506, "rental_uris": {"android": "https://dc.lft.to/lastmile_qr_scan", "ios": "https://dc.lft.to/lastmile_qr_scan"}, "is_disabled": 0, "fusion_lat": 0.0, "name": "f7aba1763452c812a98b6d733295d21a", "fusion_lon": 0.0}, {"is_reserved": 0, "type": "electric_scooter", "bike_id": "34abe4bba74b83eecc041c3a2677caa5", "lat": 38.89287133333333, "lon": -77.0197935, "rental_uris": {"android": "https://dc.lft.to/lastmile_qr_scan", "ios": "https://dc.lft.to/lastmile_qr_scan"}, "is_disabled": 0, "fusion_lat": 0.0, "name": "34abe4bba74b83eecc041c3a2677caa5", "fusion_lon": 0.0}, {"is_reserved": 0, "type": "electric_scooter", "bike_id": "9c3a1f6b7ffa104683ffe6674e61a9b7", "lat": 38.897481666666664, "lon": -77.0099485, "rental_uris": {"android": "https://dc.lft.to/lastmile_qr_scan", "ios": "https://dc.lft.to/lastmile_qr_scan"}, "is_disabled": 0, "fusion_lat": 0.0, "name": "9c3a1f6b7ffa104683ffe6674e61a9b7", "fusion_lon": 0.0}, {"is_reserved": 0, "type": "electric_scooter", "bike_id": "0ac5e4985c4ab157449fda3594a49c02", "lat": 38.917006, "lon": -77.05296433333334, "rental_uris": {"android": "https://dc.lft.to/lastmile_qr_scan", "ios": "https://dc.lft.to/lastmile_qr_scan"}, "is_disabled": 0, "fusion_lat": 0.0, "name": "0ac5e4985c4ab157449fda3594a49c02", "fusion_lon": 0.0}, {"is_reserved": 0, "type": "electric_scooter", "bike_id": "70f586e9eb8db197bde608b690466c64", "lat": 38.921515666666664, "lon": -77.03507316666666, "rental_uris": {"android": "https://dc.lft.to/lastmile_qr_scan", "ios": "https://dc.lft.to/lastmile_qr_scan"}, "is_disabled": 0, "fusion_lat": 0.0, "name": "70f586e9eb8db197bde608b690466c64", "fusion_lon": 0.0}, {"is_reserved": 0, "type": "electric_scooter", "bike_id": "05d1cf6a07eda7e756a3da64a006bcca", "lat": 38.95155883333334, "lon": -77.018678, "rental_uris": {"android": "https://dc.lft.to/lastmile_qr_scan", "ios": "https://dc.lft.to/lastmile_qr_scan"}, "is_disabled": 0, "fusion_lat": 0.0, "name": "05d1cf6a07eda7e756a3da64a006bcca", "fusion_lon": 0.0}, {"is_reserved": 0, "type": "electric_scooter", "bike_id": "1a6726b41afd111e9e639dc4faa0ba49", "lat": 38.907933166666666, "lon": -77.0480045, "rental_uris": {"android": "https://dc.lft.to/lastmile_qr_scan", "ios": "https://dc.lft.to/lastmile_qr_scan"}, "is_disabled": 0, "fusion_lat": 0.0, "name": "1a6726b41afd111e9e639dc4faa0ba49", "fusion_lon": 0.0}, {"is_reserved": 0, "type": "electric_scooter", "bike_id": "423c28b8885e183460daa88cc01ed979", "lat": 38.905514833333335, "lon": -77.05921616666667, "rental_uris": {"android": "https://dc.lft.to/lastmile_qr_scan", "ios": "https://dc.lft.to/lastmile_qr_scan"}, "is_disabled": 0, "fusion_lat": 0.0, "name": "423c28b8885e183460daa88cc01ed979", "fusion_lon": 0.0}, {"is_reserved": 0, "type": "electric_scooter", "bike_id": "e98afb900afeffc93fb743713e5d4ec6", "lat": 38.905418166666664, "lon": -77.05817616666667, "rental_uris": {"android": "https://dc.lft.to/lastmile_qr_scan", "ios": "https://dc.lft.to/lastmile_qr_scan"}, "is_disabled": 0, "fusion_lat": 0.0, "name": "e98afb900afeffc93fb743713e5d4ec6", "fusion_lon": 0.0}, {"is_reserved": 0, "type": "electric_scooter", "bike_id": "3a474bf2e1ecc20626cbb49e3d182e61", "lat": 38.8928485, "lon": -77.03200483333333, "rental_uris": {"android": "https://dc.lft.to/lastmile_qr_scan", "ios": "https://dc.lft.to/lastmile_qr_scan"}, "is_disabled": 0, "fusion_lat": 0.0, "name": "3a474bf2e1ecc20626cbb49e3d182e61", "fusion_lon": 0.0}, {"is_reserved": 0, "type": "electric_scooter", "bike_id": "59fcb72083d1c1e79be5e7f4082dbbbb", "lat": 38.911216333333336, "lon": -77.04384716666667, "rental_uris": {"android": "https://dc.lft.to/lastmile_qr_scan", "ios": "https://dc.lft.to/lastmile_qr_scan"}, "is_disabled": 0, "fusion_lat": 0.0, "name": "59fcb72083d1c1e79be5e7f4082dbbbb", "fusion_lon": 0.0}, {"is_reserved": 0, "type": "electric_scooter", "bike_id": "798209315224264e7d86ec68ebbd4e08", "lat": 38.924451166666664, "lon": -77.0202025, "rental_uris": {"android": "https://dc.lft.to/lastmile_qr_scan", "ios": "https://dc.lft.to/lastmile_qr_scan"}, "is_disabled": 0, "fusion_lat": 0.0, "name": "798209315224264e7d86ec68ebbd4e08", "fusion_lon": 0.0}, {"is_reserved": 0, "type": "electric_scooter", "bike_id": "8734518e10a5bf42c53cdeac8c2fa1fa", "lat": 38.9241565, "lon": -77.020074, "rental_uris": {"android": "https://dc.lft.to/lastmile_qr_scan", "ios": "https://dc.lft.to/lastmile_qr_scan"}, "is_disabled": 0, "fusion_lat": 0.0, "name": "8734518e10a5bf42c53cdeac8c2fa1fa", "fusion_lon": 0.0}, {"is_reserved": 0, "type": "electric_scooter", "bike_id": "7ce3568764a0cfff353ae284af12ad46", "lat": 38.92250383333333, "lon": -77.04247516666666, "rental_uris": {"android": "https://dc.lft.to/lastmile_qr_scan", "ios": "https://dc.lft.to/lastmile_qr_scan"}, "is_disabled": 0, "fusion_lat": 0.0, "name": "7ce3568764a0cfff353ae284af12ad46", "fusion_lon": 0.0}, {"is_reserved": 0, "type": "electric_scooter", "bike_id": "acd6f8550e6eefffdff7f9c66db0744d", "lat": 38.93639866666667, "lon": -77.08320883333333, "rental_uris": {"android": "https://dc.lft.to/lastmile_qr_scan", "ios": "https://dc.lft.to/lastmile_qr_scan"}, "is_disabled": 0, "fusion_lat": 0.0, "name": "acd6f8550e6eefffdff7f9c66db0744d", "fusion_lon": 0.0}, {"is_reserved": 0, "type": "electric_scooter", "bike_id": "85665fa52164d7c32c9600ba40067db5", "lat": 38.973827666666665, "lon": -77.01812316666667, "rental_uris": {"android": "https://dc.lft.to/lastmile_qr_scan", "ios": "https://dc.lft.to/lastmile_qr_scan"}, "is_disabled": 0, "fusion_lat": 0.0, "name": "85665fa52164d7c32c9600ba40067db5", "fusion_lon": 0.0}, {"is_reserved": 0, "type": "electric_scooter", "bike_id": "c7d585ecc52060fa3df202f6f38a9386", "lat": 38.91318616666667, "lon": -77.036529, "rental_uris": {"android": "https://dc.lft.to/lastmile_qr_scan", "ios": "https://dc.lft.to/lastmile_qr_scan"}, "is_disabled": 0, "fusion_lat": 0.0, "name": "c7d585ecc52060fa3df202f6f38a9386", "fusion_lon": 0.0}, {"is_reserved": 0, "type": "electric_scooter", "bike_id": "1ad7bdaab89506b68cba62156bb34952", "lat": 38.921035333333336, "lon": -77.03179216666666, "rental_uris": {"android": "https://dc.lft.to/lastmile_qr_scan", "ios": "https://dc.lft.to/lastmile_qr_scan"}, "is_disabled": 0, "fusion_lat": 0.0, "name": "1ad7bdaab89506b68cba62156bb34952", "fusion_lon": 0.0}, {"is_reserved": 0, "type": "electric_scooter", "bike_id": "4a073658cd05bd2736b8f60014327893", "lat": 38.903900666666665, "lon": -77.031524, "rental_uris": {"android": "https://dc.lft.to/lastmile_qr_scan", "ios": "https://dc.lft.to/lastmile_qr_scan"}, "is_disabled": 0, "fusion_lat": 0.0, "name": "4a073658cd05bd2736b8f60014327893", "fusion_lon": 0.0}, {"is_reserved": 0, "type": "electric_scooter", "bike_id": "561d84b2afca162a3aea40d84a9a6737", "lat": 38.907178333333334, "lon": -77.02711483333333, "rental_uris": {"android": "https://dc.lft.to/lastmile_qr_scan", "ios": "https://dc.lft.to/lastmile_qr_scan"}, "is_disabled": 0, "fusion_lat": 0.0, "name": "561d84b2afca162a3aea40d84a9a6737", "fusion_lon": 0.0}, {"is_reserved": 0, "type": "electric_scooter", "bike_id": "2204788f71b7db8f8277dbbe409a96aa", "lat": 38.89949416666666, "lon": -76.98188283333333, "rental_uris": {"android": "https://dc.lft.to/lastmile_qr_scan", "ios": "https://dc.lft.to/lastmile_qr_scan"}, "is_disabled": 0, "fusion_lat": 0.0, "name": "2204788f71b7db8f8277dbbe409a96aa", "fusion_lon": 0.0}, {"is_reserved": 0, "type": "electric_scooter", "bike_id": "7c0a878dd3cf50aa5739fbe574a3fbf1", "lat": 38.921472666666666, "lon": -77.04700416666667, "rental_uris": {"android": "https://dc.lft.to/lastmile_qr_scan", "ios": "https://dc.lft.to/lastmile_qr_scan"}, "is_disabled": 0, "fusion_lat": 0.0, "name": "7c0a878dd3cf50aa5739fbe574a3fbf1", "fusion_lon": 0.0}, {"is_reserved": 0, "type": "electric_scooter", "bike_id": "078a38422ead699efa3bfff82336b41d", "lat": 38.933354666666666, "lon": -77.08194233333333, "rental_uris": {"android": "https://dc.lft.to/lastmile_qr_scan", "ios": "https://dc.lft.to/lastmile_qr_scan"}, "is_disabled": 0, "fusion_lat": 0.0, "name": "078a38422ead699efa3bfff82336b41d", "fusion_lon": 0.0}, {"is_reserved": 0, "type": "electric_scooter", "bike_id": "1fb6cdd29abd54ead03bbea534f05b69", "lat": 38.89565483333333, "lon": -77.01108716666667, "rental_uris": {"android": "https://dc.lft.to/lastmile_qr_scan", "ios": "https://dc.lft.to/lastmile_qr_scan"}, "is_disabled": 0, "fusion_lat": 0.0, "name": "1fb6cdd29abd54ead03bbea534f05b69", "fusion_lon": 0.0}, {"is_reserved": 0, "type": "electric_scooter", "bike_id": "eec37caf32ecddf73cdb20319dd98dba", "lat": 38.88320483333333, "lon": -77.00952033333333, "rental_uris": {"android": "https://dc.lft.to/lastmile_qr_scan", "ios": "https://dc.lft.to/lastmile_qr_scan"}, "is_disabled": 0, "fusion_lat": 0.0, "name": "eec37caf32ecddf73cdb20319dd98dba", "fusion_lon": 0.0}, {"is_reserved": 0, "type": "electric_scooter", "bike_id": "786efd2d1618c9678fbf1fcef8b97be8", "lat": 38.9039835, "lon": -77.05384083333334, "rental_uris": {"android": "https://dc.lft.to/lastmile_qr_scan", "ios": "https://dc.lft.to/lastmile_qr_scan"}, "is_disabled": 0, "fusion_lat": 0.0, "name": "786efd2d1618c9678fbf1fcef8b97be8", "fusion_lon": 0.0}, {"is_reserved": 0, "type": "electric_scooter", "bike_id": "96d2293ba827c56b0a08fbd858915668", "lat": 38.9139245, "lon": -77.01981633333334, "rental_uris": {"android": "https://dc.lft.to/lastmile_qr_scan", "ios": "https://dc.lft.to/lastmile_qr_scan"}, "is_disabled": 0, "fusion_lat": 0.0, "name": "96d2293ba827c56b0a08fbd858915668", "fusion_lon": 0.0}, {"is_reserved": 0, "type": "electric_scooter", "bike_id": "4bd409e0902668569e618d88ed0a2a2c", "lat": 38.89956, "lon": -77.05088883333333, "rental_uris": {"android": "https://dc.lft.to/lastmile_qr_scan", "ios": "https://dc.lft.to/lastmile_qr_scan"}, "is_disabled": 0, "fusion_lat": 0.0, "name": "4bd409e0902668569e618d88ed0a2a2c", "fusion_lon": 0.0}, {"is_reserved": 0, "type": "electric_scooter", "bike_id": "1303fd2134fb7bbef0303158c405a9b9", "lat": 38.92232583333333, "lon": -77.023313, "rental_uris": {"android": "https://dc.lft.to/lastmile_qr_scan", "ios": "https://dc.lft.to/lastmile_qr_scan"}, "is_disabled": 0, "fusion_lat": 0.0, "name": "1303fd2134fb7bbef0303158c405a9b9", "fusion_lon": 0.0}, {"is_reserved": 0, "type": "electric_scooter", "bike_id": "2839d7c7410fcde8e3447f36e4281f92", "lat": 38.91894333333333, "lon": -77.03456433333334, "rental_uris": {"android": "https://dc.lft.to/lastmile_qr_scan", "ios": "https://dc.lft.to/lastmile_qr_scan"}, "is_disabled": 0, "fusion_lat": 0.0, "name": "2839d7c7410fcde8e3447f36e4281f92", "fusion_lon": 0.0}, {"is_reserved": 0, "type": "electric_bike", "bike_id": "b2a32baaf0c9587befee2d6e0963478c", "lat": 38.783967833333335, "lon": -77.1208595, "rental_uris": {"android": "https://dc.lft.to/lastmile_qr_scan", "ios": "https://dc.lft.to/lastmile_qr_scan"}, "is_disabled": 0, "fusion_lat": 0.0, "name": "b2a32baaf0c9587befee2d6e0963478c", "fusion_lon": 0.0}, {"is_reserved": 0, "type": "electric_scooter", "bike_id": "fcd28eb6fe7a21e3def3bb5a1734b3fb", "lat": 38.92491033333334, "lon": -77.02271233333333, "rental_uris": {"android": "https://dc.lft.to/lastmile_qr_scan", "ios": "https://dc.lft.to/lastmile_qr_scan"}, "is_disabled": 0, "fusion_lat": 0.0, "name": "fcd28eb6fe7a21e3def3bb5a1734b3fb", "fusion_lon": 0.0}, {"is_reserved": 0, "type": "electric_scooter", "bike_id": "161abdca7f04ff3c81d9a99d42a7f590", "lat": 38.90373433333333, "lon": -77.02855666666666, "rental_uris": {"android": "https://dc.lft.to/lastmile_qr_scan", "ios": "https://dc.lft.to/lastmile_qr_scan"}, "is_disabled": 0, "fusion_lat": 0.0, "name": "161abdca7f04ff3c81d9a99d42a7f590", "fusion_lon": 0.0}, {"is_reserved": 0, "type": "electric_scooter", "bike_id": "e6574169caba6f27c0c7667c59b54860", "lat": 38.9004325, "lon": -76.990396, "rental_uris": {"android": "https://dc.lft.to/lastmile_qr_scan", "ios": "https://dc.lft.to/lastmile_qr_scan"}, "is_disabled": 0, "fusion_lat": 0.0, "name": "e6574169caba6f27c0c7667c59b54860", "fusion_lon": 0.0}, {"is_reserved": 0, "type": "electric_scooter", "bike_id": "802c80d6b20f86cc1992cdece2d31261", "lat": 38.870898833333335, "lon": -77.0137435, "rental_uris": {"android": "https://dc.lft.to/lastmile_qr_scan", "ios": "https://dc.lft.to/lastmile_qr_scan"}, "is_disabled": 0, "fusion_lat": 0.0, "name": "802c80d6b20f86cc1992cdece2d31261", "fusion_lon": 0.0}, {"is_reserved": 0, "type": "electric_scooter", "bike_id": "ec83d8300f89320fa95e5143a75d7a8c", "lat": 38.892287333333336, "lon": -77.01608033333333, "rental_uris": {"android": "https://dc.lft.to/lastmile_qr_scan", "ios": "https://dc.lft.to/lastmile_qr_scan"}, "is_disabled": 0, "fusion_lat": 0.0, "name": "ec83d8300f89320fa95e5143a75d7a8c", "fusion_lon": 0.0}, {"is_reserved": 0, "type": "electric_bike", "bike_id": "393b82180dfef6c9d9dffc2eb380db8f", "lat": 38.9123195, "lon": -77.04779133333334, "rental_uris": {"android": "https://dc.lft.to/lastmile_qr_scan", "ios": "https://dc.lft.to/lastmile_qr_scan"}, "is_disabled": 0, "fusion_lat": 0.0, "name": "393b82180dfef6c9d9dffc2eb380db8f", "fusion_lon": 0.0}, {"is_reserved": 0, "type": "electric_scooter", "bike_id": "17cd91b9f2c10afeb4dd83de39045f00", "lat": 38.92406733333333, "lon": -76.95153783333333, "rental_uris": {"android": "https://dc.lft.to/lastmile_qr_scan", "ios": "https://dc.lft.to/lastmile_qr_scan"}, "is_disabled": 0, "fusion_lat": 0.0, "name": "17cd91b9f2c10afeb4dd83de39045f00", "fusion_lon": 0.0}, {"is_reserved": 0, "type": "electric_scooter", "bike_id": "8645344847e07a48768372b68b75f62f", "lat": 38.898832, "lon": -77.048872, "rental_uris": {"android": "https://dc.lft.to/lastmile_qr_scan", "ios": "https://dc.lft.to/lastmile_qr_scan"}, "is_disabled": 0, "fusion_lat": 0.0, "name": "8645344847e07a48768372b68b75f62f", "fusion_lon": 0.0}, {"is_reserved": 0, "type": "electric_scooter", "bike_id": "227f22e50003e08e0fc058fcb734678b", "lat": 38.90041766666667, "lon": -77.031802, "rental_uris": {"android": "https://dc.lft.to/lastmile_qr_scan", "ios": "https://dc.lft.to/lastmile_qr_scan"}, "is_disabled": 0, "fusion_lat": 0.0, "name": "227f22e50003e08e0fc058fcb734678b", "fusion_lon": 0.0}, {"is_reserved": 0, "type": "electric_scooter", "bike_id": "52ae28c2f9a44b2ed71bc8b3dd01abf4", "lat": 38.899503333333335, "lon": -77.01849116666666, "rental_uris": {"android": "https://dc.lft.to/lastmile_qr_scan", "ios": "https://dc.lft.to/lastmile_qr_scan"}, "is_disabled": 0, "fusion_lat": 0.0, "name": "52ae28c2f9a44b2ed71bc8b3dd01abf4", "fusion_lon": 0.0}, {"is_reserved": 0, "type": "electric_scooter", "bike_id": "db5b61c2f475402fcbde629098e1400a", "lat": 38.91110033333333, "lon": -77.0207825, "rental_uris": {"android": "https://dc.lft.to/lastmile_qr_scan", "ios": "https://dc.lft.to/lastmile_qr_scan"}, "is_disabled": 0, "fusion_lat": 0.0, "name": "db5b61c2f475402fcbde629098e1400a", "fusion_lon": 0.0}, {"is_reserved": 0, "type": "electric_scooter", "bike_id": "a96d91bd509c6e28a49171201c4a9666", "lat": 38.90844533333333, "lon": -77.00369266666667, "rental_uris": {"android": "https://dc.lft.to/lastmile_qr_scan", "ios": "https://dc.lft.to/lastmile_qr_scan"}, "is_disabled": 0, "fusion_lat": 0.0, "name": "a96d91bd509c6e28a49171201c4a9666", "fusion_lon": 0.0}, {"is_reserved": 0, "type": "electric_scooter", "bike_id": "88a2f8fdb12b3abe675ca7c6561ce592", "lat": 38.91937166666666, "lon": -77.01882016666667, "rental_uris": {"android": "https://dc.lft.to/lastmile_qr_scan", "ios": "https://dc.lft.to/lastmile_qr_scan"}, "is_disabled": 0, "fusion_lat": 0.0, "name": "88a2f8fdb12b3abe675ca7c6561ce592", "fusion_lon": 0.0}, {"is_reserved": 0, "type": "electric_scooter", "bike_id": "595f590b1db6192d7f05b8b5be4ba7f0", "lat": 38.86597666666667, "lon": -76.97449533333334, "rental_uris": {"android": "https://dc.lft.to/lastmile_qr_scan", "ios": "https://dc.lft.to/lastmile_qr_scan"}, "is_disabled": 0, "fusion_lat": 0.0, "name": "595f590b1db6192d7f05b8b5be4ba7f0", "fusion_lon": 0.0}, {"is_reserved": 0, "type": "electric_scooter", "bike_id": "42e26659c8217434d63187aeda092378", "lat": 38.906432, "lon": -77.01793916666666, "rental_uris": {"android": "https://dc.lft.to/lastmile_qr_scan", "ios": "https://dc.lft.to/lastmile_qr_scan"}, "is_disabled": 0, "fusion_lat": 0.0, "name": "42e26659c8217434d63187aeda092378", "fusion_lon": 0.0}, {"is_reserved": 0, "type": "electric_scooter", "bike_id": "b1d5e89e8417d2a785b874178a8d9e30", "lat": 38.897849, "lon": -77.02701333333333, "rental_uris": {"android": "https://dc.lft.to/lastmile_qr_scan", "ios": "https://dc.lft.to/lastmile_qr_scan"}, "is_disabled": 0, "fusion_lat": 0.0, "name": "b1d5e89e8417d2a785b874178a8d9e30", "fusion_lon": 0.0}, {"is_reserved": 0, "type": "electric_scooter", "bike_id": "5216c256b6b1a23565bd21d843a996d8", "lat": 38.8901145, "lon": -77.03324083333334, "rental_uris": {"android": "https://dc.lft.to/lastmile_qr_scan", "ios": "https://dc.lft.to/lastmile_qr_scan"}, "is_disabled": 0, "fusion_lat": 0.0, "name": "5216c256b6b1a23565bd21d843a996d8", "fusion_lon": 0.0}, {"is_reserved": 0, "type": "electric_scooter", "bike_id": "06230c410f79c8126d5119b7eeb18b49", "lat": 38.919664, "lon": -77.04363833333333, "rental_uris": {"android": "https://dc.lft.to/lastmile_qr_scan", "ios": "https://dc.lft.to/lastmile_qr_scan"}, "is_disabled": 0, "fusion_lat": 0.0, "name": "06230c410f79c8126d5119b7eeb18b49", "fusion_lon": 0.0}, {"is_reserved": 0, "type": "electric_scooter", "bike_id": "daaa9030bfac1f359adbee61f8f9f059", "lat": 38.915683333333334, "lon": -77.0234195, "rental_uris": {"android": "https://dc.lft.to/lastmile_qr_scan", "ios": "https://dc.lft.to/lastmile_qr_scan"}, "is_disabled": 0, "fusion_lat": 0.0, "name": "daaa9030bfac1f359adbee61f8f9f059", "fusion_lon": 0.0}, {"is_reserved": 0, "type": "electric_scooter", "bike_id": "c06cf02d7b1292ca1cf1cf88310eb5f9", "lat": 38.887696, "lon": -76.9831885, "rental_uris": {"android": "https://dc.lft.to/lastmile_qr_scan", "ios": "https://dc.lft.to/lastmile_qr_scan"}, "is_disabled": 0, "fusion_lat": 0.0, "name": "c06cf02d7b1292ca1cf1cf88310eb5f9", "fusion_lon": 0.0}, {"is_reserved": 0, "type": "electric_scooter", "bike_id": "65e54888e4d683afc93cb95ca5554345", "lat": 38.8981345, "lon": -76.99689116666667, "rental_uris": {"android": "https://dc.lft.to/lastmile_qr_scan", "ios": "https://dc.lft.to/lastmile_qr_scan"}, "is_disabled": 0, "fusion_lat": 0.0, "name": "65e54888e4d683afc93cb95ca5554345", "fusion_lon": 0.0}, {"is_reserved": 0, "type": "electric_bike", "bike_id": "a17305e1400001795c68307e5fed431d", "lat": 38.8959455, "lon": -76.9069115, "rental_uris": {"android": "https://dc.lft.to/lastmile_qr_scan", "ios": "https://dc.lft.to/lastmile_qr_scan"}, "is_disabled": 0, "fusion_lat": 0.0, "name": "a17305e1400001795c68307e5fed431d", "fusion_lon": 0.0}, {"is_reserved": 0, "type": "electric_scooter", "bike_id": "c052865ae661e20228a5c0f7101f889d", "lat": 38.8671745, "lon": -76.98074066666666, "rental_uris": {"android": "https://dc.lft.to/lastmile_qr_scan", "ios": "https://dc.lft.to/lastmile_qr_scan"}, "is_disabled": 0, "fusion_lat": 0.0, "name": "c052865ae661e20228a5c0f7101f889d", "fusion_lon": 0.0}, {"is_reserved": 0, "type": "electric_scooter", "bike_id": "360ae0e3ce6cfebee85155b93a37e9ed", "lat": 38.892335, "lon": -77.03183916666667, "rental_uris": {"android": "https://dc.lft.to/lastmile_qr_scan", "ios": "https://dc.lft.to/lastmile_qr_scan"}, "is_disabled": 0, "fusion_lat": 0.0, "name": "360ae0e3ce6cfebee85155b93a37e9ed", "fusion_lon": 0.0}, {"is_reserved": 0, "type": "electric_scooter", "bike_id": "86f6c085e6c7a2567dc930a09533a93f", "lat": 38.90761033333333, "lon": -76.998812, "rental_uris": {"android": "https://dc.lft.to/lastmile_qr_scan", "ios": "https://dc.lft.to/lastmile_qr_scan"}, "is_disabled": 0, "fusion_lat": 0.0, "name": "86f6c085e6c7a2567dc930a09533a93f", "fusion_lon": 0.0}, {"is_reserved": 0, "type": "electric_scooter", "bike_id": "ec5d86b964580fccc49c7ed99e9fa36d", "lat": 38.922321, "lon": -77.01825483333333, "rental_uris": {"android": "https://dc.lft.to/lastmile_qr_scan", "ios": "https://dc.lft.to/lastmile_qr_scan"}, "is_disabled": 0, "fusion_lat": 0.0, "name": "ec5d86b964580fccc49c7ed99e9fa36d", "fusion_lon": 0.0}, {"is_reserved": 0, "type": "electric_scooter", "bike_id": "b1313117c847417ef592bd4966b67f73", "lat": 38.87931833333333, "lon": -77.01663566666667, "rental_uris": {"android": "https://dc.lft.to/lastmile_qr_scan", "ios": "https://dc.lft.to/lastmile_qr_scan"}, "is_disabled": 0, "fusion_lat": 0.0, "name": "b1313117c847417ef592bd4966b67f73", "fusion_lon": 0.0}, {"is_reserved": 0, "type": "electric_scooter", "bike_id": "c29e5aef113acacab11e78b675776885", "lat": 38.92810583333333, "lon": -77.04068016666666, "rental_uris": {"android": "https://dc.lft.to/lastmile_qr_scan", "ios": "https://dc.lft.to/lastmile_qr_scan"}, "is_disabled": 0, "fusion_lat": 0.0, "name": "c29e5aef113acacab11e78b675776885", "fusion_lon": 0.0}, {"is_reserved": 0, "type": "electric_scooter", "bike_id": "468af8d57fd8d9d72c9262adc782c29e", "lat": 38.9563865, "lon": -77.035675, "rental_uris": {"android": "https://dc.lft.to/lastmile_qr_scan", "ios": "https://dc.lft.to/lastmile_qr_scan"}, "is_disabled": 0, "fusion_lat": 0.0, "name": "468af8d57fd8d9d72c9262adc782c29e", "fusion_lon": 0.0}, {"is_reserved": 0, "type": "electric_bike", "bike_id": "7a2eac42d7ad482dd861ccf86e176447", "lat": 38.990378666666665, "lon": -77.025481, "rental_uris": {"android": "https://dc.lft.to/lastmile_qr_scan", "ios": "https://dc.lft.to/lastmile_qr_scan"}, "is_disabled": 0, "fusion_lat": 0.0, "name": "7a2eac42d7ad482dd861ccf86e176447", "fusion_lon": 0.0}, {"is_reserved": 0, "type": "electric_scooter", "bike_id": "b40f108fe4be955e0c8a984c4da3c87c", "lat": 38.91821366666667, "lon": -77.03966916666667, "rental_uris": {"android": "https://dc.lft.to/lastmile_qr_scan", "ios": "https://dc.lft.to/lastmile_qr_scan"}, "is_disabled": 0, "fusion_lat": 0.0, "name": "b40f108fe4be955e0c8a984c4da3c87c", "fusion_lon": 0.0}, {"is_reserved": 0, "type": "electric_scooter", "bike_id": "06d7daf93305e8ccae9dca3598ee95cc", "lat": 38.9076975, "lon": -77.03535383333333, "rental_uris": {"android": "https://dc.lft.to/lastmile_qr_scan", "ios": "https://dc.lft.to/lastmile_qr_scan"}, "is_disabled": 0, "fusion_lat": 0.0, "name": "06d7daf93305e8ccae9dca3598ee95cc", "fusion_lon": 0.0}, {"is_reserved": 0, "type": "electric_scooter", "bike_id": "f1ca7ff3bb7596880f86e991f701529f", "lat": 38.915313833333336, "lon": -77.00341933333333, "rental_uris": {"android": "https://dc.lft.to/lastmile_qr_scan", "ios": "https://dc.lft.to/lastmile_qr_scan"}, "is_disabled": 0, "fusion_lat": 0.0, "name": "f1ca7ff3bb7596880f86e991f701529f", "fusion_lon": 0.0}, {"is_reserved": 0, "type": "electric_scooter", "bike_id": "422f1ad15179417a0c28016f5628704a", "lat": 38.89852883333333, "lon": -77.02864666666666, "rental_uris": {"android": "https://dc.lft.to/lastmile_qr_scan", "ios": "https://dc.lft.to/lastmile_qr_scan"}, "is_disabled": 0, "fusion_lat": 0.0, "name": "422f1ad15179417a0c28016f5628704a", "fusion_lon": 0.0}, {"is_reserved": 0, "type": "electric_scooter", "bike_id": "4b3537d5aba70688eeaba559dfc2dfb7", "lat": 38.918123666666666, "lon": -77.03616616666666, "rental_uris": {"android": "https://dc.lft.to/lastmile_qr_scan", "ios": "https://dc.lft.to/lastmile_qr_scan"}, "is_disabled": 0, "fusion_lat": 0.0, "name": "4b3537d5aba70688eeaba559dfc2dfb7", "fusion_lon": 0.0}, {"is_reserved": 0, "type": "electric_bike", "bike_id": "6098660d2bff575c3964442297d8db15", "lat": 38.986786, "lon": -77.100709, "rental_uris": {"android": "https://dc.lft.to/lastmile_qr_scan", "ios": "https://dc.lft.to/lastmile_qr_scan"}, "is_disabled": 0, "fusion_lat": 0.0, "name": "6098660d2bff575c3964442297d8db15", "fusion_lon": 0.0}, {"is_reserved": 0, "type": "electric_scooter", "bike_id": "6615c086490e31a17c0b06153a0ec8e3", "lat": 38.914232, "lon": -77.02119116666667, "rental_uris": {"android": "https://dc.lft.to/lastmile_qr_scan", "ios": "https://dc.lft.to/lastmile_qr_scan"}, "is_disabled": 0, "fusion_lat": 0.0, "name": "6615c086490e31a17c0b06153a0ec8e3", "fusion_lon": 0.0}, {"is_reserved": 0, "type": "electric_scooter", "bike_id": "b1459c91283f6c4f1a9a4bffa4a77c04", "lat": 38.9246185, "lon": -77.00854083333333, "rental_uris": {"android": "https://dc.lft.to/lastmile_qr_scan", "ios": "https://dc.lft.to/lastmile_qr_scan"}, "is_disabled": 0, "fusion_lat": 0.0, "name": "b1459c91283f6c4f1a9a4bffa4a77c04", "fusion_lon": 0.0}, {"is_reserved": 0, "type": "electric_scooter", "bike_id": "3d3cff2eccc95c1d1390e22decaba6b6", "lat": 38.952968, "lon": -77.06861366666666, "rental_uris": {"android": "https://dc.lft.to/lastmile_qr_scan", "ios": "https://dc.lft.to/lastmile_qr_scan"}, "is_disabled": 0, "fusion_lat": 0.0, "name": "3d3cff2eccc95c1d1390e22decaba6b6", "fusion_lon": 0.0}, {"is_reserved": 0, "type": "electric_scooter", "bike_id": "7339d6dea734a43158f8133330e23aa9", "lat": 38.905949166666666, "lon": -77.064209, "rental_uris": {"android": "https://dc.lft.to/lastmile_qr_scan", "ios": "https://dc.lft.to/lastmile_qr_scan"}, "is_disabled": 0, "fusion_lat": 0.0, "name": "7339d6dea734a43158f8133330e23aa9", "fusion_lon": 0.0}, {"is_reserved": 0, "type": "electric_scooter", "bike_id": "e81e51b71aab4bd4c938c3459708de0c", "lat": 38.877658833333335, "lon": -76.99535216666666, "rental_uris": {"android": "https://dc.lft.to/lastmile_qr_scan", "ios": "https://dc.lft.to/lastmile_qr_scan"}, "is_disabled": 0, "fusion_lat": 0.0, "name": "e81e51b71aab4bd4c938c3459708de0c", "fusion_lon": 0.0}, {"is_reserved": 0, "type": "electric_scooter", "bike_id": "11c809c4b290aef7535b12d2a5e8234d", "lat": 38.89410083333333, "lon": -77.029728, "rental_uris": {"android": "https://dc.lft.to/lastmile_qr_scan", "ios": "https://dc.lft.to/lastmile_qr_scan"}, "is_disabled": 0, "fusion_lat": 0.0, "name": "11c809c4b290aef7535b12d2a5e8234d", "fusion_lon": 0.0}, {"is_reserved": 0, "type": "electric_scooter", "bike_id": "d7fe106c3411acc8474a3079ac69e5bf", "lat": 38.9084395, "lon": -77.0027305, "rental_uris": {"android": "https://dc.lft.to/lastmile_qr_scan", "ios": "https://dc.lft.to/lastmile_qr_scan"}, "is_disabled": 0, "fusion_lat": 0.0, "name": "d7fe106c3411acc8474a3079ac69e5bf", "fusion_lon": 0.0}, {"is_reserved": 0, "type": "electric_scooter", "bike_id": "35d624d557c7ae26c5911624a0e6e2d4", "lat": 38.893525833333335, "lon": -77.02826533333334, "rental_uris": {"android": "https://dc.lft.to/lastmile_qr_scan", "ios": "https://dc.lft.to/lastmile_qr_scan"}, "is_disabled": 0, "fusion_lat": 0.0, "name": "35d624d557c7ae26c5911624a0e6e2d4", "fusion_lon": 0.0}, {"is_reserved": 0, "type": "electric_scooter", "bike_id": "830287771e3ab17e99f230ec08aab62f", "lat": 38.92095833333333, "lon": -77.07175683333334, "rental_uris": {"android": "https://dc.lft.to/lastmile_qr_scan", "ios": "https://dc.lft.to/lastmile_qr_scan"}, "is_disabled": 0, "fusion_lat": 0.0, "name": "830287771e3ab17e99f230ec08aab62f", "fusion_lon": 0.0}, {"is_reserved": 0, "type": "electric_scooter", "bike_id": "b87b2e2e779c4ed100d498555ebb96f7", "lat": 38.91612033333333, "lon": -77.00267833333334, "rental_uris": {"android": "https://dc.lft.to/lastmile_qr_scan", "ios": "https://dc.lft.to/lastmile_qr_scan"}, "is_disabled": 0, "fusion_lat": 0.0, "name": "b87b2e2e779c4ed100d498555ebb96f7", "fusion_lon": 0.0}, {"is_reserved": 0, "type": "electric_scooter", "bike_id": "61a3195f53401e865b172ea5fb0cb1ed", "lat": 38.897152, "lon": -77.00797183333333, "rental_uris": {"android": "https://dc.lft.to/lastmile_qr_scan", "ios": "https://dc.lft.to/lastmile_qr_scan"}, "is_disabled": 0, "fusion_lat": 0.0, "name": "61a3195f53401e865b172ea5fb0cb1ed", "fusion_lon": 0.0}, {"is_reserved": 0, "type": "electric_scooter", "bike_id": "109fa7a2200283413f14b62f405ad4be", "lat": 38.92278683333333, "lon": -77.04031066666667, "rental_uris": {"android": "https://dc.lft.to/lastmile_qr_scan", "ios": "https://dc.lft.to/lastmile_qr_scan"}, "is_disabled": 0, "fusion_lat": 0.0, "name": "109fa7a2200283413f14b62f405ad4be", "fusion_lon": 0.0}, {"is_reserved": 0, "type": "electric_scooter", "bike_id": "9782f971b7daa0ef9e7d394225126408", "lat": 38.903871333333335, "lon": -77.05348483333333, "rental_uris": {"android": "https://dc.lft.to/lastmile_qr_scan", "ios": "https://dc.lft.to/lastmile_qr_scan"}, "is_disabled": 0, "fusion_lat": 0.0, "name": "9782f971b7daa0ef9e7d394225126408", "fusion_lon": 0.0},