{"data": {"bikes": [{"bike_id": "07e06ba71e6daa72365ae6859bac1815", "is_reserved": 0, "fusion_lon": 0.0, "lat": 38.89647166666666, "is_disabled": 0, "name": "07e06ba71e6daa72365ae6859bac1815", "fusion_lat": 0.0, "rental_uris": {"ios": "https://dc.lft.to/lastmile_qr_scan", "android": "https://dc.lft.to/lastmile_qr_scan"}, "lon": -77.03229766666666, "type": "electric_scooter"}, {"bike_id": "20a596336bed2c81123b2f40f9240a4a", "is_reserved": 0, "fusion_lon": 0.0, "lat": 38.9018085, "is_disabled": 0, "name": "20a596336bed2c81123b2f40f9240a4a", "fusion_lat": 0.0, "rental_uris": {"ios": "https://dc.lft.to/lastmile_qr_scan", "android": "https://dc.lft.to/lastmile_qr_scan"}, "lon": -77.02221766666666, "type": "electric_scooter"}, {"bike_id": "e42d16ed396792a5813f1e93685bed1c", "is_reserved": 0, "fusion_lon": 0.0, "lat": 38.920979833333334, "is_disabled": 0, "name": "e42d16ed396792a5813f1e93685bed1c", "fusion_lat": 0.0, "rental_uris": {"ios": "https://dc.lft.to/lastmile_qr_scan", "android": "https://dc.lft.to/lastmile_qr_scan"}, "lon": -77.0316665, "type": "electric_scooter"}, {"bike_id": "1d30dd463af940a27b9afdb7514268f0", "is_reserved": 0, "fusion_lon": 0.0, "lat": 38.930946166666665, "is_disabled": 0, "name": "1d30dd463af940a27b9afdb7514268f0", "fusion_lat": 0.0, "rental_uris": {"ios": "https://dc.lft.to/lastmile_qr_scan", "android": "https://dc.lft.to/lastmile_qr_scan"}, "lon": -77.02521016666667, "type": "electric_scooter"}, {"bike_id": "cf0a5ccb5c4e9e8889175c68c9f8479b", "is_reserved": 0, "fusion_lon": 0.0, "lat": 38.922542166666666, "is_disabled": 0, "name": "cf0a5ccb5c4e9e8889175c68c9f8479b", "fusion_lat": 0.0, "rental_uris": {"ios": "https://dc.lft.to/lastmile_qr_scan", "android": "https://dc.lft.to/lastmile_qr_scan"}, "lon": -77.01825066666666, "type": "electric_scooter"}, {"bike_id": "607727329cc9bca196179f05a461ef32", "is_reserved": 0, "fusion_lon": 0.0, "lat": 38.890103833333335, "is_disabled": 0, "name": "607727329cc9bca196179f05a461ef32", "fusion_lat": 0.0, "rental_uris": {"ios": "https://dc.lft.to/lastmile_qr_scan", "android": "https://dc.lft.to/lastmile_qr_scan"}, "lon": -76.93745533333333, "type": "electric_scooter"}, {"bike_id": "970a9296a2f7a314b68362cb72fe8002", "is_reserved": 0, "fusion_lon": 0.0, "lat": 38.900258, "is_disabled": 0, "name": "970a9296a2f7a314b68362cb72fe8002", "fusion_lat": 0.0, "rental_uris": {"ios": "https://dc.lft.to/lastmile_qr_scan", "android": "https://dc.lft.to/lastmile_qr_scan"}, "lon": -77.046821, "type": "electric_scooter"}, {"bike_id": "7a335ed030d8721b26daff6ebf39ca4b", "is_reserved": 0, "fusion_lon": 0.0, "lat": 38.90589216666667, "is_disabled": 0, "name": "7a335ed030d8721b26daff6ebf39ca4b", "fusion_lat": 0.0, "rental_uris": {"ios": "https://dc.lft.to/lastmile_qr_scan", "android": "https://dc.lft.to/lastmile_qr_scan"}, "lon": -77.00269733333333, "type": "electric_scooter"}, {"bike_id": "40b12cfe42b54183060d9c963cced260", "is_reserved": 0, "fusion_lon": 0.0, "lat": 38.90402566666667, "is_disabled": 0, "name": "40b12cfe42b54183060d9c963cced260", "fusion_lat": 0.0, "rental_uris": {"ios": "https://dc.lft.to/lastmile_qr_scan", "android": "https://dc.lft.to/lastmile_qr_scan"}, "lon": -77.0432605, "type": "electric_scooter"}, {"bike_id": "f5aa3cdb6d2c5185060ccf82a580f0ff", "is_reserved": 0, "fusion_lon": 0.0, "lat": 38.866043166666664, "is_disabled": 0, "name": "f5aa3cdb6d2c5185060ccf82a580f0ff", "fusion_lat": 0.0, "rental_uris": {"ios": "https://dc.lft.to/lastmile_qr_scan", "android": "https://dc.lft.to/lastmile_qr_scan"}, "lon": -76.989127, "type": "electric_scooter"}, {"bike_id": "9576c416b5ee8367885e6a62425b5976", "is_reserved": 0, "fusion_lon": 0.0, "lat": 38.90570016666667, "is_disabled": 0, "name": "9576c416b5ee8367885e6a62425b5976", "fusion_lat": 0.0, "rental_uris": {"ios": "https://dc.lft.to/lastmile_qr_scan", "android": "https://dc.lft.to/lastmile_qr_scan"}, "lon": -77.0217415, "type": "electric_scooter"}, {"bike_id": "6238ccd75cd45feaceed278995b96c1b", "is_reserved": 0, "fusion_lon": 0.0, "lat": 38.92364366666666, "is_disabled": 0, "name": "6238ccd75cd45feaceed278995b96c1b", "fusion_lat": 0.0, "rental_uris": {"ios": "https://dc.lft.to/lastmile_qr_scan", "android": "https://dc.lft.to/lastmile_qr_scan"}, "lon": -77.05030716666667, "type": "electric_scooter"}, {"bike_id": "e0b2dbade5b96f2ef286e49047b7c0e9", "is_reserved": 0, "fusion_lon": 0.0, "lat": 38.95263833333333, "is_disabled": 0, "name": "e0b2dbade5b96f2ef286e49047b7c0e9", "fusion_lat": 0.0, "rental_uris": {"ios": "https://dc.lft.to/lastmile_qr_scan", "android": "https://dc.lft.to/lastmile_qr_scan"}, "lon": -77.0697925, "type": "electric_bike"}, {"bike_id": "b04659187c7f6f63e98875abbe004623", "is_reserved": 0, "fusion_lon": 0.0, "lat": 38.90733433333333, "is_disabled": 0, "name": "b04659187c7f6f63e98875abbe004623", "fusion_lat": 0.0, "rental_uris": {"ios": "https://dc.lft.to/lastmile_qr_scan", "android": "https://dc.lft.to/lastmile_qr_scan"}, "lon": -77.04242666666667, "type": "electric_scooter"}, {"bike_id": "2ff7a311b26971326c4bbc91a5444c66", "is_reserved": 0, "fusion_lon": 0.0, "lat": 38.892222333333336, "is_disabled": 0, "name": "2ff7a311b26971326c4bbc91a5444c66", "fusion_lat": 0.0, "rental_uris": {"ios": "https://dc.lft.to/lastmile_qr_scan", "android": "https://dc.lft.to/lastmile_qr_scan"}, "lon": -77.03161483333334, "type": "electric_scooter"}, {"bike_id": "81ff1e2837f789682b4bebabbfab3f93", "is_reserved": 0, "fusion_lon": 0.0, "lat": 38.9241145, "is_disabled": 0, "name": "81ff1e2837f789682b4bebabbfab3f93", "fusion_lat": 0.0, "rental_uris": {"ios": "https://dc.lft.to/lastmile_qr_scan", "android": "https://dc.lft.to/lastmile_qr_scan"}, "lon": -77.03548333333333, "type": "electric_scooter"}, {"bike_id": "f3245d8cc1cd0f91f1c1edee51b77ea1", "is_reserved": 0, "fusion_lon": 0.0, "lat": 38.99063783333333, "is_disabled": 0, "name": "f3245d8cc1cd0f91f1c1edee51b77ea1", "fusion_lat": 0.0, "rental_uris": {"ios": "https://dc.lft.to/lastmile_qr_scan", "android": "https://dc.lft.to/lastmile_qr_scan"}, "lon": -77.1002575, "type": "electric_bike"}, {"bike_id": "53c5f78197a82dcbb2dcd47d92bdd701", "is_reserved": 0, "fusion_lon": 0.0, "lat": 38.918044, "is_disabled": 0, "name": "53c5f78197a82dcbb2dcd47d92bdd701", "fusion_lat": 0.0, "rental_uris": {"ios": "https://dc.lft.to/lastmile_qr_scan", "android": "https://dc.lft.to/lastmile_qr_scan"}, "lon": -77.03444516666667, "type": "electric_scooter"}, {"bike_id": "a0bcaa609e8125a1c043d91db302ef9a", "is_reserved": 0, "fusion_lon": 0.0, "lat": 38.872243, "is_disabled": 0, "name": "a0bcaa609e8125a1c043d91db302ef9a", "fusion_lat": 0.0, "rental_uris": {"ios": "https://dc.lft.to/lastmile_qr_scan", "android": "https://dc.lft.to/lastmile_qr_scan"}, "lon": -77.01168116666666, "type": "electric_bike"}, {"bike_id": "a419909bfbbd880ad3c9a645b17ad35a", "is_reserved": 0, "fusion_lon": 0.0, "lat": 38.900252333333334, "is_disabled": 0, "name": "a419909bfbbd880ad3c9a645b17ad35a", "fusion_lat": 0.0, "rental_uris": {"ios": "https://dc.lft.to/lastmile_qr_scan", "android": "https://dc.lft.to/lastmile_qr_scan"}, "lon": -77.00205966666667, "type": "electric_scooter"}, {"bike_id": "b5c0f9bffa6c9923328bc1f82dffc0af", "is_reserved": 0, "fusion_lon": 0.0, "lat": 38.892329833333335, "is_disabled": 0, "name": "b5c0f9bffa6c9923328bc1f82dffc0af", "fusion_lat": 0.0, "rental_uris": {"ios": "https://dc.lft.to/lastmile_qr_scan", "android": "https://dc.lft.to/lastmile_qr_scan"}, "lon": -77.02175683333333, "type": "electric_scooter"}, {"bike_id": "cccfb6e66b9160b568aaf37964947b0e", "is_reserved": 0, "fusion_lon": 0.0, "lat": 38.939526, "is_disabled": 0, "name": "cccfb6e66b9160b568aaf37964947b0e", "fusion_lat": 0.0, "rental_uris": {"ios": "https://dc.lft.to/lastmile_qr_scan", "android": "https://dc.lft.to/lastmile_qr_scan"}, "lon": -77.032574, "type": "electric_scooter"}, {"bike_id": "71fdbb1665c731ba127f16e422c60549", "is_reserved": 0, "fusion_lon": 0.0, "lat": 38.89966966666667, "is_disabled": 0, "name": "71fdbb1665c731ba127f16e422c60549", "fusion_lat": 0.0, "rental_uris": {"ios": "https://dc.lft.to/lastmile_qr_scan", "android": "https://dc.lft.to/lastmile_qr_scan"}, "lon": -77.01618333333333, "type": "electric_scooter"}, {"bike_id": "837178cb59c1e5e6d9c054dfe9905d04", "is_reserved": 0, "fusion_lon": 0.0, "lat": 38.93390866666667, "is_disabled": 0, "name": "837178cb59c1e5e6d9c054dfe9905d04", "fusion_lat": 0.0, "rental_uris": {"ios": "https://dc.lft.to/lastmile_qr_scan", "android": "https://dc.lft.to/lastmile_qr_scan"}, "lon": -77.02063683333333, "type": "electric_scooter"}, {"bike_id": "7fdc23a0b457c5d6c0a273a58df7486d", "is_reserved": 0, "fusion_lon": 0.0, "lat": 38.95280866666667, "is_disabled": 0, "name": "7fdc23a0b457c5d6c0a273a58df7486d", "fusion_lat": 0.0, "rental_uris": {"ios": "https://dc.lft.to/lastmile_qr_scan", "android": "https://dc.lft.to/lastmile_qr_scan"}, "lon": -77.00789083333333, "type": "electric_scooter"}, {"bike_id": "e05a45840f4ca7456912d785f3dd9676", "is_reserved": 0, "fusion_lon": 0.0, "lat": 38.900289, "is_disabled": 0, "name": "e05a45840f4ca7456912d785f3dd9676", "fusion_lat": 0.0, "rental_uris": {"ios": "https://dc.lft.to/lastmile_qr_scan", "android": "https://dc.lft.to/lastmile_qr_scan"}, "lon": -76.9978925, "type": "electric_scooter"}, {"bike_id": "841c5402b2b5e9c00da2147a6a0f1bee", "is_reserved": 0, "fusion_lon": 0.0, "lat": 38.85318766666666, "is_disabled": 0, "name": "841c5402b2b5e9c00da2147a6a0f1bee", "fusion_lat": 0.0, "rental_uris": {"ios": "https://dc.lft.to/lastmile_qr_scan", "android": "https://dc.lft.to/lastmile_qr_scan"}, "lon": -76.98006866666667, "type": "electric_scooter"}, {"bike_id": "429a863a87a7d6f1fb7b52754f5eaced", "is_reserved": 0, "fusion_lon": 0.0, "lat": 38.924413, "is_disabled": 0, "name": "429a863a87a7d6f1fb7b52754f5eaced", "fusion_lat": 0.0, "rental_uris": {"ios": "https://dc.lft.to/lastmile_qr_scan", "android": "https://dc.lft.to/lastmile_qr_scan"}, "lon": -77.04003116666667, "type": "electric_scooter"}, {"bike_id": "2a6ca5054e4fe7833785da299a630061", "is_reserved": 0, "fusion_lon": 0.0, "lat": 38.940455166666666, "is_disabled": 0, "name": "2a6ca5054e4fe7833785da299a630061", "fusion_lat": 0.0, "rental_uris": {"ios": "https://dc.lft.to/lastmile_qr_scan", "android": "https://dc.lft.to/lastmile_qr_scan"}, "lon": -77.02978066666667, "type": "electric_scooter"}, {"bike_id": "8b56895ce8e31a008b5cc3df31c90026", "is_reserved": 0, "fusion_lon": 0.0, "lat": 38.922516, "is_disabled": 0, "name": "8b56895ce8e31a008b5cc3df31c90026", "fusion_lat": 0.0, "rental_uris": {"ios": "https://dc.lft.to/lastmile_qr_scan", "android": "https://dc.lft.to/lastmile_qr_scan"}, "lon": -77.041446, "type": "electric_scooter"}, {"bike_id": "88443183eaac50813e73897db44ad609", "is_reserved": 0, "fusion_lon": 0.0, "lat": 38.92080133333333, "is_disabled": 0, "name": "88443183eaac50813e73897db44ad609", "fusion_lat": 0.0, "rental_uris": {"ios": "https://dc.lft.to/lastmile_qr_scan", "android": "https://dc.lft.to/lastmile_qr_scan"}, "lon": -76.99898683333333, "type": "electric_scooter"}, {"bike_id": "939592fbd87a5fb0bbdae662b97d9e57", "is_reserved": 0, "fusion_lon": 0.0, "lat": 38.918799166666666, "is_disabled": 0, "name": "939592fbd87a5fb0bbdae662b97d9e57", "fusion_lat": 0.0, "rental_uris": {"ios": "https://dc.lft.to/lastmile_qr_scan", "android": "https://dc.lft.to/lastmile_qr_scan"}, "lon": -77.035072, "type": "electric_scooter"}, {"bike_id": "158feb12fd24686241d9c93c88cced57", "is_reserved": 0, "fusion_lon": 0.0, "lat": 38.9081105, "is_disabled": 0, "name": "158feb12fd24686241d9c93c88cced57", "fusion_lat": 0.0, "rental_uris": {"ios": "https://dc.lft.to/lastmile_qr_scan", "android": "https://dc.lft.to/lastmile_qr_scan"}, "lon": -77.03461416666667, "type": "electric_scooter"}, {"bike_id": "0bf9cc3077ad9f7d40d50d3abad998c3", "is_reserved": 0, "fusion_lon": 0.0, "lat": 38.920456333333334, "is_disabled": 0, "name": "0bf9cc3077ad9f7d40d50d3abad998c3", "fusion_lat": 0.0, "rental_uris": {"ios": "https://dc.lft.to/lastmile_qr_scan", "android": "https://dc.lft.to/lastmile_qr_scan"}, "lon": -76.99816833333334, "type": "electric_scooter"}, {"bike_id": "c24485201b8735cb748789f1b3649ddc", "is_reserved": 0, "fusion_lon": 0.0, "lat": 38.94408983333334, "is_disabled": 0, "name": "c24485201b8735cb748789f1b3649ddc", "fusion_lat": 0.0, "rental_uris": {"ios": "https://dc.lft.to/lastmile_qr_scan", "android": "https://dc.lft.to/lastmile_qr_scan"}, "lon": -77.05521933333333, "type": "electric_scooter"}, {"bike_id": "25616e8d88f08f1369414baa6869fea7", "is_reserved": 0, "fusion_lon": 0.0, "lat": 38.9046975, "is_disabled": 0, "name": "25616e8d88f08f1369414baa6869fea7", "fusion_lat": 0.0, "rental_uris": {"ios": "https://dc.lft.to/lastmile_qr_scan", "android": "https://dc.lft.to/lastmile_qr_scan"}, "lon": -77.03240983333333, "type": "electric_scooter"}, {"bike_id": "7c13d916e428c333a7d702ce848f47b4", "is_reserved": 0, "fusion_lon": 0.0, "lat": 38.90685233333333, "is_disabled": 0, "name": "7c13d916e428c333a7d702ce848f47b4", "fusion_lat": 0.0, "rental_uris": {"ios": "https://dc.lft.to/lastmile_qr_scan", "android": "https://dc.lft.to/lastmile_qr_scan"}, "lon": -76.95188783333333, "type": "electric_bike"}, {"bike_id": "0dc1e59d11d5f65ba19a06a6dd1ee188", "is_reserved": 0, "fusion_lon": 0.0, "lat": 38.924808666666664, "is_disabled": 0, "name": "0dc1e59d11d5f65ba19a06a6dd1ee188", "fusion_lat": 0.0, "rental_uris": {"ios": "https://dc.lft.to/lastmile_qr_scan", "android": "https://dc.lft.to/lastmile_qr_scan"}, "lon": -77.02715733333334, "type": "electric_scooter"}, {"bike_id": "e3ab9280699227fdec377b9760634266", "is_reserved": 0, "fusion_lon": 0.0, "lat": 38.9588195, "is_disabled": 0, "name": "e3ab9280699227fdec377b9760634266", "fusion_lat": 0.0, "rental_uris": {"ios": "https://dc.lft.to/lastmile_qr_scan", "android": "https://dc.lft.to/lastmile_qr_scan"}, "lon": -77.01034566666667, "type": "electric_bike"}, {"bike_id": "aa176c1e6078b91a3d58c269e8cad592", "is_reserved": 0, "fusion_lon": 0.0, "lat": 38.89487233333333, "is_disabled": 0, "name": "aa176c1e6078b91a3d58c269e8cad592", "fusion_lat": 0.0, "rental_uris": {"ios": "https://dc.lft.to/lastmile_qr_scan", "android": "https://dc.lft.to/lastmile_qr_scan"}, "lon": -77.02266566666667, "type": "electric_scooter"}, {"bike_id": "ce332f4ab20cc26cd62e509eb1998eb9", "is_reserved": 0, "fusion_lon": 0.0, "lat": 38.929492333333336, "is_disabled": 0, "name": "ce332f4ab20cc26cd62e509eb1998eb9", "fusion_lat": 0.0, "rental_uris": {"ios": "https://dc.lft.to/lastmile_qr_scan", "android": "https://dc.lft.to/lastmile_qr_scan"}, "lon": -77.04405766666666, "type": "electric_scooter"}, {"bike_id": "fb08ce6a91182216e3639feb9ebe8332", "is_reserved": 0, "fusion_lon": 0.0, "lat": 38.90148716666667, "is_disabled": 0, "name": "fb08ce6a91182216e3639feb9ebe8332", "fusion_lat": 0.0, "rental_uris": {"ios": "https://dc.lft.to/lastmile_qr_scan", "android": "https://dc.lft.to/lastmile_qr_scan"}, "lon": -77.03316583333333, "type": "electric_scooter"}, {"bike_id": "d2043ae098d5da232b19cdf2e07d0a38", "is_reserved": 0, "fusion_lon": 0.0, "lat": 38.865065666666666, "is_disabled": 0, "name": "d2043ae098d5da232b19cdf2e07d0a38", "fusion_lat": 0.0, "rental_uris": {"ios": "https://dc.lft.to/lastmile_qr_scan", "android": "https://dc.lft.to/lastmile_qr_scan"}, "lon": -76.98978633333333, "type": "electric_scooter"}, {"bike_id": "a9973e325fc15c289b584d5dec7ee462", "is_reserved": 0, "fusion_lon": 0.0, "lat": 38.90267016666667, "is_disabled": 0, "name": "a9973e325fc15c289b584d5dec7ee462", "fusion_lat": 0.0, "rental_uris": {"ios": "https://dc.lft.to/lastmile_qr_scan", "android": "https://dc.lft.to/lastmile_qr_scan"}, "lon": -77.05313733333334, "type": "electric_scooter"}, {"bike_id": "24254a2f5e30d82f02d765140f6fe8f3", "is_reserved": 0, "fusion_lon": 0.0, "lat": 38.9320155, "is_disabled": 0, "name": "24254a2f5e30d82f02d765140f6fe8f3", "fusion_lat": 0.0, "rental_uris": {"ios": "https://dc.lft.to/lastmile_qr_scan", "android": "https://dc.lft.to/lastmile_qr_scan"}, "lon": -77.03876983333333, "type": "electric_scooter"}, {"bike_id": "d7b0ca8ffdc7df8fe37f2e0d7861793a", "is_reserved": 0, "fusion_lon": 0.0, "lat": 38.802263833333335, "is_disabled": 0, "name": "d7b0ca8ffdc7df8fe37f2e0d7861793a", "fusion_lat": 0.0, "rental_uris": {"ios": "https://dc.lft.to/lastmile_qr_scan", "android": "https://dc.lft.to/lastmile_qr_scan"}, "lon": -77.079148, "type": "electric_bike"}, {"bike_id": "868b44ff129b3935bd73562de4ac4f02", "is_reserved": 0, "fusion_lon": 0.0, "lat": 38.9153995, "is_disabled": 0, "name": "868b44ff129b3935bd73562de4ac4f02", "fusion_lat": 0.0, "rental_uris": {"ios": "https://dc.lft.to/lastmile_qr_scan", "android": "https://dc.lft.to/lastmile_qr_scan"}, "lon": -77.0385575, "type": "electric_scooter"}, {"bike_id": "7dcc8b52d806297e1228152b1ce2fe55", "is_reserved": 0, "fusion_lon": 0.0, "lat": 38.92858, "is_disabled": 0, "name": "7dcc8b52d806297e1228152b1ce2fe55", "fusion_lat": 0.0, "rental_uris": {"ios": "https://dc.lft.to/lastmile_qr_scan", "android": "https://dc.lft.to/lastmile_qr_scan"}, "lon": -77.22210633333333, "type": "electric_bike"}, {"bike_id": "78116a05feae9be7e834807d9b445daa", "is_reserved": 0, "fusion_lon": 0.0, "lat": 39.088606666666664, "is_disabled": 0, "name": "78116a05feae9be7e834807d9b445daa", "fusion_lat": 0.0, "rental_uris": {"ios": "https://dc.lft.to/lastmile_qr_scan", "android": "https://dc.lft.to/lastmile_qr_scan"}, "lon": -77.178464, "type": "electric_bike"}, {"bike_id": "a44758f154a6b5a92f93244e8b6d016d", "is_reserved": 0, "fusion_lon": 0.0, "lat": 38.95335433333333, "is_disabled": 0, "name": "a44758f154a6b5a92f93244e8b6d016d", "fusion_lat": 0.0, "rental_uris": {"ios": "https://dc.lft.to/lastmile_qr_scan", "android": "https://dc.lft.to/lastmile_qr_scan"}, "lon": -77.0095795, "type": "electric_bike"}, {"bike_id": "53e2041ff7bbdd5569736c66bc067529", "is_reserved": 0, "fusion_lon": 0.0, "lat": 38.957426166666664, "is_disabled": 0, "name": "53e2041ff7bbdd5569736c66bc067529", "fusion_lat": 0.0, "rental_uris": {"ios": "https://dc.lft.to/lastmile_qr_scan", "android": "https://dc.lft.to/lastmile_qr_scan"}, "lon": -77.02410583333334, "type": "electric_scooter"}, {"bike_id": "d24939377b222969a6d4d0b3d454ae21", "is_reserved": 0, "fusion_lon": 0.0, "lat": 38.90939383333333, "is_disabled": 0, "name": "d24939377b222969a6d4d0b3d454ae21", "fusion_lat": 0.0, "rental_uris": {"ios": "https://dc.lft.to/lastmile_qr_scan", "android": "https://dc.lft.to/lastmile_qr_scan"}, "lon": -77.048662, "type": "electric_scooter"}, {"bike_id": "880b84e185c874703b05139f28bc22a1", "is_reserved": 0, "fusion_lon": 0.0, "lat": 38.906673166666664, "is_disabled": 0, "name": "880b84e185c874703b05139f28bc22a1", "fusion_lat": 0.0, "rental_uris": {"ios": "https://dc.lft.to/lastmile_qr_scan", "android": "https://dc.lft.to/lastmile_qr_scan"}, "lon": -77.0381775, "type": "electric_scooter"}, {"bike_id": "02b0137f14b7d29fa243fa174c5b1969", "is_reserved": 0, "fusion_lon": 0.0, "lat": 38.923486833333335, "is_disabled": 0, "name": "02b0137f14b7d29fa243fa174c5b1969", "fusion_lat": 0.0, "rental_uris": {"ios": "https://dc.lft.to/lastmile_qr_scan", "android": "https://dc.lft.to/lastmile_qr_scan"}, "lon": -77.04387916666667, "type": "electric_scooter"}, {"bike_id": "5e296c4f18d59731b385543814a31eff", "is_reserved": 0, "fusion_lon": 0.0, "lat": 38.905744, "is_disabled": 0, "name": "5e296c4f18d59731b385543814a31eff", "fusion_lat": 0.0, "rental_uris": {"ios": "https://dc.lft.to/lastmile_qr_scan", "android": "https://dc.lft.to/lastmile_qr_scan"}, "lon": -77.02176366666667, "type": "electric_scooter"}, {"bike_id": "f59ae25979e6df67933b495b4a0ea3e3", "is_reserved": 0, "fusion_lon": 0.0, "lat": 38.8874115, "is_disabled": 0, "name": "f59ae25979e6df67933b495b4a0ea3e3", "fusion_lat": 0.0, "rental_uris": {"ios": "https://dc.lft.to/lastmile_qr_scan", "android": "https://dc.lft.to/lastmile_qr_scan"}, "lon": -77.02264866666667, "type": "electric_bike"}, {"bike_id": "9bcad739ba864c0a1387367af2d57cb9", "is_reserved": 0, "fusion_lon": 0.0, "lat": 38.9170205, "is_disabled": 0, "name": "9bcad739ba864c0a1387367af2d57cb9", "fusion_lat": 0.0, "rental_uris": {"ios": "https://dc.lft.to/lastmile_qr_scan", "android": "https://dc.lft.to/lastmile_qr_scan"}, "lon": -77.02285383333333, "type": "electric_scooter"}, {"bike_id": "0f2dc7f402f53ce8c5908a7c4a8a5529", "is_reserved": 0, "fusion_lon": 0.0, "lat": 38.9564755, "is_disabled": 0, "name": "0f2dc7f402f53ce8c5908a7c4a8a5529", "fusion_lat": 0.0, "rental_uris": {"ios": "https://dc.lft.to/lastmile_qr_scan", "android": "https://dc.lft.to/lastmile_qr_scan"}, "lon": -77.03287133333333, "type": "electric_scooter"}, {"bike_id": "e7c9902e8a6b1097d004c31dfb52d87a", "is_reserved": 0, "fusion_lon": 0.0, "lat": 38.8948275, "is_disabled": 0, "name": "e7c9902e8a6b1097d004c31dfb52d87a", "fusion_lat": 0.0, "rental_uris": {"ios": "https://dc.lft.to/lastmile_qr_scan", "android": "https://dc.lft.to/lastmile_qr_scan"}, "lon": -77.02216483333333, "type": "electric_scooter"}, {"bike_id": "d3b508c6dcd0d777609c5d215240bbdf", "is_reserved": 0, "fusion_lon": 0.0, "lat": 38.94607233333333, "is_disabled": 0, "name": "d3b508c6dcd0d777609c5d215240bbdf", "fusion_lat": 0.0, "rental_uris": {"ios": "https://dc.lft.to/lastmile_qr_scan", "android": "https://dc.lft.to/lastmile_qr_scan"}, "lon": -77.035009, "type": "electric_scooter"}, {"bike_id": "98e89a3df612fa3f6ff6491fc15179fb", "is_reserved": 0, "fusion_lon": 0.0, "lat": 38.94927216666667, "is_disabled": 0, "name": "98e89a3df612fa3f6ff6491fc15179fb", "fusion_lat": 0.0, "rental_uris": {"ios": "https://dc.lft.to/lastmile_qr_scan", "android": "https://dc.lft.to/lastmile_qr_scan"}, "lon": -77.019351, "type": "electric_scooter"}, {"bike_id": "dbcd83bfa709c379a286b05f0f1d6d4f", "is_reserved": 0, "fusion_lon": 0.0, "lat": 38.943194166666665, "is_disabled": 0, "name": "dbcd83bfa709c379a286b05f0f1d6d4f", "fusion_lat": 0.0, "rental_uris": {"ios": "https://dc.lft.to/lastmile_qr_scan", "android": "https://dc.lft.to/lastmile_qr_scan"}, "lon": -77.07385383333333, "type": "electric_scooter"}, {"bike_id": "ac457a6383766033a15bff367752255a", "is_reserved": 0, "fusion_lon": 0.0, "lat": 38.89940983333334, "is_disabled": 0, "name": "ac457a6383766033a15bff367752255a", "fusion_lat": 0.0, "rental_uris": {"ios": "https://dc.lft.to/lastmile_qr_scan", "android": "https://dc.lft.to/lastmile_qr_scan"}, "lon": -77.0531495, "type": "electric_scooter"}, {"bike_id": "444751cb0ec6b176e45c6658ce5c14d1", "is_reserved": 0, "fusion_lon": 0.0, "lat": 38.90978883333333, "is_disabled": 0, "name": "444751cb0ec6b176e45c6658ce5c14d1", "fusion_lat": 0.0, "rental_uris": {"ios": "https://dc.lft.to/lastmile_qr_scan", "android": "https://dc.lft.to/lastmile_qr_scan"}, "lon": -77.06709633333334, "type": "electric_scooter"}, {"bike_id": "1489a2aa65527308b0934a2abecb297e", "is_reserved": 0, "fusion_lon": 0.0, "lat": 38.905623, "is_disabled": 0, "name": "1489a2aa65527308b0934a2abecb297e", "fusion_lat": 0.0, "rental_uris": {"ios": "https://dc.lft.to/lastmile_qr_scan", "android": "https://dc.lft.to/lastmile_qr_scan"}, "lon": -77.02478516666666, "type": "electric_scooter"}, {"bike_id": "c837acc69d7919d439dbd06edf156db0", "is_reserved": 0, "fusion_lon": 0.0, "lat": 38.918769166666664, "is_disabled": 0, "name": "c837acc69d7919d439dbd06edf156db0", "fusion_lat": 0.0, "rental_uris": {"ios": "https://dc.lft.to/lastmile_qr_scan", "android": "https://dc.lft.to/lastmile_qr_scan"}, "lon": -76.9713535, "type": "electric_scooter"}, {"bike_id": "97012b84fe7abe8c69a8f15b33ffa628", "is_reserved": 0, "fusion_lon": 0.0, "lat": 38.883325, "is_disabled": 0, "name": "97012b84fe7abe8c69a8f15b33ffa628", "fusion_lat": 0.0, "rental_uris": {"ios": "https://dc.lft.to/lastmile_qr_scan", "android": "https://dc.lft.to/lastmile_qr_scan"}, "lon": -77.01772966666667, "type": "electric_scooter"}, {"bike_id": "b223b4be103643fd1266f832cedfef6b", "is_reserved": 0, "fusion_lon": 0.0, "lat": 38.9311715, "is_disabled": 0, "name": "b223b4be103643fd1266f832cedfef6b", "fusion_lat": 0.0, "rental_uris": {"ios": "https://dc.lft.to/lastmile_qr_scan", "android": "https://dc.lft.to/lastmile_qr_scan"}, "lon": -77.02097383333333, "type": "electric_scooter"}, {"bike_id": "0d5dfb1e1918f046900c3897e8ec744f", "is_reserved": 0, "fusion_lon": 0.0, "lat": 38.909025666666665, "is_disabled": 0, "name": "0d5dfb1e1918f046900c3897e8ec744f", "fusion_lat": 0.0, "rental_uris": {"ios": "https://dc.lft.to/lastmile_qr_scan", "android": "https://dc.lft.to/lastmile_qr_scan"}, "lon": -77.02686816666667, "type": "electric_scooter"}, {"bike_id": "125f91b0d1dcdca72c81500a5e9ca318", "is_reserved": 0, "fusion_lon": 0.0, "lat": 38.912834, "is_disabled": 0, "name": "125f91b0d1dcdca72c81500a5e9ca318", "fusion_lat": 0.0, "rental_uris": {"ios": "https://dc.lft.to/lastmile_qr_scan", "android": "https://dc.lft.to/lastmile_qr_scan"}, "lon": -77.0229995, "type": "electric_scooter"}, {"bike_id": "8adfd2fdc5732f76e3dd78cbc9ba5f50", "is_reserved": 0, "fusion_lon": 0.0, "lat": 38.91493283333333, "is_disabled": 0, "name": "8adfd2fdc5732f76e3dd78cbc9ba5f50", "fusion_lat": 0.0, "rental_uris": {"ios": "https://dc.lft.to/lastmile_qr_scan", "android": "https://dc.lft.to/lastmile_qr_scan"}, "lon": -77.02692516666667, "type": "electric_scooter"}, {"bike_id": "635f0f5bb4770f6a683a6d14563da1fc", "is_reserved": 0, "fusion_lon": 0.0, "lat": 38.88597216666667, "is_disabled": 0, "name": "635f0f5bb4770f6a683a6d14563da1fc", "fusion_lat": 0.0, "rental_uris": {"ios": "https://dc.lft.to/lastmile_qr_scan", "android": "https://dc.lft.to/lastmile_qr_scan"}, "lon": -77.017634, "type": "electric_scooter"}, {"bike_id": "9e7c293ded6370e124857d215f8f0331", "is_reserved": 0, "fusion_lon": 0.0, "lat": 38.911932666666665, "is_disabled": 0, "name": "9e7c293ded6370e124857d215f8f0331", "fusion_lat": 0.0, "rental_uris": {"ios": "https://dc.lft.to/lastmile_qr_scan", "android": "https://dc.lft.to/lastmile_qr_scan"}, "lon": -77.06086683333334, "type": "electric_scooter"}, {"bike_id": "244a93932df36357986d08638345f44e", "is_reserved": 0, "fusion_lon": 0.0, "lat": 38.86930133333333, "is_disabled": 0, "name": "244a93932df36357986d08638345f44e", "fusion_lat": 0.0, "rental_uris": {"ios": "https://dc.lft.to/lastmile_qr_scan", "android": "https://dc.lft.to/lastmile_qr_scan"}, "lon": -76.960137, "type": "electric_bike"}, {"bike_id": "caa691f14b2aa064e77cfef906b84820", "is_reserved": 0, "fusion_lon": 0.0, "lat": 38.95184833333333, "is_disabled": 0, "name": "caa691f14b2aa064e77cfef906b84820", "fusion_lat": 0.0, "rental_uris": {"ios": "https://dc.lft.to/lastmile_qr_scan", "android": "https://dc.lft.to/lastmile_qr_scan"}, "lon": -76.935445, "type": "electric_bike"}, {"bike_id": "f73c568aa1113d23667bf627340ba641", "is_reserved": 0, "fusion_lon": 0.0, "lat": 38.924799166666666, "is_disabled": 0, "name": "f73c568aa1113d23667bf627340ba641", "fusion_lat": 0.0, "rental_uris": {"ios": "https://dc.lft.to/lastmile_qr_scan", "android": "https://dc.lft.to/lastmile_qr_scan"}, "lon": -77.028348, "type": "electric_scooter"}, {"bike_id": "7fb8cf3efa56cda2efbe9041623a6dff", "is_reserved": 0, "fusion_lon": 0.0, "lat": 38.9126935, "is_disabled": 0, "name": "7fb8cf3efa56cda2efbe9041623a6dff", "fusion_lat": 0.0, "rental_uris": {"ios": "https://dc.lft.to/lastmile_qr_scan", "android": "https://dc.lft.to/lastmile_qr_scan"}, "lon": -77.03612266666667, "type": "electric_scooter"}, {"bike_id": "46dbd49494b910d3193a2edc84a59c66", "is_reserved": 0, "fusion_lon": 0.0, "lat": 38.913732333333336, "is_disabled": 0, "name": "46dbd49494b910d3193a2edc84a59c66", "fusion_lat": 0.0, "rental_uris": {"ios": "https://dc.lft.to/lastmile_qr_scan", "android": "https://dc.lft.to/lastmile_qr_scan"}, "lon": -77.0082015, "type": "electric_scooter"}, {"bike_id": "847e23095c7b81de88ca3dc678f45903", "is_reserved": 0, "fusion_lon": 0.0, "lat": 38.956424, "is_disabled": 0, "name": "847e23095c7b81de88ca3dc678f45903", "fusion_lat": 0.0, "rental_uris": {"ios": "https://dc.lft.to/lastmile_qr_scan", "android": "https://dc.lft.to/lastmile_qr_scan"}, "lon": -76.99743616666666, "type": "electric_bike"}, {"bike_id": "a8c40b8fd5b463b3cc6c1cc6938ac4c7", "is_reserved": 0, "fusion_lon": 0.0, "lat": 38.907666666666664, "is_disabled": 0, "name": "a8c40b8fd5b463b3cc6c1cc6938ac4c7", "fusion_lat": 0.0, "rental_uris": {"ios": "https://dc.lft.to/lastmile_qr_scan", "android": "https://dc.lft.to/lastmile_qr_scan"}, "lon": -77.031689, "type": "electric_scooter"}, {"bike_id": "28f7ede48c84a1239124766d942e41cb", "is_reserved": 0, "fusion_lon": 0.0, "lat": 38.91708633333333, "is_disabled": 0, "name": "28f7ede48c84a1239124766d942e41cb", "fusion_lat": 0.0, "rental_uris": {"ios": "https://dc.lft.to/lastmile_qr_scan", "android": "https://dc.lft.to/lastmile_qr_scan"}, "lon": -77.00113983333334, "type": "electric_scooter"}, {"bike_id": "e9d9dbf1bf824bfc44fe7a767185e822", "is_reserved": 0, "fusion_lon": 0.0, "lat": 38.92699616666667, "is_disabled": 0, "name": "e9d9dbf1bf824bfc44fe7a767185e822", "fusion_lat": 0.0, "rental_uris": {"ios": "https://dc.lft.to/lastmile_qr_scan", "android": "https://dc.lft.to/lastmile_qr_scan"}, "lon": -77.03852333333333, "type": "electric_scooter"}, {"bike_id": "4b602ab59a7a85beae294ce2e2a93e1f", "is_reserved": 0, "fusion_lon": 0.0, "lat": 38.898997, "is_disabled": 0, "name": "4b602ab59a7a85beae294ce2e2a93e1f", "fusion_lat": 0.0, "rental_uris": {"ios": "https://dc.lft.to/lastmile_qr_scan", "android": "https://dc.lft.to/lastmile_qr_scan"}, "lon": -77.04050516666666, "type": "electric_scooter"}, {"bike_id": "90cf498ea0855ddcb5cf2bf8b2a6c6c0", "is_reserved": 0, "fusion_lon": 0.0, "lat": 38.9059885, "is_disabled": 0, "name": "90cf498ea0855ddcb5cf2bf8b2a6c6c0", "fusion_lat": 0.0, "rental_uris": {"ios": "https://dc.lft.to/lastmile_qr_scan", "android": "https://dc.lft.to/lastmile_qr_scan"}, "lon": -77.051004, "type": "electric_scooter"}, {"bike_id": "df41de2beb9c8009b1b528e872d3e78a", "is_reserved": 0, "fusion_lon": 0.0, "lat": 38.89824733333333, "is_disabled": 0, "name": "df41de2beb9c8009b1b528e872d3e78a", "fusion_lat": 0.0, "rental_uris": {"ios": "https://dc.lft.to/lastmile_qr_scan", "android": "https://dc.lft.to/lastmile_qr_scan"}, "lon": -77.05030666666667, "type": "electric_scooter"}, {"bike_id": "6c78c2508d82fad225d03c460ecfc24f", "is_reserved": 0, "fusion_lon": 0.0, "lat": 38.90218316666667, "is_disabled": 0, "name": "6c78c2508d82fad225d03c460ecfc24f", "fusion_lat": 0.0, "rental_uris": {"ios": "https://dc.lft.to/lastmile_qr_scan", "android": "https://dc.lft.to/lastmile_qr_scan"}, "lon": -76.950493, "type": "electric_bike"}, {"bike_id": "bfaceac901fa47c4a78b1b3ed4745b01", "is_reserved": 0, "fusion_lon": 0.0, "lat": 38.92273133333333, "is_disabled": 0, "name": "bfaceac901fa47c4a78b1b3ed4745b01", "fusion_lat": 0.0, "rental_uris": {"ios": "https://dc.lft.to/lastmile_qr_scan", "android": "https://dc.lft.to/lastmile_qr_scan"}, "lon": -77.025249, "type": "electric_scooter"}, {"bike_id": "baae4ebe0718e80c9ea7dbfaadced589", "is_reserved": 0, "fusion_lon": 0.0, "lat": 38.90141583333333, "is_disabled": 0, "name": "baae4ebe0718e80c9ea7dbfaadced589", "fusion_lat": 0.0, "rental_uris": {"ios": "https://dc.lft.to/lastmile_qr_scan", "android": "https://dc.lft.to/lastmile_qr_scan"}, "lon": -77.04306933333334, "type": "electric_scooter"}, {"bike_id": "791bf0913656e76e4a828a0cf286a824", "is_reserved": 0, "fusion_lon": 0.0, "lat": 38.905642666666665, "is_disabled": 0, "name": "791bf0913656e76e4a828a0cf286a824", "fusion_lat": 0.0, "rental_uris": {"ios": "https://dc.lft.to/lastmile_qr_scan", "android": "https://dc.lft.to/lastmile_qr_scan"}, "lon": -77.03610766666667, "type": "electric_scooter"}, {"bike_id": "fc04ee44f96d9ed58c8d7e2ad459fe31", "is_reserved": 0, "fusion_lon": 0.0, "lat": 38.916747666666666, "is_disabled": 0, "name": "fc04ee44f96d9ed58c8d7e2ad459fe31", "fusion_lat": 0.0, "rental_uris": {"ios": "https://dc.lft.to/lastmile_qr_scan", "android": "https://dc.lft.to/lastmile_qr_scan"}, "lon": -77.03690166666667, "type": "electric_scooter"}, {"bike_id": "af85e0d8a3b20c4be6cabe9ec065522c", "is_reserved": 0, "fusion_lon": 0.0, "lat": 38.922531, "is_disabled": 0, "name": "af85e0d8a3b20c4be6cabe9ec065522c", "fusion_lat": 0.0, "rental_uris": {"ios": "https://dc.lft.to/lastmile_qr_scan", "android": "https://dc.lft.to/lastmile_qr_scan"}, "lon": -77.0414225, "type": "electric_scooter"}, {"bike_id": "28e72d6e05e1827fb69482e49aa7ee51", "is_reserved": 0, "fusion_lon": 0.0, "lat": 38.89563966666667, "is_disabled": 0, "name": "28e72d6e05e1827fb69482e49aa7ee51", "fusion_lat": 0.0, "rental_uris": {"ios": "https://dc.lft.to/lastmile_qr_scan", "android": "https://dc.lft.to/lastmile_qr_scan"}, "lon": -77.12732933333334, "type": "electric_bike"}, {"bike_id": "b404f0b977ec97835f64e24a75b76eaa", "is_reserved": 0, "fusion_lon": 0.0, "lat": 38.94009666666667, "is_disabled": 0, "name": "b404f0b977ec97835f64e24a75b76eaa", "fusion_lat": 0.0, "rental_uris": {"ios": "https://dc.lft.to/lastmile_qr_scan", "android": "https://dc.lft.to/lastmile_qr_scan"}, "lon": -77.07170266666667, "type": "electric_scooter"}, {"bike_id": "712dc4559c228b6fd0b72415ecd05d20", "is_reserved": 0, "fusion_lon": 0.0, "lat": 38.905662166666666, "is_disabled": 0, "name": "712dc4559c228b6fd0b72415ecd05d20", "fusion_lat": 0.0, "rental_uris": {"ios": "https://dc.lft.to/lastmile_qr_scan", "android": "https://dc.lft.to/lastmile_qr_scan"}, "lon": -76.9814225, "type": "electric_scooter"}, {"bike_id": "4fd15ca98e6c67d8e1578535ff597a5a", "is_reserved": 0, "fusion_lon": 0.0, "lat": 38.88763216666667, "is_disabled": 0, "name": "4fd15ca98e6c67d8e1578535ff597a5a", "fusion_lat": 0.0, "rental_uris": {"ios": "https://dc.lft.to/lastmile_qr_scan", "android": "https://dc.lft.to/lastmile_qr_scan"}, "lon": -77.02856783333333, "type": "electric_scooter"}, {"bike_id": "c0311cdf593dc13ee566bbf2dbae7490", "is_reserved": 0, "fusion_lon": 0.0, "lat": 38.9040835, "is_disabled": 0, "name": "c0311cdf593dc13ee566bbf2dbae7490", "fusion_lat": 0.0, "rental_uris": {"ios": "https://dc.lft.to/lastmile_qr_scan", "android": "https://dc.lft.to/lastmile_qr_scan"}, "lon": -76.97330166666667, "type": "electric_scooter"}, {"bike_id": "01088e1c82348ba9214c4c20300f1de3", "is_reserved": 0, "fusion_lon": 0.0, "lat": 38.871731, "is_disabled": 0, "name": "01088e1c82348ba9214c4c20300f1de3", "fusion_lat": 0.0, "rental_uris": {"ios": "https://dc.lft.to/lastmile_qr_scan", "android": "https://dc.lft.to/lastmile_qr_scan"}, "lon": -77.00624783333333, "type": "electric_scooter"}, {"bike_id": "b820016456e8c542ec34ad12129d026d", "is_reserved": 0, "fusion_lon": 0.0, "lat": 38.920117, "is_disabled": 0, "name": "b820016456e8c542ec34ad12129d026d", "fusion_lat": 0.0, "rental_uris": {"ios": "https://dc.lft.to/lastmile_qr_scan", "android": "https://dc.lft.to/lastmile_qr_scan"}, "lon": -77.03867016666666, "type": "electric_scooter"}, {"bike_id": "06b2a9743e2742bdfc3e5c38e10a65af", "is_reserved": 0, "fusion_lon": 0.0, "lat": 38.903951, "is_disabled": 0, "name": "06b2a9743e2742bdfc3e5c38e10a65af", "fusion_lat": 0.0, "rental_uris": {"ios": "https://dc.lft.to/lastmile_qr_scan", "android": "https://dc.lft.to/lastmile_qr_scan"}, "lon": -77.0248645, "type": "electric_scooter"}, {"bike_id": "5e53003376eb31010f53f23e978826e8", "is_reserved": 0, "fusion_lon": 0.0, "lat": 38.904014333333336, "is_disabled": 0, "name": "5e53003376eb31010f53f23e978826e8", "fusion_lat": 0.0, "rental_uris": {"ios": "https://dc.lft.to/lastmile_qr_scan", "android": "https://dc.lft.to/lastmile_qr_scan"}, "lon": -77.04220566666666, "type": "electric_scooter"}, {"bike_id": "e91384818bd1fb5b2e2fb2b7746bba93", "is_reserved": 0, "fusion_lon": 0.0, "lat": 38.90373366666667, "is_disabled": 0, "name": "e91384818bd1fb5b2e2fb2b7746bba93", "fusion_lat": 0.0, "rental_uris": {"ios": "https://dc.lft.to/lastmile_qr_scan", "android": "https://dc.lft.to/lastmile_qr_scan"}, "lon": -77.017607, "type": "electric_scooter"}, {"bike_id": "71f33a2e381c2a9dd527b36937191e16", "is_reserved": 0, "fusion_lon": 0.0, "lat": 38.89914616666667, "is_disabled": 0, "name": "71f33a2e381c2a9dd527b36937191e16", "fusion_lat": 0.0, "rental_uris": {"ios": "https://dc.lft.to/lastmile_qr_scan", "android": "https://dc.lft.to/lastmile_qr_scan"}, "lon": -76.933503, "type": "electric_scooter"}, {"bike_id": "f8ae84af0b928290407237c84e6e1f43", "is_reserved": 0, "fusion_lon": 0.0, "lat": 38.90369416666667, "is_disabled": 0, "name": "f8ae84af0b928290407237c84e6e1f43", "fusion_lat": 0.0, "rental_uris": {"ios": "https://dc.lft.to/lastmile_qr_scan", "android": "https://dc.lft.to/lastmile_qr_scan"}, "lon": -76.98507716666667, "type": "electric_scooter"}, {"bike_id": "0604cec8114c809c1b6884c8c4931c8a", "is_reserved": 0, "fusion_lon": 0.0, "lat": 38.88236766666667, "is_disabled": 0, "name": "0604cec8114c809c1b6884c8c4931c8a", "fusion_lat": 0.0, "rental_uris": {"ios": "https://dc.lft.to/lastmile_qr_scan", "android": "https://dc.lft.to/lastmile_qr_scan"}, "lon": -76.99077866666667, "type": "electric_scooter"}, {"bike_id": "3685cd3aae608c0ec2be53ec1bd155ba", "is_reserved": 0, "fusion_lon": 0.0, "lat": 38.92399483333333, "is_disabled": 0, "name": "3685cd3aae608c0ec2be53ec1bd155ba", "fusion_lat": 0.0, "rental_uris": {"ios": "https://dc.lft.to/lastmile_qr_scan", "android": "https://dc.lft.to/lastmile_qr_scan"}, "lon": -77.01963666666667, "type": "electric_scooter"}, {"bike_id": "090334e2d91c729101960889bdf2661e", "is_reserved": 0, "fusion_lon": 0.0, "lat": 38.884916, "is_disabled": 0, "name": "090334e2d91c729101960889bdf2661e", "fusion_lat": 0.0, "rental_uris": {"ios": "https://dc.lft.to/lastmile_qr_scan", "android": "https://dc.lft.to/lastmile_qr_scan"}, "lon": -77.00726316666666, "type": "electric_scooter"}, {"bike_id": "60d508e712c62f65ca2945175a2aec96", "is_reserved": 0, "fusion_lon": 0.0, "lat": 38.887493, "is_disabled": 0, "name": "60d508e712c62f65ca2945175a2aec96", "fusion_lat": 0.0, "rental_uris": {"ios": "https://dc.lft.to/lastmile_qr_scan", "android": "https://dc.lft.to/lastmile_qr_scan"}, "lon": -77.02023783333334, "type": "electric_scooter"}, {"bike_id": "a649d70de092fb0d9a38ba1c4303c80c", "is_reserved": 0, "fusion_lon": 0.0, "lat": 38.92484366666667, "is_disabled": 0, "name": "a649d70de092fb0d9a38ba1c4303c80c", "fusion_lat": 0.0, "rental_uris": {"ios": "https://dc.lft.to/lastmile_qr_scan", "android": "https://dc.lft.to/lastmile_qr_scan"}, "lon": -77.0271255, "type": "electric_scooter"}, {"bike_id": "d932b33ce36860198b2af896551fcf20", "is_reserved": 0, "fusion_lon": 0.0, "lat": 38.910033166666665, "is_disabled": 0, "name": "d932b33ce36860198b2af896551fcf20", "fusion_lat": 0.0, "rental_uris": {"ios": "https://dc.lft.to/lastmile_qr_scan", "android": "https://dc.lft.to/lastmile_qr_scan"}, "lon": -77.04007116666666, "type": "electric_scooter"}, {"bike_id": "1d75912d6cd5c13d117ca89901eac858", "is_reserved": 0, "fusion_lon": 0.0, "lat": 38.93079083333333, "is_disabled": 0, "name": "1d75912d6cd5c13d117ca89901eac858", "fusion_lat": 0.0, "rental_uris": {"ios": "https://dc.lft.to/lastmile_qr_scan", "android": "https://dc.lft.to/lastmile_qr_scan"}, "lon": -77.0279385, "type": "electric_scooter"}, {"bike_id": "ecd4fe0507a7a7750c6eabf6ab5d2adb", "is_reserved": 0, "fusion_lon": 0.0, "lat": 38.9377995, "is_disabled": 0, "name": "ecd4fe0507a7a7750c6eabf6ab5d2adb", "fusion_lat": 0.0, "rental_uris": {"ios": "https://dc.lft.to/lastmile_qr_scan", "android": "https://dc.lft.to/lastmile_qr_scan"}, "lon": -77.0190705, "type": "electric_bike"}, {"bike_id": "74ee3ca677f54b13323b1cc15ed8d2b9", "is_reserved": 0, "fusion_lon": 0.0, "lat": 38.8950075, "is_disabled": 0, "name": "74ee3ca677f54b13323b1cc15ed8d2b9", "fusion_lat": 0.0, "rental_uris": {"ios": "https://dc.lft.to/lastmile_qr_scan", "android": "https://dc.lft.to/lastmile_qr_scan"}, "lon": -77.002839, "type": "electric_scooter"}, {"bike_id": "db6b36862b90896f73f13a8d91e5d08a", "is_reserved": 0, "fusion_lon": 0.0, "lat": 38.956397833333334, "is_disabled": 0, "name": "db6b36862b90896f73f13a8d91e5d08a", "fusion_lat": 0.0, "rental_uris": {"ios": "https://dc.lft.to/lastmile_qr_scan", "android": "https://dc.lft.to/lastmile_qr_scan"}, "lon": -76.99790566666667, "type": "electric_scooter"}, {"bike_id": "070e54a869b179ac06521b2c376121fa", "is_reserved": 0, "fusion_lon": 0.0, "lat": 38.88747083333333, "is_disabled": 0, "name": "070e54a869b179ac06521b2c376121fa", "fusion_lat": 0.0, "rental_uris": {"ios": "https://dc.lft.to/lastmile_qr_scan", "android": "https://dc.lft.to/lastmile_qr_scan"}, "lon": -77.03127233333333, "type": "electric_scooter"}, {"bike_id": "13f9ce3d5206399fd017a3a64210821c", "is_reserved": 0, "fusion_lon": 0.0, "lat": 38.91273733333333, "is_disabled": 0, "name": "13f9ce3d5206399fd017a3a64210821c", "fusion_lat": 0.0, "rental_uris": {"ios": "https://dc.lft.to/lastmile_qr_scan", "android": "https://dc.lft.to/lastmile_qr_scan"}, "lon": -77.01605516666666, "type": "electric_scooter"}, {"bike_id": "9c622ab8a486b01647637d230874f967", "is_reserved": 0, "fusion_lon": 0.0, "lat": 38.8896815, "is_disabled": 0, "name": "9c622ab8a486b01647637d230874f967", "fusion_lat": 0.0, "rental_uris": {"ios": "https://dc.lft.to/lastmile_qr_scan", "android": "https://dc.lft.to/lastmile_qr_scan"}, "lon": -76.980375, "type": "electric_bike"}, {"bike_id": "e1cce90b89c52520dc60412e59ee873e", "is_reserved": 0, "fusion_lon": 0.0, "lat": 38.930034666666664, "is_disabled": 0, "name": "e1cce90b89c52520dc60412e59ee873e", "fusion_lat": 0.0, "rental_uris": {"ios": "https://dc.lft.to/lastmile_qr_scan", "android": "https://dc.lft.to/lastmile_qr_scan"}, "lon": -77.05541116666667, "type": "electric_scooter"}, {"bike_id": "f80e6b11d2c5c72713417d3c0b30a22e", "is_reserved": 0, "fusion_lon": 0.0, "lat": 38.90145716666667, "is_disabled": 0, "name": "f80e6b11d2c5c72713417d3c0b30a22e", "fusion_lat": 0.0, "rental_uris": {"ios": "https://dc.lft.to/lastmile_qr_scan", "android": "https://dc.lft.to/lastmile_qr_scan"}, "lon": -77.044863, "type": "electric_scooter"}, {"bike_id": "2b074f25617f5475dae79f94161c1569", "is_reserved": 0, "fusion_lon": 0.0, "lat": 38.9110935, "is_disabled": 0, "name": "2b074f25617f5475dae79f94161c1569", "fusion_lat": 0.0, "rental_uris": {"ios": "https://dc.lft.to/lastmile_qr_scan", "android": "https://dc.lft.to/lastmile_qr_scan"}, "lon": -77.00379533333333, "type": "electric_scooter"}, {"bike_id": "4135f4b2ff8c4edc697fa2d22dabd024", "is_reserved": 0, "fusion_lon": 0.0, "lat": 38.9262735, "is_disabled": 0, "name": "4135f4b2ff8c4edc697fa2d22dabd024", "fusion_lat": 0.0, "rental_uris": {"ios": "https://dc.lft.to/lastmile_qr_scan", "android": "https://dc.lft.to/lastmile_qr_scan"}, "lon": -77.03500966666667, "type": "electric_scooter"}, {"bike_id": "3b2d109df8d3b7c403f18c4caa0b6edb", "is_reserved": 0, "fusion_lon": 0.0, "lat": 38.905117833333335, "is_disabled": 0, "name": "3b2d109df8d3b7c403f18c4caa0b6edb", "fusion_lat": 0.0, "rental_uris": {"ios": "https://dc.lft.to/lastmile_qr_scan", "android": "https://dc.lft.to/lastmile_qr_scan"}, "lon": -77.04141266666667, "type": "electric_scooter"}, {"bike_id": "1ed261a80fce97ffd3fc504ed5f30d04", "is_reserved": 0, "fusion_lon": 0.0, "lat": 38.8981565, "is_disabled": 0, "name": "1ed261a80fce97ffd3fc504ed5f30d04", "fusion_lat": 0.0, "rental_uris": {"ios": "https://dc.lft.to/lastmile_qr_scan", "android": "https://dc.lft.to/lastmile_qr_scan"}, "lon": -77.03358466666667, "type": "electric_scooter"}, {"bike_id": "29e6369c2b14bb42022f03c43962a101", "is_reserved": 0, "fusion_lon": 0.0, "lat": 38.93345583333333, "is_disabled": 0, "name": "29e6369c2b14bb42022f03c43962a101", "fusion_lat": 0.0, "rental_uris": {"ios": "https://dc.lft.to/lastmile_qr_scan", "android": "https://dc.lft.to/lastmile_qr_scan"}, "lon": -77.05864233333334, "type": "electric_scooter"}, {"bike_id": "3b46e102d23ca9a8f83b2981fb83a641", "is_reserved": 0, "fusion_lon": 0.0, "lat": 38.92084966666667, "is_disabled": 0, "name": "3b46e102d23ca9a8f83b2981fb83a641", "fusion_lat": 0.0, "rental_uris": {"ios": "https://dc.lft.to/lastmile_qr_scan", "android": "https://dc.lft.to/lastmile_qr_scan"}, "lon": -77.074754, "type": "electric_scooter"}, {"bike_id": "ebb86e20e24aa9a4586ec56414fc4037", "is_reserved": 0, "fusion_lon": 0.0, "lat": 38.900210333333334, "is_disabled": 0, "name": "ebb86e20e24aa9a4586ec56414fc4037", "fusion_lat": 0.0, "rental_uris": {"ios": "https://dc.lft.to/lastmile_qr_scan", "android": "https://dc.lft.to/lastmile_qr_scan"}, "lon": -77.01135483333333, "type": "electric_scooter"}, {"bike_id": "00bd25a9df4279a3c9f2fbf5be751113", "is_reserved": 0, "fusion_lon": 0.0, "lat": 38.86241883333334, "is_disabled": 0, "name": "00bd25a9df4279a3c9f2fbf5be751113", "fusion_lat": 0.0, "rental_uris": {"ios": "https://dc.lft.to/lastmile_qr_scan", "android": "https://dc.lft.to/lastmile_qr_scan"}, "lon": -76.994861, "type": "electric_scooter"}, {"bike_id": "cde9ba7b0191b6ee5435c2ef74cec6b5", "is_reserved": 0, "fusion_lon": 0.0, "lat": 38.9096725, "is_disabled": 0, "name": "cde9ba7b0191b6ee5435c2ef74cec6b5", "fusion_lat": 0.0, "rental_uris": {"ios": "https://dc.lft.to/lastmile_qr_scan", "android": "https://dc.lft.to/lastmile_qr_scan"}, "lon": -77.0526445, "type": "electric_scooter"}, {"bike_id": "337174f96793c2e90e248b67bf321f7f", "is_reserved": 0, "fusion_lon": 0.0, "lat": 38.9361115, "is_disabled": 0, "name": "337174f96793c2e90e248b67bf321f7f", "fusion_lat": 0.0, "rental_uris": {"ios": "https://dc.lft.to/lastmile_qr_scan", "android": "https://dc.lft.to/lastmile_qr_scan"}, "lon": -77.10647833333333, "type": "electric_bike"}, {"bike_id": "8535e2cc6aed954983da1b44372f63e5", "is_reserved": 0, "fusion_lon": 0.0, "lat": 38.923626, "is_disabled": 0, "name": "8535e2cc6aed954983da1b44372f63e5", "fusion_lat": 0.0, "rental_uris": {"ios": "https://dc.lft.to/lastmile_qr_scan", "android": "https://dc.lft.to/lastmile_qr_scan"}, "lon": -77.019211, "type": "electric_scooter"}, {"bike_id": "78ad37fbba6f1a36fb5fcc2f91f87197", "is_reserved": 0, "fusion_lon": 0.0, "lat": 38.918032333333336, "is_disabled": 0, "name": "78ad37fbba6f1a36fb5fcc2f91f87197", "fusion_lat": 0.0, "rental_uris": {"ios": "https://dc.lft.to/lastmile_qr_scan", "android": "https://dc.lft.to/lastmile_qr_scan"}, "lon": -77.03557816666667, "type": "electric_scooter"}, {"bike_id": "f8aeb33457045c97f28a28b0a129299a", "is_reserved": 0, "fusion_lon": 0.0, "lat": 38.9277685, "is_disabled": 0, "name": "f8aeb33457045c97f28a28b0a129299a", "fusion_lat": 0.0, "rental_uris": {"ios": "https://dc.lft.to/lastmile_qr_scan", "android": "https://dc.lft.to/lastmile_qr_scan"}, "lon": -77.02780633333333, "type": "electric_scooter"}, {"bike_id": "053d33874fb873e67f0ba15b1fd1b2cf", "is_reserved": 0, "fusion_lon": 0.0, "lat": 38.927611666666664, "is_disabled": 0, "name": "053d33874fb873e67f0ba15b1fd1b2cf", "fusion_lat": 0.0, "rental_uris": {"ios": "https://dc.lft.to/lastmile_qr_scan", "android": "https://dc.lft.to/lastmile_qr_scan"}, "lon": -77.03244933333333, "type": "electric_scooter"}, {"bike_id": "0bc9d3bf0dbbe746b223997d409afa3c", "is_reserved": 0, "fusion_lon": 0.0, "lat": 38.900848333333336, "is_disabled": 0, "name": "0bc9d3bf0dbbe746b223997d409afa3c", "fusion_lat": 0.0, "rental_uris": {"ios": "https://dc.lft.to/lastmile_qr_scan", "android": "https://dc.lft.to/lastmile_qr_scan"}, "lon": -76.93867316666666, "type": "electric_scooter"}, {"bike_id": "ecabc4d3fc46d65cd17d9e780c8ab0fb", "is_reserved": 0, "fusion_lon": 0.0, "lat": 38.9247355, "is_disabled": 0, "name": "ecabc4d3fc46d65cd17d9e780c8ab0fb", "fusion_lat": 0.0, "rental_uris": {"ios": "https://dc.lft.to/lastmile_qr_scan", "android": "https://dc.lft.to/lastmile_qr_scan"}, "lon": -77.0521075, "type": "electric_scooter"}, {"bike_id": "8a2870a075633e34554b2f92ee1b564e", "is_reserved": 0, "fusion_lon": 0.0, "lat": 38.931634833333334, "is_disabled": 0, "name": "8a2870a075633e34554b2f92ee1b564e", "fusion_lat": 0.0, "rental_uris": {"ios": "https://dc.lft.to/lastmile_qr_scan", "android": "https://dc.lft.to/lastmile_qr_scan"}, "lon": -77.05639883333333, "type": "electric_scooter"}, {"bike_id": "bcb741555a7c0741775035dba46cfbce", "is_reserved": 0, "fusion_lon": 0.0, "lat": 38.88776816666667, "is_disabled": 0, "name": "bcb741555a7c0741775035dba46cfbce", "fusion_lat": 0.0, "rental_uris": {"ios": "https://dc.lft.to/lastmile_qr_scan", "android": "https://dc.lft.to/lastmile_qr_scan"}, "lon": -76.95530733333334, "type": "electric_scooter"}, {"bike_id": "2b563bfa481bd3a89ff02fa1cb8306c2", "is_reserved": 0, "fusion_lon": 0.0, "lat": 38.899831666666664, "is_disabled": 0, "name": "2b563bfa481bd3a89ff02fa1cb8306c2", "fusion_lat": 0.0, "rental_uris": {"ios": "https://dc.lft.to/lastmile_qr_scan", "android": "https://dc.lft.to/lastmile_qr_scan"}, "lon": -77.015418, "type": "electric_scooter"}, {"bike_id": "eb0381b8c909327681c678780d7b99fe", "is_reserved": 0, "fusion_lon": 0.0, "lat": 38.887748, "is_disabled": 0, "name": "eb0381b8c909327681c678780d7b99fe", "fusion_lat": 0.0, "rental_uris": {"ios": "https://dc.lft.to/lastmile_qr_scan", "android": "https://dc.lft.to/lastmile_qr_scan"}, "lon": -76.9326165, "type": "electric_scooter"}, {"bike_id": "39cd94fe4c6d665da5f86d1708e90c11", "is_reserved": 0, "fusion_lon": 0.0, "lat": 38.909424, "is_disabled": 0, "name": "39cd94fe4c6d665da5f86d1708e90c11", "fusion_lat": 0.0, "rental_uris": {"ios": "https://dc.lft.to/lastmile_qr_scan", "android": "https://dc.lft.to/lastmile_qr_scan"}, "lon": -77.0383695, "type": "electric_scooter"}, {"bike_id": "9280848a5bd25b22bd043a85c85166e1", "is_reserved": 0, "fusion_lon": 0.0, "lat": 38.8966075, "is_disabled": 0, "name": "9280848a5bd25b22bd043a85c85166e1", "fusion_lat": 0.0, "rental_uris": {"ios": "https://dc.lft.to/lastmile_qr_scan", "android": "https://dc.lft.to/lastmile_qr_scan"}, "lon": -77.02607283333333, "type": "electric_scooter"}, {"bike_id": "01fd0eb294cb01cbe93a907bc8ab6bc2", "is_reserved": 0, "fusion_lon": 0.0, "lat": 38.89222066666667, "is_disabled": 0, "name": "01fd0eb294cb01cbe93a907bc8ab6bc2", "fusion_lat": 0.0, "rental_uris": {"ios": "https://dc.lft.to/lastmile_qr_scan", "android": "https://dc.lft.to/lastmile_qr_scan"}, "lon": -77.0437935, "type": "electric_scooter"}, {"bike_id": "b216dba8c4c007381935fbba9fe39eec", "is_reserved": 0, "fusion_lon": 0.0, "lat": 38.90274016666667, "is_disabled": 0, "name": "b216dba8c4c007381935fbba9fe39eec", "fusion_lat": 0.0, "rental_uris": {"ios": "https://dc.lft.to/lastmile_qr_scan", "android": "https://dc.lft.to/lastmile_qr_scan"}, "lon": -77.03833816666666, "type": "electric_scooter"}, {"bike_id": "bad5ba04fb9f77d91123193de9f48f0c", "is_reserved": 0, "fusion_lon": 0.0, "lat": 38.8984195, "is_disabled": 0, "name": "bad5ba04fb9f77d91123193de9f48f0c", "fusion_lat": 0.0, "rental_uris": {"ios": "https://dc.lft.to/lastmile_qr_scan", "android": "https://dc.lft.to/lastmile_qr_scan"}, "lon": -76.994996, "type": "electric_scooter"}, {"bike_id": "484acc9e7a4652625afc7fb1a8fb86f7", "is_reserved": 0, "fusion_lon": 0.0, "lat": 38.8909245, "is_disabled": 0, "name": "484acc9e7a4652625afc7fb1a8fb86f7", "fusion_lat": 0.0, "rental_uris": {"ios": "https://dc.lft.to/lastmile_qr_scan", "android": "https://dc.lft.to/lastmile_qr_scan"}, "lon": -76.9439, "type": "electric_scooter"}, {"bike_id": "3d29325d59aabae40ce0ddf247922b73", "is_reserved": 0, "fusion_lon": 0.0, "lat": 38.8990295, "is_disabled": 0, "name": "3d29325d59aabae40ce0ddf247922b73", "fusion_lat": 0.0, "rental_uris": {"ios": "https://dc.lft.to/lastmile_qr_scan", "android": "https://dc.lft.to/lastmile_qr_scan"}, "lon": -77.0396735, "type": "electric_scooter"}, {"bike_id": "3d0ee35629571008c320090f4762b940", "is_reserved": 0, "fusion_lon": 0.0, "lat": 38.88527833333333, "is_disabled": 0, "name": "3d0ee35629571008c320090f4762b940", "fusion_lat": 0.0, "rental_uris": {"ios": "https://dc.lft.to/lastmile_qr_scan", "android": "https://dc.lft.to/lastmile_qr_scan"}, "lon": -77.005818, "type": "electric_scooter"}, {"bike_id": "579b777cc3967705f7871a302a4ef3d5", "is_reserved": 0, "fusion_lon": 0.0, "lat": 38.90466083333333, "is_disabled": 0, "name": "579b777cc3967705f7871a302a4ef3d5", "fusion_lat": 0.0, "rental_uris": {"ios": "https://dc.lft.to/lastmile_qr_scan", "android": "https://dc.lft.to/lastmile_qr_scan"}, "lon": -77.02947233333333, "type": "electric_scooter"}, {"bike_id": "eb1a75dd1b36121818498ce73e3556a7", "is_reserved": 0, "fusion_lon": 0.0, "lat": 38.8682875, "is_disabled": 0, "name": "eb1a75dd1b36121818498ce73e3556a7", "fusion_lat": 0.0, "rental_uris": {"ios": "https://dc.lft.to/lastmile_qr_scan", "android": "https://dc.lft.to/lastmile_qr_scan"}, "lon": -76.9861355, "type": "electric_scooter"}, {"bike_id": "3e75086bea778dc14b2bd57e3d3ebaa7", "is_reserved": 0, "fusion_lon": 0.0, "lat": 38.907021, "is_disabled": 0, "name": "3e75086bea778dc14b2bd57e3d3ebaa7", "fusion_lat": 0.0, "rental_uris": {"ios": "https://dc.lft.to/lastmile_qr_scan", "android": "https://dc.lft.to/lastmile_qr_scan"}, "lon": -76.986953, "type": "electric_scooter"}, {"bike_id": "14aa3d3cd560b37a8107ec41314e14b2", "is_reserved": 0, "fusion_lon": 0.0, "lat": 38.9027825, "is_disabled": 0, "name": "14aa3d3cd560b37a8107ec41314e14b2", "fusion_lat": 0.0, "rental_uris": {"ios": "https://dc.lft.to/lastmile_qr_scan", "android": "https://dc.lft.to/lastmile_qr_scan"}, "lon": -77.00317683333333, "type": "electric_scooter"}, {"bike_id": "2d8eec0906563ddf3a763a66d631cd6e", "is_reserved": 0, "fusion_lon": 0.0, "lat": 38.8923395, "is_disabled": 0, "name": "2d8eec0906563ddf3a763a66d631cd6e", "fusion_lat": 0.0, "rental_uris": {"ios": "https://dc.lft.to/lastmile_qr_scan", "android": "https://dc.lft.to/lastmile_qr_scan"}, "lon": -77.02170916666667, "type": "electric_scooter"}, {"bike_id": "7b48e41d0d1a57bdf66a771b455b9a3c", "is_reserved": 0, "fusion_lon": 0.0, "lat": 38.91692033333333, "is_disabled": 0, "name": "7b48e41d0d1a57bdf66a771b455b9a3c", "fusion_lat": 0.0, "rental_uris": {"ios": "https://dc.lft.to/lastmile_qr_scan", "android": "https://dc.lft.to/lastmile_qr_scan"}, "lon": -77.0259785, "type": "electric_scooter"}, {"bike_id": "23292dcc8f0d6cb61b92930d7d7d3ff8", "is_reserved": 0, "fusion_lon": 0.0, "lat": 38.936429, "is_disabled": 0, "name": "23292dcc8f0d6cb61b92930d7d7d3ff8", "fusion_lat": 0.0, "rental_uris": {"ios": "https://dc.lft.to/lastmile_qr_scan", "android": "https://dc.lft.to/lastmile_qr_scan"}, "lon": -77.02086, "type": "electric_scooter"}, {"bike_id": "3f60e122b6d2db0fc7ea3adc554ef75f", "is_reserved": 0, "fusion_lon": 0.0, "lat": 39.056338333333336, "is_disabled": 0, "name": "3f60e122b6d2db0fc7ea3adc554ef75f", "fusion_lat": 0.0, "rental_uris": {"ios": "https://dc.lft.to/lastmile_qr_scan", "android": "https://dc.lft.to/lastmile_qr_scan"}, "lon": -77.125278, "type": "electric_bike"}, {"bike_id": "58b5d2e8de18539d2890ef5d6622941d", "is_reserved": 0, "fusion_lon": 0.0, "lat": 38.924838666666666, "is_disabled": 0, "name": "58b5d2e8de18539d2890ef5d6622941d", "fusion_lat": 0.0, "rental_uris": {"ios": "https://dc.lft.to/lastmile_qr_scan", "android": "https://dc.lft.to/lastmile_qr_scan"}, "lon": -77.03497483333334, "type": "electric_scooter"}, {"bike_id": "49608e6b76678bc93eed8b3585523d34", "is_reserved": 0, "fusion_lon": 0.0, "lat": 38.92705516666667, "is_disabled": 0, "name": "49608e6b76678bc93eed8b3585523d34", "fusion_lat": 0.0, "rental_uris": {"ios": "https://dc.lft.to/lastmile_qr_scan", "android": "https://dc.lft.to/lastmile_qr_scan"}, "lon": -77.040983, "type": "electric_scooter"}, {"bike_id": "2a4341a83eb1ba9adfec9714df48081d", "is_reserved": 0, "fusion_lon": 0.0, "lat": 38.922324833333334, "is_disabled": 0, "name": "2a4341a83eb1ba9adfec9714df48081d", "fusion_lat": 0.0, "rental_uris": {"ios": "https://dc.lft.to/lastmile_qr_scan", "android": "https://dc.lft.to/lastmile_qr_scan"}, "lon": -77.04132966666667, "type": "electric_scooter"}, {"bike_id": "db8e93480bbca97029d5d1bc5bb1dee6", "is_reserved": 0, "fusion_lon": 0.0, "lat": 38.955513833333335, "is_disabled": 0, "name": "db8e93480bbca97029d5d1bc5bb1dee6", "fusion_lat": 0.0, "rental_uris": {"ios": "https://dc.lft.to/lastmile_qr_scan", "android": "https://dc.lft.to/lastmile_qr_scan"}, "lon": -76.9401265, "type": "electric_bike"}, {"bike_id": "080e8748c95f32aadd69418b8c5f6860", "is_reserved": 0, "fusion_lon": 0.0, "lat": 38.90359766666667, "is_disabled": 0, "name": "080e8748c95f32aadd69418b8c5f6860", "fusion_lat": 0.0, "rental_uris": {"ios": "https://dc.lft.to/lastmile_qr_scan", "android": "https://dc.lft.to/lastmile_qr_scan"}, "lon": -77.03927366666667, "type": "electric_scooter"}, {"bike_id": "7889a8ca035acbd28a9e6c028543455b", "is_reserved": 0, "fusion_lon": 0.0, "lat": 38.905737333333335, "is_disabled": 0, "name": "7889a8ca035acbd28a9e6c028543455b", "fusion_lat": 0.0, "rental_uris": {"ios": "https://dc.lft.to/lastmile_qr_scan", "android": "https://dc.lft.to/lastmile_qr_scan"}, "lon": -77.03476616666667, "type": "electric_scooter"}, {"bike_id": "7bf6969a712cb0f8f65d898e7dfa8f0e", "is_reserved": 0, "fusion_lon": 0.0, "lat": 38.8800435, "is_disabled": 0, "name": "7bf6969a712cb0f8f65d898e7dfa8f0e", "fusion_lat": 0.0, "rental_uris": {"ios": "https://dc.lft.to/lastmile_qr_scan", "android": "https://dc.lft.to/lastmile_qr_scan"}, "lon": -76.91594116666667, "type": "electric_bike"}, {"bike_id": "5cbde403c28feafd591c250f502eac1e", "is_reserved": 0, "fusion_lon": 0.0, "lat": 38.935089166666664, "is_disabled": 0, "name": "5cbde403c28feafd591c250f502eac1e", "fusion_lat": 0.0, "rental_uris": {"ios": "https://dc.lft.to/lastmile_qr_scan", "android": "https://dc.lft.to/lastmile_qr_scan"}, "lon": -77.0333435, "type": "electric_scooter"}, {"bike_id": "4cfe46bbb306aa99481b2b1f35170182", "is_reserved": 0, "fusion_lon": 0.0, "lat": 38.88380183333334, "is_disabled": 0, "name": "4cfe46bbb306aa99481b2b1f35170182", "fusion_lat": 0.0, "rental_uris": {"ios": "https://dc.lft.to/lastmile_qr_scan", "android": "https://dc.lft.to/lastmile_qr_scan"}, "lon": -76.949262, "type": "electric_scooter"}, {"bike_id": "543db35601e669061c2f61fe3ca74d57", "is_reserved": 0, "fusion_lon": 0.0, "lat": 38.909019, "is_disabled": 0, "name": "543db35601e669061c2f61fe3ca74d57", "fusion_lat": 0.0, "rental_uris": {"ios": "https://dc.lft.to/lastmile_qr_scan", "android": "https://dc.lft.to/lastmile_qr_scan"}, "lon": -77.08618866666667, "type": "electric_scooter"}, {"bike_id": "569eed484c8ee8b8314e94ff7f172101", "is_reserved": 0, "fusion_lon": 0.0, "lat": 38.92345366666667, "is_disabled": 0, "name": "569eed484c8ee8b8314e94ff7f172101", "fusion_lat": 0.0, "rental_uris": {"ios": "https://dc.lft.to/lastmile_qr_scan", "android": "https://dc.lft.to/lastmile_qr_scan"}, "lon": -77.03514516666667, "type": "electric_scooter"}, {"bike_id": "501320692d81b4dd59b788d5ea3b197a", "is_reserved": 0, "fusion_lon": 0.0, "lat": 38.892411333333335, "is_disabled": 0, "name": "501320692d81b4dd59b788d5ea3b197a", "fusion_lat": 0.0, "rental_uris": {"ios": "https://dc.lft.to/lastmile_qr_scan", "android": "https://dc.lft.to/lastmile_qr_scan"}, "lon": -77.03188266666666, "type": "electric_scooter"}, {"bike_id": "0252afaefaab9f230ee93c1cdf80e261", "is_reserved": 0, "fusion_lon": 0.0, "lat": 38.917189666666665, "is_disabled": 0, "name": "0252afaefaab9f230ee93c1cdf80e261", "fusion_lat": 0.0, "rental_uris": {"ios": "https://dc.lft.to/lastmile_qr_scan", "android": "https://dc.lft.to/lastmile_qr_scan"}, "lon": -77.03836016666666, "type": "electric_scooter"}, {"bike_id": "6bda2e72cdf37d9a5a5eae0f9d210fb4", "is_reserved": 0, "fusion_lon": 0.0, "lat": 38.902718, "is_disabled": 0, "name": "6bda2e72cdf37d9a5a5eae0f9d210fb4", "fusion_lat": 0.0, "rental_uris": {"ios": "https://dc.lft.to/lastmile_qr_scan", "android": "https://dc.lft.to/lastmile_qr_scan"}, "lon": -77.03665766666667, "type": "electric_scooter"}, {"bike_id": "4af6c7e72f12dd6759b7fee9052b09c0", "is_reserved": 0, "fusion_lon": 0.0, "lat": 38.9209175, "is_disabled": 0, "name": "4af6c7e72f12dd6759b7fee9052b09c0", "fusion_lat": 0.0, "rental_uris": {"ios": "https://dc.lft.to/lastmile_qr_scan", "android": "https://dc.lft.to/lastmile_qr_scan"}, "lon": -77.024252, "type": "electric_scooter"}, {"bike_id": "8d20ded169ad8e7fdf3341499840ddee", "is_reserved": 0, "fusion_lon": 0.0, "lat": 38.824436666666664, "is_disabled": 0, "name": "8d20ded169ad8e7fdf3341499840ddee", "fusion_lat": 0.0, "rental_uris": {"ios": "https://dc.lft.to/lastmile_qr_scan", "android": "https://dc.lft.to/lastmile_qr_scan"}, "lon": -77.07045216666667, "type": "electric_bike"}, {"bike_id": "87b588b3de2873dac1ae6955500ee09c", "is_reserved": 0, "fusion_lon": 0.0, "lat": 38.93335533333333, "is_disabled": 0, "name": "87b588b3de2873dac1ae6955500ee09c", "fusion_lat": 0.0, "rental_uris": {"ios": "https://dc.lft.to/lastmile_qr_scan", "android": "https://dc.lft.to/lastmile_qr_scan"}, "lon": -77.0420215, "type": "electric_bike"}, {"bike_id": "51aa025946574aac3817a47b2f2942ff", "is_reserved": 0, "fusion_lon": 0.0, "lat": 38.92576016666667, "is_disabled": 0, "name": "51aa025946574aac3817a47b2f2942ff", "fusion_lat": 0.0, "rental_uris": {"ios": "https://dc.lft.to/lastmile_qr_scan", "android": "https://dc.lft.to/lastmile_qr_scan"}, "lon": -77.03793716666667, "type": "electric_scooter"}, {"bike_id": "293367f2b6b015def35185016591d7c3", "is_reserved": 0, "fusion_lon": 0.0, "lat": 38.9186005, "is_disabled": 0, "name": "293367f2b6b015def35185016591d7c3", "fusion_lat": 0.0, "rental_uris": {"ios": "https://dc.lft.to/lastmile_qr_scan", "android": "https://dc.lft.to/lastmile_qr_scan"}, "lon": -76.96092216666666, "type": "electric_bike"}, {"bike_id": "af0a41327100f9f1b222a3899e483f22", "is_reserved": 0, "fusion_lon": 0.0, "lat": 38.936750833333335, "is_disabled": 0, "name": "af0a41327100f9f1b222a3899e483f22", "fusion_lat": 0.0, "rental_uris": {"ios": "https://dc.lft.to/lastmile_qr_scan", "android": "https://dc.lft.to/lastmile_qr_scan"}, "lon": -77.035911, "type": "electric_scooter"}, {"bike_id": "745232f575e1ce1ccd343ab9a62baa91", "is_reserved": 0, "fusion_lon": 0.0, "lat": 38.903372166666664, "is_disabled": 0, "name": "745232f575e1ce1ccd343ab9a62baa91", "fusion_lat": 0.0, "rental_uris": {"ios": "https://dc.lft.to/lastmile_qr_scan", "android": "https://dc.lft.to/lastmile_qr_scan"}, "lon": -77.06589533333333, "type": "electric_scooter"}, {"bike_id": "52fc5d1d6ce0ba611831c21b797715b6", "is_reserved": 0, "fusion_lon": 0.0, "lat": 38.898338333333335, "is_disabled": 0, "name": "52fc5d1d6ce0ba611831c21b797715b6", "fusion_lat": 0.0, "rental_uris": {"ios": "https://dc.lft.to/lastmile_qr_scan", "android": "https://dc.lft.to/lastmile_qr_scan"}, "lon": -77.00751466666667, "type": "electric_scooter"}, {"bike_id": "eed4e2124427ba939206c2dbb1bd626d", "is_reserved": 0, "fusion_lon": 0.0, "lat": 38.91382183333333, "is_disabled": 0, "name": "eed4e2124427ba939206c2dbb1bd626d", "fusion_lat": 0.0, "rental_uris": {"ios": "https://dc.lft.to/lastmile_qr_scan", "android": "https://dc.lft.to/lastmile_qr_scan"}, "lon": -77.017942, "type": "electric_scooter"}, {"bike_id": "56a759bfbed8064ee677486e952c0722", "is_reserved": 0, "fusion_lon": 0.0, "lat": 38.91402633333333, "is_disabled": 0, "name": "56a759bfbed8064ee677486e952c0722", "fusion_lat": 0.0, "rental_uris": {"ios": "https://dc.lft.to/lastmile_qr_scan", "android": "https://dc.lft.to/lastmile_qr_scan"}, "lon": -77.04141466666667, "type": "electric_scooter"}, {"bike_id": "62eb51b3ee9c29afea20ce374a2e4477", "is_reserved": 0, "fusion_lon": 0.0, "lat": 38.908686833333334, "is_disabled": 0, "name": "62eb51b3ee9c29afea20ce374a2e4477", "fusion_lat": 0.0, "rental_uris": {"ios": "https://dc.lft.to/lastmile_qr_scan", "android": "https://dc.lft.to/lastmile_qr_scan"}, "lon": -77.00632866666666, "type": "electric_scooter"}, {"bike_id": "619b1c6ff3d63e3a5bde0111e1263cbe", "is_reserved": 0, "fusion_lon": 0.0, "lat": 38.918063833333335, "is_disabled": 0, "name": "619b1c6ff3d63e3a5bde0111e1263cbe", "fusion_lat": 0.0, "rental_uris": {"ios": "https://dc.lft.to/lastmile_qr_scan", "android": "https://dc.lft.to/lastmile_qr_scan"}, "lon": -77.0343505, "type": "electric_scooter"}, {"bike_id": "2b76d54234981ea20fda58716ef34779", "is_reserved": 0, "fusion_lon": 0.0, "lat": 38.9177255, "is_disabled": 0, "name": "2b76d54234981ea20fda58716ef34779", "fusion_lat": 0.0, "rental_uris": {"ios": "https://dc.lft.to/lastmile_qr_scan", "android": "https://dc.lft.to/lastmile_qr_scan"}, "lon": -77.040558, "type": "electric_scooter"}, {"bike_id": "87f169eb199733c1a8a1c5938c378e44", "is_reserved": 0, "fusion_lon": 0.0, "lat": 38.842917666666665, "is_disabled": 0, "name": "87f169eb199733c1a8a1c5938c378e44", "fusion_lat": 0.0, "rental_uris": {"ios": "https://dc.lft.to/lastmile_qr_scan", "android": "https://dc.lft.to/lastmile_qr_scan"}, "lon": -76.99947883333333, "type": "electric_scooter"}, {"bike_id": "7b1cabddc036bb76fb603cd290fec413", "is_reserved": 0, "fusion_lon": 0.0, "lat": 38.92407216666667, "is_disabled": 0, "name": "7b1cabddc036bb76fb603cd290fec413", "fusion_lat": 0.0, "rental_uris": {"ios": "https://dc.lft.to/lastmile_qr_scan", "android": "https://dc.lft.to/lastmile_qr_scan"}, "lon": -76.99728666666667, "type": "electric_bike"}, {"bike_id": "544821a96260a5eb6f08df0eb1f7dd4c", "is_reserved": 0, "fusion_lon": 0.0, "lat": 38.91873666666667, "is_disabled": 0, "name": "544821a96260a5eb6f08df0eb1f7dd4c", "fusion_lat": 0.0, "rental_uris": {"ios": "https://dc.lft.to/lastmile_qr_scan", "android": "https://dc.lft.to/lastmile_qr_scan"}, "lon": -77.0445995, "type": "electric_scooter"}, {"bike_id": "0d728875cdb356af9054a925f1342e62", "is_reserved": 0, "fusion_lon": 0.0, "lat": 38.90519916666667, "is_disabled": 0, "name": "0d728875cdb356af9054a925f1342e62", "fusion_lat": 0.0, "rental_uris": {"ios": "https://dc.lft.to/lastmile_qr_scan", "android": "https://dc.lft.to/lastmile_qr_scan"}, "lon": -77.06529033333334, "type": "electric_scooter"}, {"bike_id": "32c0cf1f913fbbce4daf75cdeec096bd", "is_reserved": 0, "fusion_lon": 0.0, "lat": 38.898240666666666, "is_disabled": 0, "name": "32c0cf1f913fbbce4daf75cdeec096bd", "fusion_lat": 0.0, "rental_uris": {"ios": "https://dc.lft.to/lastmile_qr_scan", "android": "https://dc.lft.to/lastmile_qr_scan"}, "lon": -76.980303, "type": "electric_scooter"}, {"bike_id": "9febfc36226cb342a283cb476ef783c7", "is_reserved": 0, "fusion_lon": 0.0, "lat": 38.895628, "is_disabled": 0, "name": "9febfc36226cb342a283cb476ef783c7", "fusion_lat": 0.0, "rental_uris": {"ios": "https://dc.lft.to/lastmile_qr_scan", "android": "https://dc.lft.to/lastmile_qr_scan"}, "lon": -77.02554366666666, "type": "electric_scooter"}, {"bike_id": "bdda5fd36d9fa2e7eba0dc0619b29287", "is_reserved": 0, "fusion_lon": 0.0, "lat": 38.879967, "is_disabled": 0, "name": "bdda5fd36d9fa2e7eba0dc0619b29287", "fusion_lat": 0.0, "rental_uris": {"ios": "https://dc.lft.to/lastmile_qr_scan", "android": "https://dc.lft.to/lastmile_qr_scan"}, "lon": -76.98544016666666, "type": "electric_scooter"}, {"bike_id": "39371958cb389af437adca43de280b47", "is_reserved": 0, "fusion_lon": 0.0, "lat": 38.9083035, "is_disabled": 0, "name": "39371958cb389af437adca43de280b47", "fusion_lat": 0.0, "rental_uris": {"ios": "https://dc.lft.to/lastmile_qr_scan", "android": "https://dc.lft.to/lastmile_qr_scan"}, "lon": -76.9969685, "type": "electric_scooter"}, {"bike_id": "a2fcaa62db8ca2ffba390a982e07f09f", "is_reserved": 0, "fusion_lon": 0.0, "lat": 38.896958, "is_disabled": 0, "name": "a2fcaa62db8ca2ffba390a982e07f09f", "fusion_lat": 0.0, "rental_uris": {"ios": "https://dc.lft.to/lastmile_qr_scan", "android": "https://dc.lft.to/lastmile_qr_scan"}, "lon": -77.02693133333334, "type": "electric_scooter"}, {"bike_id": "4181b9f41932f37a83212805b95fc208", "is_reserved": 0, "fusion_lon": 0.0, "lat": 38.93343933333333, "is_disabled": 0, "name": "4181b9f41932f37a83212805b95fc208", "fusion_lat": 0.0, "rental_uris": {"ios": "https://dc.lft.to/lastmile_qr_scan", "android": "https://dc.lft.to/lastmile_qr_scan"}, "lon": -77.05708766666666, "type": "electric_scooter"}, {"bike_id": "42987303003df2ca04df94cdfac7e74e", "is_reserved": 0, "fusion_lon": 0.0, "lat": 38.94466466666667, "is_disabled": 0, "name": "42987303003df2ca04df94cdfac7e74e", "fusion_lat": 0.0, "rental_uris": {"ios": "https://dc.lft.to/lastmile_qr_scan", "android": "https://dc.lft.to/lastmile_qr_scan"}, "lon": -77.06280516666666, "type": "electric_scooter"}, {"bike_id": "70a9367302a3247157c0c3f0b5b6a6bf", "is_reserved": 0, "fusion_lon": 0.0, "lat": 39.03049216666667, "is_disabled": 0, "name": "70a9367302a3247157c0c3f0b5b6a6bf", "fusion_lat": 0.0, "rental_uris": {"ios": "https://dc.lft.to/lastmile_qr_scan", "android": "https://dc.lft.to/lastmile_qr_scan"}, "lon": -77.09483966666667, "type": "electric_bike"}, {"bike_id": "eb2036efa48eaa3ed40a2576eaa31535", "is_reserved": 0, "fusion_lon": 0.0, "lat": 38.891959666666665, "is_disabled": 0, "name": "eb2036efa48eaa3ed40a2576eaa31535", "fusion_lat": 0.0, "rental_uris": {"ios": "https://dc.lft.to/lastmile_qr_scan", "android": "https://dc.lft.to/lastmile_qr_scan"}, "lon": -77.01550516666667, "type": "electric_scooter"}, {"bike_id": "4e3a22edf117a6149568a96ef424f41d", "is_reserved": 0, "fusion_lon": 0.0, "lat": 38.90024566666666, "is_disabled": 0, "name": "4e3a22edf117a6149568a96ef424f41d", "fusion_lat": 0.0, "rental_uris": {"ios": "https://dc.lft.to/lastmile_qr_scan", "android": "https://dc.lft.to/lastmile_qr_scan"}, "lon": -76.99783333333333, "type": "electric_scooter"}, {"bike_id": "6818800651c27fc5746759b58990161c", "is_reserved": 0, "fusion_lon": 0.0, "lat": 38.9192565, "is_disabled": 0, "name": "6818800651c27fc5746759b58990161c", "fusion_lat": 0.0, "rental_uris": {"ios": "https://dc.lft.to/lastmile_qr_scan", "android": "https://dc.lft.to/lastmile_qr_scan"}, "lon": -77.00070433333333, "type": "electric_scooter"}, {"bike_id": "da976c166e75038e7e1aa0d4f03880be", "is_reserved": 0, "fusion_lon": 0.0, "lat": 38.90268533333333, "is_disabled": 0, "name": "da976c166e75038e7e1aa0d4f03880be", "fusion_lat": 0.0, "rental_uris": {"ios": "https://dc.lft.to/lastmile_qr_scan", "android": "https://dc.lft.to/lastmile_qr_scan"}, "lon": -77.0347075, "type": "electric_scooter"}, {"bike_id": "c0090d2cb48239c3eb6ded6bf68252f4", "is_reserved": 0, "fusion_lon": 0.0, "lat": 38.907607166666665, "is_disabled": 0, "name": "c0090d2cb48239c3eb6ded6bf68252f4", "fusion_lat": 0.0, "rental_uris": {"ios": "https://dc.lft.to/lastmile_qr_scan", "android": "https://dc.lft.to/lastmile_qr_scan"}, "lon": -77.03187183333333, "type": "electric_scooter"}, {"bike_id": "5bf052ffd6ddbd13c6bb1887e6405265", "is_reserved": 0, "fusion_lon": 0.0, "lat": 38.887031, "is_disabled": 0, "name": "5bf052ffd6ddbd13c6bb1887e6405265", "fusion_lat": 0.0, "rental_uris": {"ios": "https://dc.lft.to/lastmile_qr_scan", "android": "https://dc.lft.to/lastmile_qr_scan"}, "lon": -77.00149716666667, "type": "electric_scooter"}, {"bike_id": "a4c709fa154052d99c740f79450d2b9c", "is_reserved": 0, "fusion_lon": 0.0, "lat": 38.89877933333333, "is_disabled": 0, "name": "a4c709fa154052d99c740f79450d2b9c", "fusion_lat": 0.0, "rental_uris": {"ios": "https://dc.lft.to/lastmile_qr_scan", "android": "https://dc.lft.to/lastmile_qr_scan"}, "lon": -76.93160716666667, "type": "electric_scooter"}, {"bike_id": "475373bdb052b589683f8340b397e1f2", "is_reserved": 0, "fusion_lon": 0.0, "lat": 38.93426383333333, "is_disabled": 0, "name": "475373bdb052b589683f8340b397e1f2", "fusion_lat": 0.0, "rental_uris": {"ios": "https://dc.lft.to/lastmile_qr_scan", "android": "https://dc.lft.to/lastmile_qr_scan"}, "lon": -77.03442166666666, "type": "electric_scooter"}, {"bike_id": "b80eec60ad25d09b3081bcf796fcbc29", "is_reserved": 0, "fusion_lon": 0.0, "lat": 38.89954866666667, "is_disabled": 0, "name": "b80eec60ad25d09b3081bcf796fcbc29", "fusion_lat": 0.0, "rental_uris": {"ios": "https://dc.lft.to/lastmile_qr_scan", "android": "https://dc.lft.to/lastmile_qr_scan"}, "lon": -77.03348866666667, "type": "electric_scooter"}, {"bike_id": "ec1ca93c4ee921c9c4df327ea30b4698", "is_reserved": 0, "fusion_lon": 0.0, "lat": 38.89530583333333, "is_disabled": 0, "name": "ec1ca93c4ee921c9c4df327ea30b4698", "fusion_lat": 0.0, "rental_uris": {"ios": "https://dc.lft.to/lastmile_qr_scan", "android": "https://dc.lft.to/lastmile_qr_scan"}, "lon": -76.948901, "type": "electric_scooter"}, {"bike_id": "520c866ea719869006bc8fca3aaaf917", "is_reserved": 0, "fusion_lon": 0.0, "lat": 38.90666733333333, "is_disabled": 0, "name": "520c866ea719869006bc8fca3aaaf917", "fusion_lat": 0.0, "rental_uris": {"ios": "https://dc.lft.to/lastmile_qr_scan", "android": "https://dc.lft.to/lastmile_qr_scan"}, "lon": -77.02707733333334, "type": "electric_scooter"}, {"bike_id": "252d69c2c610108d153d792943b6e255", "is_reserved": 0, "fusion_lon": 0.0, "lat": 38.924996, "is_disabled": 0, "name": "252d69c2c610108d153d792943b6e255", "fusion_lat": 0.0, "rental_uris": {"ios": "https://dc.lft.to/lastmile_qr_scan", "android": "https://dc.lft.to/lastmile_qr_scan"}, "lon": -77.0088905, "type": "electric_scooter"}, {"bike_id": "220a028bed0f4ce103fcf62c30b65853", "is_reserved": 0, "fusion_lon": 0.0, "lat": 38.893623, "is_disabled": 0, "name": "220a028bed0f4ce103fcf62c30b65853", "fusion_lat": 0.0, "rental_uris": {"ios": "https://dc.lft.to/lastmile_qr_scan", "android": "https://dc.lft.to/lastmile_qr_scan"}, "lon": -76.9851485, "type": "electric_bike"}, {"bike_id": "e67a7065297dd010c4b3ec8506373d34", "is_reserved": 0, "fusion_lon": 0.0, "lat": 38.907781666666665, "is_disabled": 0, "name": "e67a7065297dd010c4b3ec8506373d34", "fusion_lat": 0.0, "rental_uris": {"ios": "https://dc.lft.to/lastmile_qr_scan", "android": "https://dc.lft.to/lastmile_qr_scan"}, "lon": -77.038286, "type": "electric_scooter"}, {"bike_id": "4f49d414c2e0aadda5595c3a09deab2b", "is_reserved": 0, "fusion_lon": 0.0, "lat": 38.95073816666667, "is_disabled": 0, "name": "4f49d414c2e0aadda5595c3a09deab2b", "fusion_lat": 0.0, "rental_uris": {"ios": "https://dc.lft.to/lastmile_qr_scan", "android": "https://dc.lft.to/lastmile_qr_scan"}, "lon": -77.01198483333333, "type": "electric_bike"}, {"bike_id": "1aab9f9bd340f40a8189e845660718b3", "is_reserved": 0, "fusion_lon": 0.0, "lat": 38.894878, "is_disabled": 0, "name": "1aab9f9bd340f40a8189e845660718b3", "fusion_lat": 0.0, "rental_uris": {"ios": "https://dc.lft.to/lastmile_qr_scan", "android": "https://dc.lft.to/lastmile_qr_scan"}, "lon": -77.02281866666667, "type": "electric_scooter"}, {"bike_id": "958105a6af0d6a5b96ffa5162d101c6a", "is_reserved": 0, "fusion_lon": 0.0, "lat": 38.9141485, "is_disabled": 0, "name": "958105a6af0d6a5b96ffa5162d101c6a", "fusion_lat": 0.0, "rental_uris": {"ios": "https://dc.lft.to/lastmile_qr_scan", "android": "https://dc.lft.to/lastmile_qr_scan"}, "lon": -77.0381175, "type": "electric_scooter"}, {"bike_id": "9655c396d57013f644d72d6d80e0559e", "is_reserved": 0, "fusion_lon": 0.0, "lat": 38.916743833333335, "is_disabled": 0, "name": "9655c396d57013f644d72d6d80e0559e", "fusion_lat": 0.0, "rental_uris": {"ios": "https://dc.lft.to/lastmile_qr_scan", "android": "https://dc.lft.to/lastmile_qr_scan"}, "lon": -77.02943616666667, "type": "electric_scooter"}, {"bike_id": "3ce3fbf7a7ac4e42d22f5384935f4b80", "is_reserved": 0, "fusion_lon": 0.0, "lat": 38.901462, "is_disabled": 0, "name": "3ce3fbf7a7ac4e42d22f5384935f4b80", "fusion_lat": 0.0, "rental_uris": {"ios": "https://dc.lft.to/lastmile_qr_scan", "android": "https://dc.lft.to/lastmile_qr_scan"}, "lon": -77.02835033333334, "type": "electric_scooter"}, {"bike_id": "ad1d15f445582a7d56d5445565d7f64b", "is_reserved": 0, "fusion_lon": 0.0, "lat": 38.93082183333333, "is_disabled": 0, "name": "ad1d15f445582a7d56d5445565d7f64b", "fusion_lat": 0.0, "rental_uris": {"ios": "https://dc.lft.to/lastmile_qr_scan", "android": "https://dc.lft.to/lastmile_qr_scan"}, "lon": -77.02797883333334, "type": "electric_scooter"}, {"bike_id": "a90a5449751af765fbc83344f8cfc4c5", "is_reserved": 0, "fusion_lon": 0.0, "lat": 38.902721166666666, "is_disabled": 0, "name": "a90a5449751af765fbc83344f8cfc4c5", "fusion_lat": 0.0, "rental_uris": {"ios": "https://dc.lft.to/lastmile_qr_scan", "android": "https://dc.lft.to/lastmile_qr_scan"}, "lon": -77.03927133333333, "type": "electric_scooter"}, {"bike_id": "0eb0b1d17a64703fd5770dcffbe81f8f", "is_reserved": 0, "fusion_lon": 0.0, "lat": 38.86657666666667, "is_disabled": 0, "name": "0eb0b1d17a64703fd5770dcffbe81f8f", "fusion_lat": 0.0, "rental_uris": {"ios": "https://dc.lft.to/lastmile_qr_scan", "android": "https://dc.lft.to/lastmile_qr_scan"}, "lon": -76.99013316666667, "type": "electric_scooter"}, {"bike_id": "e645f39e975f04bd0569ed2a81de8f61", "is_reserved": 0, "fusion_lon": 0.0, "lat": 38.90089066666667, "is_disabled": 0, "name": "e645f39e975f04bd0569ed2a81de8f61", "fusion_lat": 0.0, "rental_uris": {"ios": "https://dc.lft.to/lastmile_qr_scan", "android": "https://dc.lft.to/lastmile_qr_scan"}, "lon": -77.0505525, "type": "electric_scooter"}, {"bike_id": "4a0b8040013a623b0757240f6de49bec", "is_reserved": 0, "fusion_lon": 0.0, "lat": 38.9049425, "is_disabled": 0, "name": "4a0b8040013a623b0757240f6de49bec", "fusion_lat": 0.0, "rental_uris": {"ios": "https://dc.lft.to/lastmile_qr_scan", "android": "https://dc.lft.to/lastmile_qr_scan"}, "lon": -77.0573975, "type": "electric_scooter"}, {"bike_id": "f00b4ab3c50151f003f7c4b624a3224b", "is_reserved": 0, "fusion_lon": 0.0, "lat": 38.914252166666664, "is_disabled": 0, "name": "f00b4ab3c50151f003f7c4b624a3224b", "fusion_lat": 0.0, "rental_uris": {"ios": "https://dc.lft.to/lastmile_qr_scan", "android": "https://dc.lft.to/lastmile_qr_scan"}, "lon": -77.041598, "type": "electric_scooter"}, {"bike_id": "3e1553c471ba18bcdc85b2e5f6389ada", "is_reserved": 0, "fusion_lon": 0.0, "lat": 38.83985116666667, "is_disabled": 0, "name": "3e1553c471ba18bcdc85b2e5f6389ada", "fusion_lat": 0.0, "rental_uris": {"ios": "https://dc.lft.to/lastmile_qr_scan", "android": "https://dc.lft.to/lastmile_qr_scan"}, "lon": -77.00566733333334, "type": "electric_bike"}, {"bike_id": "19ccff8349a50a586f2ab1dffcdd2921", "is_reserved": 0, "fusion_lon": 0.0, "lat": 38.90047966666667, "is_disabled": 0, "name": "19ccff8349a50a586f2ab1dffcdd2921", "fusion_lat": 0.0, "rental_uris": {"ios": "https://dc.lft.to/lastmile_qr_scan", "android": "https://dc.lft.to/lastmile_qr_scan"}, "lon": -77.05153333333334, "type": "electric_scooter"}, {"bike_id": "2f7cc5d9852c43e1f3481ad2f17602d8", "is_reserved": 0, "fusion_lon": 0.0, "lat": 38.881318, "is_disabled": 0, "name": "2f7cc5d9852c43e1f3481ad2f17602d8", "fusion_lat": 0.0, "rental_uris": {"ios": "https://dc.lft.to/lastmile_qr_scan", "android": "https://dc.lft.to/lastmile_qr_scan"}, "lon": -76.980923, "type": "electric_bike"}, {"bike_id": "f09f196ea471d10b8cd9772f91c5a610", "is_reserved": 0, "fusion_lon": 0.0, "lat": 38.89824483333334, "is_disabled": 0, "name": "f09f196ea471d10b8cd9772f91c5a610", "fusion_lat": 0.0, "rental_uris": {"ios": "https://dc.lft.to/lastmile_qr_scan", "android": "https://dc.lft.to/lastmile_qr_scan"}, "lon": -76.94650016666667, "type": "electric_scooter"}, {"bike_id": "2ad910f3801a1601509f5cfabc78fb03", "is_reserved": 0, "fusion_lon": 0.0, "lat": 38.924117833333334, "is_disabled": 0, "name": "2ad910f3801a1601509f5cfabc78fb03", "fusion_lat": 0.0, "rental_uris": {"ios": "https://dc.lft.to/lastmile_qr_scan", "android": "https://dc.lft.to/lastmile_qr_scan"}, "lon": -77.04072566666666, "type": "electric_bike"}, {"bike_id": "b8b9710ca072578b6494e0f5e31a29ce", "is_reserved": 0, "fusion_lon": 0.0, "lat": 38.92992233333333, "is_disabled": 0, "name": "b8b9710ca072578b6494e0f5e31a29ce", "fusion_lat": 0.0, "rental_uris": {"ios": "https://dc.lft.to/lastmile_qr_scan", "android": "https://dc.lft.to/lastmile_qr_scan"}, "lon": -77.07942766666666, "type": "electric_scooter"}, {"bike_id": "b4e42309a8d62c07b0979e2a465e47b2", "is_reserved": 0, "fusion_lon": 0.0, "lat": 38.90512283333333, "is_disabled": 0, "name": "b4e42309a8d62c07b0979e2a465e47b2", "fusion_lat": 0.0, "rental_uris": {"ios": "https://dc.lft.to/lastmile_qr_scan", "android": "https://dc.lft.to/lastmile_qr_scan"}, "lon": -77.06039333333334, "type": "electric_bike"}, {"bike_id": "58b298478512b2fddb5fabc2e5efd7b5", "is_reserved": 0, "fusion_lon": 0.0, "lat": 38.916320666666664, "is_disabled": 0, "name": "58b298478512b2fddb5fabc2e5efd7b5", "fusion_lat": 0.0, "rental_uris": {"ios": "https://dc.lft.to/lastmile_qr_scan", "android": "https://dc.lft.to/lastmile_qr_scan"}, "lon": -77.04617066666667, "type": "electric_scooter"}, {"bike_id": "b965029919ac5ce1c999bce511abbad4", "is_reserved": 0, "fusion_lon": 0.0, "lat": 38.922082333333336, "is_disabled": 0, "name": "b965029919ac5ce1c999bce511abbad4", "fusion_lat": 0.0, "rental_uris": {"ios": "https://dc.lft.to/lastmile_qr_scan", "android": "https://dc.lft.to/lastmile_qr_scan"}, "lon": -77.03664133333334, "type": "electric_scooter"}, {"bike_id": "3b09f21bc1045e242981af69b03c18d7", "is_reserved": 0, "fusion_lon": 0.0, "lat": 38.93674683333333, "is_disabled": 0, "name": "3b09f21bc1045e242981af69b03c18d7", "fusion_lat": 0.0, "rental_uris": {"ios": "https://dc.lft.to/lastmile_qr_scan", "android": "https://dc.lft.to/lastmile_qr_scan"}, "lon": -77.03593483333333, "type": "electric_scooter"}, {"bike_id": "394be7f6a428238adaec2c8e9f6e0049", "is_reserved": 0, "fusion_lon": 0.0, "lat": 38.92653683333333, "is_disabled": 0, "name": "394be7f6a428238adaec2c8e9f6e0049", "fusion_lat": 0.0, "rental_uris": {"ios": "https://dc.lft.to/lastmile_qr_scan", "android": "https://dc.lft.to/lastmile_qr_scan"}, "lon": -77.03721966666667, "type": "electric_scooter"}, {"bike_id": "e9a5bcbf3730827f5db8e63401bf5a97", "is_reserved": 0, "fusion_lon": 0.0, "lat": 38.92157783333333, "is_disabled": 0, "name": "e9a5bcbf3730827f5db8e63401bf5a97", "fusion_lat": 0.0, "rental_uris": {"ios": "https://dc.lft.to/lastmile_qr_scan", "android": "https://dc.lft.to/lastmile_qr_scan"}, "lon": -77.018104, "type": "electric_scooter"}, {"bike_id": "52efe8dc11d07a62d3f2f030b2c50e7e", "is_reserved": 0, "fusion_lon": 0.0, "lat": 38.9248965, "is_disabled": 0, "name": "52efe8dc11d07a62d3f2f030b2c50e7e", "fusion_lat": 0.0, "rental_uris": {"ios": "https://dc.lft.to/lastmile_qr_scan", "android": "https://dc.lft.to/lastmile_qr_scan"}, "lon": -77.0271435, "type": "electric_scooter"}, {"bike_id": "5ef1e3abe469c95feefeac3087a86fc7", "is_reserved": 0, "fusion_lon": 0.0, "lat": 38.8713575, "is_disabled": 0, "name": "5ef1e3abe469c95feefeac3087a86fc7", "fusion_lat": 0.0, "rental_uris": {"ios": "https://dc.lft.to/lastmile_qr_scan", "android": "https://dc.lft.to/lastmile_qr_scan"}, "lon": -76.93729783333333, "type": "electric_bike"}, {"bike_id": "99dc14fbbb46be6334e9003b042f20c6", "is_reserved": 0, "fusion_lon": 0.0, "lat": 38.90114033333333, "is_disabled": 0, "name": "99dc14fbbb46be6334e9003b042f20c6", "fusion_lat": 0.0, "rental_uris": {"ios": "https://dc.lft.to/lastmile_qr_scan", "android": "https://dc.lft.to/lastmile_qr_scan"}, "lon": -77.04326683333333, "type": "electric_scooter"}, {"bike_id": "5c349023fcb7131196ba8120c1a2cbeb", "is_reserved": 0, "fusion_lon": 0.0, "lat": 38.921636166666666, "is_disabled": 0, "name": "5c349023fcb7131196ba8120c1a2cbeb", "fusion_lat": 0.0, "rental_uris": {"ios": "https://dc.lft.to/lastmile_qr_scan", "android": "https://dc.lft.to/lastmile_qr_scan"}, "lon": -76.9939435, "type": "electric_scooter"}, {"bike_id": "34cfb81bb5a1e91d0c4925b5b064cb74", "is_reserved": 0, "fusion_lon": 0.0, "lat": 38.8646005, "is_disabled": 0, "name": "34cfb81bb5a1e91d0c4925b5b064cb74", "fusion_lat": 0.0, "rental_uris": {"ios": "https://dc.lft.to/lastmile_qr_scan", "android": "https://dc.lft.to/lastmile_qr_scan"}, "lon": -76.94556016666667, "type": "electric_bike"}, {"bike_id": "63da73ee03946555e319a73d4982728d", "is_reserved": 0, "fusion_lon": 0.0, "lat": 38.89816733333333, "is_disabled": 0, "name": "63da73ee03946555e319a73d4982728d", "fusion_lat": 0.0, "rental_uris": {"ios": "https://dc.lft.to/lastmile_qr_scan", "android": "https://dc.lft.to/lastmile_qr_scan"}, "lon": -77.03293666666667, "type": "electric_scooter"}, {"bike_id": "945a2fc953e7028606623367b72dcb37", "is_reserved": 0, "fusion_lon": 0.0, "lat": 38.91977166666667, "is_disabled": 0, "name": "945a2fc953e7028606623367b72dcb37", "fusion_lat": 0.0, "rental_uris": {"ios": "https://dc.lft.to/lastmile_qr_scan", "android": "https://dc.lft.to/lastmile_qr_scan"}, "lon": -77.02393133333334, "type": "electric_scooter"}, {"bike_id": "441c0a0ac07c7dbbac6b07975e38fe6c", "is_reserved": 0, "fusion_lon": 0.0, "lat": 38.916144333333335, "is_disabled": 0, "name": "441c0a0ac07c7dbbac6b07975e38fe6c", "fusion_lat": 0.0, "rental_uris": {"ios": "https://dc.lft.to/lastmile_qr_scan", "android": "https://dc.lft.to/lastmile_qr_scan"}, "lon": -77.03636633333333, "type": "electric_scooter"}, {"bike_id": "cc7599d52cff115b59dbe84643d12075", "is_reserved": 0, "fusion_lon": 0.0, "lat": 38.966166, "is_disabled": 0, "name": "cc7599d52cff115b59dbe84643d12075", "fusion_lat": 0.0, "rental_uris": {"ios": "https://dc.lft.to/lastmile_qr_scan", "android": "https://dc.lft.to/lastmile_qr_scan"}, "lon": -77.03428883333333, "type": "electric_bike"}, {"bike_id": "da241198281c3ad838560f8211577358", "is_reserved": 0, "fusion_lon": 0.0, "lat": 38.874819333333335, "is_disabled": 0, "name": "da241198281c3ad838560f8211577358", "fusion_lat": 0.0, "rental_uris": {"ios": "https://dc.lft.to/lastmile_qr_scan", "android": "https://dc.lft.to/lastmile_qr_scan"}, "lon": -76.96523233333333, "type": "electric_bike"}, {"bike_id": "3a3de2135ff066b021d3b9a471de18ef", "is_reserved": 0, "fusion_lon": 0.0, "lat": 38.92847183333333, "is_disabled": 0, "name": "3a3de2135ff066b021d3b9a471de18ef", "fusion_lat": 0.0, "rental_uris": {"ios": "https://dc.lft.to/lastmile_qr_scan", "android": "https://dc.lft.to/lastmile_qr_scan"}, "lon": -77.02054433333333, "type": "electric_bike"}, {"bike_id": "f6e3b25028d138b87f592277b9bf29ec", "is_reserved": 0, "fusion_lon": 0.0, "lat": 38.909980166666664, "is_disabled": 0, "name": "f6e3b25028d138b87f592277b9bf29ec", "fusion_lat": 0.0, "rental_uris": {"ios": "https://dc.lft.to/lastmile_qr_scan", "android": "https://dc.lft.to/lastmile_qr_scan"}, "lon": -77.0209365, "type": "electric_scooter"}, {"bike_id": "0354b59afe44879abe48251044073236", "is_reserved": 0, "fusion_lon": 0.0, "lat": 38.91539683333333, "is_disabled": 0, "name": "0354b59afe44879abe48251044073236", "fusion_lat": 0.0, "rental_uris": {"ios": "https://dc.lft.to/lastmile_qr_scan", "android": "https://dc.lft.to/lastmile_qr_scan"}, "lon": -77.023436, "type": "electric_scooter"}, {"bike_id": "331ed23a64adc3398ee5435b5ced029e", "is_reserved": 0, "fusion_lon": 0.0, "lat": 38.9170395, "is_disabled": 0, "name": "331ed23a64adc3398ee5435b5ced029e", "fusion_lat": 0.0, "rental_uris": {"ios": "https://dc.lft.to/lastmile_qr_scan", "android": "https://dc.lft.to/lastmile_qr_scan"}, "lon": -77.02881933333333, "type": "electric_scooter"}, {"bike_id": "d250b66d1fa2a78bec458a3fe82eb8c3", "is_reserved": 0, "fusion_lon": 0.0, "lat": 38.9101415, "is_disabled": 0, "name": "d250b66d1fa2a78bec458a3fe82eb8c3", "fusion_lat": 0.0, "rental_uris": {"ios": "https://dc.lft.to/lastmile_qr_scan", "android": "https://dc.lft.to/lastmile_qr_scan"}, "lon": -77.034382, "type": "electric_scooter"}, {"bike_id": "bad27f68a0748d1e89ceaa37f43d385e", "is_reserved": 0, "fusion_lon": 0.0, "lat": 38.902023166666666, "is_disabled": 0, "name": "bad27f68a0748d1e89ceaa37f43d385e", "fusion_lat": 0.0, "rental_uris": {"ios": "https://dc.lft.to/lastmile_qr_scan", "android": "https://dc.lft.to/lastmile_qr_scan"}, "lon": -77.01981416666666, "type": "electric_scooter"}, {"bike_id": "17e6d581f3cbf10a2d8a1c6ed588edce", "is_reserved": 0, "fusion_lon": 0.0, "lat": 38.924429833333335, "is_disabled": 0, "name": "17e6d581f3cbf10a2d8a1c6ed588edce", "fusion_lat": 0.0, "rental_uris": {"ios": "https://dc.lft.to/lastmile_qr_scan", "android": "https://dc.lft.to/lastmile_qr_scan"}, "lon": -77.033823, "type": "electric_scooter"}, {"bike_id": "9e7b3113e6b51c9c1113ef0e9069df38", "is_reserved": 0, "fusion_lon": 0.0, "lat": 38.9279535, "is_disabled": 0, "name": "9e7b3113e6b51c9c1113ef0e9069df38", "fusion_lat": 0.0, "rental_uris": {"ios": "https://dc.lft.to/lastmile_qr_scan", "android": "https://dc.lft.to/lastmile_qr_scan"}, "lon": -77.02598216666667, "type": "electric_scooter"}, {"bike_id": "fae026e86b98c21a8acc7b55bd8cab17", "is_reserved": 0, "fusion_lon": 0.0, "lat": 38.897338500000004, "is_disabled": 0, "name": "fae026e86b98c21a8acc7b55bd8cab17", "fusion_lat": 0.0, "rental_uris": {"ios": "https://dc.lft.to/lastmile_qr_scan", "android": "https://dc.lft.to/lastmile_qr_scan"}, "lon": -76.947189, "type": "electric_scooter"}, {"bike_id": "f3f76d24051c3182c3434a702125a79f", "is_reserved": 0, "fusion_lon": 0.0, "lat": 38.89959483333333, "is_disabled": 0, "name": "f3f76d24051c3182c3434a702125a79f", "fusion_lat": 0.0, "rental_uris": {"ios": "https://dc.lft.to/lastmile_qr_scan", "android": "https://dc.lft.to/lastmile_qr_scan"}, "lon": -77.01610533333333, "type": "electric_scooter"}, {"bike_id": "7571214661ec630a0256f79f1770d26c", "is_reserved": 0, "fusion_lon": 0.0, "lat": 38.936631, "is_disabled": 0, "name": "7571214661ec630a0256f79f1770d26c", "fusion_lat": 0.0, "rental_uris": {"ios": "https://dc.lft.to/lastmile_qr_scan", "android": "https://dc.lft.to/lastmile_qr_scan"}, "lon": -77.05925266666667, "type": "electric_scooter"}, {"bike_id": "815389fee3a0bb4c0c6127182c675cb4", "is_reserved": 0, "fusion_lon": 0.0, "lat": 38.895484, "is_disabled": 0, "name": "815389fee3a0bb4c0c6127182c675cb4", "fusion_lat": 0.0, "rental_uris": {"ios": "https://dc.lft.to/lastmile_qr_scan", "android": "https://dc.lft.to/lastmile_qr_scan"}, "lon": -76.95023616666667, "type": "electric_scooter"}, {"bike_id": "c41ec9f3d88925525c70429e87140b62", "is_reserved": 0, "fusion_lon": 0.0, "lat": 38.859629, "is_disabled": 0, "name": "c41ec9f3d88925525c70429e87140b62", "fusion_lat": 0.0, "rental_uris": {"ios": "https://dc.lft.to/lastmile_qr_scan", "android": "https://dc.lft.to/lastmile_qr_scan"}, "lon": -76.99109433333334, "type": "electric_scooter"}, {"bike_id": "1396fd2aa6bf385b7e8b6dc3adb9ce20", "is_reserved": 0, "fusion_lon": 0.0, "lat": 38.903558, "is_disabled": 0, "name": "1396fd2aa6bf385b7e8b6dc3adb9ce20", "fusion_lat": 0.0, "rental_uris": {"ios": "https://dc.lft.to/lastmile_qr_scan", "android": "https://dc.lft.to/lastmile_qr_scan"}, "lon": -77.0452395, "type": "electric_scooter"}, {"bike_id": "ec60bd1f1ec984a77731feef6e253e59", "is_reserved": 0, "fusion_lon": 0.0, "lat": 38.90823266666666, "is_disabled": 0, "name": "ec60bd1f1ec984a77731feef6e253e59", "fusion_lat": 0.0, "rental_uris": {"ios": "https://dc.lft.to/lastmile_qr_scan", "android": "https://dc.lft.to/lastmile_qr_scan"}, "lon": -77.03424533333333, "type": "electric_scooter"}, {"bike_id": "de282a7a8d7323563bd789d883aeab62", "is_reserved": 0, "fusion_lon": 0.0, "lat": 38.894269666666666, "is_disabled": 0, "name": "de282a7a8d7323563bd789d883aeab62", "fusion_lat": 0.0, "rental_uris": {"ios": "https://dc.lft.to/lastmile_qr_scan", "android": "https://dc.lft.to/lastmile_qr_scan"}, "lon": -77.025925, "type": "electric_scooter"}, {"bike_id": "b9fdd80ac4307e3056f1ee5e97477ff7", "is_reserved": 0, "fusion_lon": 0.0, "lat": 38.92174583333333, "is_disabled": 0, "name": "b9fdd80ac4307e3056f1ee5e97477ff7", "fusion_lat": 0.0, "rental_uris": {"ios": "https://dc.lft.to/lastmile_qr_scan", "android": "https://dc.lft.to/lastmile_qr_scan"}, "lon": -77.025317, "type": "electric_scooter"}, {"bike_id": "07c304c61d04e2bce0bd8b62e77dea8f", "is_reserved": 0, "fusion_lon": 0.0, "lat": 38.928569333333336, "is_disabled": 0, "name": "07c304c61d04e2bce0bd8b62e77dea8f", "fusion_lat": 0.0, "rental_uris": {"ios": "https://dc.lft.to/lastmile_qr_scan", "android": "https://dc.lft.to/lastmile_qr_scan"}, "lon": -76.98939016666667, "type": "electric_bike"}, {"bike_id": "3590a65c4a7e58c6d0e7f015447b6124", "is_reserved": 0, "fusion_lon": 0.0, "lat": 38.92604766666667, "is_disabled": 0, "name": "3590a65c4a7e58c6d0e7f015447b6124", "fusion_lat": 0.0, "rental_uris": {"ios": "https://dc.lft.to/lastmile_qr_scan", "android": "https://dc.lft.to/lastmile_qr_scan"}, "lon": -77.02154816666666, "type": "electric_scooter"}, {"bike_id": "7b756a84b03912f2eb3a62b50624688a", "is_reserved": 0, "fusion_lon": 0.0, "lat": 38.90725033333333, "is_disabled": 0, "name": "7b756a84b03912f2eb3a62b50624688a", "fusion_lat": 0.0, "rental_uris": {"ios": "https://dc.lft.to/lastmile_qr_scan", "android": "https://dc.lft.to/lastmile_qr_scan"}, "lon": -77.04348533333334, "type": "electric_scooter"}, {"bike_id": "a7d576520be5441e526727277fbe0493", "is_reserved": 0, "fusion_lon": 0.0, "lat": 38.907711166666665, "is_disabled": 0, "name": "a7d576520be5441e526727277fbe0493", "fusion_lat": 0.0, "rental_uris": {"ios": "https://dc.lft.to/lastmile_qr_scan", "android": "https://dc.lft.to/lastmile_qr_scan"}, "lon": -77.04251633333334, "type": "electric_scooter"}, {"bike_id": "b54bf494b2d2b3c4a2c931fa27c1e2e5", "is_reserved": 0, "fusion_lon": 0.0, "lat": 38.9398685, "is_disabled": 0, "name": "b54bf494b2d2b3c4a2c931fa27c1e2e5", "fusion_lat": 0.0, "rental_uris": {"ios": "https://dc.lft.to/lastmile_qr_scan", "android": "https://dc.lft.to/lastmile_qr_scan"}, "lon": -77.02887, "type": "electric_scooter"}, {"bike_id": "41ff41417fafd91fef450879c48ddccd", "is_reserved": 0, "fusion_lon": 0.0, "lat": 38.918138666666664, "is_disabled": 0, "name": "41ff41417fafd91fef450879c48ddccd", "fusion_lat": 0.0, "rental_uris": {"ios": "https://dc.lft.to/lastmile_qr_scan", "android": "https://dc.lft.to/lastmile_qr_scan"}, "lon": -77.03305883333333, "type": "electric_scooter"}, {"bike_id": "18af4e0ddb91d1a5ad4df331c2f954c7", "is_reserved": 0, "fusion_lon": 0.0, "lat": 38.91335433333333, "is_disabled": 0, "name": "18af4e0ddb91d1a5ad4df331c2f954c7", "fusion_lat": 0.0, "rental_uris": {"ios": "https://dc.lft.to/lastmile_qr_scan", "android": "https://dc.lft.to/lastmile_qr_scan"}, "lon": -77.03257366666666, "type": "electric_scooter"}, {"bike_id": "be8c94d315dc700dbae600ef2c95731b", "is_reserved": 0, "fusion_lon": 0.0, "lat": 38.81306133333333, "is_disabled": 0, "name": "be8c94d315dc700dbae600ef2c95731b", "fusion_lat": 0.0, "rental_uris": {"ios": "https://dc.lft.to/lastmile_qr_scan", "android": "https://dc.lft.to/lastmile_qr_scan"}, "lon": -77.05094316666667, "type": "electric_bike"}, {"bike_id": "9471be1f99a9bbe55cca3b647fd7b27c", "is_reserved": 0, "fusion_lon": 0.0, "lat": 38.9127235, "is_disabled": 0, "name": "9471be1f99a9bbe55cca3b647fd7b27c", "fusion_lat": 0.0, "rental_uris": {"ios": "https://dc.lft.to/lastmile_qr_scan", "android": "https://dc.lft.to/lastmile_qr_scan"}, "lon": -77.02693766666667, "type": "electric_scooter"}, {"bike_id": "defd5864ce027dd92a04295155e6ae8e", "is_reserved": 0, "fusion_lon": 0.0, "lat": 38.8990365, "is_disabled": 0, "name": "defd5864ce027dd92a04295155e6ae8e", "fusion_lat": 0.0, "rental_uris": {"ios": "https://dc.lft.to/lastmile_qr_scan", "android": "https://dc.lft.to/lastmile_qr_scan"}, "lon": -77.03962083333333, "type": "electric_scooter"}, {"bike_id": "5887ca0da78945aa29ea1f3715c3e121", "is_reserved": 0, "fusion_lon": 0.0, "lat": 38.91563883333333, "is_disabled": 0, "name": "5887ca0da78945aa29ea1f3715c3e121", "fusion_lat": 0.0, "rental_uris": {"ios": "https://dc.lft.to/lastmile_qr_scan", "android": "https://dc.lft.to/lastmile_qr_scan"}, "lon": -77.04022616666667, "type": "electric_scooter"}, {"bike_id": "c67117a1f7efdcf145f237571701a6cc", "is_reserved": 0, "fusion_lon": 0.0, "lat": 38.90963516666667, "is_disabled": 0, "name": "c67117a1f7efdcf145f237571701a6cc", "fusion_lat": 0.0, "rental_uris": {"ios": "https://dc.lft.to/lastmile_qr_scan", "android": "https://dc.lft.to/lastmile_qr_scan"}, "lon": -77.03681483333334, "type": "electric_scooter"}, {"bike_id": "d35c95e53520d3960b6ed6521e10887f", "is_reserved": 0, "fusion_lon": 0.0, "lat": 38.91553316666667, "is_disabled": 0, "name": "d35c95e53520d3960b6ed6521e10887f", "fusion_lat": 0.0, "rental_uris": {"ios": "https://dc.lft.to/lastmile_qr_scan", "android": "https://dc.lft.to/lastmile_qr_scan"}, "lon": -77.03862733333334, "type": "electric_scooter"}, {"bike_id": "5352cbd206ee3db47b64aa1091deae33", "is_reserved": 0, "fusion_lon": 0.0, "lat": 38.923551833333335, "is_disabled": 0, "name": "5352cbd206ee3db47b64aa1091deae33", "fusion_lat": 0.0, "rental_uris": {"ios": "https://dc.lft.to/lastmile_qr_scan", "android": "https://dc.lft.to/lastmile_qr_scan"}, "lon": -77.0522195, "type": "electric_scooter"}, {"bike_id": "6e5e475610cae9c661ab3f0ef8dabd22", "is_reserved": 0, "fusion_lon": 0.0, "lat": 38.9240895, "is_disabled": 0, "name": "6e5e475610cae9c661ab3f0ef8dabd22", "fusion_lat": 0.0, "rental_uris": {"ios": "https://dc.lft.to/lastmile_qr_scan", "android": "https://dc.lft.to/lastmile_qr_scan"}, "lon": -77.052542, "type": "electric_scooter"}, {"bike_id": "cf578e57c09999b46eadb81030bd351d", "is_reserved": 0, "fusion_lon": 0.0, "lat": 38.89529916666667, "is_disabled": 0, "name": "cf578e57c09999b46eadb81030bd351d", "fusion_lat": 0.0, "rental_uris": {"ios": "https://dc.lft.to/lastmile_qr_scan", "android": "https://dc.lft.to/lastmile_qr_scan"}, "lon": -76.9488975, "type": "electric_scooter"}, {"bike_id": "3d22ae244f50a83e3cbbe0217f39ecdb", "is_reserved": 0, "fusion_lon": 0.0, "lat": 38.948292333333335, "is_disabled": 0, "name": "3d22ae244f50a83e3cbbe0217f39ecdb", "fusion_lat": 0.0, "rental_uris": {"ios": "https://dc.lft.to/lastmile_qr_scan", "android": "https://dc.lft.to/lastmile_qr_scan"}, "lon": -77.02417833333334, "type": "electric_scooter"}, {"bike_id": "2936115d312b1523ef9bf9fc4df6d4a1", "is_reserved": 0, "fusion_lon": 0.0, "lat": 38.92565283333333, "is_disabled": 0, "name": "2936115d312b1523ef9bf9fc4df6d4a1", "fusion_lat": 0.0, "rental_uris": {"ios": "https://dc.lft.to/lastmile_qr_scan", "android": "https://dc.lft.to/lastmile_qr_scan"}, "lon": -77.04050666666667, "type": "electric_scooter"}, {"bike_id": "3b348ebd6edae221d6dd265e7aa50220", "is_reserved": 0, "fusion_lon": 0.0, "lat": 38.92851116666667, "is_disabled": 0, "name": "3b348ebd6edae221d6dd265e7aa50220", "fusion_lat": 0.0, "rental_uris": {"ios": "https://dc.lft.to/lastmile_qr_scan", "android": "https://dc.lft.to/lastmile_qr_scan"}, "lon": -77.10674933333334, "type": "electric_bike"}, {"bike_id": "b1e0a6e3a479ffef46a43db8d38da2a7", "is_reserved": 0, "fusion_lon": 0.0, "lat": 38.898778, "is_disabled": 0, "name": "b1e0a6e3a479ffef46a43db8d38da2a7", "fusion_lat": 0.0, "rental_uris": {"ios": "https://dc.lft.to/lastmile_qr_scan", "android": "https://dc.lft.to/lastmile_qr_scan"}, "lon": -76.93159383333334, "type": "electric_scooter"}, {"bike_id": "671aef43ac4a07eb3d77482b018d3a1e", "is_reserved": 0, "fusion_lon": 0.0, "lat": 38.88349566666667, "is_disabled": 0, "name": "671aef43ac4a07eb3d77482b018d3a1e", "fusion_lat": 0.0, "rental_uris": {"ios": "https://dc.lft.to/lastmile_qr_scan", "android": "https://dc.lft.to/lastmile_qr_scan"}, "lon": -77.0247205, "type": "electric_scooter"}, {"bike_id": "08278bd69fa3995a3bd6f0ba1d505685", "is_reserved": 0, "fusion_lon": 0.0, "lat": 38.90727733333333, "is_disabled": 0, "name": "08278bd69fa3995a3bd6f0ba1d505685", "fusion_lat": 0.0, "rental_uris": {"ios": "https://dc.lft.to/lastmile_qr_scan", "android": "https://dc.lft.to/lastmile_qr_scan"}, "lon": -77.03212533333334, "type": "electric_scooter"}, {"bike_id": "1eef19ea3be70bb833a507e02127f487", "is_reserved": 0, "fusion_lon": 0.0, "lat": 38.88312533333333, "is_disabled": 0, "name": "1eef19ea3be70bb833a507e02127f487", "fusion_lat": 0.0, "rental_uris": {"ios": "https://dc.lft.to/lastmile_qr_scan", "android": "https://dc.lft.to/lastmile_qr_scan"}, "lon": -77.005993, "type": "electric_scooter"}, {"bike_id": "e84ddc3e4e5aa7f75cdd870eaa123fb5", "is_reserved": 0, "fusion_lon": 0.0, "lat": 38.910947, "is_disabled": 0, "name": "e84ddc3e4e5aa7f75cdd870eaa123fb5", "fusion_lat": 0.0, "rental_uris": {"ios": "https://dc.lft.to/lastmile_qr_scan", "android": "https://dc.lft.to/lastmile_qr_scan"}, "lon": -77.03852716666667, "type": "electric_scooter"}, {"bike_id": "d1a668aabce855f3b294a4c1163cc5a9", "is_reserved": 0, "fusion_lon": 0.0, "lat": 38.93253833333333, "is_disabled": 0, "name": "d1a668aabce855f3b294a4c1163cc5a9", "fusion_lat": 0.0, "rental_uris": {"ios": "https://dc.lft.to/lastmile_qr_scan", "android": "https://dc.lft.to/lastmile_qr_scan"}, "lon": -77.03284216666667, "type": "electric_scooter"},