{"data": {"bikes": [{"bike_id": "6816a675239752b1644611a84dec772c", "type": "electric_scooter", "is_disabled": 0, "lat": 38.92404366666667, "rental_uris": {"ios": "https://dc.lft.to/lastmile_qr_scan", "android": "https://dc.lft.to/lastmile_qr_scan"}, "is_reserved": 0, "fusion_lon": 0.0, "fusion_lat": 0.0, "lon": -77.02982033333333, "name": "6816a675239752b1644611a84dec772c"}, {"bike_id": "d9facb4ae5bc990dfbd36ff66a3665e5", "type": "electric_scooter", "is_disabled": 0, "lat": 38.91592683333333, "rental_uris": {"ios": "https://dc.lft.to/lastmile_qr_scan", "android": "https://dc.lft.to/lastmile_qr_scan"}, "is_reserved": 0, "fusion_lon": 0.0, "fusion_lat": 0.0, "lon": -77.01217716666666, "name": "d9facb4ae5bc990dfbd36ff66a3665e5"}, {"bike_id": "9d54852b22e4dca308f7e97be8163c42", "type": "electric_scooter", "is_disabled": 0, "lat": 38.907673333333335, "rental_uris": {"ios": "https://dc.lft.to/lastmile_qr_scan", "android": "https://dc.lft.to/lastmile_qr_scan"}, "is_reserved": 0, "fusion_lon": 0.0, "fusion_lat": 0.0, "lon": -77.01217783333334, "name": "9d54852b22e4dca308f7e97be8163c42"}, {"bike_id": "14bae7ff71185c6c991c409a996006bb", "type": "electric_scooter", "is_disabled": 0, "lat": 38.932773166666664, "rental_uris": {"ios": "https://dc.lft.to/lastmile_qr_scan", "android": "https://dc.lft.to/lastmile_qr_scan"}, "is_reserved": 0, "fusion_lon": 0.0, "fusion_lat": 0.0, "lon": -77.0364585, "name": "14bae7ff71185c6c991c409a996006bb"}, {"bike_id": "e18d3ead398528059306d2d8b00405f6", "type": "electric_scooter", "is_disabled": 0, "lat": 38.9230305, "rental_uris": {"ios": "https://dc.lft.to/lastmile_qr_scan", "android": "https://dc.lft.to/lastmile_qr_scan"}, "is_reserved": 0, "fusion_lon": 0.0, "fusion_lat": 0.0, "lon": -77.04122233333334, "name": "e18d3ead398528059306d2d8b00405f6"}, {"bike_id": "c614c93c0d0f48736e3a17a096e3ecf3", "type": "electric_scooter", "is_disabled": 0, "lat": 38.91767183333333, "rental_uris": {"ios": "https://dc.lft.to/lastmile_qr_scan", "android": "https://dc.lft.to/lastmile_qr_scan"}, "is_reserved": 0, "fusion_lon": 0.0, "fusion_lat": 0.0, "lon": -77.00709766666667, "name": "c614c93c0d0f48736e3a17a096e3ecf3"}, {"bike_id": "4fcf216ed0f7903f80d69c7706d72fd5", "type": "electric_scooter", "is_disabled": 0, "lat": 38.91237, "rental_uris": {"ios": "https://dc.lft.to/lastmile_qr_scan", "android": "https://dc.lft.to/lastmile_qr_scan"}, "is_reserved": 0, "fusion_lon": 0.0, "fusion_lat": 0.0, "lon": -77.009158, "name": "4fcf216ed0f7903f80d69c7706d72fd5"}, {"bike_id": "0b10dd48896cdbdaee9fed0c86f4c894", "type": "electric_scooter", "is_disabled": 0, "lat": 38.91565333333333, "rental_uris": {"ios": "https://dc.lft.to/lastmile_qr_scan", "android": "https://dc.lft.to/lastmile_qr_scan"}, "is_reserved": 0, "fusion_lon": 0.0, "fusion_lat": 0.0, "lon": -77.0428495, "name": "0b10dd48896cdbdaee9fed0c86f4c894"}, {"bike_id": "a7a7422c0a9ce094235206b538f53b53", "type": "electric_scooter", "is_disabled": 0, "lat": 38.916529, "rental_uris": {"ios": "https://dc.lft.to/lastmile_qr_scan", "android": "https://dc.lft.to/lastmile_qr_scan"}, "is_reserved": 0, "fusion_lon": 0.0, "fusion_lat": 0.0, "lon": -77.02891583333333, "name": "a7a7422c0a9ce094235206b538f53b53"}, {"bike_id": "f0f4815ec76a3c5a7e76646dcfdcad31", "type": "electric_scooter", "is_disabled": 0, "lat": 38.92012366666667, "rental_uris": {"ios": "https://dc.lft.to/lastmile_qr_scan", "android": "https://dc.lft.to/lastmile_qr_scan"}, "is_reserved": 0, "fusion_lon": 0.0, "fusion_lat": 0.0, "lon": -77.041907, "name": "f0f4815ec76a3c5a7e76646dcfdcad31"}, {"bike_id": "3eca61e7ea75d5b300d11f1c2600490c", "type": "electric_bike", "is_disabled": 0, "lat": 38.88347266666667, "rental_uris": {"ios": "https://dc.lft.to/lastmile_qr_scan", "android": "https://dc.lft.to/lastmile_qr_scan"}, "is_reserved": 0, "fusion_lon": 0.0, "fusion_lat": 0.0, "lon": -76.9363255, "name": "3eca61e7ea75d5b300d11f1c2600490c"}, {"bike_id": "dd20c780c25c3532caf2cc57c957a2e9", "type": "electric_scooter", "is_disabled": 0, "lat": 38.905348833333335, "rental_uris": {"ios": "https://dc.lft.to/lastmile_qr_scan", "android": "https://dc.lft.to/lastmile_qr_scan"}, "is_reserved": 0, "fusion_lon": 0.0, "fusion_lat": 0.0, "lon": -77.00577983333334, "name": "dd20c780c25c3532caf2cc57c957a2e9"}, {"bike_id": "b0b9fb88d08297da26f0053cb08b2693", "type": "electric_scooter", "is_disabled": 0, "lat": 38.915766833333336, "rental_uris": {"ios": "https://dc.lft.to/lastmile_qr_scan", "android": "https://dc.lft.to/lastmile_qr_scan"}, "is_reserved": 0, "fusion_lon": 0.0, "fusion_lat": 0.0, "lon": -77.01229316666667, "name": "b0b9fb88d08297da26f0053cb08b2693"}, {"bike_id": "a8f2caebcb7fbe407e20d921beed6541", "type": "electric_scooter", "is_disabled": 0, "lat": 38.91864916666667, "rental_uris": {"ios": "https://dc.lft.to/lastmile_qr_scan", "android": "https://dc.lft.to/lastmile_qr_scan"}, "is_reserved": 0, "fusion_lon": 0.0, "fusion_lat": 0.0, "lon": -77.0415885, "name": "a8f2caebcb7fbe407e20d921beed6541"}, {"bike_id": "139de0e67879a2f6e73b860e17c54e7c", "type": "electric_scooter", "is_disabled": 0, "lat": 38.948984833333334, "rental_uris": {"ios": "https://dc.lft.to/lastmile_qr_scan", "android": "https://dc.lft.to/lastmile_qr_scan"}, "is_reserved": 0, "fusion_lon": 0.0, "fusion_lat": 0.0, "lon": -77.0064465, "name": "139de0e67879a2f6e73b860e17c54e7c"}, {"bike_id": "7018a8c7a08f41568046335faee9f0b4", "type": "electric_scooter", "is_disabled": 0, "lat": 38.93024483333333, "rental_uris": {"ios": "https://dc.lft.to/lastmile_qr_scan", "android": "https://dc.lft.to/lastmile_qr_scan"}, "is_reserved": 0, "fusion_lon": 0.0, "fusion_lat": 0.0, "lon": -77.03782133333333, "name": "7018a8c7a08f41568046335faee9f0b4"}, {"bike_id": "c9d1781ce347b807ceeca68080f5d3f3", "type": "electric_scooter", "is_disabled": 0, "lat": 38.916288333333334, "rental_uris": {"ios": "https://dc.lft.to/lastmile_qr_scan", "android": "https://dc.lft.to/lastmile_qr_scan"}, "is_reserved": 0, "fusion_lon": 0.0, "fusion_lat": 0.0, "lon": -77.03981683333333, "name": "c9d1781ce347b807ceeca68080f5d3f3"}, {"bike_id": "bab87f2dee9992f85adac65c9b1dee25", "type": "electric_scooter", "is_disabled": 0, "lat": 38.882679833333334, "rental_uris": {"ios": "https://dc.lft.to/lastmile_qr_scan", "android": "https://dc.lft.to/lastmile_qr_scan"}, "is_reserved": 0, "fusion_lon": 0.0, "fusion_lat": 0.0, "lon": -76.99255483333333, "name": "bab87f2dee9992f85adac65c9b1dee25"}, {"bike_id": "60c711e54fd0f4b3c621f4a3356279ce", "type": "electric_scooter", "is_disabled": 0, "lat": 38.9367915, "rental_uris": {"ios": "https://dc.lft.to/lastmile_qr_scan", "android": "https://dc.lft.to/lastmile_qr_scan"}, "is_reserved": 0, "fusion_lon": 0.0, "fusion_lat": 0.0, "lon": -77.03622566666667, "name": "60c711e54fd0f4b3c621f4a3356279ce"}, {"bike_id": "23da4a2a1fa4692fd0320d502e73e4aa", "type": "electric_scooter", "is_disabled": 0, "lat": 38.9068275, "rental_uris": {"ios": "https://dc.lft.to/lastmile_qr_scan", "android": "https://dc.lft.to/lastmile_qr_scan"}, "is_reserved": 0, "fusion_lon": 0.0, "fusion_lat": 0.0, "lon": -77.06342183333334, "name": "23da4a2a1fa4692fd0320d502e73e4aa"}, {"bike_id": "e91cc41a0d9cce0df7891f79b8389503", "type": "electric_scooter", "is_disabled": 0, "lat": 38.91915316666667, "rental_uris": {"ios": "https://dc.lft.to/lastmile_qr_scan", "android": "https://dc.lft.to/lastmile_qr_scan"}, "is_reserved": 0, "fusion_lon": 0.0, "fusion_lat": 0.0, "lon": -77.03422083333334, "name": "e91cc41a0d9cce0df7891f79b8389503"}, {"bike_id": "9aad2654eb6348581ea853b6b6f6f11f", "type": "electric_scooter", "is_disabled": 0, "lat": 38.90665683333334, "rental_uris": {"ios": "https://dc.lft.to/lastmile_qr_scan", "android": "https://dc.lft.to/lastmile_qr_scan"}, "is_reserved": 0, "fusion_lon": 0.0, "fusion_lat": 0.0, "lon": -77.04626233333333, "name": "9aad2654eb6348581ea853b6b6f6f11f"}, {"bike_id": "4029d49e963048db4f050c876cfc13c6", "type": "electric_scooter", "is_disabled": 0, "lat": 38.91667, "rental_uris": {"ios": "https://dc.lft.to/lastmile_qr_scan", "android": "https://dc.lft.to/lastmile_qr_scan"}, "is_reserved": 0, "fusion_lon": 0.0, "fusion_lat": 0.0, "lon": -77.022452, "name": "4029d49e963048db4f050c876cfc13c6"}, {"bike_id": "1a3ac05908ecf38c59300c74f18ad2a0", "type": "electric_scooter", "is_disabled": 0, "lat": 38.9142045, "rental_uris": {"ios": "https://dc.lft.to/lastmile_qr_scan", "android": "https://dc.lft.to/lastmile_qr_scan"}, "is_reserved": 0, "fusion_lon": 0.0, "fusion_lat": 0.0, "lon": -77.02286633333334, "name": "1a3ac05908ecf38c59300c74f18ad2a0"}, {"bike_id": "8b2bf34b5d0a1605259d926b2690b8ec", "type": "electric_scooter", "is_disabled": 0, "lat": 38.918170333333336, "rental_uris": {"ios": "https://dc.lft.to/lastmile_qr_scan", "android": "https://dc.lft.to/lastmile_qr_scan"}, "is_reserved": 0, "fusion_lon": 0.0, "fusion_lat": 0.0, "lon": -77.027176, "name": "8b2bf34b5d0a1605259d926b2690b8ec"}, {"bike_id": "d5b7bf2a777d2313b5c47104129332a0", "type": "electric_scooter", "is_disabled": 0, "lat": 38.90822283333333, "rental_uris": {"ios": "https://dc.lft.to/lastmile_qr_scan", "android": "https://dc.lft.to/lastmile_qr_scan"}, "is_reserved": 0, "fusion_lon": 0.0, "fusion_lat": 0.0, "lon": -77.02368966666667, "name": "d5b7bf2a777d2313b5c47104129332a0"}, {"bike_id": "80a8ea4af215d015198ee51f58daf807", "type": "electric_scooter", "is_disabled": 0, "lat": 38.92243766666667, "rental_uris": {"ios": "https://dc.lft.to/lastmile_qr_scan", "android": "https://dc.lft.to/lastmile_qr_scan"}, "is_reserved": 0, "fusion_lon": 0.0, "fusion_lat": 0.0, "lon": -77.07473016666667, "name": "80a8ea4af215d015198ee51f58daf807"}, {"bike_id": "63f41c103bacd29543212fe2471292ad", "type": "electric_scooter", "is_disabled": 0, "lat": 38.938750166666665, "rental_uris": {"ios": "https://dc.lft.to/lastmile_qr_scan", "android": "https://dc.lft.to/lastmile_qr_scan"}, "is_reserved": 0, "fusion_lon": 0.0, "fusion_lat": 0.0, "lon": -77.02446766666667, "name": "63f41c103bacd29543212fe2471292ad"}, {"bike_id": "c8ec61ec5166107f131b8f7925daaf21", "type": "electric_bike", "is_disabled": 0, "lat": 39.01477716666667, "rental_uris": {"ios": "https://dc.lft.to/lastmile_qr_scan", "android": "https://dc.lft.to/lastmile_qr_scan"}, "is_reserved": 0, "fusion_lon": 0.0, "fusion_lat": 0.0, "lon": -77.05494516666667, "name": "c8ec61ec5166107f131b8f7925daaf21"}, {"bike_id": "81f7b540425986dc77a9c0484ac69b43", "type": "electric_scooter", "is_disabled": 0, "lat": 38.9153285, "rental_uris": {"ios": "https://dc.lft.to/lastmile_qr_scan", "android": "https://dc.lft.to/lastmile_qr_scan"}, "is_reserved": 0, "fusion_lon": 0.0, "fusion_lat": 0.0, "lon": -77.018434, "name": "81f7b540425986dc77a9c0484ac69b43"}, {"bike_id": "768b50c6c2bef12e2f90828c67cf9a7d", "type": "electric_scooter", "is_disabled": 0, "lat": 38.9018975, "rental_uris": {"ios": "https://dc.lft.to/lastmile_qr_scan", "android": "https://dc.lft.to/lastmile_qr_scan"}, "is_reserved": 0, "fusion_lon": 0.0, "fusion_lat": 0.0, "lon": -77.01315533333333, "name": "768b50c6c2bef12e2f90828c67cf9a7d"}, {"bike_id": "3f0c3fde6927ca4178c9bd5e89be5f6d", "type": "electric_scooter", "is_disabled": 0, "lat": 38.928737, "rental_uris": {"ios": "https://dc.lft.to/lastmile_qr_scan", "android": "https://dc.lft.to/lastmile_qr_scan"}, "is_reserved": 0, "fusion_lon": 0.0, "fusion_lat": 0.0, "lon": -77.01231533333333, "name": "3f0c3fde6927ca4178c9bd5e89be5f6d"}, {"bike_id": "37e8adefd74f7d125fca770816f2dc26", "type": "electric_scooter", "is_disabled": 0, "lat": 38.93080916666667, "rental_uris": {"ios": "https://dc.lft.to/lastmile_qr_scan", "android": "https://dc.lft.to/lastmile_qr_scan"}, "is_reserved": 0, "fusion_lon": 0.0, "fusion_lat": 0.0, "lon": -77.02794066666667, "name": "37e8adefd74f7d125fca770816f2dc26"}, {"bike_id": "fb1221980610ba470564dfac21e5050d", "type": "electric_scooter", "is_disabled": 0, "lat": 38.90033566666666, "rental_uris": {"ios": "https://dc.lft.to/lastmile_qr_scan", "android": "https://dc.lft.to/lastmile_qr_scan"}, "is_reserved": 0, "fusion_lon": 0.0, "fusion_lat": 0.0, "lon": -77.01784066666667, "name": "fb1221980610ba470564dfac21e5050d"}, {"bike_id": "90458438b5dc4826a42fde37d9bd19d3", "type": "electric_scooter", "is_disabled": 0, "lat": 38.9107685, "rental_uris": {"ios": "https://dc.lft.to/lastmile_qr_scan", "android": "https://dc.lft.to/lastmile_qr_scan"}, "is_reserved": 0, "fusion_lon": 0.0, "fusion_lat": 0.0, "lon": -77.01506983333333, "name": "90458438b5dc4826a42fde37d9bd19d3"}, {"bike_id": "f5e60130b26afee579712c574f3f43b2", "type": "electric_scooter", "is_disabled": 0, "lat": 38.9078085, "rental_uris": {"ios": "https://dc.lft.to/lastmile_qr_scan", "android": "https://dc.lft.to/lastmile_qr_scan"}, "is_reserved": 0, "fusion_lon": 0.0, "fusion_lat": 0.0, "lon": -77.04510566666667, "name": "f5e60130b26afee579712c574f3f43b2"}, {"bike_id": "9f73f599cc2e7ba40da1fd95c53718ae", "type": "electric_scooter", "is_disabled": 0, "lat": 38.90573466666667, "rental_uris": {"ios": "https://dc.lft.to/lastmile_qr_scan", "android": "https://dc.lft.to/lastmile_qr_scan"}, "is_reserved": 0, "fusion_lon": 0.0, "fusion_lat": 0.0, "lon": -77.03042783333333, "name": "9f73f599cc2e7ba40da1fd95c53718ae"}, {"bike_id": "7e370a7bedc999713d869ea1f75a8b61", "type": "electric_scooter", "is_disabled": 0, "lat": 38.929708166666664, "rental_uris": {"ios": "https://dc.lft.to/lastmile_qr_scan", "android": "https://dc.lft.to/lastmile_qr_scan"}, "is_reserved": 0, "fusion_lon": 0.0, "fusion_lat": 0.0, "lon": -77.0168805, "name": "7e370a7bedc999713d869ea1f75a8b61"}, {"bike_id": "d49d33bbf9185983fd38035557c71038", "type": "electric_scooter", "is_disabled": 0, "lat": 38.90586233333333, "rental_uris": {"ios": "https://dc.lft.to/lastmile_qr_scan", "android": "https://dc.lft.to/lastmile_qr_scan"}, "is_reserved": 0, "fusion_lon": 0.0, "fusion_lat": 0.0, "lon": -77.04173566666667, "name": "d49d33bbf9185983fd38035557c71038"}, {"bike_id": "9796a58aa299f60376977efe2491e532", "type": "electric_scooter", "is_disabled": 0, "lat": 38.923248, "rental_uris": {"ios": "https://dc.lft.to/lastmile_qr_scan", "android": "https://dc.lft.to/lastmile_qr_scan"}, "is_reserved": 0, "fusion_lon": 0.0, "fusion_lat": 0.0, "lon": -77.035869, "name": "9796a58aa299f60376977efe2491e532"}, {"bike_id": "f24282b8eed6092d20cbfa97795afcca", "type": "electric_bike", "is_disabled": 0, "lat": 38.941163, "rental_uris": {"ios": "https://dc.lft.to/lastmile_qr_scan", "android": "https://dc.lft.to/lastmile_qr_scan"}, "is_reserved": 0, "fusion_lon": 0.0, "fusion_lat": 0.0, "lon": -77.06197933333333, "name": "f24282b8eed6092d20cbfa97795afcca"}, {"bike_id": "6fdf507e0f7152505c7c231b41e94e0c", "type": "electric_scooter", "is_disabled": 0, "lat": 38.90276683333333, "rental_uris": {"ios": "https://dc.lft.to/lastmile_qr_scan", "android": "https://dc.lft.to/lastmile_qr_scan"}, "is_reserved": 0, "fusion_lon": 0.0, "fusion_lat": 0.0, "lon": -77.03840366666667, "name": "6fdf507e0f7152505c7c231b41e94e0c"}, {"bike_id": "40e307458e472e4b79a962b5e165e79d", "type": "electric_scooter", "is_disabled": 0, "lat": 38.90026733333333, "rental_uris": {"ios": "https://dc.lft.to/lastmile_qr_scan", "android": "https://dc.lft.to/lastmile_qr_scan"}, "is_reserved": 0, "fusion_lon": 0.0, "fusion_lat": 0.0, "lon": -77.0351195, "name": "40e307458e472e4b79a962b5e165e79d"}, {"bike_id": "59d89e0b9224cfbc1527e27076914bd5", "type": "electric_scooter", "is_disabled": 0, "lat": 38.889904666666666, "rental_uris": {"ios": "https://dc.lft.to/lastmile_qr_scan", "android": "https://dc.lft.to/lastmile_qr_scan"}, "is_reserved": 0, "fusion_lon": 0.0, "fusion_lat": 0.0, "lon": -77.00040716666666, "name": "59d89e0b9224cfbc1527e27076914bd5"}, {"bike_id": "d642b98a2af60043b1cb7ef55c0e9c82", "type": "electric_scooter", "is_disabled": 0, "lat": 38.8741285, "rental_uris": {"ios": "https://dc.lft.to/lastmile_qr_scan", "android": "https://dc.lft.to/lastmile_qr_scan"}, "is_reserved": 0, "fusion_lon": 0.0, "fusion_lat": 0.0, "lon": -76.97114266666667, "name": "d642b98a2af60043b1cb7ef55c0e9c82"}, {"bike_id": "93e6fe632fc9083f71d28d2725c2ee7d", "type": "electric_scooter", "is_disabled": 0, "lat": 38.865024166666664, "rental_uris": {"ios": "https://dc.lft.to/lastmile_qr_scan", "android": "https://dc.lft.to/lastmile_qr_scan"}, "is_reserved": 0, "fusion_lon": 0.0, "fusion_lat": 0.0, "lon": -76.99003566666667, "name": "93e6fe632fc9083f71d28d2725c2ee7d"}, {"bike_id": "77cacacf0520e55dd9b75abd05b4ff5c", "type": "electric_scooter", "is_disabled": 0, "lat": 38.90824466666667, "rental_uris": {"ios": "https://dc.lft.to/lastmile_qr_scan", "android": "https://dc.lft.to/lastmile_qr_scan"}, "is_reserved": 0, "fusion_lon": 0.0, "fusion_lat": 0.0, "lon": -76.93444416666667, "name": "77cacacf0520e55dd9b75abd05b4ff5c"}, {"bike_id": "4a706fc68ce805389212e4b110d502e6", "type": "electric_bike", "is_disabled": 0, "lat": 38.85352116666667, "rental_uris": {"ios": "https://dc.lft.to/lastmile_qr_scan", "android": "https://dc.lft.to/lastmile_qr_scan"}, "is_reserved": 0, "fusion_lon": 0.0, "fusion_lat": 0.0, "lon": -77.086846, "name": "4a706fc68ce805389212e4b110d502e6"}, {"bike_id": "22e23bf3904194b4e3e64c2adc5a3905", "type": "electric_scooter", "is_disabled": 0, "lat": 38.920683, "rental_uris": {"ios": "https://dc.lft.to/lastmile_qr_scan", "android": "https://dc.lft.to/lastmile_qr_scan"}, "is_reserved": 0, "fusion_lon": 0.0, "fusion_lat": 0.0, "lon": -77.042114, "name": "22e23bf3904194b4e3e64c2adc5a3905"}, {"bike_id": "12cbf3ce30bbb487f36e5fbfc69c1ce1", "type": "electric_scooter", "is_disabled": 0, "lat": 38.919118833333336, "rental_uris": {"ios": "https://dc.lft.to/lastmile_qr_scan", "android": "https://dc.lft.to/lastmile_qr_scan"}, "is_reserved": 0, "fusion_lon": 0.0, "fusion_lat": 0.0, "lon": -77.03419683333334, "name": "12cbf3ce30bbb487f36e5fbfc69c1ce1"}, {"bike_id": "d6f069d13decede8435f6071340d9c88", "type": "electric_scooter", "is_disabled": 0, "lat": 38.9056105, "rental_uris": {"ios": "https://dc.lft.to/lastmile_qr_scan", "android": "https://dc.lft.to/lastmile_qr_scan"}, "is_reserved": 0, "fusion_lon": 0.0, "fusion_lat": 0.0, "lon": -77.04216066666666, "name": "d6f069d13decede8435f6071340d9c88"}, {"bike_id": "1dca498d79eea72bda204959d0d70d6a", "type": "electric_scooter", "is_disabled": 0, "lat": 38.92899216666667, "rental_uris": {"ios": "https://dc.lft.to/lastmile_qr_scan", "android": "https://dc.lft.to/lastmile_qr_scan"}, "is_reserved": 0, "fusion_lon": 0.0, "fusion_lat": 0.0, "lon": -77.05456316666667, "name": "1dca498d79eea72bda204959d0d70d6a"}, {"bike_id": "0ad3533b8a1fb206cb726d05bdcd253e", "type": "electric_bike", "is_disabled": 0, "lat": 38.93960166666667, "rental_uris": {"ios": "https://dc.lft.to/lastmile_qr_scan", "android": "https://dc.lft.to/lastmile_qr_scan"}, "is_reserved": 0, "fusion_lon": 0.0, "fusion_lat": 0.0, "lon": -76.99379566666667, "name": "0ad3533b8a1fb206cb726d05bdcd253e"}, {"bike_id": "3b8041940b53c2070e6a26c1ec0b27e9", "type": "electric_scooter", "is_disabled": 0, "lat": 38.917113666666665, "rental_uris": {"ios": "https://dc.lft.to/lastmile_qr_scan", "android": "https://dc.lft.to/lastmile_qr_scan"}, "is_reserved": 0, "fusion_lon": 0.0, "fusion_lat": 0.0, "lon": -77.02296883333334, "name": "3b8041940b53c2070e6a26c1ec0b27e9"}, {"bike_id": "d324ac1ad4912d97d39613b4a4840991", "type": "electric_scooter", "is_disabled": 0, "lat": 38.879179666666666, "rental_uris": {"ios": "https://dc.lft.to/lastmile_qr_scan", "android": "https://dc.lft.to/lastmile_qr_scan"}, "is_reserved": 0, "fusion_lon": 0.0, "fusion_lat": 0.0, "lon": -77.0087905, "name": "d324ac1ad4912d97d39613b4a4840991"}, {"bike_id": "26b00e43fa3d4d94d02829a130ec530c", "type": "electric_scooter", "is_disabled": 0, "lat": 38.916732333333336, "rental_uris": {"ios": "https://dc.lft.to/lastmile_qr_scan", "android": "https://dc.lft.to/lastmile_qr_scan"}, "is_reserved": 0, "fusion_lon": 0.0, "fusion_lat": 0.0, "lon": -77.02959416666667, "name": "26b00e43fa3d4d94d02829a130ec530c"}, {"bike_id": "638000c4bccb35f68c4c193107bca7cc", "type": "electric_scooter", "is_disabled": 0, "lat": 38.9139815, "rental_uris": {"ios": "https://dc.lft.to/lastmile_qr_scan", "android": "https://dc.lft.to/lastmile_qr_scan"}, "is_reserved": 0, "fusion_lon": 0.0, "fusion_lat": 0.0, "lon": -77.03461683333333, "name": "638000c4bccb35f68c4c193107bca7cc"}, {"bike_id": "3c524fc3b00affd328fff5d9ee73b0de", "type": "electric_scooter", "is_disabled": 0, "lat": 38.9183525, "rental_uris": {"ios": "https://dc.lft.to/lastmile_qr_scan", "android": "https://dc.lft.to/lastmile_qr_scan"}, "is_reserved": 0, "fusion_lon": 0.0, "fusion_lat": 0.0, "lon": -77.02306883333334, "name": "3c524fc3b00affd328fff5d9ee73b0de"}, {"bike_id": "c41a83daa1fc6754d903ff47a275afaa", "type": "electric_scooter", "is_disabled": 0, "lat": 38.90118866666667, "rental_uris": {"ios": "https://dc.lft.to/lastmile_qr_scan", "android": "https://dc.lft.to/lastmile_qr_scan"}, "is_reserved": 0, "fusion_lon": 0.0, "fusion_lat": 0.0, "lon": -76.92952816666667, "name": "c41a83daa1fc6754d903ff47a275afaa"}, {"bike_id": "1f918f2c13e96d204b2843f16e7005fc", "type": "electric_scooter", "is_disabled": 0, "lat": 38.931321833333335, "rental_uris": {"ios": "https://dc.lft.to/lastmile_qr_scan", "android": "https://dc.lft.to/lastmile_qr_scan"}, "is_reserved": 0, "fusion_lon": 0.0, "fusion_lat": 0.0, "lon": -77.02804016666667, "name": "1f918f2c13e96d204b2843f16e7005fc"}, {"bike_id": "f988ae66881639de5705c59a7075f819", "type": "electric_bike", "is_disabled": 0, "lat": 38.97391866666667, "rental_uris": {"ios": "https://dc.lft.to/lastmile_qr_scan", "android": "https://dc.lft.to/lastmile_qr_scan"}, "is_reserved": 0, "fusion_lon": 0.0, "fusion_lat": 0.0, "lon": -77.0644385, "name": "f988ae66881639de5705c59a7075f819"}, {"bike_id": "f4aea81e207faa85e7366f8c7e1044fc", "type": "electric_scooter", "is_disabled": 0, "lat": 38.873331, "rental_uris": {"ios": "https://dc.lft.to/lastmile_qr_scan", "android": "https://dc.lft.to/lastmile_qr_scan"}, "is_reserved": 0, "fusion_lon": 0.0, "fusion_lat": 0.0, "lon": -76.96784433333333, "name": "f4aea81e207faa85e7366f8c7e1044fc"}, {"bike_id": "e399e2ea9f189f639e89fc5fe4bb0833", "type": "electric_scooter", "is_disabled": 0, "lat": 38.916820666666666, "rental_uris": {"ios": "https://dc.lft.to/lastmile_qr_scan", "android": "https://dc.lft.to/lastmile_qr_scan"}, "is_reserved": 0, "fusion_lon": 0.0, "fusion_lat": 0.0, "lon": -77.0414225, "name": "e399e2ea9f189f639e89fc5fe4bb0833"}, {"bike_id": "e54ddcb267adba8bc181c43d040dd58e", "type": "electric_bike", "is_disabled": 0, "lat": 38.935604833333336, "rental_uris": {"ios": "https://dc.lft.to/lastmile_qr_scan", "android": "https://dc.lft.to/lastmile_qr_scan"}, "is_reserved": 0, "fusion_lon": 0.0, "fusion_lat": 0.0, "lon": -77.0214135, "name": "e54ddcb267adba8bc181c43d040dd58e"}, {"bike_id": "35b823f5f30c440617d54916b90fcfd3", "type": "electric_scooter", "is_disabled": 0, "lat": 38.92659866666666, "rental_uris": {"ios": "https://dc.lft.to/lastmile_qr_scan", "android": "https://dc.lft.to/lastmile_qr_scan"}, "is_reserved": 0, "fusion_lon": 0.0, "fusion_lat": 0.0, "lon": -77.03727583333334, "name": "35b823f5f30c440617d54916b90fcfd3"}, {"bike_id": "e8343394699f4f380b50d16f1f1c9d01", "type": "electric_scooter", "is_disabled": 0, "lat": 38.918229833333335, "rental_uris": {"ios": "https://dc.lft.to/lastmile_qr_scan", "android": "https://dc.lft.to/lastmile_qr_scan"}, "is_reserved": 0, "fusion_lon": 0.0, "fusion_lat": 0.0, "lon": -77.04945933333333, "name": "e8343394699f4f380b50d16f1f1c9d01"}, {"bike_id": "a4fe42fe10831ce69165f001844fabe3", "type": "electric_scooter", "is_disabled": 0, "lat": 38.860034, "rental_uris": {"ios": "https://dc.lft.to/lastmile_qr_scan", "android": "https://dc.lft.to/lastmile_qr_scan"}, "is_reserved": 0, "fusion_lon": 0.0, "fusion_lat": 0.0, "lon": -76.98518983333334, "name": "a4fe42fe10831ce69165f001844fabe3"}, {"bike_id": "071a865c407744f154dbb28372c0d4d8", "type": "electric_scooter", "is_disabled": 0, "lat": 38.922109666666664, "rental_uris": {"ios": "https://dc.lft.to/lastmile_qr_scan", "android": "https://dc.lft.to/lastmile_qr_scan"}, "is_reserved": 0, "fusion_lon": 0.0, "fusion_lat": 0.0, "lon": -77.03290383333334, "name": "071a865c407744f154dbb28372c0d4d8"}, {"bike_id": "06800d26f446e630d1d0bc09489d89e4", "type": "electric_scooter", "is_disabled": 0, "lat": 38.917049166666665, "rental_uris": {"ios": "https://dc.lft.to/lastmile_qr_scan", "android": "https://dc.lft.to/lastmile_qr_scan"}, "is_reserved": 0, "fusion_lon": 0.0, "fusion_lat": 0.0, "lon": -77.02457333333334, "name": "06800d26f446e630d1d0bc09489d89e4"}, {"bike_id": "48d2fb6be55cbed02b9e100a89f03ca6", "type": "electric_scooter", "is_disabled": 0, "lat": 38.9215055, "rental_uris": {"ios": "https://dc.lft.to/lastmile_qr_scan", "android": "https://dc.lft.to/lastmile_qr_scan"}, "is_reserved": 0, "fusion_lon": 0.0, "fusion_lat": 0.0, "lon": -77.03868233333333, "name": "48d2fb6be55cbed02b9e100a89f03ca6"}, {"bike_id": "ad99383ce04338f3ba278eef89c708af", "type": "electric_scooter", "is_disabled": 0, "lat": 38.92736683333333, "rental_uris": {"ios": "https://dc.lft.to/lastmile_qr_scan", "android": "https://dc.lft.to/lastmile_qr_scan"}, "is_reserved": 0, "fusion_lon": 0.0, "fusion_lat": 0.0, "lon": -77.02289833333333, "name": "ad99383ce04338f3ba278eef89c708af"}, {"bike_id": "03d014f38068833f2a76299fead49f7c", "type": "electric_scooter", "is_disabled": 0, "lat": 38.90937516666666, "rental_uris": {"ios": "https://dc.lft.to/lastmile_qr_scan", "android": "https://dc.lft.to/lastmile_qr_scan"}, "is_reserved": 0, "fusion_lon": 0.0, "fusion_lat": 0.0, "lon": -77.031997, "name": "03d014f38068833f2a76299fead49f7c"}, {"bike_id": "e8a9a9b4a5513e298446eccc4af4686b", "type": "electric_scooter", "is_disabled": 0, "lat": 38.905940333333334, "rental_uris": {"ios": "https://dc.lft.to/lastmile_qr_scan", "android": "https://dc.lft.to/lastmile_qr_scan"}, "is_reserved": 0, "fusion_lon": 0.0, "fusion_lat": 0.0, "lon": -77.070142, "name": "e8a9a9b4a5513e298446eccc4af4686b"}, {"bike_id": "1b31be27122c823063e4f91ddf979dd4", "type": "electric_scooter", "is_disabled": 0, "lat": 38.8922045, "rental_uris": {"ios": "https://dc.lft.to/lastmile_qr_scan", "android": "https://dc.lft.to/lastmile_qr_scan"}, "is_reserved": 0, "fusion_lon": 0.0, "fusion_lat": 0.0, "lon": -77.0258315, "name": "1b31be27122c823063e4f91ddf979dd4"}, {"bike_id": "1f58e43f935d9eeb8502059f36257e07", "type": "electric_scooter", "is_disabled": 0, "lat": 38.908601833333336, "rental_uris": {"ios": "https://dc.lft.to/lastmile_qr_scan", "android": "https://dc.lft.to/lastmile_qr_scan"}, "is_reserved": 0, "fusion_lon": 0.0, "fusion_lat": 0.0, "lon": -76.999777, "name": "1f58e43f935d9eeb8502059f36257e07"}, {"bike_id": "1c0979efdf33fad2529c341305e62596", "type": "electric_scooter", "is_disabled": 0, "lat": 38.9191135, "rental_uris": {"ios": "https://dc.lft.to/lastmile_qr_scan", "android": "https://dc.lft.to/lastmile_qr_scan"}, "is_reserved": 0, "fusion_lon": 0.0, "fusion_lat": 0.0, "lon": -77.02508916666666, "name": "1c0979efdf33fad2529c341305e62596"}, {"bike_id": "bbfcc2d5bb98b93271aa78bfc78b6e82", "type": "electric_scooter", "is_disabled": 0, "lat": 38.8762695, "rental_uris": {"ios": "https://dc.lft.to/lastmile_qr_scan", "android": "https://dc.lft.to/lastmile_qr_scan"}, "is_reserved": 0, "fusion_lon": 0.0, "fusion_lat": 0.0, "lon": -77.01535833333334, "name": "bbfcc2d5bb98b93271aa78bfc78b6e82"}, {"bike_id": "b8eaa9936a8031ea33642d436af2d1f9", "type": "electric_scooter", "is_disabled": 0, "lat": 38.889322, "rental_uris": {"ios": "https://dc.lft.to/lastmile_qr_scan", "android": "https://dc.lft.to/lastmile_qr_scan"}, "is_reserved": 0, "fusion_lon": 0.0, "fusion_lat": 0.0, "lon": -77.01505, "name": "b8eaa9936a8031ea33642d436af2d1f9"}, {"bike_id": "e9ac1296aa956fc60c3d7116e40a4d91", "type": "electric_bike", "is_disabled": 0, "lat": 38.95687, "rental_uris": {"ios": "https://dc.lft.to/lastmile_qr_scan", "android": "https://dc.lft.to/lastmile_qr_scan"}, "is_reserved": 0, "fusion_lon": 0.0, "fusion_lat": 0.0, "lon": -77.0222035, "name": "e9ac1296aa956fc60c3d7116e40a4d91"}, {"bike_id": "419ccff68bf5ab7b2eb09273b38a54a3", "type": "electric_scooter", "is_disabled": 0, "lat": 38.901351166666664, "rental_uris": {"ios": "https://dc.lft.to/lastmile_qr_scan", "android": "https://dc.lft.to/lastmile_qr_scan"}, "is_reserved": 0, "fusion_lon": 0.0, "fusion_lat": 0.0, "lon": -77.01750716666666, "name": "419ccff68bf5ab7b2eb09273b38a54a3"}, {"bike_id": "3c61d7c62d2b753b62abd40444eed5d0", "type": "electric_scooter", "is_disabled": 0, "lat": 38.92321316666666, "rental_uris": {"ios": "https://dc.lft.to/lastmile_qr_scan", "android": "https://dc.lft.to/lastmile_qr_scan"}, "is_reserved": 0, "fusion_lon": 0.0, "fusion_lat": 0.0, "lon": -77.02143383333333, "name": "3c61d7c62d2b753b62abd40444eed5d0"}, {"bike_id": "f437700bb41b6e90fd673582c6f4cfba", "type": "electric_scooter", "is_disabled": 0, "lat": 38.92169883333333, "rental_uris": {"ios": "https://dc.lft.to/lastmile_qr_scan", "android": "https://dc.lft.to/lastmile_qr_scan"}, "is_reserved": 0, "fusion_lon": 0.0, "fusion_lat": 0.0, "lon": -77.019162, "name": "f437700bb41b6e90fd673582c6f4cfba"}, {"bike_id": "485358f45f1283b749e7643cc5c29d9a", "type": "electric_scooter", "is_disabled": 0, "lat": 38.91815283333333, "rental_uris": {"ios": "https://dc.lft.to/lastmile_qr_scan", "android": "https://dc.lft.to/lastmile_qr_scan"}, "is_reserved": 0, "fusion_lon": 0.0, "fusion_lat": 0.0, "lon": -77.03136966666666, "name": "485358f45f1283b749e7643cc5c29d9a"}, {"bike_id": "f3b0d2eb20eed3b35c9c04668d29f5d8", "type": "electric_scooter", "is_disabled": 0, "lat": 38.95148283333333, "rental_uris": {"ios": "https://dc.lft.to/lastmile_qr_scan", "android": "https://dc.lft.to/lastmile_qr_scan"}, "is_reserved": 0, "fusion_lon": 0.0, "fusion_lat": 0.0, "lon": -77.01866866666667, "name": "f3b0d2eb20eed3b35c9c04668d29f5d8"}, {"bike_id": "9fd909c2f676db9b4cb7f5492522175b", "type": "electric_scooter", "is_disabled": 0, "lat": 38.95733666666667, "rental_uris": {"ios": "https://dc.lft.to/lastmile_qr_scan", "android": "https://dc.lft.to/lastmile_qr_scan"}, "is_reserved": 0, "fusion_lon": 0.0, "fusion_lat": 0.0, "lon": -77.02405383333334, "name": "9fd909c2f676db9b4cb7f5492522175b"}, {"bike_id": "266a57b09bcc6131b87cc7b1514f075b", "type": "electric_scooter", "is_disabled": 0, "lat": 38.922656333333336, "rental_uris": {"ios": "https://dc.lft.to/lastmile_qr_scan", "android": "https://dc.lft.to/lastmile_qr_scan"}, "is_reserved": 0, "fusion_lon": 0.0, "fusion_lat": 0.0, "lon": -76.99443233333334, "name": "266a57b09bcc6131b87cc7b1514f075b"}, {"bike_id": "742068131c128ce5f4814b948fa9273a", "type": "electric_scooter", "is_disabled": 0, "lat": 38.923706, "rental_uris": {"ios": "https://dc.lft.to/lastmile_qr_scan", "android": "https://dc.lft.to/lastmile_qr_scan"}, "is_reserved": 0, "fusion_lon": 0.0, "fusion_lat": 0.0, "lon": -77.0252685, "name": "742068131c128ce5f4814b948fa9273a"}, {"bike_id": "ec8cbde15222654465f32382564a03a3", "type": "electric_scooter", "is_disabled": 0, "lat": 38.9000195, "rental_uris": {"ios": "https://dc.lft.to/lastmile_qr_scan", "android": "https://dc.lft.to/lastmile_qr_scan"}, "is_reserved": 0, "fusion_lon": 0.0, "fusion_lat": 0.0, "lon": -76.996341, "name": "ec8cbde15222654465f32382564a03a3"}, {"bike_id": "2f08a0f2b7673f510d48a00fe49532f2", "type": "electric_scooter", "is_disabled": 0, "lat": 38.914618, "rental_uris": {"ios": "https://dc.lft.to/lastmile_qr_scan", "android": "https://dc.lft.to/lastmile_qr_scan"}, "is_reserved": 0, "fusion_lon": 0.0, "fusion_lat": 0.0, "lon": -77.03195183333334, "name": "2f08a0f2b7673f510d48a00fe49532f2"}, {"bike_id": "41195595a697443bb38b57b02d94124e", "type": "electric_scooter", "is_disabled": 0, "lat": 38.90854916666667, "rental_uris": {"ios": "https://dc.lft.to/lastmile_qr_scan", "android": "https://dc.lft.to/lastmile_qr_scan"}, "is_reserved": 0, "fusion_lon": 0.0, "fusion_lat": 0.0, "lon": -77.0253045, "name": "41195595a697443bb38b57b02d94124e"}, {"bike_id": "ec7584c75d6d00afc0b62c9ef75d916d", "type": "electric_scooter", "is_disabled": 0, "lat": 38.9170595, "rental_uris": {"ios": "https://dc.lft.to/lastmile_qr_scan", "android": "https://dc.lft.to/lastmile_qr_scan"}, "is_reserved": 0, "fusion_lon": 0.0, "fusion_lat": 0.0, "lon": -77.0957885, "name": "ec7584c75d6d00afc0b62c9ef75d916d"}, {"bike_id": "7243e8cc33ce1af432e48d6fbbcfd6a8", "type": "electric_scooter", "is_disabled": 0, "lat": 38.9171745, "rental_uris": {"ios": "https://dc.lft.to/lastmile_qr_scan", "android": "https://dc.lft.to/lastmile_qr_scan"}, "is_reserved": 0, "fusion_lon": 0.0, "fusion_lat": 0.0, "lon": -77.02695116666666, "name": "7243e8cc33ce1af432e48d6fbbcfd6a8"}, {"bike_id": "de8e56917a91bffbca1bffe54e0d4283", "type": "electric_scooter", "is_disabled": 0, "lat": 38.90953733333333, "rental_uris": {"ios": "https://dc.lft.to/lastmile_qr_scan", "android": "https://dc.lft.to/lastmile_qr_scan"}, "is_reserved": 0, "fusion_lon": 0.0, "fusion_lat": 0.0, "lon": -77.04863533333334, "name": "de8e56917a91bffbca1bffe54e0d4283"}, {"bike_id": "4f4e8e799aec90a30668ad4c72f64c08", "type": "electric_scooter", "is_disabled": 0, "lat": 38.904086666666664, "rental_uris": {"ios": "https://dc.lft.to/lastmile_qr_scan", "android": "https://dc.lft.to/lastmile_qr_scan"}, "is_reserved": 0, "fusion_lon": 0.0, "fusion_lat": 0.0, "lon": -76.97330333333333, "name": "4f4e8e799aec90a30668ad4c72f64c08"}, {"bike_id": "3aa97d74bf825770c1f3b0ad62d96957", "type": "electric_scooter", "is_disabled": 0, "lat": 38.8950015, "rental_uris": {"ios": "https://dc.lft.to/lastmile_qr_scan", "android": "https://dc.lft.to/lastmile_qr_scan"}, "is_reserved": 0, "fusion_lon": 0.0, "fusion_lat": 0.0, "lon": -77.010824, "name": "3aa97d74bf825770c1f3b0ad62d96957"}, {"bike_id": "4f9b4166fb90f91e29499efcd27f413f", "type": "electric_bike", "is_disabled": 0, "lat": 38.80893116666667, "rental_uris": {"ios": "https://dc.lft.to/lastmile_qr_scan", "android": "https://dc.lft.to/lastmile_qr_scan"}, "is_reserved": 0, "fusion_lon": 0.0, "fusion_lat": 0.0, "lon": -77.08641833333333, "name": "4f9b4166fb90f91e29499efcd27f413f"}, {"bike_id": "d3d9a60b214fd34dbc1b040ee3ed93cf", "type": "electric_scooter", "is_disabled": 0, "lat": 38.92965566666667, "rental_uris": {"ios": "https://dc.lft.to/lastmile_qr_scan", "android": "https://dc.lft.to/lastmile_qr_scan"}, "is_reserved": 0, "fusion_lon": 0.0, "fusion_lat": 0.0, "lon": -77.02823966666666, "name": "d3d9a60b214fd34dbc1b040ee3ed93cf"}, {"bike_id": "cdffd65323edf6e1ff13d839ac5ed55f", "type": "electric_scooter", "is_disabled": 0, "lat": 38.88748233333333, "rental_uris": {"ios": "https://dc.lft.to/lastmile_qr_scan", "android": "https://dc.lft.to/lastmile_qr_scan"}, "is_reserved": 0, "fusion_lon": 0.0, "fusion_lat": 0.0, "lon": -77.027261, "name": "cdffd65323edf6e1ff13d839ac5ed55f"}, {"bike_id": "a7bf0e7945b0d92518078de1addc1667", "type": "electric_scooter", "is_disabled": 0, "lat": 38.900229833333334, "rental_uris": {"ios": "https://dc.lft.to/lastmile_qr_scan", "android": "https://dc.lft.to/lastmile_qr_scan"}, "is_reserved": 0, "fusion_lon": 0.0, "fusion_lat": 0.0, "lon": -76.998636, "name": "a7bf0e7945b0d92518078de1addc1667"}, {"bike_id": "60fd6ddbc3fec74dbe4a2eb827a4bcc2", "type": "electric_scooter", "is_disabled": 0, "lat": 38.93431483333333, "rental_uris": {"ios": "https://dc.lft.to/lastmile_qr_scan", "android": "https://dc.lft.to/lastmile_qr_scan"}, "is_reserved": 0, "fusion_lon": 0.0, "fusion_lat": 0.0, "lon": -77.0401045, "name": "60fd6ddbc3fec74dbe4a2eb827a4bcc2"}, {"bike_id": "8c87cff9c93fb584dd0ee083b491d651", "type": "electric_scooter", "is_disabled": 0, "lat": 38.9418315, "rental_uris": {"ios": "https://dc.lft.to/lastmile_qr_scan", "android": "https://dc.lft.to/lastmile_qr_scan"}, "is_reserved": 0, "fusion_lon": 0.0, "fusion_lat": 0.0, "lon": -77.0248905, "name": "8c87cff9c93fb584dd0ee083b491d651"}, {"bike_id": "4f11bb6ab769db43db59d6d6271c2975", "type": "electric_bike", "is_disabled": 0, "lat": 38.9333655, "rental_uris": {"ios": "https://dc.lft.to/lastmile_qr_scan", "android": "https://dc.lft.to/lastmile_qr_scan"}, "is_reserved": 0, "fusion_lon": 0.0, "fusion_lat": 0.0, "lon": -77.0396845, "name": "4f11bb6ab769db43db59d6d6271c2975"}, {"bike_id": "aff75ddf3fca6cd0d62d9358a8123e53", "type": "electric_scooter", "is_disabled": 0, "lat": 38.899452833333335, "rental_uris": {"ios": "https://dc.lft.to/lastmile_qr_scan", "android": "https://dc.lft.to/lastmile_qr_scan"}, "is_reserved": 0, "fusion_lon": 0.0, "fusion_lat": 0.0, "lon": -77.0477655, "name": "aff75ddf3fca6cd0d62d9358a8123e53"}, {"bike_id": "2d9dc374205e9e045d5d798644944718", "type": "electric_bike", "is_disabled": 0, "lat": 38.86483483333333, "rental_uris": {"ios": "https://dc.lft.to/lastmile_qr_scan", "android": "https://dc.lft.to/lastmile_qr_scan"}, "is_reserved": 0, "fusion_lon": 0.0, "fusion_lat": 0.0, "lon": -76.97751183333334, "name": "2d9dc374205e9e045d5d798644944718"}, {"bike_id": "85b14fe5b2f9fd2d2a5feeefc487fd28", "type": "electric_scooter", "is_disabled": 0, "lat": 38.9221655, "rental_uris": {"ios": "https://dc.lft.to/lastmile_qr_scan", "android": "https://dc.lft.to/lastmile_qr_scan"}, "is_reserved": 0, "fusion_lon": 0.0, "fusion_lat": 0.0, "lon": -77.0346415, "name": "85b14fe5b2f9fd2d2a5feeefc487fd28"}, {"bike_id": "5388567e64b439b224b7e4fecf3073d3", "type": "electric_scooter", "is_disabled": 0, "lat": 38.90321733333333, "rental_uris": {"ios": "https://dc.lft.to/lastmile_qr_scan", "android": "https://dc.lft.to/lastmile_qr_scan"}, "is_reserved": 0, "fusion_lon": 0.0, "fusion_lat": 0.0, "lon": -76.975496, "name": "5388567e64b439b224b7e4fecf3073d3"}, {"bike_id": "4635197d6b14ef99a472c5dd84f3a5f7", "type": "electric_scooter", "is_disabled": 0, "lat": 38.90019383333333, "rental_uris": {"ios": "https://dc.lft.to/lastmile_qr_scan", "android": "https://dc.lft.to/lastmile_qr_scan"}, "is_reserved": 0, "fusion_lon": 0.0, "fusion_lat": 0.0, "lon": -76.99432366666667, "name": "4635197d6b14ef99a472c5dd84f3a5f7"}, {"bike_id": "b6f11c3f54f00b28710f9d6fa4aeefa5", "type": "electric_bike", "is_disabled": 0, "lat": 38.803945, "rental_uris": {"ios": "https://dc.lft.to/lastmile_qr_scan", "android": "https://dc.lft.to/lastmile_qr_scan"}, "is_reserved": 0, "fusion_lon": 0.0, "fusion_lat": 0.0, "lon": -77.05558733333334, "name": "b6f11c3f54f00b28710f9d6fa4aeefa5"}, {"bike_id": "dcfd3a12e6678fafaa75c8ecdbd8068c", "type": "electric_scooter", "is_disabled": 0, "lat": 38.870707333333335, "rental_uris": {"ios": "https://dc.lft.to/lastmile_qr_scan", "android": "https://dc.lft.to/lastmile_qr_scan"}, "is_reserved": 0, "fusion_lon": 0.0, "fusion_lat": 0.0, "lon": -76.981264, "name": "dcfd3a12e6678fafaa75c8ecdbd8068c"}, {"bike_id": "c24052f1907189ce41cc663a56485160", "type": "electric_scooter", "is_disabled": 0, "lat": 38.898487, "rental_uris": {"ios": "https://dc.lft.to/lastmile_qr_scan", "android": "https://dc.lft.to/lastmile_qr_scan"}, "is_reserved": 0, "fusion_lon": 0.0, "fusion_lat": 0.0, "lon": -76.981724, "name": "c24052f1907189ce41cc663a56485160"}, {"bike_id": "73f780a28660d47dd49be43a1d52d98f", "type": "electric_scooter", "is_disabled": 0, "lat": 38.91812083333333, "rental_uris": {"ios": "https://dc.lft.to/lastmile_qr_scan", "android": "https://dc.lft.to/lastmile_qr_scan"}, "is_reserved": 0, "fusion_lon": 0.0, "fusion_lat": 0.0, "lon": -77.03166166666666, "name": "73f780a28660d47dd49be43a1d52d98f"}, {"bike_id": "407cf4cc8cb5fb2e08b37c083f930ce0", "type": "electric_scooter", "is_disabled": 0, "lat": 38.926195166666666, "rental_uris": {"ios": "https://dc.lft.to/lastmile_qr_scan", "android": "https://dc.lft.to/lastmile_qr_scan"}, "is_reserved": 0, "fusion_lon": 0.0, "fusion_lat": 0.0, "lon": -77.0418675, "name": "407cf4cc8cb5fb2e08b37c083f930ce0"}, {"bike_id": "372256ec0f19728765d6c2ae0a50140a", "type": "electric_scooter", "is_disabled": 0, "lat": 38.87670383333333, "rental_uris": {"ios": "https://dc.lft.to/lastmile_qr_scan", "android": "https://dc.lft.to/lastmile_qr_scan"}, "is_reserved": 0, "fusion_lon": 0.0, "fusion_lat": 0.0, "lon": -77.01758583333333, "name": "372256ec0f19728765d6c2ae0a50140a"}, {"bike_id": "1591e0944c5b1f701e79c4770f54f3fe", "type": "electric_scooter", "is_disabled": 0, "lat": 38.929289, "rental_uris": {"ios": "https://dc.lft.to/lastmile_qr_scan", "android": "https://dc.lft.to/lastmile_qr_scan"}, "is_reserved": 0, "fusion_lon": 0.0, "fusion_lat": 0.0, "lon": -77.03761083333333, "name": "1591e0944c5b1f701e79c4770f54f3fe"}, {"bike_id": "e24c54bada38fd7075dbf7787e3641e1", "type": "electric_scooter", "is_disabled": 0, "lat": 38.928472166666666, "rental_uris": {"ios": "https://dc.lft.to/lastmile_qr_scan", "android": "https://dc.lft.to/lastmile_qr_scan"}, "is_reserved": 0, "fusion_lon": 0.0, "fusion_lat": 0.0, "lon": -77.01422433333333, "name": "e24c54bada38fd7075dbf7787e3641e1"}, {"bike_id": "953953a178fb2308de7ad0b58e88d1b5", "type": "electric_scooter", "is_disabled": 0, "lat": 38.85810033333333, "rental_uris": {"ios": "https://dc.lft.to/lastmile_qr_scan", "android": "https://dc.lft.to/lastmile_qr_scan"}, "is_reserved": 0, "fusion_lon": 0.0, "fusion_lat": 0.0, "lon": -76.989283, "name": "953953a178fb2308de7ad0b58e88d1b5"}, {"bike_id": "0d65ea2cfd075f2990f7b15ed9314506", "type": "electric_scooter", "is_disabled": 0, "lat": 38.932492833333335, "rental_uris": {"ios": "https://dc.lft.to/lastmile_qr_scan", "android": "https://dc.lft.to/lastmile_qr_scan"}, "is_reserved": 0, "fusion_lon": 0.0, "fusion_lat": 0.0, "lon": -77.03275133333334, "name": "0d65ea2cfd075f2990f7b15ed9314506"}, {"bike_id": "f7c0f93246f3357693a4e1a28d4bdf54", "type": "electric_bike", "is_disabled": 0, "lat": 38.857670166666665, "rental_uris": {"ios": "https://dc.lft.to/lastmile_qr_scan", "android": "https://dc.lft.to/lastmile_qr_scan"}, "is_reserved": 0, "fusion_lon": 0.0, "fusion_lat": 0.0, "lon": -76.987701, "name": "f7c0f93246f3357693a4e1a28d4bdf54"}, {"bike_id": "774db40bbca0fde00d27ffeca45e3fd9", "type": "electric_scooter", "is_disabled": 0, "lat": 38.922352, "rental_uris": {"ios": "https://dc.lft.to/lastmile_qr_scan", "android": "https://dc.lft.to/lastmile_qr_scan"}, "is_reserved": 0, "fusion_lon": 0.0, "fusion_lat": 0.0, "lon": -77.03898916666667, "name": "774db40bbca0fde00d27ffeca45e3fd9"}, {"bike_id": "2696db92ccfaff265ed0b1b53966fddc", "type": "electric_bike", "is_disabled": 0, "lat": 38.93859533333333, "rental_uris": {"ios": "https://dc.lft.to/lastmile_qr_scan", "android": "https://dc.lft.to/lastmile_qr_scan"}, "is_reserved": 0, "fusion_lon": 0.0, "fusion_lat": 0.0, "lon": -77.026913, "name": "2696db92ccfaff265ed0b1b53966fddc"}, {"bike_id": "4f8a0252ee3b8a315a37251229778ae2", "type": "electric_scooter", "is_disabled": 0, "lat": 38.9148365, "rental_uris": {"ios": "https://dc.lft.to/lastmile_qr_scan", "android": "https://dc.lft.to/lastmile_qr_scan"}, "is_reserved": 0, "fusion_lon": 0.0, "fusion_lat": 0.0, "lon": -77.03233316666666, "name": "4f8a0252ee3b8a315a37251229778ae2"}, {"bike_id": "b19df967bc7be34b02edc04945d5767c", "type": "electric_scooter", "is_disabled": 0, "lat": 38.91916166666667, "rental_uris": {"ios": "https://dc.lft.to/lastmile_qr_scan", "android": "https://dc.lft.to/lastmile_qr_scan"}, "is_reserved": 0, "fusion_lon": 0.0, "fusion_lat": 0.0, "lon": -77.03419033333333, "name": "b19df967bc7be34b02edc04945d5767c"}, {"bike_id": "b816e424ce034ef953bf55881b2993c3", "type": "electric_scooter", "is_disabled": 0, "lat": 38.91114133333333, "rental_uris": {"ios": "https://dc.lft.to/lastmile_qr_scan", "android": "https://dc.lft.to/lastmile_qr_scan"}, "is_reserved": 0, "fusion_lon": 0.0, "fusion_lat": 0.0, "lon": -77.03357716666666, "name": "b816e424ce034ef953bf55881b2993c3"}, {"bike_id": "17f6805fba0d554369b62d8499434345", "type": "electric_scooter", "is_disabled": 0, "lat": 38.926520833333335, "rental_uris": {"ios": "https://dc.lft.to/lastmile_qr_scan", "android": "https://dc.lft.to/lastmile_qr_scan"}, "is_reserved": 0, "fusion_lon": 0.0, "fusion_lat": 0.0, "lon": -77.0372195, "name": "17f6805fba0d554369b62d8499434345"}, {"bike_id": "c38263193774a04396c3a3c788289894", "type": "electric_scooter", "is_disabled": 0, "lat": 38.92352566666667, "rental_uris": {"ios": "https://dc.lft.to/lastmile_qr_scan", "android": "https://dc.lft.to/lastmile_qr_scan"}, "is_reserved": 0, "fusion_lon": 0.0, "fusion_lat": 0.0, "lon": -77.04153566666666, "name": "c38263193774a04396c3a3c788289894"}, {"bike_id": "0f3424953fd95c7457ee97e3b777d373", "type": "electric_scooter", "is_disabled": 0, "lat": 38.913978666666665, "rental_uris": {"ios": "https://dc.lft.to/lastmile_qr_scan", "android": "https://dc.lft.to/lastmile_qr_scan"}, "is_reserved": 0, "fusion_lon": 0.0, "fusion_lat": 0.0, "lon": -77.034657, "name": "0f3424953fd95c7457ee97e3b777d373"}, {"bike_id": "8fd45d0d627ccd3c345e0b4f6f255900", "type": "electric_scooter", "is_disabled": 0, "lat": 38.931012333333335, "rental_uris": {"ios": "https://dc.lft.to/lastmile_qr_scan", "android": "https://dc.lft.to/lastmile_qr_scan"}, "is_reserved": 0, "fusion_lon": 0.0, "fusion_lat": 0.0, "lon": -77.0349655, "name": "8fd45d0d627ccd3c345e0b4f6f255900"}, {"bike_id": "ac4187e8bab6f8bf559b71bafa24d3b2", "type": "electric_scooter", "is_disabled": 0, "lat": 38.94556333333333, "rental_uris": {"ios": "https://dc.lft.to/lastmile_qr_scan", "android": "https://dc.lft.to/lastmile_qr_scan"}, "is_reserved": 0, "fusion_lon": 0.0, "fusion_lat": 0.0, "lon": -77.0712265, "name": "ac4187e8bab6f8bf559b71bafa24d3b2"}, {"bike_id": "d0f658e7a19f0b29c24a5278b9649ccb", "type": "electric_scooter", "is_disabled": 0, "lat": 38.9038705, "rental_uris": {"ios": "https://dc.lft.to/lastmile_qr_scan", "android": "https://dc.lft.to/lastmile_qr_scan"}, "is_reserved": 0, "fusion_lon": 0.0, "fusion_lat": 0.0, "lon": -77.03894233333334, "name": "d0f658e7a19f0b29c24a5278b9649ccb"}, {"bike_id": "fc044ed22c7e349eb192319176c84a0a", "type": "electric_scooter", "is_disabled": 0, "lat": 38.908510666666665, "rental_uris": {"ios": "https://dc.lft.to/lastmile_qr_scan", "android": "https://dc.lft.to/lastmile_qr_scan"}, "is_reserved": 0, "fusion_lon": 0.0, "fusion_lat": 0.0, "lon": -77.047633, "name": "fc044ed22c7e349eb192319176c84a0a"}, {"bike_id": "8581f744f0eab8ee6d08294431790756", "type": "electric_scooter", "is_disabled": 0, "lat": 38.88448833333333, "rental_uris": {"ios": "https://dc.lft.to/lastmile_qr_scan", "android": "https://dc.lft.to/lastmile_qr_scan"}, "is_reserved": 0, "fusion_lon": 0.0, "fusion_lat": 0.0, "lon": -76.95099533333334, "name": "8581f744f0eab8ee6d08294431790756"}, {"bike_id": "acf772f299b5e1f30558f02454ec5c81", "type": "electric_bike", "is_disabled": 0, "lat": 38.858931, "rental_uris": {"ios": "https://dc.lft.to/lastmile_qr_scan", "android": "https://dc.lft.to/lastmile_qr_scan"}, "is_reserved": 0, "fusion_lon": 0.0, "fusion_lat": 0.0, "lon": -77.11863183333334, "name": "acf772f299b5e1f30558f02454ec5c81"}, {"bike_id": "33a3b4730595329c091c7442fe90b162", "type": "electric_scooter", "is_disabled": 0, "lat": 38.90627683333334, "rental_uris": {"ios": "https://dc.lft.to/lastmile_qr_scan", "android": "https://dc.lft.to/lastmile_qr_scan"}, "is_reserved": 0, "fusion_lon": 0.0, "fusion_lat": 0.0, "lon": -77.0246435, "name": "33a3b4730595329c091c7442fe90b162"}, {"bike_id": "0087b79107a284b639515d85fa5d103c", "type": "electric_scooter", "is_disabled": 0, "lat": 38.929592666666665, "rental_uris": {"ios": "https://dc.lft.to/lastmile_qr_scan", "android": "https://dc.lft.to/lastmile_qr_scan"}, "is_reserved": 0, "fusion_lon": 0.0, "fusion_lat": 0.0, "lon": -77.03774816666666, "name": "0087b79107a284b639515d85fa5d103c"}, {"bike_id": "a7e6a8addc15e9237802401d1836066a", "type": "electric_scooter", "is_disabled": 0, "lat": 38.910599833333336, "rental_uris": {"ios": "https://dc.lft.to/lastmile_qr_scan", "android": "https://dc.lft.to/lastmile_qr_scan"}, "is_reserved": 0, "fusion_lon": 0.0, "fusion_lat": 0.0, "lon": -77.03086966666666, "name": "a7e6a8addc15e9237802401d1836066a"}, {"bike_id": "c3b759a249724a457a9653cfe8a5c2b6", "type": "electric_scooter", "is_disabled": 0, "lat": 38.906053666666665, "rental_uris": {"ios": "https://dc.lft.to/lastmile_qr_scan", "android": "https://dc.lft.to/lastmile_qr_scan"}, "is_reserved": 0, "fusion_lon": 0.0, "fusion_lat": 0.0, "lon": -76.9927575, "name": "c3b759a249724a457a9653cfe8a5c2b6"}, {"bike_id": "852d39e5473a32f7073d37089d7bf84f", "type": "electric_scooter", "is_disabled": 0, "lat": 38.903144, "rental_uris": {"ios": "https://dc.lft.to/lastmile_qr_scan", "android": "https://dc.lft.to/lastmile_qr_scan"}, "is_reserved": 0, "fusion_lon": 0.0, "fusion_lat": 0.0, "lon": -76.9780035, "name": "852d39e5473a32f7073d37089d7bf84f"}, {"bike_id": "74d72e41910ed116610ce3ae15da55f2", "type": "electric_scooter", "is_disabled": 0, "lat": 38.908614666666665, "rental_uris": {"ios": "https://dc.lft.to/lastmile_qr_scan", "android": "https://dc.lft.to/lastmile_qr_scan"}, "is_reserved": 0, "fusion_lon": 0.0, "fusion_lat": 0.0, "lon": -77.024193, "name": "74d72e41910ed116610ce3ae15da55f2"}, {"bike_id": "f276297f3217cff1f1c583eecc1e4d9a", "type": "electric_scooter", "is_disabled": 0, "lat": 38.94510833333333, "rental_uris": {"ios": "https://dc.lft.to/lastmile_qr_scan", "android": "https://dc.lft.to/lastmile_qr_scan"}, "is_reserved": 0, "fusion_lon": 0.0, "fusion_lat": 0.0, "lon": -77.03369333333333, "name": "f276297f3217cff1f1c583eecc1e4d9a"}, {"bike_id": "ff9c276ef4e0124ab7cabf345a0345b4", "type": "electric_scooter", "is_disabled": 0, "lat": 38.914548833333335, "rental_uris": {"ios": "https://dc.lft.to/lastmile_qr_scan", "android": "https://dc.lft.to/lastmile_qr_scan"}, "is_reserved": 0, "fusion_lon": 0.0, "fusion_lat": 0.0, "lon": -77.00211966666667, "name": "ff9c276ef4e0124ab7cabf345a0345b4"}, {"bike_id": "3c1a81dd34f7ace989652f5e8c600f22", "type": "electric_scooter", "is_disabled": 0, "lat": 38.9233655, "rental_uris": {"ios": "https://dc.lft.to/lastmile_qr_scan", "android": "https://dc.lft.to/lastmile_qr_scan"}, "is_reserved": 0, "fusion_lon": 0.0, "fusion_lat": 0.0, "lon": -77.05372216666666, "name": "3c1a81dd34f7ace989652f5e8c600f22"}, {"bike_id": "71937a617a0174823cf99a442afc037d", "type": "electric_scooter", "is_disabled": 0, "lat": 38.9290835, "rental_uris": {"ios": "https://dc.lft.to/lastmile_qr_scan", "android": "https://dc.lft.to/lastmile_qr_scan"}, "is_reserved": 0, "fusion_lon": 0.0, "fusion_lat": 0.0, "lon": -77.03619466666666, "name": "71937a617a0174823cf99a442afc037d"}, {"bike_id": "7bcaa29d27161b1bafeb71aae6d8758f", "type": "electric_bike", "is_disabled": 0, "lat": 38.947846, "rental_uris": {"ios": "https://dc.lft.to/lastmile_qr_scan", "android": "https://dc.lft.to/lastmile_qr_scan"}, "is_reserved": 0, "fusion_lon": 0.0, "fusion_lat": 0.0, "lon": -76.97212016666667, "name": "7bcaa29d27161b1bafeb71aae6d8758f"}, {"bike_id": "0f4d3f6c5650f9dfaa76fe680cdebb10", "type": "electric_bike", "is_disabled": 0, "lat": 38.957073, "rental_uris": {"ios": "https://dc.lft.to/lastmile_qr_scan", "android": "https://dc.lft.to/lastmile_qr_scan"}, "is_reserved": 0, "fusion_lon": 0.0, "fusion_lat": 0.0, "lon": -77.023908, "name": "0f4d3f6c5650f9dfaa76fe680cdebb10"}, {"bike_id": "523ca6dd1630a17217c53c7010c16043", "type": "electric_scooter", "is_disabled": 0, "lat": 38.86248366666667, "rental_uris": {"ios": "https://dc.lft.to/lastmile_qr_scan", "android": "https://dc.lft.to/lastmile_qr_scan"}, "is_reserved": 0, "fusion_lon": 0.0, "fusion_lat": 0.0, "lon": -76.99502716666667, "name": "523ca6dd1630a17217c53c7010c16043"}, {"bike_id": "ceab872f7d602901517d9ae05ce6b6ad", "type": "electric_bike", "is_disabled": 0, "lat": 39.024334333333336, "rental_uris": {"ios": "https://dc.lft.to/lastmile_qr_scan", "android": "https://dc.lft.to/lastmile_qr_scan"}, "is_reserved": 0, "fusion_lon": 0.0, "fusion_lat": 0.0, "lon": -77.13100433333334, "name": "ceab872f7d602901517d9ae05ce6b6ad"}, {"bike_id": "a07796c6d8ab39f054ef99e6c0096c75", "type": "electric_scooter", "is_disabled": 0, "lat": 38.90781033333333, "rental_uris": {"ios": "https://dc.lft.to/lastmile_qr_scan", "android": "https://dc.lft.to/lastmile_qr_scan"}, "is_reserved": 0, "fusion_lon": 0.0, "fusion_lat": 0.0, "lon": -77.00955783333333, "name": "a07796c6d8ab39f054ef99e6c0096c75"}, {"bike_id": "ca123527a7754a49aefb8de51eae872d", "type": "electric_scooter", "is_disabled": 0, "lat": 38.9181565, "rental_uris": {"ios": "https://dc.lft.to/lastmile_qr_scan", "android": "https://dc.lft.to/lastmile_qr_scan"}, "is_reserved": 0, "fusion_lon": 0.0, "fusion_lat": 0.0, "lon": -77.03669416666666, "name": "ca123527a7754a49aefb8de51eae872d"}, {"bike_id": "cf7fd0e55eaf8dd22e66a8b360e67bbf", "type": "electric_scooter", "is_disabled": 0, "lat": 38.93982666666667, "rental_uris": {"ios": "https://dc.lft.to/lastmile_qr_scan", "android": "https://dc.lft.to/lastmile_qr_scan"}, "is_reserved": 0, "fusion_lon": 0.0, "fusion_lat": 0.0, "lon": -77.03142033333333, "name": "cf7fd0e55eaf8dd22e66a8b360e67bbf"}, {"bike_id": "bd0d19d9ed05d951999bbc7c5756e53d", "type": "electric_scooter", "is_disabled": 0, "lat": 38.9177205, "rental_uris": {"ios": "https://dc.lft.to/lastmile_qr_scan", "android": "https://dc.lft.to/lastmile_qr_scan"}, "is_reserved": 0, "fusion_lon": 0.0, "fusion_lat": 0.0, "lon": -77.03449766666667, "name": "bd0d19d9ed05d951999bbc7c5756e53d"}, {"bike_id": "a5806c2f9129412e1316555507f01b66", "type": "electric_scooter", "is_disabled": 0, "lat": 38.94184933333333, "rental_uris": {"ios": "https://dc.lft.to/lastmile_qr_scan", "android": "https://dc.lft.to/lastmile_qr_scan"}, "is_reserved": 0, "fusion_lon": 0.0, "fusion_lat": 0.0, "lon": -77.024909, "name": "a5806c2f9129412e1316555507f01b66"}, {"bike_id": "60aea66a80bcabb9a69c56257896eadf", "type": "electric_scooter", "is_disabled": 0, "lat": 38.93457133333333, "rental_uris": {"ios": "https://dc.lft.to/lastmile_qr_scan", "android": "https://dc.lft.to/lastmile_qr_scan"}, "is_reserved": 0, "fusion_lon": 0.0, "fusion_lat": 0.0, "lon": -76.96439933333333, "name": "60aea66a80bcabb9a69c56257896eadf"}, {"bike_id": "f64721573ef4aac8d9219579e77da0e4", "type": "electric_scooter", "is_disabled": 0, "lat": 38.904882, "rental_uris": {"ios": "https://dc.lft.to/lastmile_qr_scan", "android": "https://dc.lft.to/lastmile_qr_scan"}, "is_reserved": 0, "fusion_lon": 0.0, "fusion_lat": 0.0, "lon": -77.053471, "name": "f64721573ef4aac8d9219579e77da0e4"}, {"bike_id": "82ceb31da42bc4572b9f55246d823d99", "type": "electric_scooter", "is_disabled": 0, "lat": 38.905700833333334, "rental_uris": {"ios": "https://dc.lft.to/lastmile_qr_scan", "android": "https://dc.lft.to/lastmile_qr_scan"}, "is_reserved": 0, "fusion_lon": 0.0, "fusion_lat": 0.0, "lon": -77.04477583333333, "name": "82ceb31da42bc4572b9f55246d823d99"}, {"bike_id": "64b690d0714330314836dc98c6cb417a", "type": "electric_bike", "is_disabled": 0, "lat": 38.870860666666665, "rental_uris": {"ios": "https://dc.lft.to/lastmile_qr_scan", "android": "https://dc.lft.to/lastmile_qr_scan"}, "is_reserved": 0, "fusion_lon": 0.0, "fusion_lat": 0.0, "lon": -77.01209333333334, "name": "64b690d0714330314836dc98c6cb417a"}, {"bike_id": "64b6d21e399ed6b5f0360b6c1eeba030", "type": "electric_bike", "is_disabled": 0, "lat": 38.8075085, "rental_uris": {"ios": "https://dc.lft.to/lastmile_qr_scan", "android": "https://dc.lft.to/lastmile_qr_scan"}, "is_reserved": 0, "fusion_lon": 0.0, "fusion_lat": 0.0, "lon": -77.09452266666666, "name": "64b6d21e399ed6b5f0360b6c1eeba030"}, {"bike_id": "cfb7f77680c5f09e9af5bb8b70f910cf", "type": "electric_scooter", "is_disabled": 0, "lat": 38.89532616666666, "rental_uris": {"ios": "https://dc.lft.to/lastmile_qr_scan", "android": "https://dc.lft.to/lastmile_qr_scan"}, "is_reserved": 0, "fusion_lon": 0.0, "fusion_lat": 0.0, "lon": -77.011121, "name": "cfb7f77680c5f09e9af5bb8b70f910cf"}, {"bike_id": "79e7c4ebb11c5cc204b89235e3b17ce3", "type": "electric_bike", "is_disabled": 0, "lat": 38.9522925, "rental_uris": {"ios": "https://dc.lft.to/lastmile_qr_scan", "android": "https://dc.lft.to/lastmile_qr_scan"}, "is_reserved": 0, "fusion_lon": 0.0, "fusion_lat": 0.0, "lon": -77.00760116666666, "name": "79e7c4ebb11c5cc204b89235e3b17ce3"}, {"bike_id": "ffa8620c9fbeb5a8275e3c5271de3d73", "type": "electric_scooter", "is_disabled": 0, "lat": 38.9049465, "rental_uris": {"ios": "https://dc.lft.to/lastmile_qr_scan", "android": "https://dc.lft.to/lastmile_qr_scan"}, "is_reserved": 0, "fusion_lon": 0.0, "fusion_lat": 0.0, "lon": -77.0199695, "name": "ffa8620c9fbeb5a8275e3c5271de3d73"}, {"bike_id": "50d0fa2caeb0ebb6edec6720a673cb01", "type": "electric_scooter", "is_disabled": 0, "lat": 38.8893095, "rental_uris": {"ios": "https://dc.lft.to/lastmile_qr_scan", "android": "https://dc.lft.to/lastmile_qr_scan"}, "is_reserved": 0, "fusion_lon": 0.0, "fusion_lat": 0.0, "lon": -77.01502466666666, "name": "50d0fa2caeb0ebb6edec6720a673cb01"}, {"bike_id": "8529518b7b5227a7ce00090760324240", "type": "electric_scooter", "is_disabled": 0, "lat": 38.92339183333333, "rental_uris": {"ios": "https://dc.lft.to/lastmile_qr_scan", "android": "https://dc.lft.to/lastmile_qr_scan"}, "is_reserved": 0, "fusion_lon": 0.0, "fusion_lat": 0.0, "lon": -77.0018855, "name": "8529518b7b5227a7ce00090760324240"}, {"bike_id": "b6113ff0e3e933cec09285a21be52814", "type": "electric_scooter", "is_disabled": 0, "lat": 38.93632133333333, "rental_uris": {"ios": "https://dc.lft.to/lastmile_qr_scan", "android": "https://dc.lft.to/lastmile_qr_scan"}, "is_reserved": 0, "fusion_lon": 0.0, "fusion_lat": 0.0, "lon": -77.05881333333333, "name": "b6113ff0e3e933cec09285a21be52814"}, {"bike_id": "f2ffda0929dfeb529c3eaeaba6806188", "type": "electric_scooter", "is_disabled": 0, "lat": 38.871025, "rental_uris": {"ios": "https://dc.lft.to/lastmile_qr_scan", "android": "https://dc.lft.to/lastmile_qr_scan"}, "is_reserved": 0, "fusion_lon": 0.0, "fusion_lat": 0.0, "lon": -76.96571616666667, "name": "f2ffda0929dfeb529c3eaeaba6806188"}, {"bike_id": "0d87db473e29bba788ac5383f77e6c99", "type": "electric_scooter", "is_disabled": 0, "lat": 38.9228645, "rental_uris": {"ios": "https://dc.lft.to/lastmile_qr_scan", "android": "https://dc.lft.to/lastmile_qr_scan"}, "is_reserved": 0, "fusion_lon": 0.0, "fusion_lat": 0.0, "lon": -76.99469916666666, "name": "0d87db473e29bba788ac5383f77e6c99"}, {"bike_id": "59baa62ba0bfa13e192c7e70186018a4", "type": "electric_scooter", "is_disabled": 0, "lat": 38.91802333333333, "rental_uris": {"ios": "https://dc.lft.to/lastmile_qr_scan", "android": "https://dc.lft.to/lastmile_qr_scan"}, "is_reserved": 0, "fusion_lon": 0.0, "fusion_lat": 0.0, "lon": -77.03634766666667, "name": "59baa62ba0bfa13e192c7e70186018a4"}, {"bike_id": "7f7cced64cb3a545721dc7286e1208dd", "type": "electric_bike", "is_disabled": 0, "lat": 38.95171033333333, "rental_uris": {"ios": "https://dc.lft.to/lastmile_qr_scan", "android": "https://dc.lft.to/lastmile_qr_scan"}, "is_reserved": 0, "fusion_lon": 0.0, "fusion_lat": 0.0, "lon": -76.963817, "name": "7f7cced64cb3a545721dc7286e1208dd"}, {"bike_id": "9cbc8bdb53bef2ce172ae5a8f2b67c60", "type": "electric_scooter", "is_disabled": 0, "lat": 38.9166935, "rental_uris": {"ios": "https://dc.lft.to/lastmile_qr_scan", "android": "https://dc.lft.to/lastmile_qr_scan"}, "is_reserved": 0, "fusion_lon": 0.0, "fusion_lat": 0.0, "lon": -77.02712516666666, "name": "9cbc8bdb53bef2ce172ae5a8f2b67c60"}, {"bike_id": "b6487fcd03f87721431e2fb4c589e1b9", "type": "electric_scooter", "is_disabled": 0, "lat": 38.90551466666667, "rental_uris": {"ios": "https://dc.lft.to/lastmile_qr_scan", "android": "https://dc.lft.to/lastmile_qr_scan"}, "is_reserved": 0, "fusion_lon": 0.0, "fusion_lat": 0.0, "lon": -76.99618716666667, "name": "b6487fcd03f87721431e2fb4c589e1b9"}, {"bike_id": "7bd07228a3e316164d5b0807c7c6c6e3", "type": "electric_bike", "is_disabled": 0, "lat": 38.804114166666665, "rental_uris": {"ios": "https://dc.lft.to/lastmile_qr_scan", "android": "https://dc.lft.to/lastmile_qr_scan"}, "is_reserved": 0, "fusion_lon": 0.0, "fusion_lat": 0.0, "lon": -77.05554583333333, "name": "7bd07228a3e316164d5b0807c7c6c6e3"}, {"bike_id": "7a6ccecf7a577d39d802e880248c4f1c", "type": "electric_scooter", "is_disabled": 0, "lat": 38.90955566666667, "rental_uris": {"ios": "https://dc.lft.to/lastmile_qr_scan", "android": "https://dc.lft.to/lastmile_qr_scan"}, "is_reserved": 0, "fusion_lon": 0.0, "fusion_lat": 0.0, "lon": -77.04859716666667, "name": "7a6ccecf7a577d39d802e880248c4f1c"}, {"bike_id": "502c4d979a436341c8484c763af06ca5", "type": "electric_scooter", "is_disabled": 0, "lat": 38.900153833333334, "rental_uris": {"ios": "https://dc.lft.to/lastmile_qr_scan", "android": "https://dc.lft.to/lastmile_qr_scan"}, "is_reserved": 0, "fusion_lon": 0.0, "fusion_lat": 0.0, "lon": -77.04679933333334, "name": "502c4d979a436341c8484c763af06ca5"}, {"bike_id": "00267bd9ce45b66fc9f5e1e4be2ff342", "type": "electric_scooter", "is_disabled": 0, "lat": 38.9141495, "rental_uris": {"ios": "https://dc.lft.to/lastmile_qr_scan", "android": "https://dc.lft.to/lastmile_qr_scan"}, "is_reserved": 0, "fusion_lon": 0.0, "fusion_lat": 0.0, "lon": -77.0298325, "name": "00267bd9ce45b66fc9f5e1e4be2ff342"}, {"bike_id": "12a9c06a317ad805522cf8bcd9de1646", "type": "electric_scooter", "is_disabled": 0, "lat": 38.90424633333333, "rental_uris": {"ios": "https://dc.lft.to/lastmile_qr_scan", "android": "https://dc.lft.to/lastmile_qr_scan"}, "is_reserved": 0, "fusion_lon": 0.0, "fusion_lat": 0.0, "lon": -77.02771433333334, "name": "12a9c06a317ad805522cf8bcd9de1646"}, {"bike_id": "a7c68afc59e5c572bb2e8afef280be94", "type": "electric_scooter", "is_disabled": 0, "lat": 38.93245133333333, "rental_uris": {"ios": "https://dc.lft.to/lastmile_qr_scan", "android": "https://dc.lft.to/lastmile_qr_scan"}, "is_reserved": 0, "fusion_lon": 0.0, "fusion_lat": 0.0, "lon": -77.03857416666666, "name": "a7c68afc59e5c572bb2e8afef280be94"}, {"bike_id": "5e82f4e3e69713660326221c698a79bc", "type": "electric_scooter", "is_disabled": 0, "lat": 38.90010383333333, "rental_uris": {"ios": "https://dc.lft.to/lastmile_qr_scan", "android": "https://dc.lft.to/lastmile_qr_scan"}, "is_reserved": 0, "fusion_lon": 0.0, "fusion_lat": 0.0, "lon": -77.04488266666667, "name": "5e82f4e3e69713660326221c698a79bc"}, {"bike_id": "6aa86d2858a135a1d53cdde7cffde346", "type": "electric_scooter", "is_disabled": 0, "lat": 38.897907333333336, "rental_uris": {"ios": "https://dc.lft.to/lastmile_qr_scan", "android": "https://dc.lft.to/lastmile_qr_scan"}, "is_reserved": 0, "fusion_lon": 0.0, "fusion_lat": 0.0, "lon": -77.01213916666667, "name": "6aa86d2858a135a1d53cdde7cffde346"}, {"bike_id": "7bbfd516d9232149807e8ef9750e0069", "type": "electric_scooter", "is_disabled": 0, "lat": 38.89406483333333, "rental_uris": {"ios": "https://dc.lft.to/lastmile_qr_scan", "android": "https://dc.lft.to/lastmile_qr_scan"}, "is_reserved": 0, "fusion_lon": 0.0, "fusion_lat": 0.0, "lon": -77.02799633333333, "name": "7bbfd516d9232149807e8ef9750e0069"}, {"bike_id": "48dd82955c836399e0474a5e0fb638c0", "type": "electric_scooter", "is_disabled": 0, "lat": 38.91808016666667, "rental_uris": {"ios": "https://dc.lft.to/lastmile_qr_scan", "android": "https://dc.lft.to/lastmile_qr_scan"}, "is_reserved": 0, "fusion_lon": 0.0, "fusion_lat": 0.0, "lon": -77.02706633333334, "name": "48dd82955c836399e0474a5e0fb638c0"}, {"bike_id": "175a3dd5fca1218f958ac45ff8f93668", "type": "electric_scooter", "is_disabled": 0, "lat": 38.926566666666666, "rental_uris": {"ios": "https://dc.lft.to/lastmile_qr_scan", "android": "https://dc.lft.to/lastmile_qr_scan"}, "is_reserved": 0, "fusion_lon": 0.0, "fusion_lat": 0.0, "lon": -77.03726216666666, "name": "175a3dd5fca1218f958ac45ff8f93668"}, {"bike_id": "cc87450330dab4d28822723f97fd46dc", "type": "electric_bike", "is_disabled": 0, "lat": 38.832369666666665, "rental_uris": {"ios": "https://dc.lft.to/lastmile_qr_scan", "android": "https://dc.lft.to/lastmile_qr_scan"}, "is_reserved": 0, "fusion_lon": 0.0, "fusion_lat": 0.0, "lon": -76.94625883333333, "name": "cc87450330dab4d28822723f97fd46dc"}, {"bike_id": "610fe78e3a0fd4ced1f4e74a4400e793", "type": "electric_scooter", "is_disabled": 0, "lat": 38.876594833333336, "rental_uris": {"ios": "https://dc.lft.to/lastmile_qr_scan", "android": "https://dc.lft.to/lastmile_qr_scan"}, "is_reserved": 0, "fusion_lon": 0.0, "fusion_lat": 0.0, "lon": -77.0128975, "name": "610fe78e3a0fd4ced1f4e74a4400e793"}, {"bike_id": "7e37cf8743b1154b158c73dd059604ce", "type": "electric_scooter", "is_disabled": 0, "lat": 38.91107783333333, "rental_uris": {"ios": "https://dc.lft.to/lastmile_qr_scan", "android": "https://dc.lft.to/lastmile_qr_scan"}, "is_reserved": 0, "fusion_lon": 0.0, "fusion_lat": 0.0, "lon": -77.03470183333333, "name": "7e37cf8743b1154b158c73dd059604ce"}, {"bike_id": "7572f9ff5ffde63a11dd1ecdc6e6ecab", "type": "electric_bike", "is_disabled": 0, "lat": 39.050510833333334, "rental_uris": {"ios": "https://dc.lft.to/lastmile_qr_scan", "android": "https://dc.lft.to/lastmile_qr_scan"}, "is_reserved": 0, "fusion_lon": 0.0, "fusion_lat": 0.0, "lon": -77.05145933333333, "name": "7572f9ff5ffde63a11dd1ecdc6e6ecab"}, {"bike_id": "2f11992d76315ea7e62d9b8d85514ea2", "type": "electric_scooter", "is_disabled": 0, "lat": 38.8987105, "rental_uris": {"ios": "https://dc.lft.to/lastmile_qr_scan", "android": "https://dc.lft.to/lastmile_qr_scan"}, "is_reserved": 0, "fusion_lon": 0.0, "fusion_lat": 0.0, "lon": -77.02042033333333, "name": "2f11992d76315ea7e62d9b8d85514ea2"}, {"bike_id": "252d4053a2a152a8a315e38d5ed464c3", "type": "electric_scooter", "is_disabled": 0, "lat": 38.93317283333333, "rental_uris": {"ios": "https://dc.lft.to/lastmile_qr_scan", "android": "https://dc.lft.to/lastmile_qr_scan"}, "is_reserved": 0, "fusion_lon": 0.0, "fusion_lat": 0.0, "lon": -77.027506, "name": "252d4053a2a152a8a315e38d5ed464c3"}, {"bike_id": "e108987e3a97dc8cbb96733d5ffe9ed5", "type": "electric_scooter", "is_disabled": 0, "lat": 38.917956333333336, "rental_uris": {"ios": "https://dc.lft.to/lastmile_qr_scan", "android": "https://dc.lft.to/lastmile_qr_scan"}, "is_reserved": 0, "fusion_lon": 0.0, "fusion_lat": 0.0, "lon": -77.03209383333333, "name": "e108987e3a97dc8cbb96733d5ffe9ed5"}, {"bike_id": "4e3a852a93e37eef8a56cf517f221d6a", "type": "electric_scooter", "is_disabled": 0, "lat": 38.915467166666666, "rental_uris": {"ios": "https://dc.lft.to/lastmile_qr_scan", "android": "https://dc.lft.to/lastmile_qr_scan"}, "is_reserved": 0, "fusion_lon": 0.0, "fusion_lat": 0.0, "lon": -77.02154716666666, "name": "4e3a852a93e37eef8a56cf517f221d6a"}, {"bike_id": "0b1d604e2f1af3f650056936787ca252", "type": "electric_bike", "is_disabled": 0, "lat": 38.9310445, "rental_uris": {"ios": "https://dc.lft.to/lastmile_qr_scan", "android": "https://dc.lft.to/lastmile_qr_scan"}, "is_reserved": 0, "fusion_lon": 0.0, "fusion_lat": 0.0, "lon": -77.018455, "name": "0b1d604e2f1af3f650056936787ca252"}, {"bike_id": "54176068f9e07c70016351b692f8357d", "type": "electric_scooter", "is_disabled": 0, "lat": 38.8765995, "rental_uris": {"ios": "https://dc.lft.to/lastmile_qr_scan", "android": "https://dc.lft.to/lastmile_qr_scan"}, "is_reserved": 0, "fusion_lon": 0.0, "fusion_lat": 0.0, "lon": -76.99641666666666, "name": "54176068f9e07c70016351b692f8357d"}, {"bike_id": "c7708ea5757b7dfbe1c6feb4b1fdd9c9", "type": "electric_scooter", "is_disabled": 0, "lat": 38.90964733333333, "rental_uris": {"ios": "https://dc.lft.to/lastmile_qr_scan", "android": "https://dc.lft.to/lastmile_qr_scan"}, "is_reserved": 0, "fusion_lon": 0.0, "fusion_lat": 0.0, "lon": -77.03986633333334, "name": "c7708ea5757b7dfbe1c6feb4b1fdd9c9"}, {"bike_id": "28970e89e28558c2b221b6d1407636f9", "type": "electric_scooter", "is_disabled": 0, "lat": 38.920941166666665, "rental_uris": {"ios": "https://dc.lft.to/lastmile_qr_scan", "android": "https://dc.lft.to/lastmile_qr_scan"}, "is_reserved": 0, "fusion_lon": 0.0, "fusion_lat": 0.0, "lon": -77.01690883333333, "name": "28970e89e28558c2b221b6d1407636f9"}, {"bike_id": "5d74dfe3d94eff7ad41052a03bd0ae99", "type": "electric_scooter", "is_disabled": 0, "lat": 38.9063805, "rental_uris": {"ios": "https://dc.lft.to/lastmile_qr_scan", "android": "https://dc.lft.to/lastmile_qr_scan"}, "is_reserved": 0, "fusion_lon": 0.0, "fusion_lat": 0.0, "lon": -77.03452316666667, "name": "5d74dfe3d94eff7ad41052a03bd0ae99"}, {"bike_id": "92e9a6a09a98b71275500d8b664cbc6c", "type": "electric_bike", "is_disabled": 0, "lat": 38.882434333333336, "rental_uris": {"ios": "https://dc.lft.to/lastmile_qr_scan", "android": "https://dc.lft.to/lastmile_qr_scan"}, "is_reserved": 0, "fusion_lon": 0.0, "fusion_lat": 0.0, "lon": -76.962518, "name": "92e9a6a09a98b71275500d8b664cbc6c"}, {"bike_id": "e479192b874b10f58606300e56fb7a9f", "type": "electric_scooter", "is_disabled": 0, "lat": 38.9279435, "rental_uris": {"ios": "https://dc.lft.to/lastmile_qr_scan", "android": "https://dc.lft.to/lastmile_qr_scan"}, "is_reserved": 0, "fusion_lon": 0.0, "fusion_lat": 0.0, "lon": -77.03195783333334, "name": "e479192b874b10f58606300e56fb7a9f"}, {"bike_id": "8426e628b3f83e07b63f47933110f129", "type": "electric_scooter", "is_disabled": 0, "lat": 38.87947, "rental_uris": {"ios": "https://dc.lft.to/lastmile_qr_scan", "android": "https://dc.lft.to/lastmile_qr_scan"}, "is_reserved": 0, "fusion_lon": 0.0, "fusion_lat": 0.0, "lon": -77.023561, "name": "8426e628b3f83e07b63f47933110f129"}, {"bike_id": "d44253337b76dedb06b4a84b727a3dd9", "type": "electric_bike", "is_disabled": 0, "lat": 39.043044, "rental_uris": {"ios": "https://dc.lft.to/lastmile_qr_scan", "android": "https://dc.lft.to/lastmile_qr_scan"}, "is_reserved": 0, "fusion_lon": 0.0, "fusion_lat": 0.0, "lon": -77.05158716666666, "name": "d44253337b76dedb06b4a84b727a3dd9"}, {"bike_id": "85286baf350f0d00fb3bddd7c7292d1a", "type": "electric_scooter", "is_disabled": 0, "lat": 38.90001066666667, "rental_uris": {"ios": "https://dc.lft.to/lastmile_qr_scan", "android": "https://dc.lft.to/lastmile_qr_scan"}, "is_reserved": 0, "fusion_lon": 0.0, "fusion_lat": 0.0, "lon": -76.99622883333333, "name": "85286baf350f0d00fb3bddd7c7292d1a"}, {"bike_id": "db4dbb3ef2d1f2850cd0d85f92e5e776", "type": "electric_scooter", "is_disabled": 0, "lat": 38.92369933333333, "rental_uris": {"ios": "https://dc.lft.to/lastmile_qr_scan", "android": "https://dc.lft.to/lastmile_qr_scan"}, "is_reserved": 0, "fusion_lon": 0.0, "fusion_lat": 0.0, "lon": -77.02948616666667, "name": "db4dbb3ef2d1f2850cd0d85f92e5e776"}, {"bike_id": "e7a312161eef20ee01f7aba5a9eaa02d", "type": "electric_scooter", "is_disabled": 0, "lat": 38.90649766666667, "rental_uris": {"ios": "https://dc.lft.to/lastmile_qr_scan", "android": "https://dc.lft.to/lastmile_qr_scan"}, "is_reserved": 0, "fusion_lon": 0.0, "fusion_lat": 0.0, "lon": -77.04183416666666, "name": "e7a312161eef20ee01f7aba5a9eaa02d"}, {"bike_id": "46ae6fd62afc9d01658d82d822f9fc5d", "type": "electric_scooter", "is_disabled": 0, "lat": 38.911161166666666, "rental_uris": {"ios": "https://dc.lft.to/lastmile_qr_scan", "android": "https://dc.lft.to/lastmile_qr_scan"}, "is_reserved": 0, "fusion_lon": 0.0, "fusion_lat": 0.0, "lon": -77.03438583333333, "name": "46ae6fd62afc9d01658d82d822f9fc5d"}, {"bike_id": "91e3ed4f5a2ce7781056b5b1412e930a", "type": "electric_bike", "is_disabled": 0, "lat": 38.8237705, "rental_uris": {"ios": "https://dc.lft.to/lastmile_qr_scan", "android": "https://dc.lft.to/lastmile_qr_scan"}, "is_reserved": 0, "fusion_lon": 0.0, "fusion_lat": 0.0, "lon": -77.00227216666667, "name": "91e3ed4f5a2ce7781056b5b1412e930a"}, {"bike_id": "8fb004d765997ad0357304a12b6cf6c6", "type": "electric_scooter", "is_disabled": 0, "lat": 38.892292, "rental_uris": {"ios": "https://dc.lft.to/lastmile_qr_scan", "android": "https://dc.lft.to/lastmile_qr_scan"}, "is_reserved": 0, "fusion_lon": 0.0, "fusion_lat": 0.0, "lon": -77.04996633333333, "name": "8fb004d765997ad0357304a12b6cf6c6"}, {"bike_id": "4fc903e4911b74d2939870ea7e99371b", "type": "electric_scooter", "is_disabled": 0, "lat": 38.93866216666667, "rental_uris": {"ios": "https://dc.lft.to/lastmile_qr_scan", "android": "https://dc.lft.to/lastmile_qr_scan"}, "is_reserved": 0, "fusion_lon": 0.0, "fusion_lat": 0.0, "lon": -77.03082966666666, "name": "4fc903e4911b74d2939870ea7e99371b"}, {"bike_id": "ea62d42b22f8d41c27361348185fad0c", "type": "electric_scooter", "is_disabled": 0, "lat": 38.844383, "rental_uris": {"ios": "https://dc.lft.to/lastmile_qr_scan", "android": "https://dc.lft.to/lastmile_qr_scan"}, "is_reserved": 0, "fusion_lon": 0.0, "fusion_lat": 0.0, "lon": -76.99775383333333, "name": "ea62d42b22f8d41c27361348185fad0c"}, {"bike_id": "12d76de322373eb0f6c48b5e512e0756", "type": "electric_scooter", "is_disabled": 0, "lat": 38.9067745, "rental_uris": {"ios": "https://dc.lft.to/lastmile_qr_scan", "android": "https://dc.lft.to/lastmile_qr_scan"}, "is_reserved": 0, "fusion_lon": 0.0, "fusion_lat": 0.0, "lon": -77.07125733333334, "name": "12d76de322373eb0f6c48b5e512e0756"}, {"bike_id": "122b86811fd37d81bc46a22a9cdec0f1", "type": "electric_scooter", "is_disabled": 0, "lat": 38.8935705, "rental_uris": {"ios": "https://dc.lft.to/lastmile_qr_scan", "android": "https://dc.lft.to/lastmile_qr_scan"}, "is_reserved": 0, "fusion_lon": 0.0, "fusion_lat": 0.0, "lon": -76.9493345, "name": "122b86811fd37d81bc46a22a9cdec0f1"}, {"bike_id": "9d2941ec13e0adb71061f0e6fb350366", "type": "electric_scooter", "is_disabled": 0, "lat": 38.92188933333333, "rental_uris": {"ios": "https://dc.lft.to/lastmile_qr_scan", "android": "https://dc.lft.to/lastmile_qr_scan"}, "is_reserved": 0, "fusion_lon": 0.0, "fusion_lat": 0.0, "lon": -76.993653, "name": "9d2941ec13e0adb71061f0e6fb350366"}, {"bike_id": "4283cf67a818f0b57acf89a85c6e000d", "type": "electric_scooter", "is_disabled": 0, "lat": 38.8617155, "rental_uris": {"ios": "https://dc.lft.to/lastmile_qr_scan", "android": "https://dc.lft.to/lastmile_qr_scan"}, "is_reserved": 0, "fusion_lon": 0.0, "fusion_lat": 0.0, "lon": -77.0880485, "name": "4283cf67a818f0b57acf89a85c6e000d"}, {"bike_id": "611f88b74e3d493b49da878bd0de4a30", "type": "electric_scooter", "is_disabled": 0, "lat": 38.910367666666666, "rental_uris": {"ios": "https://dc.lft.to/lastmile_qr_scan", "android": "https://dc.lft.to/lastmile_qr_scan"}, "is_reserved": 0, "fusion_lon": 0.0, "fusion_lat": 0.0, "lon": -77.00892666666667, "name": "611f88b74e3d493b49da878bd0de4a30"}, {"bike_id": "1a9f276f165f0132cb5607b501f988e0", "type": "electric_scooter", "is_disabled": 0, "lat": 38.916118833333336, "rental_uris": {"ios": "https://dc.lft.to/lastmile_qr_scan", "android": "https://dc.lft.to/lastmile_qr_scan"}, "is_reserved": 0, "fusion_lon": 0.0, "fusion_lat": 0.0, "lon": -77.02388033333334, "name": "1a9f276f165f0132cb5607b501f988e0"}, {"bike_id": "9c1e9f7499916873d76b4ef16c4ca595", "type": "electric_scooter", "is_disabled": 0, "lat": 38.901301, "rental_uris": {"ios": "https://dc.lft.to/lastmile_qr_scan", "android": "https://dc.lft.to/lastmile_qr_scan"}, "is_reserved": 0, "fusion_lon": 0.0, "fusion_lat": 0.0, "lon": -77.02438416666666, "name": "9c1e9f7499916873d76b4ef16c4ca595"}, {"bike_id": "76d7608e01a539967c31e9c657d349d0", "type": "electric_scooter", "is_disabled": 0, "lat": 38.88474016666667, "rental_uris": {"ios": "https://dc.lft.to/lastmile_qr_scan", "android": "https://dc.lft.to/lastmile_qr_scan"}, "is_reserved": 0, "fusion_lon": 0.0, "fusion_lat": 0.0, "lon": -77.02367966666667, "name": "76d7608e01a539967c31e9c657d349d0"}, {"bike_id": "ea1427a261d71167ced82845aec48302", "type": "electric_scooter", "is_disabled": 0, "lat": 38.915319833333335, "rental_uris": {"ios": "https://dc.lft.to/lastmile_qr_scan", "android": "https://dc.lft.to/lastmile_qr_scan"}, "is_reserved": 0, "fusion_lon": 0.0, "fusion_lat": 0.0, "lon": -76.97008833333334, "name": "ea1427a261d71167ced82845aec48302"}, {"bike_id": "3519423d328208fe177b0d586838f86c", "type": "electric_scooter", "is_disabled": 0, "lat": 38.90889933333333, "rental_uris": {"ios": "https://dc.lft.to/lastmile_qr_scan", "android": "https://dc.lft.to/lastmile_qr_scan"}, "is_reserved": 0, "fusion_lon": 0.0, "fusion_lat": 0.0, "lon": -76.99861066666666, "name": "3519423d328208fe177b0d586838f86c"}, {"bike_id": "af22aea0f7d6758abbd6c85ec7994ef2", "type": "electric_scooter", "is_disabled": 0, "lat": 38.905585, "rental_uris": {"ios": "https://dc.lft.to/lastmile_qr_scan", "android": "https://dc.lft.to/lastmile_qr_scan"}, "is_reserved": 0, "fusion_lon": 0.0, "fusion_lat": 0.0, "lon": -77.028422, "name": "af22aea0f7d6758abbd6c85ec7994ef2"}, {"bike_id": "f66dcf5bd364e03b43c92bb934304afc", "type": "electric_scooter", "is_disabled": 0, "lat": 38.8953135, "rental_uris": {"ios": "https://dc.lft.to/lastmile_qr_scan", "android": "https://dc.lft.to/lastmile_qr_scan"}, "is_reserved": 0, "fusion_lon": 0.0, "fusion_lat": 0.0, "lon": -76.94915316666666, "name": "f66dcf5bd364e03b43c92bb934304afc"}, {"bike_id": "e2574ab08202b2b7d388cc59a036e435", "type": "electric_scooter", "is_disabled": 0, "lat": 38.884819, "rental_uris": {"ios": "https://dc.lft.to/lastmile_qr_scan", "android": "https://dc.lft.to/lastmile_qr_scan"}, "is_reserved": 0, "fusion_lon": 0.0, "fusion_lat": 0.0, "lon": -77.02367133333334, "name": "e2574ab08202b2b7d388cc59a036e435"}, {"bike_id": "e5c22ee98f5ff7ef6b3ec28ad7284ca7", "type": "electric_scooter", "is_disabled": 0, "lat": 38.920775666666664, "rental_uris": {"ios": "https://dc.lft.to/lastmile_qr_scan", "android": "https://dc.lft.to/lastmile_qr_scan"}, "is_reserved": 0, "fusion_lon": 0.0, "fusion_lat": 0.0, "lon": -77.01453733333334, "name": "e5c22ee98f5ff7ef6b3ec28ad7284ca7"}, {"bike_id": "04c7443d7a7b62c8380e74720035697b", "type": "electric_scooter", "is_disabled": 0, "lat": 38.937027666666665, "rental_uris": {"ios": "https://dc.lft.to/lastmile_qr_scan", "android": "https://dc.lft.to/lastmile_qr_scan"}, "is_reserved": 0, "fusion_lon": 0.0, "fusion_lat": 0.0, "lon": -77.03283683333333, "name": "04c7443d7a7b62c8380e74720035697b"}, {"bike_id": "5e7d17540ad685b6b2d18acfec0eddb9", "type": "electric_scooter", "is_disabled": 0, "lat": 38.90829183333334, "rental_uris": {"ios": "https://dc.lft.to/lastmile_qr_scan", "android": "https://dc.lft.to/lastmile_qr_scan"}, "is_reserved": 0, "fusion_lon": 0.0, "fusion_lat": 0.0, "lon": -77.038515, "name": "5e7d17540ad685b6b2d18acfec0eddb9"}, {"bike_id": "9aece48f447f7c7e099b939848fa5215", "type": "electric_scooter", "is_disabled": 0, "lat": 38.90265633333333, "rental_uris": {"ios": "https://dc.lft.to/lastmile_qr_scan", "android": "https://dc.lft.to/lastmile_qr_scan"}, "is_reserved": 0, "fusion_lon": 0.0, "fusion_lat": 0.0, "lon": -77.00332433333334, "name": "9aece48f447f7c7e099b939848fa5215"}, {"bike_id": "dd1bc6be3c115ff6fea2e259b39003df", "type": "electric_scooter", "is_disabled": 0, "lat": 38.90293533333333, "rental_uris": {"ios": "https://dc.lft.to/lastmile_qr_scan", "android": "https://dc.lft.to/lastmile_qr_scan"}, "is_reserved": 0, "fusion_lon": 0.0, "fusion_lat": 0.0, "lon": -77.02437766666667, "name": "dd1bc6be3c115ff6fea2e259b39003df"}, {"bike_id": "820c7a4141518ca7de712a586a3bc2b1", "type": "electric_scooter", "is_disabled": 0, "lat": 38.942895166666666, "rental_uris": {"ios": "https://dc.lft.to/lastmile_qr_scan", "android": "https://dc.lft.to/lastmile_qr_scan"}, "is_reserved": 0, "fusion_lon": 0.0, "fusion_lat": 0.0, "lon": -77.02170333333333, "name": "820c7a4141518ca7de712a586a3bc2b1"}, {"bike_id": "ed567e7fa2dceb6e6973aa16ae884e5e", "type": "electric_scooter", "is_disabled": 0, "lat": 38.901208, "rental_uris": {"ios": "https://dc.lft.to/lastmile_qr_scan", "android": "https://dc.lft.to/lastmile_qr_scan"}, "is_reserved": 0, "fusion_lon": 0.0, "fusion_lat": 0.0, "lon": -77.03859066666666, "name": "ed567e7fa2dceb6e6973aa16ae884e5e"}, {"bike_id": "5963b5f8f704320110c2af2cfbb20bc0", "type": "electric_scooter", "is_disabled": 0, "lat": 38.92747416666667, "rental_uris": {"ios": "https://dc.lft.to/lastmile_qr_scan", "android": "https://dc.lft.to/lastmile_qr_scan"}, "is_reserved": 0, "fusion_lon": 0.0, "fusion_lat": 0.0, "lon": -77.025441, "name": "5963b5f8f704320110c2af2cfbb20bc0"}, {"bike_id": "b525f5ef9856e266114b4ce3706dfcc6", "type": "electric_scooter", "is_disabled": 0, "lat": 38.922658, "rental_uris": {"ios": "https://dc.lft.to/lastmile_qr_scan", "android": "https://dc.lft.to/lastmile_qr_scan"}, "is_reserved": 0, "fusion_lon": 0.0, "fusion_lat": 0.0, "lon": -76.99430866666667, "name": "b525f5ef9856e266114b4ce3706dfcc6"}, {"bike_id": "4b2ae49bb5c4494b872c7fb20bd63e16", "type": "electric_scooter", "is_disabled": 0, "lat": 38.9171535, "rental_uris": {"ios": "https://dc.lft.to/lastmile_qr_scan", "android": "https://dc.lft.to/lastmile_qr_scan"}, "is_reserved": 0, "fusion_lon": 0.0, "fusion_lat": 0.0, "lon": -77.02972583333333, "name": "4b2ae49bb5c4494b872c7fb20bd63e16"}, {"bike_id": "2dc887f107ca91fb8651fb0cfef933c7", "type": "electric_scooter", "is_disabled": 0, "lat": 38.9238285, "rental_uris": {"ios": "https://dc.lft.to/lastmile_qr_scan", "android": "https://dc.lft.to/lastmile_qr_scan"}, "is_reserved": 0, "fusion_lon": 0.0, "fusion_lat": 0.0, "lon": -77.0365765, "name": "2dc887f107ca91fb8651fb0cfef933c7"}, {"bike_id": "dc67e5e51db5f948f14728cb12d702c0", "type": "electric_scooter", "is_disabled": 0, "lat": 38.902641833333334, "rental_uris": {"ios": "https://dc.lft.to/lastmile_qr_scan", "android": "https://dc.lft.to/lastmile_qr_scan"}, "is_reserved": 0, "fusion_lon": 0.0, "fusion_lat": 0.0, "lon": -77.00337766666667, "name": "dc67e5e51db5f948f14728cb12d702c0"}, {"bike_id": "1fe27b3452f5d8e5c181f2c1bb4104c4", "type": "electric_scooter", "is_disabled": 0, "lat": 38.9215185, "rental_uris": {"ios": "https://dc.lft.to/lastmile_qr_scan", "android": "https://dc.lft.to/lastmile_qr_scan"}, "is_reserved": 0, "fusion_lon": 0.0, "fusion_lat": 0.0, "lon": -77.03531416666667, "name": "1fe27b3452f5d8e5c181f2c1bb4104c4"}, {"bike_id": "22b49e4279b5a3628e7d87d93e7ca851", "type": "electric_bike", "is_disabled": 0, "lat": 38.853544666666664, "rental_uris": {"ios": "https://dc.lft.to/lastmile_qr_scan", "android": "https://dc.lft.to/lastmile_qr_scan"}, "is_reserved": 0, "fusion_lon": 0.0, "fusion_lat": 0.0, "lon": -77.13467383333334, "name": "22b49e4279b5a3628e7d87d93e7ca851"}, {"bike_id": "fe017f591e72995ca7fa2ed4ee4b1873", "type": "electric_scooter", "is_disabled": 0, "lat": 38.906462, "rental_uris": {"ios": "https://dc.lft.to/lastmile_qr_scan", "android": "https://dc.lft.to/lastmile_qr_scan"}, "is_reserved": 0, "fusion_lon": 0.0, "fusion_lat": 0.0, "lon": -77.02961733333333, "name": "fe017f591e72995ca7fa2ed4ee4b1873"}, {"bike_id": "4f2d1959b42e72f70fcbb6379ddd10e0", "type": "electric_scooter", "is_disabled": 0, "lat": 38.88810083333333, "rental_uris": {"ios": "https://dc.lft.to/lastmile_qr_scan", "android": "https://dc.lft.to/lastmile_qr_scan"}, "is_reserved": 0, "fusion_lon": 0.0, "fusion_lat": 0.0, "lon": -76.93345416666666, "name": "4f2d1959b42e72f70fcbb6379ddd10e0"}, {"bike_id": "144267909450aa87f622cf69d770ab28", "type": "electric_scooter", "is_disabled": 0, "lat": 38.87842666666667, "rental_uris": {"ios": "https://dc.lft.to/lastmile_qr_scan", "android": "https://dc.lft.to/lastmile_qr_scan"}, "is_reserved": 0, "fusion_lon": 0.0, "fusion_lat": 0.0, "lon": -77.01964016666666, "name": "144267909450aa87f622cf69d770ab28"}, {"bike_id": "284e72776f1475b5ead6ae0ef27d845c", "type": "electric_scooter", "is_disabled": 0, "lat": 38.942001, "rental_uris": {"ios": "https://dc.lft.to/lastmile_qr_scan", "android": "https://dc.lft.to/lastmile_qr_scan"}, "is_reserved": 0, "fusion_lon": 0.0, "fusion_lat": 0.0, "lon": -77.02352066666667, "name": "284e72776f1475b5ead6ae0ef27d845c"}, {"bike_id": "3a92ae4d3ac38028eb536f3a37fb1db8", "type": "electric_bike", "is_disabled": 0, "lat": 38.904992666666665, "rental_uris": {"ios": "https://dc.lft.to/lastmile_qr_scan", "android": "https://dc.lft.to/lastmile_qr_scan"}, "is_reserved": 0, "fusion_lon": 0.0, "fusion_lat": 0.0, "lon": -76.99761666666667, "name": "3a92ae4d3ac38028eb536f3a37fb1db8"}, {"bike_id": "c7ea5c65da596d563eca1d40688b0fbe", "type": "electric_bike", "is_disabled": 0, "lat": 38.87288083333333, "rental_uris": {"ios": "https://dc.lft.to/lastmile_qr_scan", "android": "https://dc.lft.to/lastmile_qr_scan"}, "is_reserved": 0, "fusion_lon": 0.0, "fusion_lat": 0.0, "lon": -77.13927533333333, "name": "c7ea5c65da596d563eca1d40688b0fbe"}, {"bike_id": "bbfa615e4bbf659c16cb74530c14baae", "type": "electric_scooter", "is_disabled": 0, "lat": 38.910498, "rental_uris": {"ios": "https://dc.lft.to/lastmile_qr_scan", "android": "https://dc.lft.to/lastmile_qr_scan"}, "is_reserved": 0, "fusion_lon": 0.0, "fusion_lat": 0.0, "lon": -77.04492083333334, "name": "bbfa615e4bbf659c16cb74530c14baae"}, {"bike_id": "9e22bb3cef539a8d89a56755a4aabfb3", "type": "electric_scooter", "is_disabled": 0, "lat": 38.935925166666664, "rental_uris": {"ios": "https://dc.lft.to/lastmile_qr_scan", "android": "https://dc.lft.to/lastmile_qr_scan"}, "is_reserved": 0, "fusion_lon": 0.0, "fusion_lat": 0.0, "lon": -77.03815333333333, "name": "9e22bb3cef539a8d89a56755a4aabfb3"}, {"bike_id": "5e4529643425bdef3320819fb7b43dad", "type": "electric_scooter", "is_disabled": 0, "lat": 38.9361605, "rental_uris": {"ios": "https://dc.lft.to/lastmile_qr_scan", "android": "https://dc.lft.to/lastmile_qr_scan"}, "is_reserved": 0, "fusion_lon": 0.0, "fusion_lat": 0.0, "lon": -77.06757833333333, "name": "5e4529643425bdef3320819fb7b43dad"}, {"bike_id": "cc5a5ea057b5bff658400ed2b7f76742", "type": "electric_scooter", "is_disabled": 0, "lat": 38.91571583333333, "rental_uris": {"ios": "https://dc.lft.to/lastmile_qr_scan", "android": "https://dc.lft.to/lastmile_qr_scan"}, "is_reserved": 0, "fusion_lon": 0.0, "fusion_lat": 0.0, "lon": -77.04610733333334, "name": "cc5a5ea057b5bff658400ed2b7f76742"}, {"bike_id": "b195745c80434f8ac40d10ff05200fc0", "type": "electric_scooter", "is_disabled": 0, "lat": 38.900432, "rental_uris": {"ios": "https://dc.lft.to/lastmile_qr_scan", "android": "https://dc.lft.to/lastmile_qr_scan"}, "is_reserved": 0, "fusion_lon": 0.0, "fusion_lat": 0.0, "lon": -76.988402, "name": "b195745c80434f8ac40d10ff05200fc0"}, {"bike_id": "aaba33e4f0c8ec0224a4e6b14433bdb1", "type": "electric_scooter", "is_disabled": 0, "lat": 38.899580666666665, "rental_uris": {"ios": "https://dc.lft.to/lastmile_qr_scan", "android": "https://dc.lft.to/lastmile_qr_scan"}, "is_reserved": 0, "fusion_lon": 0.0, "fusion_lat": 0.0, "lon": -77.02124216666667, "name": "aaba33e4f0c8ec0224a4e6b14433bdb1"}, {"bike_id": "3461f35c1ca671fad1fdc8a859b5f5dc", "type": "electric_scooter", "is_disabled": 0, "lat": 38.92576916666667, "rental_uris": {"ios": "https://dc.lft.to/lastmile_qr_scan", "android": "https://dc.lft.to/lastmile_qr_scan"}, "is_reserved": 0, "fusion_lon": 0.0, "fusion_lat": 0.0, "lon": -77.0392915, "name": "3461f35c1ca671fad1fdc8a859b5f5dc"}, {"bike_id": "dbba2e00bbd4d60a9193f9b49d6af4d8", "type": "electric_scooter", "is_disabled": 0, "lat": 38.9077475, "rental_uris": {"ios": "https://dc.lft.to/lastmile_qr_scan", "android": "https://dc.lft.to/lastmile_qr_scan"}, "is_reserved": 0, "fusion_lon": 0.0, "fusion_lat": 0.0, "lon": -77.01209416666667, "name": "dbba2e00bbd4d60a9193f9b49d6af4d8"}, {"bike_id": "0ce8cd3e02777e745039922c119ffea1", "type": "electric_scooter", "is_disabled": 0, "lat": 38.95196583333333, "rental_uris": {"ios": "https://dc.lft.to/lastmile_qr_scan", "android": "https://dc.lft.to/lastmile_qr_scan"}, "is_reserved": 0, "fusion_lon": 0.0, "fusion_lat": 0.0, "lon": -77.06788366666666, "name": "0ce8cd3e02777e745039922c119ffea1"}, {"bike_id": "e1963e2b4cc59fdc72fdf6de3d1959fe", "type": "electric_scooter", "is_disabled": 0, "lat": 38.91580316666666, "rental_uris": {"ios": "https://dc.lft.to/lastmile_qr_scan", "android": "https://dc.lft.to/lastmile_qr_scan"}, "is_reserved": 0, "fusion_lon": 0.0, "fusion_lat": 0.0, "lon": -77.01138516666667, "name": "e1963e2b4cc59fdc72fdf6de3d1959fe"}, {"bike_id": "12bcb0b3723c574d297603b26f866b12", "type": "electric_scooter", "is_disabled": 0, "lat": 38.86657733333333, "rental_uris": {"ios": "https://dc.lft.to/lastmile_qr_scan", "android": "https://dc.lft.to/lastmile_qr_scan"}, "is_reserved": 0, "fusion_lon": 0.0, "fusion_lat": 0.0, "lon": -76.9888645, "name": "12bcb0b3723c574d297603b26f866b12"}, {"bike_id": "da4ddfa1a9040558fa07618c1bd16dd2", "type": "electric_scooter", "is_disabled": 0, "lat": 38.9102385, "rental_uris": {"ios": "https://dc.lft.to/lastmile_qr_scan", "android": "https://dc.lft.to/lastmile_qr_scan"}, "is_reserved": 0, "fusion_lon": 0.0, "fusion_lat": 0.0, "lon": -76.98661, "name": "da4ddfa1a9040558fa07618c1bd16dd2"}, {"bike_id": "30ae2a899514791fdbf68af01c526f52", "type": "electric_scooter", "is_disabled": 0, "lat": 38.904022166666664, "rental_uris": {"ios": "https://dc.lft.to/lastmile_qr_scan", "android": "https://dc.lft.to/lastmile_qr_scan"}, "is_reserved": 0, "fusion_lon": 0.0, "fusion_lat": 0.0, "lon": -77.06766883333333, "name": "30ae2a899514791fdbf68af01c526f52"}, {"bike_id": "03324b3b19019560b0abad51e5ba0e3e", "type": "electric_scooter", "is_disabled": 0, "lat": 38.95182916666667, "rental_uris": {"ios": "https://dc.lft.to/lastmile_qr_scan", "android": "https://dc.lft.to/lastmile_qr_scan"}, "is_reserved": 0, "fusion_lon": 0.0, "fusion_lat": 0.0, "lon": -77.026137, "name": "03324b3b19019560b0abad51e5ba0e3e"}, {"bike_id": "fc8c71638b497efcef3a959e96a7ab30", "type": "electric_bike", "is_disabled": 0, "lat": 38.9447355, "rental_uris": {"ios": "https://dc.lft.to/lastmile_qr_scan", "android": "https://dc.lft.to/lastmile_qr_scan"}, "is_reserved": 0, "fusion_lon": 0.0, "fusion_lat": 0.0, "lon": -76.98687016666666, "name": "fc8c71638b497efcef3a959e96a7ab30"}, {"bike_id": "f063a548b0b9c2674600d3b95319c2ba", "type": "electric_scooter", "is_disabled": 0, "lat": 38.89829266666667, "rental_uris": {"ios": "https://dc.lft.to/lastmile_qr_scan", "android": "https://dc.lft.to/lastmile_qr_scan"}, "is_reserved": 0, "fusion_lon": 0.0, "fusion_lat": 0.0, "lon": -77.0219915, "name": "f063a548b0b9c2674600d3b95319c2ba"}, {"bike_id": "32679cf8289206b0ac9462ae27e1e747", "type": "electric_scooter", "is_disabled": 0, "lat": 38.915319, "rental_uris": {"ios": "https://dc.lft.to/lastmile_qr_scan", "android": "https://dc.lft.to/lastmile_qr_scan"}, "is_reserved": 0, "fusion_lon": 0.0, "fusion_lat": 0.0, "lon": -77.04471083333334, "name": "32679cf8289206b0ac9462ae27e1e747"}, {"bike_id": "2c1ad785bb71eae685f7ce341a086e26", "type": "electric_bike", "is_disabled": 0, "lat": 38.84919816666667, "rental_uris": {"ios": "https://dc.lft.to/lastmile_qr_scan", "android": "https://dc.lft.to/lastmile_qr_scan"}, "is_reserved": 0, "fusion_lon": 0.0, "fusion_lat": 0.0, "lon": -77.07779766666667, "name": "2c1ad785bb71eae685f7ce341a086e26"}, {"bike_id": "d78422e34d7734b6993994ac9002028a", "type": "electric_scooter", "is_disabled": 0, "lat": 38.90813266666667, "rental_uris": {"ios": "https://dc.lft.to/lastmile_qr_scan", "android": "https://dc.lft.to/lastmile_qr_scan"}, "is_reserved": 0, "fusion_lon": 0.0, "fusion_lat": 0.0, "lon": -77.0434885, "name": "d78422e34d7734b6993994ac9002028a"}, {"bike_id": "81e2f5181537fec63717f0f9988e3912", "type": "electric_scooter", "is_disabled": 0, "lat": 38.90406816666667, "rental_uris": {"ios": "https://dc.lft.to/lastmile_qr_scan", "android": "https://dc.lft.to/lastmile_qr_scan"}, "is_reserved": 0, "fusion_lon": 0.0, "fusion_lat": 0.0, "lon": -76.97332816666666, "name": "81e2f5181537fec63717f0f9988e3912"}, {"bike_id": "93ec337cb6290c0013c85287de188c5e", "type": "electric_scooter", "is_disabled": 0, "lat": 38.92902633333333, "rental_uris": {"ios": "https://dc.lft.to/lastmile_qr_scan", "android": "https://dc.lft.to/lastmile_qr_scan"}, "is_reserved": 0, "fusion_lon": 0.0, "fusion_lat": 0.0, "lon": -77.0226515, "name": "93ec337cb6290c0013c85287de188c5e"}, {"bike_id": "211402568f0a23ce722fba9df82c0a5a", "type": "electric_scooter", "is_disabled": 0, "lat": 38.9180475, "rental_uris": {"ios": "https://dc.lft.to/lastmile_qr_scan", "android": "https://dc.lft.to/lastmile_qr_scan"}, "is_reserved": 0, "fusion_lon": 0.0, "fusion_lat": 0.0, "lon": -77.03170016666667, "name": "211402568f0a23ce722fba9df82c0a5a"}, {"bike_id": "844de4cc07d3957396c6ab1cbce768b7", "type": "electric_scooter", "is_disabled": 0, "lat": 38.944636, "rental_uris": {"ios": "https://dc.lft.to/lastmile_qr_scan", "android": "https://dc.lft.to/lastmile_qr_scan"}, "is_reserved": 0, "fusion_lon": 0.0, "fusion_lat": 0.0, "lon": -77.006609, "name": "844de4cc07d3957396c6ab1cbce768b7"}, {"bike_id": "1afc45840489b114df54b74b19d1c80c", "type": "electric_scooter", "is_disabled": 0, "lat": 38.92553483333333, "rental_uris": {"ios": "https://dc.lft.to/lastmile_qr_scan", "android": "https://dc.lft.to/lastmile_qr_scan"}, "is_reserved": 0, "fusion_lon": 0.0, "fusion_lat": 0.0, "lon": -77.04373066666666, "name": "1afc45840489b114df54b74b19d1c80c"}, {"bike_id": "70784c76497e9c95cab1700888897fb9", "type": "electric_scooter", "is_disabled": 0, "lat": 38.936033333333334, "rental_uris": {"ios": "https://dc.lft.to/lastmile_qr_scan", "android": "https://dc.lft.to/lastmile_qr_scan"}, "is_reserved": 0, "fusion_lon": 0.0, "fusion_lat": 0.0, "lon": -77.05855233333334, "name": "70784c76497e9c95cab1700888897fb9"}, {"bike_id": "eb16b4e1f55973265f1b88976b6e58a5", "type": "electric_scooter", "is_disabled": 0, "lat": 38.924023166666665, "rental_uris": {"ios": "https://dc.lft.to/lastmile_qr_scan", "android": "https://dc.lft.to/lastmile_qr_scan"}, "is_reserved": 0, "fusion_lon": 0.0, "fusion_lat": 0.0, "lon": -77.02016366666666, "name": "eb16b4e1f55973265f1b88976b6e58a5"}, {"bike_id": "72e89adacbe0245c3f4167f412803c8c", "type": "electric_scooter", "is_disabled": 0, "lat": 38.899798, "rental_uris": {"ios": "https://dc.lft.to/lastmile_qr_scan", "android": "https://dc.lft.to/lastmile_qr_scan"}, "is_reserved": 0, "fusion_lon": 0.0, "fusion_lat": 0.0, "lon": -77.02182216666667, "name": "72e89adacbe0245c3f4167f412803c8c"}, {"bike_id": "1196c6ced630fa1d3f06806e31ecc346", "type": "electric_scooter", "is_disabled": 0, "lat": 38.926095, "rental_uris": {"ios": "https://dc.lft.to/lastmile_qr_scan", "android": "https://dc.lft.to/lastmile_qr_scan"}, "is_reserved": 0, "fusion_lon": 0.0, "fusion_lat": 0.0, "lon": -77.02408633333333, "name": "1196c6ced630fa1d3f06806e31ecc346"}, {"bike_id": "84ae6bffe19c359e26e9e41dbffb5961", "type": "electric_scooter", "is_disabled": 0, "lat": 38.892187666666665, "rental_uris": {"ios": "https://dc.lft.to/lastmile_qr_scan", "android": "https://dc.lft.to/lastmile_qr_scan"}, "is_reserved": 0, "fusion_lon": 0.0, "fusion_lat": 0.0, "lon": -77.02586433333333, "name": "84ae6bffe19c359e26e9e41dbffb5961"}, {"bike_id": "05afb8f67400510258975571f0151f2d", "type": "electric_scooter", "is_disabled": 0, "lat": 38.901823666666665, "rental_uris": {"ios": "https://dc.lft.to/lastmile_qr_scan", "android": "https://dc.lft.to/lastmile_qr_scan"}, "is_reserved": 0, "fusion_lon": 0.0, "fusion_lat": 0.0, "lon": -76.982301, "name": "05afb8f67400510258975571f0151f2d"}, {"bike_id": "0ad5532087838c6f433a88463f034d46", "type": "electric_scooter", "is_disabled": 0, "lat": 38.913319666666666, "rental_uris": {"ios": "https://dc.lft.to/lastmile_qr_scan", "android": "https://dc.lft.to/lastmile_qr_scan"}, "is_reserved": 0, "fusion_lon": 0.0, "fusion_lat": 0.0, "lon": -77.04731866666667, "name": "0ad5532087838c6f433a88463f034d46"}, {"bike_id": "ec904352504aed50095ee21cec6104fb", "type": "electric_scooter", "is_disabled": 0, "lat": 38.92066833333333, "rental_uris": {"ios": "https://dc.lft.to/lastmile_qr_scan", "android": "https://dc.lft.to/lastmile_qr_scan"}, "is_reserved": 0, "fusion_lon": 0.0, "fusion_lat": 0.0, "lon": -77.023754, "name": "ec904352504aed50095ee21cec6104fb"}, {"bike_id": "2858523fd538cf52520f0c2bc2fdfde1", "type": "electric_scooter", "is_disabled": 0, "lat": 38.880982333333336, "rental_uris": {"ios": "https://dc.lft.to/lastmile_qr_scan", "android": "https://dc.lft.to/lastmile_qr_scan"}, "is_reserved": 0, "fusion_lon": 0.0, "fusion_lat": 0.0, "lon": -76.99847833333334, "name": "2858523fd538cf52520f0c2bc2fdfde1"}, {"bike_id": "dcf694a1d1a019aae5a18692609af367", "type": "electric_scooter", "is_disabled": 0, "lat": 38.914280833333336, "rental_uris": {"ios": "https://dc.lft.to/lastmile_qr_scan", "android": "https://dc.lft.to/lastmile_qr_scan"}, "is_reserved": 0, "fusion_lon": 0.0, "fusion_lat": 0.0, "lon": -77.0321365, "name": "dcf694a1d1a019aae5a18692609af367"}, {"bike_id": "f6388c01cdbc8a269ddfb770a99e44f4", "type": "electric_scooter", "is_disabled": 0, "lat": 38.90526083333334, "rental_uris": {"ios": "https://dc.lft.to/lastmile_qr_scan", "android": "https://dc.lft.to/lastmile_qr_scan"}, "is_reserved": 0, "fusion_lon": 0.0, "fusion_lat": 0.0, "lon": -77.00689366666667, "name": "f6388c01cdbc8a269ddfb770a99e44f4"}, {"bike_id": "f52ecc068fef94a733c37156e4c564b0", "type": "electric_scooter", "is_disabled": 0, "lat": 38.902203, "rental_uris": {"ios": "https://dc.lft.to/lastmile_qr_scan", "android": "https://dc.lft.to/lastmile_qr_scan"}, "is_reserved": 0, "fusion_lon": 0.0, "fusion_lat": 0.0, "lon": -77.02214816666667, "name": "f52ecc068fef94a733c37156e4c564b0"}, {"bike_id": "9f4cec200a311b4e3c32542cb5863125", "type": "electric_scooter", "is_disabled": 0, "lat": 38.956306, "rental_uris": {"ios": "https://dc.lft.to/lastmile_qr_scan", "android": "https://dc.lft.to/lastmile_qr_scan"}, "is_reserved": 0, "fusion_lon": 0.0, "fusion_lat": 0.0, "lon": -77.02778016666667, "name": "9f4cec200a311b4e3c32542cb5863125"}, {"bike_id": "c52d9fda12cdc0fbc3766371f137788c", "type": "electric_scooter", "is_disabled": 0, "lat": 38.866365333333334, "rental_uris": {"ios": "https://dc.lft.to/lastmile_qr_scan", "android": "https://dc.lft.to/lastmile_qr_scan"}, "is_reserved": 0, "fusion_lon": 0.0, "fusion_lat": 0.0, "lon": -76.98262366666667, "name": "c52d9fda12cdc0fbc3766371f137788c"}, {"bike_id": "7aef34e8b1ea1528396e1480b5d37c78", "type": "electric_bike", "is_disabled": 0, "lat": 38.884040666666664, "rental_uris": {"ios": "https://dc.lft.to/lastmile_qr_scan", "android": "https://dc.lft.to/lastmile_qr_scan"}, "is_reserved": 0, "fusion_lon": 0.0, "fusion_lat": 0.0, "lon": -76.96059883333334, "name": "7aef34e8b1ea1528396e1480b5d37c78"}, {"bike_id": "2fc0dc9725fb9c6ddc186d8f134e313f", "type": "electric_scooter", "is_disabled": 0, "lat": 38.95851583333334, "rental_uris": {"ios": "https://dc.lft.to/lastmile_qr_scan", "android": "https://dc.lft.to/lastmile_qr_scan"}, "is_reserved": 0, "fusion_lon": 0.0, "fusion_lat": 0.0, "lon": -77.02798066666666, "name": "2fc0dc9725fb9c6ddc186d8f134e313f"}, {"bike_id": "c6c28626d043e08028e3171f6e667b84", "type": "electric_scooter", "is_disabled": 0, "lat": 38.91277133333333, "rental_uris": {"ios": "https://dc.lft.to/lastmile_qr_scan", "android": "https://dc.lft.to/lastmile_qr_scan"}, "is_reserved": 0, "fusion_lon": 0.0, "fusion_lat": 0.0, "lon": -77.019777, "name": "c6c28626d043e08028e3171f6e667b84"}, {"bike_id": "014b1c7ad4eea8864a8526e7604845d0", "type": "electric_scooter", "is_disabled": 0, "lat": 38.91731083333333, "rental_uris": {"ios": "https://dc.lft.to/lastmile_qr_scan", "android": "https://dc.lft.to/lastmile_qr_scan"}, "is_reserved": 0, "fusion_lon": 0.0, "fusion_lat": 0.0, "lon": -77.036402, "name": "014b1c7ad4eea8864a8526e7604845d0"}, {"bike_id": "428bb66854708311864e88425067e564", "type": "electric_scooter", "is_disabled": 0, "lat": 38.97367533333333, "rental_uris": {"ios": "https://dc.lft.to/lastmile_qr_scan", "android": "https://dc.lft.to/lastmile_qr_scan"}, "is_reserved": 0, "fusion_lon": 0.0, "fusion_lat": 0.0, "lon": -77.018531, "name": "428bb66854708311864e88425067e564"}, {"bike_id": "a4b5bb65f2df76bc1f60e332d7c9be37", "type": "electric_scooter", "is_disabled": 0, "lat": 38.89739216666667, "rental_uris": {"ios": "https://dc.lft.to/lastmile_qr_scan", "android": "https://dc.lft.to/lastmile_qr_scan"}, "is_reserved": 0, "fusion_lon": 0.0, "fusion_lat": 0.0, "lon": -77.032318, "name": "a4b5bb65f2df76bc1f60e332d7c9be37"}, {"bike_id": "538ec6842e89065b1752f7af729bce96", "type": "electric_scooter", "is_disabled": 0, "lat": 38.9343425, "rental_uris": {"ios": "https://dc.lft.to/lastmile_qr_scan", "android": "https://dc.lft.to/lastmile_qr_scan"}, "is_reserved": 0, "fusion_lon": 0.0, "fusion_lat": 0.0, "lon": -77.04540766666666, "name": "538ec6842e89065b1752f7af729bce96"},