{"data": {"bikes": [{"rental_uris": {"android": "https://dc.lft.to/lastmile_qr_scan", "ios": "https://dc.lft.to/lastmile_qr_scan"}, "lon": -77.04178333333333, "name": "14cf929239aad46482ad912de6643821", "fusion_lon": 0.0, "bike_id": "14cf929239aad46482ad912de6643821", "is_reserved": 0, "type": "electric_scooter", "lat": 38.902746, "fusion_lat": 0.0, "is_disabled": 0}, {"rental_uris": {"android": "https://dc.lft.to/lastmile_qr_scan", "ios": "https://dc.lft.to/lastmile_qr_scan"}, "lon": -77.03193133333333, "name": "d7c02531230583406b941d60038f0549", "fusion_lon": 0.0, "bike_id": "d7c02531230583406b941d60038f0549", "is_reserved": 0, "type": "electric_scooter", "lat": 38.92480233333333, "fusion_lat": 0.0, "is_disabled": 0}, {"rental_uris": {"android": "https://dc.lft.to/lastmile_qr_scan", "ios": "https://dc.lft.to/lastmile_qr_scan"}, "lon": -77.03228683333333, "name": "52b15d76a841cad3bc3f02d5543992cc", "fusion_lon": 0.0, "bike_id": "52b15d76a841cad3bc3f02d5543992cc", "is_reserved": 0, "type": "electric_scooter", "lat": 38.931355, "fusion_lat": 0.0, "is_disabled": 0}, {"rental_uris": {"android": "https://dc.lft.to/lastmile_qr_scan", "ios": "https://dc.lft.to/lastmile_qr_scan"}, "lon": -77.02193166666666, "name": "8c28750f434cf33f3ac0da1aa4f8f8d7", "fusion_lon": 0.0, "bike_id": "8c28750f434cf33f3ac0da1aa4f8f8d7", "is_reserved": 0, "type": "electric_scooter", "lat": 38.91786616666667, "fusion_lat": 0.0, "is_disabled": 0}, {"rental_uris": {"android": "https://dc.lft.to/lastmile_qr_scan", "ios": "https://dc.lft.to/lastmile_qr_scan"}, "lon": -77.01879466666666, "name": "c3a4f689a7ab20fa4eab574f0ce01bf3", "fusion_lon": 0.0, "bike_id": "c3a4f689a7ab20fa4eab574f0ce01bf3", "is_reserved": 0, "type": "electric_scooter", "lat": 38.95097583333333, "fusion_lat": 0.0, "is_disabled": 0}, {"rental_uris": {"android": "https://dc.lft.to/lastmile_qr_scan", "ios": "https://dc.lft.to/lastmile_qr_scan"}, "lon": -77.02641133333333, "name": "942f54dcf7af3c5a7bdb183e953c9587", "fusion_lon": 0.0, "bike_id": "942f54dcf7af3c5a7bdb183e953c9587", "is_reserved": 0, "type": "electric_scooter", "lat": 38.89966, "fusion_lat": 0.0, "is_disabled": 0}, {"rental_uris": {"android": "https://dc.lft.to/lastmile_qr_scan", "ios": "https://dc.lft.to/lastmile_qr_scan"}, "lon": -77.00587666666667, "name": "da902a1132ae7eb74e2f88b326bac57b", "fusion_lon": 0.0, "bike_id": "da902a1132ae7eb74e2f88b326bac57b", "is_reserved": 0, "type": "electric_scooter", "lat": 38.87944616666667, "fusion_lat": 0.0, "is_disabled": 0}, {"rental_uris": {"android": "https://dc.lft.to/lastmile_qr_scan", "ios": "https://dc.lft.to/lastmile_qr_scan"}, "lon": -77.02368966666667, "name": "43797af48d5831a05455add308250798", "fusion_lon": 0.0, "bike_id": "43797af48d5831a05455add308250798", "is_reserved": 0, "type": "electric_scooter", "lat": 38.901959166666664, "fusion_lat": 0.0, "is_disabled": 0}, {"rental_uris": {"android": "https://dc.lft.to/lastmile_qr_scan", "ios": "https://dc.lft.to/lastmile_qr_scan"}, "lon": -77.02358266666667, "name": "8c409ff04dd2d3aefbb5bc31a60946f7", "fusion_lon": 0.0, "bike_id": "8c409ff04dd2d3aefbb5bc31a60946f7", "is_reserved": 0, "type": "electric_scooter", "lat": 38.908598833333336, "fusion_lat": 0.0, "is_disabled": 0}, {"rental_uris": {"android": "https://dc.lft.to/lastmile_qr_scan", "ios": "https://dc.lft.to/lastmile_qr_scan"}, "lon": -77.03187033333333, "name": "2bba1c22e7edac8fd02e31192346adf3", "fusion_lon": 0.0, "bike_id": "2bba1c22e7edac8fd02e31192346adf3", "is_reserved": 0, "type": "electric_scooter", "lat": 38.89357833333333, "fusion_lat": 0.0, "is_disabled": 0}, {"rental_uris": {"android": "https://dc.lft.to/lastmile_qr_scan", "ios": "https://dc.lft.to/lastmile_qr_scan"}, "lon": -77.02692966666666, "name": "7286114fc971801aa6ab57e3ea7b5c0c", "fusion_lon": 0.0, "bike_id": "7286114fc971801aa6ab57e3ea7b5c0c", "is_reserved": 0, "type": "electric_scooter", "lat": 38.89807716666667, "fusion_lat": 0.0, "is_disabled": 0}, {"rental_uris": {"android": "https://dc.lft.to/lastmile_qr_scan", "ios": "https://dc.lft.to/lastmile_qr_scan"}, "lon": -77.0090665, "name": "46bdeb42d8e722866a70520f8a7354b3", "fusion_lon": 0.0, "bike_id": "46bdeb42d8e722866a70520f8a7354b3", "is_reserved": 0, "type": "electric_scooter", "lat": 38.97004483333333, "fusion_lat": 0.0, "is_disabled": 0}, {"rental_uris": {"android": "https://dc.lft.to/lastmile_qr_scan", "ios": "https://dc.lft.to/lastmile_qr_scan"}, "lon": -77.03549783333334, "name": "8926d480104d6ce5e1687d724048388b", "fusion_lon": 0.0, "bike_id": "8926d480104d6ce5e1687d724048388b", "is_reserved": 0, "type": "electric_scooter", "lat": 38.927215, "fusion_lat": 0.0, "is_disabled": 0}, {"rental_uris": {"android": "https://dc.lft.to/lastmile_qr_scan", "ios": "https://dc.lft.to/lastmile_qr_scan"}, "lon": -77.01621833333333, "name": "ee10d779aff26f1a56a7530cecc91b9d", "fusion_lon": 0.0, "bike_id": "ee10d779aff26f1a56a7530cecc91b9d", "is_reserved": 0, "type": "electric_scooter", "lat": 38.88129766666667, "fusion_lat": 0.0, "is_disabled": 0}, {"rental_uris": {"android": "https://dc.lft.to/lastmile_qr_scan", "ios": "https://dc.lft.to/lastmile_qr_scan"}, "lon": -77.03635016666667, "name": "08dc8ab256855532e5602da675432f1a", "fusion_lon": 0.0, "bike_id": "08dc8ab256855532e5602da675432f1a", "is_reserved": 0, "type": "electric_scooter", "lat": 38.9036105, "fusion_lat": 0.0, "is_disabled": 0}, {"rental_uris": {"android": "https://dc.lft.to/lastmile_qr_scan", "ios": "https://dc.lft.to/lastmile_qr_scan"}, "lon": -77.03647066666667, "name": "bc6c3edd90318e4271289c257508488b", "fusion_lon": 0.0, "bike_id": "bc6c3edd90318e4271289c257508488b", "is_reserved": 0, "type": "electric_scooter", "lat": 38.905538666666665, "fusion_lat": 0.0, "is_disabled": 0}, {"rental_uris": {"android": "https://dc.lft.to/lastmile_qr_scan", "ios": "https://dc.lft.to/lastmile_qr_scan"}, "lon": -77.04054833333333, "name": "1a27dc37a57fb1444b602635eee43d1f", "fusion_lon": 0.0, "bike_id": "1a27dc37a57fb1444b602635eee43d1f", "is_reserved": 0, "type": "electric_scooter", "lat": 38.89892733333333, "fusion_lat": 0.0, "is_disabled": 0}, {"rental_uris": {"android": "https://dc.lft.to/lastmile_qr_scan", "ios": "https://dc.lft.to/lastmile_qr_scan"}, "lon": -77.02365683333333, "name": "5c7b4736ac147c12f744b61bfb8e5b89", "fusion_lon": 0.0, "bike_id": "5c7b4736ac147c12f744b61bfb8e5b89", "is_reserved": 0, "type": "electric_scooter", "lat": 38.90182133333333, "fusion_lat": 0.0, "is_disabled": 0}, {"rental_uris": {"android": "https://dc.lft.to/lastmile_qr_scan", "ios": "https://dc.lft.to/lastmile_qr_scan"}, "lon": -76.9297515, "name": "e90a5baa561877d71937656865d26d29", "fusion_lon": 0.0, "bike_id": "e90a5baa561877d71937656865d26d29", "is_reserved": 0, "type": "electric_scooter", "lat": 38.89612966666667, "fusion_lat": 0.0, "is_disabled": 0}, {"rental_uris": {"android": "https://dc.lft.to/lastmile_qr_scan", "ios": "https://dc.lft.to/lastmile_qr_scan"}, "lon": -77.020608, "name": "6607eeae1fd3681206f6ccc15d0e7a06", "fusion_lon": 0.0, "bike_id": "6607eeae1fd3681206f6ccc15d0e7a06", "is_reserved": 0, "type": "electric_scooter", "lat": 38.9574525, "fusion_lat": 0.0, "is_disabled": 0}, {"rental_uris": {"android": "https://dc.lft.to/lastmile_qr_scan", "ios": "https://dc.lft.to/lastmile_qr_scan"}, "lon": -76.988214, "name": "bfe96ef3d15466eef8ddc88c691daff6", "fusion_lon": 0.0, "bike_id": "bfe96ef3d15466eef8ddc88c691daff6", "is_reserved": 0, "type": "electric_scooter", "lat": 38.900315666666664, "fusion_lat": 0.0, "is_disabled": 0}, {"rental_uris": {"android": "https://dc.lft.to/lastmile_qr_scan", "ios": "https://dc.lft.to/lastmile_qr_scan"}, "lon": -77.02395416666667, "name": "c564c3874f32ba778ddb80730491feee", "fusion_lon": 0.0, "bike_id": "c564c3874f32ba778ddb80730491feee", "is_reserved": 0, "type": "electric_scooter", "lat": 38.93695983333333, "fusion_lat": 0.0, "is_disabled": 0}, {"rental_uris": {"android": "https://dc.lft.to/lastmile_qr_scan", "ios": "https://dc.lft.to/lastmile_qr_scan"}, "lon": -77.04668183333334, "name": "69d3dd1f0dac6f141e81a0e497a3d19f", "fusion_lon": 0.0, "bike_id": "69d3dd1f0dac6f141e81a0e497a3d19f", "is_reserved": 0, "type": "electric_scooter", "lat": 38.9017355, "fusion_lat": 0.0, "is_disabled": 0}, {"rental_uris": {"android": "https://dc.lft.to/lastmile_qr_scan", "ios": "https://dc.lft.to/lastmile_qr_scan"}, "lon": -76.93479133333334, "name": "03ac91e85e57571abb507531c1a7059c", "fusion_lon": 0.0, "bike_id": "03ac91e85e57571abb507531c1a7059c", "is_reserved": 0, "type": "electric_scooter", "lat": 38.90740866666667, "fusion_lat": 0.0, "is_disabled": 0}, {"rental_uris": {"android": "https://dc.lft.to/lastmile_qr_scan", "ios": "https://dc.lft.to/lastmile_qr_scan"}, "lon": -77.03839166666667, "name": "9cdb37dadf868c03ca14e3a64119a5db", "fusion_lon": 0.0, "bike_id": "9cdb37dadf868c03ca14e3a64119a5db", "is_reserved": 0, "type": "electric_scooter", "lat": 38.91192383333333, "fusion_lat": 0.0, "is_disabled": 0}, {"rental_uris": {"android": "https://dc.lft.to/lastmile_qr_scan", "ios": "https://dc.lft.to/lastmile_qr_scan"}, "lon": -77.01221116666666, "name": "4e586cf92a2236ba0ea84d445fd3635b", "fusion_lon": 0.0, "bike_id": "4e586cf92a2236ba0ea84d445fd3635b", "is_reserved": 0, "type": "electric_scooter", "lat": 38.90384783333333, "fusion_lat": 0.0, "is_disabled": 0}, {"rental_uris": {"android": "https://dc.lft.to/lastmile_qr_scan", "ios": "https://dc.lft.to/lastmile_qr_scan"}, "lon": -77.029735, "name": "8490dffce02d88e415563e93da39e6b7", "fusion_lon": 0.0, "bike_id": "8490dffce02d88e415563e93da39e6b7", "is_reserved": 0, "type": "electric_scooter", "lat": 38.940902333333334, "fusion_lat": 0.0, "is_disabled": 0}, {"rental_uris": {"android": "https://dc.lft.to/lastmile_qr_scan", "ios": "https://dc.lft.to/lastmile_qr_scan"}, "lon": -77.03538566666667, "name": "076cf1ce729faf61df30a9c19752fd11", "fusion_lon": 0.0, "bike_id": "076cf1ce729faf61df30a9c19752fd11", "is_reserved": 0, "type": "electric_scooter", "lat": 38.924080833333335, "fusion_lat": 0.0, "is_disabled": 0}, {"rental_uris": {"android": "https://dc.lft.to/lastmile_qr_scan", "ios": "https://dc.lft.to/lastmile_qr_scan"}, "lon": -77.03169583333333, "name": "03dfa09a3ef66777da30a6a1ae380572", "fusion_lon": 0.0, "bike_id": "03dfa09a3ef66777da30a6a1ae380572", "is_reserved": 0, "type": "electric_scooter", "lat": 38.9192465, "fusion_lat": 0.0, "is_disabled": 0}, {"rental_uris": {"android": "https://dc.lft.to/lastmile_qr_scan", "ios": "https://dc.lft.to/lastmile_qr_scan"}, "lon": -77.032032, "name": "666cff6df95aa1a976c411773adee15e", "fusion_lon": 0.0, "bike_id": "666cff6df95aa1a976c411773adee15e", "is_reserved": 0, "type": "electric_scooter", "lat": 38.93255766666667, "fusion_lat": 0.0, "is_disabled": 0}, {"rental_uris": {"android": "https://dc.lft.to/lastmile_qr_scan", "ios": "https://dc.lft.to/lastmile_qr_scan"}, "lon": -76.94737533333333, "name": "6ae15885d4d69504a1bb4ec6d88a1bbe", "fusion_lon": 0.0, "bike_id": "6ae15885d4d69504a1bb4ec6d88a1bbe", "is_reserved": 0, "type": "electric_scooter", "lat": 38.89681183333333, "fusion_lat": 0.0, "is_disabled": 0}, {"rental_uris": {"android": "https://dc.lft.to/lastmile_qr_scan", "ios": "https://dc.lft.to/lastmile_qr_scan"}, "lon": -76.94695166666666, "name": "c2debad1def6125a1d806e539083d217", "fusion_lon": 0.0, "bike_id": "c2debad1def6125a1d806e539083d217", "is_reserved": 0, "type": "electric_scooter", "lat": 38.897318166666665, "fusion_lat": 0.0, "is_disabled": 0}, {"rental_uris": {"android": "https://dc.lft.to/lastmile_qr_scan", "ios": "https://dc.lft.to/lastmile_qr_scan"}, "lon": -77.191292, "name": "b466d60f73fa3051f28ce3847ac36d45", "fusion_lon": 0.0, "bike_id": "b466d60f73fa3051f28ce3847ac36d45", "is_reserved": 0, "type": "electric_bike", "lat": 38.8945675, "fusion_lat": 0.0, "is_disabled": 0}, {"rental_uris": {"android": "https://dc.lft.to/lastmile_qr_scan", "ios": "https://dc.lft.to/lastmile_qr_scan"}, "lon": -77.04442883333333, "name": "77a813705d988e3f20b7e177793a67a0", "fusion_lon": 0.0, "bike_id": "77a813705d988e3f20b7e177793a67a0", "is_reserved": 0, "type": "electric_scooter", "lat": 38.901323833333336, "fusion_lat": 0.0, "is_disabled": 0}, {"rental_uris": {"android": "https://dc.lft.to/lastmile_qr_scan", "ios": "https://dc.lft.to/lastmile_qr_scan"}, "lon": -77.03352316666667, "name": "476f708ed2273e97b30da0f4d7ce17a1", "fusion_lon": 0.0, "bike_id": "476f708ed2273e97b30da0f4d7ce17a1", "is_reserved": 0, "type": "electric_scooter", "lat": 38.89817883333333, "fusion_lat": 0.0, "is_disabled": 0}, {"rental_uris": {"android": "https://dc.lft.to/lastmile_qr_scan", "ios": "https://dc.lft.to/lastmile_qr_scan"}, "lon": -77.03402283333334, "name": "e43fa100f607bc5739da5a9dccdeaffb", "fusion_lon": 0.0, "bike_id": "e43fa100f607bc5739da5a9dccdeaffb", "is_reserved": 0, "type": "electric_scooter", "lat": 38.9254235, "fusion_lat": 0.0, "is_disabled": 0}, {"rental_uris": {"android": "https://dc.lft.to/lastmile_qr_scan", "ios": "https://dc.lft.to/lastmile_qr_scan"}, "lon": -77.03247616666667, "name": "33995b61e684b28065dc61a257c7b9e0", "fusion_lon": 0.0, "bike_id": "33995b61e684b28065dc61a257c7b9e0", "is_reserved": 0, "type": "electric_scooter", "lat": 38.92153, "fusion_lat": 0.0, "is_disabled": 0}, {"rental_uris": {"android": "https://dc.lft.to/lastmile_qr_scan", "ios": "https://dc.lft.to/lastmile_qr_scan"}, "lon": -76.93038066666666, "name": "6ec79af1106d4dfdb270f314688f0546", "fusion_lon": 0.0, "bike_id": "6ec79af1106d4dfdb270f314688f0546", "is_reserved": 0, "type": "electric_scooter", "lat": 38.883964166666665, "fusion_lat": 0.0, "is_disabled": 0}, {"rental_uris": {"android": "https://dc.lft.to/lastmile_qr_scan", "ios": "https://dc.lft.to/lastmile_qr_scan"}, "lon": -77.034365, "name": "d60ed54a2b6c7dd1f28e52619c68b25b", "fusion_lon": 0.0, "bike_id": "d60ed54a2b6c7dd1f28e52619c68b25b", "is_reserved": 0, "type": "electric_scooter", "lat": 38.917957, "fusion_lat": 0.0, "is_disabled": 0}, {"rental_uris": {"android": "https://dc.lft.to/lastmile_qr_scan", "ios": "https://dc.lft.to/lastmile_qr_scan"}, "lon": -77.03213166666667, "name": "20bb9ef10460b5314d0c0c2e84b0a7d2", "fusion_lon": 0.0, "bike_id": "20bb9ef10460b5314d0c0c2e84b0a7d2", "is_reserved": 0, "type": "electric_scooter", "lat": 38.91420133333333, "fusion_lat": 0.0, "is_disabled": 0}, {"rental_uris": {"android": "https://dc.lft.to/lastmile_qr_scan", "ios": "https://dc.lft.to/lastmile_qr_scan"}, "lon": -77.02295866666667, "name": "2d41e673082519cd9a662ed0e76d5ccf", "fusion_lon": 0.0, "bike_id": "2d41e673082519cd9a662ed0e76d5ccf", "is_reserved": 0, "type": "electric_scooter", "lat": 38.91504, "fusion_lat": 0.0, "is_disabled": 0}, {"rental_uris": {"android": "https://dc.lft.to/lastmile_qr_scan", "ios": "https://dc.lft.to/lastmile_qr_scan"}, "lon": -77.04214983333334, "name": "bbd95cc63eff17d072092ef08115a8c1", "fusion_lon": 0.0, "bike_id": "bbd95cc63eff17d072092ef08115a8c1", "is_reserved": 0, "type": "electric_scooter", "lat": 38.919232666666666, "fusion_lat": 0.0, "is_disabled": 0}, {"rental_uris": {"android": "https://dc.lft.to/lastmile_qr_scan", "ios": "https://dc.lft.to/lastmile_qr_scan"}, "lon": -76.99813116666667, "name": "c590e97cb3589c17b004c77e83afa7d9", "fusion_lon": 0.0, "bike_id": "c590e97cb3589c17b004c77e83afa7d9", "is_reserved": 0, "type": "electric_scooter", "lat": 38.92910666666667, "fusion_lat": 0.0, "is_disabled": 0}, {"rental_uris": {"android": "https://dc.lft.to/lastmile_qr_scan", "ios": "https://dc.lft.to/lastmile_qr_scan"}, "lon": -77.03165833333334, "name": "b3542b8477f4b972a30c7e2383b56dff", "fusion_lon": 0.0, "bike_id": "b3542b8477f4b972a30c7e2383b56dff", "is_reserved": 0, "type": "electric_scooter", "lat": 38.9180605, "fusion_lat": 0.0, "is_disabled": 0}, {"rental_uris": {"android": "https://dc.lft.to/lastmile_qr_scan", "ios": "https://dc.lft.to/lastmile_qr_scan"}, "lon": -77.02578616666666, "name": "cde8582685aa5a90d11079c8e3a0ca44", "fusion_lon": 0.0, "bike_id": "cde8582685aa5a90d11079c8e3a0ca44", "is_reserved": 0, "type": "electric_scooter", "lat": 38.90430283333333, "fusion_lat": 0.0, "is_disabled": 0}, {"rental_uris": {"android": "https://dc.lft.to/lastmile_qr_scan", "ios": "https://dc.lft.to/lastmile_qr_scan"}, "lon": -77.01680833333333, "name": "0a38f8a9da4b4990c40a48433f81d1c8", "fusion_lon": 0.0, "bike_id": "0a38f8a9da4b4990c40a48433f81d1c8", "is_reserved": 0, "type": "electric_scooter", "lat": 38.88103616666667, "fusion_lat": 0.0, "is_disabled": 0}, {"rental_uris": {"android": "https://dc.lft.to/lastmile_qr_scan", "ios": "https://dc.lft.to/lastmile_qr_scan"}, "lon": -77.02219083333334, "name": "83e9548165c67574688a9fb753d2b258", "fusion_lon": 0.0, "bike_id": "83e9548165c67574688a9fb753d2b258", "is_reserved": 0, "type": "electric_scooter", "lat": 38.93392, "fusion_lat": 0.0, "is_disabled": 0}, {"rental_uris": {"android": "https://dc.lft.to/lastmile_qr_scan", "ios": "https://dc.lft.to/lastmile_qr_scan"}, "lon": -76.9762385, "name": "aeb2ee316c2919de7bf7fdf87a2e28fe", "fusion_lon": 0.0, "bike_id": "aeb2ee316c2919de7bf7fdf87a2e28fe", "is_reserved": 0, "type": "electric_bike", "lat": 38.8403875, "fusion_lat": 0.0, "is_disabled": 0}, {"rental_uris": {"android": "https://dc.lft.to/lastmile_qr_scan", "ios": "https://dc.lft.to/lastmile_qr_scan"}, "lon": -77.00226083333334, "name": "ecfa1eb739401aface14d7b104a1ebed", "fusion_lon": 0.0, "bike_id": "ecfa1eb739401aface14d7b104a1ebed", "is_reserved": 0, "type": "electric_scooter", "lat": 38.9071655, "fusion_lat": 0.0, "is_disabled": 0}, {"rental_uris": {"android": "https://dc.lft.to/lastmile_qr_scan", "ios": "https://dc.lft.to/lastmile_qr_scan"}, "lon": -77.04229816666667, "name": "d1b20e6685f805c6bf18f23defe23efa", "fusion_lon": 0.0, "bike_id": "d1b20e6685f805c6bf18f23defe23efa", "is_reserved": 0, "type": "electric_scooter", "lat": 38.92181866666667, "fusion_lat": 0.0, "is_disabled": 0}, {"rental_uris": {"android": "https://dc.lft.to/lastmile_qr_scan", "ios": "https://dc.lft.to/lastmile_qr_scan"}, "lon": -76.98289666666666, "name": "940014a9d2443803092284ec81481324", "fusion_lon": 0.0, "bike_id": "940014a9d2443803092284ec81481324", "is_reserved": 0, "type": "electric_scooter", "lat": 38.89545566666666, "fusion_lat": 0.0, "is_disabled": 0}, {"rental_uris": {"android": "https://dc.lft.to/lastmile_qr_scan", "ios": "https://dc.lft.to/lastmile_qr_scan"}, "lon": -77.01279183333334, "name": "f71a3364a91eb661c2c7c4a69527b4e9", "fusion_lon": 0.0, "bike_id": "f71a3364a91eb661c2c7c4a69527b4e9", "is_reserved": 0, "type": "electric_scooter", "lat": 38.956543333333336, "fusion_lat": 0.0, "is_disabled": 0}, {"rental_uris": {"android": "https://dc.lft.to/lastmile_qr_scan", "ios": "https://dc.lft.to/lastmile_qr_scan"}, "lon": -77.01198033333333, "name": "c960e8205b86ecf03342b4cdf241db88", "fusion_lon": 0.0, "bike_id": "c960e8205b86ecf03342b4cdf241db88", "is_reserved": 0, "type": "electric_scooter", "lat": 38.8979335, "fusion_lat": 0.0, "is_disabled": 0}, {"rental_uris": {"android": "https://dc.lft.to/lastmile_qr_scan", "ios": "https://dc.lft.to/lastmile_qr_scan"}, "lon": -77.018705, "name": "4b06fe220300fb30be743635b906fb2c", "fusion_lon": 0.0, "bike_id": "4b06fe220300fb30be743635b906fb2c", "is_reserved": 0, "type": "electric_scooter", "lat": 38.897445166666664, "fusion_lat": 0.0, "is_disabled": 0}, {"rental_uris": {"android": "https://dc.lft.to/lastmile_qr_scan", "ios": "https://dc.lft.to/lastmile_qr_scan"}, "lon": -77.03840116666667, "name": "b050ccb3bc25e0a6f6907315e28d7952", "fusion_lon": 0.0, "bike_id": "b050ccb3bc25e0a6f6907315e28d7952", "is_reserved": 0, "type": "electric_scooter", "lat": 38.9025785, "fusion_lat": 0.0, "is_disabled": 0}, {"rental_uris": {"android": "https://dc.lft.to/lastmile_qr_scan", "ios": "https://dc.lft.to/lastmile_qr_scan"}, "lon": -77.02124566666667, "name": "336f699a7ada292f9c9110819fc549b9", "fusion_lon": 0.0, "bike_id": "336f699a7ada292f9c9110819fc549b9", "is_reserved": 0, "type": "electric_scooter", "lat": 38.93658116666667, "fusion_lat": 0.0, "is_disabled": 0}, {"rental_uris": {"android": "https://dc.lft.to/lastmile_qr_scan", "ios": "https://dc.lft.to/lastmile_qr_scan"}, "lon": -77.040153, "name": "96cacb3e15bdadff83e55dea23fac606", "fusion_lon": 0.0, "bike_id": "96cacb3e15bdadff83e55dea23fac606", "is_reserved": 0, "type": "electric_scooter", "lat": 38.896278333333335, "fusion_lat": 0.0, "is_disabled": 0}, {"rental_uris": {"android": "https://dc.lft.to/lastmile_qr_scan", "ios": "https://dc.lft.to/lastmile_qr_scan"}, "lon": -77.0209455, "name": "234cc367edb535f32454a81a30594998", "fusion_lon": 0.0, "bike_id": "234cc367edb535f32454a81a30594998", "is_reserved": 0, "type": "electric_scooter", "lat": 38.902149333333334, "fusion_lat": 0.0, "is_disabled": 0}, {"rental_uris": {"android": "https://dc.lft.to/lastmile_qr_scan", "ios": "https://dc.lft.to/lastmile_qr_scan"}, "lon": -76.98824116666667, "name": "6dad8598c4a6321d95a374bba43fc1fc", "fusion_lon": 0.0, "bike_id": "6dad8598c4a6321d95a374bba43fc1fc", "is_reserved": 0, "type": "electric_scooter", "lat": 38.900413, "fusion_lat": 0.0, "is_disabled": 0}, {"rental_uris": {"android": "https://dc.lft.to/lastmile_qr_scan", "ios": "https://dc.lft.to/lastmile_qr_scan"}, "lon": -77.03858633333333, "name": "a8f804ebee921c40def6042da906b104", "fusion_lon": 0.0, "bike_id": "a8f804ebee921c40def6042da906b104", "is_reserved": 0, "type": "electric_scooter", "lat": 38.90318833333333, "fusion_lat": 0.0, "is_disabled": 0}, {"rental_uris": {"android": "https://dc.lft.to/lastmile_qr_scan", "ios": "https://dc.lft.to/lastmile_qr_scan"}, "lon": -77.04358683333334, "name": "1b192d0852d729ab4a3aab821873b8da", "fusion_lon": 0.0, "bike_id": "1b192d0852d729ab4a3aab821873b8da", "is_reserved": 0, "type": "electric_scooter", "lat": 38.9196545, "fusion_lat": 0.0, "is_disabled": 0}, {"rental_uris": {"android": "https://dc.lft.to/lastmile_qr_scan", "ios": "https://dc.lft.to/lastmile_qr_scan"}, "lon": -77.0207335, "name": "3cb5e0090e9b18a7ced0702550f5e5df", "fusion_lon": 0.0, "bike_id": "3cb5e0090e9b18a7ced0702550f5e5df", "is_reserved": 0, "type": "electric_scooter", "lat": 38.8765335, "fusion_lat": 0.0, "is_disabled": 0}, {"rental_uris": {"android": "https://dc.lft.to/lastmile_qr_scan", "ios": "https://dc.lft.to/lastmile_qr_scan"}, "lon": -77.02479316666667, "name": "0dbf0abf0d307b2938f69d08fb3093f8", "fusion_lon": 0.0, "bike_id": "0dbf0abf0d307b2938f69d08fb3093f8", "is_reserved": 0, "type": "electric_scooter", "lat": 38.91652216666667, "fusion_lat": 0.0, "is_disabled": 0}, {"rental_uris": {"android": "https://dc.lft.to/lastmile_qr_scan", "ios": "https://dc.lft.to/lastmile_qr_scan"}, "lon": -77.052628, "name": "c6df4551675708666d2557db95f0f60d", "fusion_lon": 0.0, "bike_id": "c6df4551675708666d2557db95f0f60d", "is_reserved": 0, "type": "electric_scooter", "lat": 38.92756983333334, "fusion_lat": 0.0, "is_disabled": 0}, {"rental_uris": {"android": "https://dc.lft.to/lastmile_qr_scan", "ios": "https://dc.lft.to/lastmile_qr_scan"}, "lon": -77.02624833333333, "name": "def5f0e733093312a29e3f8c557794c2", "fusion_lon": 0.0, "bike_id": "def5f0e733093312a29e3f8c557794c2", "is_reserved": 0, "type": "electric_scooter", "lat": 38.892210166666665, "fusion_lat": 0.0, "is_disabled": 0}, {"rental_uris": {"android": "https://dc.lft.to/lastmile_qr_scan", "ios": "https://dc.lft.to/lastmile_qr_scan"}, "lon": -77.00194983333333, "name": "9891c0f6c7ae2832785cacde263c1b35", "fusion_lon": 0.0, "bike_id": "9891c0f6c7ae2832785cacde263c1b35", "is_reserved": 0, "type": "electric_scooter", "lat": 38.88675933333333, "fusion_lat": 0.0, "is_disabled": 0}, {"rental_uris": {"android": "https://dc.lft.to/lastmile_qr_scan", "ios": "https://dc.lft.to/lastmile_qr_scan"}, "lon": -76.98051566666666, "name": "152736cb587f925de59482bddde9497a", "fusion_lon": 0.0, "bike_id": "152736cb587f925de59482bddde9497a", "is_reserved": 0, "type": "electric_scooter", "lat": 38.885288833333334, "fusion_lat": 0.0, "is_disabled": 0}, {"rental_uris": {"android": "https://dc.lft.to/lastmile_qr_scan", "ios": "https://dc.lft.to/lastmile_qr_scan"}, "lon": -76.99030183333333, "name": "5c0c1a8817721721abbc27620ede8b12", "fusion_lon": 0.0, "bike_id": "5c0c1a8817721721abbc27620ede8b12", "is_reserved": 0, "type": "electric_scooter", "lat": 38.865635, "fusion_lat": 0.0, "is_disabled": 0}, {"rental_uris": {"android": "https://dc.lft.to/lastmile_qr_scan", "ios": "https://dc.lft.to/lastmile_qr_scan"}, "lon": -77.0383835, "name": "42290c94df466e2a36881cbfad146c99", "fusion_lon": 0.0, "bike_id": "42290c94df466e2a36881cbfad146c99", "is_reserved": 0, "type": "electric_scooter", "lat": 38.9117925, "fusion_lat": 0.0, "is_disabled": 0}, {"rental_uris": {"android": "https://dc.lft.to/lastmile_qr_scan", "ios": "https://dc.lft.to/lastmile_qr_scan"}, "lon": -76.980696, "name": "ad07a5bfc42de0e4e05702392adf8ed3", "fusion_lon": 0.0, "bike_id": "ad07a5bfc42de0e4e05702392adf8ed3", "is_reserved": 0, "type": "electric_scooter", "lat": 38.867130333333336, "fusion_lat": 0.0, "is_disabled": 0}, {"rental_uris": {"android": "https://dc.lft.to/lastmile_qr_scan", "ios": "https://dc.lft.to/lastmile_qr_scan"}, "lon": -77.0363775, "name": "064632b9e5c4664a2aeaae0a6810e956", "fusion_lon": 0.0, "bike_id": "064632b9e5c4664a2aeaae0a6810e956", "is_reserved": 0, "type": "electric_scooter", "lat": 38.91809466666667, "fusion_lat": 0.0, "is_disabled": 0}, {"rental_uris": {"android": "https://dc.lft.to/lastmile_qr_scan", "ios": "https://dc.lft.to/lastmile_qr_scan"}, "lon": -76.98512166666667, "name": "2bbbda29594ace4a9308f0d06367e657", "fusion_lon": 0.0, "bike_id": "2bbbda29594ace4a9308f0d06367e657", "is_reserved": 0, "type": "electric_bike", "lat": 38.88074866666667, "fusion_lat": 0.0, "is_disabled": 0}, {"rental_uris": {"android": "https://dc.lft.to/lastmile_qr_scan", "ios": "https://dc.lft.to/lastmile_qr_scan"}, "lon": -77.04073766666667, "name": "44d25ef38b8d81bf84c894a3cca56916", "fusion_lon": 0.0, "bike_id": "44d25ef38b8d81bf84c894a3cca56916", "is_reserved": 0, "type": "electric_scooter", "lat": 38.928773166666666, "fusion_lat": 0.0, "is_disabled": 0}, {"rental_uris": {"android": "https://dc.lft.to/lastmile_qr_scan", "ios": "https://dc.lft.to/lastmile_qr_scan"}, "lon": -77.03812616666667, "name": "0fce6b04471bfe9048193eda80071e93", "fusion_lon": 0.0, "bike_id": "0fce6b04471bfe9048193eda80071e93", "is_reserved": 0, "type": "electric_bike", "lat": 38.99662383333333, "fusion_lat": 0.0, "is_disabled": 0}, {"rental_uris": {"android": "https://dc.lft.to/lastmile_qr_scan", "ios": "https://dc.lft.to/lastmile_qr_scan"}, "lon": -77.02687483333334, "name": "564ee36b99b12df325ae81bfd6adf336", "fusion_lon": 0.0, "bike_id": "564ee36b99b12df325ae81bfd6adf336", "is_reserved": 0, "type": "electric_scooter", "lat": 38.924, "fusion_lat": 0.0, "is_disabled": 0}, {"rental_uris": {"android": "https://dc.lft.to/lastmile_qr_scan", "ios": "https://dc.lft.to/lastmile_qr_scan"}, "lon": -77.03330933333334, "name": "d055e38d8a4c16129d6537bb2ccbd36b", "fusion_lon": 0.0, "bike_id": "d055e38d8a4c16129d6537bb2ccbd36b", "is_reserved": 0, "type": "electric_scooter", "lat": 38.92543366666666, "fusion_lat": 0.0, "is_disabled": 0}, {"rental_uris": {"android": "https://dc.lft.to/lastmile_qr_scan", "ios": "https://dc.lft.to/lastmile_qr_scan"}, "lon": -77.003337, "name": "ce89665473e629b21be819d4177eb268", "fusion_lon": 0.0, "bike_id": "ce89665473e629b21be819d4177eb268", "is_reserved": 0, "type": "electric_scooter", "lat": 38.889845666666666, "fusion_lat": 0.0, "is_disabled": 0}, {"rental_uris": {"android": "https://dc.lft.to/lastmile_qr_scan", "ios": "https://dc.lft.to/lastmile_qr_scan"}, "lon": -77.028778, "name": "9de429c06480839f8b7b75240301d83d", "fusion_lon": 0.0, "bike_id": "9de429c06480839f8b7b75240301d83d", "is_reserved": 0, "type": "electric_bike", "lat": 38.99882383333333, "fusion_lat": 0.0, "is_disabled": 0}, {"rental_uris": {"android": "https://dc.lft.to/lastmile_qr_scan", "ios": "https://dc.lft.to/lastmile_qr_scan"}, "lon": -77.00678966666666, "name": "db2aab17079d1b9491b34a6f33ecd289", "fusion_lon": 0.0, "bike_id": "db2aab17079d1b9491b34a6f33ecd289", "is_reserved": 0, "type": "electric_bike", "lat": 38.94491216666667, "fusion_lat": 0.0, "is_disabled": 0}, {"rental_uris": {"android": "https://dc.lft.to/lastmile_qr_scan", "ios": "https://dc.lft.to/lastmile_qr_scan"}, "lon": -77.02840166666667, "name": "f46cf9d650aa8865b2f98363df708ce2", "fusion_lon": 0.0, "bike_id": "f46cf9d650aa8865b2f98363df708ce2", "is_reserved": 0, "type": "electric_scooter", "lat": 38.932809, "fusion_lat": 0.0, "is_disabled": 0}, {"rental_uris": {"android": "https://dc.lft.to/lastmile_qr_scan", "ios": "https://dc.lft.to/lastmile_qr_scan"}, "lon": -77.03364216666667, "name": "570e79febf8fc393e4a336fd55b65359", "fusion_lon": 0.0, "bike_id": "570e79febf8fc393e4a336fd55b65359", "is_reserved": 0, "type": "electric_scooter", "lat": 38.9235945, "fusion_lat": 0.0, "is_disabled": 0}, {"rental_uris": {"android": "https://dc.lft.to/lastmile_qr_scan", "ios": "https://dc.lft.to/lastmile_qr_scan"}, "lon": -77.03271766666667, "name": "27c3fe05e11fb584cdfbd8c8a354ef2a", "fusion_lon": 0.0, "bike_id": "27c3fe05e11fb584cdfbd8c8a354ef2a", "is_reserved": 0, "type": "electric_scooter", "lat": 38.90564233333333, "fusion_lat": 0.0, "is_disabled": 0}, {"rental_uris": {"android": "https://dc.lft.to/lastmile_qr_scan", "ios": "https://dc.lft.to/lastmile_qr_scan"}, "lon": -76.95233316666666, "name": "6a98ccef3deb01d61e87723369abe636", "fusion_lon": 0.0, "bike_id": "6a98ccef3deb01d61e87723369abe636", "is_reserved": 0, "type": "electric_bike", "lat": 38.847929, "fusion_lat": 0.0, "is_disabled": 0}, {"rental_uris": {"android": "https://dc.lft.to/lastmile_qr_scan", "ios": "https://dc.lft.to/lastmile_qr_scan"}, "lon": -77.02404183333333, "name": "2dc1617408b84f6a81ba440fe7e0d370", "fusion_lon": 0.0, "bike_id": "2dc1617408b84f6a81ba440fe7e0d370", "is_reserved": 0, "type": "electric_scooter", "lat": 38.907714666666664, "fusion_lat": 0.0, "is_disabled": 0}, {"rental_uris": {"android": "https://dc.lft.to/lastmile_qr_scan", "ios": "https://dc.lft.to/lastmile_qr_scan"}, "lon": -77.04868866666666, "name": "5c6637b1326f21d99905318996af4b14", "fusion_lon": 0.0, "bike_id": "5c6637b1326f21d99905318996af4b14", "is_reserved": 0, "type": "electric_scooter", "lat": 38.90114583333333, "fusion_lat": 0.0, "is_disabled": 0}, {"rental_uris": {"android": "https://dc.lft.to/lastmile_qr_scan", "ios": "https://dc.lft.to/lastmile_qr_scan"}, "lon": -77.03791383333333, "name": "701f495e234acbd54946ffef8b74eb8e", "fusion_lon": 0.0, "bike_id": "701f495e234acbd54946ffef8b74eb8e", "is_reserved": 0, "type": "electric_scooter", "lat": 38.900452333333334, "fusion_lat": 0.0, "is_disabled": 0}, {"rental_uris": {"android": "https://dc.lft.to/lastmile_qr_scan", "ios": "https://dc.lft.to/lastmile_qr_scan"}, "lon": -76.98682866666667, "name": "3705f05d4a9227db28c2d0f1df486793", "fusion_lon": 0.0, "bike_id": "3705f05d4a9227db28c2d0f1df486793", "is_reserved": 0, "type": "electric_scooter", "lat": 38.9007205, "fusion_lat": 0.0, "is_disabled": 0}, {"rental_uris": {"android": "https://dc.lft.to/lastmile_qr_scan", "ios": "https://dc.lft.to/lastmile_qr_scan"}, "lon": -76.9990865, "name": "c9888eefa6a47e70b76db0c5c01a0e94", "fusion_lon": 0.0, "bike_id": "c9888eefa6a47e70b76db0c5c01a0e94", "is_reserved": 0, "type": "electric_scooter", "lat": 38.92454633333333, "fusion_lat": 0.0, "is_disabled": 0}, {"rental_uris": {"android": "https://dc.lft.to/lastmile_qr_scan", "ios": "https://dc.lft.to/lastmile_qr_scan"}, "lon": -77.02640083333333, "name": "ab96a12b1c8f3ef828facfe989f0ac59", "fusion_lon": 0.0, "bike_id": "ab96a12b1c8f3ef828facfe989f0ac59", "is_reserved": 0, "type": "electric_scooter", "lat": 38.940276833333336, "fusion_lat": 0.0, "is_disabled": 0}, {"rental_uris": {"android": "https://dc.lft.to/lastmile_qr_scan", "ios": "https://dc.lft.to/lastmile_qr_scan"}, "lon": -77.03169566666666, "name": "aa415a9ad6894923b3ebf5aa49d15244", "fusion_lon": 0.0, "bike_id": "aa415a9ad6894923b3ebf5aa49d15244", "is_reserved": 0, "type": "electric_scooter", "lat": 38.91761733333333, "fusion_lat": 0.0, "is_disabled": 0}, {"rental_uris": {"android": "https://dc.lft.to/lastmile_qr_scan", "ios": "https://dc.lft.to/lastmile_qr_scan"}, "lon": -76.99860883333334, "name": "1625e9fed679c9fcaff5181099bdd77c", "fusion_lon": 0.0, "bike_id": "1625e9fed679c9fcaff5181099bdd77c", "is_reserved": 0, "type": "electric_scooter", "lat": 38.864346, "fusion_lat": 0.0, "is_disabled": 0}, {"rental_uris": {"android": "https://dc.lft.to/lastmile_qr_scan", "ios": "https://dc.lft.to/lastmile_qr_scan"}, "lon": -77.02687983333334, "name": "6d956ecdbb709b3495e073899888a723", "fusion_lon": 0.0, "bike_id": "6d956ecdbb709b3495e073899888a723", "is_reserved": 0, "type": "electric_scooter", "lat": 38.90241416666667, "fusion_lat": 0.0, "is_disabled": 0}, {"rental_uris": {"android": "https://dc.lft.to/lastmile_qr_scan", "ios": "https://dc.lft.to/lastmile_qr_scan"}, "lon": -77.01772583333333, "name": "b42d7b7037fe86792ba06b4fbff1b868", "fusion_lon": 0.0, "bike_id": "b42d7b7037fe86792ba06b4fbff1b868", "is_reserved": 0, "type": "electric_scooter", "lat": 38.919390666666665, "fusion_lat": 0.0, "is_disabled": 0}, {"rental_uris": {"android": "https://dc.lft.to/lastmile_qr_scan", "ios": "https://dc.lft.to/lastmile_qr_scan"}, "lon": -77.04560866666667, "name": "089a04bc1ef7486713e7848f822c9c73", "fusion_lon": 0.0, "bike_id": "089a04bc1ef7486713e7848f822c9c73", "is_reserved": 0, "type": "electric_scooter", "lat": 38.91829333333333, "fusion_lat": 0.0, "is_disabled": 0}, {"rental_uris": {"android": "https://dc.lft.to/lastmile_qr_scan", "ios": "https://dc.lft.to/lastmile_qr_scan"}, "lon": -77.032771, "name": "0ae69b1a14e50f9350e9945372fcff18", "fusion_lon": 0.0, "bike_id": "0ae69b1a14e50f9350e9945372fcff18", "is_reserved": 0, "type": "electric_scooter", "lat": 38.93050233333334, "fusion_lat": 0.0, "is_disabled": 0}, {"rental_uris": {"android": "https://dc.lft.to/lastmile_qr_scan", "ios": "https://dc.lft.to/lastmile_qr_scan"}, "lon": -77.01181166666667, "name": "b21114c1b2368231afb33bbb414c85d9", "fusion_lon": 0.0, "bike_id": "b21114c1b2368231afb33bbb414c85d9", "is_reserved": 0, "type": "electric_scooter", "lat": 38.88062216666667, "fusion_lat": 0.0, "is_disabled": 0}, {"rental_uris": {"android": "https://dc.lft.to/lastmile_qr_scan", "ios": "https://dc.lft.to/lastmile_qr_scan"}, "lon": -77.02881383333333, "name": "eaab824cc795fd81589cdaa0a688fa25", "fusion_lon": 0.0, "bike_id": "eaab824cc795fd81589cdaa0a688fa25", "is_reserved": 0, "type": "electric_scooter", "lat": 38.935993833333335, "fusion_lat": 0.0, "is_disabled": 0}, {"rental_uris": {"android": "https://dc.lft.to/lastmile_qr_scan", "ios": "https://dc.lft.to/lastmile_qr_scan"}, "lon": -77.01732516666667, "name": "61ea98d736e7ae5c2369189b4a65bd2e", "fusion_lon": 0.0, "bike_id": "61ea98d736e7ae5c2369189b4a65bd2e", "is_reserved": 0, "type": "electric_scooter", "lat": 38.89222983333333, "fusion_lat": 0.0, "is_disabled": 0}, {"rental_uris": {"android": "https://dc.lft.to/lastmile_qr_scan", "ios": "https://dc.lft.to/lastmile_qr_scan"}, "lon": -77.02960383333334, "name": "8d88bff496f26b4a4a20bd7297e19616", "fusion_lon": 0.0, "bike_id": "8d88bff496f26b4a4a20bd7297e19616", "is_reserved": 0, "type": "electric_scooter", "lat": 38.917170166666665, "fusion_lat": 0.0, "is_disabled": 0}, {"rental_uris": {"android": "https://dc.lft.to/lastmile_qr_scan", "ios": "https://dc.lft.to/lastmile_qr_scan"}, "lon": -77.0663485, "name": "0fc7425cb34f9a25f1ec44c3e7ee42c4", "fusion_lon": 0.0, "bike_id": "0fc7425cb34f9a25f1ec44c3e7ee42c4", "is_reserved": 0, "type": "electric_scooter", "lat": 38.91164833333333, "fusion_lat": 0.0, "is_disabled": 0}, {"rental_uris": {"android": "https://dc.lft.to/lastmile_qr_scan", "ios": "https://dc.lft.to/lastmile_qr_scan"}, "lon": -77.02653116666667, "name": "fc6921e60fb67a32f6f3cb867f6725e9", "fusion_lon": 0.0, "bike_id": "fc6921e60fb67a32f6f3cb867f6725e9", "is_reserved": 0, "type": "electric_scooter", "lat": 38.92212766666667, "fusion_lat": 0.0, "is_disabled": 0}, {"rental_uris": {"android": "https://dc.lft.to/lastmile_qr_scan", "ios": "https://dc.lft.to/lastmile_qr_scan"}, "lon": -77.02208933333333, "name": "a7df945c991670c18d583f9fbc215cc0", "fusion_lon": 0.0, "bike_id": "a7df945c991670c18d583f9fbc215cc0", "is_reserved": 0, "type": "electric_scooter", "lat": 38.912524166666664, "fusion_lat": 0.0, "is_disabled": 0}, {"rental_uris": {"android": "https://dc.lft.to/lastmile_qr_scan", "ios": "https://dc.lft.to/lastmile_qr_scan"}, "lon": -77.02299933333333, "name": "5af55701a47f4efb9b3ea425265dabfb", "fusion_lon": 0.0, "bike_id": "5af55701a47f4efb9b3ea425265dabfb", "is_reserved": 0, "type": "electric_scooter", "lat": 38.9195625, "fusion_lat": 0.0, "is_disabled": 0}, {"rental_uris": {"android": "https://dc.lft.to/lastmile_qr_scan", "ios": "https://dc.lft.to/lastmile_qr_scan"}, "lon": -77.03201083333333, "name": "23321f9f8e75c19b8655859e960f900e", "fusion_lon": 0.0, "bike_id": "23321f9f8e75c19b8655859e960f900e", "is_reserved": 0, "type": "electric_scooter", "lat": 38.916962833333336, "fusion_lat": 0.0, "is_disabled": 0}, {"rental_uris": {"android": "https://dc.lft.to/lastmile_qr_scan", "ios": "https://dc.lft.to/lastmile_qr_scan"}, "lon": -76.993212, "name": "76db119d95927eb66ffa712d31fa5fc6", "fusion_lon": 0.0, "bike_id": "76db119d95927eb66ffa712d31fa5fc6", "is_reserved": 0, "type": "electric_scooter", "lat": 38.8766095, "fusion_lat": 0.0, "is_disabled": 0}, {"rental_uris": {"android": "https://dc.lft.to/lastmile_qr_scan", "ios": "https://dc.lft.to/lastmile_qr_scan"}, "lon": -76.99681483333333, "name": "7d10d9e9d2babe1b828e1d1e0eda41c9", "fusion_lon": 0.0, "bike_id": "7d10d9e9d2babe1b828e1d1e0eda41c9", "is_reserved": 0, "type": "electric_scooter", "lat": 38.885047666666665, "fusion_lat": 0.0, "is_disabled": 0}, {"rental_uris": {"android": "https://dc.lft.to/lastmile_qr_scan", "ios": "https://dc.lft.to/lastmile_qr_scan"}, "lon": -77.02640133333334, "name": "6349d58ec45ebe7577403609eebe204f", "fusion_lon": 0.0, "bike_id": "6349d58ec45ebe7577403609eebe204f", "is_reserved": 0, "type": "electric_scooter", "lat": 38.982229833333335, "fusion_lat": 0.0, "is_disabled": 0}, {"rental_uris": {"android": "https://dc.lft.to/lastmile_qr_scan", "ios": "https://dc.lft.to/lastmile_qr_scan"}, "lon": -77.06319966666666, "name": "7fab724ef4df5badba5db35161728945", "fusion_lon": 0.0, "bike_id": "7fab724ef4df5badba5db35161728945", "is_reserved": 0, "type": "electric_scooter", "lat": 38.94410383333334, "fusion_lat": 0.0, "is_disabled": 0}, {"rental_uris": {"android": "https://dc.lft.to/lastmile_qr_scan", "ios": "https://dc.lft.to/lastmile_qr_scan"}, "lon": -76.99196983333333, "name": "9ed1ccb7694264b604376b650a6e76bb", "fusion_lon": 0.0, "bike_id": "9ed1ccb7694264b604376b650a6e76bb", "is_reserved": 0, "type": "electric_scooter", "lat": 38.882693, "fusion_lat": 0.0, "is_disabled": 0}, {"rental_uris": {"android": "https://dc.lft.to/lastmile_qr_scan", "ios": "https://dc.lft.to/lastmile_qr_scan"}, "lon": -77.02982916666667, "name": "5b2fbcc41c2c3b6c105cadf3732cf3b4", "fusion_lon": 0.0, "bike_id": "5b2fbcc41c2c3b6c105cadf3732cf3b4", "is_reserved": 0, "type": "electric_scooter", "lat": 38.92053166666667, "fusion_lat": 0.0, "is_disabled": 0}, {"rental_uris": {"android": "https://dc.lft.to/lastmile_qr_scan", "ios": "https://dc.lft.to/lastmile_qr_scan"}, "lon": -77.02461383333333, "name": "51a49bd6f8e3f6b32c5218ace1de6779", "fusion_lon": 0.0, "bike_id": "51a49bd6f8e3f6b32c5218ace1de6779", "is_reserved": 0, "type": "electric_scooter", "lat": 38.89726366666667, "fusion_lat": 0.0, "is_disabled": 0}, {"rental_uris": {"android": "https://dc.lft.to/lastmile_qr_scan", "ios": "https://dc.lft.to/lastmile_qr_scan"}, "lon": -77.01790966666667, "name": "3cc48fefa645a0f6bc2151099237b195", "fusion_lon": 0.0, "bike_id": "3cc48fefa645a0f6bc2151099237b195", "is_reserved": 0, "type": "electric_scooter", "lat": 38.913974, "fusion_lat": 0.0, "is_disabled": 0}, {"rental_uris": {"android": "https://dc.lft.to/lastmile_qr_scan", "ios": "https://dc.lft.to/lastmile_qr_scan"}, "lon": -76.98817033333333, "name": "04f96653c24c1aabcd66ea1821640f40", "fusion_lon": 0.0, "bike_id": "04f96653c24c1aabcd66ea1821640f40", "is_reserved": 0, "type": "electric_scooter", "lat": 38.90041433333333, "fusion_lat": 0.0, "is_disabled": 0}, {"rental_uris": {"android": "https://dc.lft.to/lastmile_qr_scan", "ios": "https://dc.lft.to/lastmile_qr_scan"}, "lon": -77.02717316666667, "name": "09b4832a762609a9236225cc6edfbca8", "fusion_lon": 0.0, "bike_id": "09b4832a762609a9236225cc6edfbca8", "is_reserved": 0, "type": "electric_scooter", "lat": 38.924773333333334, "fusion_lat": 0.0, "is_disabled": 0}, {"rental_uris": {"android": "https://dc.lft.to/lastmile_qr_scan", "ios": "https://dc.lft.to/lastmile_qr_scan"}, "lon": -77.02624616666667, "name": "c59672c3e09e7c6f4d50b92b4b328f26", "fusion_lon": 0.0, "bike_id": "c59672c3e09e7c6f4d50b92b4b328f26", "is_reserved": 0, "type": "electric_scooter", "lat": 38.89224866666667, "fusion_lat": 0.0, "is_disabled": 0}, {"rental_uris": {"android": "https://dc.lft.to/lastmile_qr_scan", "ios": "https://dc.lft.to/lastmile_qr_scan"}, "lon": -77.003552, "name": "45a4c53c81629fd4c4c99cd3c01eff58", "fusion_lon": 0.0, "bike_id": "45a4c53c81629fd4c4c99cd3c01eff58", "is_reserved": 0, "type": "electric_scooter", "lat": 38.88681716666667, "fusion_lat": 0.0, "is_disabled": 0}, {"rental_uris": {"android": "https://dc.lft.to/lastmile_qr_scan", "ios": "https://dc.lft.to/lastmile_qr_scan"}, "lon": -77.02456566666666, "name": "f7e379b7bedf3e33400dc8dda1a3b070", "fusion_lon": 0.0, "bike_id": "f7e379b7bedf3e33400dc8dda1a3b070", "is_reserved": 0, "type": "electric_scooter", "lat": 38.94726266666667, "fusion_lat": 0.0, "is_disabled": 0}, {"rental_uris": {"android": "https://dc.lft.to/lastmile_qr_scan", "ios": "https://dc.lft.to/lastmile_qr_scan"}, "lon": -76.9273765, "name": "2e461d5560cb63a480f25b31772c20e4", "fusion_lon": 0.0, "bike_id": "2e461d5560cb63a480f25b31772c20e4", "is_reserved": 0, "type": "electric_scooter", "lat": 38.900595, "fusion_lat": 0.0, "is_disabled": 0}, {"rental_uris": {"android": "https://dc.lft.to/lastmile_qr_scan", "ios": "https://dc.lft.to/lastmile_qr_scan"}, "lon": -77.05984883333333, "name": "0119a17a06ab7f1125022da9ac8e964e", "fusion_lon": 0.0, "bike_id": "0119a17a06ab7f1125022da9ac8e964e", "is_reserved": 0, "type": "electric_bike", "lat": 38.8068175, "fusion_lat": 0.0, "is_disabled": 0}, {"rental_uris": {"android": "https://dc.lft.to/lastmile_qr_scan", "ios": "https://dc.lft.to/lastmile_qr_scan"}, "lon": -77.02692083333334, "name": "01dc1e6fd034afc8cacadb8750095508", "fusion_lon": 0.0, "bike_id": "01dc1e6fd034afc8cacadb8750095508", "is_reserved": 0, "type": "electric_scooter", "lat": 38.902405, "fusion_lat": 0.0, "is_disabled": 0}, {"rental_uris": {"android": "https://dc.lft.to/lastmile_qr_scan", "ios": "https://dc.lft.to/lastmile_qr_scan"}, "lon": -77.01944066666667, "name": "23a6a01fa68ba3da5e9e7bf637b5889a", "fusion_lon": 0.0, "bike_id": "23a6a01fa68ba3da5e9e7bf637b5889a", "is_reserved": 0, "type": "electric_scooter", "lat": 38.9224675, "fusion_lat": 0.0, "is_disabled": 0}, {"rental_uris": {"android": "https://dc.lft.to/lastmile_qr_scan", "ios": "https://dc.lft.to/lastmile_qr_scan"}, "lon": -77.01806483333333, "name": "2b337a7c6e2da5f199972cbda4f003a7", "fusion_lon": 0.0, "bike_id": "2b337a7c6e2da5f199972cbda4f003a7", "is_reserved": 0, "type": "electric_scooter", "lat": 38.911090333333334, "fusion_lat": 0.0, "is_disabled": 0}, {"rental_uris": {"android": "https://dc.lft.to/lastmile_qr_scan", "ios": "https://dc.lft.to/lastmile_qr_scan"}, "lon": -77.01251583333334, "name": "8e5cd4ebc298376ffab24f6f65b932bb", "fusion_lon": 0.0, "bike_id": "8e5cd4ebc298376ffab24f6f65b932bb", "is_reserved": 0, "type": "electric_scooter", "lat": 38.943228166666664, "fusion_lat": 0.0, "is_disabled": 0}, {"rental_uris": {"android": "https://dc.lft.to/lastmile_qr_scan", "ios": "https://dc.lft.to/lastmile_qr_scan"}, "lon": -77.04263566666667, "name": "0a99c80a866fc15e7cdebd18ea15603f", "fusion_lon": 0.0, "bike_id": "0a99c80a866fc15e7cdebd18ea15603f", "is_reserved": 0, "type": "electric_scooter", "lat": 38.92412133333333, "fusion_lat": 0.0, "is_disabled": 0}, {"rental_uris": {"android": "https://dc.lft.to/lastmile_qr_scan", "ios": "https://dc.lft.to/lastmile_qr_scan"}, "lon": -77.02973033333333, "name": "b12c07c1b518bb7a59d70ae2c5afe602", "fusion_lon": 0.0, "bike_id": "b12c07c1b518bb7a59d70ae2c5afe602", "is_reserved": 0, "type": "electric_scooter", "lat": 38.91634166666667, "fusion_lat": 0.0, "is_disabled": 0}, {"rental_uris": {"android": "https://dc.lft.to/lastmile_qr_scan", "ios": "https://dc.lft.to/lastmile_qr_scan"}, "lon": -77.00551033333333, "name": "cc79d5e1201ed828bc31d408cc253980", "fusion_lon": 0.0, "bike_id": "cc79d5e1201ed828bc31d408cc253980", "is_reserved": 0, "type": "electric_scooter", "lat": 38.907509166666664, "fusion_lat": 0.0, "is_disabled": 0}, {"rental_uris": {"android": "https://dc.lft.to/lastmile_qr_scan", "ios": "https://dc.lft.to/lastmile_qr_scan"}, "lon": -77.0345145, "name": "0bd0726471ab77e36d30db9b17a95e4e", "fusion_lon": 0.0, "bike_id": "0bd0726471ab77e36d30db9b17a95e4e", "is_reserved": 0, "type": "electric_scooter", "lat": 38.90400233333333, "fusion_lat": 0.0, "is_disabled": 0}, {"rental_uris": {"android": "https://dc.lft.to/lastmile_qr_scan", "ios": "https://dc.lft.to/lastmile_qr_scan"}, "lon": -77.02288916666667, "name": "073bf051e349c802bedaa9eebd172fe3", "fusion_lon": 0.0, "bike_id": "073bf051e349c802bedaa9eebd172fe3", "is_reserved": 0, "type": "electric_scooter", "lat": 38.890596333333335, "fusion_lat": 0.0, "is_disabled": 0}, {"rental_uris": {"android": "https://dc.lft.to/lastmile_qr_scan", "ios": "https://dc.lft.to/lastmile_qr_scan"}, "lon": -77.03185916666666, "name": "e2a9fad212790db7323c7406ef755579", "fusion_lon": 0.0, "bike_id": "e2a9fad212790db7323c7406ef755579", "is_reserved": 0, "type": "electric_scooter", "lat": 38.907893666666666, "fusion_lat": 0.0, "is_disabled": 0}, {"rental_uris": {"android": "https://dc.lft.to/lastmile_qr_scan", "ios": "https://dc.lft.to/lastmile_qr_scan"}, "lon": -77.003938, "name": "f87a11f1551b05bb9a482d2183d00ee0", "fusion_lon": 0.0, "bike_id": "f87a11f1551b05bb9a482d2183d00ee0", "is_reserved": 0, "type": "electric_scooter", "lat": 38.905659166666666, "fusion_lat": 0.0, "is_disabled": 0}, {"rental_uris": {"android": "https://dc.lft.to/lastmile_qr_scan", "ios": "https://dc.lft.to/lastmile_qr_scan"}, "lon": -77.01806233333333, "name": "dae2cdc21d5466d46b9b54a190dcc4c7", "fusion_lon": 0.0, "bike_id": "dae2cdc21d5466d46b9b54a190dcc4c7", "is_reserved": 0, "type": "electric_scooter", "lat": 38.921400166666665, "fusion_lat": 0.0, "is_disabled": 0}, {"rental_uris": {"android": "https://dc.lft.to/lastmile_qr_scan", "ios": "https://dc.lft.to/lastmile_qr_scan"}, "lon": -77.02626366666667, "name": "ab3d50e0519608e2da7ea2bdf08640b5", "fusion_lon": 0.0, "bike_id": "ab3d50e0519608e2da7ea2bdf08640b5", "is_reserved": 0, "type": "electric_scooter", "lat": 38.89452466666667, "fusion_lat": 0.0, "is_disabled": 0}, {"rental_uris": {"android": "https://dc.lft.to/lastmile_qr_scan", "ios": "https://dc.lft.to/lastmile_qr_scan"}, "lon": -77.0019155, "name": "674a8e1b99bda4ffcf9841ee8b9138fe", "fusion_lon": 0.0, "bike_id": "674a8e1b99bda4ffcf9841ee8b9138fe", "is_reserved": 0, "type": "electric_scooter", "lat": 38.96517133333333, "fusion_lat": 0.0, "is_disabled": 0}, {"rental_uris": {"android": "https://dc.lft.to/lastmile_qr_scan", "ios": "https://dc.lft.to/lastmile_qr_scan"}, "lon": -77.0425135, "name": "8f4c9e370b03e77a756a8e5d04777cff", "fusion_lon": 0.0, "bike_id": "8f4c9e370b03e77a756a8e5d04777cff", "is_reserved": 0, "type": "electric_scooter", "lat": 38.926344666666665, "fusion_lat": 0.0, "is_disabled": 0}, {"rental_uris": {"android": "https://dc.lft.to/lastmile_qr_scan", "ios": "https://dc.lft.to/lastmile_qr_scan"}, "lon": -77.05910033333333, "name": "503adc40de766b64b45730367cbf75ea", "fusion_lon": 0.0, "bike_id": "503adc40de766b64b45730367cbf75ea", "is_reserved": 0, "type": "electric_scooter", "lat": 38.905348000000004, "fusion_lat": 0.0, "is_disabled": 0}, {"rental_uris": {"android": "https://dc.lft.to/lastmile_qr_scan", "ios": "https://dc.lft.to/lastmile_qr_scan"}, "lon": -77.02523016666666, "name": "f4847f3633ea2cc97995f7d568bbff0c", "fusion_lon": 0.0, "bike_id": "f4847f3633ea2cc97995f7d568bbff0c", "is_reserved": 0, "type": "electric_scooter", "lat": 38.920731333333336, "fusion_lat": 0.0, "is_disabled": 0}, {"rental_uris": {"android": "https://dc.lft.to/lastmile_qr_scan", "ios": "https://dc.lft.to/lastmile_qr_scan"}, "lon": -77.02899233333333, "name": "b6938dc5c434a5016c8b830714306395", "fusion_lon": 0.0, "bike_id": "b6938dc5c434a5016c8b830714306395", "is_reserved": 0, "type": "electric_scooter", "lat": 38.93312533333334, "fusion_lat": 0.0, "is_disabled": 0}, {"rental_uris": {"android": "https://dc.lft.to/lastmile_qr_scan", "ios": "https://dc.lft.to/lastmile_qr_scan"}, "lon": -77.01762516666666, "name": "d1322cd54407cd77a172be728675d5e7", "fusion_lon": 0.0, "bike_id": "d1322cd54407cd77a172be728675d5e7", "is_reserved": 0, "type": "electric_scooter", "lat": 38.9026655, "fusion_lat": 0.0, "is_disabled": 0}, {"rental_uris": {"android": "https://dc.lft.to/lastmile_qr_scan", "ios": "https://dc.lft.to/lastmile_qr_scan"}, "lon": -76.98125, "name": "da6cc3210e195b9e6cbc66c9db42e442", "fusion_lon": 0.0, "bike_id": "da6cc3210e195b9e6cbc66c9db42e442", "is_reserved": 0, "type": "electric_scooter", "lat": 38.8463585, "fusion_lat": 0.0, "is_disabled": 0}, {"rental_uris": {"android": "https://dc.lft.to/lastmile_qr_scan", "ios": "https://dc.lft.to/lastmile_qr_scan"}, "lon": -77.00378233333333, "name": "c32602103f59efdbccaea8931aff433e", "fusion_lon": 0.0, "bike_id": "c32602103f59efdbccaea8931aff433e", "is_reserved": 0, "type": "electric_bike", "lat": 38.836070166666666, "fusion_lat": 0.0, "is_disabled": 0}, {"rental_uris": {"android": "https://dc.lft.to/lastmile_qr_scan", "ios": "https://dc.lft.to/lastmile_qr_scan"}, "lon": -77.0271355, "name": "96e614016284bfe91ad7f8627b556192", "fusion_lon": 0.0, "bike_id": "96e614016284bfe91ad7f8627b556192", "is_reserved": 0, "type": "electric_scooter", "lat": 38.924725, "fusion_lat": 0.0, "is_disabled": 0}, {"rental_uris": {"android": "https://dc.lft.to/lastmile_qr_scan", "ios": "https://dc.lft.to/lastmile_qr_scan"}, "lon": -77.0125555, "name": "7ea1698f8ee4a6111fa470ca2f89592b", "fusion_lon": 0.0, "bike_id": "7ea1698f8ee4a6111fa470ca2f89592b", "is_reserved": 0, "type": "electric_bike", "lat": 38.974189, "fusion_lat": 0.0, "is_disabled": 0}, {"rental_uris": {"android": "https://dc.lft.to/lastmile_qr_scan", "ios": "https://dc.lft.to/lastmile_qr_scan"}, "lon": -77.015066, "name": "95edc4079f78b1739809f0c5c8bf3624", "fusion_lon": 0.0, "bike_id": "95edc4079f78b1739809f0c5c8bf3624", "is_reserved": 0, "type": "electric_scooter", "lat": 38.926859666666665, "fusion_lat": 0.0, "is_disabled": 0}, {"rental_uris": {"android": "https://dc.lft.to/lastmile_qr_scan", "ios": "https://dc.lft.to/lastmile_qr_scan"}, "lon": -77.03491016666666, "name": "bfd850a6adee179c5e0c3f16cc4690fc", "fusion_lon": 0.0, "bike_id": "bfd850a6adee179c5e0c3f16cc4690fc", "is_reserved": 0, "type": "electric_scooter", "lat": 38.93269733333333, "fusion_lat": 0.0, "is_disabled": 0}, {"rental_uris": {"android": "https://dc.lft.to/lastmile_qr_scan", "ios": "https://dc.lft.to/lastmile_qr_scan"}, "lon": -76.9969085, "name": "e14119a96aa926cfd5a3dc89e7e3e77c", "fusion_lon": 0.0, "bike_id": "e14119a96aa926cfd5a3dc89e7e3e77c", "is_reserved": 0, "type": "electric_scooter", "lat": 38.908320833333335, "fusion_lat": 0.0, "is_disabled": 0}, {"rental_uris": {"android": "https://dc.lft.to/lastmile_qr_scan", "ios": "https://dc.lft.to/lastmile_qr_scan"}, "lon": -77.0450095, "name": "92d888de57a8e9bdb088137dca767569", "fusion_lon": 0.0, "bike_id": "92d888de57a8e9bdb088137dca767569", "is_reserved": 0, "type": "electric_scooter", "lat": 38.9078355, "fusion_lat": 0.0, "is_disabled": 0}, {"rental_uris": {"android": "https://dc.lft.to/lastmile_qr_scan", "ios": "https://dc.lft.to/lastmile_qr_scan"}, "lon": -77.061794, "name": "416726d90c2f66bc051cc5f13eeaa6fb", "fusion_lon": 0.0, "bike_id": "416726d90c2f66bc051cc5f13eeaa6fb", "is_reserved": 0, "type": "electric_scooter", "lat": 38.9411985, "fusion_lat": 0.0, "is_disabled": 0}, {"rental_uris": {"android": "https://dc.lft.to/lastmile_qr_scan", "ios": "https://dc.lft.to/lastmile_qr_scan"}, "lon": -77.041318, "name": "5367d2bd21d7b74b08327fc547ec9773", "fusion_lon": 0.0, "bike_id": "5367d2bd21d7b74b08327fc547ec9773", "is_reserved": 0, "type": "electric_scooter", "lat": 38.91979083333333, "fusion_lat": 0.0, "is_disabled": 0}, {"rental_uris": {"android": "https://dc.lft.to/lastmile_qr_scan", "ios": "https://dc.lft.to/lastmile_qr_scan"}, "lon": -77.0459345, "name": "92104cf8612bc33673dc665a0583d071", "fusion_lon": 0.0, "bike_id": "92104cf8612bc33673dc665a0583d071", "is_reserved": 0, "type": "electric_scooter", "lat": 38.902623, "fusion_lat": 0.0, "is_disabled": 0}, {"rental_uris": {"android": "https://dc.lft.to/lastmile_qr_scan", "ios": "https://dc.lft.to/lastmile_qr_scan"}, "lon": -77.03825683333334, "name": "56265b4f117f6d45283af55dd7d51542", "fusion_lon": 0.0, "bike_id": "56265b4f117f6d45283af55dd7d51542", "is_reserved": 0, "type": "electric_scooter", "lat": 38.9010785, "fusion_lat": 0.0, "is_disabled": 0}, {"rental_uris": {"android": "https://dc.lft.to/lastmile_qr_scan", "ios": "https://dc.lft.to/lastmile_qr_scan"}, "lon": -76.97708733333333, "name": "112883cbbffff767301172e388d13fb5", "fusion_lon": 0.0, "bike_id": "112883cbbffff767301172e388d13fb5", "is_reserved": 0, "type": "electric_scooter", "lat": 38.885177, "fusion_lat": 0.0, "is_disabled": 0}, {"rental_uris": {"android": "https://dc.lft.to/lastmile_qr_scan", "ios": "https://dc.lft.to/lastmile_qr_scan"}, "lon": -77.04965066666666, "name": "d38d1b5d42fdb376581cd0536e8330bf", "fusion_lon": 0.0, "bike_id": "d38d1b5d42fdb376581cd0536e8330bf", "is_reserved": 0, "type": "electric_scooter", "lat": 38.90317683333333, "fusion_lat": 0.0, "is_disabled": 0}, {"rental_uris": {"android": "https://dc.lft.to/lastmile_qr_scan", "ios": "https://dc.lft.to/lastmile_qr_scan"}, "lon": -77.013745, "name": "17f2d0a6fdc1d904f3fd0395dca95e95", "fusion_lon": 0.0, "bike_id": "17f2d0a6fdc1d904f3fd0395dca95e95", "is_reserved": 0, "type": "electric_scooter", "lat": 38.92883416666667, "fusion_lat": 0.0, "is_disabled": 0}, {"rental_uris": {"android": "https://dc.lft.to/lastmile_qr_scan", "ios": "https://dc.lft.to/lastmile_qr_scan"}, "lon": -77.02427183333333, "name": "0e0ab2d37a02a3735b8c83b959adeded", "fusion_lon": 0.0, "bike_id": "0e0ab2d37a02a3735b8c83b959adeded", "is_reserved": 0, "type": "electric_scooter", "lat": 38.96031883333333, "fusion_lat": 0.0, "is_disabled": 0}, {"rental_uris": {"android": "https://dc.lft.to/lastmile_qr_scan", "ios": "https://dc.lft.to/lastmile_qr_scan"}, "lon": -76.9914195, "name": "6e533a39911ae2ceed14d5ed0524ea0e", "fusion_lon": 0.0, "bike_id": "6e533a39911ae2ceed14d5ed0524ea0e", "is_reserved": 0, "type": "electric_scooter", "lat": 38.859446166666665, "fusion_lat": 0.0, "is_disabled": 0}, {"rental_uris": {"android": "https://dc.lft.to/lastmile_qr_scan", "ios": "https://dc.lft.to/lastmile_qr_scan"}, "lon": -77.027234, "name": "895b3c8fe16766c09382a95531676d60", "fusion_lon": 0.0, "bike_id": "895b3c8fe16766c09382a95531676d60", "is_reserved": 0, "type": "electric_scooter", "lat": 38.9349805, "fusion_lat": 0.0, "is_disabled": 0}, {"rental_uris": {"android": "https://dc.lft.to/lastmile_qr_scan", "ios": "https://dc.lft.to/lastmile_qr_scan"}, "lon": -76.985473, "name": "47f993eb9c34ca5240b10e84f49724f8", "fusion_lon": 0.0, "bike_id": "47f993eb9c34ca5240b10e84f49724f8", "is_reserved": 0, "type": "electric_scooter", "lat": 38.87993783333334, "fusion_lat": 0.0, "is_disabled": 0}, {"rental_uris": {"android": "https://dc.lft.to/lastmile_qr_scan", "ios": "https://dc.lft.to/lastmile_qr_scan"}, "lon": -77.00892216666666, "name": "07033159f788d79ecfcfccd889390b8d", "fusion_lon": 0.0, "bike_id": "07033159f788d79ecfcfccd889390b8d", "is_reserved": 0, "type": "electric_scooter", "lat": 38.92329083333333, "fusion_lat": 0.0, "is_disabled": 0}, {"rental_uris": {"android": "https://dc.lft.to/lastmile_qr_scan", "ios": "https://dc.lft.to/lastmile_qr_scan"}, "lon": -77.02707133333334, "name": "f79a7af47c401037db89cceb4891e89c", "fusion_lon": 0.0, "bike_id": "f79a7af47c401037db89cceb4891e89c", "is_reserved": 0, "type": "electric_scooter", "lat": 38.90024983333333, "fusion_lat": 0.0, "is_disabled": 0}, {"rental_uris": {"android": "https://dc.lft.to/lastmile_qr_scan", "ios": "https://dc.lft.to/lastmile_qr_scan"}, "lon": -76.98029133333333, "name": "c8d4b7503805bb4e09f7785092047ac6", "fusion_lon": 0.0, "bike_id": "c8d4b7503805bb4e09f7785092047ac6", "is_reserved": 0, "type": "electric_bike", "lat": 38.90032033333333, "fusion_lat": 0.0, "is_disabled": 0}, {"rental_uris": {"android": "https://dc.lft.to/lastmile_qr_scan", "ios": "https://dc.lft.to/lastmile_qr_scan"}, "lon": -76.93595, "name": "fa0933c53335a4c85aebcff8e7e84b99", "fusion_lon": 0.0, "bike_id": "fa0933c53335a4c85aebcff8e7e84b99", "is_reserved": 0, "type": "electric_scooter", "lat": 38.89366016666666, "fusion_lat": 0.0, "is_disabled": 0}, {"rental_uris": {"android": "https://dc.lft.to/lastmile_qr_scan", "ios": "https://dc.lft.to/lastmile_qr_scan"}, "lon": -77.04083133333333, "name": "4bb011790bf948fe49280888233bafbf", "fusion_lon": 0.0, "bike_id": "4bb011790bf948fe49280888233bafbf", "is_reserved": 0, "type": "electric_scooter", "lat": 38.892268666666666, "fusion_lat": 0.0, "is_disabled": 0}, {"rental_uris": {"android": "https://dc.lft.to/lastmile_qr_scan", "ios": "https://dc.lft.to/lastmile_qr_scan"}, "lon": -77.0716985, "name": "a71ce6026d4f1a7f34f53edaaf05c17d", "fusion_lon": 0.0, "bike_id": "a71ce6026d4f1a7f34f53edaaf05c17d", "is_reserved": 0, "type": "electric_scooter", "lat": 38.90773316666667, "fusion_lat": 0.0, "is_disabled": 0}, {"rental_uris": {"android": "https://dc.lft.to/lastmile_qr_scan", "ios": "https://dc.lft.to/lastmile_qr_scan"}, "lon": -76.98811033333334, "name": "815c860e56182fe74866fe6cbd8a0ec2", "fusion_lon": 0.0, "bike_id": "815c860e56182fe74866fe6cbd8a0ec2", "is_reserved": 0, "type": "electric_bike", "lat": 38.803885666666666, "fusion_lat": 0.0, "is_disabled": 0}, {"rental_uris": {"android": "https://dc.lft.to/lastmile_qr_scan", "ios": "https://dc.lft.to/lastmile_qr_scan"}, "lon": -77.03658683333333, "name": "dfda0dbc69aa4f599d44ff84abff621c", "fusion_lon": 0.0, "bike_id": "dfda0dbc69aa4f599d44ff84abff621c", "is_reserved": 0, "type": "electric_scooter", "lat": 38.922365166666665, "fusion_lat": 0.0, "is_disabled": 0}, {"rental_uris": {"android": "https://dc.lft.to/lastmile_qr_scan", "ios": "https://dc.lft.to/lastmile_qr_scan"}, "lon": -76.94891816666667, "name": "79f97cacd12d9c2467e00cf6b6219f7a", "fusion_lon": 0.0, "bike_id": "79f97cacd12d9c2467e00cf6b6219f7a", "is_reserved": 0, "type": "electric_scooter", "lat": 38.895339666666665, "fusion_lat": 0.0, "is_disabled": 0}, {"rental_uris": {"android": "https://dc.lft.to/lastmile_qr_scan", "ios": "https://dc.lft.to/lastmile_qr_scan"}, "lon": -76.97910883333333, "name": "9785b871c7bb7ce477e5d4a7c899f1d9", "fusion_lon": 0.0, "bike_id": "9785b871c7bb7ce477e5d4a7c899f1d9", "is_reserved": 0, "type": "electric_scooter", "lat": 38.86660916666666, "fusion_lat": 0.0, "is_disabled": 0}, {"rental_uris": {"android": "https://dc.lft.to/lastmile_qr_scan", "ios": "https://dc.lft.to/lastmile_qr_scan"}, "lon": -77.031871, "name": "a1d8141035bfc666add1bb5239548da7", "fusion_lon": 0.0, "bike_id": "a1d8141035bfc666add1bb5239548da7", "is_reserved": 0, "type": "electric_scooter", "lat": 38.91809933333333, "fusion_lat": 0.0, "is_disabled": 0}, {"rental_uris": {"android": "https://dc.lft.to/lastmile_qr_scan", "ios": "https://dc.lft.to/lastmile_qr_scan"}, "lon": -76.9347515, "name": "8e1d4f06ff16ea80c03a43a6eecef43c", "fusion_lon": 0.0, "bike_id": "8e1d4f06ff16ea80c03a43a6eecef43c", "is_reserved": 0, "type": "electric_scooter", "lat": 38.895055666666664, "fusion_lat": 0.0, "is_disabled": 0}, {"rental_uris": {"android": "https://dc.lft.to/lastmile_qr_scan", "ios": "https://dc.lft.to/lastmile_qr_scan"}, "lon": -77.01651083333333, "name": "d913ad36e8cf65db5449e0a108b25419", "fusion_lon": 0.0, "bike_id": "d913ad36e8cf65db5449e0a108b25419", "is_reserved": 0, "type": "electric_scooter", "lat": 38.91326166666666, "fusion_lat": 0.0, "is_disabled": 0}, {"rental_uris": {"android": "https://dc.lft.to/lastmile_qr_scan", "ios": "https://dc.lft.to/lastmile_qr_scan"}, "lon": -77.0321225, "name": "be9268f40d158e1063290f797087ac97", "fusion_lon": 0.0, "bike_id": "be9268f40d158e1063290f797087ac97", "is_reserved": 0, "type": "electric_scooter", "lat": 38.936113, "fusion_lat": 0.0, "is_disabled": 0}, {"rental_uris": {"android": "https://dc.lft.to/lastmile_qr_scan", "ios": "https://dc.lft.to/lastmile_qr_scan"}, "lon": -77.01955783333334, "name": "5f0b19d1edc03942c328ad00839a54e0", "fusion_lon": 0.0, "bike_id": "5f0b19d1edc03942c328ad00839a54e0", "is_reserved": 0, "type": "electric_scooter", "lat": 38.924039666666665, "fusion_lat": 0.0, "is_disabled": 0}, {"rental_uris": {"android": "https://dc.lft.to/lastmile_qr_scan", "ios": "https://dc.lft.to/lastmile_qr_scan"}, "lon": -77.02574366666667, "name": "afc7bf19837eaaf1f7e75f61af4ff7b4", "fusion_lon": 0.0, "bike_id": "afc7bf19837eaaf1f7e75f61af4ff7b4", "is_reserved": 0, "type": "electric_scooter", "lat": 38.915957, "fusion_lat": 0.0, "is_disabled": 0}, {"rental_uris": {"android": "https://dc.lft.to/lastmile_qr_scan", "ios": "https://dc.lft.to/lastmile_qr_scan"}, "lon": -77.03131633333334, "name": "7c8406edc1d79e5630c0675e3bf6ede3", "fusion_lon": 0.0, "bike_id": "7c8406edc1d79e5630c0675e3bf6ede3", "is_reserved": 0, "type": "electric_scooter", "lat": 38.8999205, "fusion_lat": 0.0, "is_disabled": 0}, {"rental_uris": {"android": "https://dc.lft.to/lastmile_qr_scan", "ios": "https://dc.lft.to/lastmile_qr_scan"}, "lon": -76.99807483333333, "name": "ca885eb52fcc6042b0503728a60c85d2", "fusion_lon": 0.0, "bike_id": "ca885eb52fcc6042b0503728a60c85d2", "is_reserved": 0, "type": "electric_scooter", "lat": 38.885661666666664, "fusion_lat": 0.0, "is_disabled": 0}, {"rental_uris": {"android": "https://dc.lft.to/lastmile_qr_scan", "ios": "https://dc.lft.to/lastmile_qr_scan"}, "lon": -77.03082866666666, "name": "86e05e962798bcbfb1d2183e0c151509", "fusion_lon": 0.0, "bike_id": "86e05e962798bcbfb1d2183e0c151509", "is_reserved": 0, "type": "electric_scooter", "lat": 38.920265, "fusion_lat": 0.0, "is_disabled": 0}, {"rental_uris": {"android": "https://dc.lft.to/lastmile_qr_scan", "ios": "https://dc.lft.to/lastmile_qr_scan"}, "lon": -77.04920033333333, "name": "b95151a8d2f9dff61bf2fdb236528b54", "fusion_lon": 0.0, "bike_id": "b95151a8d2f9dff61bf2fdb236528b54", "is_reserved": 0, "type": "electric_scooter", "lat": 38.91927283333333, "fusion_lat": 0.0, "is_disabled": 0}, {"rental_uris": {"android": "https://dc.lft.to/lastmile_qr_scan", "ios": "https://dc.lft.to/lastmile_qr_scan"}, "lon": -77.03115633333333, "name": "95ef3b320f93ec3a12371387b01ad4f0", "fusion_lon": 0.0, "bike_id": "95ef3b320f93ec3a12371387b01ad4f0", "is_reserved": 0, "type": "electric_scooter", "lat": 38.930748666666666, "fusion_lat": 0.0, "is_disabled": 0}, {"rental_uris": {"android": "https://dc.lft.to/lastmile_qr_scan", "ios": "https://dc.lft.to/lastmile_qr_scan"}, "lon": -77.03255766666666, "name": "b1d73e8e9c36957554381ad115fbdf88", "fusion_lon": 0.0, "bike_id": "b1d73e8e9c36957554381ad115fbdf88", "is_reserved": 0, "type": "electric_scooter", "lat": 38.93559616666667, "fusion_lat": 0.0, "is_disabled": 0}, {"rental_uris": {"android": "https://dc.lft.to/lastmile_qr_scan", "ios": "https://dc.lft.to/lastmile_qr_scan"}, "lon": -76.99422616666666, "name": "c3b6c875150d80ef1d1f58354d1086bc", "fusion_lon": 0.0, "bike_id": "c3b6c875150d80ef1d1f58354d1086bc", "is_reserved": 0, "type": "electric_scooter", "lat": 38.8521765, "fusion_lat": 0.0, "is_disabled": 0}, {"rental_uris": {"android": "https://dc.lft.to/lastmile_qr_scan", "ios": "https://dc.lft.to/lastmile_qr_scan"}, "lon": -76.985742, "name": "c715fd5b35cb633ba86f97e9bacb3d30", "fusion_lon": 0.0, "bike_id": "c715fd5b35cb633ba86f97e9bacb3d30", "is_reserved": 0, "type": "electric_scooter", "lat": 38.89909266666667, "fusion_lat": 0.0, "is_disabled": 0}, {"rental_uris": {"android": "https://dc.lft.to/lastmile_qr_scan", "ios": "https://dc.lft.to/lastmile_qr_scan"}, "lon": -77.03991866666667, "name": "95d08f2dd263749e4b7238f9b7f38904", "fusion_lon": 0.0, "bike_id": "95d08f2dd263749e4b7238f9b7f38904", "is_reserved": 0, "type": "electric_scooter", "lat": 38.89220983333333, "fusion_lat": 0.0, "is_disabled": 0}, {"rental_uris": {"android": "https://dc.lft.to/lastmile_qr_scan", "ios": "https://dc.lft.to/lastmile_qr_scan"}, "lon": -76.986643, "name": "664da9e1a1968df9fa95259eefad9383", "fusion_lon": 0.0, "bike_id": "664da9e1a1968df9fa95259eefad9383", "is_reserved": 0, "type": "electric_bike", "lat": 38.88003116666667, "fusion_lat": 0.0, "is_disabled": 0}, {"rental_uris": {"android": "https://dc.lft.to/lastmile_qr_scan", "ios": "https://dc.lft.to/lastmile_qr_scan"}, "lon": -77.01605583333334, "name": "fddfb95b6122e8b035d38fd96d7d19e9", "fusion_lon": 0.0, "bike_id": "fddfb95b6122e8b035d38fd96d7d19e9", "is_reserved": 0, "type": "electric_scooter", "lat": 38.89956883333333, "fusion_lat": 0.0, "is_disabled": 0}, {"rental_uris": {"android": "https://dc.lft.to/lastmile_qr_scan", "ios": "https://dc.lft.to/lastmile_qr_scan"}, "lon": -76.94285016666667, "name": "f6e173b90ef8273ee1c0f2d94ad8d5bd", "fusion_lon": 0.0, "bike_id": "f6e173b90ef8273ee1c0f2d94ad8d5bd", "is_reserved": 0, "type": "electric_scooter", "lat": 38.8834025, "fusion_lat": 0.0, "is_disabled": 0}, {"rental_uris": {"android": "https://dc.lft.to/lastmile_qr_scan", "ios": "https://dc.lft.to/lastmile_qr_scan"}, "lon": -77.02569116666666, "name": "d90deee77336dad0f9c43a16872dd790", "fusion_lon": 0.0, "bike_id": "d90deee77336dad0f9c43a16872dd790", "is_reserved": 0, "type": "electric_scooter", "lat": 38.88401866666667, "fusion_lat": 0.0, "is_disabled": 0}, {"rental_uris": {"android": "https://dc.lft.to/lastmile_qr_scan", "ios": "https://dc.lft.to/lastmile_qr_scan"}, "lon": -77.02535483333334, "name": "4725a38963921347fd5d5b4985035dc3", "fusion_lon": 0.0, "bike_id": "4725a38963921347fd5d5b4985035dc3", "is_reserved": 0, "type": "electric_scooter", "lat": 38.91843166666666, "fusion_lat": 0.0, "is_disabled": 0}, {"rental_uris": {"android": "https://dc.lft.to/lastmile_qr_scan", "ios": "https://dc.lft.to/lastmile_qr_scan"}, "lon": -77.083957, "name": "103d0612e4b86bf9309af591c20c8bd4", "fusion_lon": 0.0, "bike_id": "103d0612e4b86bf9309af591c20c8bd4", "is_reserved": 0, "type": "electric_scooter", "lat": 38.908016833333335, "fusion_lat": 0.0, "is_disabled": 0}, {"rental_uris": {"android": "https://dc.lft.to/lastmile_qr_scan", "ios": "https://dc.lft.to/lastmile_qr_scan"}, "lon": -77.003774, "name": "4e32f9423627d4c4280374d0dba5ea01", "fusion_lon": 0.0, "bike_id": "4e32f9423627d4c4280374d0dba5ea01", "is_reserved": 0, "type": "electric_scooter", "lat": 38.879366833333336, "fusion_lat": 0.0, "is_disabled": 0}, {"rental_uris": {"android": "https://dc.lft.to/lastmile_qr_scan", "ios": "https://dc.lft.to/lastmile_qr_scan"}, "lon": -77.03638383333333, "name": "d963e92a7dea2cfd4e4dc9aea455d138", "fusion_lon": 0.0, "bike_id": "d963e92a7dea2cfd4e4dc9aea455d138", "is_reserved": 0, "type": "electric_scooter", "lat": 38.90284583333333, "fusion_lat": 0.0, "is_disabled": 0}, {"rental_uris": {"android": "https://dc.lft.to/lastmile_qr_scan", "ios": "https://dc.lft.to/lastmile_qr_scan"}, "lon": -77.11058866666667, "name": "273555687a2b1cbefe56d80e5aa3ab8c", "fusion_lon": 0.0, "bike_id": "273555687a2b1cbefe56d80e5aa3ab8c", "is_reserved": 0, "type": "electric_bike", "lat": 38.870649, "fusion_lat": 0.0, "is_disabled": 0}, {"rental_uris": {"android": "https://dc.lft.to/lastmile_qr_scan", "ios": "https://dc.lft.to/lastmile_qr_scan"}, "lon": -76.98513783333334, "name": "718aaff119696787930f8a2a8dfc0869", "fusion_lon": 0.0, "bike_id": "718aaff119696787930f8a2a8dfc0869", "is_reserved": 0, "type": "electric_scooter", "lat": 38.88075633333333, "fusion_lat": 0.0, "is_disabled": 0}, {"rental_uris": {"android": "https://dc.lft.to/lastmile_qr_scan", "ios": "https://dc.lft.to/lastmile_qr_scan"}, "lon": -76.97098133333333, "name": "c4c6a51213e83cc6971ecd3f08bfbdd7", "fusion_lon": 0.0, "bike_id": "c4c6a51213e83cc6971ecd3f08bfbdd7", "is_reserved": 0, "type": "electric_bike", "lat": 38.95025116666667, "fusion_lat": 0.0, "is_disabled": 0}, {"rental_uris": {"android": "https://dc.lft.to/lastmile_qr_scan", "ios": "https://dc.lft.to/lastmile_qr_scan"}, "lon": -77.01942866666667, "name": "12bbf46e0f1c45e172dcc03bf24fe380", "fusion_lon": 0.0, "bike_id": "12bbf46e0f1c45e172dcc03bf24fe380", "is_reserved": 0, "type": "electric_scooter", "lat": 38.92428016666667, "fusion_lat": 0.0, "is_disabled": 0}, {"rental_uris": {"android": "https://dc.lft.to/lastmile_qr_scan", "ios": "https://dc.lft.to/lastmile_qr_scan"}, "lon": -77.0297295, "name": "828fe47cad7b8b19d8164ae89b14945a", "fusion_lon": 0.0, "bike_id": "828fe47cad7b8b19d8164ae89b14945a", "is_reserved": 0, "type": "electric_scooter", "lat": 38.904808333333335, "fusion_lat": 0.0, "is_disabled": 0}, {"rental_uris": {"android": "https://dc.lft.to/lastmile_qr_scan", "ios": "https://dc.lft.to/lastmile_qr_scan"}, "lon": -77.0073325, "name": "4877a955e775ab36ceffee2a6edca60e", "fusion_lon": 0.0, "bike_id": "4877a955e775ab36ceffee2a6edca60e", "is_reserved": 0, "type": "electric_scooter", "lat": 38.900795333333335, "fusion_lat": 0.0, "is_disabled": 0}, {"rental_uris": {"android": "https://dc.lft.to/lastmile_qr_scan", "ios": "https://dc.lft.to/lastmile_qr_scan"}, "lon": -77.01599166666666, "name": "674faf01f49e28f8c40261b31e8cd37b", "fusion_lon": 0.0, "bike_id": "674faf01f49e28f8c40261b31e8cd37b", "is_reserved": 0, "type": "electric_scooter", "lat": 38.8976235, "fusion_lat": 0.0, "is_disabled": 0}, {"rental_uris": {"android": "https://dc.lft.to/lastmile_qr_scan", "ios": "https://dc.lft.to/lastmile_qr_scan"}, "lon": -76.99795016666667, "name": "9cbdd2b4f6c2a4ba5501dafc6d2adbee", "fusion_lon": 0.0, "bike_id": "9cbdd2b4f6c2a4ba5501dafc6d2adbee", "is_reserved": 0, "type": "electric_bike", "lat": 38.881228166666666, "fusion_lat": 0.0, "is_disabled": 0}, {"rental_uris": {"android": "https://dc.lft.to/lastmile_qr_scan", "ios": "https://dc.lft.to/lastmile_qr_scan"}, "lon": -77.039471, "name": "79f7bfb4033cd88e6333317f38ef26f4", "fusion_lon": 0.0, "bike_id": "79f7bfb4033cd88e6333317f38ef26f4", "is_reserved": 0, "type": "electric_scooter", "lat": 38.91624316666667, "fusion_lat": 0.0, "is_disabled": 0}, {"rental_uris": {"android": "https://dc.lft.to/lastmile_qr_scan", "ios": "https://dc.lft.to/lastmile_qr_scan"}, "lon": -77.0258115, "name": "0b56d1cfb09bfd3a13545c9ac27e98e3", "fusion_lon": 0.0, "bike_id": "0b56d1cfb09bfd3a13545c9ac27e98e3", "is_reserved": 0, "type": "electric_scooter", "lat": 38.897323, "fusion_lat": 0.0, "is_disabled": 0}, {"rental_uris": {"android": "https://dc.lft.to/lastmile_qr_scan", "ios": "https://dc.lft.to/lastmile_qr_scan"}, "lon": -77.01796166666666, "name": "c024cf326d42db2374e013e9d515ec2b", "fusion_lon": 0.0, "bike_id": "c024cf326d42db2374e013e9d515ec2b", "is_reserved": 0, "type": "electric_scooter", "lat": 38.87655616666667, "fusion_lat": 0.0, "is_disabled": 0}, {"rental_uris": {"android": "https://dc.lft.to/lastmile_qr_scan", "ios": "https://dc.lft.to/lastmile_qr_scan"}, "lon": -77.02390233333334, "name": "ccf9c7be46ce69c3e40a59a8d96539b9", "fusion_lon": 0.0, "bike_id": "ccf9c7be46ce69c3e40a59a8d96539b9", "is_reserved": 0, "type": "electric_scooter", "lat": 38.900295, "fusion_lat": 0.0, "is_disabled": 0}, {"rental_uris": {"android": "https://dc.lft.to/lastmile_qr_scan", "ios": "https://dc.lft.to/lastmile_qr_scan"}, "lon": -77.02712766666667, "name": "2d417bb1c99897d446f439cbc5bf9843", "fusion_lon": 0.0, "bike_id": "2d417bb1c99897d446f439cbc5bf9843", "is_reserved": 0, "type": "electric_scooter", "lat": 38.936889, "fusion_lat": 0.0, "is_disabled": 0}, {"rental_uris": {"android": "https://dc.lft.to/lastmile_qr_scan", "ios": "https://dc.lft.to/lastmile_qr_scan"}, "lon": -76.9801815, "name": "dc01c14a7e08139c357b66526b689134", "fusion_lon": 0.0, "bike_id": "dc01c14a7e08139c357b66526b689134", "is_reserved": 0, "type": "electric_scooter", "lat": 38.90662966666667, "fusion_lat": 0.0, "is_disabled": 0}, {"rental_uris": {"android": "https://dc.lft.to/lastmile_qr_scan", "ios": "https://dc.lft.to/lastmile_qr_scan"}, "lon": -77.04553916666667, "name": "a3dd6c63dca2472284e174254253a5c4", "fusion_lon": 0.0, "bike_id": "a3dd6c63dca2472284e174254253a5c4", "is_reserved": 0, "type": "electric_scooter", "lat": 38.924195833333336, "fusion_lat": 0.0, "is_disabled": 0}, {"rental_uris": {"android": "https://dc.lft.to/lastmile_qr_scan", "ios": "https://dc.lft.to/lastmile_qr_scan"}, "lon": -77.04035816666666, "name": "181014f24d481ee7c8c1daf97c002b23", "fusion_lon": 0.0, "bike_id": "181014f24d481ee7c8c1daf97c002b23", "is_reserved": 0, "type": "electric_scooter", "lat": 38.91854, "fusion_lat": 0.0, "is_disabled": 0}, {"rental_uris": {"android": "https://dc.lft.to/lastmile_qr_scan", "ios": "https://dc.lft.to/lastmile_qr_scan"}, "lon": -77.021967, "name": "64f1fc0f94abb3f1b7b5e7b17b5d0166", "fusion_lon": 0.0, "bike_id": "64f1fc0f94abb3f1b7b5e7b17b5d0166", "is_reserved": 0, "type": "electric_scooter", "lat": 38.91123366666667, "fusion_lat": 0.0, "is_disabled": 0}, {"rental_uris": {"android": "https://dc.lft.to/lastmile_qr_scan", "ios": "https://dc.lft.to/lastmile_qr_scan"}, "lon": -77.02590633333334, "name": "9b525409a333fc51397362595ec33be7", "fusion_lon": 0.0, "bike_id": "9b525409a333fc51397362595ec33be7", "is_reserved": 0, "type": "electric_scooter", "lat": 38.92037666666667, "fusion_lat": 0.0, "is_disabled": 0}, {"rental_uris": {"android": "https://dc.lft.to/lastmile_qr_scan", "ios": "https://dc.lft.to/lastmile_qr_scan"}, "lon": -76.9997955, "name": "f6fbe553e465ea20759357b4841b0096", "fusion_lon": 0.0, "bike_id": "f6fbe553e465ea20759357b4841b0096", "is_reserved": 0, "type": "electric_scooter", "lat": 38.918090666666664, "fusion_lat": 0.0, "is_disabled": 0}, {"rental_uris": {"android": "https://dc.lft.to/lastmile_qr_scan", "ios": "https://dc.lft.to/lastmile_qr_scan"}, "lon": -77.01207316666667, "name": "aa5624c004380e9bd96924c8836aa91b", "fusion_lon": 0.0, "bike_id": "aa5624c004380e9bd96924c8836aa91b", "is_reserved": 0, "type": "electric_scooter", "lat": 38.92117966666667, "fusion_lat": 0.0, "is_disabled": 0}, {"rental_uris": {"android": "https://dc.lft.to/lastmile_qr_scan", "ios": "https://dc.lft.to/lastmile_qr_scan"}, "lon": -76.92754133333334, "name": "027818cd5771ba2251fcb6fa13ba0d82", "fusion_lon": 0.0, "bike_id": "027818cd5771ba2251fcb6fa13ba0d82", "is_reserved": 0, "type": "electric_scooter", "lat": 38.898514, "fusion_lat": 0.0, "is_disabled": 0}, {"rental_uris": {"android": "https://dc.lft.to/lastmile_qr_scan", "ios": "https://dc.lft.to/lastmile_qr_scan"}, "lon": -77.016235, "name": "a89a06f55fdcf100bc1528ecfcc648a9", "fusion_lon": 0.0, "bike_id": "a89a06f55fdcf100bc1528ecfcc648a9", "is_reserved": 0, "type": "electric_scooter", "lat": 38.90114833333333, "fusion_lat": 0.0, "is_disabled": 0}, {"rental_uris": {"android": "https://dc.lft.to/lastmile_qr_scan", "ios": "https://dc.lft.to/lastmile_qr_scan"}, "lon": -77.01795766666666, "name": "f8ff173497359c0db616f3457421962c", "fusion_lon": 0.0, "bike_id": "f8ff173497359c0db616f3457421962c", "is_reserved": 0, "type": "electric_scooter", "lat": 38.9141925, "fusion_lat": 0.0, "is_disabled": 0}, {"rental_uris": {"android": "https://dc.lft.to/lastmile_qr_scan", "ios": "https://dc.lft.to/lastmile_qr_scan"}, "lon": -77.0143665, "name": "da5805570c1bb181d1a0c0224610bb03", "fusion_lon": 0.0, "bike_id": "da5805570c1bb181d1a0c0224610bb03", "is_reserved": 0, "type": "electric_scooter", "lat": 38.90954933333333, "fusion_lat": 0.0, "is_disabled": 0}, {"rental_uris": {"android": "https://dc.lft.to/lastmile_qr_scan", "ios": "https://dc.lft.to/lastmile_qr_scan"}, "lon": -76.99158333333334, "name": "5b23918b9a6912a71ee86ad52b1dd277", "fusion_lon": 0.0, "bike_id": "5b23918b9a6912a71ee86ad52b1dd277", "is_reserved": 0, "type": "electric_scooter", "lat": 38.87895966666667, "fusion_lat": 0.0, "is_disabled": 0}, {"rental_uris": {"android": "https://dc.lft.to/lastmile_qr_scan", "ios": "https://dc.lft.to/lastmile_qr_scan"}, "lon": -77.02206433333333, "name": "f23bce66cc86191fd9bcdd555dbf4035", "fusion_lon": 0.0, "bike_id": "f23bce66cc86191fd9bcdd555dbf4035", "is_reserved": 0, "type": "electric_scooter", "lat": 38.91264183333333, "fusion_lat": 0.0, "is_disabled": 0}, {"rental_uris": {"android": "https://dc.lft.to/lastmile_qr_scan", "ios": "https://dc.lft.to/lastmile_qr_scan"}, "lon": -77.02375383333333, "name": "a1ca7187209c49496005c3aa333d774b", "fusion_lon": 0.0, "bike_id": "a1ca7187209c49496005c3aa333d774b", "is_reserved": 0, "type": "electric_scooter", "lat": 38.90198866666667, "fusion_lat": 0.0, "is_disabled": 0}, {"rental_uris": {"android": "https://dc.lft.to/lastmile_qr_scan", "ios": "https://dc.lft.to/lastmile_qr_scan"}, "lon": -77.0170835, "name": "3e93d93061da3039de83c93799d4ccd7", "fusion_lon": 0.0, "bike_id": "3e93d93061da3039de83c93799d4ccd7", "is_reserved": 0, "type": "electric_scooter", "lat": 38.902224, "fusion_lat": 0.0, "is_disabled": 0}, {"rental_uris": {"android": "https://dc.lft.to/lastmile_qr_scan", "ios": "https://dc.lft.to/lastmile_qr_scan"}, "lon": -76.99571983333334, "name": "e61bbfc29a878767c2f7ee7a8168cb88", "fusion_lon": 0.0, "bike_id": "e61bbfc29a878767c2f7ee7a8168cb88", "is_reserved": 0, "type": "electric_scooter", "lat": 38.95534583333333, "fusion_lat": 0.0, "is_disabled": 0}, {"rental_uris": {"android": "https://dc.lft.to/lastmile_qr_scan", "ios": "https://dc.lft.to/lastmile_qr_scan"}, "lon": -77.0486465, "name": "6467e038bc875bd3b7f97e9b567760ef", "fusion_lon": 0.0, "bike_id": "6467e038bc875bd3b7f97e9b567760ef", "is_reserved": 0, "type": "electric_scooter", "lat": 38.90153566666667, "fusion_lat": 0.0, "is_disabled": 0}, {"rental_uris": {"android": "https://dc.lft.to/lastmile_qr_scan", "ios": "https://dc.lft.to/lastmile_qr_scan"}, "lon": -77.02461266666667, "name": "929a663cd952a43033688e4e4487d99d", "fusion_lon": 0.0, "bike_id": "929a663cd952a43033688e4e4487d99d", "is_reserved": 0, "type": "electric_scooter", "lat": 38.89723016666667, "fusion_lat": 0.0, "is_disabled": 0}, {"rental_uris": {"android": "https://dc.lft.to/lastmile_qr_scan", "ios": "https://dc.lft.to/lastmile_qr_scan"}, "lon": -76.9788735, "name": "61593c13292327dd715be84d44f3bc53", "fusion_lon": 0.0, "bike_id": "61593c13292327dd715be84d44f3bc53", "is_reserved": 0, "type": "electric_bike", "lat": 38.898731833333336, "fusion_lat": 0.0, "is_disabled": 0}, {"rental_uris": {"android": "https://dc.lft.to/lastmile_qr_scan", "ios": "https://dc.lft.to/lastmile_qr_scan"}, "lon": -77.03654433333334, "name": "c03959764340d80c2ecff98e03fb32b0", "fusion_lon": 0.0, "bike_id": "c03959764340d80c2ecff98e03fb32b0", "is_reserved": 0, "type": "electric_scooter", "lat": 38.9277915, "fusion_lat": 0.0, "is_disabled": 0}, {"rental_uris": {"android": "https://dc.lft.to/lastmile_qr_scan", "ios": "https://dc.lft.to/lastmile_qr_scan"}, "lon": -76.95147966666667, "name": "e128daeb6317c86b86031d7c4937ce90", "fusion_lon": 0.0, "bike_id": "e128daeb6317c86b86031d7c4937ce90", "is_reserved": 0, "type": "electric_scooter", "lat": 38.923948, "fusion_lat": 0.0, "is_disabled": 0}, {"rental_uris": {"android": "https://dc.lft.to/lastmile_qr_scan", "ios": "https://dc.lft.to/lastmile_qr_scan"}, "lon": -77.0508335, "name": "f052ed46024da35e9d16e70c9ef3682f", "fusion_lon": 0.0, "bike_id": "f052ed46024da35e9d16e70c9ef3682f", "is_reserved": 0, "type": "electric_scooter", "lat": 38.92337283333333, "fusion_lat": 0.0, "is_disabled": 0}, {"rental_uris": {"android": "https://dc.lft.to/lastmile_qr_scan", "ios": "https://dc.lft.to/lastmile_qr_scan"}, "lon": -77.02699883333334, "name": "f5c281a81defd740e6fa93300e60b155", "fusion_lon": 0.0, "bike_id": "f5c281a81defd740e6fa93300e60b155", "is_reserved": 0, "type": "electric_scooter", "lat": 38.89835566666667, "fusion_lat": 0.0, "is_disabled": 0}, {"rental_uris": {"android": "https://dc.lft.to/lastmile_qr_scan", "ios": "https://dc.lft.to/lastmile_qr_scan"}, "lon": -77.002065, "name": "12b994855aaea4c334c938bc871a8667", "fusion_lon": 0.0, "bike_id": "12b994855aaea4c334c938bc871a8667", "is_reserved": 0, "type": "electric_scooter", "lat": 38.89628316666666, "fusion_lat": 0.0, "is_disabled": 0}, {"rental_uris": {"android": "https://dc.lft.to/lastmile_qr_scan", "ios": "https://dc.lft.to/lastmile_qr_scan"}, "lon": -77.0345185, "name": "7fc2889afcdcb2a88be8951c88070a98", "fusion_lon": 0.0, "bike_id": "7fc2889afcdcb2a88be8951c88070a98", "is_reserved": 0, "type": "electric_scooter", "lat": 38.9101595, "fusion_lat": 0.0, "is_disabled": 0}, {"rental_uris": {"android": "https://dc.lft.to/lastmile_qr_scan", "ios": "https://dc.lft.to/lastmile_qr_scan"}, "lon": -76.98208883333334, "name": "5456faaa5cc5a04e03b499271a95a0a4", "fusion_lon": 0.0, "bike_id": "5456faaa5cc5a04e03b499271a95a0a4", "is_reserved": 0, "type": "electric_scooter", "lat": 38.85706366666667, "fusion_lat": 0.0, "is_disabled": 0}, {"rental_uris": {"android": "https://dc.lft.to/lastmile_qr_scan", "ios": "https://dc.lft.to/lastmile_qr_scan"}, "lon": -77.02968683333333, "name": "a14946ed054febd5975382cd288e4684", "fusion_lon": 0.0, "bike_id": "a14946ed054febd5975382cd288e4684", "is_reserved": 0, "type": "electric_scooter", "lat": 38.904894, "fusion_lat": 0.0, "is_disabled": 0}, {"rental_uris": {"android": "https://dc.lft.to/lastmile_qr_scan", "ios": "https://dc.lft.to/lastmile_qr_scan"}, "lon": -77.024955, "name": "1b346538cd8da20b2b89c675e5c8fa7a", "fusion_lon": 0.0, "bike_id": "1b346538cd8da20b2b89c675e5c8fa7a", "is_reserved": 0, "type": "electric_scooter", "lat": 38.897422666666664, "fusion_lat": 0.0, "is_disabled": 0}, {"rental_uris": {"android": "https://dc.lft.to/lastmile_qr_scan", "ios": "https://dc.lft.to/lastmile_qr_scan"}, "lon": -77.02195933333333, "name": "65b6d9136bc73c41d6105d02249a618f", "fusion_lon": 0.0, "bike_id": "65b6d9136bc73c41d6105d02249a618f", "is_reserved": 0, "type": "electric_scooter", "lat": 38.91122816666667, "fusion_lat": 0.0, "is_disabled": 0}, {"rental_uris": {"android": "https://dc.lft.to/lastmile_qr_scan", "ios": "https://dc.lft.to/lastmile_qr_scan"}, "lon": -77.0482095, "name": "13b851e1d652efda5eafa94633190c32", "fusion_lon": 0.0, "bike_id": "13b851e1d652efda5eafa94633190c32", "is_reserved": 0, "type": "electric_scooter", "lat": 38.920422, "fusion_lat": 0.0, "is_disabled": 0}, {"rental_uris": {"android": "https://dc.lft.to/lastmile_qr_scan", "ios": "https://dc.lft.to/lastmile_qr_scan"}, "lon": -77.03300716666666, "name": "801b0ec80f87a125db3a5c1fa673775d", "fusion_lon": 0.0, "bike_id": "801b0ec80f87a125db3a5c1fa673775d", "is_reserved": 0, "type": "electric_scooter", "lat": 38.918033, "fusion_lat": 0.0, "is_disabled": 0}, {"rental_uris": {"android": "https://dc.lft.to/lastmile_qr_scan", "ios": "https://dc.lft.to/lastmile_qr_scan"}, "lon": -76.9926695, "name": "be7fe0a986e4d1dfeb5c1f4c2e5e47cc", "fusion_lon": 0.0, "bike_id": "be7fe0a986e4d1dfeb5c1f4c2e5e47cc", "is_reserved": 0, "type": "electric_scooter", "lat": 38.8835205, "fusion_lat": 0.0, "is_disabled": 0}, {"rental_uris": {"android": "https://dc.lft.to/lastmile_qr_scan", "ios": "https://dc.lft.to/lastmile_qr_scan"}, "lon": -77.0325665, "name": "98f6bec9d1c6933cabba8cb79e4e8b3b", "fusion_lon": 0.0, "bike_id": "98f6bec9d1c6933cabba8cb79e4e8b3b", "is_reserved": 0, "type": "electric_scooter", "lat": 38.901079, "fusion_lat": 0.0, "is_disabled": 0}, {"rental_uris": {"android": "https://dc.lft.to/lastmile_qr_scan", "ios": "https://dc.lft.to/lastmile_qr_scan"}, "lon": -77.06319266666667, "name": "aaef221b76e4e36dc32873256cbfcedf", "fusion_lon": 0.0, "bike_id": "aaef221b76e4e36dc32873256cbfcedf", "is_reserved": 0, "type": "electric_scooter", "lat": 38.94407616666667, "fusion_lat": 0.0, "is_disabled": 0}, {"rental_uris": {"android": "https://dc.lft.to/lastmile_qr_scan", "ios": "https://dc.lft.to/lastmile_qr_scan"}, "lon": -77.02571833333333, "name": "ae72dc8a01e05614dcf775ae334d898e", "fusion_lon": 0.0, "bike_id": "ae72dc8a01e05614dcf775ae334d898e", "is_reserved": 0, "type": "electric_scooter", "lat": 38.90438433333333, "fusion_lat": 0.0, "is_disabled": 0}, {"rental_uris": {"android": "https://dc.lft.to/lastmile_qr_scan", "ios": "https://dc.lft.to/lastmile_qr_scan"}, "lon": -77.0377445, "name": "1b0c2b136c02c8e7e7a1cb9e87850e8d", "fusion_lon": 0.0, "bike_id": "1b0c2b136c02c8e7e7a1cb9e87850e8d", "is_reserved": 0, "type": "electric_scooter", "lat": 38.92976016666667, "fusion_lat": 0.0, "is_disabled": 0}, {"rental_uris": {"android": "https://dc.lft.to/lastmile_qr_scan", "ios": "https://dc.lft.to/lastmile_qr_scan"}, "lon": -77.0463035, "name": "00c4045500ba7c3ac5db78fe9bf0a07e", "fusion_lon": 0.0, "bike_id": "00c4045500ba7c3ac5db78fe9bf0a07e", "is_reserved": 0, "type": "electric_bike", "lat": 38.91507, "fusion_lat": 0.0, "is_disabled": 0}, {"rental_uris": {"android": "https://dc.lft.to/lastmile_qr_scan", "ios": "https://dc.lft.to/lastmile_qr_scan"}, "lon": -77.0521705, "name": "bce22b91cd9125cfcf9ea6f6575c80e7", "fusion_lon": 0.0, "bike_id": "bce22b91cd9125cfcf9ea6f6575c80e7", "is_reserved": 0, "type": "electric_scooter", "lat": 38.924488833333335, "fusion_lat": 0.0, "is_disabled": 0}, {"rental_uris": {"android": "https://dc.lft.to/lastmile_qr_scan", "ios": "https://dc.lft.to/lastmile_qr_scan"}, "lon": -77.01627066666667, "name": "f3ffd400eca14130259963f14046258a", "fusion_lon": 0.0, "bike_id": "f3ffd400eca14130259963f14046258a", "is_reserved": 0, "type": "electric_scooter", "lat": 38.896190833333335, "fusion_lat": 0.0, "is_disabled": 0}, {"rental_uris": {"android": "https://dc.lft.to/lastmile_qr_scan", "ios": "https://dc.lft.to/lastmile_qr_scan"}, "lon": -76.98430916666666, "name": "9cac2fab91aac283e70498ddc9ee0d22", "fusion_lon": 0.0, "bike_id": "9cac2fab91aac283e70498ddc9ee0d22", "is_reserved": 0, "type": "electric_scooter", "lat": 38.9205375, "fusion_lat": 0.0, "is_disabled": 0}, {"rental_uris": {"android": "https://dc.lft.to/lastmile_qr_scan", "ios": "https://dc.lft.to/lastmile_qr_scan"}, "lon": -77.04687166666666, "name": "8ac637c968ed61779a8a40b1ceb5b7aa", "fusion_lon": 0.0, "bike_id": "8ac637c968ed61779a8a40b1ceb5b7aa", "is_reserved": 0, "type": "electric_scooter", "lat": 38.90118833333333, "fusion_lat": 0.0, "is_disabled": 0}, {"rental_uris": {"android": "https://dc.lft.to/lastmile_qr_scan", "ios": "https://dc.lft.to/lastmile_qr_scan"}, "lon": -76.9939, "name": "c439ca978f3c7d444ba64720a638ebe5", "fusion_lon": 0.0, "bike_id": "c439ca978f3c7d444ba64720a638ebe5", "is_reserved": 0, "type": "electric_scooter", "lat": 38.92400633333333, "fusion_lat": 0.0, "is_disabled": 0}, {"rental_uris": {"android": "https://dc.lft.to/lastmile_qr_scan", "ios": "https://dc.lft.to/lastmile_qr_scan"}, "lon": -77.03899916666667, "name": "b83de435c45e0326d257d60a0ff1aee3", "fusion_lon": 0.0, "bike_id": "b83de435c45e0326d257d60a0ff1aee3", "is_reserved": 0, "type": "electric_scooter", "lat": 38.91392283333333, "fusion_lat": 0.0, "is_disabled": 0}, {"rental_uris": {"android": "https://dc.lft.to/lastmile_qr_scan", "ios": "https://dc.lft.to/lastmile_qr_scan"}, "lon": -76.99734183333334, "name": "e8924d837626841987ede06a1c21c76e", "fusion_lon": 0.0, "bike_id": "e8924d837626841987ede06a1c21c76e", "is_reserved": 0, "type": "electric_bike", "lat": 39.0423325, "fusion_lat": 0.0, "is_disabled": 0}, {"rental_uris": {"android": "https://dc.lft.to/lastmile_qr_scan", "ios": "https://dc.lft.to/lastmile_qr_scan"}, "lon": -77.02494533333333, "name": "1cb3fd97a0150d5b52b97ca45edaa9cf", "fusion_lon": 0.0, "bike_id": "1cb3fd97a0150d5b52b97ca45edaa9cf", "is_reserved": 0, "type": "electric_scooter", "lat": 38.898193666666664, "fusion_lat": 0.0, "is_disabled": 0}, {"rental_uris": {"android": "https://dc.lft.to/lastmile_qr_scan", "ios": "https://dc.lft.to/lastmile_qr_scan"}, "lon": -77.03669183333334, "name": "6505e268202987205d8c6a45e3fd30b8", "fusion_lon": 0.0, "bike_id": "6505e268202987205d8c6a45e3fd30b8", "is_reserved": 0, "type": "electric_scooter", "lat": 38.91873783333333, "fusion_lat": 0.0, "is_disabled": 0}, {"rental_uris": {"android": "https://dc.lft.to/lastmile_qr_scan", "ios": "https://dc.lft.to/lastmile_qr_scan"}, "lon": -76.99586983333333, "name": "d7cbe3b3a108eb0f6aac91ef2ca156c5", "fusion_lon": 0.0, "bike_id": "d7cbe3b3a108eb0f6aac91ef2ca156c5", "is_reserved": 0, "type": "electric_bike", "lat": 38.973369, "fusion_lat": 0.0, "is_disabled": 0}, {"rental_uris": {"android": "https://dc.lft.to/lastmile_qr_scan", "ios": "https://dc.lft.to/lastmile_qr_scan"}, "lon": -77.01863616666667, "name": "2b3cf254b698d7ec91b5da4df6e8d807", "fusion_lon": 0.0, "bike_id": "2b3cf254b698d7ec91b5da4df6e8d807", "is_reserved": 0, "type": "electric_scooter", "lat": 38.973671, "fusion_lat": 0.0, "is_disabled": 0}, {"rental_uris": {"android": "https://dc.lft.to/lastmile_qr_scan", "ios": "https://dc.lft.to/lastmile_qr_scan"}, "lon": -77.0159755, "name": "b4b480391f6610a0218bf1c14b9f2d88", "fusion_lon": 0.0, "bike_id": "b4b480391f6610a0218bf1c14b9f2d88", "is_reserved": 0, "type": "electric_scooter", "lat": 38.95212633333333, "fusion_lat": 0.0, "is_disabled": 0}, {"rental_uris": {"android": "https://dc.lft.to/lastmile_qr_scan", "ios": "https://dc.lft.to/lastmile_qr_scan"}, "lon": -77.01759933333334, "name": "eb86b91fd78595e21c2a152529ff53e3", "fusion_lon": 0.0, "bike_id": "eb86b91fd78595e21c2a152529ff53e3", "is_reserved": 0, "type": "electric_scooter", "lat": 38.877167166666666, "fusion_lat": 0.0, "is_disabled": 0}, {"rental_uris": {"android": "https://dc.lft.to/lastmile_qr_scan", "ios": "https://dc.lft.to/lastmile_qr_scan"}, "lon": -76.98686433333333, "name": "9bbdda0519c3959710d73d0f39358c6e", "fusion_lon": 0.0, "bike_id": "9bbdda0519c3959710d73d0f39358c6e", "is_reserved": 0, "type": "electric_bike", "lat": 38.944737333333336, "fusion_lat": 0.0, "is_disabled": 0}, {"rental_uris": {"android": "https://dc.lft.to/lastmile_qr_scan", "ios": "https://dc.lft.to/lastmile_qr_scan"}, "lon": -77.03854283333334, "name": "1151746553e5f51222b55443b3bc8627", "fusion_lon": 0.0, "bike_id": "1151746553e5f51222b55443b3bc8627", "is_reserved": 0, "type": "electric_scooter", "lat": 38.91660366666667, "fusion_lat": 0.0, "is_disabled": 0}, {"rental_uris": {"android": "https://dc.lft.to/lastmile_qr_scan", "ios": "https://dc.lft.to/lastmile_qr_scan"}, "lon": -77.0161675, "name": "cc423458ed310b833a99ce88151f3b68", "fusion_lon": 0.0, "bike_id": "cc423458ed310b833a99ce88151f3b68", "is_reserved": 0, "type": "electric_scooter", "lat": 38.906569166666664, "fusion_lat": 0.0, "is_disabled": 0}, {"rental_uris": {"android": "https://dc.lft.to/lastmile_qr_scan", "ios": "https://dc.lft.to/lastmile_qr_scan"}, "lon": -77.03170133333333, "name": "e8eadbfd468978e6da2e8d8247363be7", "fusion_lon": 0.0, "bike_id": "e8eadbfd468978e6da2e8d8247363be7", "is_reserved": 0, "type": "electric_scooter", "lat": 38.914146, "fusion_lat": 0.0, "is_disabled": 0}, {"rental_uris": {"android": "https://dc.lft.to/lastmile_qr_scan", "ios": "https://dc.lft.to/lastmile_qr_scan"}, "lon": -77.01796383333334, "name": "d279867ff1017a9b6fe773bf5d7ef268", "fusion_lon": 0.0, "bike_id": "d279867ff1017a9b6fe773bf5d7ef268", "is_reserved": 0, "type": "electric_bike", "lat": 38.9941155, "fusion_lat": 0.0, "is_disabled": 0}, {"rental_uris": {"android": "https://dc.lft.to/lastmile_qr_scan", "ios": "https://dc.lft.to/lastmile_qr_scan"}, "lon": -77.0194755, "name": "b37c8022f286352a3419c15f637fe99c", "fusion_lon": 0.0, "bike_id": "b37c8022f286352a3419c15f637fe99c", "is_reserved": 0, "type": "electric_scooter", "lat": 38.924220166666665, "fusion_lat": 0.0, "is_disabled": 0}, {"rental_uris": {"android": "https://dc.lft.to/lastmile_qr_scan", "ios": "https://dc.lft.to/lastmile_qr_scan"}, "lon": -76.997051, "name": "26129835ff1d8f0179f9e1bb962e5d3f", "fusion_lon": 0.0, "bike_id": "26129835ff1d8f0179f9e1bb962e5d3f", "is_reserved": 0, "type": "electric_bike", "lat": 38.838606166666665, "fusion_lat": 0.0, "is_disabled": 0}, {"rental_uris": {"android": "https://dc.lft.to/lastmile_qr_scan", "ios": "https://dc.lft.to/lastmile_qr_scan"}, "lon": -77.01356516666667, "name": "1baa9e6f41b990fff3edbd7b21003abf", "fusion_lon": 0.0, "bike_id": "1baa9e6f41b990fff3edbd7b21003abf", "is_reserved": 0, "type": "electric_scooter", "lat": 38.8923855, "fusion_lat": 0.0, "is_disabled": 0}, {"rental_uris": {"android": "https://dc.lft.to/lastmile_qr_scan", "ios": "https://dc.lft.to/lastmile_qr_scan"}, "lon": -77.0214855, "name": "d4a61fdab9a0739e3012f28242298ed9", "fusion_lon": 0.0, "bike_id": "d4a61fdab9a0739e3012f28242298ed9", "is_reserved": 0, "type": "electric_scooter", "lat": 38.893391, "fusion_lat": 0.0, "is_disabled": 0}, {"rental_uris": {"android": "https://dc.lft.to/lastmile_qr_scan", "ios": "https://dc.lft.to/lastmile_qr_scan"}, "lon": -77.07004366666666, "name": "87fb0e52680c887ca1d5f88edd9b7667", "fusion_lon": 0.0, "bike_id": "87fb0e52680c887ca1d5f88edd9b7667", "is_reserved": 0, "type": "electric_scooter", "lat": 38.905942333333336, "fusion_lat": 0.0, "is_disabled": 0}, {"rental_uris": {"android": "https://dc.lft.to/lastmile_qr_scan", "ios": "https://dc.lft.to/lastmile_qr_scan"}, "lon": -77.03163966666666, "name": "4b0bc16bef1f9750e9ea769c13476427", "fusion_lon": 0.0, "bike_id": "4b0bc16bef1f9750e9ea769c13476427", "is_reserved": 0, "type": "electric_scooter", "lat": 38.916904333333335, "fusion_lat": 0.0, "is_disabled": 0}, {"rental_uris": {"android": "https://dc.lft.to/lastmile_qr_scan", "ios": "https://dc.lft.to/lastmile_qr_scan"}, "lon": -77.0183255, "name": "970b4fbca7cb0f1e2c625b7c3dfb11cb", "fusion_lon": 0.0, "bike_id": "970b4fbca7cb0f1e2c625b7c3dfb11cb", "is_reserved": 0, "type": "electric_scooter", "lat": 38.921321666666664, "fusion_lat": 0.0, "is_disabled": 0}, {"rental_uris": {"android": "https://dc.lft.to/lastmile_qr_scan", "ios": "https://dc.lft.to/lastmile_qr_scan"}, "lon": -77.03613933333334, "name": "7645714bc4baad4d23561284f165d037", "fusion_lon": 0.0, "bike_id": "7645714bc4baad4d23561284f165d037", "is_reserved": 0, "type": "electric_scooter", "lat": 38.923312833333334, "fusion_lat": 0.0, "is_disabled": 0}, {"rental_uris": {"android": "https://dc.lft.to/lastmile_qr_scan", "ios": "https://dc.lft.to/lastmile_qr_scan"}, "lon": -77.01954633333334, "name": "ad8300169bca899b1ba630817c880b5e", "fusion_lon": 0.0, "bike_id": "ad8300169bca899b1ba630817c880b5e", "is_reserved": 0, "type": "electric_scooter", "lat": 38.90147016666667, "fusion_lat": 0.0, "is_disabled": 0}, {"rental_uris": {"android": "https://dc.lft.to/lastmile_qr_scan", "ios": "https://dc.lft.to/lastmile_qr_scan"}, "lon": -77.02177566666667, "name": "042f3489d12d42508146337cef23b58b", "fusion_lon": 0.0, "bike_id": "042f3489d12d42508146337cef23b58b", "is_reserved": 0, "type": "electric_scooter", "lat": 38.94308383333333, "fusion_lat": 0.0, "is_disabled": 0}, {"rental_uris": {"android": "https://dc.lft.to/lastmile_qr_scan", "ios": "https://dc.lft.to/lastmile_qr_scan"}, "lon": -76.94893266666666, "name": "89f6ff9d8dbd26b83dbd0709f164cc63", "fusion_lon": 0.0, "bike_id": "89f6ff9d8dbd26b83dbd0709f164cc63", "is_reserved": 0, "type": "electric_scooter", "lat": 38.895348166666665, "fusion_lat": 0.0, "is_disabled": 0}, {"rental_uris": {"android": "https://dc.lft.to/lastmile_qr_scan", "ios": "https://dc.lft.to/lastmile_qr_scan"}, "lon": -77.02692716666667, "name": "5e081a4fefded0a8714fb13eee60e534", "fusion_lon": 0.0, "bike_id": "5e081a4fefded0a8714fb13eee60e534", "is_reserved": 0, "type": "electric_scooter", "lat": 38.899207, "fusion_lat": 0.0, "is_disabled": 0}, {"rental_uris": {"android": "https://dc.lft.to/lastmile_qr_scan", "ios": "https://dc.lft.to/lastmile_qr_scan"}, "lon": -76.98289383333334, "name": "51ea89edc962c25f3dae64d429c18391", "fusion_lon": 0.0, "bike_id": "51ea89edc962c25f3dae64d429c18391", "is_reserved": 0, "type": "electric_scooter", "lat": 38.87846366666667, "fusion_lat": 0.0, "is_disabled": 0}, {"rental_uris": {"android": "https://dc.lft.to/lastmile_qr_scan", "ios": "https://dc.lft.to/lastmile_qr_scan"}, "lon": -77.0343555, "name": "58d6e1dbb79a389663e5ee33a5f176f9", "fusion_lon": 0.0, "bike_id": "58d6e1dbb79a389663e5ee33a5f176f9", "is_reserved": 0, "type": "electric_scooter", "lat": 38.91803783333334, "fusion_lat": 0.0, "is_disabled": 0}, {"rental_uris": {"android": "https://dc.lft.to/lastmile_qr_scan", "ios": "https://dc.lft.to/lastmile_qr_scan"}, "lon": -77.00006733333333, "name": "c8f09eab35320348aaea1e1b989331e5", "fusion_lon": 0.0, "bike_id": "c8f09eab35320348aaea1e1b989331e5", "is_reserved": 0, "type": "electric_scooter", "lat": 38.886481333333336, "fusion_lat": 0.0, "is_disabled": 0}, {"rental_uris": {"android": "https://dc.lft.to/lastmile_qr_scan", "ios": "https://dc.lft.to/lastmile_qr_scan"}, "lon": -77.00013883333334, "name": "2c6a9bfcc2ec2ab70dce0b84c815867f", "fusion_lon": 0.0, "bike_id": "2c6a9bfcc2ec2ab70dce0b84c815867f", "is_reserved": 0, "type": "electric_scooter", "lat": 38.873925, "fusion_lat": 0.0, "is_disabled": 0}, {"rental_uris": {"android": "https://dc.lft.to/lastmile_qr_scan", "ios": "https://dc.lft.to/lastmile_qr_scan"}, "lon": -77.03161133333333, "name": "aca5f750fe4f16c91afe1eefe0bd4898", "fusion_lon": 0.0, "bike_id": "aca5f750fe4f16c91afe1eefe0bd4898", "is_reserved": 0, "type": "electric_scooter", "lat": 38.91788116666667, "fusion_lat": 0.0, "is_disabled": 0}, {"rental_uris": {"android": "https://dc.lft.to/lastmile_qr_scan", "ios": "https://dc.lft.to/lastmile_qr_scan"}, "lon": -77.01029466666667, "name": "824917a1ebbc38aeaf3ca86d810c9513", "fusion_lon": 0.0, "bike_id": "824917a1ebbc38aeaf3ca86d810c9513", "is_reserved": 0, "type": "electric_scooter", "lat": 38.92029516666667, "fusion_lat": 0.0, "is_disabled": 0}, {"rental_uris": {"android": "https://dc.lft.to/lastmile_qr_scan", "ios": "https://dc.lft.to/lastmile_qr_scan"}, "lon": -77.040571, "name": "9f067eb1a801e8f269332056cc0e9eea", "fusion_lon": 0.0, "bike_id": "9f067eb1a801e8f269332056cc0e9eea", "is_reserved": 0, "type": "electric_scooter", "lat": 38.9254055, "fusion_lat": 0.0, "is_disabled": 0}, {"rental_uris": {"android": "https://dc.lft.to/lastmile_qr_scan", "ios": "https://dc.lft.to/lastmile_qr_scan"}, "lon": -77.0178015, "name": "2e509666aeb0992aef78fbdb1ac518f7", "fusion_lon": 0.0, "bike_id": "2e509666aeb0992aef78fbdb1ac518f7", "is_reserved": 0, "type": "electric_scooter", "lat": 38.8859845, "fusion_lat": 0.0, "is_disabled": 0}, {"rental_uris": {"android": "https://dc.lft.to/lastmile_qr_scan", "ios": "https://dc.lft.to/lastmile_qr_scan"}, "lon": -77.00050066666667, "name": "c3f9afa35c319195cb9b64d085abe29e", "fusion_lon": 0.0, "bike_id": "c3f9afa35c319195cb9b64d085abe29e", "is_reserved": 0, "type": "electric_bike", "lat": 38.79331833333333, "fusion_lat": 0.0, "is_disabled": 0}, {"rental_uris": {"android": "https://dc.lft.to/lastmile_qr_scan", "ios": "https://dc.lft.to/lastmile_qr_scan"}, "lon": -76.92107733333333, "name": "cc327ffb609bbaa4afcfbcd4a42e4a4e", "fusion_lon": 0.0, "bike_id": "cc327ffb609bbaa4afcfbcd4a42e4a4e", "is_reserved": 0, "type": "electric_scooter", "lat": 38.89320433333334, "fusion_lat": 0.0, "is_disabled": 0}, {"rental_uris": {"android": "https://dc.lft.to/lastmile_qr_scan", "ios": "https://dc.lft.to/lastmile_qr_scan"}, "lon": -77.03859583333333, "name": "17d6118c5ed5f23112c1ed030acbdb02", "fusion_lon": 0.0, "bike_id": "17d6118c5ed5f23112c1ed030acbdb02", "is_reserved": 0, "type": "electric_scooter", "lat": 38.90113816666667, "fusion_lat": 0.0, "is_disabled": 0}, {"rental_uris": {"android": "https://dc.lft.to/lastmile_qr_scan", "ios": "https://dc.lft.to/lastmile_qr_scan"}, "lon": -77.02434433333333, "name": "187143adf18b4c6a5515d55aaf99fd0a", "fusion_lon": 0.0, "bike_id": "187143adf18b4c6a5515d55aaf99fd0a", "is_reserved": 0, "type": "electric_scooter", "lat": 38.902163, "fusion_lat": 0.0, "is_disabled": 0},