{"data": {"bikes": [{"rental_uris": {"ios": "https://dc.lft.to/lastmile_qr_scan", "android": "https://dc.lft.to/lastmile_qr_scan"}, "lon": -77.02384916666666, "type": "electric_scooter", "fusion_lat": 0.0, "lat": 38.9199055, "name": "428963f43160231438235b55f384afdc", "fusion_lon": 0.0, "bike_id": "428963f43160231438235b55f384afdc", "is_disabled": 0, "is_reserved": 0}, {"rental_uris": {"ios": "https://dc.lft.to/lastmile_qr_scan", "android": "https://dc.lft.to/lastmile_qr_scan"}, "lon": -76.87492783333333, "type": "electric_bike", "fusion_lat": 0.0, "lat": 38.9909075, "name": "365f65d6f7c9e62973234967e0527b1c", "fusion_lon": 0.0, "bike_id": "365f65d6f7c9e62973234967e0527b1c", "is_disabled": 0, "is_reserved": 0}, {"rental_uris": {"ios": "https://dc.lft.to/lastmile_qr_scan", "android": "https://dc.lft.to/lastmile_qr_scan"}, "lon": -77.03464783333334, "type": "electric_scooter", "fusion_lat": 0.0, "lat": 38.917134, "name": "db5feedcab88d260ff4bf839dc5dd31d", "fusion_lon": 0.0, "bike_id": "db5feedcab88d260ff4bf839dc5dd31d", "is_disabled": 0, "is_reserved": 0}, {"rental_uris": {"ios": "https://dc.lft.to/lastmile_qr_scan", "android": "https://dc.lft.to/lastmile_qr_scan"}, "lon": -77.0322275, "type": "electric_scooter", "fusion_lat": 0.0, "lat": 38.915585166666666, "name": "33b44bf78192405c7659e652cca544ab", "fusion_lon": 0.0, "bike_id": "33b44bf78192405c7659e652cca544ab", "is_disabled": 0, "is_reserved": 0}, {"rental_uris": {"ios": "https://dc.lft.to/lastmile_qr_scan", "android": "https://dc.lft.to/lastmile_qr_scan"}, "lon": -77.02737316666666, "type": "electric_scooter", "fusion_lat": 0.0, "lat": 38.8815335, "name": "f1a09ce74d1209ab6170b9985320a937", "fusion_lon": 0.0, "bike_id": "f1a09ce74d1209ab6170b9985320a937", "is_disabled": 0, "is_reserved": 0}, {"rental_uris": {"ios": "https://dc.lft.to/lastmile_qr_scan", "android": "https://dc.lft.to/lastmile_qr_scan"}, "lon": -76.9994265, "type": "electric_scooter", "fusion_lat": 0.0, "lat": 38.8428925, "name": "9b5a2629547f76d620885a2dbbbfa1b2", "fusion_lon": 0.0, "bike_id": "9b5a2629547f76d620885a2dbbbfa1b2", "is_disabled": 0, "is_reserved": 0}, {"rental_uris": {"ios": "https://dc.lft.to/lastmile_qr_scan", "android": "https://dc.lft.to/lastmile_qr_scan"}, "lon": -77.03927, "type": "electric_scooter", "fusion_lat": 0.0, "lat": 38.921121, "name": "7ad6657e5ffee69fb4cf3d191a3c8c4c", "fusion_lon": 0.0, "bike_id": "7ad6657e5ffee69fb4cf3d191a3c8c4c", "is_disabled": 0, "is_reserved": 0}, {"rental_uris": {"ios": "https://dc.lft.to/lastmile_qr_scan", "android": "https://dc.lft.to/lastmile_qr_scan"}, "lon": -77.1121655, "type": "electric_bike", "fusion_lat": 0.0, "lat": 38.828769, "name": "761664d139baf3876f4bd271cc761914", "fusion_lon": 0.0, "bike_id": "761664d139baf3876f4bd271cc761914", "is_disabled": 0, "is_reserved": 0}, {"rental_uris": {"ios": "https://dc.lft.to/lastmile_qr_scan", "android": "https://dc.lft.to/lastmile_qr_scan"}, "lon": -76.9918185, "type": "electric_scooter", "fusion_lat": 0.0, "lat": 38.90457466666667, "name": "2f91a2b0d46b7d3d115557fca2a415fc", "fusion_lon": 0.0, "bike_id": "2f91a2b0d46b7d3d115557fca2a415fc", "is_disabled": 0, "is_reserved": 0}, {"rental_uris": {"ios": "https://dc.lft.to/lastmile_qr_scan", "android": "https://dc.lft.to/lastmile_qr_scan"}, "lon": -77.05802366666667, "type": "electric_scooter", "fusion_lat": 0.0, "lat": 38.902954, "name": "ee79005aa2b94af59021a905b219e841", "fusion_lon": 0.0, "bike_id": "ee79005aa2b94af59021a905b219e841", "is_disabled": 0, "is_reserved": 0}, {"rental_uris": {"ios": "https://dc.lft.to/lastmile_qr_scan", "android": "https://dc.lft.to/lastmile_qr_scan"}, "lon": -77.0356725, "type": "electric_scooter", "fusion_lat": 0.0, "lat": 38.918177, "name": "7b0c56fd707689839479696063dafb0a", "fusion_lon": 0.0, "bike_id": "7b0c56fd707689839479696063dafb0a", "is_disabled": 0, "is_reserved": 0}, {"rental_uris": {"ios": "https://dc.lft.to/lastmile_qr_scan", "android": "https://dc.lft.to/lastmile_qr_scan"}, "lon": -77.03364566666667, "type": "electric_scooter", "fusion_lat": 0.0, "lat": 38.914198999999996, "name": "098d79007fe6a1514e675dd111f4d209", "fusion_lon": 0.0, "bike_id": "098d79007fe6a1514e675dd111f4d209", "is_disabled": 0, "is_reserved": 0}, {"rental_uris": {"ios": "https://dc.lft.to/lastmile_qr_scan", "android": "https://dc.lft.to/lastmile_qr_scan"}, "lon": -77.03085, "type": "electric_scooter", "fusion_lat": 0.0, "lat": 38.92249133333333, "name": "1a7014245d529f374ca0246073649903", "fusion_lon": 0.0, "bike_id": "1a7014245d529f374ca0246073649903", "is_disabled": 0, "is_reserved": 0}, {"rental_uris": {"ios": "https://dc.lft.to/lastmile_qr_scan", "android": "https://dc.lft.to/lastmile_qr_scan"}, "lon": -76.99547633333333, "type": "electric_scooter", "fusion_lat": 0.0, "lat": 38.92315083333333, "name": "82aafc49bfc671eacdefdc259677dede", "fusion_lon": 0.0, "bike_id": "82aafc49bfc671eacdefdc259677dede", "is_disabled": 0, "is_reserved": 0}, {"rental_uris": {"ios": "https://dc.lft.to/lastmile_qr_scan", "android": "https://dc.lft.to/lastmile_qr_scan"}, "lon": -77.00098566666666, "type": "electric_scooter", "fusion_lat": 0.0, "lat": 38.873233166666665, "name": "2801834128c89333891513a38fd8555a", "fusion_lon": 0.0, "bike_id": "2801834128c89333891513a38fd8555a", "is_disabled": 0, "is_reserved": 0}, {"rental_uris": {"ios": "https://dc.lft.to/lastmile_qr_scan", "android": "https://dc.lft.to/lastmile_qr_scan"}, "lon": -76.935422, "type": "electric_bike", "fusion_lat": 0.0, "lat": 38.95187983333334, "name": "f7241c21e16696d37ffeefe22858cf26", "fusion_lon": 0.0, "bike_id": "f7241c21e16696d37ffeefe22858cf26", "is_disabled": 0, "is_reserved": 0}, {"rental_uris": {"ios": "https://dc.lft.to/lastmile_qr_scan", "android": "https://dc.lft.to/lastmile_qr_scan"}, "lon": -77.048123, "type": "electric_scooter", "fusion_lat": 0.0, "lat": 38.89734166666667, "name": "3757add04d6d49ef94b52f97a926693c", "fusion_lon": 0.0, "bike_id": "3757add04d6d49ef94b52f97a926693c", "is_disabled": 0, "is_reserved": 0}, {"rental_uris": {"ios": "https://dc.lft.to/lastmile_qr_scan", "android": "https://dc.lft.to/lastmile_qr_scan"}, "lon": -77.05681883333334, "type": "electric_scooter", "fusion_lat": 0.0, "lat": 38.93702116666667, "name": "1a5576198f8ec7a58f14e0626af8ad21", "fusion_lon": 0.0, "bike_id": "1a5576198f8ec7a58f14e0626af8ad21", "is_disabled": 0, "is_reserved": 0}, {"rental_uris": {"ios": "https://dc.lft.to/lastmile_qr_scan", "android": "https://dc.lft.to/lastmile_qr_scan"}, "lon": -77.050824, "type": "electric_bike", "fusion_lat": 0.0, "lat": 38.813353, "name": "c2b47bc3a0e00f7ad4c655e7b8c7d6eb", "fusion_lon": 0.0, "bike_id": "c2b47bc3a0e00f7ad4c655e7b8c7d6eb", "is_disabled": 0, "is_reserved": 0}, {"rental_uris": {"ios": "https://dc.lft.to/lastmile_qr_scan", "android": "https://dc.lft.to/lastmile_qr_scan"}, "lon": -76.97324133333333, "type": "electric_scooter", "fusion_lat": 0.0, "lat": 38.90482083333333, "name": "48a9157e538a48a7c88b9ac1ff831461", "fusion_lon": 0.0, "bike_id": "48a9157e538a48a7c88b9ac1ff831461", "is_disabled": 0, "is_reserved": 0}, {"rental_uris": {"ios": "https://dc.lft.to/lastmile_qr_scan", "android": "https://dc.lft.to/lastmile_qr_scan"}, "lon": -76.97671, "type": "electric_bike", "fusion_lat": 0.0, "lat": 38.966261, "name": "d844c8302f380749dc53f12fa770ed2a", "fusion_lon": 0.0, "bike_id": "d844c8302f380749dc53f12fa770ed2a", "is_disabled": 0, "is_reserved": 0}, {"rental_uris": {"ios": "https://dc.lft.to/lastmile_qr_scan", "android": "https://dc.lft.to/lastmile_qr_scan"}, "lon": -77.08062083333333, "type": "electric_scooter", "fusion_lat": 0.0, "lat": 38.9590875, "name": "2e4e828a31f475856a625c2f9e3de80a", "fusion_lon": 0.0, "bike_id": "2e4e828a31f475856a625c2f9e3de80a", "is_disabled": 0, "is_reserved": 0}, {"rental_uris": {"ios": "https://dc.lft.to/lastmile_qr_scan", "android": "https://dc.lft.to/lastmile_qr_scan"}, "lon": -77.011185, "type": "electric_scooter", "fusion_lat": 0.0, "lat": 38.89538683333333, "name": "ebe159138767a24230a2a543ae5a6b05", "fusion_lon": 0.0, "bike_id": "ebe159138767a24230a2a543ae5a6b05", "is_disabled": 0, "is_reserved": 0}, {"rental_uris": {"ios": "https://dc.lft.to/lastmile_qr_scan", "android": "https://dc.lft.to/lastmile_qr_scan"}, "lon": -77.0178455, "type": "electric_scooter", "fusion_lat": 0.0, "lat": 38.908218166666664, "name": "0fa734d0b69edf405c26b62853337629", "fusion_lon": 0.0, "bike_id": "0fa734d0b69edf405c26b62853337629", "is_disabled": 0, "is_reserved": 0}, {"rental_uris": {"ios": "https://dc.lft.to/lastmile_qr_scan", "android": "https://dc.lft.to/lastmile_qr_scan"}, "lon": -77.03200433333333, "type": "electric_scooter", "fusion_lat": 0.0, "lat": 38.937595, "name": "efb84b52117dcefcad11ec467b77fff2", "fusion_lon": 0.0, "bike_id": "efb84b52117dcefcad11ec467b77fff2", "is_disabled": 0, "is_reserved": 0}, {"rental_uris": {"ios": "https://dc.lft.to/lastmile_qr_scan", "android": "https://dc.lft.to/lastmile_qr_scan"}, "lon": -76.9465515, "type": "electric_scooter", "fusion_lat": 0.0, "lat": 38.89826716666666, "name": "5047f6d97a3a2bb0b4a8393e822d058a", "fusion_lon": 0.0, "bike_id": "5047f6d97a3a2bb0b4a8393e822d058a", "is_disabled": 0, "is_reserved": 0}, {"rental_uris": {"ios": "https://dc.lft.to/lastmile_qr_scan", "android": "https://dc.lft.to/lastmile_qr_scan"}, "lon": -77.01990983333333, "type": "electric_scooter", "fusion_lat": 0.0, "lat": 38.90556016666667, "name": "684722de95452d8327b27658d717496c", "fusion_lon": 0.0, "bike_id": "684722de95452d8327b27658d717496c", "is_disabled": 0, "is_reserved": 0}, {"rental_uris": {"ios": "https://dc.lft.to/lastmile_qr_scan", "android": "https://dc.lft.to/lastmile_qr_scan"}, "lon": -77.03404083333334, "type": "electric_scooter", "fusion_lat": 0.0, "lat": 38.923306833333335, "name": "437e70560adc9f0228b92c2dc83bf815", "fusion_lon": 0.0, "bike_id": "437e70560adc9f0228b92c2dc83bf815", "is_disabled": 0, "is_reserved": 0}, {"rental_uris": {"ios": "https://dc.lft.to/lastmile_qr_scan", "android": "https://dc.lft.to/lastmile_qr_scan"}, "lon": -77.033593, "type": "electric_scooter", "fusion_lat": 0.0, "lat": 38.906149666666664, "name": "89d3e24f0b9b3669068b80f7fbf5a6fb", "fusion_lon": 0.0, "bike_id": "89d3e24f0b9b3669068b80f7fbf5a6fb", "is_disabled": 0, "is_reserved": 0}, {"rental_uris": {"ios": "https://dc.lft.to/lastmile_qr_scan", "android": "https://dc.lft.to/lastmile_qr_scan"}, "lon": -77.04460816666666, "type": "electric_scooter", "fusion_lat": 0.0, "lat": 38.918722333333335, "name": "e037e84e69608afff99be1c685cb7a2f", "fusion_lon": 0.0, "bike_id": "e037e84e69608afff99be1c685cb7a2f", "is_disabled": 0, "is_reserved": 0}, {"rental_uris": {"ios": "https://dc.lft.to/lastmile_qr_scan", "android": "https://dc.lft.to/lastmile_qr_scan"}, "lon": -77.07935333333333, "type": "electric_bike", "fusion_lat": 0.0, "lat": 38.89363483333333, "name": "a186c9915622af88b73725fc5ba56258", "fusion_lon": 0.0, "bike_id": "a186c9915622af88b73725fc5ba56258", "is_disabled": 0, "is_reserved": 0}, {"rental_uris": {"ios": "https://dc.lft.to/lastmile_qr_scan", "android": "https://dc.lft.to/lastmile_qr_scan"}, "lon": -77.0269915, "type": "electric_scooter", "fusion_lat": 0.0, "lat": 38.899125833333336, "name": "36a193022121f6855f1b8f722c91f945", "fusion_lon": 0.0, "bike_id": "36a193022121f6855f1b8f722c91f945", "is_disabled": 0, "is_reserved": 0}, {"rental_uris": {"ios": "https://dc.lft.to/lastmile_qr_scan", "android": "https://dc.lft.to/lastmile_qr_scan"}, "lon": -77.0269815, "type": "electric_scooter", "fusion_lat": 0.0, "lat": 38.91574833333333, "name": "853595c6ff2ca9264fe75e03107bcbad", "fusion_lon": 0.0, "bike_id": "853595c6ff2ca9264fe75e03107bcbad", "is_disabled": 0, "is_reserved": 0}, {"rental_uris": {"ios": "https://dc.lft.to/lastmile_qr_scan", "android": "https://dc.lft.to/lastmile_qr_scan"}, "lon": -77.00219516666667, "type": "electric_bike", "fusion_lat": 0.0, "lat": 38.82379516666666, "name": "c08ddac78336c7134cbb6ff831d67696", "fusion_lon": 0.0, "bike_id": "c08ddac78336c7134cbb6ff831d67696", "is_disabled": 0, "is_reserved": 0}, {"rental_uris": {"ios": "https://dc.lft.to/lastmile_qr_scan", "android": "https://dc.lft.to/lastmile_qr_scan"}, "lon": -77.02962883333333, "type": "electric_scooter", "fusion_lat": 0.0, "lat": 38.884356833333335, "name": "c9ca924a2d6c7415db91a548148884e7", "fusion_lon": 0.0, "bike_id": "c9ca924a2d6c7415db91a548148884e7", "is_disabled": 0, "is_reserved": 0}, {"rental_uris": {"ios": "https://dc.lft.to/lastmile_qr_scan", "android": "https://dc.lft.to/lastmile_qr_scan"}, "lon": -77.03718666666667, "type": "electric_scooter", "fusion_lat": 0.0, "lat": 38.933637833333336, "name": "82d32828e7fa199968535482b4ab47ac", "fusion_lon": 0.0, "bike_id": "82d32828e7fa199968535482b4ab47ac", "is_disabled": 0, "is_reserved": 0}, {"rental_uris": {"ios": "https://dc.lft.to/lastmile_qr_scan", "android": "https://dc.lft.to/lastmile_qr_scan"}, "lon": -76.9781525, "type": "electric_scooter", "fusion_lat": 0.0, "lat": 38.90675183333333, "name": "55dfad30f4717db2f731b4749622a36f", "fusion_lon": 0.0, "bike_id": "55dfad30f4717db2f731b4749622a36f", "is_disabled": 0, "is_reserved": 0}, {"rental_uris": {"ios": "https://dc.lft.to/lastmile_qr_scan", "android": "https://dc.lft.to/lastmile_qr_scan"}, "lon": -77.03225216666667, "type": "electric_scooter", "fusion_lat": 0.0, "lat": 38.9258205, "name": "3083d4bf41133a41a1aedb2a54d79ca1", "fusion_lon": 0.0, "bike_id": "3083d4bf41133a41a1aedb2a54d79ca1", "is_disabled": 0, "is_reserved": 0}, {"rental_uris": {"ios": "https://dc.lft.to/lastmile_qr_scan", "android": "https://dc.lft.to/lastmile_qr_scan"}, "lon": -77.029604, "type": "electric_scooter", "fusion_lat": 0.0, "lat": 38.907251, "name": "a5f7a30801729f0ec73e4e8f3ed6b689", "fusion_lon": 0.0, "bike_id": "a5f7a30801729f0ec73e4e8f3ed6b689", "is_disabled": 0, "is_reserved": 0}, {"rental_uris": {"ios": "https://dc.lft.to/lastmile_qr_scan", "android": "https://dc.lft.to/lastmile_qr_scan"}, "lon": -77.03214116666666, "type": "electric_scooter", "fusion_lat": 0.0, "lat": 38.919922, "name": "26d5b475e15e8884a74ded36a98c53e4", "fusion_lon": 0.0, "bike_id": "26d5b475e15e8884a74ded36a98c53e4", "is_disabled": 0, "is_reserved": 0}, {"rental_uris": {"ios": "https://dc.lft.to/lastmile_qr_scan", "android": "https://dc.lft.to/lastmile_qr_scan"}, "lon": -77.03318883333333, "type": "electric_scooter", "fusion_lat": 0.0, "lat": 38.92050733333333, "name": "71c829f05723f79513cf7be6a44f050b", "fusion_lon": 0.0, "bike_id": "71c829f05723f79513cf7be6a44f050b", "is_disabled": 0, "is_reserved": 0}, {"rental_uris": {"ios": "https://dc.lft.to/lastmile_qr_scan", "android": "https://dc.lft.to/lastmile_qr_scan"}, "lon": -77.11200733333334, "type": "electric_bike", "fusion_lat": 0.0, "lat": 38.813042333333335, "name": "86878a1ff046a9b7861b3d6af6c32415", "fusion_lon": 0.0, "bike_id": "86878a1ff046a9b7861b3d6af6c32415", "is_disabled": 0, "is_reserved": 0}, {"rental_uris": {"ios": "https://dc.lft.to/lastmile_qr_scan", "android": "https://dc.lft.to/lastmile_qr_scan"}, "lon": -77.04332816666667, "type": "electric_scooter", "fusion_lat": 0.0, "lat": 38.914763666666666, "name": "edf0108f52a5e86986becc14526ac845", "fusion_lon": 0.0, "bike_id": "edf0108f52a5e86986becc14526ac845", "is_disabled": 0, "is_reserved": 0}, {"rental_uris": {"ios": "https://dc.lft.to/lastmile_qr_scan", "android": "https://dc.lft.to/lastmile_qr_scan"}, "lon": -77.04383016666667, "type": "electric_scooter", "fusion_lat": 0.0, "lat": 38.92068283333333, "name": "a9662691f3dbac12ebeb3b0f55cb2c15", "fusion_lon": 0.0, "bike_id": "a9662691f3dbac12ebeb3b0f55cb2c15", "is_disabled": 0, "is_reserved": 0}, {"rental_uris": {"ios": "https://dc.lft.to/lastmile_qr_scan", "android": "https://dc.lft.to/lastmile_qr_scan"}, "lon": -76.93523616666667, "type": "electric_bike", "fusion_lat": 0.0, "lat": 38.955389, "name": "d1b644be5669f2082bf4ae1a66e0b398", "fusion_lon": 0.0, "bike_id": "d1b644be5669f2082bf4ae1a66e0b398", "is_disabled": 0, "is_reserved": 0}, {"rental_uris": {"ios": "https://dc.lft.to/lastmile_qr_scan", "android": "https://dc.lft.to/lastmile_qr_scan"}, "lon": -77.0479795, "type": "electric_scooter", "fusion_lat": 0.0, "lat": 38.896209166666665, "name": "581c695ba5109e9a5818b2614b0ed9fb", "fusion_lon": 0.0, "bike_id": "581c695ba5109e9a5818b2614b0ed9fb", "is_disabled": 0, "is_reserved": 0}, {"rental_uris": {"ios": "https://dc.lft.to/lastmile_qr_scan", "android": "https://dc.lft.to/lastmile_qr_scan"}, "lon": -77.12258933333334, "type": "electric_bike", "fusion_lat": 0.0, "lat": 38.8919185, "name": "6c24bec1fdf0afbf21068dafb465ebd5", "fusion_lon": 0.0, "bike_id": "6c24bec1fdf0afbf21068dafb465ebd5", "is_disabled": 0, "is_reserved": 0}, {"rental_uris": {"ios": "https://dc.lft.to/lastmile_qr_scan", "android": "https://dc.lft.to/lastmile_qr_scan"}, "lon": -77.07684966666666, "type": "electric_bike", "fusion_lat": 0.0, "lat": 38.83196616666667, "name": "cf3d6c979eec85b57ec0e577f3b32c13", "fusion_lon": 0.0, "bike_id": "cf3d6c979eec85b57ec0e577f3b32c13", "is_disabled": 0, "is_reserved": 0}, {"rental_uris": {"ios": "https://dc.lft.to/lastmile_qr_scan", "android": "https://dc.lft.to/lastmile_qr_scan"}, "lon": -77.04747616666667, "type": "electric_scooter", "fusion_lat": 0.0, "lat": 38.90226416666667, "name": "5fc44b29f52f6c59e483d6cc3872a4d3", "fusion_lon": 0.0, "bike_id": "5fc44b29f52f6c59e483d6cc3872a4d3", "is_disabled": 0, "is_reserved": 0}, {"rental_uris": {"ios": "https://dc.lft.to/lastmile_qr_scan", "android": "https://dc.lft.to/lastmile_qr_scan"}, "lon": -77.03278666666667, "type": "electric_scooter", "fusion_lat": 0.0, "lat": 38.92867866666667, "name": "f28baede922e041196964e6cd9336f5d", "fusion_lon": 0.0, "bike_id": "f28baede922e041196964e6cd9336f5d", "is_disabled": 0, "is_reserved": 0}, {"rental_uris": {"ios": "https://dc.lft.to/lastmile_qr_scan", "android": "https://dc.lft.to/lastmile_qr_scan"}, "lon": -77.02365983333334, "type": "electric_scooter", "fusion_lat": 0.0, "lat": 38.93690633333333, "name": "07c7b86b24fd96f04135f5239a18ee2a", "fusion_lon": 0.0, "bike_id": "07c7b86b24fd96f04135f5239a18ee2a", "is_disabled": 0, "is_reserved": 0}, {"rental_uris": {"ios": "https://dc.lft.to/lastmile_qr_scan", "android": "https://dc.lft.to/lastmile_qr_scan"}, "lon": -77.03148883333333, "type": "electric_scooter", "fusion_lat": 0.0, "lat": 38.915641666666666, "name": "11caab966e80cb1059675a1d61fd0d39", "fusion_lon": 0.0, "bike_id": "11caab966e80cb1059675a1d61fd0d39", "is_disabled": 0, "is_reserved": 0}, {"rental_uris": {"ios": "https://dc.lft.to/lastmile_qr_scan", "android": "https://dc.lft.to/lastmile_qr_scan"}, "lon": -77.11053216666667, "type": "electric_bike", "fusion_lat": 0.0, "lat": 38.870744, "name": "642f4bc3656133cf4992ef23fcdaac10", "fusion_lon": 0.0, "bike_id": "642f4bc3656133cf4992ef23fcdaac10", "is_disabled": 0, "is_reserved": 0}, {"rental_uris": {"ios": "https://dc.lft.to/lastmile_qr_scan", "android": "https://dc.lft.to/lastmile_qr_scan"}, "lon": -76.99001666666666, "type": "electric_scooter", "fusion_lat": 0.0, "lat": 38.86504433333333, "name": "f85a89b5d0b7ce465e8219aa422dce70", "fusion_lon": 0.0, "bike_id": "f85a89b5d0b7ce465e8219aa422dce70", "is_disabled": 0, "is_reserved": 0}, {"rental_uris": {"ios": "https://dc.lft.to/lastmile_qr_scan", "android": "https://dc.lft.to/lastmile_qr_scan"}, "lon": -77.082064, "type": "electric_scooter", "fusion_lat": 0.0, "lat": 38.933255333333335, "name": "d418c90fd2d8d1527580b137c375715c", "fusion_lon": 0.0, "bike_id": "d418c90fd2d8d1527580b137c375715c", "is_disabled": 0, "is_reserved": 0}, {"rental_uris": {"ios": "https://dc.lft.to/lastmile_qr_scan", "android": "https://dc.lft.to/lastmile_qr_scan"}, "lon": -77.02973233333333, "type": "electric_scooter", "fusion_lat": 0.0, "lat": 38.90732583333333, "name": "2622ac361fe3b5f77248eb1f8aefcdc6", "fusion_lon": 0.0, "bike_id": "2622ac361fe3b5f77248eb1f8aefcdc6", "is_disabled": 0, "is_reserved": 0}, {"rental_uris": {"ios": "https://dc.lft.to/lastmile_qr_scan", "android": "https://dc.lft.to/lastmile_qr_scan"}, "lon": -77.0825565, "type": "electric_scooter", "fusion_lat": 0.0, "lat": 38.93581916666667, "name": "2e9d34cff0b1ce50b636c35670a4a354", "fusion_lon": 0.0, "bike_id": "2e9d34cff0b1ce50b636c35670a4a354", "is_disabled": 0, "is_reserved": 0}, {"rental_uris": {"ios": "https://dc.lft.to/lastmile_qr_scan", "android": "https://dc.lft.to/lastmile_qr_scan"}, "lon": -76.98028516666666, "type": "electric_scooter", "fusion_lat": 0.0, "lat": 38.887657833333336, "name": "eb77bbbba283c827cdab36e0a91d275f", "fusion_lon": 0.0, "bike_id": "eb77bbbba283c827cdab36e0a91d275f", "is_disabled": 0, "is_reserved": 0}, {"rental_uris": {"ios": "https://dc.lft.to/lastmile_qr_scan", "android": "https://dc.lft.to/lastmile_qr_scan"}, "lon": -77.0073265, "type": "electric_scooter", "fusion_lat": 0.0, "lat": 38.9162075, "name": "5d3c670e78cc40f45243b2d332aeb0a2", "fusion_lon": 0.0, "bike_id": "5d3c670e78cc40f45243b2d332aeb0a2", "is_disabled": 0, "is_reserved": 0}, {"rental_uris": {"ios": "https://dc.lft.to/lastmile_qr_scan", "android": "https://dc.lft.to/lastmile_qr_scan"}, "lon": -76.99247166666666, "type": "electric_bike", "fusion_lat": 0.0, "lat": 38.925489, "name": "2ff2d5774814c85f7da616d53db2512d", "fusion_lon": 0.0, "bike_id": "2ff2d5774814c85f7da616d53db2512d", "is_disabled": 0, "is_reserved": 0}, {"rental_uris": {"ios": "https://dc.lft.to/lastmile_qr_scan", "android": "https://dc.lft.to/lastmile_qr_scan"}, "lon": -77.00683566666666, "type": "electric_scooter", "fusion_lat": 0.0, "lat": 38.905414666666665, "name": "943292e3299f04594cda4d5abfbd5eba", "fusion_lon": 0.0, "bike_id": "943292e3299f04594cda4d5abfbd5eba", "is_disabled": 0, "is_reserved": 0}, {"rental_uris": {"ios": "https://dc.lft.to/lastmile_qr_scan", "android": "https://dc.lft.to/lastmile_qr_scan"}, "lon": -77.0176055, "type": "electric_scooter", "fusion_lat": 0.0, "lat": 38.877046166666666, "name": "12c02f28b0b2e73b1b6787cc3d8207b3", "fusion_lon": 0.0, "bike_id": "12c02f28b0b2e73b1b6787cc3d8207b3", "is_disabled": 0, "is_reserved": 0}, {"rental_uris": {"ios": "https://dc.lft.to/lastmile_qr_scan", "android": "https://dc.lft.to/lastmile_qr_scan"}, "lon": -76.972755, "type": "electric_bike", "fusion_lat": 0.0, "lat": 38.919651, "name": "069e1ff7824af826f944497f7e561f98", "fusion_lon": 0.0, "bike_id": "069e1ff7824af826f944497f7e561f98", "is_disabled": 0, "is_reserved": 0}, {"rental_uris": {"ios": "https://dc.lft.to/lastmile_qr_scan", "android": "https://dc.lft.to/lastmile_qr_scan"}, "lon": -77.02225366666667, "type": "electric_bike", "fusion_lat": 0.0, "lat": 38.956876333333334, "name": "5c9f403566358abbd60341e8e2bccc62", "fusion_lon": 0.0, "bike_id": "5c9f403566358abbd60341e8e2bccc62", "is_disabled": 0, "is_reserved": 0}, {"rental_uris": {"ios": "https://dc.lft.to/lastmile_qr_scan", "android": "https://dc.lft.to/lastmile_qr_scan"}, "lon": -77.06346983333333, "type": "electric_scooter", "fusion_lat": 0.0, "lat": 38.944462333333334, "name": "dc8042673c0e04d8b6b4d09971b7554b", "fusion_lon": 0.0, "bike_id": "dc8042673c0e04d8b6b4d09971b7554b", "is_disabled": 0, "is_reserved": 0}, {"rental_uris": {"ios": "https://dc.lft.to/lastmile_qr_scan", "android": "https://dc.lft.to/lastmile_qr_scan"}, "lon": -77.031849, "type": "electric_scooter", "fusion_lat": 0.0, "lat": 38.929638833333335, "name": "9916d9ff747990936f189489304e6780", "fusion_lon": 0.0, "bike_id": "9916d9ff747990936f189489304e6780", "is_disabled": 0, "is_reserved": 0}, {"rental_uris": {"ios": "https://dc.lft.to/lastmile_qr_scan", "android": "https://dc.lft.to/lastmile_qr_scan"}, "lon": -77.040396, "type": "electric_scooter", "fusion_lat": 0.0, "lat": 38.924687, "name": "2711c2a205dd914a108d082d008fdaaf", "fusion_lon": 0.0, "bike_id": "2711c2a205dd914a108d082d008fdaaf", "is_disabled": 0, "is_reserved": 0}, {"rental_uris": {"ios": "https://dc.lft.to/lastmile_qr_scan", "android": "https://dc.lft.to/lastmile_qr_scan"}, "lon": -77.0526355, "type": "electric_scooter", "fusion_lat": 0.0, "lat": 38.910171166666665, "name": "875e8b3f464d19ff705e8348fbf4d698", "fusion_lon": 0.0, "bike_id": "875e8b3f464d19ff705e8348fbf4d698", "is_disabled": 0, "is_reserved": 0}, {"rental_uris": {"ios": "https://dc.lft.to/lastmile_qr_scan", "android": "https://dc.lft.to/lastmile_qr_scan"}, "lon": -76.9299555, "type": "electric_bike", "fusion_lat": 0.0, "lat": 38.8879685, "name": "cbb52d56d832e36e6c4bc3a7e09ec377", "fusion_lon": 0.0, "bike_id": "cbb52d56d832e36e6c4bc3a7e09ec377", "is_disabled": 0, "is_reserved": 0}, {"rental_uris": {"ios": "https://dc.lft.to/lastmile_qr_scan", "android": "https://dc.lft.to/lastmile_qr_scan"}, "lon": -76.93954833333333, "type": "electric_scooter", "fusion_lat": 0.0, "lat": 38.89415066666667, "name": "a57a859c5ca053e5259192a36ae5e041", "fusion_lon": 0.0, "bike_id": "a57a859c5ca053e5259192a36ae5e041", "is_disabled": 0, "is_reserved": 0}, {"rental_uris": {"ios": "https://dc.lft.to/lastmile_qr_scan", "android": "https://dc.lft.to/lastmile_qr_scan"}, "lon": -77.04926666666667, "type": "electric_scooter", "fusion_lat": 0.0, "lat": 38.896051666666665, "name": "d83acf17e36acdf6e17e24ea1a00d882", "fusion_lon": 0.0, "bike_id": "d83acf17e36acdf6e17e24ea1a00d882", "is_disabled": 0, "is_reserved": 0}, {"rental_uris": {"ios": "https://dc.lft.to/lastmile_qr_scan", "android": "https://dc.lft.to/lastmile_qr_scan"}, "lon": -77.01999566666667, "type": "electric_scooter", "fusion_lat": 0.0, "lat": 38.88564516666667, "name": "bbbc6f7ff622b00077e0a7266704e45d", "fusion_lon": 0.0, "bike_id": "bbbc6f7ff622b00077e0a7266704e45d", "is_disabled": 0, "is_reserved": 0}, {"rental_uris": {"ios": "https://dc.lft.to/lastmile_qr_scan", "android": "https://dc.lft.to/lastmile_qr_scan"}, "lon": -77.032815, "type": "electric_scooter", "fusion_lat": 0.0, "lat": 38.93776533333333, "name": "37c7a9a60b8fd2b9df492e82fdc6fc2c", "fusion_lon": 0.0, "bike_id": "37c7a9a60b8fd2b9df492e82fdc6fc2c", "is_disabled": 0, "is_reserved": 0}, {"rental_uris": {"ios": "https://dc.lft.to/lastmile_qr_scan", "android": "https://dc.lft.to/lastmile_qr_scan"}, "lon": -77.02715983333333, "type": "electric_scooter", "fusion_lat": 0.0, "lat": 38.90688083333333, "name": "c7d7776caa6bbb5d48c58b3ef2a6d72e", "fusion_lon": 0.0, "bike_id": "c7d7776caa6bbb5d48c58b3ef2a6d72e", "is_disabled": 0, "is_reserved": 0}, {"rental_uris": {"ios": "https://dc.lft.to/lastmile_qr_scan", "android": "https://dc.lft.to/lastmile_qr_scan"}, "lon": -77.07796716666667, "type": "electric_scooter", "fusion_lat": 0.0, "lat": 38.940828833333335, "name": "c60dd94154c51008dc662767049973f8", "fusion_lon": 0.0, "bike_id": "c60dd94154c51008dc662767049973f8", "is_disabled": 0, "is_reserved": 0}, {"rental_uris": {"ios": "https://dc.lft.to/lastmile_qr_scan", "android": "https://dc.lft.to/lastmile_qr_scan"}, "lon": -77.0071955, "type": "electric_scooter", "fusion_lat": 0.0, "lat": 38.91343166666667, "name": "828b842ee14c6fc28abb265896cc434a", "fusion_lon": 0.0, "bike_id": "828b842ee14c6fc28abb265896cc434a", "is_disabled": 0, "is_reserved": 0}, {"rental_uris": {"ios": "https://dc.lft.to/lastmile_qr_scan", "android": "https://dc.lft.to/lastmile_qr_scan"}, "lon": -77.01603083333333, "type": "electric_scooter", "fusion_lat": 0.0, "lat": 38.89613, "name": "ea9274df6847c8591ae0ce06d429cd7d", "fusion_lon": 0.0, "bike_id": "ea9274df6847c8591ae0ce06d429cd7d", "is_disabled": 0, "is_reserved": 0}, {"rental_uris": {"ios": "https://dc.lft.to/lastmile_qr_scan", "android": "https://dc.lft.to/lastmile_qr_scan"}, "lon": -77.0410505, "type": "electric_scooter", "fusion_lat": 0.0, "lat": 38.9244005, "name": "13b9dfde7f16f54c6126b790102700fa", "fusion_lon": 0.0, "bike_id": "13b9dfde7f16f54c6126b790102700fa", "is_disabled": 0, "is_reserved": 0}, {"rental_uris": {"ios": "https://dc.lft.to/lastmile_qr_scan", "android": "https://dc.lft.to/lastmile_qr_scan"}, "lon": -77.04007683333333, "type": "electric_scooter", "fusion_lat": 0.0, "lat": 38.910007, "name": "9f5b26d220adb76f9288bdcb0c54ef22", "fusion_lon": 0.0, "bike_id": "9f5b26d220adb76f9288bdcb0c54ef22", "is_disabled": 0, "is_reserved": 0}, {"rental_uris": {"ios": "https://dc.lft.to/lastmile_qr_scan", "android": "https://dc.lft.to/lastmile_qr_scan"}, "lon": -77.0476835, "type": "electric_scooter", "fusion_lat": 0.0, "lat": 38.90849333333333, "name": "03227e5201ddada9c189a37fceda6dfd", "fusion_lon": 0.0, "bike_id": "03227e5201ddada9c189a37fceda6dfd", "is_disabled": 0, "is_reserved": 0}, {"rental_uris": {"ios": "https://dc.lft.to/lastmile_qr_scan", "android": "https://dc.lft.to/lastmile_qr_scan"}, "lon": -76.974132, "type": "electric_scooter", "fusion_lat": 0.0, "lat": 38.90155266666667, "name": "1c366c8fdd732f14d541cf306eb5407f", "fusion_lon": 0.0, "bike_id": "1c366c8fdd732f14d541cf306eb5407f", "is_disabled": 0, "is_reserved": 0}, {"rental_uris": {"ios": "https://dc.lft.to/lastmile_qr_scan", "android": "https://dc.lft.to/lastmile_qr_scan"}, "lon": -76.937177, "type": "electric_scooter", "fusion_lat": 0.0, "lat": 38.89589466666666, "name": "a2cd6dc52f830f8375a3464f0d5ff575", "fusion_lon": 0.0, "bike_id": "a2cd6dc52f830f8375a3464f0d5ff575", "is_disabled": 0, "is_reserved": 0}, {"rental_uris": {"ios": "https://dc.lft.to/lastmile_qr_scan", "android": "https://dc.lft.to/lastmile_qr_scan"}, "lon": -77.00240333333333, "type": "electric_scooter", "fusion_lat": 0.0, "lat": 38.91176383333333, "name": "00626a0d957acbf02e926caa73011b98", "fusion_lon": 0.0, "bike_id": "00626a0d957acbf02e926caa73011b98", "is_disabled": 0, "is_reserved": 0}, {"rental_uris": {"ios": "https://dc.lft.to/lastmile_qr_scan", "android": "https://dc.lft.to/lastmile_qr_scan"}, "lon": -77.0342435, "type": "electric_scooter", "fusion_lat": 0.0, "lat": 38.935399333333336, "name": "ab49bd808c5d4a55a34328133853f78e", "fusion_lon": 0.0, "bike_id": "ab49bd808c5d4a55a34328133853f78e", "is_disabled": 0, "is_reserved": 0}, {"rental_uris": {"ios": "https://dc.lft.to/lastmile_qr_scan", "android": "https://dc.lft.to/lastmile_qr_scan"}, "lon": -77.027117, "type": "electric_scooter", "fusion_lat": 0.0, "lat": 38.92470483333334, "name": "34c5e4c6153b9869f49bb5fe7c370c65", "fusion_lon": 0.0, "bike_id": "34c5e4c6153b9869f49bb5fe7c370c65", "is_disabled": 0, "is_reserved": 0}, {"rental_uris": {"ios": "https://dc.lft.to/lastmile_qr_scan", "android": "https://dc.lft.to/lastmile_qr_scan"}, "lon": -77.038348, "type": "electric_scooter", "fusion_lat": 0.0, "lat": 38.91117466666667, "name": "282159d66f4f8bba66596268e2465638", "fusion_lon": 0.0, "bike_id": "282159d66f4f8bba66596268e2465638", "is_disabled": 0, "is_reserved": 0}, {"rental_uris": {"ios": "https://dc.lft.to/lastmile_qr_scan", "android": "https://dc.lft.to/lastmile_qr_scan"}, "lon": -77.05625133333334, "type": "electric_bike", "fusion_lat": 0.0, "lat": 38.92407, "name": "6b6ec602b71a964795f08eae09efab57", "fusion_lon": 0.0, "bike_id": "6b6ec602b71a964795f08eae09efab57", "is_disabled": 0, "is_reserved": 0}, {"rental_uris": {"ios": "https://dc.lft.to/lastmile_qr_scan", "android": "https://dc.lft.to/lastmile_qr_scan"}, "lon": -77.0294315, "type": "electric_scooter", "fusion_lat": 0.0, "lat": 38.90526283333333, "name": "b14eb1cd68905665ce93d91d166b82ae", "fusion_lon": 0.0, "bike_id": "b14eb1cd68905665ce93d91d166b82ae", "is_disabled": 0, "is_reserved": 0}, {"rental_uris": {"ios": "https://dc.lft.to/lastmile_qr_scan", "android": "https://dc.lft.to/lastmile_qr_scan"}, "lon": -76.97492433333333, "type": "electric_bike", "fusion_lat": 0.0, "lat": 38.92008783333333, "name": "fb4f55652921bcb8450fd5810757a760", "fusion_lon": 0.0, "bike_id": "fb4f55652921bcb8450fd5810757a760", "is_disabled": 0, "is_reserved": 0}, {"rental_uris": {"ios": "https://dc.lft.to/lastmile_qr_scan", "android": "https://dc.lft.to/lastmile_qr_scan"}, "lon": -77.03224483333334, "type": "electric_scooter", "fusion_lat": 0.0, "lat": 38.92671833333333, "name": "2280fd6d18c7773ba9c6d95c19d2c769", "fusion_lon": 0.0, "bike_id": "2280fd6d18c7773ba9c6d95c19d2c769", "is_disabled": 0, "is_reserved": 0}, {"rental_uris": {"ios": "https://dc.lft.to/lastmile_qr_scan", "android": "https://dc.lft.to/lastmile_qr_scan"}, "lon": -77.00581833333334, "type": "electric_scooter", "fusion_lat": 0.0, "lat": 38.84495583333333, "name": "d374a4306a8cbb29c4b9e0af6a6bc311", "fusion_lon": 0.0, "bike_id": "d374a4306a8cbb29c4b9e0af6a6bc311", "is_disabled": 0, "is_reserved": 0}, {"rental_uris": {"ios": "https://dc.lft.to/lastmile_qr_scan", "android": "https://dc.lft.to/lastmile_qr_scan"}, "lon": -77.0451835, "type": "electric_scooter", "fusion_lat": 0.0, "lat": 38.91288816666667, "name": "84a2ba7ccbfad67c37127ceae070fa73", "fusion_lon": 0.0, "bike_id": "84a2ba7ccbfad67c37127ceae070fa73", "is_disabled": 0, "is_reserved": 0}, {"rental_uris": {"ios": "https://dc.lft.to/lastmile_qr_scan", "android": "https://dc.lft.to/lastmile_qr_scan"}, "lon": -77.03148166666666, "type": "electric_scooter", "fusion_lat": 0.0, "lat": 38.94529983333334, "name": "0b8a718780e3937d8367a6e2c060a49f", "fusion_lon": 0.0, "bike_id": "0b8a718780e3937d8367a6e2c060a49f", "is_disabled": 0, "is_reserved": 0}, {"rental_uris": {"ios": "https://dc.lft.to/lastmile_qr_scan", "android": "https://dc.lft.to/lastmile_qr_scan"}, "lon": -77.01532633333333, "type": "electric_scooter", "fusion_lat": 0.0, "lat": 38.887382333333335, "name": "9316a03ea1d65f8533635610b466ab61", "fusion_lon": 0.0, "bike_id": "9316a03ea1d65f8533635610b466ab61", "is_disabled": 0, "is_reserved": 0}, {"rental_uris": {"ios": "https://dc.lft.to/lastmile_qr_scan", "android": "https://dc.lft.to/lastmile_qr_scan"}, "lon": -77.0431575, "type": "electric_scooter", "fusion_lat": 0.0, "lat": 38.918767, "name": "02f86a2d889386085e7bebb871a6c62b", "fusion_lon": 0.0, "bike_id": "02f86a2d889386085e7bebb871a6c62b", "is_disabled": 0, "is_reserved": 0}, {"rental_uris": {"ios": "https://dc.lft.to/lastmile_qr_scan", "android": "https://dc.lft.to/lastmile_qr_scan"}, "lon": -77.02410666666667, "type": "electric_scooter", "fusion_lat": 0.0, "lat": 38.902413, "name": "763550aae4726bb4e36da71f481dd641", "fusion_lon": 0.0, "bike_id": "763550aae4726bb4e36da71f481dd641", "is_disabled": 0, "is_reserved": 0}, {"rental_uris": {"ios": "https://dc.lft.to/lastmile_qr_scan", "android": "https://dc.lft.to/lastmile_qr_scan"}, "lon": -77.01012016666667, "type": "electric_scooter", "fusion_lat": 0.0, "lat": 38.906867, "name": "e9fadfc6966c51cf4ebdade0bb097c22", "fusion_lon": 0.0, "bike_id": "e9fadfc6966c51cf4ebdade0bb097c22", "is_disabled": 0, "is_reserved": 0}, {"rental_uris": {"ios": "https://dc.lft.to/lastmile_qr_scan", "android": "https://dc.lft.to/lastmile_qr_scan"}, "lon": -77.02450266666666, "type": "electric_scooter", "fusion_lat": 0.0, "lat": 38.9085775, "name": "39ed1638c6180c8188c7dc9dd713c5f6", "fusion_lon": 0.0, "bike_id": "39ed1638c6180c8188c7dc9dd713c5f6", "is_disabled": 0, "is_reserved": 0}, {"rental_uris": {"ios": "https://dc.lft.to/lastmile_qr_scan", "android": "https://dc.lft.to/lastmile_qr_scan"}, "lon": -77.03454716666667, "type": "electric_scooter", "fusion_lat": 0.0, "lat": 38.9026935, "name": "c06576d0cd96fdfdd5cc88438c69b536", "fusion_lon": 0.0, "bike_id": "c06576d0cd96fdfdd5cc88438c69b536", "is_disabled": 0, "is_reserved": 0}, {"rental_uris": {"ios": "https://dc.lft.to/lastmile_qr_scan", "android": "https://dc.lft.to/lastmile_qr_scan"}, "lon": -77.01295466666667, "type": "electric_bike", "fusion_lat": 0.0, "lat": 38.881238333333336, "name": "78f6b9d8a3b12361d9043237dc648107", "fusion_lon": 0.0, "bike_id": "78f6b9d8a3b12361d9043237dc648107", "is_disabled": 0, "is_reserved": 0}, {"rental_uris": {"ios": "https://dc.lft.to/lastmile_qr_scan", "android": "https://dc.lft.to/lastmile_qr_scan"}, "lon": -77.03348766666667, "type": "electric_scooter", "fusion_lat": 0.0, "lat": 38.91698983333333, "name": "bd32f49c54ce2d02dd3714604280bb03", "fusion_lon": 0.0, "bike_id": "bd32f49c54ce2d02dd3714604280bb03", "is_disabled": 0, "is_reserved": 0}, {"rental_uris": {"ios": "https://dc.lft.to/lastmile_qr_scan", "android": "https://dc.lft.to/lastmile_qr_scan"}, "lon": -77.0171725, "type": "electric_scooter", "fusion_lat": 0.0, "lat": 38.9038155, "name": "2683933267d4820c5f26de89e8baae8f", "fusion_lon": 0.0, "bike_id": "2683933267d4820c5f26de89e8baae8f", "is_disabled": 0, "is_reserved": 0}, {"rental_uris": {"ios": "https://dc.lft.to/lastmile_qr_scan", "android": "https://dc.lft.to/lastmile_qr_scan"}, "lon": -77.02421616666666, "type": "electric_scooter", "fusion_lat": 0.0, "lat": 38.92047916666667, "name": "07a9c9656064696677db750cd36b52f8", "fusion_lon": 0.0, "bike_id": "07a9c9656064696677db750cd36b52f8", "is_disabled": 0, "is_reserved": 0}, {"rental_uris": {"ios": "https://dc.lft.to/lastmile_qr_scan", "android": "https://dc.lft.to/lastmile_qr_scan"}, "lon": -76.973191, "type": "electric_scooter", "fusion_lat": 0.0, "lat": 38.9177345, "name": "22800159df40e2e669f5adc9a8866bed", "fusion_lon": 0.0, "bike_id": "22800159df40e2e669f5adc9a8866bed", "is_disabled": 0, "is_reserved": 0}, {"rental_uris": {"ios": "https://dc.lft.to/lastmile_qr_scan", "android": "https://dc.lft.to/lastmile_qr_scan"}, "lon": -77.02462616666666, "type": "electric_scooter", "fusion_lat": 0.0, "lat": 38.90848733333333, "name": "244c1e57cf9982eb3185d4df720c4800", "fusion_lon": 0.0, "bike_id": "244c1e57cf9982eb3185d4df720c4800", "is_disabled": 0, "is_reserved": 0}, {"rental_uris": {"ios": "https://dc.lft.to/lastmile_qr_scan", "android": "https://dc.lft.to/lastmile_qr_scan"}, "lon": -76.99368066666666, "type": "electric_scooter", "fusion_lat": 0.0, "lat": 38.879681833333336, "name": "28659f983d9480de35abdbbf8015f50b", "fusion_lon": 0.0, "bike_id": "28659f983d9480de35abdbbf8015f50b", "is_disabled": 0, "is_reserved": 0}, {"rental_uris": {"ios": "https://dc.lft.to/lastmile_qr_scan", "android": "https://dc.lft.to/lastmile_qr_scan"}, "lon": -77.05530483333334, "type": "electric_scooter", "fusion_lat": 0.0, "lat": 38.89932, "name": "ebee9f62a6d54cff80d52c13391273de", "fusion_lon": 0.0, "bike_id": "ebee9f62a6d54cff80d52c13391273de", "is_disabled": 0, "is_reserved": 0}, {"rental_uris": {"ios": "https://dc.lft.to/lastmile_qr_scan", "android": "https://dc.lft.to/lastmile_qr_scan"}, "lon": -77.0771975, "type": "electric_scooter", "fusion_lat": 0.0, "lat": 38.9470495, "name": "5f1bc96c8b5dee67da8acdf72373e3c2", "fusion_lon": 0.0, "bike_id": "5f1bc96c8b5dee67da8acdf72373e3c2", "is_disabled": 0, "is_reserved": 0}, {"rental_uris": {"ios": "https://dc.lft.to/lastmile_qr_scan", "android": "https://dc.lft.to/lastmile_qr_scan"}, "lon": -77.03319283333333, "type": "electric_scooter", "fusion_lat": 0.0, "lat": 38.91266783333333, "name": "50deea38fdfe9db59f8163c76389d77e", "fusion_lon": 0.0, "bike_id": "50deea38fdfe9db59f8163c76389d77e", "is_disabled": 0, "is_reserved": 0}, {"rental_uris": {"ios": "https://dc.lft.to/lastmile_qr_scan", "android": "https://dc.lft.to/lastmile_qr_scan"}, "lon": -77.02216783333333, "type": "electric_scooter", "fusion_lat": 0.0, "lat": 38.91272333333333, "name": "ec59c62658eabf7266f707dd7a57f342", "fusion_lon": 0.0, "bike_id": "ec59c62658eabf7266f707dd7a57f342", "is_disabled": 0, "is_reserved": 0}, {"rental_uris": {"ios": "https://dc.lft.to/lastmile_qr_scan", "android": "https://dc.lft.to/lastmile_qr_scan"}, "lon": -77.01618583333334, "type": "electric_scooter", "fusion_lat": 0.0, "lat": 38.9060885, "name": "a897b0733fb53327384d6bb5ec86ecb7", "fusion_lon": 0.0, "bike_id": "a897b0733fb53327384d6bb5ec86ecb7", "is_disabled": 0, "is_reserved": 0}, {"rental_uris": {"ios": "https://dc.lft.to/lastmile_qr_scan", "android": "https://dc.lft.to/lastmile_qr_scan"}, "lon": -77.04173316666666, "type": "electric_scooter", "fusion_lat": 0.0, "lat": 38.8993365, "name": "339ddc9eb6e38d8b072b61b6d471498f", "fusion_lon": 0.0, "bike_id": "339ddc9eb6e38d8b072b61b6d471498f", "is_disabled": 0, "is_reserved": 0}, {"rental_uris": {"ios": "https://dc.lft.to/lastmile_qr_scan", "android": "https://dc.lft.to/lastmile_qr_scan"}, "lon": -77.0395915, "type": "electric_scooter", "fusion_lat": 0.0, "lat": 38.92320683333333, "name": "7c097b63f1152951929cb43e7d2faa00", "fusion_lon": 0.0, "bike_id": "7c097b63f1152951929cb43e7d2faa00", "is_disabled": 0, "is_reserved": 0}, {"rental_uris": {"ios": "https://dc.lft.to/lastmile_qr_scan", "android": "https://dc.lft.to/lastmile_qr_scan"}, "lon": -77.02312933333333, "type": "electric_scooter", "fusion_lat": 0.0, "lat": 38.88189533333333, "name": "126080131e645d5d37e07d43cc3d37b2", "fusion_lon": 0.0, "bike_id": "126080131e645d5d37e07d43cc3d37b2", "is_disabled": 0, "is_reserved": 0}, {"rental_uris": {"ios": "https://dc.lft.to/lastmile_qr_scan", "android": "https://dc.lft.to/lastmile_qr_scan"}, "lon": -77.03142916666667, "type": "electric_scooter", "fusion_lat": 0.0, "lat": 38.93768983333333, "name": "96bae0afadad155b3c61770210fd96f7", "fusion_lon": 0.0, "bike_id": "96bae0afadad155b3c61770210fd96f7", "is_disabled": 0, "is_reserved": 0}, {"rental_uris": {"ios": "https://dc.lft.to/lastmile_qr_scan", "android": "https://dc.lft.to/lastmile_qr_scan"}, "lon": -76.980942, "type": "electric_bike", "fusion_lat": 0.0, "lat": 38.881344, "name": "ba60f13ef2ea897c30623e526a9fc453", "fusion_lon": 0.0, "bike_id": "ba60f13ef2ea897c30623e526a9fc453", "is_disabled": 0, "is_reserved": 0}, {"rental_uris": {"ios": "https://dc.lft.to/lastmile_qr_scan", "android": "https://dc.lft.to/lastmile_qr_scan"}, "lon": -77.02654666666666, "type": "electric_bike", "fusion_lat": 0.0, "lat": 38.904238, "name": "ea10537c81398e6cc89f74237c5d537f", "fusion_lon": 0.0, "bike_id": "ea10537c81398e6cc89f74237c5d537f", "is_disabled": 0, "is_reserved": 0}, {"rental_uris": {"ios": "https://dc.lft.to/lastmile_qr_scan", "android": "https://dc.lft.to/lastmile_qr_scan"}, "lon": -77.0334435, "type": "electric_bike", "fusion_lat": 0.0, "lat": 38.961349166666665, "name": "50e5263b8cf4ea7a25fab3d819ffdddd", "fusion_lon": 0.0, "bike_id": "50e5263b8cf4ea7a25fab3d819ffdddd", "is_disabled": 0, "is_reserved": 0}, {"rental_uris": {"ios": "https://dc.lft.to/lastmile_qr_scan", "android": "https://dc.lft.to/lastmile_qr_scan"}, "lon": -77.032366, "type": "electric_scooter", "fusion_lat": 0.0, "lat": 38.9276405, "name": "3e756df524ba421e85e365cb34e58533", "fusion_lon": 0.0, "bike_id": "3e756df524ba421e85e365cb34e58533", "is_disabled": 0, "is_reserved": 0}, {"rental_uris": {"ios": "https://dc.lft.to/lastmile_qr_scan", "android": "https://dc.lft.to/lastmile_qr_scan"}, "lon": -77.04170016666667, "type": "electric_scooter", "fusion_lat": 0.0, "lat": 38.913964166666666, "name": "c921d0255aea4faa82b2d9ab5784d955", "fusion_lon": 0.0, "bike_id": "c921d0255aea4faa82b2d9ab5784d955", "is_disabled": 0, "is_reserved": 0}, {"rental_uris": {"ios": "https://dc.lft.to/lastmile_qr_scan", "android": "https://dc.lft.to/lastmile_qr_scan"}, "lon": -76.94983666666667, "type": "electric_scooter", "fusion_lat": 0.0, "lat": 38.893540333333334, "name": "16ebccfba32a5be8f46f3991c696284b", "fusion_lon": 0.0, "bike_id": "16ebccfba32a5be8f46f3991c696284b", "is_disabled": 0, "is_reserved": 0}, {"rental_uris": {"ios": "https://dc.lft.to/lastmile_qr_scan", "android": "https://dc.lft.to/lastmile_qr_scan"}, "lon": -76.9773085, "type": "electric_scooter", "fusion_lat": 0.0, "lat": 38.872916333333336, "name": "9f42f16aed3afe21c012ca27d0fcaa2b", "fusion_lon": 0.0, "bike_id": "9f42f16aed3afe21c012ca27d0fcaa2b", "is_disabled": 0, "is_reserved": 0}, {"rental_uris": {"ios": "https://dc.lft.to/lastmile_qr_scan", "android": "https://dc.lft.to/lastmile_qr_scan"}, "lon": -76.99768666666667, "type": "electric_scooter", "fusion_lat": 0.0, "lat": 38.84420433333333, "name": "f8d441cd8727b44c3442581ed6d928f7", "fusion_lon": 0.0, "bike_id": "f8d441cd8727b44c3442581ed6d928f7", "is_disabled": 0, "is_reserved": 0}, {"rental_uris": {"ios": "https://dc.lft.to/lastmile_qr_scan", "android": "https://dc.lft.to/lastmile_qr_scan"}, "lon": -77.0151445, "type": "electric_scooter", "fusion_lat": 0.0, "lat": 38.89811983333333, "name": "84bbf2bef382ecac3d672d148cfc6f3c", "fusion_lon": 0.0, "bike_id": "84bbf2bef382ecac3d672d148cfc6f3c", "is_disabled": 0, "is_reserved": 0}, {"rental_uris": {"ios": "https://dc.lft.to/lastmile_qr_scan", "android": "https://dc.lft.to/lastmile_qr_scan"}, "lon": -77.01863416666667, "type": "electric_scooter", "fusion_lat": 0.0, "lat": 38.91576366666666, "name": "d7ad187df4a21d529a9b8daf8c602312", "fusion_lon": 0.0, "bike_id": "d7ad187df4a21d529a9b8daf8c602312", "is_disabled": 0, "is_reserved": 0}, {"rental_uris": {"ios": "https://dc.lft.to/lastmile_qr_scan", "android": "https://dc.lft.to/lastmile_qr_scan"}, "lon": -77.041144, "type": "electric_scooter", "fusion_lat": 0.0, "lat": 38.906052, "name": "a46e6e8803fb53fed3a00982cd3cc221", "fusion_lon": 0.0, "bike_id": "a46e6e8803fb53fed3a00982cd3cc221", "is_disabled": 0, "is_reserved": 0}, {"rental_uris": {"ios": "https://dc.lft.to/lastmile_qr_scan", "android": "https://dc.lft.to/lastmile_qr_scan"}, "lon": -76.99996266666666, "type": "electric_bike", "fusion_lat": 0.0, "lat": 38.923920333333335, "name": "cb0cd63ec4d9c4a76188d25aac7aa513", "fusion_lon": 0.0, "bike_id": "cb0cd63ec4d9c4a76188d25aac7aa513", "is_disabled": 0, "is_reserved": 0}, {"rental_uris": {"ios": "https://dc.lft.to/lastmile_qr_scan", "android": "https://dc.lft.to/lastmile_qr_scan"}, "lon": -77.0022875, "type": "electric_scooter", "fusion_lat": 0.0, "lat": 38.908350166666665, "name": "64e708b639d2ce8fd815e6ba028d47a1", "fusion_lon": 0.0, "bike_id": "64e708b639d2ce8fd815e6ba028d47a1", "is_disabled": 0, "is_reserved": 0}, {"rental_uris": {"ios": "https://dc.lft.to/lastmile_qr_scan", "android": "https://dc.lft.to/lastmile_qr_scan"}, "lon": -77.13172233333333, "type": "electric_bike", "fusion_lat": 0.0, "lat": 38.86906666666667, "name": "80040a7871c4120f4887f9049ad48ae7", "fusion_lon": 0.0, "bike_id": "80040a7871c4120f4887f9049ad48ae7", "is_disabled": 0, "is_reserved": 0}, {"rental_uris": {"ios": "https://dc.lft.to/lastmile_qr_scan", "android": "https://dc.lft.to/lastmile_qr_scan"}, "lon": -76.957397, "type": "electric_scooter", "fusion_lat": 0.0, "lat": 38.89216716666667, "name": "ee0d25a8a1fdb3f4a27b7a802e60d5a8", "fusion_lon": 0.0, "bike_id": "ee0d25a8a1fdb3f4a27b7a802e60d5a8", "is_disabled": 0, "is_reserved": 0}, {"rental_uris": {"ios": "https://dc.lft.to/lastmile_qr_scan", "android": "https://dc.lft.to/lastmile_qr_scan"}, "lon": -76.974406, "type": "electric_bike", "fusion_lat": 0.0, "lat": 38.864049666666666, "name": "270b885981642fd969b1a12b59f6cfb1", "fusion_lon": 0.0, "bike_id": "270b885981642fd969b1a12b59f6cfb1", "is_disabled": 0, "is_reserved": 0}, {"rental_uris": {"ios": "https://dc.lft.to/lastmile_qr_scan", "android": "https://dc.lft.to/lastmile_qr_scan"}, "lon": -77.03783466666667, "type": "electric_bike", "fusion_lat": 0.0, "lat": 38.99685816666667, "name": "7d5db1f0397ac5dabe1d93690e8409d2", "fusion_lon": 0.0, "bike_id": "7d5db1f0397ac5dabe1d93690e8409d2", "is_disabled": 0, "is_reserved": 0}, {"rental_uris": {"ios": "https://dc.lft.to/lastmile_qr_scan", "android": "https://dc.lft.to/lastmile_qr_scan"}, "lon": -77.02958816666667, "type": "electric_scooter", "fusion_lat": 0.0, "lat": 38.90044683333333, "name": "24de34f8c7118403b9f06dffdbbc4c49", "fusion_lon": 0.0, "bike_id": "24de34f8c7118403b9f06dffdbbc4c49", "is_disabled": 0, "is_reserved": 0}, {"rental_uris": {"ios": "https://dc.lft.to/lastmile_qr_scan", "android": "https://dc.lft.to/lastmile_qr_scan"}, "lon": -77.03624283333333, "type": "electric_scooter", "fusion_lat": 0.0, "lat": 38.936871833333335, "name": "c5bb0eff061e1fb38c5f4e82ff78aa58", "fusion_lon": 0.0, "bike_id": "c5bb0eff061e1fb38c5f4e82ff78aa58", "is_disabled": 0, "is_reserved": 0}, {"rental_uris": {"ios": "https://dc.lft.to/lastmile_qr_scan", "android": "https://dc.lft.to/lastmile_qr_scan"}, "lon": -77.0531465, "type": "electric_scooter", "fusion_lat": 0.0, "lat": 38.902926666666666, "name": "7b466d9c2ff1dd433e86f4b15d09e6b3", "fusion_lon": 0.0, "bike_id": "7b466d9c2ff1dd433e86f4b15d09e6b3", "is_disabled": 0, "is_reserved": 0}, {"rental_uris": {"ios": "https://dc.lft.to/lastmile_qr_scan", "android": "https://dc.lft.to/lastmile_qr_scan"}, "lon": -77.05075066666667, "type": "electric_scooter", "fusion_lat": 0.0, "lat": 38.900625833333336, "name": "e8d2b2a64f7a7de933c96813b715a651", "fusion_lon": 0.0, "bike_id": "e8d2b2a64f7a7de933c96813b715a651", "is_disabled": 0, "is_reserved": 0}, {"rental_uris": {"ios": "https://dc.lft.to/lastmile_qr_scan", "android": "https://dc.lft.to/lastmile_qr_scan"}, "lon": -77.03587333333333, "type": "electric_scooter", "fusion_lat": 0.0, "lat": 38.93246233333333, "name": "62a4966be22c55af5fd950224c767368", "fusion_lon": 0.0, "bike_id": "62a4966be22c55af5fd950224c767368", "is_disabled": 0, "is_reserved": 0}, {"rental_uris": {"ios": "https://dc.lft.to/lastmile_qr_scan", "android": "https://dc.lft.to/lastmile_qr_scan"}, "lon": -76.9324385, "type": "electric_scooter", "fusion_lat": 0.0, "lat": 38.894079, "name": "0586548424dbfd97bac70830bf5e56a3", "fusion_lon": 0.0, "bike_id": "0586548424dbfd97bac70830bf5e56a3", "is_disabled": 0, "is_reserved": 0}, {"rental_uris": {"ios": "https://dc.lft.to/lastmile_qr_scan", "android": "https://dc.lft.to/lastmile_qr_scan"}, "lon": -77.08386483333334, "type": "electric_scooter", "fusion_lat": 0.0, "lat": 38.960926666666666, "name": "2e094c76919641e946f48bff11c4833c", "fusion_lon": 0.0, "bike_id": "2e094c76919641e946f48bff11c4833c", "is_disabled": 0, "is_reserved": 0}, {"rental_uris": {"ios": "https://dc.lft.to/lastmile_qr_scan", "android": "https://dc.lft.to/lastmile_qr_scan"}, "lon": -76.99063, "type": "electric_scooter", "fusion_lat": 0.0, "lat": 38.86348016666667, "name": "0e25247f1639931d074376dad26a39b0", "fusion_lon": 0.0, "bike_id": "0e25247f1639931d074376dad26a39b0", "is_disabled": 0, "is_reserved": 0}, {"rental_uris": {"ios": "https://dc.lft.to/lastmile_qr_scan", "android": "https://dc.lft.to/lastmile_qr_scan"}, "lon": -77.04643883333334, "type": "electric_bike", "fusion_lat": 0.0, "lat": 38.85210516666667, "name": "96a7c4e67003e718d8b8284368cd28b9", "fusion_lon": 0.0, "bike_id": "96a7c4e67003e718d8b8284368cd28b9", "is_disabled": 0, "is_reserved": 0}, {"rental_uris": {"ios": "https://dc.lft.to/lastmile_qr_scan", "android": "https://dc.lft.to/lastmile_qr_scan"}, "lon": -77.02473766666667, "type": "electric_scooter", "fusion_lat": 0.0, "lat": 38.9376395, "name": "fa70c1089ef6aabf57d009ba9e52e864", "fusion_lon": 0.0, "bike_id": "fa70c1089ef6aabf57d009ba9e52e864", "is_disabled": 0, "is_reserved": 0}, {"rental_uris": {"ios": "https://dc.lft.to/lastmile_qr_scan", "android": "https://dc.lft.to/lastmile_qr_scan"}, "lon": -77.0449715, "type": "electric_scooter", "fusion_lat": 0.0, "lat": 38.911074666666664, "name": "cd6262d96043fcd9ebeda1e4c0521202", "fusion_lon": 0.0, "bike_id": "cd6262d96043fcd9ebeda1e4c0521202", "is_disabled": 0, "is_reserved": 0}, {"rental_uris": {"ios": "https://dc.lft.to/lastmile_qr_scan", "android": "https://dc.lft.to/lastmile_qr_scan"}, "lon": -77.03667983333334, "type": "electric_scooter", "fusion_lat": 0.0, "lat": 38.902825166666666, "name": "0137ef38c8e4aa301d704422e57304fc", "fusion_lon": 0.0, "bike_id": "0137ef38c8e4aa301d704422e57304fc", "is_disabled": 0, "is_reserved": 0}, {"rental_uris": {"ios": "https://dc.lft.to/lastmile_qr_scan", "android": "https://dc.lft.to/lastmile_qr_scan"}, "lon": -77.03035683333333, "type": "electric_scooter", "fusion_lat": 0.0, "lat": 38.89606283333333, "name": "66d00d572aa76047c36e9d887c4b0d23", "fusion_lon": 0.0, "bike_id": "66d00d572aa76047c36e9d887c4b0d23", "is_disabled": 0, "is_reserved": 0}, {"rental_uris": {"ios": "https://dc.lft.to/lastmile_qr_scan", "android": "https://dc.lft.to/lastmile_qr_scan"}, "lon": -77.12965016666666, "type": "electric_bike", "fusion_lat": 0.0, "lat": 38.8079635, "name": "646d97fee69bebe8f3a97148dec271a4", "fusion_lon": 0.0, "bike_id": "646d97fee69bebe8f3a97148dec271a4", "is_disabled": 0, "is_reserved": 0}, {"rental_uris": {"ios": "https://dc.lft.to/lastmile_qr_scan", "android": "https://dc.lft.to/lastmile_qr_scan"}, "lon": -77.012876, "type": "electric_bike", "fusion_lat": 0.0, "lat": 39.00381016666667, "name": "372d990d1295efce050e1a3ac7960ca4", "fusion_lon": 0.0, "bike_id": "372d990d1295efce050e1a3ac7960ca4", "is_disabled": 0, "is_reserved": 0}, {"rental_uris": {"ios": "https://dc.lft.to/lastmile_qr_scan", "android": "https://dc.lft.to/lastmile_qr_scan"}, "lon": -77.048958, "type": "electric_scooter", "fusion_lat": 0.0, "lat": 38.90188933333334, "name": "00aa8112949e84e46326e41f3eae22fb", "fusion_lon": 0.0, "bike_id": "00aa8112949e84e46326e41f3eae22fb", "is_disabled": 0, "is_reserved": 0}, {"rental_uris": {"ios": "https://dc.lft.to/lastmile_qr_scan", "android": "https://dc.lft.to/lastmile_qr_scan"}, "lon": -77.03349116666666, "type": "electric_scooter", "fusion_lat": 0.0, "lat": 38.8953405, "name": "fdd593483e49b9cd38d10bf56a83eccd", "fusion_lon": 0.0, "bike_id": "fdd593483e49b9cd38d10bf56a83eccd", "is_disabled": 0, "is_reserved": 0}, {"rental_uris": {"ios": "https://dc.lft.to/lastmile_qr_scan", "android": "https://dc.lft.to/lastmile_qr_scan"}, "lon": -77.03913383333334, "type": "electric_scooter", "fusion_lat": 0.0, "lat": 38.92102916666666, "name": "2a6e3b54b0c1eb471d091bccdda0b0c9", "fusion_lon": 0.0, "bike_id": "2a6e3b54b0c1eb471d091bccdda0b0c9", "is_disabled": 0, "is_reserved": 0}, {"rental_uris": {"ios": "https://dc.lft.to/lastmile_qr_scan", "android": "https://dc.lft.to/lastmile_qr_scan"}, "lon": -77.01589483333333, "type": "electric_scooter", "fusion_lat": 0.0, "lat": 38.901938666666666, "name": "7f19bcab9dd6a764035eaf08009a2a6f", "fusion_lon": 0.0, "bike_id": "7f19bcab9dd6a764035eaf08009a2a6f", "is_disabled": 0, "is_reserved": 0}, {"rental_uris": {"ios": "https://dc.lft.to/lastmile_qr_scan", "android": "https://dc.lft.to/lastmile_qr_scan"}, "lon": -77.0552305, "type": "electric_scooter", "fusion_lat": 0.0, "lat": 38.897340166666666, "name": "ab865bdfe7199f551493480070735e7f", "fusion_lon": 0.0, "bike_id": "ab865bdfe7199f551493480070735e7f", "is_disabled": 0, "is_reserved": 0}, {"rental_uris": {"ios": "https://dc.lft.to/lastmile_qr_scan", "android": "https://dc.lft.to/lastmile_qr_scan"}, "lon": -77.04652616666667, "type": "electric_scooter", "fusion_lat": 0.0, "lat": 38.932984, "name": "7c4ed61cf07957079f68b859c5da7e8b", "fusion_lon": 0.0, "bike_id": "7c4ed61cf07957079f68b859c5da7e8b", "is_disabled": 0, "is_reserved": 0}, {"rental_uris": {"ios": "https://dc.lft.to/lastmile_qr_scan", "android": "https://dc.lft.to/lastmile_qr_scan"}, "lon": -77.02840366666666, "type": "electric_scooter", "fusion_lat": 0.0, "lat": 38.925763333333336, "name": "3d8dc1eab89b189f00bbf06992ce98c7", "fusion_lon": 0.0, "bike_id": "3d8dc1eab89b189f00bbf06992ce98c7", "is_disabled": 0, "is_reserved": 0}, {"rental_uris": {"ios": "https://dc.lft.to/lastmile_qr_scan", "android": "https://dc.lft.to/lastmile_qr_scan"}, "lon": -77.00427916666666, "type": "electric_scooter", "fusion_lat": 0.0, "lat": 38.903942666666666, "name": "fa3486c23e2acc13882361d563756f3b", "fusion_lon": 0.0, "bike_id": "fa3486c23e2acc13882361d563756f3b", "is_disabled": 0, "is_reserved": 0}, {"rental_uris": {"ios": "https://dc.lft.to/lastmile_qr_scan", "android": "https://dc.lft.to/lastmile_qr_scan"}, "lon": -77.028485, "type": "electric_scooter", "fusion_lat": 0.0, "lat": 38.95084466666667, "name": "cd2853ff97ef50b3fbc905ed800bf220", "fusion_lon": 0.0, "bike_id": "cd2853ff97ef50b3fbc905ed800bf220", "is_disabled": 0, "is_reserved": 0}, {"rental_uris": {"ios": "https://dc.lft.to/lastmile_qr_scan", "android": "https://dc.lft.to/lastmile_qr_scan"}, "lon": -76.96502866666667, "type": "electric_scooter", "fusion_lat": 0.0, "lat": 38.8764715, "name": "7105efaee998a7a8c2ec3bc3ffda258d", "fusion_lon": 0.0, "bike_id": "7105efaee998a7a8c2ec3bc3ffda258d", "is_disabled": 0, "is_reserved": 0}, {"rental_uris": {"ios": "https://dc.lft.to/lastmile_qr_scan", "android": "https://dc.lft.to/lastmile_qr_scan"}, "lon": -77.04888133333333, "type": "electric_scooter", "fusion_lat": 0.0, "lat": 38.905220666666665, "name": "7c549326a09eaec38f37231109151114", "fusion_lon": 0.0, "bike_id": "7c549326a09eaec38f37231109151114", "is_disabled": 0, "is_reserved": 0}, {"rental_uris": {"ios": "https://dc.lft.to/lastmile_qr_scan", "android": "https://dc.lft.to/lastmile_qr_scan"}, "lon": -77.04875433333333, "type": "electric_scooter", "fusion_lat": 0.0, "lat": 38.90083683333334, "name": "8205fa358aeb9148b6255a50a1672fc6", "fusion_lon": 0.0, "bike_id": "8205fa358aeb9148b6255a50a1672fc6", "is_disabled": 0, "is_reserved": 0}, {"rental_uris": {"ios": "https://dc.lft.to/lastmile_qr_scan", "android": "https://dc.lft.to/lastmile_qr_scan"}, "lon": -76.93840333333333, "type": "electric_scooter", "fusion_lat": 0.0, "lat": 38.897591, "name": "db35686bdc2ea74faf24bb43f8a35a0f", "fusion_lon": 0.0, "bike_id": "db35686bdc2ea74faf24bb43f8a35a0f", "is_disabled": 0, "is_reserved": 0}, {"rental_uris": {"ios": "https://dc.lft.to/lastmile_qr_scan", "android": "https://dc.lft.to/lastmile_qr_scan"}, "lon": -77.035044, "type": "electric_scooter", "fusion_lat": 0.0, "lat": 38.9215005, "name": "47ed18d36ac76a5d88a789ef2068ef1e", "fusion_lon": 0.0, "bike_id": "47ed18d36ac76a5d88a789ef2068ef1e", "is_disabled": 0, "is_reserved": 0}, {"rental_uris": {"ios": "https://dc.lft.to/lastmile_qr_scan", "android": "https://dc.lft.to/lastmile_qr_scan"}, "lon": -77.02759066666667, "type": "electric_scooter", "fusion_lat": 0.0, "lat": 38.92312183333333, "name": "476415e15d8cbd1ecc23f9739fdbc886", "fusion_lon": 0.0, "bike_id": "476415e15d8cbd1ecc23f9739fdbc886", "is_disabled": 0, "is_reserved": 0}, {"rental_uris": {"ios": "https://dc.lft.to/lastmile_qr_scan", "android": "https://dc.lft.to/lastmile_qr_scan"}, "lon": -77.043547, "type": "electric_scooter", "fusion_lat": 0.0, "lat": 38.926775666666664, "name": "8dc99a2d80fa9edf326fde348abf8d18", "fusion_lon": 0.0, "bike_id": "8dc99a2d80fa9edf326fde348abf8d18", "is_disabled": 0, "is_reserved": 0}, {"rental_uris": {"ios": "https://dc.lft.to/lastmile_qr_scan", "android": "https://dc.lft.to/lastmile_qr_scan"}, "lon": -77.03016883333333, "type": "electric_scooter", "fusion_lat": 0.0, "lat": 38.89738416666667, "name": "086fe80534b85c9741826e2f4dbd04bd", "fusion_lon": 0.0, "bike_id": "086fe80534b85c9741826e2f4dbd04bd", "is_disabled": 0, "is_reserved": 0}, {"rental_uris": {"ios": "https://dc.lft.to/lastmile_qr_scan", "android": "https://dc.lft.to/lastmile_qr_scan"}, "lon": -77.05202283333334, "type": "electric_scooter", "fusion_lat": 0.0, "lat": 38.92436083333333, "name": "796918c0cb637c75f6bc1c16d2292abc", "fusion_lon": 0.0, "bike_id": "796918c0cb637c75f6bc1c16d2292abc", "is_disabled": 0, "is_reserved": 0}, {"rental_uris": {"ios": "https://dc.lft.to/lastmile_qr_scan", "android": "https://dc.lft.to/lastmile_qr_scan"}, "lon": -77.05883333333334, "type": "electric_scooter", "fusion_lat": 0.0, "lat": 38.936398833333335, "name": "eb55bfbb95ebd7ef0aa0b39dc2c574c3", "fusion_lon": 0.0, "bike_id": "eb55bfbb95ebd7ef0aa0b39dc2c574c3", "is_disabled": 0, "is_reserved": 0}, {"rental_uris": {"ios": "https://dc.lft.to/lastmile_qr_scan", "android": "https://dc.lft.to/lastmile_qr_scan"}, "lon": -77.00210966666667, "type": "electric_scooter", "fusion_lat": 0.0, "lat": 38.91195716666667, "name": "f83423ced3a7d60cf34ac12ab6aab7f7", "fusion_lon": 0.0, "bike_id": "f83423ced3a7d60cf34ac12ab6aab7f7", "is_disabled": 0, "is_reserved": 0}, {"rental_uris": {"ios": "https://dc.lft.to/lastmile_qr_scan", "android": "https://dc.lft.to/lastmile_qr_scan"}, "lon": -77.04531133333333, "type": "electric_scooter", "fusion_lat": 0.0, "lat": 38.903552833333336, "name": "003de31dbc2840eb9265a8a15dcd572d", "fusion_lon": 0.0, "bike_id": "003de31dbc2840eb9265a8a15dcd572d", "is_disabled": 0, "is_reserved": 0}, {"rental_uris": {"ios": "https://dc.lft.to/lastmile_qr_scan", "android": "https://dc.lft.to/lastmile_qr_scan"}, "lon": -76.98683366666667, "type": "electric_scooter", "fusion_lat": 0.0, "lat": 38.882066, "name": "64694e73341524c17fe2b9b1be15ab5b", "fusion_lon": 0.0, "bike_id": "64694e73341524c17fe2b9b1be15ab5b", "is_disabled": 0, "is_reserved": 0}, {"rental_uris": {"ios": "https://dc.lft.to/lastmile_qr_scan", "android": "https://dc.lft.to/lastmile_qr_scan"}, "lon": -76.98310033333334, "type": "electric_scooter", "fusion_lat": 0.0, "lat": 38.868858, "name": "f8aa8be7f9af71d9438c357568f46809", "fusion_lon": 0.0, "bike_id": "f8aa8be7f9af71d9438c357568f46809", "is_disabled": 0, "is_reserved": 0}, {"rental_uris": {"ios": "https://dc.lft.to/lastmile_qr_scan", "android": "https://dc.lft.to/lastmile_qr_scan"}, "lon": -77.00198516666667, "type": "electric_bike", "fusion_lat": 0.0, "lat": 38.88308833333333, "name": "7fafc6668772f271503291a0443112a9", "fusion_lon": 0.0, "bike_id": "7fafc6668772f271503291a0443112a9", "is_disabled": 0, "is_reserved": 0}, {"rental_uris": {"ios": "https://dc.lft.to/lastmile_qr_scan", "android": "https://dc.lft.to/lastmile_qr_scan"}, "lon": -76.9949945, "type": "electric_bike", "fusion_lat": 0.0, "lat": 38.89986283333333, "name": "7e7dedd6a6a14e3da60b9c4c4133b664", "fusion_lon": 0.0, "bike_id": "7e7dedd6a6a14e3da60b9c4c4133b664", "is_disabled": 0, "is_reserved": 0}, {"rental_uris": {"ios": "https://dc.lft.to/lastmile_qr_scan", "android": "https://dc.lft.to/lastmile_qr_scan"}, "lon": -77.04788833333333, "type": "electric_scooter", "fusion_lat": 0.0, "lat": 38.908533, "name": "37d6c113d04f8b37b0118aedd073176b", "fusion_lon": 0.0, "bike_id": "37d6c113d04f8b37b0118aedd073176b", "is_disabled": 0, "is_reserved": 0}, {"rental_uris": {"ios": "https://dc.lft.to/lastmile_qr_scan", "android": "https://dc.lft.to/lastmile_qr_scan"}, "lon": -77.03140383333333, "type": "electric_scooter", "fusion_lat": 0.0, "lat": 38.91329116666667, "name": "f5f1cc377571be8de250d6b2d243a38c", "fusion_lon": 0.0, "bike_id": "f5f1cc377571be8de250d6b2d243a38c", "is_disabled": 0, "is_reserved": 0}, {"rental_uris": {"ios": "https://dc.lft.to/lastmile_qr_scan", "android": "https://dc.lft.to/lastmile_qr_scan"}, "lon": -76.97625333333333, "type": "electric_scooter", "fusion_lat": 0.0, "lat": 38.905717, "name": "9cb78a95d5c84701e24f6961f55ecba7", "fusion_lon": 0.0, "bike_id": "9cb78a95d5c84701e24f6961f55ecba7", "is_disabled": 0, "is_reserved": 0}, {"rental_uris": {"ios": "https://dc.lft.to/lastmile_qr_scan", "android": "https://dc.lft.to/lastmile_qr_scan"}, "lon": -77.00846416666667, "type": "electric_bike", "fusion_lat": 0.0, "lat": 38.949134666666666, "name": "8e9e21c30c8f02530b8037dff105e738", "fusion_lon": 0.0, "bike_id": "8e9e21c30c8f02530b8037dff105e738", "is_disabled": 0, "is_reserved": 0}, {"rental_uris": {"ios": "https://dc.lft.to/lastmile_qr_scan", "android": "https://dc.lft.to/lastmile_qr_scan"}, "lon": -77.0314575, "type": "electric_scooter", "fusion_lat": 0.0, "lat": 38.883001, "name": "b4d07e9a5c610975057612fcc3db01c8", "fusion_lon": 0.0, "bike_id": "b4d07e9a5c610975057612fcc3db01c8", "is_disabled": 0, "is_reserved": 0}, {"rental_uris": {"ios": "https://dc.lft.to/lastmile_qr_scan", "android": "https://dc.lft.to/lastmile_qr_scan"}, "lon": -77.02455233333333, "type": "electric_scooter", "fusion_lat": 0.0, "lat": 38.93856133333333, "name": "66f148069398fb2fc2e963ba2017ffc4", "fusion_lon": 0.0, "bike_id": "66f148069398fb2fc2e963ba2017ffc4", "is_disabled": 0, "is_reserved": 0}, {"rental_uris": {"ios": "https://dc.lft.to/lastmile_qr_scan", "android": "https://dc.lft.to/lastmile_qr_scan"}, "lon": -77.02317033333334, "type": "electric_scooter", "fusion_lat": 0.0, "lat": 38.92758283333333, "name": "136dc941bc762487616a59a3de770bff", "fusion_lon": 0.0, "bike_id": "136dc941bc762487616a59a3de770bff", "is_disabled": 0, "is_reserved": 0}, {"rental_uris": {"ios": "https://dc.lft.to/lastmile_qr_scan", "android": "https://dc.lft.to/lastmile_qr_scan"}, "lon": -77.00408866666666, "type": "electric_scooter", "fusion_lat": 0.0, "lat": 38.87927116666667, "name": "edc8c15f06846fc70455b11ff77a9ed1", "fusion_lon": 0.0, "bike_id": "edc8c15f06846fc70455b11ff77a9ed1", "is_disabled": 0, "is_reserved": 0}, {"rental_uris": {"ios": "https://dc.lft.to/lastmile_qr_scan", "android": "https://dc.lft.to/lastmile_qr_scan"}, "lon": -77.04698733333333, "type": "electric_scooter", "fusion_lat": 0.0, "lat": 38.90590816666667, "name": "877915b7192b234c2b61d052c4c9edaa", "fusion_lon": 0.0, "bike_id": "877915b7192b234c2b61d052c4c9edaa", "is_disabled": 0, "is_reserved": 0}, {"rental_uris": {"ios": "https://dc.lft.to/lastmile_qr_scan", "android": "https://dc.lft.to/lastmile_qr_scan"}, "lon": -77.0364395, "type": "electric_scooter", "fusion_lat": 0.0, "lat": 38.91734116666667, "name": "463192cf879b5903aa0d608871a0bf9b", "fusion_lon": 0.0, "bike_id": "463192cf879b5903aa0d608871a0bf9b", "is_disabled": 0, "is_reserved": 0}, {"rental_uris": {"ios": "https://dc.lft.to/lastmile_qr_scan", "android": "https://dc.lft.to/lastmile_qr_scan"}, "lon": -76.9951475, "type": "electric_scooter", "fusion_lat": 0.0, "lat": 38.8625785, "name": "64779ee4886121ec0a52e6c42793701a", "fusion_lon": 0.0, "bike_id": "64779ee4886121ec0a52e6c42793701a", "is_disabled": 0, "is_reserved": 0}, {"rental_uris": {"ios": "https://dc.lft.to/lastmile_qr_scan", "android": "https://dc.lft.to/lastmile_qr_scan"}, "lon": -77.01090533333333, "type": "electric_scooter", "fusion_lat": 0.0, "lat": 38.9162595, "name": "e4c080476d31179a9ffe2e6bfc1ce310", "fusion_lon": 0.0, "bike_id": "e4c080476d31179a9ffe2e6bfc1ce310", "is_disabled": 0, "is_reserved": 0}, {"rental_uris": {"ios": "https://dc.lft.to/lastmile_qr_scan", "android": "https://dc.lft.to/lastmile_qr_scan"}, "lon": -77.14115716666667, "type": "electric_bike", "fusion_lat": 0.0, "lat": 38.816035, "name": "e15a10ca81cb5ddca1c1c7ff2b8414dc", "fusion_lon": 0.0, "bike_id": "e15a10ca81cb5ddca1c1c7ff2b8414dc", "is_disabled": 0, "is_reserved": 0}, {"rental_uris": {"ios": "https://dc.lft.to/lastmile_qr_scan", "android": "https://dc.lft.to/lastmile_qr_scan"}, "lon": -77.0326725, "type": "electric_scooter", "fusion_lat": 0.0, "lat": 38.938076833333334, "name": "6673937d7545f91a3b71cae825d8afa8", "fusion_lon": 0.0, "bike_id": "6673937d7545f91a3b71cae825d8afa8", "is_disabled": 0, "is_reserved": 0}, {"rental_uris": {"ios": "https://dc.lft.to/lastmile_qr_scan", "android": "https://dc.lft.to/lastmile_qr_scan"}, "lon": -77.02851083333333, "type": "electric_scooter", "fusion_lat": 0.0, "lat": 38.9347265, "name": "fafb2f663ed500454b2cd524d547fce2", "fusion_lon": 0.0, "bike_id": "fafb2f663ed500454b2cd524d547fce2", "is_disabled": 0, "is_reserved": 0}, {"rental_uris": {"ios": "https://dc.lft.to/lastmile_qr_scan", "android": "https://dc.lft.to/lastmile_qr_scan"}, "lon": -77.02978533333334, "type": "electric_scooter", "fusion_lat": 0.0, "lat": 38.96229816666666, "name": "9db4dc3e8ef827f6291d1feba674d65d", "fusion_lon": 0.0, "bike_id": "9db4dc3e8ef827f6291d1feba674d65d", "is_disabled": 0, "is_reserved": 0}, {"rental_uris": {"ios": "https://dc.lft.to/lastmile_qr_scan", "android": "https://dc.lft.to/lastmile_qr_scan"}, "lon": -77.0136335, "type": "electric_scooter", "fusion_lat": 0.0, "lat": 38.871148833333336, "name": "9673457812ad1a00f6492c7494896869", "fusion_lon": 0.0, "bike_id": "9673457812ad1a00f6492c7494896869", "is_disabled": 0, "is_reserved": 0}, {"rental_uris": {"ios": "https://dc.lft.to/lastmile_qr_scan", "android": "https://dc.lft.to/lastmile_qr_scan"}, "lon": -77.0659795, "type": "electric_scooter", "fusion_lat": 0.0, "lat": 38.90576433333333, "name": "09b6ae330acbff651f45d54cb1e84248", "fusion_lon": 0.0, "bike_id": "09b6ae330acbff651f45d54cb1e84248", "is_disabled": 0, "is_reserved": 0}, {"rental_uris": {"ios": "https://dc.lft.to/lastmile_qr_scan", "android": "https://dc.lft.to/lastmile_qr_scan"}, "lon": -77.05473733333334, "type": "electric_scooter", "fusion_lat": 0.0, "lat": 38.89391033333333, "name": "4779bf92ef9b0b18877f78213cfa5adc", "fusion_lon": 0.0, "bike_id": "4779bf92ef9b0b18877f78213cfa5adc", "is_disabled": 0, "is_reserved": 0}, {"rental_uris": {"ios": "https://dc.lft.to/lastmile_qr_scan", "android": "https://dc.lft.to/lastmile_qr_scan"}, "lon": -77.12955816666667, "type": "electric_bike", "fusion_lat": 0.0, "lat": 38.8521725, "name": "fcae4db22636f8b4e8f4448d285a7d81", "fusion_lon": 0.0, "bike_id": "fcae4db22636f8b4e8f4448d285a7d81", "is_disabled": 0, "is_reserved": 0}, {"rental_uris": {"ios": "https://dc.lft.to/lastmile_qr_scan", "android": "https://dc.lft.to/lastmile_qr_scan"}, "lon": -76.98375816666666, "type": "electric_scooter", "fusion_lat": 0.0, "lat": 38.89544, "name": "a8c6303840aba3614e3ab0ecc716e370", "fusion_lon": 0.0, "bike_id": "a8c6303840aba3614e3ab0ecc716e370", "is_disabled": 0, "is_reserved": 0}, {"rental_uris": {"ios": "https://dc.lft.to/lastmile_qr_scan", "android": "https://dc.lft.to/lastmile_qr_scan"}, "lon": -76.9599165, "type": "electric_scooter", "fusion_lat": 0.0, "lat": 38.88044, "name": "44f95195a444d234230d2876844bec48", "fusion_lon": 0.0, "bike_id": "44f95195a444d234230d2876844bec48", "is_disabled": 0, "is_reserved": 0}, {"rental_uris": {"ios": "https://dc.lft.to/lastmile_qr_scan", "android": "https://dc.lft.to/lastmile_qr_scan"}, "lon": -77.030444, "type": "electric_scooter", "fusion_lat": 0.0, "lat": 38.91702183333334, "name": "c1873b76bf97ef4f1288695d4af2ee3c", "fusion_lon": 0.0, "bike_id": "c1873b76bf97ef4f1288695d4af2ee3c", "is_disabled": 0, "is_reserved": 0}, {"rental_uris": {"ios": "https://dc.lft.to/lastmile_qr_scan", "android": "https://dc.lft.to/lastmile_qr_scan"}, "lon": -77.02597766666666, "type": "electric_bike", "fusion_lat": 0.0, "lat": 38.9626105, "name": "ee97585315e7fa83dac6a2ea899037b8", "fusion_lon": 0.0, "bike_id": "ee97585315e7fa83dac6a2ea899037b8", "is_disabled": 0, "is_reserved": 0}, {"rental_uris": {"ios": "https://dc.lft.to/lastmile_qr_scan", "android": "https://dc.lft.to/lastmile_qr_scan"}, "lon": -76.9969, "type": "electric_scooter", "fusion_lat": 0.0, "lat": 38.9008985, "name": "0a24dd7102583b4c15417464919705ef", "fusion_lon": 0.0, "bike_id": "0a24dd7102583b4c15417464919705ef", "is_disabled": 0, "is_reserved": 0}, {"rental_uris": {"ios": "https://dc.lft.to/lastmile_qr_scan", "android": "https://dc.lft.to/lastmile_qr_scan"}, "lon": -77.00211583333333, "type": "electric_scooter", "fusion_lat": 0.0, "lat": 38.8998745, "name": "2d354cd2fa6529bdaf1fa64f8db6a210", "fusion_lon": 0.0, "bike_id": "2d354cd2fa6529bdaf1fa64f8db6a210", "is_disabled": 0, "is_reserved": 0}, {"rental_uris": {"ios": "https://dc.lft.to/lastmile_qr_scan", "android": "https://dc.lft.to/lastmile_qr_scan"}, "lon": -76.93228433333333, "type": "electric_bike", "fusion_lat": 0.0, "lat": 38.865936833333336, "name": "5e771bb141a45014271409adab6c1d48", "fusion_lon": 0.0, "bike_id": "5e771bb141a45014271409adab6c1d48", "is_disabled": 0, "is_reserved": 0}, {"rental_uris": {"ios": "https://dc.lft.to/lastmile_qr_scan", "android": "https://dc.lft.to/lastmile_qr_scan"}, "lon": -76.94750666666667, "type": "electric_scooter", "fusion_lat": 0.0, "lat": 38.90051916666667, "name": "74be78a6cbedd58236c2c5f578f97104", "fusion_lon": 0.0, "bike_id": "74be78a6cbedd58236c2c5f578f97104", "is_disabled": 0, "is_reserved": 0}, {"rental_uris": {"ios": "https://dc.lft.to/lastmile_qr_scan", "android": "https://dc.lft.to/lastmile_qr_scan"}, "lon": -76.97287233333333, "type": "electric_scooter", "fusion_lat": 0.0, "lat": 38.903362333333334, "name": "bb9e0b1f216d76e7f166ecb1b6305a7b", "fusion_lon": 0.0, "bike_id": "bb9e0b1f216d76e7f166ecb1b6305a7b", "is_disabled": 0, "is_reserved": 0}, {"rental_uris": {"ios": "https://dc.lft.to/lastmile_qr_scan", "android": "https://dc.lft.to/lastmile_qr_scan"}, "lon": -76.93369433333334, "type": "electric_scooter", "fusion_lat": 0.0, "lat": 38.89917666666667, "name": "f29ec97eadb476b69e510a4c50e2c519", "fusion_lon": 0.0, "bike_id": "f29ec97eadb476b69e510a4c50e2c519", "is_disabled": 0, "is_reserved": 0}, {"rental_uris": {"ios": "https://dc.lft.to/lastmile_qr_scan", "android": "https://dc.lft.to/lastmile_qr_scan"}, "lon": -77.03870516666667, "type": "electric_scooter", "fusion_lat": 0.0, "lat": 38.934294, "name": "bbbb284a634946446dc50d0f9b6e1d19", "fusion_lon": 0.0, "bike_id": "bbbb284a634946446dc50d0f9b6e1d19", "is_disabled": 0, "is_reserved": 0}, {"rental_uris": {"ios": "https://dc.lft.to/lastmile_qr_scan", "android": "https://dc.lft.to/lastmile_qr_scan"}, "lon": -77.04285233333333, "type": "electric_scooter", "fusion_lat": 0.0, "lat": 38.90554016666667, "name": "3df72132864068e615efbf21f6505b92", "fusion_lon": 0.0, "bike_id": "3df72132864068e615efbf21f6505b92", "is_disabled": 0, "is_reserved": 0}, {"rental_uris": {"ios": "https://dc.lft.to/lastmile_qr_scan", "android": "https://dc.lft.to/lastmile_qr_scan"}, "lon": -77.03667, "type": "electric_scooter", "fusion_lat": 0.0, "lat": 38.91814633333333, "name": "d2693309c4eda95f4e2c94a6b52493a6", "fusion_lon": 0.0, "bike_id": "d2693309c4eda95f4e2c94a6b52493a6", "is_disabled": 0, "is_reserved": 0}, {"rental_uris": {"ios": "https://dc.lft.to/lastmile_qr_scan", "android": "https://dc.lft.to/lastmile_qr_scan"}, "lon": -76.9363485, "type": "electric_scooter", "fusion_lat": 0.0, "lat": 38.88990416666667, "name": "f21537b1b245eb3727dbde128e83e3c9", "fusion_lon": 0.0, "bike_id": "f21537b1b245eb3727dbde128e83e3c9", "is_disabled": 0, "is_reserved": 0}, {"rental_uris": {"ios": "https://dc.lft.to/lastmile_qr_scan", "android": "https://dc.lft.to/lastmile_qr_scan"}, "lon": -77.01419, "type": "electric_scooter", "fusion_lat": 0.0, "lat": 38.91703966666667, "name": "9b1c5b67ed51b6b1a202e181a75a2555", "fusion_lon": 0.0, "bike_id": "9b1c5b67ed51b6b1a202e181a75a2555", "is_disabled": 0, "is_reserved": 0}, {"rental_uris": {"ios": "https://dc.lft.to/lastmile_qr_scan", "android": "https://dc.lft.to/lastmile_qr_scan"}, "lon": -77.03044783333333, "type": "electric_scooter", "fusion_lat": 0.0, "lat": 38.922486666666664, "name": "60fb85be2f226cc70b1572849c5a4d25", "fusion_lon": 0.0, "bike_id": "60fb85be2f226cc70b1572849c5a4d25", "is_disabled": 0, "is_reserved": 0}, {"rental_uris": {"ios": "https://dc.lft.to/lastmile_qr_scan", "android": "https://dc.lft.to/lastmile_qr_scan"}, "lon": -76.9977095, "type": "electric_scooter", "fusion_lat": 0.0, "lat": 38.84424766666667, "name": "280ee73a1bebb7fb37a11d676c7b8a67", "fusion_lon": 0.0, "bike_id": "280ee73a1bebb7fb37a11d676c7b8a67", "is_disabled": 0, "is_reserved": 0}, {"rental_uris": {"ios": "https://dc.lft.to/lastmile_qr_scan", "android": "https://dc.lft.to/lastmile_qr_scan"}, "lon": -77.01795583333333, "type": "electric_scooter", "fusion_lat": 0.0, "lat": 38.941182833333336, "name": "201aef5f2326a3daf4caa155ebabe41d", "fusion_lon": 0.0, "bike_id": "201aef5f2326a3daf4caa155ebabe41d", "is_disabled": 0, "is_reserved": 0}, {"rental_uris": {"ios": "https://dc.lft.to/lastmile_qr_scan", "android": "https://dc.lft.to/lastmile_qr_scan"}, "lon": -77.03334366666667, "type": "electric_scooter", "fusion_lat": 0.0, "lat": 38.89817466666667, "name": "848aba92750d3aad56a62f43c64f70da", "fusion_lon": 0.0, "bike_id": "848aba92750d3aad56a62f43c64f70da", "is_disabled": 0, "is_reserved": 0}, {"rental_uris": {"ios": "https://dc.lft.to/lastmile_qr_scan", "android": "https://dc.lft.to/lastmile_qr_scan"}, "lon": -77.06605566666667, "type": "electric_scooter", "fusion_lat": 0.0, "lat": 38.90528166666667, "name": "20180adeeb00a27f1de60bc7dbfaa8c6", "fusion_lon": 0.0, "bike_id": "20180adeeb00a27f1de60bc7dbfaa8c6", "is_disabled": 0, "is_reserved": 0}, {"rental_uris": {"ios": "https://dc.lft.to/lastmile_qr_scan", "android": "https://dc.lft.to/lastmile_qr_scan"}, "lon": -77.0481215, "type": "electric_scooter", "fusion_lat": 0.0, "lat": 38.916289666666664, "name": "baffcd47919202664fce3e54ebe9e303", "fusion_lon": 0.0, "bike_id": "baffcd47919202664fce3e54ebe9e303", "is_disabled": 0, "is_reserved": 0}, {"rental_uris": {"ios": "https://dc.lft.to/lastmile_qr_scan", "android": "https://dc.lft.to/lastmile_qr_scan"}, "lon": -76.9995455, "type": "electric_bike", "fusion_lat": 0.0, "lat": 38.923418166666664, "name": "e0151d025a4219be592dbbf66a6549dd", "fusion_lon": 0.0, "bike_id": "e0151d025a4219be592dbbf66a6549dd", "is_disabled": 0, "is_reserved": 0}, {"rental_uris": {"ios": "https://dc.lft.to/lastmile_qr_scan", "android": "https://dc.lft.to/lastmile_qr_scan"}, "lon": -77.03271933333333, "type": "electric_scooter", "fusion_lat": 0.0, "lat": 38.944155333333335, "name": "7af4c3a0b5cc6b8ab785cd4e39c2749f", "fusion_lon": 0.0, "bike_id": "7af4c3a0b5cc6b8ab785cd4e39c2749f", "is_disabled": 0, "is_reserved": 0}, {"rental_uris": {"ios": "https://dc.lft.to/lastmile_qr_scan", "android": "https://dc.lft.to/lastmile_qr_scan"}, "lon": -77.05514816666667, "type": "electric_scooter", "fusion_lat": 0.0, "lat": 38.91056016666667, "name": "2bcfc3fa88022f203afa0cdf67418b6c", "fusion_lon": 0.0, "bike_id": "2bcfc3fa88022f203afa0cdf67418b6c", "is_disabled": 0, "is_reserved": 0}, {"rental_uris": {"ios": "https://dc.lft.to/lastmile_qr_scan", "android": "https://dc.lft.to/lastmile_qr_scan"}, "lon": -77.029762, "type": "electric_scooter", "fusion_lat": 0.0, "lat": 38.91628683333333, "name": "de9cac6582139ebb5e61beefa0110f20", "fusion_lon": 0.0, "bike_id": "de9cac6582139ebb5e61beefa0110f20", "is_disabled": 0, "is_reserved": 0}, {"rental_uris": {"ios": "https://dc.lft.to/lastmile_qr_scan", "android": "https://dc.lft.to/lastmile_qr_scan"}, "lon": -76.99816683333333, "type": "electric_scooter", "fusion_lat": 0.0, "lat": 38.900099166666664, "name": "dccff6099c51795bdfeca6413cca8b0f", "fusion_lon": 0.0, "bike_id": "dccff6099c51795bdfeca6413cca8b0f", "is_disabled": 0, "is_reserved": 0}, {"rental_uris": {"ios": "https://dc.lft.to/lastmile_qr_scan", "android": "https://dc.lft.to/lastmile_qr_scan"}, "lon": -76.98431383333333, "type": "electric_scooter", "fusion_lat": 0.0, "lat": 38.91454683333333, "name": "21c66d2780473c6a8c83aaac5a442fb3", "fusion_lon": 0.0, "bike_id": "21c66d2780473c6a8c83aaac5a442fb3", "is_disabled": 0, "is_reserved": 0}, {"rental_uris": {"ios": "https://dc.lft.to/lastmile_qr_scan", "android": "https://dc.lft.to/lastmile_qr_scan"}, "lon": -76.99360283333333, "type": "electric_scooter", "fusion_lat": 0.0, "lat": 38.90040916666667, "name": "fb82f22ebf012d793e9e6d330fa11aeb", "fusion_lon": 0.0, "bike_id": "fb82f22ebf012d793e9e6d330fa11aeb", "is_disabled": 0, "is_reserved": 0}, {"rental_uris": {"ios": "https://dc.lft.to/lastmile_qr_scan", "android": "https://dc.lft.to/lastmile_qr_scan"}, "lon": -76.89537066666666, "type": "electric_bike", "fusion_lat": 0.0, "lat": 38.945537, "name": "0aa39d6e984d3db5f7def277c1d01a49", "fusion_lon": 0.0, "bike_id": "0aa39d6e984d3db5f7def277c1d01a49", "is_disabled": 0, "is_reserved": 0}, {"rental_uris": {"ios": "https://dc.lft.to/lastmile_qr_scan", "android": "https://dc.lft.to/lastmile_qr_scan"}, "lon": -77.057552, "type": "electric_scooter", "fusion_lat": 0.0, "lat": 38.92461333333333, "name": "ebc2aca7a30a080827733c00c1cd65ef", "fusion_lon": 0.0, "bike_id": "ebc2aca7a30a080827733c00c1cd65ef", "is_disabled": 0, "is_reserved": 0}, {"rental_uris": {"ios": "https://dc.lft.to/lastmile_qr_scan", "android": "https://dc.lft.to/lastmile_qr_scan"}, "lon": -77.02456933333333, "type": "electric_scooter", "fusion_lat": 0.0, "lat": 38.90247683333333, "name": "56701df0fda9e8d141f8ae2d108f122f", "fusion_lon": 0.0, "bike_id": "56701df0fda9e8d141f8ae2d108f122f", "is_disabled": 0, "is_reserved": 0}, {"rental_uris": {"ios": "https://dc.lft.to/lastmile_qr_scan", "android": "https://dc.lft.to/lastmile_qr_scan"}, "lon": -77.03828366666667, "type": "electric_scooter", "fusion_lat": 0.0, "lat": 38.916940833333335, "name": "a2c2e869180eac4ea8f402cbe7cf38cd", "fusion_lon": 0.0, "bike_id": "a2c2e869180eac4ea8f402cbe7cf38cd", "is_disabled": 0, "is_reserved": 0}, {"rental_uris": {"ios": "https://dc.lft.to/lastmile_qr_scan", "android": "https://dc.lft.to/lastmile_qr_scan"}, "lon": -77.04445883333334, "type": "electric_scooter", "fusion_lat": 0.0, "lat": 38.90554233333334, "name": "ab9826284c3e56f9abf7c8a7cd508d29", "fusion_lon": 0.0, "bike_id": "ab9826284c3e56f9abf7c8a7cd508d29", "is_disabled": 0, "is_reserved": 0}, {"rental_uris": {"ios": "https://dc.lft.to/lastmile_qr_scan", "android": "https://dc.lft.to/lastmile_qr_scan"}, "lon": -77.032352, "type": "electric_scooter", "fusion_lat": 0.0, "lat": 38.917053833333334, "name": "fc790b7b7e59214c058eb68f8e4b9d9d", "fusion_lon": 0.0, "bike_id": "fc790b7b7e59214c058eb68f8e4b9d9d", "is_disabled": 0, "is_reserved": 0}, {"rental_uris": {"ios": "https://dc.lft.to/lastmile_qr_scan", "android": "https://dc.lft.to/lastmile_qr_scan"}, "lon": -77.02700783333333, "type": "electric_scooter", "fusion_lat": 0.0, "lat": 38.91865033333333, "name": "f45329e89532e813be518a239b7c40c9", "fusion_lon": 0.0, "bike_id": "f45329e89532e813be518a239b7c40c9", "is_disabled": 0, "is_reserved": 0}, {"rental_uris": {"ios": "https://dc.lft.to/lastmile_qr_scan", "android": "https://dc.lft.to/lastmile_qr_scan"}, "lon": -77.01580683333333, "type": "electric_scooter", "fusion_lat": 0.0, "lat": 38.88749416666667, "name": "ecc1eef3c2a970efb757850622f8e116", "fusion_lon": 0.0, "bike_id": "ecc1eef3c2a970efb757850622f8e116", "is_disabled": 0, "is_reserved": 0}, {"rental_uris": {"ios": "https://dc.lft.to/lastmile_qr_scan", "android": "https://dc.lft.to/lastmile_qr_scan"}, "lon": -77.0276305, "type": "electric_scooter", "fusion_lat": 0.0, "lat": 38.91705, "name": "a358f964d8a1d7bfa5716b03527715a1", "fusion_lon": 0.0, "bike_id": "a358f964d8a1d7bfa5716b03527715a1", "is_disabled": 0, "is_reserved": 0}, {"rental_uris": {"ios": "https://dc.lft.to/lastmile_qr_scan", "android": "https://dc.lft.to/lastmile_qr_scan"}, "lon": -77.02959183333333, "type": "electric_scooter", "fusion_lat": 0.0, "lat": 38.92523166666667, "name": "25f2f3e094ce9b772baa0edc0736fdc7", "fusion_lon": 0.0, "bike_id": "25f2f3e094ce9b772baa0edc0736fdc7", "is_disabled": 0, "is_reserved": 0}, {"rental_uris": {"ios": "https://dc.lft.to/lastmile_qr_scan", "android": "https://dc.lft.to/lastmile_qr_scan"}, "lon": -77.045362, "type": "electric_scooter", "fusion_lat": 0.0, "lat": 38.90377633333333, "name": "2f51831c606991c761e9d56e5af18b2a", "fusion_lon": 0.0, "bike_id": "2f51831c606991c761e9d56e5af18b2a", "is_disabled": 0, "is_reserved": 0}, {"rental_uris": {"ios": "https://dc.lft.to/lastmile_qr_scan", "android": "https://dc.lft.to/lastmile_qr_scan"}, "lon": -77.048071, "type": "electric_scooter", "fusion_lat": 0.0, "lat": 38.897339333333335, "name": "094fed12cefd04b3cc9743608652f443", "fusion_lon": 0.0, "bike_id": "094fed12cefd04b3cc9743608652f443", "is_disabled": 0, "is_reserved": 0}, {"rental_uris": {"ios": "https://dc.lft.to/lastmile_qr_scan", "android": "https://dc.lft.to/lastmile_qr_scan"}, "lon": -77.02395766666666, "type": "electric_scooter", "fusion_lat": 0.0, "lat": 38.919611833333335, "name": "561378927176b4eb03f53b9ec8444910", "fusion_lon": 0.0, "bike_id": "561378927176b4eb03f53b9ec8444910", "is_disabled": 0, "is_reserved": 0}, {"rental_uris": {"ios": "https://dc.lft.to/lastmile_qr_scan", "android": "https://dc.lft.to/lastmile_qr_scan"}, "lon": -77.01216366666667, "type": "electric_scooter", "fusion_lat": 0.0, "lat": 38.92040166666666, "name": "5b310882b75fcf01b236e887c04416fb", "fusion_lon": 0.0, "bike_id": "5b310882b75fcf01b236e887c04416fb", "is_disabled": 0, "is_reserved": 0}, {"rental_uris": {"ios": "https://dc.lft.to/lastmile_qr_scan", "android": "https://dc.lft.to/lastmile_qr_scan"}, "lon": -76.99159316666666, "type": "electric_scooter", "fusion_lat": 0.0, "lat": 38.89341966666667, "name": "5ea66d6565837fb9964657242cf818bf", "fusion_lon": 0.0, "bike_id": "5ea66d6565837fb9964657242cf818bf", "is_disabled": 0, "is_reserved": 0}, {"rental_uris": {"ios": "https://dc.lft.to/lastmile_qr_scan", "android": "https://dc.lft.to/lastmile_qr_scan"}, "lon": -77.02719033333334, "type": "electric_scooter", "fusion_lat": 0.0, "lat": 38.918138666666664, "name": "273b8deff89c8e49e80d1a7f30d0d670", "fusion_lon": 0.0, "bike_id": "273b8deff89c8e49e80d1a7f30d0d670", "is_disabled": 0, "is_reserved": 0}, {"rental_uris": {"ios": "https://dc.lft.to/lastmile_qr_scan", "android": "https://dc.lft.to/lastmile_qr_scan"}, "lon": -77.07200666666667, "type": "electric_scooter", "fusion_lat": 0.0, "lat": 38.9319145, "name": "c492c05f396364416c035ea2fc4e0a41", "fusion_lon": 0.0, "bike_id": "c492c05f396364416c035ea2fc4e0a41", "is_disabled": 0, "is_reserved": 0}, {"rental_uris": {"ios": "https://dc.lft.to/lastmile_qr_scan", "android": "https://dc.lft.to/lastmile_qr_scan"}, "lon": -77.05070816666667, "type": "electric_scooter", "fusion_lat": 0.0, "lat": 38.900863, "name": "cf76f54373491c2f147e261566e2e236", "fusion_lon": 0.0, "bike_id": "cf76f54373491c2f147e261566e2e236", "is_disabled": 0, "is_reserved": 0}, {"rental_uris": {"ios": "https://dc.lft.to/lastmile_qr_scan", "android": "https://dc.lft.to/lastmile_qr_scan"}, "lon": -77.01777066666666, "type": "electric_scooter", "fusion_lat": 0.0, "lat": 38.90061766666667, "name": "e915a5cc6a4675209aff9a641dbea18e", "fusion_lon": 0.0, "bike_id": "e915a5cc6a4675209aff9a641dbea18e", "is_disabled": 0, "is_reserved": 0}, {"rental_uris": {"ios": "https://dc.lft.to/lastmile_qr_scan", "android": "https://dc.lft.to/lastmile_qr_scan"}, "lon": -77.03808166666667, "type": "electric_bike", "fusion_lat": 0.0, "lat": 38.918158, "name": "14027a440b3a9ff414be8eaf8b82195d", "fusion_lon": 0.0, "bike_id": "14027a440b3a9ff414be8eaf8b82195d", "is_disabled": 0, "is_reserved": 0}, {"rental_uris": {"ios": "https://dc.lft.to/lastmile_qr_scan", "android": "https://dc.lft.to/lastmile_qr_scan"}, "lon": -77.18291550000001, "type": "electric_bike", "fusion_lat": 0.0, "lat": 38.88344216666667, "name": "8fa9b2245fa63a225d77e5437a890adb", "fusion_lon": 0.0, "bike_id": "8fa9b2245fa63a225d77e5437a890adb", "is_disabled": 0, "is_reserved": 0}, {"rental_uris": {"ios": "https://dc.lft.to/lastmile_qr_scan", "android": "https://dc.lft.to/lastmile_qr_scan"}, "lon": -77.02476783333333, "type": "electric_scooter", "fusion_lat": 0.0, "lat": 38.9310705, "name": "93176cc50dcadd90d73b9dcf135b0376", "fusion_lon": 0.0, "bike_id": "93176cc50dcadd90d73b9dcf135b0376", "is_disabled": 0, "is_reserved": 0}, {"rental_uris": {"ios": "https://dc.lft.to/lastmile_qr_scan", "android": "https://dc.lft.to/lastmile_qr_scan"}, "lon": -76.97819483333333, "type": "electric_scooter", "fusion_lat": 0.0, "lat": 38.89513816666667, "name": "7598e6d41a9fe915f8bc45ddbc76a1e2", "fusion_lon": 0.0, "bike_id": "7598e6d41a9fe915f8bc45ddbc76a1e2", "is_disabled": 0, "is_reserved": 0}, {"rental_uris": {"ios": "https://dc.lft.to/lastmile_qr_scan", "android": "https://dc.lft.to/lastmile_qr_scan"}, "lon": -77.03332566666667, "type": "electric_scooter", "fusion_lat": 0.0, "lat": 38.9015125, "name": "7d0fc6d06871232424bf91d683c812f0", "fusion_lon": 0.0, "bike_id": "7d0fc6d06871232424bf91d683c812f0", "is_disabled": 0, "is_reserved": 0}, {"rental_uris": {"ios": "https://dc.lft.to/lastmile_qr_scan", "android": "https://dc.lft.to/lastmile_qr_scan"}, "lon": -77.034664, "type": "electric_scooter", "fusion_lat": 0.0, "lat": 38.90768283333333, "name": "ef12a354299501bee331a000f73fd148", "fusion_lon": 0.0, "bike_id": "ef12a354299501bee331a000f73fd148", "is_disabled": 0, "is_reserved": 0}, {"rental_uris": {"ios": "https://dc.lft.to/lastmile_qr_scan", "android": "https://dc.lft.to/lastmile_qr_scan"}, "lon": -77.025012, "type": "electric_scooter", "fusion_lat": 0.0, "lat": 38.9072465, "name": "8435515f07af4e5cd7155213f4d6d773", "fusion_lon": 0.0, "bike_id": "8435515f07af4e5cd7155213f4d6d773", "is_disabled": 0, "is_reserved": 0}, {"rental_uris": {"ios": "https://dc.lft.to/lastmile_qr_scan", "android": "https://dc.lft.to/lastmile_qr_scan"}, "lon": -76.94998666666666, "type": "electric_scooter", "fusion_lat": 0.0, "lat": 38.89372916666667, "name": "7d7828ca88eb8d0f78137e321c26898a", "fusion_lon": 0.0, "bike_id": "7d7828ca88eb8d0f78137e321c26898a", "is_disabled": 0, "is_reserved": 0}, {"rental_uris": {"ios": "https://dc.lft.to/lastmile_qr_scan", "android": "https://dc.lft.to/lastmile_qr_scan"}, "lon": -77.03838, "type": "electric_scooter", "fusion_lat": 0.0, "lat": 38.9029425, "name": "35b57714b9adb18f51d85dd8a49840f0", "fusion_lon": 0.0, "bike_id": "35b57714b9adb18f51d85dd8a49840f0", "is_disabled": 0, "is_reserved": 0}, {"rental_uris": {"ios": "https://dc.lft.to/lastmile_qr_scan", "android": "https://dc.lft.to/lastmile_qr_scan"}, "lon": -77.082634, "type": "electric_scooter", "fusion_lat": 0.0, "lat": 38.93035966666667, "name": "48eccc68ed0200cf91821b06897d66c1", "fusion_lon": 0.0, "bike_id": "48eccc68ed0200cf91821b06897d66c1", "is_disabled": 0, "is_reserved": 0}, {"rental_uris": {"ios": "https://dc.lft.to/lastmile_qr_scan", "android": "https://dc.lft.to/lastmile_qr_scan"}, "lon": -77.03616183333334, "type": "electric_scooter", "fusion_lat": 0.0, "lat": 38.9325695, "name": "56efe09106f58022aaec5213f0e99d11", "fusion_lon": 0.0, "bike_id": "56efe09106f58022aaec5213f0e99d11", "is_disabled": 0, "is_reserved": 0}, {"rental_uris": {"ios": "https://dc.lft.to/lastmile_qr_scan", "android": "https://dc.lft.to/lastmile_qr_scan"}, "lon": -76.9870045, "type": "electric_scooter", "fusion_lat": 0.0, "lat": 38.862623666666664, "name": "ccd7233917dd0fd374062a05166f3efe", "fusion_lon": 0.0, "bike_id": "ccd7233917dd0fd374062a05166f3efe", "is_disabled": 0, "is_reserved": 0}, {"rental_uris": {"ios": "https://dc.lft.to/lastmile_qr_scan", "android": "https://dc.lft.to/lastmile_qr_scan"}, "lon": -76.9417545, "type": "electric_scooter", "fusion_lat": 0.0, "lat": 38.8821835, "name": "26eb3d6d0eea8f319ed17699bb99aec1", "fusion_lon": 0.0, "bike_id": "26eb3d6d0eea8f319ed17699bb99aec1", "is_disabled": 0, "is_reserved": 0}, {"rental_uris": {"ios": "https://dc.lft.to/lastmile_qr_scan", "android": "https://dc.lft.to/lastmile_qr_scan"}, "lon": -77.05468, "type": "electric_scooter", "fusion_lat": 0.0, "lat": 38.920928, "name": "e7afaf1e42aacc4f939498b89bd50c59", "fusion_lon": 0.0, "bike_id": "e7afaf1e42aacc4f939498b89bd50c59", "is_disabled": 0, "is_reserved": 0}, {"rental_uris": {"ios": "https://dc.lft.to/lastmile_qr_scan", "android": "https://dc.lft.to/lastmile_qr_scan"}, "lon": -77.0322725, "type": "electric_scooter", "fusion_lat": 0.0, "lat": 38.91558833333333, "name": "614650a8fe5aa5f81ba60ad511e853f3", "fusion_lon": 0.0, "bike_id": "614650a8fe5aa5f81ba60ad511e853f3", "is_disabled": 0, "is_reserved": 0}, {"rental_uris": {"ios": "https://dc.lft.to/lastmile_qr_scan", "android": "https://dc.lft.to/lastmile_qr_scan"}, "lon": -77.027105, "type": "electric_scooter", "fusion_lat": 0.0, "lat": 38.924702, "name": "738003b7e512747f330aa51f28f79c14", "fusion_lon": 0.0, "bike_id": "738003b7e512747f330aa51f28f79c14", "is_disabled": 0, "is_reserved": 0}, {"rental_uris": {"ios": "https://dc.lft.to/lastmile_qr_scan", "android": "https://dc.lft.to/lastmile_qr_scan"}, "lon": -76.9552355, "type": "electric_scooter", "fusion_lat": 0.0, "lat": 38.8878335, "name": "80bba44c5c8a1704eb4d5de893539395", "fusion_lon": 0.0, "bike_id": "80bba44c5c8a1704eb4d5de893539395", "is_disabled": 0, "is_reserved": 0}, {"rental_uris": {"ios": "https://dc.lft.to/lastmile_qr_scan", "android": "https://dc.lft.to/lastmile_qr_scan"}, "lon": -77.06007266666667, "type": "electric_scooter", "fusion_lat": 0.0, "lat": 38.912612833333334, "name": "4dd7f48708d6e6cd05dd266a88c10723", "fusion_lon": 0.0, "bike_id": "4dd7f48708d6e6cd05dd266a88c10723", "is_disabled": 0, "is_reserved": 0}, {"rental_uris": {"ios": "https://dc.lft.to/lastmile_qr_scan", "android": "https://dc.lft.to/lastmile_qr_scan"}, "lon": -77.037328, "type": "electric_scooter", "fusion_lat": 0.0, "lat": 38.929049666666664, "name": "bcdb3e94a84a0c2796a513e4902de36e", "fusion_lon": 0.0, "bike_id": "bcdb3e94a84a0c2796a513e4902de36e", "is_disabled": 0, "is_reserved": 0}, {"rental_uris": {"ios": "https://dc.lft.to/lastmile_qr_scan", "android": "https://dc.lft.to/lastmile_qr_scan"}, "lon": -76.93174383333333, "type": "electric_scooter", "fusion_lat": 0.0, "lat": 38.89881666666667, "name": "22c161e2aae1255ff363a941095a0e09", "fusion_lon": 0.0, "bike_id": "22c161e2aae1255ff363a941095a0e09", "is_disabled": 0, "is_reserved": 0}, {"rental_uris": {"ios": "https://dc.lft.to/lastmile_qr_scan", "android": "https://dc.lft.to/lastmile_qr_scan"}, "lon": -76.9948945, "type": "electric_scooter", "fusion_lat": 0.0, "lat": 38.86240033333333, "name": "d2fc93f66b732f273628f49a2363bf6f", "fusion_lon": 0.0, "bike_id": "d2fc93f66b732f273628f49a2363bf6f", "is_disabled": 0, "is_reserved": 0}, {"rental_uris": {"ios": "https://dc.lft.to/lastmile_qr_scan", "android": "https://dc.lft.to/lastmile_qr_scan"}, "lon": -77.03664666666667, "type": "electric_scooter", "fusion_lat": 0.0, "lat": 38.918172, "name": "776d3b248b1154a2c747cc44d17d5bd5", "fusion_lon": 0.0, "bike_id": "776d3b248b1154a2c747cc44d17d5bd5", "is_disabled": 0, "is_reserved": 0}, {"rental_uris": {"ios": "https://dc.lft.to/lastmile_qr_scan", "android": "https://dc.lft.to/lastmile_qr_scan"}, "lon": -77.1202595, "type": "electric_bike", "fusion_lat": 0.0, "lat": 38.855113333333335, "name": "006e3025942a567d23cf993abb0b53b9", "fusion_lon": 0.0, "bike_id": "006e3025942a567d23cf993abb0b53b9", "is_disabled": 0, "is_reserved": 0}, {"rental_uris": {"ios": "https://dc.lft.to/lastmile_qr_scan", "android": "https://dc.lft.to/lastmile_qr_scan"}, "lon": -77.00055533333334, "type": "electric_scooter", "fusion_lat": 0.0, "lat": 38.905840166666664, "name": "ed4a1ab3e4b54fd21a95d6d7aa6eba59", "fusion_lon": 0.0, "bike_id": "ed4a1ab3e4b54fd21a95d6d7aa6eba59", "is_disabled": 0, "is_reserved": 0}, {"rental_uris": {"ios": "https://dc.lft.to/lastmile_qr_scan", "android": "https://dc.lft.to/lastmile_qr_scan"}, "lon": -77.03969433333333, "type": "electric_scooter", "fusion_lat": 0.0, "lat": 38.9012775, "name": "b4f8d30cbe360300ad8c489001603efb", "fusion_lon": 0.0, "bike_id": "b4f8d30cbe360300ad8c489001603efb", "is_disabled": 0, "is_reserved": 0}, {"rental_uris": {"ios": "https://dc.lft.to/lastmile_qr_scan", "android": "https://dc.lft.to/lastmile_qr_scan"}, "lon": -77.034592, "type": "electric_scooter", "fusion_lat": 0.0, "lat": 38.91822116666667, "name": "51f530c467db27b8ce80604aa420a623", "fusion_lon": 0.0, "bike_id": "51f530c467db27b8ce80604aa420a623", "is_disabled": 0, "is_reserved": 0}, {"rental_uris": {"ios": "https://dc.lft.to/lastmile_qr_scan", "android": "https://dc.lft.to/lastmile_qr_scan"}, "lon": -77.03274716666667, "type": "electric_scooter", "fusion_lat": 0.0, "lat": 38.9320465, "name": "d0d84d24befc743c1cd10fd26c81fd64", "fusion_lon": 0.0, "bike_id": "d0d84d24befc743c1cd10fd26c81fd64", "is_disabled": 0, "is_reserved": 0}, {"rental_uris": {"ios": "https://dc.lft.to/lastmile_qr_scan", "android": "https://dc.lft.to/lastmile_qr_scan"}, "lon": -76.99603666666667, "type": "electric_scooter", "fusion_lat": 0.0, "lat": 38.877282666666666, "name": "513f6bf2e62ff7f432fd80c49020ce30", "fusion_lon": 0.0, "bike_id": "513f6bf2e62ff7f432fd80c49020ce30", "is_disabled": 0, "is_reserved": 0}, {"rental_uris": {"ios": "https://dc.lft.to/lastmile_qr_scan", "android": "https://dc.lft.to/lastmile_qr_scan"}, "lon": -76.9884165, "type": "electric_bike", "fusion_lat": 0.0, "lat": 38.842795333333335, "name": "3d358f36d2fcc870c30215f0e6849c50", "fusion_lon": 0.0, "bike_id": "3d358f36d2fcc870c30215f0e6849c50", "is_disabled": 0, "is_reserved": 0}, {"rental_uris": {"ios": "https://dc.lft.to/lastmile_qr_scan", "android": "https://dc.lft.to/lastmile_qr_scan"}, "lon": -77.03391366666666, "type": "electric_scooter", "fusion_lat": 0.0, "lat": 38.90597733333333, "name": "79cf052d1f44e4d66f4644e3cfb2cd38", "fusion_lon": 0.0, "bike_id": "79cf052d1f44e4d66f4644e3cfb2cd38", "is_disabled": 0, "is_reserved": 0}, {"rental_uris": {"ios": "https://dc.lft.to/lastmile_qr_scan", "android": "https://dc.lft.to/lastmile_qr_scan"}, "lon": -77.04250283333333, "type": "electric_scooter", "fusion_lat": 0.0, "lat": 38.92204666666667, "name": "a3c25f13f5664551a40ee4de135df35f", "fusion_lon": 0.0, "bike_id": "a3c25f13f5664551a40ee4de135df35f", "is_disabled": 0, "is_reserved": 0}, {"rental_uris": {"ios": "https://dc.lft.to/lastmile_qr_scan", "android": "https://dc.lft.to/lastmile_qr_scan"}, "lon": -77.03192783333333, "type": "electric_scooter", "fusion_lat": 0.0, "lat": 38.907585833333336, "name": "bb8bbe0f461d4fa69c398b8f4730135b", "fusion_lon": 0.0, "bike_id": "bb8bbe0f461d4fa69c398b8f4730135b", "is_disabled": 0, "is_reserved": 0}, {"rental_uris": {"ios": "https://dc.lft.to/lastmile_qr_scan", "android": "https://dc.lft.to/lastmile_qr_scan"}, "lon": -77.0187965, "type": "electric_scooter", "fusion_lat": 0.0, "lat": 38.91749033333333, "name": "c2a20fd0f0ae757cb6f8a3488f185b2a", "fusion_lon": 0.0, "bike_id": "c2a20fd0f0ae757cb6f8a3488f185b2a", "is_disabled": 0, "is_reserved": 0}, {"rental_uris": {"ios": "https://dc.lft.to/lastmile_qr_scan", "android": "https://dc.lft.to/lastmile_qr_scan"}, "lon": -77.01285833333333, "type": "electric_scooter", "fusion_lat": 0.0, "lat": 38.906181833333335, "name": "290ccb1f3d68bb0eab67c64d60394a21", "fusion_lon": 0.0, "bike_id": "290ccb1f3d68bb0eab67c64d60394a21", "is_disabled": 0, "is_reserved": 0}, {"rental_uris": {"ios": "https://dc.lft.to/lastmile_qr_scan", "android": "https://dc.lft.to/lastmile_qr_scan"}, "lon": -77.03789083333334, "type": "electric_scooter", "fusion_lat": 0.0, "lat": 38.926322, "name": "9128172b4379c94f72dfeb0f020d93ac", "fusion_lon": 0.0, "bike_id": "9128172b4379c94f72dfeb0f020d93ac", "is_disabled": 0, "is_reserved": 0}, {"rental_uris": {"ios": "https://dc.lft.to/lastmile_qr_scan", "android": "https://dc.lft.to/lastmile_qr_scan"}, "lon": -77.0484095, "type": "electric_scooter", "fusion_lat": 0.0, "lat": 38.90966783333333, "name": "0afffa79ab18c92834e7e4ef14e8d70c", "fusion_lon": 0.0, "bike_id": "0afffa79ab18c92834e7e4ef14e8d70c", "is_disabled": 0, "is_reserved": 0}, {"rental_uris": {"ios": "https://dc.lft.to/lastmile_qr_scan", "android": "https://dc.lft.to/lastmile_qr_scan"}, "lon": -77.07777883333333, "type": "electric_scooter", "fusion_lat": 0.0, "lat": 38.945576833333334, "name": "a717bdd52fa5ceae7924a2241bf6522c", "fusion_lon": 0.0, "bike_id": "a717bdd52fa5ceae7924a2241bf6522c", "is_disabled": 0, "is_reserved": 0}, {"rental_uris": {"ios": "https://dc.lft.to/lastmile_qr_scan", "android": "https://dc.lft.to/lastmile_qr_scan"}, "lon": -77.0030855, "type": "electric_scooter", "fusion_lat": 0.0, "lat": 38.894936666666666, "name": "2eddbb000f143f23b2fc5b18852f4f73", "fusion_lon": 0.0, "bike_id": "2eddbb000f143f23b2fc5b18852f4f73", "is_disabled": 0, "is_reserved": 0}, {"rental_uris": {"ios": "https://dc.lft.to/lastmile_qr_scan", "android": "https://dc.lft.to/lastmile_qr_scan"}, "lon": -77.005815, "type": "electric_scooter", "fusion_lat": 0.0, "lat": 38.87913733333333, "name": "593b59c2d8f9a4ba6932cfa7407943c9", "fusion_lon": 0.0, "bike_id": "593b59c2d8f9a4ba6932cfa7407943c9", "is_disabled": 0, "is_reserved": 0}, {"rental_uris": {"ios": "https://dc.lft.to/lastmile_qr_scan", "android": "https://dc.lft.to/lastmile_qr_scan"}, "lon": -77.03287683333333, "type": "electric_scooter", "fusion_lat": 0.0, "lat": 38.93490883333333, "name": "b4ce948ce10bb6094be29b1ee36ad97c", "fusion_lon": 0.0, "bike_id": "b4ce948ce10bb6094be29b1ee36ad97c", "is_disabled": 0, "is_reserved": 0}, {"rental_uris": {"ios": "https://dc.lft.to/lastmile_qr_scan", "android": "https://dc.lft.to/lastmile_qr_scan"}, "lon": -77.0026475, "type": "electric_scooter", "fusion_lat": 0.0, "lat": 38.8989985, "name": "90e7c761d2c80faf0a36863e5aeae7a3", "fusion_lon": 0.0, "bike_id": "90e7c761d2c80faf0a36863e5aeae7a3", "is_disabled": 0, "is_reserved": 0}, {"rental_uris": {"ios": "https://dc.lft.to/lastmile_qr_scan", "android": "https://dc.lft.to/lastmile_qr_scan"}, "lon": -77.01072583333334, "type": "electric_bike", "fusion_lat": 0.0, "lat": 38.956528166666665, "name": "9d761aced383424129e48f64a0c609de", "fusion_lon": 0.0, "bike_id": "9d761aced383424129e48f64a0c609de", "is_disabled": 0, "is_reserved": 0}, {"rental_uris": {"ios": "https://dc.lft.to/lastmile_qr_scan", "android": "https://dc.lft.to/lastmile_qr_scan"}, "lon": -77.03663516666667, "type": "electric_scooter", "fusion_lat": 0.0, "lat": 38.92122066666667, "name": "dc61540d0f23c051dc8c2ba551567e82", "fusion_lon": 0.0, "bike_id": "dc61540d0f23c051dc8c2ba551567e82", "is_disabled": 0, "is_reserved": 0}, {"rental_uris": {"ios": "https://dc.lft.to/lastmile_qr_scan", "android": "https://dc.lft.to/lastmile_qr_scan"},