{"data": {"bikes": [{"lat": 38.85804683333333, "is_disabled": 0, "type": "electric_scooter", "lon": -76.98648533333333, "bike_id": "5e70323d810a1cf999c05d715709913b", "fusion_lat": 0.0, "name": "5e70323d810a1cf999c05d715709913b", "is_reserved": 0, "rental_uris": {"android": "https://dc.lft.to/lastmile_qr_scan", "ios": "https://dc.lft.to/lastmile_qr_scan"}, "fusion_lon": 0.0}, {"lat": 38.90122316666667, "is_disabled": 0, "type": "electric_scooter", "lon": -77.03275466666666, "bike_id": "28a3290ac97255f39d0c4430e2e962c1", "fusion_lat": 0.0, "name": "28a3290ac97255f39d0c4430e2e962c1", "is_reserved": 0, "rental_uris": {"android": "https://dc.lft.to/lastmile_qr_scan", "ios": "https://dc.lft.to/lastmile_qr_scan"}, "fusion_lon": 0.0}, {"lat": 38.90731233333333, "is_disabled": 0, "type": "electric_bike", "lon": -77.01068116666667, "bike_id": "378419e48edf64b8e77b3b3a14110d7c", "fusion_lat": 0.0, "name": "378419e48edf64b8e77b3b3a14110d7c", "is_reserved": 0, "rental_uris": {"android": "https://dc.lft.to/lastmile_qr_scan", "ios": "https://dc.lft.to/lastmile_qr_scan"}, "fusion_lon": 0.0}, {"lat": 38.96609816666667, "is_disabled": 0, "type": "electric_scooter", "lon": -77.02057133333334, "bike_id": "58cbeed3aefca769247c01b579c23da5", "fusion_lat": 0.0, "name": "58cbeed3aefca769247c01b579c23da5", "is_reserved": 0, "rental_uris": {"android": "https://dc.lft.to/lastmile_qr_scan", "ios": "https://dc.lft.to/lastmile_qr_scan"}, "fusion_lon": 0.0}, {"lat": 38.931413, "is_disabled": 0, "type": "electric_scooter", "lon": -77.0414225, "bike_id": "a3c442c586f6b75124caaf29136df23e", "fusion_lat": 0.0, "name": "a3c442c586f6b75124caaf29136df23e", "is_reserved": 0, "rental_uris": {"android": "https://dc.lft.to/lastmile_qr_scan", "ios": "https://dc.lft.to/lastmile_qr_scan"}, "fusion_lon": 0.0}, {"lat": 38.91360016666667, "is_disabled": 0, "type": "electric_scooter", "lon": -77.06922033333333, "bike_id": "67ad5123b3483188147c952014a7dcbd", "fusion_lat": 0.0, "name": "67ad5123b3483188147c952014a7dcbd", "is_reserved": 0, "rental_uris": {"android": "https://dc.lft.to/lastmile_qr_scan", "ios": "https://dc.lft.to/lastmile_qr_scan"}, "fusion_lon": 0.0}, {"lat": 38.85919, "is_disabled": 0, "type": "electric_scooter", "lon": -76.98977716666667, "bike_id": "a7a53b4d5ef4a385905f13123bbba665", "fusion_lat": 0.0, "name": "a7a53b4d5ef4a385905f13123bbba665", "is_reserved": 0, "rental_uris": {"android": "https://dc.lft.to/lastmile_qr_scan", "ios": "https://dc.lft.to/lastmile_qr_scan"}, "fusion_lon": 0.0}, {"lat": 38.923122166666666, "is_disabled": 0, "type": "electric_scooter", "lon": -77.0397, "bike_id": "712e16bda7581c973e629b149b43ef31", "fusion_lat": 0.0, "name": "712e16bda7581c973e629b149b43ef31", "is_reserved": 0, "rental_uris": {"android": "https://dc.lft.to/lastmile_qr_scan", "ios": "https://dc.lft.to/lastmile_qr_scan"}, "fusion_lon": 0.0}, {"lat": 38.921566166666665, "is_disabled": 0, "type": "electric_scooter", "lon": -77.03350066666667, "bike_id": "5970bb5371077d5efb8b246f8205bd96", "fusion_lat": 0.0, "name": "5970bb5371077d5efb8b246f8205bd96", "is_reserved": 0, "rental_uris": {"android": "https://dc.lft.to/lastmile_qr_scan", "ios": "https://dc.lft.to/lastmile_qr_scan"}, "fusion_lon": 0.0}, {"lat": 38.90532366666667, "is_disabled": 0, "type": "electric_scooter", "lon": -77.05712383333334, "bike_id": "989d1ed8a6a6f95cc745d54ba4dff9fb", "fusion_lat": 0.0, "name": "989d1ed8a6a6f95cc745d54ba4dff9fb", "is_reserved": 0, "rental_uris": {"android": "https://dc.lft.to/lastmile_qr_scan", "ios": "https://dc.lft.to/lastmile_qr_scan"}, "fusion_lon": 0.0}, {"lat": 38.91414183333333, "is_disabled": 0, "type": "electric_scooter", "lon": -77.02922183333334, "bike_id": "a6dbb168c3dafadbe073eb8e4c5d1f14", "fusion_lat": 0.0, "name": "a6dbb168c3dafadbe073eb8e4c5d1f14", "is_reserved": 0, "rental_uris": {"android": "https://dc.lft.to/lastmile_qr_scan", "ios": "https://dc.lft.to/lastmile_qr_scan"}, "fusion_lon": 0.0}, {"lat": 38.9261305, "is_disabled": 0, "type": "electric_scooter", "lon": -77.02160666666667, "bike_id": "ab3451bd8b62891c9375e44dea104140", "fusion_lat": 0.0, "name": "ab3451bd8b62891c9375e44dea104140", "is_reserved": 0, "rental_uris": {"android": "https://dc.lft.to/lastmile_qr_scan", "ios": "https://dc.lft.to/lastmile_qr_scan"}, "fusion_lon": 0.0}, {"lat": 38.879629333333334, "is_disabled": 0, "type": "electric_scooter", "lon": -76.9873805, "bike_id": "b285e3fdffe1a18e9fe637a06fee1c24", "fusion_lat": 0.0, "name": "b285e3fdffe1a18e9fe637a06fee1c24", "is_reserved": 0, "rental_uris": {"android": "https://dc.lft.to/lastmile_qr_scan", "ios": "https://dc.lft.to/lastmile_qr_scan"}, "fusion_lon": 0.0}, {"lat": 38.884882166666664, "is_disabled": 0, "type": "electric_scooter", "lon": -77.007062, "bike_id": "cdcba00806fdff4f0dec207732dc50e5", "fusion_lat": 0.0, "name": "cdcba00806fdff4f0dec207732dc50e5", "is_reserved": 0, "rental_uris": {"android": "https://dc.lft.to/lastmile_qr_scan", "ios": "https://dc.lft.to/lastmile_qr_scan"}, "fusion_lon": 0.0}, {"lat": 38.900121, "is_disabled": 0, "type": "electric_scooter", "lon": -77.0119805, "bike_id": "75f03eb50e075037aabbc5e4421e1f8f", "fusion_lat": 0.0, "name": "75f03eb50e075037aabbc5e4421e1f8f", "is_reserved": 0, "rental_uris": {"android": "https://dc.lft.to/lastmile_qr_scan", "ios": "https://dc.lft.to/lastmile_qr_scan"}, "fusion_lon": 0.0}, {"lat": 38.92570966666667, "is_disabled": 0, "type": "electric_scooter", "lon": -76.98608666666667, "bike_id": "933d109a8eded9ef3e497a956546fe64", "fusion_lat": 0.0, "name": "933d109a8eded9ef3e497a956546fe64", "is_reserved": 0, "rental_uris": {"android": "https://dc.lft.to/lastmile_qr_scan", "ios": "https://dc.lft.to/lastmile_qr_scan"}, "fusion_lon": 0.0}, {"lat": 38.90254216666666, "is_disabled": 0, "type": "electric_scooter", "lon": -77.05424233333333, "bike_id": "bcb475bc175cc8dc16916bf0c0a2accb", "fusion_lat": 0.0, "name": "bcb475bc175cc8dc16916bf0c0a2accb", "is_reserved": 0, "rental_uris": {"android": "https://dc.lft.to/lastmile_qr_scan", "ios": "https://dc.lft.to/lastmile_qr_scan"}, "fusion_lon": 0.0}, {"lat": 38.91670766666667, "is_disabled": 0, "type": "electric_scooter", "lon": -77.0259465, "bike_id": "7dd795ab422322c694b3144feeed1308", "fusion_lat": 0.0, "name": "7dd795ab422322c694b3144feeed1308", "is_reserved": 0, "rental_uris": {"android": "https://dc.lft.to/lastmile_qr_scan", "ios": "https://dc.lft.to/lastmile_qr_scan"}, "fusion_lon": 0.0}, {"lat": 38.923707, "is_disabled": 0, "type": "electric_scooter", "lon": -77.0292525, "bike_id": "60c7aff7ae221ba770cc27d8a2b47622", "fusion_lat": 0.0, "name": "60c7aff7ae221ba770cc27d8a2b47622", "is_reserved": 0, "rental_uris": {"android": "https://dc.lft.to/lastmile_qr_scan", "ios": "https://dc.lft.to/lastmile_qr_scan"}, "fusion_lon": 0.0}, {"lat": 38.842883, "is_disabled": 0, "type": "electric_scooter", "lon": -76.99946033333333, "bike_id": "5239db5c781e86a76566e651e336dcc3", "fusion_lat": 0.0, "name": "5239db5c781e86a76566e651e336dcc3", "is_reserved": 0, "rental_uris": {"android": "https://dc.lft.to/lastmile_qr_scan", "ios": "https://dc.lft.to/lastmile_qr_scan"}, "fusion_lon": 0.0}, {"lat": 38.92159266666667, "is_disabled": 0, "type": "electric_scooter", "lon": -77.035049, "bike_id": "dcd431ac416b4b79826637be0408e89f", "fusion_lat": 0.0, "name": "dcd431ac416b4b79826637be0408e89f", "is_reserved": 0, "rental_uris": {"android": "https://dc.lft.to/lastmile_qr_scan", "ios": "https://dc.lft.to/lastmile_qr_scan"}, "fusion_lon": 0.0}, {"lat": 38.90551466666667, "is_disabled": 0, "type": "electric_scooter", "lon": -77.00503266666666, "bike_id": "c932f307b82d400bf64257eba2dcbd93", "fusion_lat": 0.0, "name": "c932f307b82d400bf64257eba2dcbd93", "is_reserved": 0, "rental_uris": {"android": "https://dc.lft.to/lastmile_qr_scan", "ios": "https://dc.lft.to/lastmile_qr_scan"}, "fusion_lon": 0.0}, {"lat": 38.92689033333333, "is_disabled": 0, "type": "electric_scooter", "lon": -77.022861, "bike_id": "ae344c76d2cf862d54092f2d817f7c9b", "fusion_lat": 0.0, "name": "ae344c76d2cf862d54092f2d817f7c9b", "is_reserved": 0, "rental_uris": {"android": "https://dc.lft.to/lastmile_qr_scan", "ios": "https://dc.lft.to/lastmile_qr_scan"}, "fusion_lon": 0.0}, {"lat": 38.83985233333333, "is_disabled": 0, "type": "electric_bike", "lon": -77.00567633333333, "bike_id": "a9e36fd22370f4df412121e919730faa", "fusion_lat": 0.0, "name": "a9e36fd22370f4df412121e919730faa", "is_reserved": 0, "rental_uris": {"android": "https://dc.lft.to/lastmile_qr_scan", "ios": "https://dc.lft.to/lastmile_qr_scan"}, "fusion_lon": 0.0}, {"lat": 38.9239865, "is_disabled": 0, "type": "electric_scooter", "lon": -77.05250366666667, "bike_id": "4e80a0c4408768e8d82fd638b6e0aa7f", "fusion_lat": 0.0, "name": "4e80a0c4408768e8d82fd638b6e0aa7f", "is_reserved": 0, "rental_uris": {"android": "https://dc.lft.to/lastmile_qr_scan", "ios": "https://dc.lft.to/lastmile_qr_scan"}, "fusion_lon": 0.0}, {"lat": 38.9125835, "is_disabled": 0, "type": "electric_scooter", "lon": -77.0386215, "bike_id": "47f55c76cc66461d0d6995e679e2fb49", "fusion_lat": 0.0, "name": "47f55c76cc66461d0d6995e679e2fb49", "is_reserved": 0, "rental_uris": {"android": "https://dc.lft.to/lastmile_qr_scan", "ios": "https://dc.lft.to/lastmile_qr_scan"}, "fusion_lon": 0.0}, {"lat": 38.900397166666664, "is_disabled": 0, "type": "electric_scooter", "lon": -76.99500333333333, "bike_id": "bcbacbfc45139070274aaec372a38fea", "fusion_lat": 0.0, "name": "bcbacbfc45139070274aaec372a38fea", "is_reserved": 0, "rental_uris": {"android": "https://dc.lft.to/lastmile_qr_scan", "ios": "https://dc.lft.to/lastmile_qr_scan"}, "fusion_lon": 0.0}, {"lat": 38.87304433333333, "is_disabled": 0, "type": "electric_bike", "lon": -77.0109645, "bike_id": "a6d01d7058d25fd62cd0114d2a508b1e", "fusion_lat": 0.0, "name": "a6d01d7058d25fd62cd0114d2a508b1e", "is_reserved": 0, "rental_uris": {"android": "https://dc.lft.to/lastmile_qr_scan", "ios": "https://dc.lft.to/lastmile_qr_scan"}, "fusion_lon": 0.0}, {"lat": 38.904211833333335, "is_disabled": 0, "type": "electric_scooter", "lon": -77.05897, "bike_id": "fade2701dd1cf5bdbf1d957c5cae6fb2", "fusion_lat": 0.0, "name": "fade2701dd1cf5bdbf1d957c5cae6fb2", "is_reserved": 0, "rental_uris": {"android": "https://dc.lft.to/lastmile_qr_scan", "ios": "https://dc.lft.to/lastmile_qr_scan"}, "fusion_lon": 0.0}, {"lat": 38.933831166666664, "is_disabled": 0, "type": "electric_scooter", "lon": -77.02602833333333, "bike_id": "a9a054e2165e6d8a7627ea52800179d2", "fusion_lat": 0.0, "name": "a9a054e2165e6d8a7627ea52800179d2", "is_reserved": 0, "rental_uris": {"android": "https://dc.lft.to/lastmile_qr_scan", "ios": "https://dc.lft.to/lastmile_qr_scan"}, "fusion_lon": 0.0}, {"lat": 38.9170275, "is_disabled": 0, "type": "electric_scooter", "lon": -77.03722866666666, "bike_id": "0f57f895423b35911611d038ea1e6fd6", "fusion_lat": 0.0, "name": "0f57f895423b35911611d038ea1e6fd6", "is_reserved": 0, "rental_uris": {"android": "https://dc.lft.to/lastmile_qr_scan", "ios": "https://dc.lft.to/lastmile_qr_scan"}, "fusion_lon": 0.0}, {"lat": 38.909875166666666, "is_disabled": 0, "type": "electric_scooter", "lon": -76.98465266666666, "bike_id": "36e2e7cd14ef18be07235e73a4dcb89e", "fusion_lat": 0.0, "name": "36e2e7cd14ef18be07235e73a4dcb89e", "is_reserved": 0, "rental_uris": {"android": "https://dc.lft.to/lastmile_qr_scan", "ios": "https://dc.lft.to/lastmile_qr_scan"}, "fusion_lon": 0.0}, {"lat": 38.928535833333335, "is_disabled": 0, "type": "electric_bike", "lon": -77.10676966666666, "bike_id": "f200e09aeb2bf5afd47c35015da5f864", "fusion_lat": 0.0, "name": "f200e09aeb2bf5afd47c35015da5f864", "is_reserved": 0, "rental_uris": {"android": "https://dc.lft.to/lastmile_qr_scan", "ios": "https://dc.lft.to/lastmile_qr_scan"}, "fusion_lon": 0.0}, {"lat": 38.9003295, "is_disabled": 0, "type": "electric_scooter", "lon": -76.99381633333333, "bike_id": "79421609691189ea495e16ea28da576a", "fusion_lat": 0.0, "name": "79421609691189ea495e16ea28da576a", "is_reserved": 0, "rental_uris": {"android": "https://dc.lft.to/lastmile_qr_scan", "ios": "https://dc.lft.to/lastmile_qr_scan"}, "fusion_lon": 0.0}, {"lat": 38.936407, "is_disabled": 0, "type": "electric_scooter", "lon": -77.0249055, "bike_id": "0cace740af40a69b27c9192966ffd2dc", "fusion_lat": 0.0, "name": "0cace740af40a69b27c9192966ffd2dc", "is_reserved": 0, "rental_uris": {"android": "https://dc.lft.to/lastmile_qr_scan", "ios": "https://dc.lft.to/lastmile_qr_scan"}, "fusion_lon": 0.0}, {"lat": 38.893543333333334, "is_disabled": 0, "type": "electric_scooter", "lon": -77.0413495, "bike_id": "68e51eb43ccba9a1e10cd57f73640f30", "fusion_lat": 0.0, "name": "68e51eb43ccba9a1e10cd57f73640f30", "is_reserved": 0, "rental_uris": {"android": "https://dc.lft.to/lastmile_qr_scan", "ios": "https://dc.lft.to/lastmile_qr_scan"}, "fusion_lon": 0.0}, {"lat": 38.92253766666666, "is_disabled": 0, "type": "electric_scooter", "lon": -77.04296116666667, "bike_id": "2e6f78c048388c3f57d1bc5bf324727e", "fusion_lat": 0.0, "name": "2e6f78c048388c3f57d1bc5bf324727e", "is_reserved": 0, "rental_uris": {"android": "https://dc.lft.to/lastmile_qr_scan", "ios": "https://dc.lft.to/lastmile_qr_scan"}, "fusion_lon": 0.0}, {"lat": 38.9148085, "is_disabled": 0, "type": "electric_scooter", "lon": -77.032625, "bike_id": "5f80935ef477f19afdbd92ecd1521d16", "fusion_lat": 0.0, "name": "5f80935ef477f19afdbd92ecd1521d16", "is_reserved": 0, "rental_uris": {"android": "https://dc.lft.to/lastmile_qr_scan", "ios": "https://dc.lft.to/lastmile_qr_scan"}, "fusion_lon": 0.0}, {"lat": 38.899326, "is_disabled": 0, "type": "electric_scooter", "lon": -77.00368716666667, "bike_id": "3996fe2e9b72d19a7434b16467d9d5be", "fusion_lat": 0.0, "name": "3996fe2e9b72d19a7434b16467d9d5be", "is_reserved": 0, "rental_uris": {"android": "https://dc.lft.to/lastmile_qr_scan", "ios": "https://dc.lft.to/lastmile_qr_scan"}, "fusion_lon": 0.0}, {"lat": 38.91883333333333, "is_disabled": 0, "type": "electric_scooter", "lon": -77.03464783333334, "bike_id": "dbe9f4cb14dcf2e6fcbc9d0f83e54329", "fusion_lat": 0.0, "name": "dbe9f4cb14dcf2e6fcbc9d0f83e54329", "is_reserved": 0, "rental_uris": {"android": "https://dc.lft.to/lastmile_qr_scan", "ios": "https://dc.lft.to/lastmile_qr_scan"}, "fusion_lon": 0.0}, {"lat": 38.92533666666667, "is_disabled": 0, "type": "electric_scooter", "lon": -77.04422916666667, "bike_id": "2e3cd81ff7fe9aeb2d25ba8f41530ad3", "fusion_lat": 0.0, "name": "2e3cd81ff7fe9aeb2d25ba8f41530ad3", "is_reserved": 0, "rental_uris": {"android": "https://dc.lft.to/lastmile_qr_scan", "ios": "https://dc.lft.to/lastmile_qr_scan"}, "fusion_lon": 0.0}, {"lat": 38.91697033333333, "is_disabled": 0, "type": "electric_scooter", "lon": -77.03721216666666, "bike_id": "4cd7ca8f12505af702a654c8f4be8b46", "fusion_lat": 0.0, "name": "4cd7ca8f12505af702a654c8f4be8b46", "is_reserved": 0, "rental_uris": {"android": "https://dc.lft.to/lastmile_qr_scan", "ios": "https://dc.lft.to/lastmile_qr_scan"}, "fusion_lon": 0.0}, {"lat": 38.855223, "is_disabled": 0, "type": "electric_bike", "lon": -76.98436733333334, "bike_id": "febad6ab19d81780885151b7c498653c", "fusion_lat": 0.0, "name": "febad6ab19d81780885151b7c498653c", "is_reserved": 0, "rental_uris": {"android": "https://dc.lft.to/lastmile_qr_scan", "ios": "https://dc.lft.to/lastmile_qr_scan"}, "fusion_lon": 0.0}, {"lat": 38.89306283333333, "is_disabled": 0, "type": "electric_scooter", "lon": -77.000127, "bike_id": "b87932395d844093a759050a78553360", "fusion_lat": 0.0, "name": "b87932395d844093a759050a78553360", "is_reserved": 0, "rental_uris": {"android": "https://dc.lft.to/lastmile_qr_scan", "ios": "https://dc.lft.to/lastmile_qr_scan"}, "fusion_lon": 0.0}, {"lat": 38.91102516666667, "is_disabled": 0, "type": "electric_scooter", "lon": -77.03182883333334, "bike_id": "ed6d32c77c32c69453eb0c1fc3121051", "fusion_lat": 0.0, "name": "ed6d32c77c32c69453eb0c1fc3121051", "is_reserved": 0, "rental_uris": {"android": "https://dc.lft.to/lastmile_qr_scan", "ios": "https://dc.lft.to/lastmile_qr_scan"}, "fusion_lon": 0.0}, {"lat": 38.9035765, "is_disabled": 0, "type": "electric_scooter", "lon": -77.062724, "bike_id": "42183113166b34d88c1ccee678395b73", "fusion_lat": 0.0, "name": "42183113166b34d88c1ccee678395b73", "is_reserved": 0, "rental_uris": {"android": "https://dc.lft.to/lastmile_qr_scan", "ios": "https://dc.lft.to/lastmile_qr_scan"}, "fusion_lon": 0.0}, {"lat": 38.813466, "is_disabled": 0, "type": "electric_bike", "lon": -77.04922816666667, "bike_id": "8b330f9da41c43caf3150d6b2c168540", "fusion_lat": 0.0, "name": "8b330f9da41c43caf3150d6b2c168540", "is_reserved": 0, "rental_uris": {"android": "https://dc.lft.to/lastmile_qr_scan", "ios": "https://dc.lft.to/lastmile_qr_scan"}, "fusion_lon": 0.0}, {"lat": 38.89760716666667, "is_disabled": 0, "type": "electric_scooter", "lon": -76.94181983333333, "bike_id": "5c4354b0d1abb3bb9582162a13ed4428", "fusion_lat": 0.0, "name": "5c4354b0d1abb3bb9582162a13ed4428", "is_reserved": 0, "rental_uris": {"android": "https://dc.lft.to/lastmile_qr_scan", "ios": "https://dc.lft.to/lastmile_qr_scan"}, "fusion_lon": 0.0}, {"lat": 38.90719883333333, "is_disabled": 0, "type": "electric_scooter", "lon": -77.043445, "bike_id": "7c4d0383fbb88a941d79acf44f3af54e", "fusion_lat": 0.0, "name": "7c4d0383fbb88a941d79acf44f3af54e", "is_reserved": 0, "rental_uris": {"android": "https://dc.lft.to/lastmile_qr_scan", "ios": "https://dc.lft.to/lastmile_qr_scan"}, "fusion_lon": 0.0}, {"lat": 38.91783266666667, "is_disabled": 0, "type": "electric_scooter", "lon": -77.02311716666667, "bike_id": "030b2a9a79d9f465ec7e7c91e7a49d21", "fusion_lat": 0.0, "name": "030b2a9a79d9f465ec7e7c91e7a49d21", "is_reserved": 0, "rental_uris": {"android": "https://dc.lft.to/lastmile_qr_scan", "ios": "https://dc.lft.to/lastmile_qr_scan"}, "fusion_lon": 0.0}, {"lat": 38.922334666666664, "is_disabled": 0, "type": "electric_scooter", "lon": -77.04342533333333, "bike_id": "e5a432410f05edfffa13f114c0b1ad44", "fusion_lat": 0.0, "name": "e5a432410f05edfffa13f114c0b1ad44", "is_reserved": 0, "rental_uris": {"android": "https://dc.lft.to/lastmile_qr_scan", "ios": "https://dc.lft.to/lastmile_qr_scan"}, "fusion_lon": 0.0}, {"lat": 38.914797166666666, "is_disabled": 0, "type": "electric_scooter", "lon": -77.01381766666667, "bike_id": "dbce993f1eb22a9fb5ef439de36c1e11", "fusion_lat": 0.0, "name": "dbce993f1eb22a9fb5ef439de36c1e11", "is_reserved": 0, "rental_uris": {"android": "https://dc.lft.to/lastmile_qr_scan", "ios": "https://dc.lft.to/lastmile_qr_scan"}, "fusion_lon": 0.0}, {"lat": 38.9110675, "is_disabled": 0, "type": "electric_scooter", "lon": -77.04816816666667, "bike_id": "2b8a212f79fd50ed651b12b937418e4e", "fusion_lat": 0.0, "name": "2b8a212f79fd50ed651b12b937418e4e", "is_reserved": 0, "rental_uris": {"android": "https://dc.lft.to/lastmile_qr_scan", "ios": "https://dc.lft.to/lastmile_qr_scan"}, "fusion_lon": 0.0}, {"lat": 38.900340166666666, "is_disabled": 0, "type": "electric_scooter", "lon": -77.00189116666667, "bike_id": "492564e33f39a9f96dac87748950aff7", "fusion_lat": 0.0, "name": "492564e33f39a9f96dac87748950aff7", "is_reserved": 0, "rental_uris": {"android": "https://dc.lft.to/lastmile_qr_scan", "ios": "https://dc.lft.to/lastmile_qr_scan"}, "fusion_lon": 0.0}, {"lat": 38.90028266666667, "is_disabled": 0, "type": "electric_scooter", "lon": -76.9990795, "bike_id": "a2addbaae2ac221546c7d737a8ee9ce1", "fusion_lat": 0.0, "name": "a2addbaae2ac221546c7d737a8ee9ce1", "is_reserved": 0, "rental_uris": {"android": "https://dc.lft.to/lastmile_qr_scan", "ios": "https://dc.lft.to/lastmile_qr_scan"}, "fusion_lon": 0.0}, {"lat": 38.9224465, "is_disabled": 0, "type": "electric_scooter", "lon": -77.04247516666666, "bike_id": "abf9c921c360be2101f6ee7d006845ed", "fusion_lat": 0.0, "name": "abf9c921c360be2101f6ee7d006845ed", "is_reserved": 0, "rental_uris": {"android": "https://dc.lft.to/lastmile_qr_scan", "ios": "https://dc.lft.to/lastmile_qr_scan"}, "fusion_lon": 0.0}, {"lat": 38.915649333333334, "is_disabled": 0, "type": "electric_scooter", "lon": -77.031738, "bike_id": "13134dd01a53bf2882f85e8c60f22c52", "fusion_lat": 0.0, "name": "13134dd01a53bf2882f85e8c60f22c52", "is_reserved": 0, "rental_uris": {"android": "https://dc.lft.to/lastmile_qr_scan", "ios": "https://dc.lft.to/lastmile_qr_scan"}, "fusion_lon": 0.0}, {"lat": 38.93145066666666, "is_disabled": 0, "type": "electric_scooter", "lon": -77.021302, "bike_id": "04f5d1891acf1004421b7204f8df4902", "fusion_lat": 0.0, "name": "04f5d1891acf1004421b7204f8df4902", "is_reserved": 0, "rental_uris": {"android": "https://dc.lft.to/lastmile_qr_scan", "ios": "https://dc.lft.to/lastmile_qr_scan"}, "fusion_lon": 0.0}, {"lat": 38.900058666666666, "is_disabled": 0, "type": "electric_scooter", "lon": -76.9223095, "bike_id": "82ae3a9c97e8ecb2d09856d2dd6197e9", "fusion_lat": 0.0, "name": "82ae3a9c97e8ecb2d09856d2dd6197e9", "is_reserved": 0, "rental_uris": {"android": "https://dc.lft.to/lastmile_qr_scan", "ios": "https://dc.lft.to/lastmile_qr_scan"}, "fusion_lon": 0.0}, {"lat": 38.933397166666666, "is_disabled": 0, "type": "electric_scooter", "lon": -76.9931145, "bike_id": "0466ba94a39b60e79219a41b6d291779", "fusion_lat": 0.0, "name": "0466ba94a39b60e79219a41b6d291779", "is_reserved": 0, "rental_uris": {"android": "https://dc.lft.to/lastmile_qr_scan", "ios": "https://dc.lft.to/lastmile_qr_scan"}, "fusion_lon": 0.0}, {"lat": 38.90068983333333, "is_disabled": 0, "type": "electric_scooter", "lon": -77.025894, "bike_id": "788718842bd15a0bd9a012b217a47451", "fusion_lat": 0.0, "name": "788718842bd15a0bd9a012b217a47451", "is_reserved": 0, "rental_uris": {"android": "https://dc.lft.to/lastmile_qr_scan", "ios": "https://dc.lft.to/lastmile_qr_scan"}, "fusion_lon": 0.0}, {"lat": 38.9144415, "is_disabled": 0, "type": "electric_scooter", "lon": -77.029721, "bike_id": "d8a355c2eeab966034d0c1d46d5bdf87", "fusion_lat": 0.0, "name": "d8a355c2eeab966034d0c1d46d5bdf87", "is_reserved": 0, "rental_uris": {"android": "https://dc.lft.to/lastmile_qr_scan", "ios": "https://dc.lft.to/lastmile_qr_scan"}, "fusion_lon": 0.0}, {"lat": 38.89949766666667, "is_disabled": 0, "type": "electric_scooter", "lon": -77.0034475, "bike_id": "111f3efe868f01973849f0ca1875840f", "fusion_lat": 0.0, "name": "111f3efe868f01973849f0ca1875840f", "is_reserved": 0, "rental_uris": {"android": "https://dc.lft.to/lastmile_qr_scan", "ios": "https://dc.lft.to/lastmile_qr_scan"}, "fusion_lon": 0.0}, {"lat": 38.916898, "is_disabled": 0, "type": "electric_scooter", "lon": -77.02599516666666, "bike_id": "1bf3196b8991e3f0ac35d62bbebc70dc", "fusion_lat": 0.0, "name": "1bf3196b8991e3f0ac35d62bbebc70dc", "is_reserved": 0, "rental_uris": {"android": "https://dc.lft.to/lastmile_qr_scan", "ios": "https://dc.lft.to/lastmile_qr_scan"}, "fusion_lon": 0.0}, {"lat": 38.928203, "is_disabled": 0, "type": "electric_scooter", "lon": -77.0261255, "bike_id": "5b4532daa423d5f943b0eaea02aa5870", "fusion_lat": 0.0, "name": "5b4532daa423d5f943b0eaea02aa5870", "is_reserved": 0, "rental_uris": {"android": "https://dc.lft.to/lastmile_qr_scan", "ios": "https://dc.lft.to/lastmile_qr_scan"}, "fusion_lon": 0.0}, {"lat": 38.90289033333333, "is_disabled": 0, "type": "electric_scooter", "lon": -77.03855816666666, "bike_id": "5c9753720778dd0e4fbc49a2877f1b29", "fusion_lat": 0.0, "name": "5c9753720778dd0e4fbc49a2877f1b29", "is_reserved": 0, "rental_uris": {"android": "https://dc.lft.to/lastmile_qr_scan", "ios": "https://dc.lft.to/lastmile_qr_scan"}, "fusion_lon": 0.0}, {"lat": 38.97823733333333, "is_disabled": 0, "type": "electric_bike", "lon": -76.92891783333333, "bike_id": "61b433796d4fa609a650338831ddf93f", "fusion_lat": 0.0, "name": "61b433796d4fa609a650338831ddf93f", "is_reserved": 0, "rental_uris": {"android": "https://dc.lft.to/lastmile_qr_scan", "ios": "https://dc.lft.to/lastmile_qr_scan"}, "fusion_lon": 0.0}, {"lat": 38.92099666666667, "is_disabled": 0, "type": "electric_scooter", "lon": -77.0250745, "bike_id": "265bd02af04e472899851c2f8cc7da04", "fusion_lat": 0.0, "name": "265bd02af04e472899851c2f8cc7da04", "is_reserved": 0, "rental_uris": {"android": "https://dc.lft.to/lastmile_qr_scan", "ios": "https://dc.lft.to/lastmile_qr_scan"}, "fusion_lon": 0.0}, {"lat": 38.9528165, "is_disabled": 0, "type": "electric_bike", "lon": -76.94601766666666, "bike_id": "44023e94b3c07cbebedf45c2525a1578", "fusion_lat": 0.0, "name": "44023e94b3c07cbebedf45c2525a1578", "is_reserved": 0, "rental_uris": {"android": "https://dc.lft.to/lastmile_qr_scan", "ios": "https://dc.lft.to/lastmile_qr_scan"}, "fusion_lon": 0.0}, {"lat": 38.903444666666665, "is_disabled": 0, "type": "electric_scooter", "lon": -77.04472866666667, "bike_id": "e4be462f4b4b7db1af2773d536612f46", "fusion_lat": 0.0, "name": "e4be462f4b4b7db1af2773d536612f46", "is_reserved": 0, "rental_uris": {"android": "https://dc.lft.to/lastmile_qr_scan", "ios": "https://dc.lft.to/lastmile_qr_scan"}, "fusion_lon": 0.0}, {"lat": 38.9114445, "is_disabled": 0, "type": "electric_scooter", "lon": -77.044229, "bike_id": "2ed2ee38a83a3f7516332138179275cb", "fusion_lat": 0.0, "name": "2ed2ee38a83a3f7516332138179275cb", "is_reserved": 0, "rental_uris": {"android": "https://dc.lft.to/lastmile_qr_scan", "ios": "https://dc.lft.to/lastmile_qr_scan"}, "fusion_lon": 0.0}, {"lat": 38.905582333333335, "is_disabled": 0, "type": "electric_scooter", "lon": -77.00316083333334, "bike_id": "0695dff75f50eb460216c7da3a4e9c82", "fusion_lat": 0.0, "name": "0695dff75f50eb460216c7da3a4e9c82", "is_reserved": 0, "rental_uris": {"android": "https://dc.lft.to/lastmile_qr_scan", "ios": "https://dc.lft.to/lastmile_qr_scan"}, "fusion_lon": 0.0}, {"lat": 38.990100166666664, "is_disabled": 0, "type": "electric_bike", "lon": -77.0044465, "bike_id": "a37a5941c49a2f818d734731931f756f", "fusion_lat": 0.0, "name": "a37a5941c49a2f818d734731931f756f", "is_reserved": 0, "rental_uris": {"android": "https://dc.lft.to/lastmile_qr_scan", "ios": "https://dc.lft.to/lastmile_qr_scan"}, "fusion_lon": 0.0}, {"lat": 38.911349333333334, "is_disabled": 0, "type": "electric_bike", "lon": -77.0087875, "bike_id": "56ea92cfdb9821a7a7bdee49a8913a5c", "fusion_lat": 0.0, "name": "56ea92cfdb9821a7a7bdee49a8913a5c", "is_reserved": 0, "rental_uris": {"android": "https://dc.lft.to/lastmile_qr_scan", "ios": "https://dc.lft.to/lastmile_qr_scan"}, "fusion_lon": 0.0}, {"lat": 38.89554316666667, "is_disabled": 0, "type": "electric_scooter", "lon": -76.930804, "bike_id": "f11d4575b250f2f3d42fc62b28b0178a", "fusion_lat": 0.0, "name": "f11d4575b250f2f3d42fc62b28b0178a", "is_reserved": 0, "rental_uris": {"android": "https://dc.lft.to/lastmile_qr_scan", "ios": "https://dc.lft.to/lastmile_qr_scan"}, "fusion_lon": 0.0}, {"lat": 38.935995, "is_disabled": 0, "type": "electric_scooter", "lon": -77.03749216666667, "bike_id": "29d6f2bac6614e618033cec4de5965fe", "fusion_lat": 0.0, "name": "29d6f2bac6614e618033cec4de5965fe", "is_reserved": 0, "rental_uris": {"android": "https://dc.lft.to/lastmile_qr_scan", "ios": "https://dc.lft.to/lastmile_qr_scan"}, "fusion_lon": 0.0}, {"lat": 38.932552666666666, "is_disabled": 0, "type": "electric_bike", "lon": -76.99493466666667, "bike_id": "43635f61af936dcf6dd565274cb7e680", "fusion_lat": 0.0, "name": "43635f61af936dcf6dd565274cb7e680", "is_reserved": 0, "rental_uris": {"android": "https://dc.lft.to/lastmile_qr_scan", "ios": "https://dc.lft.to/lastmile_qr_scan"}, "fusion_lon": 0.0}, {"lat": 38.93950133333333, "is_disabled": 0, "type": "electric_bike", "lon": -77.3609155, "bike_id": "52ce1df625328d2c5e1ef3ebd0196697", "fusion_lat": 0.0, "name": "52ce1df625328d2c5e1ef3ebd0196697", "is_reserved": 0, "rental_uris": {"android": "https://dc.lft.to/lastmile_qr_scan", "ios": "https://dc.lft.to/lastmile_qr_scan"}, "fusion_lon": 0.0}, {"lat": 38.88192433333333, "is_disabled": 0, "type": "electric_scooter", "lon": -76.9961515, "bike_id": "86f3f832ef4c894584c1486345a4cfbb", "fusion_lat": 0.0, "name": "86f3f832ef4c894584c1486345a4cfbb", "is_reserved": 0, "rental_uris": {"android": "https://dc.lft.to/lastmile_qr_scan", "ios": "https://dc.lft.to/lastmile_qr_scan"}, "fusion_lon": 0.0}, {"lat": 38.92266333333333, "is_disabled": 0, "type": "electric_scooter", "lon": -77.022446, "bike_id": "921431399ee4d8cba5ba923dac8effc0", "fusion_lat": 0.0, "name": "921431399ee4d8cba5ba923dac8effc0", "is_reserved": 0, "rental_uris": {"android": "https://dc.lft.to/lastmile_qr_scan", "ios": "https://dc.lft.to/lastmile_qr_scan"}, "fusion_lon": 0.0}, {"lat": 38.895020333333335, "is_disabled": 0, "type": "electric_scooter", "lon": -77.00326266666667, "bike_id": "87e9fb669b51b33090725c485bddeb63", "fusion_lat": 0.0, "name": "87e9fb669b51b33090725c485bddeb63", "is_reserved": 0, "rental_uris": {"android": "https://dc.lft.to/lastmile_qr_scan", "ios": "https://dc.lft.to/lastmile_qr_scan"}, "fusion_lon": 0.0}, {"lat": 38.870653, "is_disabled": 0, "type": "electric_scooter", "lon": -77.0084275, "bike_id": "af74f20079e26b0bdb2d612bc237eb74", "fusion_lat": 0.0, "name": "af74f20079e26b0bdb2d612bc237eb74", "is_reserved": 0, "rental_uris": {"android": "https://dc.lft.to/lastmile_qr_scan", "ios": "https://dc.lft.to/lastmile_qr_scan"}, "fusion_lon": 0.0}, {"lat": 38.89984666666667, "is_disabled": 0, "type": "electric_scooter", "lon": -77.02148283333334, "bike_id": "d9a203c565ba19640a65954336320a78", "fusion_lat": 0.0, "name": "d9a203c565ba19640a65954336320a78", "is_reserved": 0, "rental_uris": {"android": "https://dc.lft.to/lastmile_qr_scan", "ios": "https://dc.lft.to/lastmile_qr_scan"}, "fusion_lon": 0.0}, {"lat": 38.909785166666666, "is_disabled": 0, "type": "electric_scooter", "lon": -77.04873333333333, "bike_id": "7525d6d9e59dcfa31b85a9142628a30f", "fusion_lat": 0.0, "name": "7525d6d9e59dcfa31b85a9142628a30f", "is_reserved": 0, "rental_uris": {"android": "https://dc.lft.to/lastmile_qr_scan", "ios": "https://dc.lft.to/lastmile_qr_scan"}, "fusion_lon": 0.0}, {"lat": 38.90299516666666, "is_disabled": 0, "type": "electric_scooter", "lon": -77.00218933333333, "bike_id": "10fa67d06bdf0fdb4992d8913a5750a7", "fusion_lat": 0.0, "name": "10fa67d06bdf0fdb4992d8913a5750a7", "is_reserved": 0, "rental_uris": {"android": "https://dc.lft.to/lastmile_qr_scan", "ios": "https://dc.lft.to/lastmile_qr_scan"}, "fusion_lon": 0.0}, {"lat": 38.902347666666664, "is_disabled": 0, "type": "electric_scooter", "lon": -77.000629, "bike_id": "b82b95e5d71faa99889a9bddff095e94", "fusion_lat": 0.0, "name": "b82b95e5d71faa99889a9bddff095e94", "is_reserved": 0, "rental_uris": {"android": "https://dc.lft.to/lastmile_qr_scan", "ios": "https://dc.lft.to/lastmile_qr_scan"}, "fusion_lon": 0.0}, {"lat": 38.90774566666666, "is_disabled": 0, "type": "electric_scooter", "lon": -77.03857066666667, "bike_id": "07d00113530ccc2f0e60ba1e2b82ae42", "fusion_lat": 0.0, "name": "07d00113530ccc2f0e60ba1e2b82ae42", "is_reserved": 0, "rental_uris": {"android": "https://dc.lft.to/lastmile_qr_scan", "ios": "https://dc.lft.to/lastmile_qr_scan"}, "fusion_lon": 0.0}, {"lat": 38.906788, "is_disabled": 0, "type": "electric_scooter", "lon": -77.03851616666667, "bike_id": "51d4b2b0d760f086edcd93a15e0c7531", "fusion_lat": 0.0, "name": "51d4b2b0d760f086edcd93a15e0c7531", "is_reserved": 0, "rental_uris": {"android": "https://dc.lft.to/lastmile_qr_scan", "ios": "https://dc.lft.to/lastmile_qr_scan"}, "fusion_lon": 0.0}, {"lat": 38.868878333333335, "is_disabled": 0, "type": "electric_scooter", "lon": -76.98311116666666, "bike_id": "5ca6d31be525004f915de1b818f4e2dd", "fusion_lat": 0.0, "name": "5ca6d31be525004f915de1b818f4e2dd", "is_reserved": 0, "rental_uris": {"android": "https://dc.lft.to/lastmile_qr_scan", "ios": "https://dc.lft.to/lastmile_qr_scan"}, "fusion_lon": 0.0}, {"lat": 38.882567, "is_disabled": 0, "type": "electric_scooter", "lon": -77.00432983333333, "bike_id": "a6c21e50927f4bc1ae6cc54fee592806", "fusion_lat": 0.0, "name": "a6c21e50927f4bc1ae6cc54fee592806", "is_reserved": 0, "rental_uris": {"android": "https://dc.lft.to/lastmile_qr_scan", "ios": "https://dc.lft.to/lastmile_qr_scan"}, "fusion_lon": 0.0}, {"lat": 38.9010915, "is_disabled": 0, "type": "electric_scooter", "lon": -77.0502365, "bike_id": "5a69ef52104795030b8cf42b4a3bda5b", "fusion_lat": 0.0, "name": "5a69ef52104795030b8cf42b4a3bda5b", "is_reserved": 0, "rental_uris": {"android": "https://dc.lft.to/lastmile_qr_scan", "ios": "https://dc.lft.to/lastmile_qr_scan"}, "fusion_lon": 0.0}, {"lat": 38.905812166666664, "is_disabled": 0, "type": "electric_scooter", "lon": -77.0088065, "bike_id": "24ab99ef9d9f5cd9316cc2ae9ef69c3b", "fusion_lat": 0.0, "name": "24ab99ef9d9f5cd9316cc2ae9ef69c3b", "is_reserved": 0, "rental_uris": {"android": "https://dc.lft.to/lastmile_qr_scan", "ios": "https://dc.lft.to/lastmile_qr_scan"}, "fusion_lon": 0.0}, {"lat": 38.898906333333336, "is_disabled": 0, "type": "electric_scooter", "lon": -76.99720566666667, "bike_id": "3b7e77a73ee54ce7d2b9dbd6bf5675b4", "fusion_lat": 0.0, "name": "3b7e77a73ee54ce7d2b9dbd6bf5675b4", "is_reserved": 0, "rental_uris": {"android": "https://dc.lft.to/lastmile_qr_scan", "ios": "https://dc.lft.to/lastmile_qr_scan"}, "fusion_lon": 0.0}, {"lat": 38.90648916666667, "is_disabled": 0, "type": "electric_scooter", "lon": -77.02951683333333, "bike_id": "53777dfbd4f0355bc9153b8f1b8f7468", "fusion_lat": 0.0, "name": "53777dfbd4f0355bc9153b8f1b8f7468", "is_reserved": 0, "rental_uris": {"android": "https://dc.lft.to/lastmile_qr_scan", "ios": "https://dc.lft.to/lastmile_qr_scan"}, "fusion_lon": 0.0}, {"lat": 39.05203183333333, "is_disabled": 0, "type": "electric_bike", "lon": -77.109118, "bike_id": "853a6c919940a19769d5e04fff40d0c4", "fusion_lat": 0.0, "name": "853a6c919940a19769d5e04fff40d0c4", "is_reserved": 0, "rental_uris": {"android": "https://dc.lft.to/lastmile_qr_scan", "ios": "https://dc.lft.to/lastmile_qr_scan"}, "fusion_lon": 0.0}, {"lat": 38.89972233333334, "is_disabled": 0, "type": "electric_scooter", "lon": -76.926608, "bike_id": "48a626bc51989380694d108e85a138df", "fusion_lat": 0.0, "name": "48a626bc51989380694d108e85a138df", "is_reserved": 0, "rental_uris": {"android": "https://dc.lft.to/lastmile_qr_scan", "ios": "https://dc.lft.to/lastmile_qr_scan"}, "fusion_lon": 0.0}, {"lat": 38.88735366666667, "is_disabled": 0, "type": "electric_scooter", "lon": -77.03218866666667, "bike_id": "fa87af16fa7f01cf393e7d27e39c6ab5", "fusion_lat": 0.0, "name": "fa87af16fa7f01cf393e7d27e39c6ab5", "is_reserved": 0, "rental_uris": {"android": "https://dc.lft.to/lastmile_qr_scan", "ios": "https://dc.lft.to/lastmile_qr_scan"}, "fusion_lon": 0.0}, {"lat": 38.900706, "is_disabled": 0, "type": "electric_scooter", "lon": -77.00210466666667, "bike_id": "c88e9252b55d4bdd958570f2e019f291", "fusion_lat": 0.0, "name": "c88e9252b55d4bdd958570f2e019f291", "is_reserved": 0, "rental_uris": {"android": "https://dc.lft.to/lastmile_qr_scan", "ios": "https://dc.lft.to/lastmile_qr_scan"}, "fusion_lon": 0.0}, {"lat": 38.917775166666665, "is_disabled": 0, "type": "electric_scooter", "lon": -77.03855133333333, "bike_id": "01e9242dd1a839ab23bcbee55caecee1", "fusion_lat": 0.0, "name": "01e9242dd1a839ab23bcbee55caecee1", "is_reserved": 0, "rental_uris": {"android": "https://dc.lft.to/lastmile_qr_scan", "ios": "https://dc.lft.to/lastmile_qr_scan"}, "fusion_lon": 0.0}, {"lat": 38.923306, "is_disabled": 0, "type": "electric_scooter", "lon": -77.02698583333333, "bike_id": "ba23e1e695200d258fe2a822c07644cc", "fusion_lat": 0.0, "name": "ba23e1e695200d258fe2a822c07644cc", "is_reserved": 0, "rental_uris": {"android": "https://dc.lft.to/lastmile_qr_scan", "ios": "https://dc.lft.to/lastmile_qr_scan"}, "fusion_lon": 0.0}, {"lat": 38.902039, "is_disabled": 0, "type": "electric_scooter", "lon": -77.02373116666666, "bike_id": "7454345cc4b677eefdc4d6d4e2728314", "fusion_lat": 0.0, "name": "7454345cc4b677eefdc4d6d4e2728314", "is_reserved": 0, "rental_uris": {"android": "https://dc.lft.to/lastmile_qr_scan", "ios": "https://dc.lft.to/lastmile_qr_scan"}, "fusion_lon": 0.0}, {"lat": 38.898105666666666, "is_disabled": 0, "type": "electric_scooter", "lon": -77.03251066666667, "bike_id": "d88aaa1899299526d153d862d35d29eb", "fusion_lat": 0.0, "name": "d88aaa1899299526d153d862d35d29eb", "is_reserved": 0, "rental_uris": {"android": "https://dc.lft.to/lastmile_qr_scan", "ios": "https://dc.lft.to/lastmile_qr_scan"}, "fusion_lon": 0.0}, {"lat": 38.90093983333333, "is_disabled": 0, "type": "electric_scooter", "lon": -77.01218883333334, "bike_id": "bfe4acc839a08eff783454600dc18eb6", "fusion_lat": 0.0, "name": "bfe4acc839a08eff783454600dc18eb6", "is_reserved": 0, "rental_uris": {"android": "https://dc.lft.to/lastmile_qr_scan", "ios": "https://dc.lft.to/lastmile_qr_scan"}, "fusion_lon": 0.0}, {"lat": 38.902780666666665, "is_disabled": 0, "type": "electric_scooter", "lon": -77.0383685, "bike_id": "eb7c731a8bb2a40c410e5b2ad420df27", "fusion_lat": 0.0, "name": "eb7c731a8bb2a40c410e5b2ad420df27", "is_reserved": 0, "rental_uris": {"android": "https://dc.lft.to/lastmile_qr_scan", "ios": "https://dc.lft.to/lastmile_qr_scan"}, "fusion_lon": 0.0}, {"lat": 38.91991066666667, "is_disabled": 0, "type": "electric_scooter", "lon": -77.03242133333333, "bike_id": "16452514bc2d25ba01f61caf38255625", "fusion_lat": 0.0, "name": "16452514bc2d25ba01f61caf38255625", "is_reserved": 0, "rental_uris": {"android": "https://dc.lft.to/lastmile_qr_scan", "ios": "https://dc.lft.to/lastmile_qr_scan"}, "fusion_lon": 0.0}, {"lat": 38.86381383333333, "is_disabled": 0, "type": "electric_scooter", "lon": -76.99252116666666, "bike_id": "7da5120c2b967b79eba33c4bbc452b3d", "fusion_lat": 0.0, "name": "7da5120c2b967b79eba33c4bbc452b3d", "is_reserved": 0, "rental_uris": {"android": "https://dc.lft.to/lastmile_qr_scan", "ios": "https://dc.lft.to/lastmile_qr_scan"}, "fusion_lon": 0.0}, {"lat": 38.91690066666666, "is_disabled": 0, "type": "electric_scooter", "lon": -77.0259775, "bike_id": "bd472fd18d5879ad1ccd5b921bf4e7c6", "fusion_lat": 0.0, "name": "bd472fd18d5879ad1ccd5b921bf4e7c6", "is_reserved": 0, "rental_uris": {"android": "https://dc.lft.to/lastmile_qr_scan", "ios": "https://dc.lft.to/lastmile_qr_scan"}, "fusion_lon": 0.0}, {"lat": 38.943056, "is_disabled": 0, "type": "electric_scooter", "lon": -77.05927183333333, "bike_id": "6ecf69f598ef97d35cc4fdf9f4fee0da", "fusion_lat": 0.0, "name": "6ecf69f598ef97d35cc4fdf9f4fee0da", "is_reserved": 0, "rental_uris": {"android": "https://dc.lft.to/lastmile_qr_scan", "ios": "https://dc.lft.to/lastmile_qr_scan"}, "fusion_lon": 0.0}, {"lat": 38.97834116666667, "is_disabled": 0, "type": "electric_bike", "lon": -77.026453, "bike_id": "62258c66071ae5562a689225cd3772d4", "fusion_lat": 0.0, "name": "62258c66071ae5562a689225cd3772d4", "is_reserved": 0, "rental_uris": {"android": "https://dc.lft.to/lastmile_qr_scan", "ios": "https://dc.lft.to/lastmile_qr_scan"}, "fusion_lon": 0.0}, {"lat": 38.85445683333333, "is_disabled": 0, "type": "electric_scooter", "lon": -76.97219366666667, "bike_id": "efc180c84558ec96744be55459faf2e4", "fusion_lat": 0.0, "name": "efc180c84558ec96744be55459faf2e4", "is_reserved": 0, "rental_uris": {"android": "https://dc.lft.to/lastmile_qr_scan", "ios": "https://dc.lft.to/lastmile_qr_scan"}, "fusion_lon": 0.0}, {"lat": 38.92361616666667, "is_disabled": 0, "type": "electric_scooter", "lon": -77.04374166666666, "bike_id": "b1946935b571d76966916b32ad5eac9a", "fusion_lat": 0.0, "name": "b1946935b571d76966916b32ad5eac9a", "is_reserved": 0, "rental_uris": {"android": "https://dc.lft.to/lastmile_qr_scan", "ios": "https://dc.lft.to/lastmile_qr_scan"}, "fusion_lon": 0.0}, {"lat": 38.9096315, "is_disabled": 0, "type": "electric_scooter", "lon": -77.03571483333333, "bike_id": "c46d5b96ef21086fc6a72e6702bace32", "fusion_lat": 0.0, "name": "c46d5b96ef21086fc6a72e6702bace32", "is_reserved": 0, "rental_uris": {"android": "https://dc.lft.to/lastmile_qr_scan", "ios": "https://dc.lft.to/lastmile_qr_scan"}, "fusion_lon": 0.0}, {"lat": 38.9069215, "is_disabled": 0, "type": "electric_bike", "lon": -77.06365583333333, "bike_id": "ae0cb2a11c5f762596b902ddb7d1d677", "fusion_lat": 0.0, "name": "ae0cb2a11c5f762596b902ddb7d1d677", "is_reserved": 0, "rental_uris": {"android": "https://dc.lft.to/lastmile_qr_scan", "ios": "https://dc.lft.to/lastmile_qr_scan"}, "fusion_lon": 0.0}, {"lat": 38.919748, "is_disabled": 0, "type": "electric_scooter", "lon": -77.02393133333334, "bike_id": "c50112417045c474420db8823310e269", "fusion_lat": 0.0, "name": "c50112417045c474420db8823310e269", "is_reserved": 0, "rental_uris": {"android": "https://dc.lft.to/lastmile_qr_scan", "ios": "https://dc.lft.to/lastmile_qr_scan"}, "fusion_lon": 0.0}, {"lat": 38.88679116666667, "is_disabled": 0, "type": "electric_bike", "lon": -77.0020925, "bike_id": "83eb5560320843e35ed1f9c9fc579c65", "fusion_lat": 0.0, "name": "83eb5560320843e35ed1f9c9fc579c65", "is_reserved": 0, "rental_uris": {"android": "https://dc.lft.to/lastmile_qr_scan", "ios": "https://dc.lft.to/lastmile_qr_scan"}, "fusion_lon": 0.0}, {"lat": 38.93229866666667, "is_disabled": 0, "type": "electric_scooter", "lon": -76.99604883333333, "bike_id": "a147e32c5e0c5a1f188f08cbc743518f", "fusion_lat": 0.0, "name": "a147e32c5e0c5a1f188f08cbc743518f", "is_reserved": 0, "rental_uris": {"android": "https://dc.lft.to/lastmile_qr_scan", "ios": "https://dc.lft.to/lastmile_qr_scan"}, "fusion_lon": 0.0}, {"lat": 38.90379083333333, "is_disabled": 0, "type": "electric_scooter", "lon": -77.02816883333334, "bike_id": "3f59436f20f986aadce3c7b0a98fd5d0", "fusion_lat": 0.0, "name": "3f59436f20f986aadce3c7b0a98fd5d0", "is_reserved": 0, "rental_uris": {"android": "https://dc.lft.to/lastmile_qr_scan", "ios": "https://dc.lft.to/lastmile_qr_scan"}, "fusion_lon": 0.0}, {"lat": 38.9014655, "is_disabled": 0, "type": "electric_bike", "lon": -77.022995, "bike_id": "271d772cdc5d5c5ffa85b119446b67b6", "fusion_lat": 0.0, "name": "271d772cdc5d5c5ffa85b119446b67b6", "is_reserved": 0, "rental_uris": {"android": "https://dc.lft.to/lastmile_qr_scan", "ios": "https://dc.lft.to/lastmile_qr_scan"}, "fusion_lon": 0.0}, {"lat": 38.893646333333336, "is_disabled": 0, "type": "electric_scooter", "lon": -76.94809783333334, "bike_id": "2ab4ec177488410a486c6b46cd31dbee", "fusion_lat": 0.0, "name": "2ab4ec177488410a486c6b46cd31dbee", "is_reserved": 0, "rental_uris": {"android": "https://dc.lft.to/lastmile_qr_scan", "ios": "https://dc.lft.to/lastmile_qr_scan"}, "fusion_lon": 0.0}, {"lat": 38.916433166666664, "is_disabled": 0, "type": "electric_scooter", "lon": -77.0208255, "bike_id": "91d73ad0a3a2c38a30c188b6dbc0dea2", "fusion_lat": 0.0, "name": "91d73ad0a3a2c38a30c188b6dbc0dea2", "is_reserved": 0, "rental_uris": {"android": "https://dc.lft.to/lastmile_qr_scan", "ios": "https://dc.lft.to/lastmile_qr_scan"}, "fusion_lon": 0.0}, {"lat": 38.842686666666665, "is_disabled": 0, "type": "electric_bike", "lon": -76.988471, "bike_id": "1871dfb736046ebe73fa169cc4435291", "fusion_lat": 0.0, "name": "1871dfb736046ebe73fa169cc4435291", "is_reserved": 0, "rental_uris": {"android": "https://dc.lft.to/lastmile_qr_scan", "ios": "https://dc.lft.to/lastmile_qr_scan"}, "fusion_lon": 0.0}, {"lat": 38.8848495, "is_disabled": 0, "type": "electric_scooter", "lon": -77.00708916666666, "bike_id": "0aaa91ad182b48a9dab864f05d89b5a1", "fusion_lat": 0.0, "name": "0aaa91ad182b48a9dab864f05d89b5a1", "is_reserved": 0, "rental_uris": {"android": "https://dc.lft.to/lastmile_qr_scan", "ios": "https://dc.lft.to/lastmile_qr_scan"}, "fusion_lon": 0.0}, {"lat": 38.942836666666665, "is_disabled": 0, "type": "electric_scooter", "lon": -77.02175266666667, "bike_id": "2c7967307e3bd8fffda8db85475aeea2", "fusion_lat": 0.0, "name": "2c7967307e3bd8fffda8db85475aeea2", "is_reserved": 0, "rental_uris": {"android": "https://dc.lft.to/lastmile_qr_scan", "ios": "https://dc.lft.to/lastmile_qr_scan"}, "fusion_lon": 0.0}, {"lat": 38.92498033333333, "is_disabled": 0, "type": "electric_scooter", "lon": -77.02154183333333, "bike_id": "20024a746795dd4559c6739fe5561a25", "fusion_lat": 0.0, "name": "20024a746795dd4559c6739fe5561a25", "is_reserved": 0, "rental_uris": {"android": "https://dc.lft.to/lastmile_qr_scan", "ios": "https://dc.lft.to/lastmile_qr_scan"}, "fusion_lon": 0.0}, {"lat": 38.89521666666667, "is_disabled": 0, "type": "electric_scooter", "lon": -77.002131, "bike_id": "0b3c1cba029029954600263de456f676", "fusion_lat": 0.0, "name": "0b3c1cba029029954600263de456f676", "is_reserved": 0, "rental_uris": {"android": "https://dc.lft.to/lastmile_qr_scan", "ios": "https://dc.lft.to/lastmile_qr_scan"}, "fusion_lon": 0.0}, {"lat": 38.9072925, "is_disabled": 0, "type": "electric_scooter", "lon": -77.03715783333334, "bike_id": "a8270b908f339243897aed90e815e8c0", "fusion_lat": 0.0, "name": "a8270b908f339243897aed90e815e8c0", "is_reserved": 0, "rental_uris": {"android": "https://dc.lft.to/lastmile_qr_scan", "ios": "https://dc.lft.to/lastmile_qr_scan"}, "fusion_lon": 0.0}, {"lat": 38.86624883333333, "is_disabled": 0, "type": "electric_scooter", "lon": -76.98697666666666, "bike_id": "70d53c161eb378dff43e182b190ec509", "fusion_lat": 0.0, "name": "70d53c161eb378dff43e182b190ec509", "is_reserved": 0, "rental_uris": {"android": "https://dc.lft.to/lastmile_qr_scan", "ios": "https://dc.lft.to/lastmile_qr_scan"}, "fusion_lon": 0.0}, {"lat": 38.875776333333334, "is_disabled": 0, "type": "electric_bike", "lon": -77.10558166666667, "bike_id": "164f6f1d84eb5fa230fe1f946a44b1f2", "fusion_lat": 0.0, "name": "164f6f1d84eb5fa230fe1f946a44b1f2", "is_reserved": 0, "rental_uris": {"android": "https://dc.lft.to/lastmile_qr_scan", "ios": "https://dc.lft.to/lastmile_qr_scan"}, "fusion_lon": 0.0}, {"lat": 38.952146, "is_disabled": 0, "type": "electric_scooter", "lon": -77.08599016666666, "bike_id": "aed08169f0e7624d9e37d35227a59817", "fusion_lat": 0.0, "name": "aed08169f0e7624d9e37d35227a59817", "is_reserved": 0, "rental_uris": {"android": "https://dc.lft.to/lastmile_qr_scan", "ios": "https://dc.lft.to/lastmile_qr_scan"}, "fusion_lon": 0.0}, {"lat": 38.915417, "is_disabled": 0, "type": "electric_scooter", "lon": -77.032029, "bike_id": "84a7cb8137aec365caf123659a0f9f32", "fusion_lat": 0.0, "name": "84a7cb8137aec365caf123659a0f9f32", "is_reserved": 0, "rental_uris": {"android": "https://dc.lft.to/lastmile_qr_scan", "ios": "https://dc.lft.to/lastmile_qr_scan"}, "fusion_lon": 0.0}, {"lat": 38.99993033333333, "is_disabled": 0, "type": "electric_bike", "lon": -76.92495316666667, "bike_id": "6c97b1af35592298054a57ae20c93ae4", "fusion_lat": 0.0, "name": "6c97b1af35592298054a57ae20c93ae4", "is_reserved": 0, "rental_uris": {"android": "https://dc.lft.to/lastmile_qr_scan", "ios": "https://dc.lft.to/lastmile_qr_scan"}, "fusion_lon": 0.0}, {"lat": 38.9130305, "is_disabled": 0, "type": "electric_scooter", "lon": -77.03181616666667, "bike_id": "65df5ba7208cd196503a887cd94900f0", "fusion_lat": 0.0, "name": "65df5ba7208cd196503a887cd94900f0", "is_reserved": 0, "rental_uris": {"android": "https://dc.lft.to/lastmile_qr_scan", "ios": "https://dc.lft.to/lastmile_qr_scan"}, "fusion_lon": 0.0}, {"lat": 38.9164085, "is_disabled": 0, "type": "electric_scooter", "lon": -77.02240983333333, "bike_id": "537d0b27202f1bd2a27034ff8cd55cd6", "fusion_lat": 0.0, "name": "537d0b27202f1bd2a27034ff8cd55cd6", "is_reserved": 0, "rental_uris": {"android": "https://dc.lft.to/lastmile_qr_scan", "ios": "https://dc.lft.to/lastmile_qr_scan"}, "fusion_lon": 0.0}, {"lat": 38.91403533333333, "is_disabled": 0, "type": "electric_scooter", "lon": -77.04498366666667, "bike_id": "c6910b6e2f0ad932f87678bcdd8cfeb7", "fusion_lat": 0.0, "name": "c6910b6e2f0ad932f87678bcdd8cfeb7", "is_reserved": 0, "rental_uris": {"android": "https://dc.lft.to/lastmile_qr_scan", "ios": "https://dc.lft.to/lastmile_qr_scan"}, "fusion_lon": 0.0}, {"lat": 38.890857833333335, "is_disabled": 0, "type": "electric_scooter", "lon": -76.9526615, "bike_id": "a9123865f4155ddf86f1c01bb2eec1e7", "fusion_lat": 0.0, "name": "a9123865f4155ddf86f1c01bb2eec1e7", "is_reserved": 0, "rental_uris": {"android": "https://dc.lft.to/lastmile_qr_scan", "ios": "https://dc.lft.to/lastmile_qr_scan"}, "fusion_lon": 0.0}, {"lat": 38.97090816666667, "is_disabled": 0, "type": "electric_bike", "lon": -77.0696625, "bike_id": "f5b99f4eb61742ab9717d50259245d99", "fusion_lat": 0.0, "name": "f5b99f4eb61742ab9717d50259245d99", "is_reserved": 0, "rental_uris": {"android": "https://dc.lft.to/lastmile_qr_scan", "ios": "https://dc.lft.to/lastmile_qr_scan"}, "fusion_lon": 0.0}, {"lat": 38.841024166666664, "is_disabled": 0, "type": "electric_bike", "lon": -77.08930366666667, "bike_id": "657c4aad7cd49f901ad5770d428d769d", "fusion_lat": 0.0, "name": "657c4aad7cd49f901ad5770d428d769d", "is_reserved": 0, "rental_uris": {"android": "https://dc.lft.to/lastmile_qr_scan", "ios": "https://dc.lft.to/lastmile_qr_scan"}, "fusion_lon": 0.0}, {"lat": 38.9261215, "is_disabled": 0, "type": "electric_scooter", "lon": -77.02160066666667, "bike_id": "388ab51c64ec979a8a3c611481c47f03", "fusion_lat": 0.0, "name": "388ab51c64ec979a8a3c611481c47f03", "is_reserved": 0, "rental_uris": {"android": "https://dc.lft.to/lastmile_qr_scan", "ios": "https://dc.lft.to/lastmile_qr_scan"}, "fusion_lon": 0.0}, {"lat": 38.91445983333333, "is_disabled": 0, "type": "electric_scooter", "lon": -77.04160766666666, "bike_id": "a3ed2a29c03926a2d66ef2bd95736414", "fusion_lat": 0.0, "name": "a3ed2a29c03926a2d66ef2bd95736414", "is_reserved": 0, "rental_uris": {"android": "https://dc.lft.to/lastmile_qr_scan", "ios": "https://dc.lft.to/lastmile_qr_scan"}, "fusion_lon": 0.0}, {"lat": 38.90281433333333, "is_disabled": 0, "type": "electric_scooter", "lon": -77.03867716666667, "bike_id": "756c393ff9f3718528b901c76e8d1a6e", "fusion_lat": 0.0, "name": "756c393ff9f3718528b901c76e8d1a6e", "is_reserved": 0, "rental_uris": {"android": "https://dc.lft.to/lastmile_qr_scan", "ios": "https://dc.lft.to/lastmile_qr_scan"}, "fusion_lon": 0.0}, {"lat": 38.8791735, "is_disabled": 0, "type": "electric_scooter", "lon": -77.03093133333333, "bike_id": "68b202ad11a072579eb62f220f0c5390", "fusion_lat": 0.0, "name": "68b202ad11a072579eb62f220f0c5390", "is_reserved": 0, "rental_uris": {"android": "https://dc.lft.to/lastmile_qr_scan", "ios": "https://dc.lft.to/lastmile_qr_scan"}, "fusion_lon": 0.0}, {"lat": 38.95561766666667, "is_disabled": 0, "type": "electric_scooter", "lon": -77.02233166666667, "bike_id": "e795507fe7d6b15520092504d75b4108", "fusion_lat": 0.0, "name": "e795507fe7d6b15520092504d75b4108", "is_reserved": 0, "rental_uris": {"android": "https://dc.lft.to/lastmile_qr_scan", "ios": "https://dc.lft.to/lastmile_qr_scan"}, "fusion_lon": 0.0}, {"lat": 38.90917183333333, "is_disabled": 0, "type": "electric_scooter", "lon": -77.0364405, "bike_id": "114ddc41ebf06828c3df0ded6bbcc8ed", "fusion_lat": 0.0, "name": "114ddc41ebf06828c3df0ded6bbcc8ed", "is_reserved": 0, "rental_uris": {"android": "https://dc.lft.to/lastmile_qr_scan", "ios": "https://dc.lft.to/lastmile_qr_scan"}, "fusion_lon": 0.0}, {"lat": 38.865599333333336, "is_disabled": 0, "type": "electric_scooter", "lon": -76.9895085, "bike_id": "b85003109d429711caae657aa3c06c62", "fusion_lat": 0.0, "name": "b85003109d429711caae657aa3c06c62", "is_reserved": 0, "rental_uris": {"android": "https://dc.lft.to/lastmile_qr_scan", "ios": "https://dc.lft.to/lastmile_qr_scan"}, "fusion_lon": 0.0}, {"lat": 38.90769183333333, "is_disabled": 0, "type": "electric_scooter", "lon": -76.983075, "bike_id": "26560e2a8042b37e7622781d90aa496e", "fusion_lat": 0.0, "name": "26560e2a8042b37e7622781d90aa496e", "is_reserved": 0, "rental_uris": {"android": "https://dc.lft.to/lastmile_qr_scan", "ios": "https://dc.lft.to/lastmile_qr_scan"}, "fusion_lon": 0.0}, {"lat": 38.921269, "is_disabled": 0, "type": "electric_scooter", "lon": -77.042299, "bike_id": "c4eced1625ec86c5a44223e6a0cd2576", "fusion_lat": 0.0, "name": "c4eced1625ec86c5a44223e6a0cd2576", "is_reserved": 0, "rental_uris": {"android": "https://dc.lft.to/lastmile_qr_scan", "ios": "https://dc.lft.to/lastmile_qr_scan"}, "fusion_lon": 0.0}, {"lat": 38.94909216666667, "is_disabled": 0, "type": "electric_scooter", "lon": -77.0661955, "bike_id": "0167c414115b01b03bccb9eefa1e7a69", "fusion_lat": 0.0, "name": "0167c414115b01b03bccb9eefa1e7a69", "is_reserved": 0, "rental_uris": {"android": "https://dc.lft.to/lastmile_qr_scan", "ios": "https://dc.lft.to/lastmile_qr_scan"}, "fusion_lon": 0.0}, {"lat": 38.9111985, "is_disabled": 0, "type": "electric_scooter", "lon": -77.03813833333334, "bike_id": "e06ad00e3f74041163ee2e52e38ffb5e", "fusion_lat": 0.0, "name": "e06ad00e3f74041163ee2e52e38ffb5e", "is_reserved": 0, "rental_uris": {"android": "https://dc.lft.to/lastmile_qr_scan", "ios": "https://dc.lft.to/lastmile_qr_scan"}, "fusion_lon": 0.0}, {"lat": 38.904295833333336, "is_disabled": 0, "type": "electric_scooter", "lon": -77.002159, "bike_id": "b0d3b9fbc5f9adcda4282bb4e9dcc2f1", "fusion_lat": 0.0, "name": "b0d3b9fbc5f9adcda4282bb4e9dcc2f1", "is_reserved": 0, "rental_uris": {"android": "https://dc.lft.to/lastmile_qr_scan", "ios": "https://dc.lft.to/lastmile_qr_scan"}, "fusion_lon": 0.0}, {"lat": 38.85319883333333, "is_disabled": 0, "type": "electric_scooter", "lon": -76.9801985, "bike_id": "f0eb1f330cc7103484aaf71b178db3fa", "fusion_lat": 0.0, "name": "f0eb1f330cc7103484aaf71b178db3fa", "is_reserved": 0, "rental_uris": {"android": "https://dc.lft.to/lastmile_qr_scan", "ios": "https://dc.lft.to/lastmile_qr_scan"}, "fusion_lon": 0.0}, {"lat": 38.92508766666667, "is_disabled": 0, "type": "electric_scooter", "lon": -77.02359383333334, "bike_id": "1bc2c9923ae8a5bb17304d5699b271fb", "fusion_lat": 0.0, "name": "1bc2c9923ae8a5bb17304d5699b271fb", "is_reserved": 0, "rental_uris": {"android": "https://dc.lft.to/lastmile_qr_scan", "ios": "https://dc.lft.to/lastmile_qr_scan"}, "fusion_lon": 0.0}, {"lat": 38.962019, "is_disabled": 0, "type": "electric_bike", "lon": -77.03509716666667, "bike_id": "c21fc8a635c9f9b8f5599e81426ef505", "fusion_lat": 0.0, "name": "c21fc8a635c9f9b8f5599e81426ef505", "is_reserved": 0, "rental_uris": {"android": "https://dc.lft.to/lastmile_qr_scan", "ios": "https://dc.lft.to/lastmile_qr_scan"}, "fusion_lon": 0.0}, {"lat": 38.9128475, "is_disabled": 0, "type": "electric_scooter", "lon": -77.03852083333334, "bike_id": "6a83e16a886cc8560aabf54e4be30314", "fusion_lat": 0.0, "name": "6a83e16a886cc8560aabf54e4be30314", "is_reserved": 0, "rental_uris": {"android": "https://dc.lft.to/lastmile_qr_scan", "ios": "https://dc.lft.to/lastmile_qr_scan"}, "fusion_lon": 0.0}, {"lat": 38.81348033333333, "is_disabled": 0, "type": "electric_bike", "lon": -77.04926433333333, "bike_id": "6ee67afa50438cdd163d43a00cea3fb1", "fusion_lat": 0.0, "name": "6ee67afa50438cdd163d43a00cea3fb1", "is_reserved": 0, "rental_uris": {"android": "https://dc.lft.to/lastmile_qr_scan", "ios": "https://dc.lft.to/lastmile_qr_scan"}, "fusion_lon": 0.0}, {"lat": 38.94114116666667, "is_disabled": 0, "type": "electric_scooter", "lon": -77.000465, "bike_id": "bde0f026bc0e2ff726f711185877488c", "fusion_lat": 0.0, "name": "bde0f026bc0e2ff726f711185877488c", "is_reserved": 0, "rental_uris": {"android": "https://dc.lft.to/lastmile_qr_scan", "ios": "https://dc.lft.to/lastmile_qr_scan"}, "fusion_lon": 0.0}, {"lat": 38.895529333333336, "is_disabled": 0, "type": "electric_scooter", "lon": -77.003664, "bike_id": "1d1a5f619b13e812f540361344e90fd3", "fusion_lat": 0.0, "name": "1d1a5f619b13e812f540361344e90fd3", "is_reserved": 0, "rental_uris": {"android": "https://dc.lft.to/lastmile_qr_scan", "ios": "https://dc.lft.to/lastmile_qr_scan"}, "fusion_lon": 0.0}, {"lat": 38.900230666666666, "is_disabled": 0, "type": "electric_scooter", "lon": -77.03335633333333, "bike_id": "f703b8289a9fbea63e5a5240607f642b", "fusion_lat": 0.0, "name": "f703b8289a9fbea63e5a5240607f642b", "is_reserved": 0, "rental_uris": {"android": "https://dc.lft.to/lastmile_qr_scan", "ios": "https://dc.lft.to/lastmile_qr_scan"}, "fusion_lon": 0.0}, {"lat": 38.90784633333333, "is_disabled": 0, "type": "electric_scooter", "lon": -77.01099733333334, "bike_id": "c323780a738434a06a50ff60cd9a150e", "fusion_lat": 0.0, "name": "c323780a738434a06a50ff60cd9a150e", "is_reserved": 0, "rental_uris": {"android": "https://dc.lft.to/lastmile_qr_scan", "ios": "https://dc.lft.to/lastmile_qr_scan"}, "fusion_lon": 0.0}, {"lat": 38.871663833333336, "is_disabled": 0, "type": "electric_scooter", "lon": -77.0135145, "bike_id": "686cdb514f79dd374076d450ea74d0cc", "fusion_lat": 0.0, "name": "686cdb514f79dd374076d450ea74d0cc", "is_reserved": 0, "rental_uris": {"android": "https://dc.lft.to/lastmile_qr_scan", "ios": "https://dc.lft.to/lastmile_qr_scan"}, "fusion_lon": 0.0}, {"lat": 38.907265833333334, "is_disabled": 0, "type": "electric_scooter", "lon": -77.02988, "bike_id": "b8136362e858a30f769e9c8269bf1a3b", "fusion_lat": 0.0, "name": "b8136362e858a30f769e9c8269bf1a3b", "is_reserved": 0, "rental_uris": {"android": "https://dc.lft.to/lastmile_qr_scan", "ios": "https://dc.lft.to/lastmile_qr_scan"}, "fusion_lon": 0.0}, {"lat": 38.892223, "is_disabled": 0, "type": "electric_scooter", "lon": -77.0486195, "bike_id": "52158d36a5f8f5a2a44b201a100f6078", "fusion_lat": 0.0, "name": "52158d36a5f8f5a2a44b201a100f6078", "is_reserved": 0, "rental_uris": {"android": "https://dc.lft.to/lastmile_qr_scan", "ios": "https://dc.lft.to/lastmile_qr_scan"}, "fusion_lon": 0.0}, {"lat": 38.9257535, "is_disabled": 0, "type": "electric_scooter", "lon": -77.04008133333333, "bike_id": "fe7af9373788210925a5a07a7bbf201b", "fusion_lat": 0.0, "name": "fe7af9373788210925a5a07a7bbf201b", "is_reserved": 0, "rental_uris": {"android": "https://dc.lft.to/lastmile_qr_scan", "ios": "https://dc.lft.to/lastmile_qr_scan"}, "fusion_lon": 0.0}, {"lat": 38.896118, "is_disabled": 0, "type": "electric_scooter", "lon": -76.956577, "bike_id": "bc4d01321ff870c6d1b38e2482af117e", "fusion_lat": 0.0, "name": "bc4d01321ff870c6d1b38e2482af117e", "is_reserved": 0, "rental_uris": {"android": "https://dc.lft.to/lastmile_qr_scan", "ios": "https://dc.lft.to/lastmile_qr_scan"}, "fusion_lon": 0.0}, {"lat": 38.920148833333336, "is_disabled": 0, "type": "electric_scooter", "lon": -77.04183833333333, "bike_id": "1986050a14b3a3a5eb90192d2222983c", "fusion_lat": 0.0, "name": "1986050a14b3a3a5eb90192d2222983c", "is_reserved": 0, "rental_uris": {"android": "https://dc.lft.to/lastmile_qr_scan", "ios": "https://dc.lft.to/lastmile_qr_scan"}, "fusion_lon": 0.0}, {"lat": 38.9168895, "is_disabled": 0, "type": "electric_scooter", "lon": -77.02598366666666, "bike_id": "b86ff2bb4f3c2736d8801ccce10f0de0", "fusion_lat": 0.0, "name": "b86ff2bb4f3c2736d8801ccce10f0de0", "is_reserved": 0, "rental_uris": {"android": "https://dc.lft.to/lastmile_qr_scan", "ios": "https://dc.lft.to/lastmile_qr_scan"}, "fusion_lon": 0.0}, {"lat": 38.93228716666667, "is_disabled": 0, "type": "electric_scooter", "lon": -77.04408433333333, "bike_id": "463561e3c1be27abd086670886733302", "fusion_lat": 0.0, "name": "463561e3c1be27abd086670886733302", "is_reserved": 0, "rental_uris": {"android": "https://dc.lft.to/lastmile_qr_scan", "ios": "https://dc.lft.to/lastmile_qr_scan"}, "fusion_lon": 0.0}, {"lat": 38.8659435, "is_disabled": 0, "type": "electric_bike", "lon": -76.93227683333333, "bike_id": "877ddd32f768585d4d1dcd089afd4e9c", "fusion_lat": 0.0, "name": "877ddd32f768585d4d1dcd089afd4e9c", "is_reserved": 0, "rental_uris": {"android": "https://dc.lft.to/lastmile_qr_scan", "ios": "https://dc.lft.to/lastmile_qr_scan"}, "fusion_lon": 0.0}, {"lat": 38.957452, "is_disabled": 0, "type": "electric_bike", "lon": -77.02171166666666, "bike_id": "bf2940ab8acda81291d74dd3d4b2f26b", "fusion_lat": 0.0, "name": "bf2940ab8acda81291d74dd3d4b2f26b", "is_reserved": 0, "rental_uris": {"android": "https://dc.lft.to/lastmile_qr_scan", "ios": "https://dc.lft.to/lastmile_qr_scan"}, "fusion_lon": 0.0}, {"lat": 38.885263333333334, "is_disabled": 0, "type": "electric_scooter", "lon": -77.01499083333333, "bike_id": "280caee37fa6382353a037d1b8ce5afd", "fusion_lat": 0.0, "name": "280caee37fa6382353a037d1b8ce5afd", "is_reserved": 0, "rental_uris": {"android": "https://dc.lft.to/lastmile_qr_scan", "ios": "https://dc.lft.to/lastmile_qr_scan"}, "fusion_lon": 0.0}, {"lat": 38.9216775, "is_disabled": 0, "type": "electric_scooter", "lon": -77.05134683333333, "bike_id": "8294a5d5c6d499105d8444fc7d44a58f", "fusion_lat": 0.0, "name": "8294a5d5c6d499105d8444fc7d44a58f", "is_reserved": 0, "rental_uris": {"android": "https://dc.lft.to/lastmile_qr_scan", "ios": "https://dc.lft.to/lastmile_qr_scan"}, "fusion_lon": 0.0}, {"lat": 38.85218066666667, "is_disabled": 0, "type": "electric_bike", "lon": -77.12958283333333, "bike_id": "f3ee6d86729e9d76250f961864697464", "fusion_lat": 0.0, "name": "f3ee6d86729e9d76250f961864697464", "is_reserved": 0, "rental_uris": {"android": "https://dc.lft.to/lastmile_qr_scan", "ios": "https://dc.lft.to/lastmile_qr_scan"}, "fusion_lon": 0.0}, {"lat": 38.886975166666666, "is_disabled": 0, "type": "electric_bike", "lon": -77.09437916666667, "bike_id": "186b0cea9b246f46280a5d473e492f0c", "fusion_lat": 0.0, "name": "186b0cea9b246f46280a5d473e492f0c", "is_reserved": 0, "rental_uris": {"android": "https://dc.lft.to/lastmile_qr_scan", "ios": "https://dc.lft.to/lastmile_qr_scan"}, "fusion_lon": 0.0}, {"lat": 38.820046833333336, "is_disabled": 0, "type": "electric_bike", "lon": -77.05758683333333, "bike_id": "4952a57d73c400a85323e9c527cfc271", "fusion_lat": 0.0, "name": "4952a57d73c400a85323e9c527cfc271", "is_reserved": 0, "rental_uris": {"android": "https://dc.lft.to/lastmile_qr_scan", "ios": "https://dc.lft.to/lastmile_qr_scan"}, "fusion_lon": 0.0}, {"lat": 38.9345155, "is_disabled": 0, "type": "electric_scooter", "lon": -77.0323635, "bike_id": "7a156a525149d697feddc376386605f1", "fusion_lat": 0.0, "name": "7a156a525149d697feddc376386605f1", "is_reserved": 0, "rental_uris": {"android": "https://dc.lft.to/lastmile_qr_scan", "ios": "https://dc.lft.to/lastmile_qr_scan"}, "fusion_lon": 0.0}, {"lat": 38.917604, "is_disabled": 0, "type": "electric_scooter", "lon": -77.00455583333333, "bike_id": "484a2cf27ad4f19c8445af8d33665ec3", "fusion_lat": 0.0, "name": "484a2cf27ad4f19c8445af8d33665ec3", "is_reserved": 0, "rental_uris": {"android": "https://dc.lft.to/lastmile_qr_scan", "ios": "https://dc.lft.to/lastmile_qr_scan"}, "fusion_lon": 0.0}, {"lat": 38.8922145, "is_disabled": 0, "type": "electric_scooter", "lon": -77.04866716666666, "bike_id": "6aaeb4aea7d0c6b46e2a48c4f2b38188", "fusion_lat": 0.0, "name": "6aaeb4aea7d0c6b46e2a48c4f2b38188", "is_reserved": 0, "rental_uris": {"android": "https://dc.lft.to/lastmile_qr_scan", "ios": "https://dc.lft.to/lastmile_qr_scan"}, "fusion_lon": 0.0}, {"lat": 38.8652415, "is_disabled": 0, "type": "electric_scooter", "lon": -76.9902135, "bike_id": "f58d00b002f0f4a0af8b403330891246", "fusion_lat": 0.0, "name": "f58d00b002f0f4a0af8b403330891246", "is_reserved": 0, "rental_uris": {"android": "https://dc.lft.to/lastmile_qr_scan", "ios": "https://dc.lft.to/lastmile_qr_scan"}, "fusion_lon": 0.0}, {"lat": 38.89730766666667, "is_disabled": 0, "type": "electric_scooter", "lon": -77.02459916666666, "bike_id": "825653447d14bef28ca432fcfb5fecf3", "fusion_lat": 0.0, "name": "825653447d14bef28ca432fcfb5fecf3", "is_reserved": 0, "rental_uris": {"android": "https://dc.lft.to/lastmile_qr_scan", "ios": "https://dc.lft.to/lastmile_qr_scan"}, "fusion_lon": 0.0}, {"lat": 38.921676833333336, "is_disabled": 0, "type": "electric_scooter", "lon": -77.04007816666666, "bike_id": "1d06a8be46aecc5a924ec4d2eba3ebe9", "fusion_lat": 0.0, "name": "1d06a8be46aecc5a924ec4d2eba3ebe9", "is_reserved": 0, "rental_uris": {"android": "https://dc.lft.to/lastmile_qr_scan", "ios": "https://dc.lft.to/lastmile_qr_scan"}, "fusion_lon": 0.0}, {"lat": 38.91004016666667, "is_disabled": 0, "type": "electric_scooter", "lon": -77.04001483333333, "bike_id": "66e4c03ac36aa42448387f24c912c03f", "fusion_lat": 0.0, "name": "66e4c03ac36aa42448387f24c912c03f", "is_reserved": 0, "rental_uris": {"android": "https://dc.lft.to/lastmile_qr_scan", "ios": "https://dc.lft.to/lastmile_qr_scan"}, "fusion_lon": 0.0}, {"lat": 38.90046383333333, "is_disabled": 0, "type": "electric_scooter", "lon": -77.00745866666666, "bike_id": "f44498513331f2f0e68990852097bc82", "fusion_lat": 0.0, "name": "f44498513331f2f0e68990852097bc82", "is_reserved": 0, "rental_uris": {"android": "https://dc.lft.to/lastmile_qr_scan", "ios": "https://dc.lft.to/lastmile_qr_scan"}, "fusion_lon": 0.0}, {"lat": 38.91098866666667, "is_disabled": 0, "type": "electric_scooter", "lon": -77.0385315, "bike_id": "80227a674a770f85cf6a2376ae5f7b64", "fusion_lat": 0.0, "name": "80227a674a770f85cf6a2376ae5f7b64", "is_reserved": 0, "rental_uris": {"android": "https://dc.lft.to/lastmile_qr_scan", "ios": "https://dc.lft.to/lastmile_qr_scan"}, "fusion_lon": 0.0}, {"lat": 38.886675333333336, "is_disabled": 0, "type": "electric_scooter", "lon": -76.99028966666667, "bike_id": "6c29326a2cba83180dd6fb8d212b6471", "fusion_lat": 0.0, "name": "6c29326a2cba83180dd6fb8d212b6471", "is_reserved": 0, "rental_uris": {"android": "https://dc.lft.to/lastmile_qr_scan", "ios": "https://dc.lft.to/lastmile_qr_scan"}, "fusion_lon": 0.0}, {"lat": 38.909571666666665, "is_disabled": 0, "type": "electric_scooter", "lon": -77.048237, "bike_id": "2c6dd7e0183e7267b8eecc0de77dabc5", "fusion_lat": 0.0, "name": "2c6dd7e0183e7267b8eecc0de77dabc5", "is_reserved": 0, "rental_uris": {"android": "https://dc.lft.to/lastmile_qr_scan", "ios": "https://dc.lft.to/lastmile_qr_scan"}, "fusion_lon": 0.0}, {"lat": 39.0750185, "is_disabled": 0, "type": "electric_bike", "lon": -77.11897433333333, "bike_id": "35b146002f6effe1d44b44b4fc116cd9", "fusion_lat": 0.0, "name": "35b146002f6effe1d44b44b4fc116cd9", "is_reserved": 0, "rental_uris": {"android": "https://dc.lft.to/lastmile_qr_scan", "ios": "https://dc.lft.to/lastmile_qr_scan"}, "fusion_lon": 0.0}, {"lat": 38.92654366666667, "is_disabled": 0, "type": "electric_scooter", "lon": -77.0241415, "bike_id": "a1cecb770161779149dd69a598b8f126", "fusion_lat": 0.0, "name": "a1cecb770161779149dd69a598b8f126", "is_reserved": 0, "rental_uris": {"android": "https://dc.lft.to/lastmile_qr_scan", "ios": "https://dc.lft.to/lastmile_qr_scan"}, "fusion_lon": 0.0}, {"lat": 38.9210755, "is_disabled": 0, "type": "electric_scooter", "lon": -77.04576333333333, "bike_id": "e053dcf7e506b49c526e9a651c2f82d1", "fusion_lat": 0.0, "name": "e053dcf7e506b49c526e9a651c2f82d1", "is_reserved": 0, "rental_uris": {"android": "https://dc.lft.to/lastmile_qr_scan", "ios": "https://dc.lft.to/lastmile_qr_scan"}, "fusion_lon": 0.0}, {"lat": 38.912662166666664, "is_disabled": 0, "type": "electric_scooter", "lon": -77.02248166666666, "bike_id": "6d2164bbfd9cbe451e3c1721d415ddb3", "fusion_lat": 0.0, "name": "6d2164bbfd9cbe451e3c1721d415ddb3", "is_reserved": 0, "rental_uris": {"android": "https://dc.lft.to/lastmile_qr_scan", "ios": "https://dc.lft.to/lastmile_qr_scan"}, "fusion_lon": 0.0}, {"lat": 38.8847365, "is_disabled": 0, "type": "electric_scooter", "lon": -77.02415183333333, "bike_id": "675704f64eab40a68de09d68ee7039e0", "fusion_lat": 0.0, "name": "675704f64eab40a68de09d68ee7039e0", "is_reserved": 0, "rental_uris": {"android": "https://dc.lft.to/lastmile_qr_scan", "ios": "https://dc.lft.to/lastmile_qr_scan"}, "fusion_lon": 0.0}, {"lat": 38.86507566666667, "is_disabled": 0, "type": "electric_scooter", "lon": -76.99007783333333, "bike_id": "760ee6984f7f98aa726c64ca83529d46", "fusion_lat": 0.0, "name": "760ee6984f7f98aa726c64ca83529d46", "is_reserved": 0, "rental_uris": {"android": "https://dc.lft.to/lastmile_qr_scan", "ios": "https://dc.lft.to/lastmile_qr_scan"}, "fusion_lon": 0.0}, {"lat": 38.88121183333333, "is_disabled": 0, "type": "electric_scooter", "lon": -77.01645483333333, "bike_id": "f731fd77a4bb0bdeeb17f12b9036e7f2", "fusion_lat": 0.0, "name": "f731fd77a4bb0bdeeb17f12b9036e7f2", "is_reserved": 0, "rental_uris": {"android": "https://dc.lft.to/lastmile_qr_scan", "ios": "https://dc.lft.to/lastmile_qr_scan"}, "fusion_lon": 0.0}, {"lat": 38.9055915, "is_disabled": 0, "type": "electric_scooter", "lon": -76.99872566666667, "bike_id": "2bbaeaf6c842fb330ec30725ab013b31", "fusion_lat": 0.0, "name": "2bbaeaf6c842fb330ec30725ab013b31", "is_reserved": 0, "rental_uris": {"android": "https://dc.lft.to/lastmile_qr_scan", "ios": "https://dc.lft.to/lastmile_qr_scan"}, "fusion_lon": 0.0}, {"lat": 38.903639, "is_disabled": 0, "type": "electric_scooter", "lon": -77.02895083333334, "bike_id": "e3eb5f22508774c76c103097492489f0", "fusion_lat": 0.0, "name": "e3eb5f22508774c76c103097492489f0", "is_reserved": 0, "rental_uris": {"android": "https://dc.lft.to/lastmile_qr_scan", "ios": "https://dc.lft.to/lastmile_qr_scan"}, "fusion_lon": 0.0}, {"lat": 38.8671675, "is_disabled": 0, "type": "electric_scooter", "lon": -76.987279, "bike_id": "c443d0e445433f6e5c2a9919dfb70681", "fusion_lat": 0.0, "name": "c443d0e445433f6e5c2a9919dfb70681", "is_reserved": 0, "rental_uris": {"android": "https://dc.lft.to/lastmile_qr_scan", "ios": "https://dc.lft.to/lastmile_qr_scan"}, "fusion_lon": 0.0}, {"lat": 38.916920833333336, "is_disabled": 0, "type": "electric_scooter", "lon": -77.035871, "bike_id": "dd3c6f86dc8b97c3004e9a027057f3ad", "fusion_lat": 0.0, "name": "dd3c6f86dc8b97c3004e9a027057f3ad", "is_reserved": 0, "rental_uris": {"android": "https://dc.lft.to/lastmile_qr_scan", "ios": "https://dc.lft.to/lastmile_qr_scan"}, "fusion_lon": 0.0}, {"lat": 38.934391166666664, "is_disabled": 0, "type": "electric_scooter", "lon": -77.03458033333334, "bike_id": "43c11f0f31612399347b8f1fa36e654d", "fusion_lat": 0.0, "name": "43c11f0f31612399347b8f1fa36e654d", "is_reserved": 0, "rental_uris": {"android": "https://dc.lft.to/lastmile_qr_scan", "ios": "https://dc.lft.to/lastmile_qr_scan"}, "fusion_lon": 0.0}, {"lat": 38.8620925, "is_disabled": 0, "type": "electric_bike", "lon": -76.9977665, "bike_id": "4bf78568958ae7b74fdc69038c10bf68", "fusion_lat": 0.0, "name": "4bf78568958ae7b74fdc69038c10bf68", "is_reserved": 0, "rental_uris": {"android": "https://dc.lft.to/lastmile_qr_scan", "ios": "https://dc.lft.to/lastmile_qr_scan"}, "fusion_lon": 0.0}, {"lat": 38.8706275, "is_disabled": 0, "type": "electric_scooter", "lon": -77.008384, "bike_id": "ccfa4e5b904577fc4838af22aeb7bb50", "fusion_lat": 0.0, "name": "ccfa4e5b904577fc4838af22aeb7bb50", "is_reserved": 0, "rental_uris": {"android": "https://dc.lft.to/lastmile_qr_scan", "ios": "https://dc.lft.to/lastmile_qr_scan"}, "fusion_lon": 0.0}, {"lat": 38.86674566666667, "is_disabled": 0, "type": "electric_scooter", "lon": -76.98541183333333, "bike_id": "3b33a5a24b0ed86786b02d4043feaabc", "fusion_lat": 0.0, "name": "3b33a5a24b0ed86786b02d4043feaabc", "is_reserved": 0, "rental_uris": {"android": "https://dc.lft.to/lastmile_qr_scan", "ios": "https://dc.lft.to/lastmile_qr_scan"}, "fusion_lon": 0.0}, {"lat": 38.810495833333334, "is_disabled": 0, "type": "electric_bike", "lon": -77.085077, "bike_id": "3d55f5ab87f03a91bead1409fdbccaf4", "fusion_lat": 0.0, "name": "3d55f5ab87f03a91bead1409fdbccaf4", "is_reserved": 0, "rental_uris": {"android": "https://dc.lft.to/lastmile_qr_scan", "ios": "https://dc.lft.to/lastmile_qr_scan"}, "fusion_lon": 0.0}, {"lat": 38.89922716666667, "is_disabled": 0, "type": "electric_scooter", "lon": -77.03220433333334, "bike_id": "9c1f9b359dceb384ab168a6b7df7c7cf", "fusion_lat": 0.0, "name": "9c1f9b359dceb384ab168a6b7df7c7cf", "is_reserved": 0, "rental_uris": {"android": "https://dc.lft.to/lastmile_qr_scan", "ios": "https://dc.lft.to/lastmile_qr_scan"}, "fusion_lon": 0.0}, {"lat": 38.9206165, "is_disabled": 0, "type": "electric_scooter", "lon": -77.02708783333334, "bike_id": "05768347cdc9a80923a7c7beba6ca5b3", "fusion_lat": 0.0, "name": "05768347cdc9a80923a7c7beba6ca5b3", "is_reserved": 0, "rental_uris": {"android": "https://dc.lft.to/lastmile_qr_scan", "ios": "https://dc.lft.to/lastmile_qr_scan"}, "fusion_lon": 0.0}, {"lat": 38.93866766666667, "is_disabled": 0, "type": "electric_scooter", "lon": -77.02597816666666, "bike_id": "c08cff11a0c554a8230643d89e77e44d", "fusion_lat": 0.0, "name": "c08cff11a0c554a8230643d89e77e44d", "is_reserved": 0, "rental_uris": {"android": "https://dc.lft.to/lastmile_qr_scan", "ios": "https://dc.lft.to/lastmile_qr_scan"}, "fusion_lon": 0.0}, {"lat": 38.93604083333334, "is_disabled": 0, "type": "electric_scooter", "lon": -77.05856633333333, "bike_id": "c869fb47a18b44802d7ca7219cd2c07f", "fusion_lat": 0.0, "name": "c869fb47a18b44802d7ca7219cd2c07f", "is_reserved": 0, "rental_uris": {"android": "https://dc.lft.to/lastmile_qr_scan", "ios": "https://dc.lft.to/lastmile_qr_scan"}, "fusion_lon": 0.0}, {"lat": 38.90560283333333, "is_disabled": 0, "type": "electric_scooter", "lon": -76.98140383333333, "bike_id": "690eb82a48f4a1fbbbc4867e5a42041e", "fusion_lat": 0.0, "name": "690eb82a48f4a1fbbbc4867e5a42041e", "is_reserved": 0, "rental_uris": {"android": "https://dc.lft.to/lastmile_qr_scan", "ios": "https://dc.lft.to/lastmile_qr_scan"}, "fusion_lon": 0.0}, {"lat": 38.934251333333336, "is_disabled": 0, "type": "electric_scooter", "lon": -77.02844666666667, "bike_id": "cf0f145cb9e7ba4d847444b529f72321", "fusion_lat": 0.0, "name": "cf0f145cb9e7ba4d847444b529f72321", "is_reserved": 0, "rental_uris": {"android": "https://dc.lft.to/lastmile_qr_scan", "ios": "https://dc.lft.to/lastmile_qr_scan"}, "fusion_lon": 0.0}, {"lat": 38.919408833333335, "is_disabled": 0, "type": "electric_scooter", "lon": -77.02512233333333, "bike_id": "696a6554fa027d91551e7695fbfe38da", "fusion_lat": 0.0, "name": "696a6554fa027d91551e7695fbfe38da", "is_reserved": 0, "rental_uris": {"android": "https://dc.lft.to/lastmile_qr_scan", "ios": "https://dc.lft.to/lastmile_qr_scan"}, "fusion_lon": 0.0}, {"lat": 38.8982, "is_disabled": 0, "type": "electric_scooter", "lon": -77.02999783333334, "bike_id": "768db704fdd9e2c14b81f252a6f9ec56", "fusion_lat": 0.0, "name": "768db704fdd9e2c14b81f252a6f9ec56", "is_reserved": 0, "rental_uris": {"android": "https://dc.lft.to/lastmile_qr_scan", "ios": "https://dc.lft.to/lastmile_qr_scan"}, "fusion_lon": 0.0}, {"lat": 38.90274466666666, "is_disabled": 0, "type": "electric_scooter", "lon": -77.06237883333333, "bike_id": "4cd6151b7d6087f53f43470f59eed6fc", "fusion_lat": 0.0, "name": "4cd6151b7d6087f53f43470f59eed6fc", "is_reserved": 0, "rental_uris": {"android": "https://dc.lft.to/lastmile_qr_scan", "ios": "https://dc.lft.to/lastmile_qr_scan"}, "fusion_lon": 0.0}, {"lat": 38.9181705, "is_disabled": 0, "type": "electric_scooter", "lon": -77.02950483333333, "bike_id": "e539818f952e2f68d3b4fc077e2e9a28", "fusion_lat": 0.0, "name": "e539818f952e2f68d3b4fc077e2e9a28", "is_reserved": 0, "rental_uris": {"android": "https://dc.lft.to/lastmile_qr_scan", "ios": "https://dc.lft.to/lastmile_qr_scan"}, "fusion_lon": 0.0}, {"lat": 38.844317333333336, "is_disabled": 0, "type": "electric_scooter", "lon": -76.99813, "bike_id": "b96d87b5546961ceb8563b8f2f097ec2", "fusion_lat": 0.0, "name": "b96d87b5546961ceb8563b8f2f097ec2", "is_reserved": 0, "rental_uris": {"android": "https://dc.lft.to/lastmile_qr_scan", "ios": "https://dc.lft.to/lastmile_qr_scan"}, "fusion_lon": 0.0}, {"lat": 38.945960166666666, "is_disabled": 0, "type": "electric_scooter", "lon": -77.07029883333334, "bike_id": "23212b96eb1a9de1da35e28b27b66424", "fusion_lat": 0.0, "name": "23212b96eb1a9de1da35e28b27b66424", "is_reserved": 0, "rental_uris": {"android": "https://dc.lft.to/lastmile_qr_scan", "ios": "https://dc.lft.to/lastmile_qr_scan"}, "fusion_lon": 0.0}, {"lat": 38.854293, "is_disabled": 0, "type": "electric_bike", "lon": -76.909644, "bike_id": "b12e95088b15c6c23c5be9e5ae4d7662", "fusion_lat": 0.0, "name": "b12e95088b15c6c23c5be9e5ae4d7662", "is_reserved": 0, "rental_uris": {"android": "https://dc.lft.to/lastmile_qr_scan", "ios": "https://dc.lft.to/lastmile_qr_scan"}, "fusion_lon": 0.0}, {"lat": 38.905979, "is_disabled": 0, "type": "electric_scooter", "lon": -77.06339283333334, "bike_id": "e0db3ff0162d1d34639792e0db03a067", "fusion_lat": 0.0, "name": "e0db3ff0162d1d34639792e0db03a067", "is_reserved": 0, "rental_uris": {"android": "https://dc.lft.to/lastmile_qr_scan", "ios": "https://dc.lft.to/lastmile_qr_scan"}, "fusion_lon": 0.0}, {"lat": 38.909784333333334, "is_disabled": 0, "type": "electric_scooter", "lon": -77.03195483333333, "bike_id": "a3c9fb93fd5117e7e2774121b2b4c448", "fusion_lat": 0.0, "name": "a3c9fb93fd5117e7e2774121b2b4c448", "is_reserved": 0, "rental_uris": {"android": "https://dc.lft.to/lastmile_qr_scan", "ios": "https://dc.lft.to/lastmile_qr_scan"}, "fusion_lon": 0.0}, {"lat": 38.99256033333333, "is_disabled": 0, "type": "electric_scooter", "lon": -77.0365735, "bike_id": "d0a62376ea0e0735350e5dbe0dd964f8", "fusion_lat": 0.0, "name": "d0a62376ea0e0735350e5dbe0dd964f8", "is_reserved": 0, "rental_uris": {"android": "https://dc.lft.to/lastmile_qr_scan", "ios": "https://dc.lft.to/lastmile_qr_scan"}, "fusion_lon": 0.0}, {"lat": 38.8934865, "is_disabled": 0, "type": "electric_scooter", "lon": -77.041427, "bike_id": "fe4e77aa709f029150ee7907d0c19cc6", "fusion_lat": 0.0, "name": "fe4e77aa709f029150ee7907d0c19cc6", "is_reserved": 0, "rental_uris": {"android": "https://dc.lft.to/lastmile_qr_scan", "ios": "https://dc.lft.to/lastmile_qr_scan"}, "fusion_lon": 0.0}, {"lat": 38.90513416666667, "is_disabled": 0, "type": "electric_scooter", "lon": -77.063078, "bike_id": "d44c254bbfc2052fe0c019bf481107a5", "fusion_lat": 0.0, "name": "d44c254bbfc2052fe0c019bf481107a5", "is_reserved": 0, "rental_uris": {"android": "https://dc.lft.to/lastmile_qr_scan", "ios": "https://dc.lft.to/lastmile_qr_scan"}, "fusion_lon": 0.0}, {"lat": 38.86255033333333, "is_disabled": 0, "type": "electric_scooter", "lon": -76.99516466666667, "bike_id": "70c4848fa85723adb6f820e01703de9c", "fusion_lat": 0.0, "name": "70c4848fa85723adb6f820e01703de9c", "is_reserved": 0, "rental_uris": {"android": "https://dc.lft.to/lastmile_qr_scan", "ios": "https://dc.lft.to/lastmile_qr_scan"}, "fusion_lon": 0.0}, {"lat": 38.937389333333336, "is_disabled": 0, "type": "electric_scooter", "lon": -77.0361685, "bike_id": "3195220938c2b39ec859ac8087453ed0", "fusion_lat": 0.0, "name": "3195220938c2b39ec859ac8087453ed0", "is_reserved": 0, "rental_uris": {"android": "https://dc.lft.to/lastmile_qr_scan", "ios": "https://dc.lft.to/lastmile_qr_scan"}, "fusion_lon": 0.0}, {"lat": 38.945530833333336, "is_disabled": 0, "type": "electric_bike", "lon": -76.89538216666666, "bike_id": "a914086e9a2ce4090b78474c7e0afee4", "fusion_lat": 0.0, "name": "a914086e9a2ce4090b78474c7e0afee4", "is_reserved": 0, "rental_uris": {"android": "https://dc.lft.to/lastmile_qr_scan", "ios": "https://dc.lft.to/lastmile_qr_scan"}, "fusion_lon": 0.0}, {"lat": 38.85189733333333, "is_disabled": 0, "type": "electric_scooter", "lon": -76.97618483333333, "bike_id": "7daf5179e64ae8ff7681795134df5ef0", "fusion_lat": 0.0, "name": "7daf5179e64ae8ff7681795134df5ef0", "is_reserved": 0, "rental_uris": {"android": "https://dc.lft.to/lastmile_qr_scan", "ios": "https://dc.lft.to/lastmile_qr_scan"}, "fusion_lon": 0.0}, {"lat": 39.0343095, "is_disabled": 0, "type": "electric_bike", "lon": -77.0430625, "bike_id": "b993b672820579a4e1026c5688659fac", "fusion_lat": 0.0, "name": "b993b672820579a4e1026c5688659fac", "is_reserved": 0, "rental_uris": {"android": "https://dc.lft.to/lastmile_qr_scan", "ios": "https://dc.lft.to/lastmile_qr_scan"}, "fusion_lon": 0.0}, {"lat": 38.844285666666664, "is_disabled": 0, "type": "electric_scooter", "lon": -76.99657416666666, "bike_id": "54ed09e6f0dab784ac907b8eb9d15612", "fusion_lat": 0.0, "name": "54ed09e6f0dab784ac907b8eb9d15612", "is_reserved": 0, "rental_uris": {"android": "https://dc.lft.to/lastmile_qr_scan", "ios": "https://dc.lft.to/lastmile_qr_scan"}, "fusion_lon": 0.0}, {"lat": 38.936557666666666, "is_disabled": 0, "type": "electric_bike", "lon": -76.95218283333334, "bike_id": "ea73b28c7879875af692fece1ea9e707", "fusion_lat": 0.0, "name": "ea73b28c7879875af692fece1ea9e707", "is_reserved": 0, "rental_uris": {"android": "https://dc.lft.to/lastmile_qr_scan", "ios": "https://dc.lft.to/lastmile_qr_scan"}, "fusion_lon": 0.0}, {"lat": 38.9053305, "is_disabled": 0, "type": "electric_scooter", "lon": -77.05713883333334, "bike_id": "db7180f8803c1deaa6abeca750a5bbe6", "fusion_lat": 0.0, "name": "db7180f8803c1deaa6abeca750a5bbe6", "is_reserved": 0, "rental_uris": {"android": "https://dc.lft.to/lastmile_qr_scan", "ios": "https://dc.lft.to/lastmile_qr_scan"}, "fusion_lon": 0.0}, {"lat": 38.91724166666667, "is_disabled": 0, "type": "electric_scooter", "lon": -77.022922, "bike_id": "a96a2c7ffc3a04a212afc380bd1e9fa4", "fusion_lat": 0.0, "name": "a96a2c7ffc3a04a212afc380bd1e9fa4", "is_reserved": 0, "rental_uris": {"android": "https://dc.lft.to/lastmile_qr_scan", "ios": "https://dc.lft.to/lastmile_qr_scan"}, "fusion_lon": 0.0}, {"lat": 38.890683833333334, "is_disabled": 0, "type": "electric_scooter", "lon": -76.9883565, "bike_id": "cefd3ae08b2e6ac534e071bafb9c5b34", "fusion_lat": 0.0, "name": "cefd3ae08b2e6ac534e071bafb9c5b34", "is_reserved": 0, "rental_uris": {"android": "https://dc.lft.to/lastmile_qr_scan", "ios": "https://dc.lft.to/lastmile_qr_scan"}, "fusion_lon": 0.0}, {"lat": 38.90119283333333, "is_disabled": 0, "type": "electric_scooter", "lon": -77.0435, "bike_id": "dfe7cdb0e9477ebd0dd754d5c9d7d740", "fusion_lat": 0.0, "name": "dfe7cdb0e9477ebd0dd754d5c9d7d740", "is_reserved": 0, "rental_uris": {"android": "https://dc.lft.to/lastmile_qr_scan", "ios": "https://dc.lft.to/lastmile_qr_scan"}, "fusion_lon": 0.0}, {"lat": 38.900706, "is_disabled": 0, "type": "electric_scooter", "lon": -77.04893716666666, "bike_id": "4a2cc67be6bf6dc384199072742c45dd", "fusion_lat": 0.0, "name": "4a2cc67be6bf6dc384199072742c45dd", "is_reserved": 0, "rental_uris": {"android": "https://dc.lft.to/lastmile_qr_scan", "ios": "https://dc.lft.to/lastmile_qr_scan"}, "fusion_lon": 0.0}, {"lat": 38.92592533333333, "is_disabled": 0, "type": "electric_scooter", "lon": -77.04397566666667, "bike_id": "b17aea822d119e0c47fc36e56551ce42", "fusion_lat": 0.0, "name": "b17aea822d119e0c47fc36e56551ce42", "is_reserved": 0, "rental_uris": {"android": "https://dc.lft.to/lastmile_qr_scan", "ios": "https://dc.lft.to/lastmile_qr_scan"}, "fusion_lon": 0.0}, {"lat": 38.902173, "is_disabled": 0, "type": "electric_scooter", "lon": -76.94591083333333, "bike_id": "42100d55ff8ede573ecbe44dc821c715", "fusion_lat": 0.0, "name": "42100d55ff8ede573ecbe44dc821c715", "is_reserved": 0, "rental_uris": {"android": "https://dc.lft.to/lastmile_qr_scan", "ios": "https://dc.lft.to/lastmile_qr_scan"}, "fusion_lon": 0.0}, {"lat": 38.928629, "is_disabled": 0, "type": "electric_scooter", "lon": -77.05448933333334, "bike_id": "9a2bf2555c193ddb03070efcdbc4e5b0", "fusion_lat": 0.0, "name": "9a2bf2555c193ddb03070efcdbc4e5b0", "is_reserved": 0, "rental_uris": {"android": "https://dc.lft.to/lastmile_qr_scan", "ios": "https://dc.lft.to/lastmile_qr_scan"}, "fusion_lon": 0.0}, {"lat": 38.919581666666666, "is_disabled": 0, "type": "electric_bike", "lon": -76.97272616666666, "bike_id": "fa57a9fc000198126b055b968152a0b1", "fusion_lat": 0.0, "name": "fa57a9fc000198126b055b968152a0b1", "is_reserved": 0, "rental_uris": {"android": "https://dc.lft.to/lastmile_qr_scan", "ios": "https://dc.lft.to/lastmile_qr_scan"}, "fusion_lon": 0.0}, {"lat": 38.93009516666667, "is_disabled": 0, "type": "electric_bike", "lon": -77.216478, "bike_id": "4587273b17f33356a2802ce6cf3b6819", "fusion_lat": 0.0, "name": "4587273b17f33356a2802ce6cf3b6819", "is_reserved": 0, "rental_uris": {"android": "https://dc.lft.to/lastmile_qr_scan", "ios": "https://dc.lft.to/lastmile_qr_scan"}, "fusion_lon": 0.0}, {"lat": 38.928512166666664, "is_disabled": 0, "type": "electric_scooter", "lon": -77.03732833333333, "bike_id": "2208ea197420ec2d565a8fb0440f4c5a", "fusion_lat": 0.0, "name": "2208ea197420ec2d565a8fb0440f4c5a", "is_reserved": 0, "rental_uris": {"android": "https://dc.lft.to/lastmile_qr_scan", "ios": "https://dc.lft.to/lastmile_qr_scan"}, "fusion_lon": 0.0}, {"lat": 38.9471395, "is_disabled": 0, "type": "electric_scooter", "lon": -77.02261416666667, "bike_id": "a33305e0ee106950f8c919159bfdb4f1", "fusion_lat": 0.0, "name": "a33305e0ee106950f8c919159bfdb4f1", "is_reserved": 0, "rental_uris": {"android": "https://dc.lft.to/lastmile_qr_scan", "ios": "https://dc.lft.to/lastmile_qr_scan"}, "fusion_lon": 0.0}, {"lat": 38.89786183333333, "is_disabled": 0, "type": "electric_scooter", "lon": -77.04363316666667, "bike_id": "6e27bd425efd73d23f27ec4b1e13d3b5", "fusion_lat": 0.0, "name": "6e27bd425efd73d23f27ec4b1e13d3b5", "is_reserved": 0, "rental_uris": {"android": "https://dc.lft.to/lastmile_qr_scan", "ios": "https://dc.lft.to/lastmile_qr_scan"}, "fusion_lon": 0.0}, {"lat": 38.90144383333333, "is_disabled": 0, "type": "electric_bike", "lon": -76.9864425, "bike_id": "57734b3dc89e3ebd8a21d8253d15c0de", "fusion_lat": 0.0, "name": "57734b3dc89e3ebd8a21d8253d15c0de", "is_reserved": 0, "rental_uris": {"android": "https://dc.lft.to/lastmile_qr_scan", "ios": "https://dc.lft.to/lastmile_qr_scan"}, "fusion_lon": 0.0}, {"lat": 38.91423, "is_disabled": 0, "type": "electric_scooter", "lon": -77.005047, "bike_id": "b2450033741285a2a4de9ad03a1d02ff", "fusion_lat": 0.0, "name": "b2450033741285a2a4de9ad03a1d02ff", "is_reserved": 0, "rental_uris": {"android": "https://dc.lft.to/lastmile_qr_scan", "ios": "https://dc.lft.to/lastmile_qr_scan"}, "fusion_lon": 0.0}, {"lat": 38.89898383333333, "is_disabled": 0, "type": "electric_scooter", "lon": -76.93362116666667, "bike_id": "47c8142ef5510953d408cd8da7499ce7", "fusion_lat": 0.0, "name": "47c8142ef5510953d408cd8da7499ce7", "is_reserved": 0, "rental_uris": {"android": "https://dc.lft.to/lastmile_qr_scan", "ios": "https://dc.lft.to/lastmile_qr_scan"}, "fusion_lon": 0.0}, {"lat": 38.9155255, "is_disabled": 0, "type": "electric_scooter", "lon": -77.0378885, "bike_id": "a75eb4f38882a7909ee853608549392a", "fusion_lat": 0.0, "name": "a75eb4f38882a7909ee853608549392a", "is_reserved": 0, "rental_uris": {"android": "https://dc.lft.to/lastmile_qr_scan", "ios": "https://dc.lft.to/lastmile_qr_scan"}, "fusion_lon": 0.0}, {"lat": 38.9062225, "is_disabled": 0, "type": "electric_scooter", "lon": -76.98982883333333, "bike_id": "6d927db1de20d84d12a69a0ce5af016c", "fusion_lat": 0.0, "name": "6d927db1de20d84d12a69a0ce5af016c", "is_reserved": 0, "rental_uris": {"android": "https://dc.lft.to/lastmile_qr_scan", "ios": "https://dc.lft.to/lastmile_qr_scan"}, "fusion_lon": 0.0}, {"lat": 38.90858816666667, "is_disabled": 0, "type": "electric_scooter", "lon": -76.99164083333334, "bike_id": "33c0e6639b8dc53789b6e08f73e15f8f", "fusion_lat": 0.0, "name": "33c0e6639b8dc53789b6e08f73e15f8f", "is_reserved": 0, "rental_uris": {"android": "https://dc.lft.to/lastmile_qr_scan", "ios": "https://dc.lft.to/lastmile_qr_scan"}, "fusion_lon": 0.0}, {"lat": 39.052019333333334, "is_disabled": 0, "type": "electric_bike", "lon": -77.10910083333333, "bike_id": "100307445d9d4b9ca49436506e7d9de6", "fusion_lat": 0.0, "name": "100307445d9d4b9ca49436506e7d9de6", "is_reserved": 0, "rental_uris": {"android": "https://dc.lft.to/lastmile_qr_scan", "ios": "https://dc.lft.to/lastmile_qr_scan"}, "fusion_lon": 0.0}, {"lat": 38.9275175, "is_disabled": 0, "type": "electric_scooter", "lon": -77.0253645, "bike_id": "48d819c67e62b7838744202480ba419f", "fusion_lat": 0.0, "name": "48d819c67e62b7838744202480ba419f", "is_reserved": 0, "rental_uris": {"android": "https://dc.lft.to/lastmile_qr_scan", "ios": "https://dc.lft.to/lastmile_qr_scan"}, "fusion_lon": 0.0}, {"lat": 38.8590715, "is_disabled": 0, "type": "electric_scooter", "lon": -76.99148666666666, "bike_id": "f5783a33f70da1b042e680be610ad09d", "fusion_lat": 0.0, "name": "f5783a33f70da1b042e680be610ad09d", "is_reserved": 0, "rental_uris": {"android": "https://dc.lft.to/lastmile_qr_scan", "ios": "https://dc.lft.to/lastmile_qr_scan"}, "fusion_lon": 0.0}, {"lat": 38.8911675, "is_disabled": 0, "type": "electric_scooter", "lon": -76.94386933333334, "bike_id": "157b13011dec23dea8ed59c452b1cdf4", "fusion_lat": 0.0, "name": "157b13011dec23dea8ed59c452b1cdf4", "is_reserved": 0, "rental_uris": {"android": "https://dc.lft.to/lastmile_qr_scan", "ios": "https://dc.lft.to/lastmile_qr_scan"}, "fusion_lon": 0.0}, {"lat": 38.9003855, "is_disabled": 0, "type": "electric_scooter", "lon": -76.99374566666667, "bike_id": "8a4d0868cf7498a0a6e704456e0638ca", "fusion_lat": 0.0, "name": "8a4d0868cf7498a0a6e704456e0638ca", "is_reserved": 0, "rental_uris": {"android": "https://dc.lft.to/lastmile_qr_scan", "ios": "https://dc.lft.to/lastmile_qr_scan"}, "fusion_lon": 0.0}, {"lat": 38.90040616666667, "is_disabled": 0, "type": "electric_scooter", "lon": -77.00193616666667, "bike_id": "3d3a2edf7df9f774828ec4714413b60f", "fusion_lat": 0.0, "name": "3d3a2edf7df9f774828ec4714413b60f", "is_reserved": 0, "rental_uris": {"android": "https://dc.lft.to/lastmile_qr_scan", "ios": "https://dc.lft.to/lastmile_qr_scan"}, "fusion_lon": 0.0}, {"lat": 38.86648266666667, "is_disabled": 0, "type": "electric_scooter", "lon": -76.9888095, "bike_id": "1df018d3f4dd29b0ebc673650700cae0", "fusion_lat": 0.0, "name": "1df018d3f4dd29b0ebc673650700cae0", "is_reserved": 0, "rental_uris": {"android": "https://dc.lft.to/lastmile_qr_scan", "ios": "https://dc.lft.to/lastmile_qr_scan"}, "fusion_lon": 0.0}, {"lat": 38.952796166666666, "is_disabled": 0, "type": "electric_scooter", "lon": -77.06876383333334, "bike_id": "937af4ccad3110143cfe8792b6fcab18", "fusion_lat": 0.0, "name": "937af4ccad3110143cfe8792b6fcab18", "is_reserved": 0, "rental_uris": {"android": "https://dc.lft.to/lastmile_qr_scan", "ios": "https://dc.lft.to/lastmile_qr_scan"}, "fusion_lon": 0.0}, {"lat": 38.896257, "is_disabled": 0, "type": "electric_scooter", "lon": -77.04487916666666, "bike_id": "9bea91cbd0b9d0af51a1f7567e9e7e28", "fusion_lat": 0.0, "name": "9bea91cbd0b9d0af51a1f7567e9e7e28", "is_reserved": 0, "rental_uris": {"android": "https://dc.lft.to/lastmile_qr_scan", "ios": "https://dc.lft.to/lastmile_qr_scan"}, "fusion_lon": 0.0}, {"lat": 38.915564833333335, "is_disabled": 0, "type": "electric_scooter", "lon": -77.0531485, "bike_id": "d6d1bd906b2112c5cb9792b15b544a89", "fusion_lat": 0.0, "name": "d6d1bd906b2112c5cb9792b15b544a89", "is_reserved": 0, "rental_uris": {"android": "https://dc.lft.to/lastmile_qr_scan", "ios": "https://dc.lft.to/lastmile_qr_scan"}, "fusion_lon": 0.0}, {"lat": 38.92746483333333, "is_disabled": 0, "type": "electric_scooter", "lon": -76.9972075, "bike_id": "8e73e954f5a0d6a0c0037e9600cf391e", "fusion_lat": 0.0, "name": "8e73e954f5a0d6a0c0037e9600cf391e", "is_reserved": 0, "rental_uris": {"android": "https://dc.lft.to/lastmile_qr_scan", "ios": "https://dc.lft.to/lastmile_qr_scan"}, "fusion_lon": 0.0}, {"lat": 38.93839333333333, "is_disabled": 0, "type": "electric_bike", "lon": -76.98858, "bike_id": "d76e40f8db89961a29be2bf6f7cd9766", "fusion_lat": 0.0, "name": "d76e40f8db89961a29be2bf6f7cd9766", "is_reserved": 0, "rental_uris": {"android": "https://dc.lft.to/lastmile_qr_scan", "ios": "https://dc.lft.to/lastmile_qr_scan"}, "fusion_lon": 0.0}, {"lat": 38.86366, "is_disabled": 0, "type": "electric_scooter", "lon": -76.9903545, "bike_id": "c9de6da4ec99c3501a517dd1101bdfd2", "fusion_lat": 0.0, "name": "c9de6da4ec99c3501a517dd1101bdfd2", "is_reserved": 0, "rental_uris": {"android": "https://dc.lft.to/lastmile_qr_scan", "ios": "https://dc.lft.to/lastmile_qr_scan"}, "fusion_lon": 0.0}, {"lat": 38.911029666666664, "is_disabled": 0, "type": "electric_scooter", "lon": -77.04250266666666, "bike_id": "5b9a87e1ba81331015380cb3dc17f718", "fusion_lat": 0.0, "name": "5b9a87e1ba81331015380cb3dc17f718", "is_reserved": 0, "rental_uris": {"android": "https://dc.lft.to/lastmile_qr_scan", "ios": "https://dc.lft.to/lastmile_qr_scan"}, "fusion_lon": 0.0}, {"lat": 38.9077265, "is_disabled": 0, "type": "electric_scooter", "lon": -77.035436, "bike_id": "24fd591473b6ccbed7a62d41c5c76175", "fusion_lat": 0.0, "name": "24fd591473b6ccbed7a62d41c5c76175", "is_reserved": 0, "rental_uris": {"android": "https://dc.lft.to/lastmile_qr_scan", "ios": "https://dc.lft.to/lastmile_qr_scan"}, "fusion_lon": 0.0}, {"lat": 38.917098, "is_disabled": 0, "type": "electric_scooter", "lon": -77.03724333333334, "bike_id": "d14439f82624628d7f62532e82a5849b", "fusion_lat": 0.0, "name": "d14439f82624628d7f62532e82a5849b", "is_reserved": 0, "rental_uris": {"android": "https://dc.lft.to/lastmile_qr_scan", "ios": "https://dc.lft.to/lastmile_qr_scan"}, "fusion_lon": 0.0}, {"lat": 38.9181565, "is_disabled": 0, "type": "electric_scooter", "lon": -77.02474316666667, "bike_id": "b886f6aebd75e031096f6a21a404be15", "fusion_lat": 0.0, "name": "b886f6aebd75e031096f6a21a404be15", "is_reserved": 0, "rental_uris": {"android": "https://dc.lft.to/lastmile_qr_scan", "ios": "https://dc.lft.to/lastmile_qr_scan"}, "fusion_lon": 0.0}, {"lat": 39.03046333333333, "is_disabled": 0, "type": "electric_bike", "lon": -77.094788, "bike_id": "6cae534ae5ff683e013157973d8897d4", "fusion_lat": 0.0, "name": "6cae534ae5ff683e013157973d8897d4", "is_reserved": 0, "rental_uris": {"android": "https://dc.lft.to/lastmile_qr_scan", "ios": "https://dc.lft.to/lastmile_qr_scan"}, "fusion_lon": 0.0}, {"lat": 38.9077275, "is_disabled": 0, "type": "electric_scooter", "lon": -77.0386005, "bike_id": "63c7f9cbd1eacb32686d545533683466", "fusion_lat": 0.0, "name": "63c7f9cbd1eacb32686d545533683466", "is_reserved": 0, "rental_uris": {"android": "https://dc.lft.to/lastmile_qr_scan", "ios": "https://dc.lft.to/lastmile_qr_scan"}, "fusion_lon": 0.0}, {"lat": 38.91601216666667, "is_disabled": 0, "type": "electric_scooter", "lon": -77.03848566666667, "bike_id": "2225f6d04aba2a74924b69da56d19072", "fusion_lat": 0.0, "name": "2225f6d04aba2a74924b69da56d19072", "is_reserved": 0, "rental_uris": {"android": "https://dc.lft.to/lastmile_qr_scan", "ios": "https://dc.lft.to/lastmile_qr_scan"}, "fusion_lon": 0.0}, {"lat": 38.9135045, "is_disabled": 0, "type": "electric_scooter", "lon": -77.04595916666666, "bike_id": "b47d8432c903d87d0b409d69d0801dbd", "fusion_lat": 0.0, "name": "b47d8432c903d87d0b409d69d0801dbd", "is_reserved": 0, "rental_uris": {"android": "https://dc.lft.to/lastmile_qr_scan", "ios": "https://dc.lft.to/lastmile_qr_scan"}, "fusion_lon": 0.0}, {"lat": 38.885109166666666, "is_disabled": 0, "type": "electric_scooter", "lon": -77.00679566666666, "bike_id": "5f425948a61e9b48478ca3f884b13594", "fusion_lat": 0.0, "name": "5f425948a61e9b48478ca3f884b13594", "is_reserved": 0, "rental_uris": {"android": "https://dc.lft.to/lastmile_qr_scan", "ios": "https://dc.lft.to/lastmile_qr_scan"}, "fusion_lon": 0.0}, {"lat": 38.88655116666666, "is_disabled": 0, "type": "electric_bike", "lon": -77.16231966666666, "bike_id": "f11dccd70697f443e5b34cee1e8ce5c3", "fusion_lat": 0.0, "name": "f11dccd70697f443e5b34cee1e8ce5c3", "is_reserved": 0, "rental_uris": {"android": "https://dc.lft.to/lastmile_qr_scan", "ios": "https://dc.lft.to/lastmile_qr_scan"}, "fusion_lon": 0.0}, {"lat": 38.91287166666667, "is_disabled": 0, "type": "electric_scooter", "lon": -77.02383583333334, "bike_id": "42fb7e923ff4c75aea71c22a2aa28e38", "fusion_lat": 0.0, "name": "42fb7e923ff4c75aea71c22a2aa28e38", "is_reserved": 0, "rental_uris": {"android": "https://dc.lft.to/lastmile_qr_scan", "ios": "https://dc.lft.to/lastmile_qr_scan"}, "fusion_lon": 0.0}, {"lat": 38.915474, "is_disabled": 0, "type": "electric_scooter", "lon": -77.03802983333334, "bike_id": "cde3f0de2fa5d9d2a56260d9011e6d33", "fusion_lat": 0.0, "name": "cde3f0de2fa5d9d2a56260d9011e6d33", "is_reserved": 0, "rental_uris": {"android": "https://dc.lft.to/lastmile_qr_scan", "ios": "https://dc.lft.to/lastmile_qr_scan"}, "fusion_lon": 0.0}, {"lat": 38.9011005, "is_disabled": 0, "type": "electric_scooter", "lon": -76.99550266666667, "bike_id": "53d436a196e5673fe92a41daffa91f49", "fusion_lat": 0.0, "name": "53d436a196e5673fe92a41daffa91f49", "is_reserved": 0, "rental_uris": {"android": "https://dc.lft.to/lastmile_qr_scan", "ios": "https://dc.lft.to/lastmile_qr_scan"}, "fusion_lon": 0.0}, {"lat": 38.93883683333333, "is_disabled": 0, "type": "electric_scooter", "lon": -77.03283933333333, "bike_id": "f225dc1cc977c79055044700611e7588", "fusion_lat": 0.0, "name": "f225dc1cc977c79055044700611e7588", "is_reserved": 0, "rental_uris": {"android": "https://dc.lft.to/lastmile_qr_scan", "ios": "https://dc.lft.to/lastmile_qr_scan"}, "fusion_lon": 0.0}, {"lat": 38.900651333333336, "is_disabled": 0, "type": "electric_scooter", "lon": -77.002071, "bike_id": "e9b31a24ff0668aaebdf38063741570d", "fusion_lat": 0.0, "name": "e9b31a24ff0668aaebdf38063741570d", "is_reserved": 0, "rental_uris": {"android": "https://dc.lft.to/lastmile_qr_scan", "ios": "https://dc.lft.to/lastmile_qr_scan"}, "fusion_lon": 0.0}, {"lat": 38.9041795, "is_disabled": 0, "type": "electric_scooter", "lon": -77.06888783333333, "bike_id": "c1e152b9e1a32f77f2bd8c859f781cdd", "fusion_lat": 0.0, "name": "c1e152b9e1a32f77f2bd8c859f781cdd", "is_reserved": 0, "rental_uris": {"android": "https://dc.lft.to/lastmile_qr_scan", "ios": "https://dc.lft.to/lastmile_qr_scan"}, "fusion_lon": 0.0}, {"lat": 38.91724583333333, "is_disabled": 0, "type": "electric_scooter", "lon": -77.00210383333334, "bike_id": "fd5c3e634ca125f0a1c881771fd3c487", "fusion_lat": 0.0, "name": "fd5c3e634ca125f0a1c881771fd3c487", "is_reserved": 0, "rental_uris": {"android": "https://dc.lft.to/lastmile_qr_scan", "ios": "https://dc.lft.to/lastmile_qr_scan"}, "fusion_lon": 0.0}, {"lat": 38.91887, "is_disabled": 0, "type": "electric_scooter", "lon": -77.039005, "bike_id": "fb535089659f6f7d4342c748389fadbe", "fusion_lat": 0.0, "name": "fb535089659f6f7d4342c748389fadbe", "is_reserved": 0, "rental_uris": {"android": "https://dc.lft.to/lastmile_qr_scan", "ios": "https://dc.lft.to/lastmile_qr_scan"}, "fusion_lon": 0.0}, {"lat": 38.92050733333333, "is_disabled": 0, "type": "electric_scooter", "lon": -77.03388933333333, "bike_id": "c82ea04f894321ec44a62cc72d32e4a0", "fusion_lat": 0.0, "name": "c82ea04f894321ec44a62cc72d32e4a0", "is_reserved": 0, "rental_uris": {"android": "https://dc.lft.to/lastmile_qr_scan", "ios": "https://dc.lft.to/lastmile_qr_scan"}, "fusion_lon": 0.0}, {"lat": 38.904529, "is_disabled": 0, "type": "electric_scooter", "lon": -76.99456416666666, "bike_id": "c036647815181df2150518fda78a891d", "fusion_lat": 0.0, "name": "c036647815181df2150518fda78a891d", "is_reserved": 0, "rental_uris": {"android": "https://dc.lft.to/lastmile_qr_scan", "ios": "https://dc.lft.to/lastmile_qr_scan"}, "fusion_lon": 0.0}, {"lat": 38.916024166666666, "is_disabled": 0, "type": "electric_scooter", "lon": -77.03853483333333, "bike_id": "f757ea36ad702c03dfde93c7bfd85c15", "fusion_lat": 0.0, "name": "f757ea36ad702c03dfde93c7bfd85c15", "is_reserved": 0, "rental_uris": {"android": "https://dc.lft.to/lastmile_qr_scan", "ios": "https://dc.lft.to/lastmile_qr_scan"}, "fusion_lon": 0.0}, {"lat": 38.91723733333333, "is_disabled": 0, "type": "electric_scooter", "lon": -77.02289, "bike_id": "c302e4424ae4badc57a7a677112cc090", "fusion_lat": 0.0, "name": "c302e4424ae4badc57a7a677112cc090", "is_reserved": 0, "rental_uris": {"android": "https://dc.lft.to/lastmile_qr_scan", "ios": "https://dc.lft.to/lastmile_qr_scan"}, "fusion_lon": 0.0}, {"lat": 38.904732833333334, "is_disabled": 0, "type": "electric_scooter", "lon": -77.0402625, "bike_id": "7a82e1e6a53e597b2355b1671196a212", "fusion_lat": 0.0, "name": "7a82e1e6a53e597b2355b1671196a212", "is_reserved": 0, "rental_uris": {"android": "https://dc.lft.to/lastmile_qr_scan", "ios": "https://dc.lft.to/lastmile_qr_scan"}, "fusion_lon": 0.0}, {"lat": 38.912605, "is_disabled": 0, "type": "electric_scooter", "lon": -77.03805266666667, "bike_id": "8e7da46183fd0c1a6ad09dc142fb127f", "fusion_lat": 0.0, "name": "8e7da46183fd0c1a6ad09dc142fb127f", "is_reserved": 0, "rental_uris": {"android": "https://dc.lft.to/lastmile_qr_scan", "ios": "https://dc.lft.to/lastmile_qr_scan"}, "fusion_lon": 0.0}, {"lat": 38.90526333333333, "is_disabled": 0, "type": "electric_scooter", "lon": -77.06059966666666, "bike_id": "e746e7d9c3fd2f4d626246be3ba4c520", "fusion_lat": 0.0, "name": "e746e7d9c3fd2f4d626246be3ba4c520", "is_reserved": 0, "rental_uris": {"android": "https://dc.lft.to/lastmile_qr_scan", "ios": "https://dc.lft.to/lastmile_qr_scan"}, "fusion_lon": 0.0},