{"data": {"bikes": [{"fusion_lat": 0.0, "lon": -77.00748283333333, "is_reserved": 0, "bike_id": "0f4fe1a85801ed1557e568dfb2bf4108", "fusion_lon": 0.0, "rental_uris": {"android": "https://dc.lft.to/lastmile_qr_scan", "ios": "https://dc.lft.to/lastmile_qr_scan"}, "name": "0f4fe1a85801ed1557e568dfb2bf4108", "type": "electric_scooter", "lat": 38.92678516666667, "is_disabled": 0}, {"fusion_lat": 0.0, "lon": -77.02797333333334, "is_reserved": 0, "bike_id": "ef895356eb51f85e64f796249e554144", "fusion_lon": 0.0, "rental_uris": {"android": "https://dc.lft.to/lastmile_qr_scan", "ios": "https://dc.lft.to/lastmile_qr_scan"}, "name": "ef895356eb51f85e64f796249e554144", "type": "electric_scooter", "lat": 38.89230233333333, "is_disabled": 0}, {"fusion_lat": 0.0, "lon": -76.9656345, "is_reserved": 0, "bike_id": "d958c5f82f04a6443a9637415a82d374", "fusion_lon": 0.0, "rental_uris": {"android": "https://dc.lft.to/lastmile_qr_scan", "ios": "https://dc.lft.to/lastmile_qr_scan"}, "name": "d958c5f82f04a6443a9637415a82d374", "type": "electric_bike", "lat": 38.87382366666667, "is_disabled": 0}, {"fusion_lat": 0.0, "lon": -77.02899533333333, "is_reserved": 0, "bike_id": "9fffc1a07edcc7f63e0fc2a8c499a0f2", "fusion_lon": 0.0, "rental_uris": {"android": "https://dc.lft.to/lastmile_qr_scan", "ios": "https://dc.lft.to/lastmile_qr_scan"}, "name": "9fffc1a07edcc7f63e0fc2a8c499a0f2", "type": "electric_scooter", "lat": 38.940359, "is_disabled": 0}, {"fusion_lat": 0.0, "lon": -77.04323716666667, "is_reserved": 0, "bike_id": "9a5a58b9a37d4544082ed4a28908b2c9", "fusion_lon": 0.0, "rental_uris": {"android": "https://dc.lft.to/lastmile_qr_scan", "ios": "https://dc.lft.to/lastmile_qr_scan"}, "name": "9a5a58b9a37d4544082ed4a28908b2c9", "type": "electric_scooter", "lat": 38.90772533333333, "is_disabled": 0}, {"fusion_lat": 0.0, "lon": -77.02898183333333, "is_reserved": 0, "bike_id": "d2ab7553cee043f28fdce6a968222fac", "fusion_lon": 0.0, "rental_uris": {"android": "https://dc.lft.to/lastmile_qr_scan", "ios": "https://dc.lft.to/lastmile_qr_scan"}, "name": "d2ab7553cee043f28fdce6a968222fac", "type": "electric_scooter", "lat": 38.9613225, "is_disabled": 0}, {"fusion_lat": 0.0, "lon": -77.03505966666667, "is_reserved": 0, "bike_id": "b36b9389fbfccf84de49011e55142e80", "fusion_lon": 0.0, "rental_uris": {"android": "https://dc.lft.to/lastmile_qr_scan", "ios": "https://dc.lft.to/lastmile_qr_scan"}, "name": "b36b9389fbfccf84de49011e55142e80", "type": "electric_scooter", "lat": 38.91873066666667, "is_disabled": 0}, {"fusion_lat": 0.0, "lon": -76.99898033333334, "is_reserved": 0, "bike_id": "84573acff534ace816e7a7799e003b2a", "fusion_lon": 0.0, "rental_uris": {"android": "https://dc.lft.to/lastmile_qr_scan", "ios": "https://dc.lft.to/lastmile_qr_scan"}, "name": "84573acff534ace816e7a7799e003b2a", "type": "electric_scooter", "lat": 38.9245895, "is_disabled": 0}, {"fusion_lat": 0.0, "lon": -77.029236, "is_reserved": 0, "bike_id": "99cf48f8c1d2137edfed5dcebe4f2f9d", "fusion_lon": 0.0, "rental_uris": {"android": "https://dc.lft.to/lastmile_qr_scan", "ios": "https://dc.lft.to/lastmile_qr_scan"}, "name": "99cf48f8c1d2137edfed5dcebe4f2f9d", "type": "electric_scooter", "lat": 38.903749, "is_disabled": 0}, {"fusion_lat": 0.0, "lon": -77.05306983333334, "is_reserved": 0, "bike_id": "dea4484078e38a5ab648bff7642489c9", "fusion_lon": 0.0, "rental_uris": {"android": "https://dc.lft.to/lastmile_qr_scan", "ios": "https://dc.lft.to/lastmile_qr_scan"}, "name": "dea4484078e38a5ab648bff7642489c9", "type": "electric_scooter", "lat": 38.898560333333336, "is_disabled": 0}, {"fusion_lat": 0.0, "lon": -77.01215383333333, "is_reserved": 0, "bike_id": "20336711b2e263ab72da2dd508ade4ab", "fusion_lon": 0.0, "rental_uris": {"android": "https://dc.lft.to/lastmile_qr_scan", "ios": "https://dc.lft.to/lastmile_qr_scan"}, "name": "20336711b2e263ab72da2dd508ade4ab", "type": "electric_scooter", "lat": 38.915192833333336, "is_disabled": 0}, {"fusion_lat": 0.0, "lon": -77.029499, "is_reserved": 0, "bike_id": "ebed9d9780e27ac44108e17663384640", "fusion_lon": 0.0, "rental_uris": {"android": "https://dc.lft.to/lastmile_qr_scan", "ios": "https://dc.lft.to/lastmile_qr_scan"}, "name": "ebed9d9780e27ac44108e17663384640", "type": "electric_scooter", "lat": 38.92172433333333, "is_disabled": 0}, {"fusion_lat": 0.0, "lon": -77.03339133333333, "is_reserved": 0, "bike_id": "23bfab44e802f4f70dd295f6ce94c3ef", "fusion_lon": 0.0, "rental_uris": {"android": "https://dc.lft.to/lastmile_qr_scan", "ios": "https://dc.lft.to/lastmile_qr_scan"}, "name": "23bfab44e802f4f70dd295f6ce94c3ef", "type": "electric_scooter", "lat": 38.917153, "is_disabled": 0}, {"fusion_lat": 0.0, "lon": -76.978565, "is_reserved": 0, "bike_id": "85c3b5489964b5697a948d6fab078cd7", "fusion_lon": 0.0, "rental_uris": {"android": "https://dc.lft.to/lastmile_qr_scan", "ios": "https://dc.lft.to/lastmile_qr_scan"}, "name": "85c3b5489964b5697a948d6fab078cd7", "type": "electric_scooter", "lat": 38.870749, "is_disabled": 0}, {"fusion_lat": 0.0, "lon": -77.0387085, "is_reserved": 0, "bike_id": "ddcc12aa82c1440b0c277d224af6d551", "fusion_lon": 0.0, "rental_uris": {"android": "https://dc.lft.to/lastmile_qr_scan", "ios": "https://dc.lft.to/lastmile_qr_scan"}, "name": "ddcc12aa82c1440b0c277d224af6d551", "type": "electric_scooter", "lat": 38.9065935, "is_disabled": 0}, {"fusion_lat": 0.0, "lon": -77.027927, "is_reserved": 0, "bike_id": "dce3456699cf05d7bf90cacb2397d157", "fusion_lon": 0.0, "rental_uris": {"android": "https://dc.lft.to/lastmile_qr_scan", "ios": "https://dc.lft.to/lastmile_qr_scan"}, "name": "dce3456699cf05d7bf90cacb2397d157", "type": "electric_scooter", "lat": 38.930798833333334, "is_disabled": 0}, {"fusion_lat": 0.0, "lon": -77.01081816666667, "is_reserved": 0, "bike_id": "4f58c7c52b20336fbd865bf45f292c5a", "fusion_lon": 0.0, "rental_uris": {"android": "https://dc.lft.to/lastmile_qr_scan", "ios": "https://dc.lft.to/lastmile_qr_scan"}, "name": "4f58c7c52b20336fbd865bf45f292c5a", "type": "electric_scooter", "lat": 38.907943333333336, "is_disabled": 0}, {"fusion_lat": 0.0, "lon": -76.99326616666667, "is_reserved": 0, "bike_id": "39df1eae0a45ff9ca5fa905a06adfb31", "fusion_lon": 0.0, "rental_uris": {"android": "https://dc.lft.to/lastmile_qr_scan", "ios": "https://dc.lft.to/lastmile_qr_scan"}, "name": "39df1eae0a45ff9ca5fa905a06adfb31", "type": "electric_bike", "lat": 38.89361266666667, "is_disabled": 0}, {"fusion_lat": 0.0, "lon": -77.03282333333334, "is_reserved": 0, "bike_id": "cb5e6cff3096c66af680ee00320bdece", "fusion_lon": 0.0, "rental_uris": {"android": "https://dc.lft.to/lastmile_qr_scan", "ios": "https://dc.lft.to/lastmile_qr_scan"}, "name": "cb5e6cff3096c66af680ee00320bdece", "type": "electric_scooter", "lat": 38.935174333333336, "is_disabled": 0}, {"fusion_lat": 0.0, "lon": -77.07429433333333, "is_reserved": 0, "bike_id": "88cba9e4ade2a586aed25f55087b0624", "fusion_lon": 0.0, "rental_uris": {"android": "https://dc.lft.to/lastmile_qr_scan", "ios": "https://dc.lft.to/lastmile_qr_scan"}, "name": "88cba9e4ade2a586aed25f55087b0624", "type": "electric_bike", "lat": 38.9994375, "is_disabled": 0}, {"fusion_lat": 0.0, "lon": -77.00056283333333, "is_reserved": 0, "bike_id": "71ee43a46a8e19a4eb40036fe1e3182c", "fusion_lon": 0.0, "rental_uris": {"android": "https://dc.lft.to/lastmile_qr_scan", "ios": "https://dc.lft.to/lastmile_qr_scan"}, "name": "71ee43a46a8e19a4eb40036fe1e3182c", "type": "electric_scooter", "lat": 38.898337166666664, "is_disabled": 0}, {"fusion_lat": 0.0, "lon": -77.02284416666667, "is_reserved": 0, "bike_id": "0d049213d9af782174f0c09f9a97ba4e", "fusion_lon": 0.0, "rental_uris": {"android": "https://dc.lft.to/lastmile_qr_scan", "ios": "https://dc.lft.to/lastmile_qr_scan"}, "name": "0d049213d9af782174f0c09f9a97ba4e", "type": "electric_scooter", "lat": 38.898492166666664, "is_disabled": 0}, {"fusion_lat": 0.0, "lon": -77.03877616666666, "is_reserved": 0, "bike_id": "6f7ffde0a224804a3494ccecc8a4049b", "fusion_lon": 0.0, "rental_uris": {"android": "https://dc.lft.to/lastmile_qr_scan", "ios": "https://dc.lft.to/lastmile_qr_scan"}, "name": "6f7ffde0a224804a3494ccecc8a4049b", "type": "electric_scooter", "lat": 38.93118366666667, "is_disabled": 0}, {"fusion_lat": 0.0, "lon": -77.040249, "is_reserved": 0, "bike_id": "325aa6400aadb77b94e39881101f64a9", "fusion_lon": 0.0, "rental_uris": {"android": "https://dc.lft.to/lastmile_qr_scan", "ios": "https://dc.lft.to/lastmile_qr_scan"}, "name": "325aa6400aadb77b94e39881101f64a9", "type": "electric_scooter", "lat": 38.922425, "is_disabled": 0}, {"fusion_lat": 0.0, "lon": -77.03370383333333, "is_reserved": 0, "bike_id": "b320dc15878b092774e4ff939d1c9150", "fusion_lon": 0.0, "rental_uris": {"android": "https://dc.lft.to/lastmile_qr_scan", "ios": "https://dc.lft.to/lastmile_qr_scan"}, "name": "b320dc15878b092774e4ff939d1c9150", "type": "electric_scooter", "lat": 38.9082855, "is_disabled": 0}, {"fusion_lat": 0.0, "lon": -76.9871435, "is_reserved": 0, "bike_id": "937b4129fd35f2c8d6eb1fa0d0f0dadc", "fusion_lon": 0.0, "rental_uris": {"android": "https://dc.lft.to/lastmile_qr_scan", "ios": "https://dc.lft.to/lastmile_qr_scan"}, "name": "937b4129fd35f2c8d6eb1fa0d0f0dadc", "type": "electric_scooter", "lat": 38.86626716666667, "is_disabled": 0}, {"fusion_lat": 0.0, "lon": -77.02434966666667, "is_reserved": 0, "bike_id": "ec8fba15153fce7b5998cbe9e594cd07", "fusion_lon": 0.0, "rental_uris": {"android": "https://dc.lft.to/lastmile_qr_scan", "ios": "https://dc.lft.to/lastmile_qr_scan"}, "name": "ec8fba15153fce7b5998cbe9e594cd07", "type": "electric_scooter", "lat": 38.9271935, "is_disabled": 0}, {"fusion_lat": 0.0, "lon": -77.01488283333333, "is_reserved": 0, "bike_id": "136bf645fcc5132af19f4f2c92e7ee86", "fusion_lon": 0.0, "rental_uris": {"android": "https://dc.lft.to/lastmile_qr_scan", "ios": "https://dc.lft.to/lastmile_qr_scan"}, "name": "136bf645fcc5132af19f4f2c92e7ee86", "type": "electric_scooter", "lat": 38.886619833333334, "is_disabled": 0}, {"fusion_lat": 0.0, "lon": -76.99155033333334, "is_reserved": 0, "bike_id": "c42987510277052294df5246769968d5", "fusion_lon": 0.0, "rental_uris": {"android": "https://dc.lft.to/lastmile_qr_scan", "ios": "https://dc.lft.to/lastmile_qr_scan"}, "name": "c42987510277052294df5246769968d5", "type": "electric_scooter", "lat": 38.8632035, "is_disabled": 0}, {"fusion_lat": 0.0, "lon": -77.046216, "is_reserved": 0, "bike_id": "4d558dbfe8f0727d5546c5edc0bd4950", "fusion_lon": 0.0, "rental_uris": {"android": "https://dc.lft.to/lastmile_qr_scan", "ios": "https://dc.lft.to/lastmile_qr_scan"}, "name": "4d558dbfe8f0727d5546c5edc0bd4950", "type": "electric_scooter", "lat": 38.91614883333333, "is_disabled": 0}, {"fusion_lat": 0.0, "lon": -77.03297116666667, "is_reserved": 0, "bike_id": "dc5df6e91d502b7f9d00bfed178ea230", "fusion_lon": 0.0, "rental_uris": {"android": "https://dc.lft.to/lastmile_qr_scan", "ios": "https://dc.lft.to/lastmile_qr_scan"}, "name": "dc5df6e91d502b7f9d00bfed178ea230", "type": "electric_scooter", "lat": 38.92058883333333, "is_disabled": 0}, {"fusion_lat": 0.0, "lon": -77.01980466666667, "is_reserved": 0, "bike_id": "e54e571eb90672e5ed0ad1bfc5fce5da", "fusion_lon": 0.0, "rental_uris": {"android": "https://dc.lft.to/lastmile_qr_scan", "ios": "https://dc.lft.to/lastmile_qr_scan"}, "name": "e54e571eb90672e5ed0ad1bfc5fce5da", "type": "electric_scooter", "lat": 38.8871855, "is_disabled": 0}, {"fusion_lat": 0.0, "lon": -77.04249983333334, "is_reserved": 0, "bike_id": "1a30f87949496c7d3100f6654385b810", "fusion_lon": 0.0, "rental_uris": {"android": "https://dc.lft.to/lastmile_qr_scan", "ios": "https://dc.lft.to/lastmile_qr_scan"}, "name": "1a30f87949496c7d3100f6654385b810", "type": "electric_scooter", "lat": 38.90858866666667, "is_disabled": 0}, {"fusion_lat": 0.0, "lon": -77.04287366666667, "is_reserved": 0, "bike_id": "d6274ea799cfa7dc2ac16e314b14c504", "fusion_lon": 0.0, "rental_uris": {"android": "https://dc.lft.to/lastmile_qr_scan", "ios": "https://dc.lft.to/lastmile_qr_scan"}, "name": "d6274ea799cfa7dc2ac16e314b14c504", "type": "electric_scooter", "lat": 38.91655733333333, "is_disabled": 0}, {"fusion_lat": 0.0, "lon": -77.04450366666667, "is_reserved": 0, "bike_id": "6d9eb446e0c81d8bdecc94f043dc9c87", "fusion_lon": 0.0, "rental_uris": {"android": "https://dc.lft.to/lastmile_qr_scan", "ios": "https://dc.lft.to/lastmile_qr_scan"}, "name": "6d9eb446e0c81d8bdecc94f043dc9c87", "type": "electric_scooter", "lat": 38.923972666666664, "is_disabled": 0}, {"fusion_lat": 0.0, "lon": -77.027231, "is_reserved": 0, "bike_id": "5958e4f3464bea1b8685b72a363fbe95", "fusion_lon": 0.0, "rental_uris": {"android": "https://dc.lft.to/lastmile_qr_scan", "ios": "https://dc.lft.to/lastmile_qr_scan"}, "name": "5958e4f3464bea1b8685b72a363fbe95", "type": "electric_scooter", "lat": 38.9111745, "is_disabled": 0}, {"fusion_lat": 0.0, "lon": -77.03193233333333, "is_reserved": 0, "bike_id": "58d5acada3498860a933d110b7544899", "fusion_lon": 0.0, "rental_uris": {"android": "https://dc.lft.to/lastmile_qr_scan", "ios": "https://dc.lft.to/lastmile_qr_scan"}, "name": "58d5acada3498860a933d110b7544899", "type": "electric_scooter", "lat": 38.91574683333333, "is_disabled": 0}, {"fusion_lat": 0.0, "lon": -77.02648466666666, "is_reserved": 0, "bike_id": "ebc3aeda74bbc5815244b38a8b104541", "fusion_lon": 0.0, "rental_uris": {"android": "https://dc.lft.to/lastmile_qr_scan", "ios": "https://dc.lft.to/lastmile_qr_scan"}, "name": "ebc3aeda74bbc5815244b38a8b104541", "type": "electric_scooter", "lat": 38.89218016666667, "is_disabled": 0}, {"fusion_lat": 0.0, "lon": -77.03072083333333, "is_reserved": 0, "bike_id": "f2fd41aafdf12fd42aaa0f2fd0385445", "fusion_lon": 0.0, "rental_uris": {"android": "https://dc.lft.to/lastmile_qr_scan", "ios": "https://dc.lft.to/lastmile_qr_scan"}, "name": "f2fd41aafdf12fd42aaa0f2fd0385445", "type": "electric_scooter", "lat": 38.907608833333335, "is_disabled": 0}, {"fusion_lat": 0.0, "lon": -77.03630416666667, "is_reserved": 0, "bike_id": "300625e3282f9807ffb208ed610f2106", "fusion_lon": 0.0, "rental_uris": {"android": "https://dc.lft.to/lastmile_qr_scan", "ios": "https://dc.lft.to/lastmile_qr_scan"}, "name": "300625e3282f9807ffb208ed610f2106", "type": "electric_scooter", "lat": 38.937085, "is_disabled": 0}, {"fusion_lat": 0.0, "lon": -77.04625433333334, "is_reserved": 0, "bike_id": "b0dc727f3914a3e0a471723a84017487", "fusion_lon": 0.0, "rental_uris": {"android": "https://dc.lft.to/lastmile_qr_scan", "ios": "https://dc.lft.to/lastmile_qr_scan"}, "name": "b0dc727f3914a3e0a471723a84017487", "type": "electric_scooter", "lat": 38.923237, "is_disabled": 0}, {"fusion_lat": 0.0, "lon": -77.02442833333333, "is_reserved": 0, "bike_id": "52558f34a1f083eb830b1f9424ffd10f", "fusion_lon": 0.0, "rental_uris": {"android": "https://dc.lft.to/lastmile_qr_scan", "ios": "https://dc.lft.to/lastmile_qr_scan"}, "name": "52558f34a1f083eb830b1f9424ffd10f", "type": "electric_scooter", "lat": 38.89725283333333, "is_disabled": 0}, {"fusion_lat": 0.0, "lon": -77.0335405, "is_reserved": 0, "bike_id": "9d3e330257caa36985eb09d7153dc24c", "fusion_lon": 0.0, "rental_uris": {"android": "https://dc.lft.to/lastmile_qr_scan", "ios": "https://dc.lft.to/lastmile_qr_scan"}, "name": "9d3e330257caa36985eb09d7153dc24c", "type": "electric_scooter", "lat": 38.900205166666666, "is_disabled": 0}, {"fusion_lat": 0.0, "lon": -77.0431285, "is_reserved": 0, "bike_id": "07881fc0f0db011cd7671e3155c6ee07", "fusion_lon": 0.0, "rental_uris": {"android": "https://dc.lft.to/lastmile_qr_scan", "ios": "https://dc.lft.to/lastmile_qr_scan"}, "name": "07881fc0f0db011cd7671e3155c6ee07", "type": "electric_scooter", "lat": 38.90212016666667, "is_disabled": 0}, {"fusion_lat": 0.0, "lon": -77.02650283333334, "is_reserved": 0, "bike_id": "6d2ef7b8d069abcf8de3d9725855c2dc", "fusion_lon": 0.0, "rental_uris": {"android": "https://dc.lft.to/lastmile_qr_scan", "ios": "https://dc.lft.to/lastmile_qr_scan"}, "name": "6d2ef7b8d069abcf8de3d9725855c2dc", "type": "electric_bike", "lat": 38.98816033333333, "is_disabled": 0}, {"fusion_lat": 0.0, "lon": -77.022126, "is_reserved": 0, "bike_id": "702d1a11d2d42147f1c9ed500b00d369", "fusion_lon": 0.0, "rental_uris": {"android": "https://dc.lft.to/lastmile_qr_scan", "ios": "https://dc.lft.to/lastmile_qr_scan"}, "name": "702d1a11d2d42147f1c9ed500b00d369", "type": "electric_scooter", "lat": 38.90559233333333, "is_disabled": 0}, {"fusion_lat": 0.0, "lon": -76.99035933333333, "is_reserved": 0, "bike_id": "e1b85016318c2c20667d09eab962fe65", "fusion_lon": 0.0, "rental_uris": {"android": "https://dc.lft.to/lastmile_qr_scan", "ios": "https://dc.lft.to/lastmile_qr_scan"}, "name": "e1b85016318c2c20667d09eab962fe65", "type": "electric_bike", "lat": 38.865686333333336, "is_disabled": 0}, {"fusion_lat": 0.0, "lon": -77.04473116666666, "is_reserved": 0, "bike_id": "1a464771486815fa515e4298841f74e6", "fusion_lon": 0.0, "rental_uris": {"android": "https://dc.lft.to/lastmile_qr_scan", "ios": "https://dc.lft.to/lastmile_qr_scan"}, "name": "1a464771486815fa515e4298841f74e6", "type": "electric_scooter", "lat": 38.92143766666667, "is_disabled": 0}, {"fusion_lat": 0.0, "lon": -77.02690533333333, "is_reserved": 0, "bike_id": "fe5d486abfc43f3e07d56bc57d2bdedf", "fusion_lon": 0.0, "rental_uris": {"android": "https://dc.lft.to/lastmile_qr_scan", "ios": "https://dc.lft.to/lastmile_qr_scan"}, "name": "fe5d486abfc43f3e07d56bc57d2bdedf", "type": "electric_scooter", "lat": 38.902436333333334, "is_disabled": 0}, {"fusion_lat": 0.0, "lon": -77.03947816666667, "is_reserved": 0, "bike_id": "be6ee06135f17f6429da91a23179d2cb", "fusion_lon": 0.0, "rental_uris": {"android": "https://dc.lft.to/lastmile_qr_scan", "ios": "https://dc.lft.to/lastmile_qr_scan"}, "name": "be6ee06135f17f6429da91a23179d2cb", "type": "electric_scooter", "lat": 38.93152383333333, "is_disabled": 0}, {"fusion_lat": 0.0, "lon": -76.929367, "is_reserved": 0, "bike_id": "fc1504e7965ca7f0dd245dbc5928bf13", "fusion_lon": 0.0, "rental_uris": {"android": "https://dc.lft.to/lastmile_qr_scan", "ios": "https://dc.lft.to/lastmile_qr_scan"}, "name": "fc1504e7965ca7f0dd245dbc5928bf13", "type": "electric_scooter", "lat": 38.88385666666667, "is_disabled": 0}, {"fusion_lat": 0.0, "lon": -77.0351525, "is_reserved": 0, "bike_id": "580a364e832dbe511ed63254c3203bdc", "fusion_lon": 0.0, "rental_uris": {"android": "https://dc.lft.to/lastmile_qr_scan", "ios": "https://dc.lft.to/lastmile_qr_scan"}, "name": "580a364e832dbe511ed63254c3203bdc", "type": "electric_scooter", "lat": 38.934744, "is_disabled": 0}, {"fusion_lat": 0.0, "lon": -77.04715316666666, "is_reserved": 0, "bike_id": "163631bfa8c6d0113d12eecd578146fa", "fusion_lon": 0.0, "rental_uris": {"android": "https://dc.lft.to/lastmile_qr_scan", "ios": "https://dc.lft.to/lastmile_qr_scan"}, "name": "163631bfa8c6d0113d12eecd578146fa", "type": "electric_scooter", "lat": 38.90249466666667, "is_disabled": 0}, {"fusion_lat": 0.0, "lon": -76.9926365, "is_reserved": 0, "bike_id": "cd3249cfa64dfb68c8aa49c6c3b3d9a1", "fusion_lon": 0.0, "rental_uris": {"android": "https://dc.lft.to/lastmile_qr_scan", "ios": "https://dc.lft.to/lastmile_qr_scan"}, "name": "cd3249cfa64dfb68c8aa49c6c3b3d9a1", "type": "electric_scooter", "lat": 38.897658, "is_disabled": 0}, {"fusion_lat": 0.0, "lon": -76.97702933333333, "is_reserved": 0, "bike_id": "32905d04df3846e89df8d00a6d9c4460", "fusion_lon": 0.0, "rental_uris": {"android": "https://dc.lft.to/lastmile_qr_scan", "ios": "https://dc.lft.to/lastmile_qr_scan"}, "name": "32905d04df3846e89df8d00a6d9c4460", "type": "electric_scooter", "lat": 38.898976166666664, "is_disabled": 0}, {"fusion_lat": 0.0, "lon": -77.00779833333333, "is_reserved": 0, "bike_id": "0de39d66a708cbd88a5a4c82e16c6aab", "fusion_lon": 0.0, "rental_uris": {"android": "https://dc.lft.to/lastmile_qr_scan", "ios": "https://dc.lft.to/lastmile_qr_scan"}, "name": "0de39d66a708cbd88a5a4c82e16c6aab", "type": "electric_scooter", "lat": 38.89737066666667, "is_disabled": 0}, {"fusion_lat": 0.0, "lon": -77.0217565, "is_reserved": 0, "bike_id": "11a99e80cb32f1e1db7208e6aff70730", "fusion_lon": 0.0, "rental_uris": {"android": "https://dc.lft.to/lastmile_qr_scan", "ios": "https://dc.lft.to/lastmile_qr_scan"}, "name": "11a99e80cb32f1e1db7208e6aff70730", "type": "electric_scooter", "lat": 38.901876333333334, "is_disabled": 0}, {"fusion_lat": 0.0, "lon": -77.03464416666667, "is_reserved": 0, "bike_id": "2cefb7e8b56b8f76356ac14cc2598b9c", "fusion_lon": 0.0, "rental_uris": {"android": "https://dc.lft.to/lastmile_qr_scan", "ios": "https://dc.lft.to/lastmile_qr_scan"}, "name": "2cefb7e8b56b8f76356ac14cc2598b9c", "type": "electric_scooter", "lat": 38.92918983333333, "is_disabled": 0}, {"fusion_lat": 0.0, "lon": -77.004362, "is_reserved": 0, "bike_id": "50f8184d139ad3d031e39fe170bc5479", "fusion_lon": 0.0, "rental_uris": {"android": "https://dc.lft.to/lastmile_qr_scan", "ios": "https://dc.lft.to/lastmile_qr_scan"}, "name": "50f8184d139ad3d031e39fe170bc5479", "type": "electric_scooter", "lat": 38.876719333333334, "is_disabled": 0}, {"fusion_lat": 0.0, "lon": -77.02690083333333, "is_reserved": 0, "bike_id": "8fb32c1bff97917420e46c7b119276a6", "fusion_lon": 0.0, "rental_uris": {"android": "https://dc.lft.to/lastmile_qr_scan", "ios": "https://dc.lft.to/lastmile_qr_scan"}, "name": "8fb32c1bff97917420e46c7b119276a6", "type": "electric_scooter", "lat": 38.91135516666667, "is_disabled": 0}, {"fusion_lat": 0.0, "lon": -77.01069533333333, "is_reserved": 0, "bike_id": "a032e97c70935d5313aee9a71282c389", "fusion_lon": 0.0, "rental_uris": {"android": "https://dc.lft.to/lastmile_qr_scan", "ios": "https://dc.lft.to/lastmile_qr_scan"}, "name": "a032e97c70935d5313aee9a71282c389", "type": "electric_scooter", "lat": 38.912673, "is_disabled": 0}, {"fusion_lat": 0.0, "lon": -77.02871916666666, "is_reserved": 0, "bike_id": "f598f4a4db33c349a06886370cc32767", "fusion_lon": 0.0, "rental_uris": {"android": "https://dc.lft.to/lastmile_qr_scan", "ios": "https://dc.lft.to/lastmile_qr_scan"}, "name": "f598f4a4db33c349a06886370cc32767", "type": "electric_scooter", "lat": 38.92819383333333, "is_disabled": 0}, {"fusion_lat": 0.0, "lon": -77.0453895, "is_reserved": 0, "bike_id": "11107b278936f6d9ebf7f7bb5e3f70d8", "fusion_lon": 0.0, "rental_uris": {"android": "https://dc.lft.to/lastmile_qr_scan", "ios": "https://dc.lft.to/lastmile_qr_scan"}, "name": "11107b278936f6d9ebf7f7bb5e3f70d8", "type": "electric_scooter", "lat": 38.896055833333335, "is_disabled": 0}, {"fusion_lat": 0.0, "lon": -77.00767966666666, "is_reserved": 0, "bike_id": "7737ad84ad6a2e84508a1ecbca9caacf", "fusion_lon": 0.0, "rental_uris": {"android": "https://dc.lft.to/lastmile_qr_scan", "ios": "https://dc.lft.to/lastmile_qr_scan"}, "name": "7737ad84ad6a2e84508a1ecbca9caacf", "type": "electric_bike", "lat": 38.9838745, "is_disabled": 0}, {"fusion_lat": 0.0, "lon": -77.024911, "is_reserved": 0, "bike_id": "a97a8bb9c0626c5faf98df1a3b2171b8", "fusion_lon": 0.0, "rental_uris": {"android": "https://dc.lft.to/lastmile_qr_scan", "ios": "https://dc.lft.to/lastmile_qr_scan"}, "name": "a97a8bb9c0626c5faf98df1a3b2171b8", "type": "electric_scooter", "lat": 38.941809666666664, "is_disabled": 0}, {"fusion_lat": 0.0, "lon": -77.022671, "is_reserved": 0, "bike_id": "dda0f82134b27799e321d2daadb636d4", "fusion_lon": 0.0, "rental_uris": {"android": "https://dc.lft.to/lastmile_qr_scan", "ios": "https://dc.lft.to/lastmile_qr_scan"}, "name": "dda0f82134b27799e321d2daadb636d4", "type": "electric_scooter", "lat": 38.902103833333335, "is_disabled": 0}, {"fusion_lat": 0.0, "lon": -77.02087216666666, "is_reserved": 0, "bike_id": "b5c0a831175eef101e71c5712681682e", "fusion_lon": 0.0, "rental_uris": {"android": "https://dc.lft.to/lastmile_qr_scan", "ios": "https://dc.lft.to/lastmile_qr_scan"}, "name": "b5c0a831175eef101e71c5712681682e", "type": "electric_bike", "lat": 38.87668733333334, "is_disabled": 0}, {"fusion_lat": 0.0, "lon": -77.02692683333333, "is_reserved": 0, "bike_id": "5f3c34cee89b9b63d8dd7167c1ef07e9", "fusion_lon": 0.0, "rental_uris": {"android": "https://dc.lft.to/lastmile_qr_scan", "ios": "https://dc.lft.to/lastmile_qr_scan"}, "name": "5f3c34cee89b9b63d8dd7167c1ef07e9", "type": "electric_scooter", "lat": 38.926643166666665, "is_disabled": 0}, {"fusion_lat": 0.0, "lon": -77.03286983333334, "is_reserved": 0, "bike_id": "1f78d560e828ced0731b11b743225653", "fusion_lon": 0.0, "rental_uris": {"android": "https://dc.lft.to/lastmile_qr_scan", "ios": "https://dc.lft.to/lastmile_qr_scan"}, "name": "1f78d560e828ced0731b11b743225653", "type": "electric_scooter", "lat": 38.89850033333333, "is_disabled": 0}, {"fusion_lat": 0.0, "lon": -77.03807733333333, "is_reserved": 0, "bike_id": "369b7c0144e30d489670022b97385dd3", "fusion_lon": 0.0, "rental_uris": {"android": "https://dc.lft.to/lastmile_qr_scan", "ios": "https://dc.lft.to/lastmile_qr_scan"}, "name": "369b7c0144e30d489670022b97385dd3", "type": "electric_scooter", "lat": 38.915636666666664, "is_disabled": 0}, {"fusion_lat": 0.0, "lon": -76.99456616666667, "is_reserved": 0, "bike_id": "c7c20ed1f20bac0251020d4bd2b0cda2", "fusion_lon": 0.0, "rental_uris": {"android": "https://dc.lft.to/lastmile_qr_scan", "ios": "https://dc.lft.to/lastmile_qr_scan"}, "name": "c7c20ed1f20bac0251020d4bd2b0cda2", "type": "electric_scooter", "lat": 38.8621795, "is_disabled": 0}, {"fusion_lat": 0.0, "lon": -77.00925, "is_reserved": 0, "bike_id": "cd5aa6936aab8aef9c6a48e22174909b", "fusion_lon": 0.0, "rental_uris": {"android": "https://dc.lft.to/lastmile_qr_scan", "ios": "https://dc.lft.to/lastmile_qr_scan"}, "name": "cd5aa6936aab8aef9c6a48e22174909b", "type": "electric_scooter", "lat": 38.896075333333336, "is_disabled": 0}, {"fusion_lat": 0.0, "lon": -77.03334166666667, "is_reserved": 0, "bike_id": "a6df95e3c411ea732424579472c3114f", "fusion_lon": 0.0, "rental_uris": {"android": "https://dc.lft.to/lastmile_qr_scan", "ios": "https://dc.lft.to/lastmile_qr_scan"}, "name": "a6df95e3c411ea732424579472c3114f", "type": "electric_scooter", "lat": 38.91716, "is_disabled": 0}, {"fusion_lat": 0.0, "lon": -77.070691, "is_reserved": 0, "bike_id": "61c41851b9e94d1e0975d94cd5951190", "fusion_lon": 0.0, "rental_uris": {"android": "https://dc.lft.to/lastmile_qr_scan", "ios": "https://dc.lft.to/lastmile_qr_scan"}, "name": "61c41851b9e94d1e0975d94cd5951190", "type": "electric_scooter", "lat": 38.93169316666667, "is_disabled": 0}, {"fusion_lat": 0.0, "lon": -77.0270325, "is_reserved": 0, "bike_id": "b944f1dd477288019420426186c819ac", "fusion_lon": 0.0, "rental_uris": {"android": "https://dc.lft.to/lastmile_qr_scan", "ios": "https://dc.lft.to/lastmile_qr_scan"}, "name": "b944f1dd477288019420426186c819ac", "type": "electric_scooter", "lat": 38.90668383333333, "is_disabled": 0}, {"fusion_lat": 0.0, "lon": -77.02739116666666, "is_reserved": 0, "bike_id": "ec97ec8bc90550d61cae95186193db79", "fusion_lon": 0.0, "rental_uris": {"android": "https://dc.lft.to/lastmile_qr_scan", "ios": "https://dc.lft.to/lastmile_qr_scan"}, "name": "ec97ec8bc90550d61cae95186193db79", "type": "electric_scooter", "lat": 38.9286085, "is_disabled": 0}, {"fusion_lat": 0.0, "lon": -76.9375315, "is_reserved": 0, "bike_id": "6a1e2d717009c7569b81d169281792ab", "fusion_lon": 0.0, "rental_uris": {"android": "https://dc.lft.to/lastmile_qr_scan", "ios": "https://dc.lft.to/lastmile_qr_scan"}, "name": "6a1e2d717009c7569b81d169281792ab", "type": "electric_scooter", "lat": 38.89050866666667, "is_disabled": 0}, {"fusion_lat": 0.0, "lon": -77.02692466666667, "is_reserved": 0, "bike_id": "aa5d4721adc46837f2d5c5b6735dbb66", "fusion_lon": 0.0, "rental_uris": {"android": "https://dc.lft.to/lastmile_qr_scan", "ios": "https://dc.lft.to/lastmile_qr_scan"}, "name": "aa5d4721adc46837f2d5c5b6735dbb66", "type": "electric_scooter", "lat": 38.92369883333333, "is_disabled": 0}, {"fusion_lat": 0.0, "lon": -77.038926, "is_reserved": 0, "bike_id": "23a1a9ff5bb61d21000400ae06f13a47", "fusion_lon": 0.0, "rental_uris": {"android": "https://dc.lft.to/lastmile_qr_scan", "ios": "https://dc.lft.to/lastmile_qr_scan"}, "name": "23a1a9ff5bb61d21000400ae06f13a47", "type": "electric_scooter", "lat": 38.9146545, "is_disabled": 0}, {"fusion_lat": 0.0, "lon": -77.02788666666666, "is_reserved": 0, "bike_id": "851f207f59207e43a231e04e655a5d3d", "fusion_lon": 0.0, "rental_uris": {"android": "https://dc.lft.to/lastmile_qr_scan", "ios": "https://dc.lft.to/lastmile_qr_scan"}, "name": "851f207f59207e43a231e04e655a5d3d", "type": "electric_scooter", "lat": 38.9308085, "is_disabled": 0}, {"fusion_lat": 0.0, "lon": -77.01611, "is_reserved": 0, "bike_id": "a41564e18a2c09b49c30443b2110d0c2", "fusion_lon": 0.0, "rental_uris": {"android": "https://dc.lft.to/lastmile_qr_scan", "ios": "https://dc.lft.to/lastmile_qr_scan"}, "name": "a41564e18a2c09b49c30443b2110d0c2", "type": "electric_scooter", "lat": 38.90324366666667, "is_disabled": 0}, {"fusion_lat": 0.0, "lon": -77.00973466666666, "is_reserved": 0, "bike_id": "bb1f7d9aaaef017c1df8b927f6cf652d", "fusion_lon": 0.0, "rental_uris": {"android": "https://dc.lft.to/lastmile_qr_scan", "ios": "https://dc.lft.to/lastmile_qr_scan"}, "name": "bb1f7d9aaaef017c1df8b927f6cf652d", "type": "electric_scooter", "lat": 38.91412183333333, "is_disabled": 0}, {"fusion_lat": 0.0, "lon": -76.99939533333334, "is_reserved": 0, "bike_id": "d31493f4a9e8b78787aef660e73618a4", "fusion_lon": 0.0, "rental_uris": {"android": "https://dc.lft.to/lastmile_qr_scan", "ios": "https://dc.lft.to/lastmile_qr_scan"}, "name": "d31493f4a9e8b78787aef660e73618a4", "type": "electric_scooter", "lat": 38.89644366666667, "is_disabled": 0}, {"fusion_lat": 0.0, "lon": -77.04314683333334, "is_reserved": 0, "bike_id": "9a9c845750e549e3d4c55fef8f75fb5f", "fusion_lon": 0.0, "rental_uris": {"android": "https://dc.lft.to/lastmile_qr_scan", "ios": "https://dc.lft.to/lastmile_qr_scan"}, "name": "9a9c845750e549e3d4c55fef8f75fb5f", "type": "electric_scooter", "lat": 38.92655166666667, "is_disabled": 0}, {"fusion_lat": 0.0, "lon": -77.0358775, "is_reserved": 0, "bike_id": "306a9cfa1cda892f5563c43986bd17fe", "fusion_lon": 0.0, "rental_uris": {"android": "https://dc.lft.to/lastmile_qr_scan", "ios": "https://dc.lft.to/lastmile_qr_scan"}, "name": "306a9cfa1cda892f5563c43986bd17fe", "type": "electric_scooter", "lat": 38.91759283333333, "is_disabled": 0}, {"fusion_lat": 0.0, "lon": -77.04728333333334, "is_reserved": 0, "bike_id": "ae86749abdd60cce6ed1239cf52d4efe", "fusion_lon": 0.0, "rental_uris": {"android": "https://dc.lft.to/lastmile_qr_scan", "ios": "https://dc.lft.to/lastmile_qr_scan"}, "name": "ae86749abdd60cce6ed1239cf52d4efe", "type": "electric_scooter", "lat": 38.91264416666667, "is_disabled": 0}, {"fusion_lat": 0.0, "lon": -76.988847, "is_reserved": 0, "bike_id": "bea6c0e06cd8fc02e0ba1e287a6c2a6b", "fusion_lon": 0.0, "rental_uris": {"android": "https://dc.lft.to/lastmile_qr_scan", "ios": "https://dc.lft.to/lastmile_qr_scan"}, "name": "bea6c0e06cd8fc02e0ba1e287a6c2a6b", "type": "electric_scooter", "lat": 38.86655566666667, "is_disabled": 0}, {"fusion_lat": 0.0, "lon": -77.048136, "is_reserved": 0, "bike_id": "53185e6c3c0ade02d2a02895ea636bf6", "fusion_lon": 0.0, "rental_uris": {"android": "https://dc.lft.to/lastmile_qr_scan", "ios": "https://dc.lft.to/lastmile_qr_scan"}, "name": "53185e6c3c0ade02d2a02895ea636bf6", "type": "electric_scooter", "lat": 38.920465666666665, "is_disabled": 0}, {"fusion_lat": 0.0, "lon": -76.9373385, "is_reserved": 0, "bike_id": "705a3f4ee7ec418588f24ea3380b7822", "fusion_lon": 0.0, "rental_uris": {"android": "https://dc.lft.to/lastmile_qr_scan", "ios": "https://dc.lft.to/lastmile_qr_scan"}, "name": "705a3f4ee7ec418588f24ea3380b7822", "type": "electric_scooter", "lat": 38.89014233333333, "is_disabled": 0}, {"fusion_lat": 0.0, "lon": -77.001396, "is_reserved": 0, "bike_id": "db12a5504bd555b66f75acf56019ae26", "fusion_lon": 0.0, "rental_uris": {"android": "https://dc.lft.to/lastmile_qr_scan", "ios": "https://dc.lft.to/lastmile_qr_scan"}, "name": "db12a5504bd555b66f75acf56019ae26", "type": "electric_scooter", "lat": 38.90743583333333, "is_disabled": 0}, {"fusion_lat": 0.0, "lon": -77.01830516666666, "is_reserved": 0, "bike_id": "39efd8d200ebd09367dbf8b829b31e43", "fusion_lon": 0.0, "rental_uris": {"android": "https://dc.lft.to/lastmile_qr_scan", "ios": "https://dc.lft.to/lastmile_qr_scan"}, "name": "39efd8d200ebd09367dbf8b829b31e43", "type": "electric_scooter", "lat": 38.901263666666665, "is_disabled": 0}, {"fusion_lat": 0.0, "lon": -77.05066533333333, "is_reserved": 0, "bike_id": "cb035c84ffe568fd2e4d69cb243742ae", "fusion_lon": 0.0, "rental_uris": {"android": "https://dc.lft.to/lastmile_qr_scan", "ios": "https://dc.lft.to/lastmile_qr_scan"}, "name": "cb035c84ffe568fd2e4d69cb243742ae", "type": "electric_scooter", "lat": 38.90544666666667, "is_disabled": 0}, {"fusion_lat": 0.0, "lon": -77.01965416666667, "is_reserved": 0, "bike_id": "1494604b94c5feb399b126f97a9b8034", "fusion_lon": 0.0, "rental_uris": {"android": "https://dc.lft.to/lastmile_qr_scan", "ios": "https://dc.lft.to/lastmile_qr_scan"}, "name": "1494604b94c5feb399b126f97a9b8034", "type": "electric_scooter", "lat": 38.95019416666667, "is_disabled": 0}, {"fusion_lat": 0.0, "lon": -77.030111, "is_reserved": 0, "bike_id": "b934dc860be3b4354109bd4c44130209", "fusion_lon": 0.0, "rental_uris": {"android": "https://dc.lft.to/lastmile_qr_scan", "ios": "https://dc.lft.to/lastmile_qr_scan"}, "name": "b934dc860be3b4354109bd4c44130209", "type": "electric_scooter", "lat": 38.92667266666667, "is_disabled": 0}, {"fusion_lat": 0.0, "lon": -77.02359616666666, "is_reserved": 0, "bike_id": "7b65b8317a1cb6d6db1d4e43957f7a40", "fusion_lon": 0.0, "rental_uris": {"android": "https://dc.lft.to/lastmile_qr_scan", "ios": "https://dc.lft.to/lastmile_qr_scan"}, "name": "7b65b8317a1cb6d6db1d4e43957f7a40", "type": "electric_scooter", "lat": 38.89216533333333, "is_disabled": 0}, {"fusion_lat": 0.0, "lon": -77.0384265, "is_reserved": 0, "bike_id": "608ca05ca5de2aa6ad8102286ed2af5c", "fusion_lon": 0.0, "rental_uris": {"android": "https://dc.lft.to/lastmile_qr_scan", "ios": "https://dc.lft.to/lastmile_qr_scan"}, "name": "608ca05ca5de2aa6ad8102286ed2af5c", "type": "electric_scooter", "lat": 38.921613666666666, "is_disabled": 0}, {"fusion_lat": 0.0, "lon": -77.0499825, "is_reserved": 0, "bike_id": "1624d59095052047d94ea19b1c9e778c", "fusion_lon": 0.0, "rental_uris": {"android": "https://dc.lft.to/lastmile_qr_scan", "ios": "https://dc.lft.to/lastmile_qr_scan"}, "name": "1624d59095052047d94ea19b1c9e778c", "type": "electric_scooter", "lat": 38.90553033333333, "is_disabled": 0}, {"fusion_lat": 0.0, "lon": -77.06323833333333, "is_reserved": 0, "bike_id": "1043d948afe768f744de52bde15c469e", "fusion_lon": 0.0, "rental_uris": {"android": "https://dc.lft.to/lastmile_qr_scan", "ios": "https://dc.lft.to/lastmile_qr_scan"}, "name": "1043d948afe768f744de52bde15c469e", "type": "electric_scooter", "lat": 38.94415683333333, "is_disabled": 0}, {"fusion_lat": 0.0, "lon": -77.019762, "is_reserved": 0, "bike_id": "4d499d03cef35cf54fd7c545fe03b0ce", "fusion_lon": 0.0, "rental_uris": {"android": "https://dc.lft.to/lastmile_qr_scan", "ios": "https://dc.lft.to/lastmile_qr_scan"}, "name": "4d499d03cef35cf54fd7c545fe03b0ce", "type": "electric_scooter", "lat": 38.8858265, "is_disabled": 0}, {"fusion_lat": 0.0, "lon": -76.95403633333333, "is_reserved": 0, "bike_id": "b99d3b39895f85ce3c1880c1c7858af6", "fusion_lon": 0.0, "rental_uris": {"android": "https://dc.lft.to/lastmile_qr_scan", "ios": "https://dc.lft.to/lastmile_qr_scan"}, "name": "b99d3b39895f85ce3c1880c1c7858af6", "type": "electric_scooter", "lat": 38.884672333333334, "is_disabled": 0}, {"fusion_lat": 0.0, "lon": -77.02703, "is_reserved": 0, "bike_id": "ac49f5437146fcbb3c4ab5c1adaff84d", "fusion_lon": 0.0, "rental_uris": {"android": "https://dc.lft.to/lastmile_qr_scan", "ios": "https://dc.lft.to/lastmile_qr_scan"}, "name": "ac49f5437146fcbb3c4ab5c1adaff84d", "type": "electric_scooter", "lat": 38.90664316666667, "is_disabled": 0}, {"fusion_lat": 0.0, "lon": -77.02947783333333, "is_reserved": 0, "bike_id": "23e5dae658ff3ad5248c01d658949039", "fusion_lon": 0.0, "rental_uris": {"android": "https://dc.lft.to/lastmile_qr_scan", "ios": "https://dc.lft.to/lastmile_qr_scan"}, "name": "23e5dae658ff3ad5248c01d658949039", "type": "electric_scooter", "lat": 38.905000666666666, "is_disabled": 0}, {"fusion_lat": 0.0, "lon": -77.054855, "is_reserved": 0, "bike_id": "2d0c1577d5d7393144ba8933a39c5f64", "fusion_lon": 0.0, "rental_uris": {"android": "https://dc.lft.to/lastmile_qr_scan", "ios": "https://dc.lft.to/lastmile_qr_scan"}, "name": "2d0c1577d5d7393144ba8933a39c5f64", "type": "electric_scooter", "lat": 38.89382333333333, "is_disabled": 0}, {"fusion_lat": 0.0, "lon": -77.059042, "is_reserved": 0, "bike_id": "87a5fdaca5135a718c29dbf4c7df4bda", "fusion_lon": 0.0, "rental_uris": {"android": "https://dc.lft.to/lastmile_qr_scan", "ios": "https://dc.lft.to/lastmile_qr_scan"}, "name": "87a5fdaca5135a718c29dbf4c7df4bda", "type": "electric_scooter", "lat": 38.9016495, "is_disabled": 0}, {"fusion_lat": 0.0, "lon": -76.9871175, "is_reserved": 0, "bike_id": "cc98f0058efc32e4b9a9a8dee982c012", "fusion_lon": 0.0, "rental_uris": {"android": "https://dc.lft.to/lastmile_qr_scan", "ios": "https://dc.lft.to/lastmile_qr_scan"}, "name": "cc98f0058efc32e4b9a9a8dee982c012", "type": "electric_scooter", "lat": 38.866264, "is_disabled": 0}, {"fusion_lat": 0.0, "lon": -77.00654416666667, "is_reserved": 0, "bike_id": "bbbd72ed6c006be8f7869158ac705207", "fusion_lon": 0.0, "rental_uris": {"android": "https://dc.lft.to/lastmile_qr_scan", "ios": "https://dc.lft.to/lastmile_qr_scan"}, "name": "bbbd72ed6c006be8f7869158ac705207", "type": "electric_scooter", "lat": 38.900356333333335, "is_disabled": 0}, {"fusion_lat": 0.0, "lon": -77.01528616666667, "is_reserved": 0, "bike_id": "7c1b90cf6e9b53b39f384fc6c45a5e27", "fusion_lon": 0.0, "rental_uris": {"android": "https://dc.lft.to/lastmile_qr_scan", "ios": "https://dc.lft.to/lastmile_qr_scan"}, "name": "7c1b90cf6e9b53b39f384fc6c45a5e27", "type": "electric_scooter", "lat": 38.88738766666667, "is_disabled": 0}, {"fusion_lat": 0.0, "lon": -77.0386255, "is_reserved": 0, "bike_id": "0ce18bc6f137b460ab40d8dbdac2d63d", "fusion_lon": 0.0, "rental_uris": {"android": "https://dc.lft.to/lastmile_qr_scan", "ios": "https://dc.lft.to/lastmile_qr_scan"}, "name": "0ce18bc6f137b460ab40d8dbdac2d63d", "type": "electric_scooter", "lat": 38.915530333333336, "is_disabled": 0}, {"fusion_lat": 0.0, "lon": -77.0458325, "is_reserved": 0, "bike_id": "c90b3f2324c965f550c6900ebdcd89b8", "fusion_lon": 0.0, "rental_uris": {"android": "https://dc.lft.to/lastmile_qr_scan", "ios": "https://dc.lft.to/lastmile_qr_scan"}, "name": "c90b3f2324c965f550c6900ebdcd89b8", "type": "electric_scooter", "lat": 38.921324166666665, "is_disabled": 0}, {"fusion_lat": 0.0, "lon": -76.99834266666667, "is_reserved": 0, "bike_id": "cb750111cd17f8a8292532a8fe071dc3", "fusion_lon": 0.0, "rental_uris": {"android": "https://dc.lft.to/lastmile_qr_scan", "ios": "https://dc.lft.to/lastmile_qr_scan"}, "name": "cb750111cd17f8a8292532a8fe071dc3", "type": "electric_scooter", "lat": 38.900558, "is_disabled": 0}, {"fusion_lat": 0.0, "lon": -76.99835366666667, "is_reserved": 0, "bike_id": "ef23a5d237cbde4568b02cb486a51bbf", "fusion_lon": 0.0, "rental_uris": {"android": "https://dc.lft.to/lastmile_qr_scan", "ios": "https://dc.lft.to/lastmile_qr_scan"}, "name": "ef23a5d237cbde4568b02cb486a51bbf", "type": "electric_scooter", "lat": 38.883222833333335, "is_disabled": 0}, {"fusion_lat": 0.0, "lon": -77.02417816666667, "is_reserved": 0, "bike_id": "3707c0c5c6547ec2eb45c684922659a0", "fusion_lon": 0.0, "rental_uris": {"android": "https://dc.lft.to/lastmile_qr_scan", "ios": "https://dc.lft.to/lastmile_qr_scan"}, "name": "3707c0c5c6547ec2eb45c684922659a0", "type": "electric_scooter", "lat": 38.93104, "is_disabled": 0}, {"fusion_lat": 0.0, "lon": -77.05262816666666, "is_reserved": 0, "bike_id": "c15a0d186cc1229ed52701adc8bce1e7", "fusion_lon": 0.0, "rental_uris": {"android": "https://dc.lft.to/lastmile_qr_scan", "ios": "https://dc.lft.to/lastmile_qr_scan"}, "name": "c15a0d186cc1229ed52701adc8bce1e7", "type": "electric_scooter", "lat": 38.92778366666667, "is_disabled": 0}, {"fusion_lat": 0.0, "lon": -77.02549783333333, "is_reserved": 0, "bike_id": "a87a2acdbec857da1cf953662d35e009", "fusion_lon": 0.0, "rental_uris": {"android": "https://dc.lft.to/lastmile_qr_scan", "ios": "https://dc.lft.to/lastmile_qr_scan"}, "name": "a87a2acdbec857da1cf953662d35e009", "type": "electric_scooter", "lat": 38.9247635, "is_disabled": 0}, {"fusion_lat": 0.0, "lon": -76.9439645, "is_reserved": 0, "bike_id": "958fc87726d52c661df8f8d1492660f5", "fusion_lon": 0.0, "rental_uris": {"android": "https://dc.lft.to/lastmile_qr_scan", "ios": "https://dc.lft.to/lastmile_qr_scan"}, "name": "958fc87726d52c661df8f8d1492660f5", "type": "electric_scooter", "lat": 38.8813735, "is_disabled": 0}, {"fusion_lat": 0.0, "lon": -77.04004116666667, "is_reserved": 0, "bike_id": "b06a5fcf1a56d45aa4eed411eaa92251", "fusion_lon": 0.0, "rental_uris": {"android": "https://dc.lft.to/lastmile_qr_scan", "ios": "https://dc.lft.to/lastmile_qr_scan"}, "name": "b06a5fcf1a56d45aa4eed411eaa92251", "type": "electric_bike", "lat": 38.93137216666667, "is_disabled": 0}, {"fusion_lat": 0.0, "lon": -77.0513405, "is_reserved": 0, "bike_id": "12bf3525256687a7f2718a30e1f66012", "fusion_lon": 0.0, "rental_uris": {"android": "https://dc.lft.to/lastmile_qr_scan", "ios": "https://dc.lft.to/lastmile_qr_scan"}, "name": "12bf3525256687a7f2718a30e1f66012", "type": "electric_scooter", "lat": 38.906481, "is_disabled": 0}, {"fusion_lat": 0.0, "lon": -77.04271316666667, "is_reserved": 0, "bike_id": "10f7ab19d09fe58901ad2e9dc4e25191", "fusion_lon": 0.0, "rental_uris": {"android": "https://dc.lft.to/lastmile_qr_scan", "ios": "https://dc.lft.to/lastmile_qr_scan"}, "name": "10f7ab19d09fe58901ad2e9dc4e25191", "type": "electric_scooter", "lat": 38.9134545, "is_disabled": 0}, {"fusion_lat": 0.0, "lon": -77.01246283333333, "is_reserved": 0, "bike_id": "08dad47640745ee2e6fd3301402c64fc", "fusion_lon": 0.0, "rental_uris": {"android": "https://dc.lft.to/lastmile_qr_scan", "ios": "https://dc.lft.to/lastmile_qr_scan"}, "name": "08dad47640745ee2e6fd3301402c64fc", "type": "electric_scooter", "lat": 38.830542, "is_disabled": 0}, {"fusion_lat": 0.0, "lon": -77.03428933333333, "is_reserved": 0, "bike_id": "823254858e9719c3d93f7df674f881c2", "fusion_lon": 0.0, "rental_uris": {"android": "https://dc.lft.to/lastmile_qr_scan", "ios": "https://dc.lft.to/lastmile_qr_scan"}, "name": "823254858e9719c3d93f7df674f881c2", "type": "electric_scooter", "lat": 38.93091366666667, "is_disabled": 0}, {"fusion_lat": 0.0, "lon": -77.04478433333334, "is_reserved": 0, "bike_id": "6cb19c942878f576ecd7f612dc515bfd", "fusion_lon": 0.0, "rental_uris": {"android": "https://dc.lft.to/lastmile_qr_scan", "ios": "https://dc.lft.to/lastmile_qr_scan"}, "name": "6cb19c942878f576ecd7f612dc515bfd", "type": "electric_scooter", "lat": 38.924029833333336, "is_disabled": 0}, {"fusion_lat": 0.0, "lon": -77.0347, "is_reserved": 0, "bike_id": "92d77452ab1318a4af3b83b7cf3a847a", "fusion_lon": 0.0, "rental_uris": {"android": "https://dc.lft.to/lastmile_qr_scan", "ios": "https://dc.lft.to/lastmile_qr_scan"}, "name": "92d77452ab1318a4af3b83b7cf3a847a", "type": "electric_scooter", "lat": 38.93548033333333, "is_disabled": 0}, {"fusion_lat": 0.0, "lon": -77.01722916666667, "is_reserved": 0, "bike_id": "07c0453e51509176d1366a4a367b6cb7", "fusion_lon": 0.0, "rental_uris": {"android": "https://dc.lft.to/lastmile_qr_scan", "ios": "https://dc.lft.to/lastmile_qr_scan"}, "name": "07c0453e51509176d1366a4a367b6cb7", "type": "electric_bike", "lat": 38.946068333333336, "is_disabled": 0}, {"fusion_lat": 0.0, "lon": -76.99268383333333, "is_reserved": 0, "bike_id": "e7402584eced9c5c1438d74101925aff", "fusion_lon": 0.0, "rental_uris": {"android": "https://dc.lft.to/lastmile_qr_scan", "ios": "https://dc.lft.to/lastmile_qr_scan"}, "name": "e7402584eced9c5c1438d74101925aff", "type": "electric_scooter", "lat": 38.88619383333333, "is_disabled": 0}, {"fusion_lat": 0.0, "lon": -77.05583433333334, "is_reserved": 0, "bike_id": "258160946ae56341a21604e63c90f9b9", "fusion_lon": 0.0, "rental_uris": {"android": "https://dc.lft.to/lastmile_qr_scan", "ios": "https://dc.lft.to/lastmile_qr_scan"}, "name": "258160946ae56341a21604e63c90f9b9", "type": "electric_scooter", "lat": 38.9361375, "is_disabled": 0}, {"fusion_lat": 0.0, "lon": -77.03955816666667, "is_reserved": 0, "bike_id": "fcf4b3023abbe258ade2ce23fb374e30", "fusion_lon": 0.0, "rental_uris": {"android": "https://dc.lft.to/lastmile_qr_scan", "ios": "https://dc.lft.to/lastmile_qr_scan"}, "name": "fcf4b3023abbe258ade2ce23fb374e30", "type": "electric_scooter", "lat": 38.892418166666666, "is_disabled": 0}, {"fusion_lat": 0.0, "lon": -77.01770183333333, "is_reserved": 0, "bike_id": "2423e66ac7a6eb899de9ec6637610ae6", "fusion_lon": 0.0, "rental_uris": {"android": "https://dc.lft.to/lastmile_qr_scan", "ios": "https://dc.lft.to/lastmile_qr_scan"}, "name": "2423e66ac7a6eb899de9ec6637610ae6", "type": "electric_scooter", "lat": 38.917411, "is_disabled": 0}, {"fusion_lat": 0.0, "lon": -77.04210466666666, "is_reserved": 0, "bike_id": "88c4e42fb80bb767357f0758502eb74f", "fusion_lon": 0.0, "rental_uris": {"android": "https://dc.lft.to/lastmile_qr_scan", "ios": "https://dc.lft.to/lastmile_qr_scan"}, "name": "88c4e42fb80bb767357f0758502eb74f", "type": "electric_scooter", "lat": 38.9039525, "is_disabled": 0}, {"fusion_lat": 0.0, "lon": -77.02192816666667, "is_reserved": 0, "bike_id": "e26e2e6b9b6408497af1edf838a1024f", "fusion_lon": 0.0, "rental_uris": {"android": "https://dc.lft.to/lastmile_qr_scan", "ios": "https://dc.lft.to/lastmile_qr_scan"}, "name": "e26e2e6b9b6408497af1edf838a1024f", "type": "electric_scooter", "lat": 38.90200433333333, "is_disabled": 0}, {"fusion_lat": 0.0, "lon": -77.07320983333334, "is_reserved": 0, "bike_id": "a52a47c5c0db951cee7c78af1169f61d", "fusion_lon": 0.0, "rental_uris": {"android": "https://dc.lft.to/lastmile_qr_scan", "ios": "https://dc.lft.to/lastmile_qr_scan"}, "name": "a52a47c5c0db951cee7c78af1169f61d", "type": "electric_scooter", "lat": 38.926084833333334, "is_disabled": 0}, {"fusion_lat": 0.0, "lon": -77.01068733333334, "is_reserved": 0, "bike_id": "67700d68fa9c28271c0265588bb08622", "fusion_lon": 0.0, "rental_uris": {"android": "https://dc.lft.to/lastmile_qr_scan", "ios": "https://dc.lft.to/lastmile_qr_scan"}, "name": "67700d68fa9c28271c0265588bb08622", "type": "electric_scooter", "lat": 38.917642, "is_disabled": 0}, {"fusion_lat": 0.0, "lon": -77.01863133333333, "is_reserved": 0, "bike_id": "0c29b3ae1c498ea32c842b501ba1f397", "fusion_lon": 0.0, "rental_uris": {"android": "https://dc.lft.to/lastmile_qr_scan", "ios": "https://dc.lft.to/lastmile_qr_scan"}, "name": "0c29b3ae1c498ea32c842b501ba1f397", "type": "electric_scooter", "lat": 38.973698, "is_disabled": 0}, {"fusion_lat": 0.0, "lon": -76.99637, "is_reserved": 0, "bike_id": "e4c99ad4ef6c9881092113bec0c4e961", "fusion_lon": 0.0, "rental_uris": {"android": "https://dc.lft.to/lastmile_qr_scan", "ios": "https://dc.lft.to/lastmile_qr_scan"}, "name": "e4c99ad4ef6c9881092113bec0c4e961", "type": "electric_scooter", "lat": 38.900135666666664, "is_disabled": 0}, {"fusion_lat": 0.0, "lon": -77.04194933333333, "is_reserved": 0, "bike_id": "4586833c04370d7c0042788f280c4b88", "fusion_lon": 0.0, "rental_uris": {"android": "https://dc.lft.to/lastmile_qr_scan", "ios": "https://dc.lft.to/lastmile_qr_scan"}, "name": "4586833c04370d7c0042788f280c4b88", "type": "electric_scooter", "lat": 38.91968333333333, "is_disabled": 0}, {"fusion_lat": 0.0, "lon": -77.02942333333333, "is_reserved": 0, "bike_id": "11de9274353cfd0e7220f2a92b626648", "fusion_lon": 0.0, "rental_uris": {"android": "https://dc.lft.to/lastmile_qr_scan", "ios": "https://dc.lft.to/lastmile_qr_scan"}, "name": "11de9274353cfd0e7220f2a92b626648", "type": "electric_scooter", "lat": 38.9168405, "is_disabled": 0}, {"fusion_lat": 0.0, "lon": -77.05735933333334, "is_reserved": 0, "bike_id": "94ba4d31640a4279d57660825192b937", "fusion_lon": 0.0, "rental_uris": {"android": "https://dc.lft.to/lastmile_qr_scan", "ios": "https://dc.lft.to/lastmile_qr_scan"}, "name": "94ba4d31640a4279d57660825192b937", "type": "electric_scooter", "lat": 38.9338555, "is_disabled": 0}, {"fusion_lat": 0.0, "lon": -77.01521433333333, "is_reserved": 0, "bike_id": "b5cfad66e0af43cec7a12da8433dbdbe", "fusion_lon": 0.0, "rental_uris": {"android": "https://dc.lft.to/lastmile_qr_scan", "ios": "https://dc.lft.to/lastmile_qr_scan"}, "name": "b5cfad66e0af43cec7a12da8433dbdbe", "type": "electric_bike", "lat": 38.91867416666667, "is_disabled": 0}, {"fusion_lat": 0.0, "lon": -77.00335033333333, "is_reserved": 0, "bike_id": "52ede62f52910dd6ece12e5ef5f8192c", "fusion_lon": 0.0, "rental_uris": {"android": "https://dc.lft.to/lastmile_qr_scan", "ios": "https://dc.lft.to/lastmile_qr_scan"}, "name": "52ede62f52910dd6ece12e5ef5f8192c", "type": "electric_scooter", "lat": 38.895218666666665, "is_disabled": 0}, {"fusion_lat": 0.0, "lon": -76.99373583333333, "is_reserved": 0, "bike_id": "70c72a8c2ccfbc477fe9070670f246e9", "fusion_lon": 0.0, "rental_uris": {"android": "https://dc.lft.to/lastmile_qr_scan", "ios": "https://dc.lft.to/lastmile_qr_scan"}, "name": "70c72a8c2ccfbc477fe9070670f246e9", "type": "electric_bike", "lat": 38.97184433333334, "is_disabled": 0}, {"fusion_lat": 0.0, "lon": -77.024924, "is_reserved": 0, "bike_id": "b67424eed50318bf558a988cf5c85127", "fusion_lon": 0.0, "rental_uris": {"android": "https://dc.lft.to/lastmile_qr_scan", "ios": "https://dc.lft.to/lastmile_qr_scan"}, "name": "b67424eed50318bf558a988cf5c85127", "type": "electric_scooter", "lat": 38.937558, "is_disabled": 0}, {"fusion_lat": 0.0, "lon": -77.008782, "is_reserved": 0, "bike_id": "8b1d5b31689e0a193fd816ea7eade0a0", "fusion_lon": 0.0, "rental_uris": {"android": "https://dc.lft.to/lastmile_qr_scan", "ios": "https://dc.lft.to/lastmile_qr_scan"}, "name": "8b1d5b31689e0a193fd816ea7eade0a0", "type": "electric_bike", "lat": 38.90578033333333, "is_disabled": 0}, {"fusion_lat": 0.0, "lon": -77.06277533333333, "is_reserved": 0, "bike_id": "f023837fc434766dd7b906ef8957cd88", "fusion_lon": 0.0, "rental_uris": {"android": "https://dc.lft.to/lastmile_qr_scan", "ios": "https://dc.lft.to/lastmile_qr_scan"}, "name": "f023837fc434766dd7b906ef8957cd88", "type": "electric_scooter", "lat": 38.90582966666667, "is_disabled": 0}, {"fusion_lat": 0.0, "lon": -76.999306, "is_reserved": 0, "bike_id": "d68545620e7dc83fadf63751e6cf7265", "fusion_lon": 0.0, "rental_uris": {"android": "https://dc.lft.to/lastmile_qr_scan", "ios": "https://dc.lft.to/lastmile_qr_scan"}, "name": "d68545620e7dc83fadf63751e6cf7265", "type": "electric_scooter", "lat": 38.84299016666667, "is_disabled": 0}, {"fusion_lat": 0.0, "lon": -76.94872366666667, "is_reserved": 0, "bike_id": "9fd1d7b0353e18d2a6fcee7d8f4cf607", "fusion_lon": 0.0, "rental_uris": {"android": "https://dc.lft.to/lastmile_qr_scan", "ios": "https://dc.lft.to/lastmile_qr_scan"}, "name": "9fd1d7b0353e18d2a6fcee7d8f4cf607", "type": "electric_scooter", "lat": 38.895465333333334, "is_disabled": 0}, {"fusion_lat": 0.0, "lon": -76.9984505, "is_reserved": 0, "bike_id": "7a6ec9d98c7f244179cae2186a6b6a0b", "fusion_lon": 0.0, "rental_uris": {"android": "https://dc.lft.to/lastmile_qr_scan", "ios": "https://dc.lft.to/lastmile_qr_scan"}, "name": "7a6ec9d98c7f244179cae2186a6b6a0b", "type": "electric_scooter", "lat": 38.9002515, "is_disabled": 0}, {"fusion_lat": 0.0, "lon": -77.04688816666666, "is_reserved": 0, "bike_id": "afe352676e01127baba293d32469bd7b", "fusion_lon": 0.0, "rental_uris": {"android": "https://dc.lft.to/lastmile_qr_scan", "ios": "https://dc.lft.to/lastmile_qr_scan"}, "name": "afe352676e01127baba293d32469bd7b", "type": "electric_scooter", "lat": 38.92162066666667, "is_disabled": 0}, {"fusion_lat": 0.0, "lon": -77.00052, "is_reserved": 0, "bike_id": "57268f29c9d1fca14d13e5ab4a86383d", "fusion_lon": 0.0, "rental_uris": {"android": "https://dc.lft.to/lastmile_qr_scan", "ios": "https://dc.lft.to/lastmile_qr_scan"}, "name": "57268f29c9d1fca14d13e5ab4a86383d", "type": "electric_scooter", "lat": 38.896402333333334, "is_disabled": 0}, {"fusion_lat": 0.0, "lon": -76.99547566666666, "is_reserved": 0, "bike_id": "3cbf7a041113b6daeac3d474b31d45e9", "fusion_lon": 0.0, "rental_uris": {"android": "https://dc.lft.to/lastmile_qr_scan", "ios": "https://dc.lft.to/lastmile_qr_scan"}, "name": "3cbf7a041113b6daeac3d474b31d45e9", "type": "electric_scooter", "lat": 38.8626, "is_disabled": 0}, {"fusion_lat": 0.0, "lon": -77.02450416666667, "is_reserved": 0, "bike_id": "d75fb795465a453ad87df7dbcbea92a1", "fusion_lon": 0.0, "rental_uris": {"android": "https://dc.lft.to/lastmile_qr_scan", "ios": "https://dc.lft.to/lastmile_qr_scan"}, "name": "d75fb795465a453ad87df7dbcbea92a1", "type": "electric_scooter", "lat": 38.900015833333335, "is_disabled": 0}, {"fusion_lat": 0.0, "lon": -77.00851983333334, "is_reserved": 0, "bike_id": "1adb319fa85cc3abd058c25e9017bc23", "fusion_lon": 0.0, "rental_uris": {"android": "https://dc.lft.to/lastmile_qr_scan", "ios": "https://dc.lft.to/lastmile_qr_scan"}, "name": "1adb319fa85cc3abd058c25e9017bc23", "type": "electric_scooter", "lat": 38.912115666666665, "is_disabled": 0}, {"fusion_lat": 0.0, "lon": -77.00871166666667, "is_reserved": 0, "bike_id": "d5ed69837309a68cc57d0938033e1d36", "fusion_lon": 0.0, "rental_uris": {"android": "https://dc.lft.to/lastmile_qr_scan", "ios": "https://dc.lft.to/lastmile_qr_scan"}, "name": "d5ed69837309a68cc57d0938033e1d36", "type": "electric_scooter", "lat": 38.906498, "is_disabled": 0}, {"fusion_lat": 0.0, "lon": -76.9945695, "is_reserved": 0, "bike_id": "7e01f331e015f87e05ee8a68789220fd", "fusion_lon": 0.0, "rental_uris": {"android": "https://dc.lft.to/lastmile_qr_scan", "ios": "https://dc.lft.to/lastmile_qr_scan"}, "name": "7e01f331e015f87e05ee8a68789220fd", "type": "electric_bike", "lat": 38.966244, "is_disabled": 0}, {"fusion_lat": 0.0, "lon": -77.08652983333333, "is_reserved": 0, "bike_id": "e7ef8c61c72b182c463cc54e27add040", "fusion_lon": 0.0, "rental_uris": {"android": "https://dc.lft.to/lastmile_qr_scan", "ios": "https://dc.lft.to/lastmile_qr_scan"}, "name": "e7ef8c61c72b182c463cc54e27add040", "type": "electric_bike", "lat": 38.862453333333335, "is_disabled": 0}, {"fusion_lat": 0.0, "lon": -77.01320733333333, "is_reserved": 0, "bike_id": "70f68c1d21ee088e4ca555d7caadd4f4", "fusion_lon": 0.0, "rental_uris": {"android": "https://dc.lft.to/lastmile_qr_scan", "ios": "https://dc.lft.to/lastmile_qr_scan"}, "name": "70f68c1d21ee088e4ca555d7caadd4f4", "type": "electric_scooter", "lat": 38.87158616666667, "is_disabled": 0}, {"fusion_lat": 0.0, "lon": -77.02799816666666, "is_reserved": 0, "bike_id": "aaafa3a4fd7e085fc8a1790bf1c3842b", "fusion_lon": 0.0, "rental_uris": {"android": "https://dc.lft.to/lastmile_qr_scan", "ios": "https://dc.lft.to/lastmile_qr_scan"}, "name": "aaafa3a4fd7e085fc8a1790bf1c3842b", "type": "electric_scooter", "lat": 38.8922955, "is_disabled": 0}, {"fusion_lat": 0.0, "lon": -77.0174405, "is_reserved": 0, "bike_id": "e72b736db584611a433da644cf812ca7", "fusion_lon": 0.0, "rental_uris": {"android": "https://dc.lft.to/lastmile_qr_scan", "ios": "https://dc.lft.to/lastmile_qr_scan"}, "name": "e72b736db584611a433da644cf812ca7", "type": "electric_scooter", "lat": 38.883302, "is_disabled": 0}, {"fusion_lat": 0.0, "lon": -77.0430305, "is_reserved": 0, "bike_id": "4e132662c23b6ee6ad6012628a0a58e5", "fusion_lon": 0.0, "rental_uris": {"android": "https://dc.lft.to/lastmile_qr_scan", "ios": "https://dc.lft.to/lastmile_qr_scan"}, "name": "4e132662c23b6ee6ad6012628a0a58e5", "type": "electric_scooter", "lat": 38.923291666666664, "is_disabled": 0}, {"fusion_lat": 0.0, "lon": -77.03487383333334, "is_reserved": 0, "bike_id": "a21399fe9498f4da3019d33195ce2aec", "fusion_lon": 0.0, "rental_uris": {"android": "https://dc.lft.to/lastmile_qr_scan", "ios": "https://dc.lft.to/lastmile_qr_scan"}, "name": "a21399fe9498f4da3019d33195ce2aec", "type": "electric_scooter", "lat": 38.925353666666666, "is_disabled": 0}, {"fusion_lat": 0.0, "lon": -77.03830816666667, "is_reserved": 0, "bike_id": "b863d232ecbf62913a028e7aa1e88e1c", "fusion_lon": 0.0, "rental_uris": {"android": "https://dc.lft.to/lastmile_qr_scan", "ios": "https://dc.lft.to/lastmile_qr_scan"}, "name": "b863d232ecbf62913a028e7aa1e88e1c", "type": "electric_scooter", "lat": 38.9079, "is_disabled": 0}, {"fusion_lat": 0.0, "lon": -77.00372133333333, "is_reserved": 0, "bike_id": "d8ecfc6badae513ff56442f50de25789", "fusion_lon": 0.0, "rental_uris": {"android": "https://dc.lft.to/lastmile_qr_scan", "ios": "https://dc.lft.to/lastmile_qr_scan"}, "name": "d8ecfc6badae513ff56442f50de25789", "type": "electric_scooter", "lat": 38.897292166666666, "is_disabled": 0}, {"fusion_lat": 0.0, "lon": -77.03553883333333, "is_reserved": 0, "bike_id": "f4cde48265bb7147489203f9a6c93d3b", "fusion_lon": 0.0, "rental_uris": {"android": "https://dc.lft.to/lastmile_qr_scan", "ios": "https://dc.lft.to/lastmile_qr_scan"}, "name": "f4cde48265bb7147489203f9a6c93d3b", "type": "electric_scooter", "lat": 38.917241833333335, "is_disabled": 0}, {"fusion_lat": 0.0, "lon": -77.0386355, "is_reserved": 0, "bike_id": "78eceab779043ccd8d5ab0d96295a894", "fusion_lon": 0.0, "rental_uris": {"android": "https://dc.lft.to/lastmile_qr_scan", "ios": "https://dc.lft.to/lastmile_qr_scan"}, "name": "78eceab779043ccd8d5ab0d96295a894", "type": "electric_scooter", "lat": 38.9078775, "is_disabled": 0}, {"fusion_lat": 0.0, "lon": -77.03040016666667, "is_reserved": 0, "bike_id": "db1e323d6f63f8dd3ef2e74aae21e841", "fusion_lon": 0.0, "rental_uris": {"android": "https://dc.lft.to/lastmile_qr_scan", "ios": "https://dc.lft.to/lastmile_qr_scan"}, "name": "db1e323d6f63f8dd3ef2e74aae21e841", "type": "electric_scooter", "lat": 38.88406, "is_disabled": 0}, {"fusion_lat": 0.0, "lon": -77.03073866666666, "is_reserved": 0, "bike_id": "6d4b3e8e96608e33a5fdc3baa5798f2b", "fusion_lon": 0.0, "rental_uris": {"android": "https://dc.lft.to/lastmile_qr_scan", "ios": "https://dc.lft.to/lastmile_qr_scan"}, "name": "6d4b3e8e96608e33a5fdc3baa5798f2b", "type": "electric_scooter", "lat": 38.92379716666667, "is_disabled": 0}, {"fusion_lat": 0.0, "lon": -77.02765783333334, "is_reserved": 0, "bike_id": "629552a82cfbbb0b874fa5e6bf322440", "fusion_lon": 0.0, "rental_uris": {"android": "https://dc.lft.to/lastmile_qr_scan", "ios": "https://dc.lft.to/lastmile_qr_scan"}, "name": "629552a82cfbbb0b874fa5e6bf322440", "type": "electric_scooter", "lat": 38.92977583333333, "is_disabled": 0}, {"fusion_lat": 0.0, "lon": -76.990113, "is_reserved": 0, "bike_id": "30d1adaf29ff275bea0ef7879797a194", "fusion_lon": 0.0, "rental_uris": {"android": "https://dc.lft.to/lastmile_qr_scan", "ios": "https://dc.lft.to/lastmile_qr_scan"}, "name": "30d1adaf29ff275bea0ef7879797a194", "type": "electric_scooter", "lat": 38.881832833333334, "is_disabled": 0}, {"fusion_lat": 0.0, "lon": -77.00060866666666, "is_reserved": 0, "bike_id": "85b91af8cae1f8d4e4899d13dcd80b3f", "fusion_lon": 0.0, "rental_uris": {"android": "https://dc.lft.to/lastmile_qr_scan", "ios": "https://dc.lft.to/lastmile_qr_scan"}, "name": "85b91af8cae1f8d4e4899d13dcd80b3f", "type": "electric_scooter", "lat": 38.8998425, "is_disabled": 0}, {"fusion_lat": 0.0, "lon": -77.0250835, "is_reserved": 0, "bike_id": "b81de3a1bf0f2a148852bb4bc8fa04e9", "fusion_lon": 0.0, "rental_uris": {"android": "https://dc.lft.to/lastmile_qr_scan", "ios": "https://dc.lft.to/lastmile_qr_scan"}, "name": "b81de3a1bf0f2a148852bb4bc8fa04e9", "type": "electric_scooter", "lat": 38.92106716666667, "is_disabled": 0}, {"fusion_lat": 0.0, "lon": -77.0327685, "is_reserved": 0, "bike_id": "9cfdd09ecb3dcc69c6e1397a6e213eb2", "fusion_lon": 0.0, "rental_uris": {"android": "https://dc.lft.to/lastmile_qr_scan", "ios": "https://dc.lft.to/lastmile_qr_scan"}, "name": "9cfdd09ecb3dcc69c6e1397a6e213eb2", "type": "electric_scooter", "lat": 38.92829866666667, "is_disabled": 0}, {"fusion_lat": 0.0, "lon": -77.04326316666666, "is_reserved": 0, "bike_id": "4efe9d9f717d00a59fd625e6001364de", "fusion_lon": 0.0, "rental_uris": {"android": "https://dc.lft.to/lastmile_qr_scan", "ios": "https://dc.lft.to/lastmile_qr_scan"}, "name": "4efe9d9f717d00a59fd625e6001364de", "type": "electric_scooter", "lat": 38.89224516666667, "is_disabled": 0}, {"fusion_lat": 0.0, "lon": -77.034676, "is_reserved": 0, "bike_id": "d3988962f930224ed02bffc947970de7", "fusion_lon": 0.0, "rental_uris": {"android": "https://dc.lft.to/lastmile_qr_scan", "ios": "https://dc.lft.to/lastmile_qr_scan"}, "name": "d3988962f930224ed02bffc947970de7", "type": "electric_scooter", "lat": 38.90559016666667, "is_disabled": 0}, {"fusion_lat": 0.0, "lon": -77.0071075, "is_reserved": 0, "bike_id": "6ca52e9a97e5a18eeae9a16627de1dad", "fusion_lon": 0.0, "rental_uris": {"android": "https://dc.lft.to/lastmile_qr_scan", "ios": "https://dc.lft.to/lastmile_qr_scan"}, "name": "6ca52e9a97e5a18eeae9a16627de1dad", "type": "electric_scooter", "lat": 38.905825666666665, "is_disabled": 0}, {"fusion_lat": 0.0, "lon": -77.03202433333334, "is_reserved": 0, "bike_id": "968c0a7854ed06b5d7f7941de324c864", "fusion_lon": 0.0, "rental_uris": {"android": "https://dc.lft.to/lastmile_qr_scan", "ios": "https://dc.lft.to/lastmile_qr_scan"}, "name": "968c0a7854ed06b5d7f7941de324c864", "type": "electric_scooter", "lat": 38.91784416666667, "is_disabled": 0}, {"fusion_lat": 0.0, "lon": -77.04871566666667, "is_reserved": 0, "bike_id": "9b54c3a9ecbe0e12c7a8056fbba0f6f3", "fusion_lon": 0.0, "rental_uris": {"android": "https://dc.lft.to/lastmile_qr_scan", "ios": "https://dc.lft.to/lastmile_qr_scan"}, "name": "9b54c3a9ecbe0e12c7a8056fbba0f6f3", "type": "electric_scooter", "lat": 38.90107166666667, "is_disabled": 0}, {"fusion_lat": 0.0, "lon": -77.02803833333333, "is_reserved": 0, "bike_id": "1c13ea134f259b1b45231d177320ae5b", "fusion_lon": 0.0, "rental_uris": {"android": "https://dc.lft.to/lastmile_qr_scan", "ios": "https://dc.lft.to/lastmile_qr_scan"}, "name": "1c13ea134f259b1b45231d177320ae5b", "type": "electric_scooter", "lat": 38.909765166666666, "is_disabled": 0}, {"fusion_lat": 0.0, "lon": -77.03646816666667, "is_reserved": 0, "bike_id": "51597a4dc1d6ad911e635ea1982fd8da", "fusion_lon": 0.0, "rental_uris": {"android": "https://dc.lft.to/lastmile_qr_scan", "ios": "https://dc.lft.to/lastmile_qr_scan"}, "name": "51597a4dc1d6ad911e635ea1982fd8da", "type": "electric_scooter", "lat": 38.92111466666667, "is_disabled": 0}, {"fusion_lat": 0.0, "lon": -77.04246433333333, "is_reserved": 0, "bike_id": "a2fdf568b541dc3f6c09274cd07b278d", "fusion_lon": 0.0, "rental_uris": {"android": "https://dc.lft.to/lastmile_qr_scan", "ios": "https://dc.lft.to/lastmile_qr_scan"}, "name": "a2fdf568b541dc3f6c09274cd07b278d", "type": "electric_scooter", "lat": 38.916953666666664, "is_disabled": 0}, {"fusion_lat": 0.0, "lon": -76.98104633333334, "is_reserved": 0, "bike_id": "82099e92c747b694a6f2b6dd3e291c68", "fusion_lon": 0.0, "rental_uris": {"android": "https://dc.lft.to/lastmile_qr_scan", "ios": "https://dc.lft.to/lastmile_qr_scan"}, "name": "82099e92c747b694a6f2b6dd3e291c68", "type": "electric_scooter", "lat": 38.9039215, "is_disabled": 0}, {"fusion_lat": 0.0, "lon": -77.04638133333333, "is_reserved": 0, "bike_id": "730eb61961c6e9d9b6efc2a6dfa560f1", "fusion_lon": 0.0, "rental_uris": {"android": "https://dc.lft.to/lastmile_qr_scan", "ios": "https://dc.lft.to/lastmile_qr_scan"}, "name": "730eb61961c6e9d9b6efc2a6dfa560f1", "type": "electric_scooter", "lat": 38.9033185, "is_disabled": 0}, {"fusion_lat": 0.0, "lon": -76.98506766666667, "is_reserved": 0, "bike_id": "2b5958d5f9477ca90a0bf44520f69332", "fusion_lon": 0.0, "rental_uris": {"android": "https://dc.lft.to/lastmile_qr_scan", "ios": "https://dc.lft.to/lastmile_qr_scan"}, "name": "2b5958d5f9477ca90a0bf44520f69332", "type": "electric_scooter", "lat": 38.866533833333335, "is_disabled": 0}, {"fusion_lat": 0.0, "lon": -77.01222066666666, "is_reserved": 0, "bike_id": "9f802418feec0274c244fa97487ac4a2", "fusion_lon": 0.0, "rental_uris": {"android": "https://dc.lft.to/lastmile_qr_scan", "ios": "https://dc.lft.to/lastmile_qr_scan"}, "name": "9f802418feec0274c244fa97487ac4a2", "type": "electric_scooter", "lat": 38.914382, "is_disabled": 0}, {"fusion_lat": 0.0, "lon": -77.04687383333334, "is_reserved": 0, "bike_id": "2e313833d4dd67937b681d10fd1bad1c", "fusion_lon": 0.0, "rental_uris": {"android": "https://dc.lft.to/lastmile_qr_scan", "ios": "https://dc.lft.to/lastmile_qr_scan"}, "name": "2e313833d4dd67937b681d10fd1bad1c", "type": "electric_scooter", "lat": 38.921355166666665, "is_disabled": 0}, {"fusion_lat": 0.0, "lon": -77.0176395, "is_reserved": 0, "bike_id": "cc5c5e608256fcf45dd4c5da36e21a1d", "fusion_lon": 0.0, "rental_uris": {"android": "https://dc.lft.to/lastmile_qr_scan", "ios": "https://dc.lft.to/lastmile_qr_scan"}, "name": "cc5c5e608256fcf45dd4c5da36e21a1d", "type": "electric_scooter", "lat": 38.8768655, "is_disabled": 0}, {"fusion_lat": 0.0, "lon": -77.01717533333333, "is_reserved": 0, "bike_id": "4ac62ef425a7b99e0bd230e1ff1962a8", "fusion_lon": 0.0, "rental_uris": {"android": "https://dc.lft.to/lastmile_qr_scan", "ios": "https://dc.lft.to/lastmile_qr_scan"}, "name": "4ac62ef425a7b99e0bd230e1ff1962a8", "type": "electric_scooter", "lat": 38.974956, "is_disabled": 0}, {"fusion_lat": 0.0, "lon": -77.038616, "is_reserved": 0, "bike_id": "5aed80f6c60bbba795e0e55b10b112ad", "fusion_lon": 0.0, "rental_uris": {"android": "https://dc.lft.to/lastmile_qr_scan", "ios": "https://dc.lft.to/lastmile_qr_scan"}, "name": "5aed80f6c60bbba795e0e55b10b112ad", "type": "electric_scooter", "lat": 38.932457166666666, "is_disabled": 0}, {"fusion_lat": 0.0, "lon": -77.05934133333334, "is_reserved": 0, "bike_id": "2e10a4362be5d4ec1dd3c892545e1fcf", "fusion_lon": 0.0, "rental_uris": {"android": "https://dc.lft.to/lastmile_qr_scan", "ios": "https://dc.lft.to/lastmile_qr_scan"}, "name": "2e10a4362be5d4ec1dd3c892545e1fcf", "type": "electric_bike", "lat": 38.90530566666666, "is_disabled": 0}, {"fusion_lat": 0.0, "lon": -77.04374866666667, "is_reserved": 0, "bike_id": "2f75674aa4fc0c17e4a1485640dea157", "fusion_lon": 0.0, "rental_uris": {"android": "https://dc.lft.to/lastmile_qr_scan", "ios": "https://dc.lft.to/lastmile_qr_scan"}, "name": "2f75674aa4fc0c17e4a1485640dea157", "type": "electric_scooter", "lat": 38.892211333333336, "is_disabled": 0}, {"fusion_lat": 0.0, "lon": -77.0369825, "is_reserved": 0, "bike_id": "c0787cdf78724dc64f771418929c3956", "fusion_lon": 0.0, "rental_uris": {"android": "https://dc.lft.to/lastmile_qr_scan", "ios": "https://dc.lft.to/lastmile_qr_scan"}, "name": "c0787cdf78724dc64f771418929c3956", "type": "electric_scooter", "lat": 38.926346, "is_disabled": 0}, {"fusion_lat": 0.0, "lon": -76.98386316666667, "is_reserved": 0, "bike_id": "a105178a426763fa2895a7a5b2d4facf", "fusion_lon": 0.0, "rental_uris": {"android": "https://dc.lft.to/lastmile_qr_scan", "ios": "https://dc.lft.to/lastmile_qr_scan"}, "name": "a105178a426763fa2895a7a5b2d4facf", "type": "electric_scooter", "lat": 38.866957666666664, "is_disabled": 0}, {"fusion_lat": 0.0, "lon": -77.05877333333333, "is_reserved": 0, "bike_id": "18517a70cfbe7cd5885a4d7429202543", "fusion_lon": 0.0, "rental_uris": {"android": "https://dc.lft.to/lastmile_qr_scan", "ios": "https://dc.lft.to/lastmile_qr_scan"}, "name": "18517a70cfbe7cd5885a4d7429202543", "type": "electric_scooter", "lat": 38.918224333333335, "is_disabled": 0}, {"fusion_lat": 0.0, "lon": -77.00960633333334, "is_reserved": 0, "bike_id": "d405e39ea536a4ca24cd96903cc730d0", "fusion_lon": 0.0, "rental_uris": {"android": "https://dc.lft.to/lastmile_qr_scan", "ios": "https://dc.lft.to/lastmile_qr_scan"}, "name": "d405e39ea536a4ca24cd96903cc730d0", "type": "electric_scooter", "lat": 38.917049, "is_disabled": 0}, {"fusion_lat": 0.0, "lon": -76.98108583333334, "is_reserved": 0, "bike_id": "38c3cd14523f8d4244c380bbf7b50b34", "fusion_lon": 0.0, "rental_uris": {"android": "https://dc.lft.to/lastmile_qr_scan", "ios": "https://dc.lft.to/lastmile_qr_scan"}, "name": "38c3cd14523f8d4244c380bbf7b50b34", "type": "electric_scooter", "lat": 38.904167666666666, "is_disabled": 0}, {"fusion_lat": 0.0, "lon": -77.0709925, "is_reserved": 0, "bike_id": "b671654cc60dca6e966ed09805739cda", "fusion_lon": 0.0, "rental_uris": {"android": "https://dc.lft.to/lastmile_qr_scan", "ios": "https://dc.lft.to/lastmile_qr_scan"}, "name": "b671654cc60dca6e966ed09805739cda", "type": "electric_scooter", "lat": 38.90769866666667, "is_disabled": 0}, {"fusion_lat": 0.0, "lon": -77.077924, "is_reserved": 0, "bike_id": "8920a4686699d44122d45facbc5c3260", "fusion_lon": 0.0, "rental_uris": {"android": "https://dc.lft.to/lastmile_qr_scan", "ios": "https://dc.lft.to/lastmile_qr_scan"}, "name": "8920a4686699d44122d45facbc5c3260", "type": "electric_bike", "lat": 38.995995, "is_disabled": 0}, {"fusion_lat": 0.0, "lon": -76.97009716666666, "is_reserved": 0, "bike_id": "25193a46957e4b5564338ab39db3a951", "fusion_lon": 0.0, "rental_uris": {"android": "https://dc.lft.to/lastmile_qr_scan", "ios": "https://dc.lft.to/lastmile_qr_scan"}, "name": "25193a46957e4b5564338ab39db3a951", "type": "electric_bike", "lat": 38.86363716666666, "is_disabled": 0}, {"fusion_lat": 0.0, "lon": -77.0585225, "is_reserved": 0, "bike_id": "6b6c8871b833248d41d759ee8cc66e8d", "fusion_lon": 0.0, "rental_uris": {"android": "https://dc.lft.to/lastmile_qr_scan", "ios": "https://dc.lft.to/lastmile_qr_scan"}, "name": "6b6c8871b833248d41d759ee8cc66e8d", "type": "electric_bike", "lat": 38.9360905, "is_disabled": 0}, {"fusion_lat": 0.0, "lon": -77.00199883333333, "is_reserved": 0, "bike_id": "9bced7579d1b3fabf6e9e4ea66c18f2c", "fusion_lon": 0.0, "rental_uris": {"android": "https://dc.lft.to/lastmile_qr_scan", "ios": "https://dc.lft.to/lastmile_qr_scan"}, "name": "9bced7579d1b3fabf6e9e4ea66c18f2c", "type": "electric_scooter", "lat": 38.90235966666667, "is_disabled": 0}, {"fusion_lat": 0.0, "lon": -77.04423833333334, "is_reserved": 0, "bike_id": "72a433a184a7a74dfe09b61b421dc747", "fusion_lon": 0.0, "rental_uris": {"android": "https://dc.lft.to/lastmile_qr_scan", "ios": "https://dc.lft.to/lastmile_qr_scan"}, "name": "72a433a184a7a74dfe09b61b421dc747", "type": "electric_scooter", "lat": 38.9212725, "is_disabled": 0}, {"fusion_lat": 0.0, "lon": -76.93734666666667, "is_reserved": 0, "bike_id": "16b61bd6ea2021c55733915408d31ff8", "fusion_lon": 0.0, "rental_uris": {"android": "https://dc.lft.to/lastmile_qr_scan", "ios": "https://dc.lft.to/lastmile_qr_scan"}, "name": "16b61bd6ea2021c55733915408d31ff8", "type": "electric_scooter", "lat": 38.8901845, "is_disabled": 0}, {"fusion_lat": 0.0, "lon": -76.9977265, "is_reserved": 0, "bike_id": "46289940dae8ae20cec49f3bd1cda5b9", "fusion_lon": 0.0, "rental_uris": {"android": "https://dc.lft.to/lastmile_qr_scan", "ios": "https://dc.lft.to/lastmile_qr_scan"}, "name": "46289940dae8ae20cec49f3bd1cda5b9", "type": "electric_scooter", "lat": 38.91067783333333, "is_disabled": 0}, {"fusion_lat": 0.0, "lon": -77.0119805, "is_reserved": 0, "bike_id": "1231ff769f8be8bfae359f8aeab2ad03", "fusion_lon": 0.0, "rental_uris": {"android": "https://dc.lft.to/lastmile_qr_scan", "ios": "https://dc.lft.to/lastmile_qr_scan"}, "name": "1231ff769f8be8bfae359f8aeab2ad03", "type": "electric_scooter", "lat": 38.89312283333334, "is_disabled": 0}, {"fusion_lat": 0.0, "lon": -76.97728966666666, "is_reserved": 0, "bike_id": "d2045d5ce935e9ae6772738fa89c6548", "fusion_lon": 0.0, "rental_uris": {"android": "https://dc.lft.to/lastmile_qr_scan", "ios": "https://dc.lft.to/lastmile_qr_scan"}, "name": "d2045d5ce935e9ae6772738fa89c6548", "type": "electric_scooter", "lat": 38.87289116666667, "is_disabled": 0}, {"fusion_lat": 0.0, "lon": -76.99533083333333, "is_reserved": 0, "bike_id": "67453dda0fb71397deaea1105fa90205", "fusion_lon": 0.0, "rental_uris": {"android": "https://dc.lft.to/lastmile_qr_scan", "ios": "https://dc.lft.to/lastmile_qr_scan"}, "name": "67453dda0fb71397deaea1105fa90205", "type": "electric_scooter", "lat": 38.86199766666667, "is_disabled": 0}, {"fusion_lat": 0.0, "lon": -76.99164066666667, "is_reserved": 0, "bike_id": "bc7e982ece93eb9fea40ee97eb5645fe", "fusion_lon": 0.0, "rental_uris": {"android": "https://dc.lft.to/lastmile_qr_scan", "ios": "https://dc.lft.to/lastmile_qr_scan"}, "name": "bc7e982ece93eb9fea40ee97eb5645fe", "type": "electric_scooter", "lat": 38.88331733333333, "is_disabled": 0}, {"fusion_lat": 0.0, "lon": -77.01132466666667, "is_reserved": 0, "bike_id": "bce3000baa9576d6ec89efdd8f939079", "fusion_lon": 0.0, "rental_uris": {"android": "https://dc.lft.to/lastmile_qr_scan", "ios": "https://dc.lft.to/lastmile_qr_scan"}, "name": "bce3000baa9576d6ec89efdd8f939079", "type": "electric_scooter", "lat": 38.9160015, "is_disabled": 0}, {"fusion_lat": 0.0, "lon": -77.03858883333334, "is_reserved": 0, "bike_id": "8f0d3601cfd5fde1615125c97df4ccb6", "fusion_lon": 0.0, "rental_uris": {"android": "https://dc.lft.to/lastmile_qr_scan", "ios": "https://dc.lft.to/lastmile_qr_scan"}, "name": "8f0d3601cfd5fde1615125c97df4ccb6", "type": "electric_scooter", "lat": 38.91255, "is_disabled": 0}, {"fusion_lat": 0.0, "lon": -77.034474, "is_reserved": 0, "bike_id": "ba3a63f0de1da26198a11d17f7316ce6", "fusion_lon": 0.0, "rental_uris": {"android": "https://dc.lft.to/lastmile_qr_scan", "ios": "https://dc.lft.to/lastmile_qr_scan"}, "name": "ba3a63f0de1da26198a11d17f7316ce6", "type": "electric_scooter", "lat": 38.925362666666665, "is_disabled": 0}, {"fusion_lat": 0.0, "lon": -77.0403625, "is_reserved": 0, "bike_id": "0abc94d2d968ec7277f1d7a6daa66e96", "fusion_lon": 0.0, "rental_uris": {"android": "https://dc.lft.to/lastmile_qr_scan", "ios": "https://dc.lft.to/lastmile_qr_scan"}, "name": "0abc94d2d968ec7277f1d7a6daa66e96", "type": "electric_scooter", "lat": 38.9112135, "is_disabled": 0}, {"fusion_lat": 0.0, "lon": -77.029248, "is_reserved": 0, "bike_id": "60bfb7b4241f44be88c6ec810a3eea7c", "fusion_lon": 0.0, "rental_uris": {"android": "https://dc.lft.to/lastmile_qr_scan", "ios": "https://dc.lft.to/lastmile_qr_scan"}, "name": "60bfb7b4241f44be88c6ec810a3eea7c", "type": "electric_scooter", "lat": 38.8999195, "is_disabled": 0}, {"fusion_lat": 0.0, "lon": -77.01371366666666, "is_reserved": 0, "bike_id": "d906515855144416cc06ae9c0c7de661", "fusion_lon": 0.0, "rental_uris": {"android": "https://dc.lft.to/lastmile_qr_scan", "ios": "https://dc.lft.to/lastmile_qr_scan"}, "name": "d906515855144416cc06ae9c0c7de661", "type": "electric_scooter", "lat": 38.89221083333333, "is_disabled": 0}, {"fusion_lat": 0.0, "lon": -76.98014516666667, "is_reserved": 0, "bike_id": "0728bc032f76f0b18dfa6e3dffaef60a", "fusion_lon": 0.0, "rental_uris": {"android": "https://dc.lft.to/lastmile_qr_scan", "ios": "https://dc.lft.to/lastmile_qr_scan"}, "name": "0728bc032f76f0b18dfa6e3dffaef60a", "type": "electric_scooter", "lat": 38.88861933333333, "is_disabled": 0}, {"fusion_lat": 0.0, "lon": -77.008918, "is_reserved": 0, "bike_id": "5adc7b8e06fc904ea9a87d9184478510", "fusion_lon": 0.0, "rental_uris": {"android": "https://dc.lft.to/lastmile_qr_scan", "ios": "https://dc.lft.to/lastmile_qr_scan"}, "name": "5adc7b8e06fc904ea9a87d9184478510", "type": "electric_scooter", "lat": 38.968167333333334, "is_disabled": 0}, {"fusion_lat": 0.0, "lon": -77.01290266666666, "is_reserved": 0, "bike_id": "f86c83874d250ef2e61583a70b16558a", "fusion_lon": 0.0, "rental_uris": {"android": "https://dc.lft.to/lastmile_qr_scan", "ios": "https://dc.lft.to/lastmile_qr_scan"}, "name": "f86c83874d250ef2e61583a70b16558a", "type": "electric_scooter", "lat": 38.894779, "is_disabled": 0}, {"fusion_lat": 0.0, "lon": -76.98879033333333, "is_reserved": 0, "bike_id": "d68a56239bf9a5bbf582c145ac911dbf", "fusion_lon": 0.0, "rental_uris": {"android": "https://dc.lft.to/lastmile_qr_scan", "ios": "https://dc.lft.to/lastmile_qr_scan"}, "name": "d68a56239bf9a5bbf582c145ac911dbf", "type": "electric_scooter", "lat": 38.8665305, "is_disabled": 0}, {"fusion_lat": 0.0, "lon": -77.045067, "is_reserved": 0, "bike_id": "f0613522b5fbd7caef6fb58071ef17b0", "fusion_lon": 0.0, "rental_uris": {"android": "https://dc.lft.to/lastmile_qr_scan", "ios": "https://dc.lft.to/lastmile_qr_scan"}, "name": "f0613522b5fbd7caef6fb58071ef17b0", "type": "electric_scooter", "lat": 38.92317966666667, "is_disabled": 0}, {"fusion_lat": 0.0, "lon": -77.13898166666667, "is_reserved": 0, "bike_id": "e65ea6f394ce5b996c250beb5d5b7f94", "fusion_lon": 0.0, "rental_uris": {"android": "https://dc.lft.to/lastmile_qr_scan", "ios": "https://dc.lft.to/lastmile_qr_scan"}, "name": "e65ea6f394ce5b996c250beb5d5b7f94", "type": "electric_bike", "lat": 38.89676166666667, "is_disabled": 0}, {"fusion_lat": 0.0, "lon": -77.0450305, "is_reserved": 0, "bike_id": "f43edd9de768b0fdfd9bfb3c216731cf", "fusion_lon": 0.0, "rental_uris": {"android": "https://dc.lft.to/lastmile_qr_scan", "ios": "https://dc.lft.to/lastmile_qr_scan"}, "name": "f43edd9de768b0fdfd9bfb3c216731cf", "type": "electric_scooter", "lat": 38.9050825, "is_disabled": 0}, {"fusion_lat": 0.0, "lon": -77.11570733333333, "is_reserved": 0, "bike_id": "acc2a1fe84dc560f38f9f066809267bd", "fusion_lon": 0.0, "rental_uris": {"android": "https://dc.lft.to/lastmile_qr_scan", "ios": "https://dc.lft.to/lastmile_qr_scan"}, "name": "acc2a1fe84dc560f38f9f066809267bd", "type": "electric_bike", "lat": 38.993423666666665, "is_disabled": 0}, {"fusion_lat": 0.0, "lon": -77.038473, "is_reserved": 0, "bike_id": "d05591bddc9f25525beecd639a63c9d9", "fusion_lon": 0.0, "rental_uris": {"android": "https://dc.lft.to/lastmile_qr_scan", "ios": "https://dc.lft.to/lastmile_qr_scan"}, "name": "d05591bddc9f25525beecd639a63c9d9", "type": "electric_scooter", "lat": 38.9135035, "is_disabled": 0}, {"fusion_lat": 0.0, "lon": -77.04176683333333, "is_reserved": 0, "bike_id": "7e5cbcdb7a18202250b2d6d94834904c", "fusion_lon": 0.0, "rental_uris": {"android": "https://dc.lft.to/lastmile_qr_scan", "ios": "https://dc.lft.to/lastmile_qr_scan"}, "name": "7e5cbcdb7a18202250b2d6d94834904c", "type": "electric_scooter", "lat": 38.91262583333334, "is_disabled": 0}, {"fusion_lat": 0.0, "lon": -77.01965483333333, "is_reserved": 0, "bike_id": "05f9711c6c2ef1418fc9f1821b401d5f", "fusion_lon": 0.0, "rental_uris": {"android": "https://dc.lft.to/lastmile_qr_scan", "ios": "https://dc.lft.to/lastmile_qr_scan"}, "name": "05f9711c6c2ef1418fc9f1821b401d5f", "type": "electric_scooter", "lat": 38.9565435, "is_disabled": 0}, {"fusion_lat": 0.0, "lon": -77.04419483333334, "is_reserved": 0, "bike_id": "688a8f8251a486b376378a8bc8d8c095", "fusion_lon": 0.0, "rental_uris": {"android": "https://dc.lft.to/lastmile_qr_scan", "ios": "https://dc.lft.to/lastmile_qr_scan"}, "name": "688a8f8251a486b376378a8bc8d8c095", "type": "electric_scooter", "lat": 38.921102833333336, "is_disabled": 0}, {"fusion_lat": 0.0, "lon": -77.0207995, "is_reserved": 0, "bike_id": "73fc69d23f3d735bcde298e079e5009c", "fusion_lon": 0.0, "rental_uris": {"android": "https://dc.lft.to/lastmile_qr_scan", "ios": "https://dc.lft.to/lastmile_qr_scan"}, "name": "73fc69d23f3d735bcde298e079e5009c", "type": "electric_scooter", "lat": 38.93014983333333, "is_disabled": 0}, {"fusion_lat": 0.0, "lon": -76.98226333333334, "is_reserved": 0, "bike_id": "44989996e207b68e4597388e27480bd5", "fusion_lon": 0.0, "rental_uris": {"android": "https://dc.lft.to/lastmile_qr_scan", "ios": "https://dc.lft.to/lastmile_qr_scan"}, "name": "44989996e207b68e4597388e27480bd5", "type": "electric_scooter", "lat": 38.886475, "is_disabled": 0}, {"fusion_lat": 0.0, "lon": -77.0646055, "is_reserved": 0, "bike_id": "007619f9947e219a1d2cad6d0ca98ed7", "fusion_lon": 0.0, "rental_uris": {"android": "https://dc.lft.to/lastmile_qr_scan", "ios": "https://dc.lft.to/lastmile_qr_scan"}, "name": "007619f9947e219a1d2cad6d0ca98ed7", "type": "electric_scooter", "lat": 38.927456666666664, "is_disabled": 0}, {"fusion_lat": 0.0, "lon": -77.01581016666667, "is_reserved": 0, "bike_id": "7aa532c95108bb3ba91be874475ae6b8", "fusion_lon": 0.0, "rental_uris": {"android": "https://dc.lft.to/lastmile_qr_scan", "ios": "https://dc.lft.to/lastmile_qr_scan"}, "name": "7aa532c95108bb3ba91be874475ae6b8", "type": "electric_scooter", "lat": 38.886137833333336, "is_disabled": 0}, {"fusion_lat": 0.0, "lon": -77.037814, "is_reserved": 0, "bike_id": "1682841722564243c199e41ba6760abe", "fusion_lon": 0.0, "rental_uris": {"android": "https://dc.lft.to/lastmile_qr_scan", "ios": "https://dc.lft.to/lastmile_qr_scan"}, "name": "1682841722564243c199e41ba6760abe", "type": "electric_scooter", "lat": 38.9169665, "is_disabled": 0}, {"fusion_lat": 0.0, "lon": -77.03483366666667, "is_reserved": 0, "bike_id": "c744756c6b8fba81a7fa51d7c16d65bd", "fusion_lon": 0.0, "rental_uris": {"android": "https://dc.lft.to/lastmile_qr_scan", "ios": "https://dc.lft.to/lastmile_qr_scan"}, "name": "c744756c6b8fba81a7fa51d7c16d65bd", "type": "electric_scooter", "lat": 38.92480533333333, "is_disabled": 0}, {"fusion_lat": 0.0, "lon": -77.02579866666666, "is_reserved": 0, "bike_id": "61c68b1608d90a4016876a68ea20d5ea", "fusion_lon": 0.0, "rental_uris": {"android": "https://dc.lft.to/lastmile_qr_scan", "ios": "https://dc.lft.to/lastmile_qr_scan"}, "name": "61c68b1608d90a4016876a68ea20d5ea", "type": "electric_scooter", "lat": 38.9205525, "is_disabled": 0}, {"fusion_lat": 0.0, "lon": -77.02676583333333, "is_reserved": 0, "bike_id": "82519dac62e862cb3b6e52035142d5fe", "fusion_lon": 0.0, "rental_uris": {"android": "https://dc.lft.to/lastmile_qr_scan", "ios": "https://dc.lft.to/lastmile_qr_scan"}, "name": "82519dac62e862cb3b6e52035142d5fe", "type": "electric_scooter", "lat": 38.9010975, "is_disabled": 0}, {"fusion_lat": 0.0, "lon": -77.03234283333333, "is_reserved": 0, "bike_id": "ec9761c0ac6651d654a64ac27d2b9f4d", "fusion_lon": 0.0, "rental_uris": {"android": "https://dc.lft.to/lastmile_qr_scan", "ios": "https://dc.lft.to/lastmile_qr_scan"}, "name": "ec9761c0ac6651d654a64ac27d2b9f4d", "type": "electric_scooter", "lat": 38.928736666666666, "is_disabled": 0}, {"fusion_lat": 0.0, "lon": -76.9836375, "is_reserved": 0, "bike_id": "fb8571238cc53056c2aecd8ccd97a91e", "fusion_lon": 0.0, "rental_uris": {"android": "https://dc.lft.to/lastmile_qr_scan", "ios": "https://dc.lft.to/lastmile_qr_scan"}, "name": "fb8571238cc53056c2aecd8ccd97a91e", "type": "electric_scooter", "lat": 38.914992833333336, "is_disabled": 0}, {"fusion_lat": 0.0, "lon": -77.0120505, "is_reserved": 0, "bike_id": "eed93a21c4914f80360cd2089aff4b0b", "fusion_lon": 0.0, "rental_uris": {"android": "https://dc.lft.to/lastmile_qr_scan", "ios": "https://dc.lft.to/lastmile_qr_scan"}, "name": "eed93a21c4914f80360cd2089aff4b0b", "type": "electric_scooter", "lat": 38.870930333333334, "is_disabled": 0}, {"fusion_lat": 0.0, "lon": -77.0386655, "is_reserved": 0, "bike_id": "010707495b2c84d66dec3018ab341896", "fusion_lon": 0.0, "rental_uris": {"android": "https://dc.lft.to/lastmile_qr_scan", "ios": "https://dc.lft.to/lastmile_qr_scan"}, "name": "010707495b2c84d66dec3018ab341896", "type": "electric_scooter", "lat": 38.92151033333333, "is_disabled": 0}, {"fusion_lat": 0.0, "lon": -77.111646, "is_reserved": 0, "bike_id": "1adf82e0bbe98795eadaa47cd6a480a9", "fusion_lon": 0.0, "rental_uris": {"android": "https://dc.lft.to/lastmile_qr_scan", "ios": "https://dc.lft.to/lastmile_qr_scan"}, "name": "1adf82e0bbe98795eadaa47cd6a480a9", "type": "electric_bike", "lat": 38.85507466666667, "is_disabled": 0}, {"fusion_lat": 0.0, "lon": -77.06290483333333, "is_reserved": 0, "bike_id": "845bfe2007514402e6c8256bb515bfb2", "fusion_lon": 0.0, "rental_uris": {"android": "https://dc.lft.to/lastmile_qr_scan", "ios": "https://dc.lft.to/lastmile_qr_scan"}, "name": "845bfe2007514402e6c8256bb515bfb2", "type": "electric_scooter", "lat": 38.9043655, "is_disabled": 0}, {"fusion_lat": 0.0, "lon": -76.991404, "is_reserved": 0, "bike_id": "42dadf9b6e406e5621227b9507d41798", "fusion_lon": 0.0, "rental_uris": {"android": "https://dc.lft.to/lastmile_qr_scan", "ios": "https://dc.lft.to/lastmile_qr_scan"}, "name": "42dadf9b6e406e5621227b9507d41798", "type": "electric_scooter", "lat": 38.885953666666666, "is_disabled": 0}, {"fusion_lat": 0.0, "lon": -77.187421, "is_reserved": 0, "bike_id": "f2a834dcb5d775135115d44920665189", "fusion_lon": 0.0, "rental_uris": {"android": "https://dc.lft.to/lastmile_qr_scan", "ios": "https://dc.lft.to/lastmile_qr_scan"}, "name": "f2a834dcb5d775135115d44920665189", "type": "electric_bike", "lat": 38.89353366666667, "is_disabled": 0}, {"fusion_lat": 0.0, "lon": -77.01866366666667, "is_reserved": 0, "bike_id": "a53a9007b08c64dc636596d7562ce0bf", "fusion_lon": 0.0, "rental_uris": {"android": "https://dc.lft.to/lastmile_qr_scan", "ios": "https://dc.lft.to/lastmile_qr_scan"}, "name": "a53a9007b08c64dc636596d7562ce0bf", "type": "electric_scooter", "lat": 38.973691333333335, "is_disabled": 0}, {"fusion_lat": 0.0, "lon": -76.99525883333334, "is_reserved": 0, "bike_id": "cdae3f07b51d2b50170de236c8a12eea", "fusion_lon": 0.0, "rental_uris": {"android": "https://dc.lft.to/lastmile_qr_scan", "ios": "https://dc.lft.to/lastmile_qr_scan"}, "name": "cdae3f07b51d2b50170de236c8a12eea", "type": "electric_scooter", "lat": 38.88371733333334, "is_disabled": 0}, {"fusion_lat": 0.0, "lon": -77.03150783333334, "is_reserved": 0, "bike_id": "9707927caa58a65f2ac4ab3eb1e95a53", "fusion_lon": 0.0, "rental_uris": {"android": "https://dc.lft.to/lastmile_qr_scan", "ios": "https://dc.lft.to/lastmile_qr_scan"}, "name": "9707927caa58a65f2ac4ab3eb1e95a53", "type": "electric_scooter", "lat": 38.91928733333334, "is_disabled": 0}, {"fusion_lat": 0.0, "lon": -77.03351416666666, "is_reserved": 0, "bike_id": "7f2f3fa502cb19b7b9de61ffbffa6ef8", "fusion_lon": 0.0, "rental_uris": {"android": "https://dc.lft.to/lastmile_qr_scan", "ios": "https://dc.lft.to/lastmile_qr_scan"}, "name": "7f2f3fa502cb19b7b9de61ffbffa6ef8", "type": "electric_scooter", "lat": 38.89843666666667, "is_disabled": 0}, {"fusion_lat": 0.0, "lon": -77.03517283333333, "is_reserved": 0, "bike_id": "78cf6aa7f3757f79c6c694e06c8e8b24", "fusion_lon": 0.0, "rental_uris": {"android": "https://dc.lft.to/lastmile_qr_scan", "ios": "https://dc.lft.to/lastmile_qr_scan"}, "name": "78cf6aa7f3757f79c6c694e06c8e8b24", "type": "electric_scooter", "lat": 38.9225735, "is_disabled": 0}, {"fusion_lat": 0.0, "lon": -77.04687283333334, "is_reserved": 0, "bike_id": "23ac8e0c6645c546d2ac2259743c5732", "fusion_lon": 0.0, "rental_uris": {"android": "https://dc.lft.to/lastmile_qr_scan", "ios": "https://dc.lft.to/lastmile_qr_scan"}, "name": "23ac8e0c6645c546d2ac2259743c5732", "type": "electric_bike", "lat": 39.02392366666667, "is_disabled": 0}, {"fusion_lat": 0.0, "lon": -77.022155, "is_reserved": 0, "bike_id": "a3b10b0278ec6109bc0dbb2514d144f1", "fusion_lon": 0.0, "rental_uris": {"android": "https://dc.lft.to/lastmile_qr_scan", "ios": "https://dc.lft.to/lastmile_qr_scan"}, "name": "a3b10b0278ec6109bc0dbb2514d144f1", "type": "electric_scooter", "lat": 38.91647016666667, "is_disabled": 0}, {"fusion_lat": 0.0, "lon": -77.03953766666666, "is_reserved": 0, "bike_id": "7fbd234028b96d043ddc0e284d5884a4", "fusion_lon": 0.0, "rental_uris": {"android": "https://dc.lft.to/lastmile_qr_scan", "ios": "https://dc.lft.to/lastmile_qr_scan"}, "name": "7fbd234028b96d043ddc0e284d5884a4", "type": "electric_scooter", "lat": 38.892460166666666, "is_disabled": 0}, {"fusion_lat": 0.0, "lon": -76.97309733333333, "is_reserved": 0, "bike_id": "7db69f03c2a01a858f8d1ff766743e41", "fusion_lon": 0.0, "rental_uris": {"android": "https://dc.lft.to/lastmile_qr_scan", "ios": "https://dc.lft.to/lastmile_qr_scan"}, "name": "7db69f03c2a01a858f8d1ff766743e41", "type": "electric_scooter", "lat": 38.865688166666665, "is_disabled": 0}, {"fusion_lat": 0.0, "lon": -77.03717883333333, "is_reserved": 0, "bike_id": "52dd49633d76156e7f5e843a11f8fbdf", "fusion_lon": 0.0, "rental_uris": {"android": "https://dc.lft.to/lastmile_qr_scan", "ios": "https://dc.lft.to/lastmile_qr_scan"}, "name": "52dd49633d76156e7f5e843a11f8fbdf", "type": "electric_scooter", "lat": 38.9169055, "is_disabled": 0}, {"fusion_lat": 0.0, "lon": -77.04359133333334, "is_reserved": 0, "bike_id": "8bd69f3dc5de662ce99ed23a3c7637c8", "fusion_lon": 0.0, "rental_uris": {"android": "https://dc.lft.to/lastmile_qr_scan", "ios": "https://dc.lft.to/lastmile_qr_scan"}, "name": "8bd69f3dc5de662ce99ed23a3c7637c8", "type": "electric_scooter", "lat": 38.92064516666667, "is_disabled": 0}, {"fusion_lat": 0.0, "lon": -76.9838765, "is_reserved": 0, "bike_id": "f02913bfdf54afee61f8f8bd023e09fe", "fusion_lon": 0.0, "rental_uris": {"android": "https://dc.lft.to/lastmile_qr_scan", "ios": "https://dc.lft.to/lastmile_qr_scan"}, "name": "f02913bfdf54afee61f8f8bd023e09fe", "type": "electric_scooter", "lat": 38.92696383333333, "is_disabled": 0}, {"fusion_lat": 0.0, "lon": -77.04495166666666, "is_reserved": 0, "bike_id": "096dc3b23b9f5615d823346b741932f4", "fusion_lon": 0.0, "rental_uris": {"android": "https://dc.lft.to/lastmile_qr_scan", "ios": "https://dc.lft.to/lastmile_qr_scan"}, "name": "096dc3b23b9f5615d823346b741932f4", "type": "electric_scooter", "lat": 38.911135, "is_disabled": 0}, {"fusion_lat": 0.0, "lon": -77.02047516666667, "is_reserved": 0, "bike_id": "e6c0e0ffee57fefcd7099cd9d4c0e806", "fusion_lon": 0.0, "rental_uris": {"android": "https://dc.lft.to/lastmile_qr_scan", "ios": "https://dc.lft.to/lastmile_qr_scan"}, "name": "e6c0e0ffee57fefcd7099cd9d4c0e806", "type": "electric_scooter", "lat": 38.9218785, "is_disabled": 0}, {"fusion_lat": 0.0, "lon": -77.03194466666666, "is_reserved": 0, "bike_id": "3a9ccbebea15b38388b5b5d05f3bf571", "fusion_lon": 0.0, "rental_uris": {"android": "https://dc.lft.to/lastmile_qr_scan", "ios": "https://dc.lft.to/lastmile_qr_scan"}, "name": "3a9ccbebea15b38388b5b5d05f3bf571", "type": "electric_scooter", "lat": 38.91321533333333, "is_disabled": 0}, {"fusion_lat": 0.0, "lon": -77.078173, "is_reserved": 0, "bike_id": "e22e19f962c824acbe86d7142ad974fa", "fusion_lon": 0.0, "rental_uris": {"android": "https://dc.lft.to/lastmile_qr_scan", "ios": "https://dc.lft.to/lastmile_qr_scan"}, "name": "e22e19f962c824acbe86d7142ad974fa", "type": "electric_bike", "lat": 38.936408166666666, "is_disabled": 0}, {"fusion_lat": 0.0, "lon": -76.97607733333334, "is_reserved": 0, "bike_id": "093c0e3db47f34a5677eb7f0bbcad8d4", "fusion_lon": 0.0, "rental_uris": {"android": "https://dc.lft.to/lastmile_qr_scan", "ios": "https://dc.lft.to/lastmile_qr_scan"}, "name": "093c0e3db47f34a5677eb7f0bbcad8d4", "type": "electric_scooter", "lat": 38.91296166666667, "is_disabled": 0}, {"fusion_lat": 0.0, "lon": -77.03608266666667, "is_reserved": 0, "bike_id": "fcd79f869f736a4339a3dc640e11cd47", "fusion_lon": 0.0, "rental_uris": {"android": "https://dc.lft.to/lastmile_qr_scan", "ios": "https://dc.lft.to/lastmile_qr_scan"}, "name": "fcd79f869f736a4339a3dc640e11cd47", "type": "electric_scooter", "lat": 38.9304045, "is_disabled": 0}, {"fusion_lat": 0.0, "lon": -77.02692333333333, "is_reserved": 0, "bike_id": "dcbb69a692182bf6e3a4c5eaf8116026", "fusion_lon": 0.0, "rental_uris": {"android": "https://dc.lft.to/lastmile_qr_scan", "ios": "https://dc.lft.to/lastmile_qr_scan"}, "name": "dcbb69a692182bf6e3a4c5eaf8116026", "type": "electric_scooter", "lat": 38.91581016666667, "is_disabled": 0}, {"fusion_lat": 0.0, "lon": -77.02599033333334, "is_reserved": 0, "bike_id": "6b2056670ac77f9238efb50f834d3854", "fusion_lon": 0.0, "rental_uris": {"android": "https://dc.lft.to/lastmile_qr_scan", "ios": "https://dc.lft.to/lastmile_qr_scan"}, "name": "6b2056670ac77f9238efb50f834d3854", "type": "electric_scooter", "lat": 38.89429416666667, "is_disabled": 0}, {"fusion_lat": 0.0, "lon": -76.9884095, "is_reserved": 0, "bike_id": "32e43aa0f61fc678b09a86ff249dc1f4", "fusion_lon": 0.0, "rental_uris": {"android": "https://dc.lft.to/lastmile_qr_scan", "ios": "https://dc.lft.to/lastmile_qr_scan"}, "name": "32e43aa0f61fc678b09a86ff249dc1f4", "type": "electric_bike", "lat": 38.8427565, "is_disabled": 0}, {"fusion_lat": 0.0, "lon": -76.98031266666666, "is_reserved": 0, "bike_id": "e46a3ff3ee20fae67745d7057fb6016c", "fusion_lon": 0.0, "rental_uris": {"android": "https://dc.lft.to/lastmile_qr_scan", "ios": "https://dc.lft.to/lastmile_qr_scan"}, "name": "e46a3ff3ee20fae67745d7057fb6016c", "type": "electric_scooter", "lat": 38.901877166666665, "is_disabled": 0}, {"fusion_lat": 0.0, "lon": -77.042253, "is_reserved": 0, "bike_id": "0b281f2239b113d9310946141193db64", "fusion_lon": 0.0, "rental_uris": {"android": "https://dc.lft.to/lastmile_qr_scan", "ios": "https://dc.lft.to/lastmile_qr_scan"}, "name": "0b281f2239b113d9310946141193db64", "type": "electric_scooter", "lat": 38.931529833333336, "is_disabled": 0}, {"fusion_lat": 0.0, "lon": -77.04573583333334, "is_reserved": 0, "bike_id": "cac35f0bbad3aa3bd58c3b233bcbc7a7", "fusion_lon": 0.0, "rental_uris": {"android": "https://dc.lft.to/lastmile_qr_scan", "ios": "https://dc.lft.to/lastmile_qr_scan"}, "name": "cac35f0bbad3aa3bd58c3b233bcbc7a7", "type": "electric_scooter", "lat": 38.921227, "is_disabled": 0}, {"fusion_lat": 0.0, "lon": -77.02229266666667, "is_reserved": 0, "bike_id": "a0136a4132d2e79e1e14ad70eb07e375", "fusion_lon": 0.0, "rental_uris": {"android": "https://dc.lft.to/lastmile_qr_scan", "ios": "https://dc.lft.to/lastmile_qr_scan"}, "name": "a0136a4132d2e79e1e14ad70eb07e375", "type": "electric_scooter", "lat": 38.892204666666665, "is_disabled": 0}, {"fusion_lat": 0.0, "lon": -77.03428383333333, "is_reserved": 0, "bike_id": "ffa93cb88e4d2fccb3fde1e181e7de18", "fusion_lon": 0.0, "rental_uris": {"android": "https://dc.lft.to/lastmile_qr_scan", "ios": "https://dc.lft.to/lastmile_qr_scan"}, "name": "ffa93cb88e4d2fccb3fde1e181e7de18", "type": "electric_scooter", "lat": 38.919353666666666, "is_disabled": 0}, {"fusion_lat": 0.0, "lon": -77.03261066666667, "is_reserved": 0, "bike_id": "c78e956a0260fce7f6bef77976fa241c", "fusion_lon": 0.0, "rental_uris": {"android": "https://dc.lft.to/lastmile_qr_scan", "ios": "https://dc.lft.to/lastmile_qr_scan"}, "name": "c78e956a0260fce7f6bef77976fa241c", "type": "electric_scooter", "lat": 38.91798133333333, "is_disabled": 0}, {"fusion_lat": 0.0, "lon": -77.034834, "is_reserved": 0, "bike_id": "0ff507b0a34dffb5231a852c49466b64", "fusion_lon": 0.0, "rental_uris": {"android": "https://dc.lft.to/lastmile_qr_scan", "ios": "https://dc.lft.to/lastmile_qr_scan"}, "name": "0ff507b0a34dffb5231a852c49466b64", "type": "electric_scooter", "lat": 38.92152683333333, "is_disabled": 0}, {"fusion_lat": 0.0, "lon": -77.03261766666667, "is_reserved": 0, "bike_id": "11940cedba9329217e9405eb8d983ba4", "fusion_lon": 0.0, "rental_uris": {"android": "https://dc.lft.to/lastmile_qr_scan", "ios": "https://dc.lft.to/lastmile_qr_scan"}, "name": "11940cedba9329217e9405eb8d983ba4", "type": "electric_scooter", "lat": 38.9341305, "is_disabled": 0}, {"fusion_lat": 0.0, "lon": -77.0061495, "is_reserved": 0, "bike_id": "649f92e7e2f05db4bebeef3dabc27879", "fusion_lon": 0.0, "rental_uris": {"android": "https://dc.lft.to/lastmile_qr_scan", "ios": "https://dc.lft.to/lastmile_qr_scan"}, "name": "649f92e7e2f05db4bebeef3dabc27879", "type": "electric_scooter", "lat": 38.87172566666667, "is_disabled": 0}, {"fusion_lat": 0.0, "lon": -77.04335, "is_reserved": 0, "bike_id": "7765a3f11d0ac4f1addb5a948e40a204", "fusion_lon": 0.0, "rental_uris": {"android": "https://dc.lft.to/lastmile_qr_scan", "ios": "https://dc.lft.to/lastmile_qr_scan"}, "name": "7765a3f11d0ac4f1addb5a948e40a204", "type": "electric_scooter", "lat": 38.892279333333335, "is_disabled": 0}, {"fusion_lat": 0.0, "lon": -76.99951683333333, "is_reserved": 0, "bike_id": "0b80d1b801b6418aee0717ce25538454", "fusion_lon": 0.0, "rental_uris": {"android": "https://dc.lft.to/lastmile_qr_scan", "ios": "https://dc.lft.to/lastmile_qr_scan"}, "name": "0b80d1b801b6418aee0717ce25538454", "type": "electric_scooter", "lat": 38.923531833333335, "is_disabled": 0}, {"fusion_lat": 0.0, "lon": -77.019412, "is_reserved": 0, "bike_id": "d2a6458a3f1787a04ddba9a279edaa52", "fusion_lon": 0.0, "rental_uris": {"android": "https://dc.lft.to/lastmile_qr_scan", "ios": "https://dc.lft.to/lastmile_qr_scan"}, "name": "d2a6458a3f1787a04ddba9a279edaa52", "type": "electric_scooter", "lat": 38.94933283333334, "is_disabled": 0}, {"fusion_lat": 0.0, "lon": -77.05622816666667, "is_reserved": 0, "bike_id": "77f6772fccb0e447041dbfc1ef5f6a8a", "fusion_lon": 0.0, "rental_uris": {"android": "https://dc.lft.to/lastmile_qr_scan", "ios": "https://dc.lft.to/lastmile_qr_scan"}, "name": "77f6772fccb0e447041dbfc1ef5f6a8a", "type": "electric_scooter", "lat": 38.96074266666667, "is_disabled": 0}, {"fusion_lat": 0.0, "lon": -77.03871666666667, "is_reserved": 0, "bike_id": "b3788eab229d458b2ec9dad3b7db6c7a", "fusion_lon": 0.0, "rental_uris": {"android": "https://dc.lft.to/lastmile_qr_scan", "ios": "https://dc.lft.to/lastmile_qr_scan"}, "name": "b3788eab229d458b2ec9dad3b7db6c7a", "type": "electric_scooter", "lat": 38.906662833333336, "is_disabled": 0}, {"fusion_lat": 0.0, "lon": -77.0386205, "is_reserved": 0, "bike_id": "9538024553263b58d9c9aa4c98a28ca5", "fusion_lon": 0.0, "rental_uris": {"android": "https://dc.lft.to/lastmile_qr_scan", "ios": "https://dc.lft.to/lastmile_qr_scan"}, "name": "9538024553263b58d9c9aa4c98a28ca5", "type": "electric_scooter", "lat": 38.915557666666665, "is_disabled": 0}, {"fusion_lat": 0.0, "lon": -77.03081266666666, "is_reserved": 0, "bike_id": "ec72f825be10bba4df4945ef4b6b687d", "fusion_lon": 0.0, "rental_uris": {"android": "https://dc.lft.to/lastmile_qr_scan", "ios": "https://dc.lft.to/lastmile_qr_scan"}, "name": "ec72f825be10bba4df4945ef4b6b687d", "type": "electric_scooter", "lat": 38.92236483333333, "is_disabled": 0}, {"fusion_lat": 0.0, "lon": -77.01843016666666, "is_reserved": 0, "bike_id": "abf89e77929274ad11a91487a77a1284", "fusion_lon": 0.0, "rental_uris": {"android": "https://dc.lft.to/lastmile_qr_scan", "ios": "https://dc.lft.to/lastmile_qr_scan"}, "name": "abf89e77929274ad11a91487a77a1284", "type": "electric_scooter", "lat": 38.949952, "is_disabled": 0}, {"fusion_lat": 0.0, "lon": -77.095992, "is_reserved": 0, "bike_id": "9fd7299dcc53d47f853236d115117b0f", "fusion_lon": 0.0, "rental_uris": {"android": "https://dc.lft.to/lastmile_qr_scan", "ios": "https://dc.lft.to/lastmile_qr_scan"}, "name": "9fd7299dcc53d47f853236d115117b0f", "type": "electric_bike", "lat": 39.02889533333333, "is_disabled": 0}, {"fusion_lat": 0.0, "lon": -77.0020675, "is_reserved": 0, "bike_id": "f4a8aee9dd648ed36c3161bc1825db7a", "fusion_lon": 0.0, "rental_uris": {"android": "https://dc.lft.to/lastmile_qr_scan", "ios": "https://dc.lft.to/lastmile_qr_scan"}, "name": "f4a8aee9dd648ed36c3161bc1825db7a", "type": "electric_scooter", "lat": 38.900473166666664, "is_disabled": 0}, {"fusion_lat": 0.0, "lon": -77.0607525, "is_reserved": 0, "bike_id": "648a70f4a907232f84ea78cd3424ff82", "fusion_lon": 0.0, "rental_uris": {"android": "https://dc.lft.to/lastmile_qr_scan", "ios": "https://dc.lft.to/lastmile_qr_scan"}, "name": "648a70f4a907232f84ea78cd3424ff82", "type": "electric_bike", "lat": 38.88585666666667, "is_disabled": 0}, {"fusion_lat": 0.0, "lon": -77.03531816666667, "is_reserved": 0, "bike_id": "999d1042c653b5c0f2d3086aaaf50542", "fusion_lon": 0.0, "rental_uris": {"android": "https://dc.lft.to/lastmile_qr_scan", "ios": "https://dc.lft.to/lastmile_qr_scan"}, "name": "999d1042c653b5c0f2d3086aaaf50542", "type": "electric_scooter", "lat": 38.92424033333333, "is_disabled": 0}, {"fusion_lat": 0.0, "lon": -76.99522816666666, "is_reserved": 0, "bike_id": "74875606e1b98bd80ea985352f36d3f3", "fusion_lon": 0.0, "rental_uris": {"android": "https://dc.lft.to/lastmile_qr_scan", "ios": "https://dc.lft.to/lastmile_qr_scan"}, "name": "74875606e1b98bd80ea985352f36d3f3", "type": "electric_scooter", "lat": 38.8776015, "is_disabled": 0}, {"fusion_lat": 0.0, "lon": -77.00629066666667, "is_reserved": 0, "bike_id": "0914b79c852ecaeb28ecddace9096c23", "fusion_lon": 0.0, "rental_uris": {"android": "https://dc.lft.to/lastmile_qr_scan", "ios": "https://dc.lft.to/lastmile_qr_scan"}, "name": "0914b79c852ecaeb28ecddace9096c23", "type": "electric_scooter", "lat": 38.908184166666665, "is_disabled": 0},