{"data": {"bikes": [{"bike_id": "13597a30cab18cde1b7a000740a05b19", "fusion_lon": 0.0, "lon": -77.05686266666666, "name": "13597a30cab18cde1b7a000740a05b19", "is_disabled": 0, "rental_uris": {"android": "https://dc.lft.to/lastmile_qr_scan", "ios": "https://dc.lft.to/lastmile_qr_scan"}, "type": "electric_bike", "lat": 38.93531333333333, "is_reserved": 0, "fusion_lat": 0.0}, {"bike_id": "b2bb7f4afffe1f952b6e089f9b4525ad", "fusion_lon": 0.0, "lon": -77.02943733333333, "name": "b2bb7f4afffe1f952b6e089f9b4525ad", "is_disabled": 0, "rental_uris": {"android": "https://dc.lft.to/lastmile_qr_scan", "ios": "https://dc.lft.to/lastmile_qr_scan"}, "type": "electric_scooter", "lat": 38.904926, "is_reserved": 0, "fusion_lat": 0.0}, {"bike_id": "e808873ef2a397fdcbb51f0e5501d73f", "fusion_lon": 0.0, "lon": -77.03049666666666, "name": "e808873ef2a397fdcbb51f0e5501d73f", "is_disabled": 0, "rental_uris": {"android": "https://dc.lft.to/lastmile_qr_scan", "ios": "https://dc.lft.to/lastmile_qr_scan"}, "type": "electric_scooter", "lat": 38.884099, "is_reserved": 0, "fusion_lat": 0.0}, {"bike_id": "9ed03ab1b26a65a289c0fd526ca51edc", "fusion_lon": 0.0, "lon": -77.04159516666667, "name": "9ed03ab1b26a65a289c0fd526ca51edc", "is_disabled": 0, "rental_uris": {"android": "https://dc.lft.to/lastmile_qr_scan", "ios": "https://dc.lft.to/lastmile_qr_scan"}, "type": "electric_scooter", "lat": 38.91649483333333, "is_reserved": 0, "fusion_lat": 0.0}, {"bike_id": "ca628b8ac3f8e31b59d07652b6b29a40", "fusion_lon": 0.0, "lon": -76.98276816666667, "name": "ca628b8ac3f8e31b59d07652b6b29a40", "is_disabled": 0, "rental_uris": {"android": "https://dc.lft.to/lastmile_qr_scan", "ios": "https://dc.lft.to/lastmile_qr_scan"}, "type": "electric_scooter", "lat": 38.90429866666667, "is_reserved": 0, "fusion_lat": 0.0}, {"bike_id": "9ad38ba9362de67b9e7a87bafc1d9c8f", "fusion_lon": 0.0, "lon": -76.99557916666667, "name": "9ad38ba9362de67b9e7a87bafc1d9c8f", "is_disabled": 0, "rental_uris": {"android": "https://dc.lft.to/lastmile_qr_scan", "ios": "https://dc.lft.to/lastmile_qr_scan"}, "type": "electric_scooter", "lat": 38.862605333333335, "is_reserved": 0, "fusion_lat": 0.0}, {"bike_id": "054d342521021a7f821254d304fb97c2", "fusion_lon": 0.0, "lon": -77.02252283333333, "name": "054d342521021a7f821254d304fb97c2", "is_disabled": 0, "rental_uris": {"android": "https://dc.lft.to/lastmile_qr_scan", "ios": "https://dc.lft.to/lastmile_qr_scan"}, "type": "electric_scooter", "lat": 38.923086833333336, "is_reserved": 0, "fusion_lat": 0.0}, {"bike_id": "a3203abe3be55b5140c22a9350119616", "fusion_lon": 0.0, "lon": -77.03974533333333, "name": "a3203abe3be55b5140c22a9350119616", "is_disabled": 0, "rental_uris": {"android": "https://dc.lft.to/lastmile_qr_scan", "ios": "https://dc.lft.to/lastmile_qr_scan"}, "type": "electric_scooter", "lat": 38.90258266666667, "is_reserved": 0, "fusion_lat": 0.0}, {"bike_id": "84c92ac1107b30f49649a85eeae371c0", "fusion_lon": 0.0, "lon": -76.9955415, "name": "84c92ac1107b30f49649a85eeae371c0", "is_disabled": 0, "rental_uris": {"android": "https://dc.lft.to/lastmile_qr_scan", "ios": "https://dc.lft.to/lastmile_qr_scan"}, "type": "electric_scooter", "lat": 38.882698500000004, "is_reserved": 0, "fusion_lat": 0.0}, {"bike_id": "cf4bf20a2f57e6704daf424dd6dfbda5", "fusion_lon": 0.0, "lon": -76.98312783333333, "name": "cf4bf20a2f57e6704daf424dd6dfbda5", "is_disabled": 0, "rental_uris": {"android": "https://dc.lft.to/lastmile_qr_scan", "ios": "https://dc.lft.to/lastmile_qr_scan"}, "type": "electric_scooter", "lat": 38.8689235, "is_reserved": 0, "fusion_lat": 0.0}, {"bike_id": "bc7e3dd11472c9710ce2614a30ff9313", "fusion_lon": 0.0, "lon": -76.9977545, "name": "bc7e3dd11472c9710ce2614a30ff9313", "is_disabled": 0, "rental_uris": {"android": "https://dc.lft.to/lastmile_qr_scan", "ios": "https://dc.lft.to/lastmile_qr_scan"}, "type": "electric_scooter", "lat": 38.8443435, "is_reserved": 0, "fusion_lat": 0.0}, {"bike_id": "d587c2eff92ce087de0e8a5fafab9617", "fusion_lon": 0.0, "lon": -77.04342266666667, "name": "d587c2eff92ce087de0e8a5fafab9617", "is_disabled": 0, "rental_uris": {"android": "https://dc.lft.to/lastmile_qr_scan", "ios": "https://dc.lft.to/lastmile_qr_scan"}, "type": "electric_scooter", "lat": 38.921516, "is_reserved": 0, "fusion_lat": 0.0}, {"bike_id": "63db2184de051a333b4fb327719f801a", "fusion_lon": 0.0, "lon": -77.027062, "name": "63db2184de051a333b4fb327719f801a", "is_disabled": 0, "rental_uris": {"android": "https://dc.lft.to/lastmile_qr_scan", "ios": "https://dc.lft.to/lastmile_qr_scan"}, "type": "electric_scooter", "lat": 38.8959725, "is_reserved": 0, "fusion_lat": 0.0}, {"bike_id": "12a233a29ef1f867c4593f183a96c5e1", "fusion_lon": 0.0, "lon": -77.02741083333333, "name": "12a233a29ef1f867c4593f183a96c5e1", "is_disabled": 0, "rental_uris": {"android": "https://dc.lft.to/lastmile_qr_scan", "ios": "https://dc.lft.to/lastmile_qr_scan"}, "type": "electric_scooter", "lat": 38.967069333333335, "is_reserved": 0, "fusion_lat": 0.0}, {"bike_id": "61220f67552b0a9b5df19d58acb9099f", "fusion_lon": 0.0, "lon": -77.00748416666667, "name": "61220f67552b0a9b5df19d58acb9099f", "is_disabled": 0, "rental_uris": {"android": "https://dc.lft.to/lastmile_qr_scan", "ios": "https://dc.lft.to/lastmile_qr_scan"}, "type": "electric_scooter", "lat": 38.903643833333334, "is_reserved": 0, "fusion_lat": 0.0}, {"bike_id": "d5fb968c21a8bb4568550bfacacdcd92", "fusion_lon": 0.0, "lon": -77.0190435, "name": "d5fb968c21a8bb4568550bfacacdcd92", "is_disabled": 0, "rental_uris": {"android": "https://dc.lft.to/lastmile_qr_scan", "ios": "https://dc.lft.to/lastmile_qr_scan"}, "type": "electric_scooter", "lat": 38.91507083333333, "is_reserved": 0, "fusion_lat": 0.0}, {"bike_id": "88329f85bd3f4af708487f0b64adb53b", "fusion_lon": 0.0, "lon": -76.97837433333333, "name": "88329f85bd3f4af708487f0b64adb53b", "is_disabled": 0, "rental_uris": {"android": "https://dc.lft.to/lastmile_qr_scan", "ios": "https://dc.lft.to/lastmile_qr_scan"}, "type": "electric_bike", "lat": 38.870759, "is_reserved": 0, "fusion_lat": 0.0}, {"bike_id": "36504f99ec7fb38981ce1e9ac94cdd8b", "fusion_lon": 0.0, "lon": -77.02958766666667, "name": "36504f99ec7fb38981ce1e9ac94cdd8b", "is_disabled": 0, "rental_uris": {"android": "https://dc.lft.to/lastmile_qr_scan", "ios": "https://dc.lft.to/lastmile_qr_scan"}, "type": "electric_scooter", "lat": 38.93232, "is_reserved": 0, "fusion_lat": 0.0}, {"bike_id": "c2bf104463b481152097805b79447242", "fusion_lon": 0.0, "lon": -77.0535475, "name": "c2bf104463b481152097805b79447242", "is_disabled": 0, "rental_uris": {"android": "https://dc.lft.to/lastmile_qr_scan", "ios": "https://dc.lft.to/lastmile_qr_scan"}, "type": "electric_scooter", "lat": 38.92668483333333, "is_reserved": 0, "fusion_lat": 0.0}, {"bike_id": "4a74710ea1b0ffc38fbf350b9caa9021", "fusion_lon": 0.0, "lon": -76.9933385, "name": "4a74710ea1b0ffc38fbf350b9caa9021", "is_disabled": 0, "rental_uris": {"android": "https://dc.lft.to/lastmile_qr_scan", "ios": "https://dc.lft.to/lastmile_qr_scan"}, "type": "electric_scooter", "lat": 38.8714525, "is_reserved": 0, "fusion_lat": 0.0}, {"bike_id": "b41a244e7a27045ad16e4f29864513b1", "fusion_lon": 0.0, "lon": -77.04382166666667, "name": "b41a244e7a27045ad16e4f29864513b1", "is_disabled": 0, "rental_uris": {"android": "https://dc.lft.to/lastmile_qr_scan", "ios": "https://dc.lft.to/lastmile_qr_scan"}, "type": "electric_scooter", "lat": 38.91076233333333, "is_reserved": 0, "fusion_lat": 0.0}, {"bike_id": "6cd2e318ccb67651be39e9c38496a045", "fusion_lon": 0.0, "lon": -76.93735666666667, "name": "6cd2e318ccb67651be39e9c38496a045", "is_disabled": 0, "rental_uris": {"android": "https://dc.lft.to/lastmile_qr_scan", "ios": "https://dc.lft.to/lastmile_qr_scan"}, "type": "electric_scooter", "lat": 38.8901555, "is_reserved": 0, "fusion_lat": 0.0}, {"bike_id": "9029bc0032387452e6976f75793a28eb", "fusion_lon": 0.0, "lon": -76.94789183333333, "name": "9029bc0032387452e6976f75793a28eb", "is_disabled": 0, "rental_uris": {"android": "https://dc.lft.to/lastmile_qr_scan", "ios": "https://dc.lft.to/lastmile_qr_scan"}, "type": "electric_bike", "lat": 38.8940545, "is_reserved": 0, "fusion_lat": 0.0}, {"bike_id": "ff2003153bf1f4a3b416fc3aa6911b24", "fusion_lon": 0.0, "lon": -76.9886615, "name": "ff2003153bf1f4a3b416fc3aa6911b24", "is_disabled": 0, "rental_uris": {"android": "https://dc.lft.to/lastmile_qr_scan", "ios": "https://dc.lft.to/lastmile_qr_scan"}, "type": "electric_bike", "lat": 38.95484016666666, "is_reserved": 0, "fusion_lat": 0.0}, {"bike_id": "85911c5416bf299dd8f70c035dbfd79a", "fusion_lon": 0.0, "lon": -77.01762383333333, "name": "85911c5416bf299dd8f70c035dbfd79a", "is_disabled": 0, "rental_uris": {"android": "https://dc.lft.to/lastmile_qr_scan", "ios": "https://dc.lft.to/lastmile_qr_scan"}, "type": "electric_scooter", "lat": 38.902499, "is_reserved": 0, "fusion_lat": 0.0}, {"bike_id": "42e36862635f8cb60388e1c1e1fc03bf", "fusion_lon": 0.0, "lon": -77.03853383333333, "name": "42e36862635f8cb60388e1c1e1fc03bf", "is_disabled": 0, "rental_uris": {"android": "https://dc.lft.to/lastmile_qr_scan", "ios": "https://dc.lft.to/lastmile_qr_scan"}, "type": "electric_scooter", "lat": 38.86748633333333, "is_reserved": 0, "fusion_lat": 0.0}, {"bike_id": "5308959b5581f91c8bef142a002ff324", "fusion_lon": 0.0, "lon": -77.1104765, "name": "5308959b5581f91c8bef142a002ff324", "is_disabled": 0, "rental_uris": {"android": "https://dc.lft.to/lastmile_qr_scan", "ios": "https://dc.lft.to/lastmile_qr_scan"}, "type": "electric_bike", "lat": 38.870776, "is_reserved": 0, "fusion_lat": 0.0}, {"bike_id": "282e83bc1519eec7d7d8518402fc3102", "fusion_lon": 0.0, "lon": -77.03587666666667, "name": "282e83bc1519eec7d7d8518402fc3102", "is_disabled": 0, "rental_uris": {"android": "https://dc.lft.to/lastmile_qr_scan", "ios": "https://dc.lft.to/lastmile_qr_scan"}, "type": "electric_scooter", "lat": 38.936741166666664, "is_reserved": 0, "fusion_lat": 0.0}, {"bike_id": "d93052dcdac19a19ec1bfdd848aae8e4", "fusion_lon": 0.0, "lon": -77.04699183333334, "name": "d93052dcdac19a19ec1bfdd848aae8e4", "is_disabled": 0, "rental_uris": {"android": "https://dc.lft.to/lastmile_qr_scan", "ios": "https://dc.lft.to/lastmile_qr_scan"}, "type": "electric_scooter", "lat": 38.92101516666666, "is_reserved": 0, "fusion_lat": 0.0}, {"bike_id": "070333f0b069bd45763f408e8c8749d9", "fusion_lon": 0.0, "lon": -76.999056, "name": "070333f0b069bd45763f408e8c8749d9", "is_disabled": 0, "rental_uris": {"android": "https://dc.lft.to/lastmile_qr_scan", "ios": "https://dc.lft.to/lastmile_qr_scan"}, "type": "electric_scooter", "lat": 38.948169666666665, "is_reserved": 0, "fusion_lat": 0.0}, {"bike_id": "137c375729208dfca2c0b18ac3991b82", "fusion_lon": 0.0, "lon": -76.9987385, "name": "137c375729208dfca2c0b18ac3991b82", "is_disabled": 0, "rental_uris": {"android": "https://dc.lft.to/lastmile_qr_scan", "ios": "https://dc.lft.to/lastmile_qr_scan"}, "type": "electric_scooter", "lat": 38.900277, "is_reserved": 0, "fusion_lat": 0.0}, {"bike_id": "76b304e4b09047ad867722dd5278b686", "fusion_lon": 0.0, "lon": -77.02209266666667, "name": "76b304e4b09047ad867722dd5278b686", "is_disabled": 0, "rental_uris": {"android": "https://dc.lft.to/lastmile_qr_scan", "ios": "https://dc.lft.to/lastmile_qr_scan"}, "type": "electric_scooter", "lat": 38.915561, "is_reserved": 0, "fusion_lat": 0.0}, {"bike_id": "b01ece3c04402f9f6668475cda0d78e1", "fusion_lon": 0.0, "lon": -76.97957083333333, "name": "b01ece3c04402f9f6668475cda0d78e1", "is_disabled": 0, "rental_uris": {"android": "https://dc.lft.to/lastmile_qr_scan", "ios": "https://dc.lft.to/lastmile_qr_scan"}, "type": "electric_scooter", "lat": 38.916905666666665, "is_reserved": 0, "fusion_lat": 0.0}, {"bike_id": "ab5480cd5b9593c0ab31599d914903a9", "fusion_lon": 0.0, "lon": -77.1389395, "name": "ab5480cd5b9593c0ab31599d914903a9", "is_disabled": 0, "rental_uris": {"android": "https://dc.lft.to/lastmile_qr_scan", "ios": "https://dc.lft.to/lastmile_qr_scan"}, "type": "electric_bike", "lat": 38.89686566666666, "is_reserved": 0, "fusion_lat": 0.0}, {"bike_id": "df58615e8e41ae0175a4a2979aa8171d", "fusion_lon": 0.0, "lon": -77.03346983333333, "name": "df58615e8e41ae0175a4a2979aa8171d", "is_disabled": 0, "rental_uris": {"android": "https://dc.lft.to/lastmile_qr_scan", "ios": "https://dc.lft.to/lastmile_qr_scan"}, "type": "electric_scooter", "lat": 38.88507466666667, "is_reserved": 0, "fusion_lat": 0.0}, {"bike_id": "a216fec8e17844ce8359b63a94dc764b", "fusion_lon": 0.0, "lon": -77.04232266666666, "name": "a216fec8e17844ce8359b63a94dc764b", "is_disabled": 0, "rental_uris": {"android": "https://dc.lft.to/lastmile_qr_scan", "ios": "https://dc.lft.to/lastmile_qr_scan"}, "type": "electric_scooter", "lat": 38.917919833333336, "is_reserved": 0, "fusion_lat": 0.0}, {"bike_id": "becf65fb8f900400ca3248ce7fd66ff9", "fusion_lon": 0.0, "lon": -77.06339333333334, "name": "becf65fb8f900400ca3248ce7fd66ff9", "is_disabled": 0, "rental_uris": {"android": "https://dc.lft.to/lastmile_qr_scan", "ios": "https://dc.lft.to/lastmile_qr_scan"}, "type": "electric_scooter", "lat": 38.906782666666665, "is_reserved": 0, "fusion_lat": 0.0}, {"bike_id": "12209d50c6b5b73167220f6b0bca2a64", "fusion_lon": 0.0, "lon": -77.04511116666667, "name": "12209d50c6b5b73167220f6b0bca2a64", "is_disabled": 0, "rental_uris": {"android": "https://dc.lft.to/lastmile_qr_scan", "ios": "https://dc.lft.to/lastmile_qr_scan"}, "type": "electric_scooter", "lat": 38.886041166666665, "is_reserved": 0, "fusion_lat": 0.0}, {"bike_id": "ad078458c61aa782f5c1e1dccb90c788", "fusion_lon": 0.0, "lon": -77.02294833333333, "name": "ad078458c61aa782f5c1e1dccb90c788", "is_disabled": 0, "rental_uris": {"android": "https://dc.lft.to/lastmile_qr_scan", "ios": "https://dc.lft.to/lastmile_qr_scan"}, "type": "electric_scooter", "lat": 38.916149, "is_reserved": 0, "fusion_lat": 0.0}, {"bike_id": "57102c0db91fb67c3354827cb819a217", "fusion_lon": 0.0, "lon": -76.931956, "name": "57102c0db91fb67c3354827cb819a217", "is_disabled": 0, "rental_uris": {"android": "https://dc.lft.to/lastmile_qr_scan", "ios": "https://dc.lft.to/lastmile_qr_scan"}, "type": "electric_scooter", "lat": 38.898775666666666, "is_reserved": 0, "fusion_lat": 0.0}, {"bike_id": "e270a8250c8b7a29328e0be1e04390fe", "fusion_lon": 0.0, "lon": -77.02953283333333, "name": "e270a8250c8b7a29328e0be1e04390fe", "is_disabled": 0, "rental_uris": {"android": "https://dc.lft.to/lastmile_qr_scan", "ios": "https://dc.lft.to/lastmile_qr_scan"}, "type": "electric_scooter", "lat": 38.899447, "is_reserved": 0, "fusion_lat": 0.0}, {"bike_id": "56b43d45538e40dca7d217680944c20d", "fusion_lon": 0.0, "lon": -77.0397585, "name": "56b43d45538e40dca7d217680944c20d", "is_disabled": 0, "rental_uris": {"android": "https://dc.lft.to/lastmile_qr_scan", "ios": "https://dc.lft.to/lastmile_qr_scan"}, "type": "electric_scooter", "lat": 38.9025395, "is_reserved": 0, "fusion_lat": 0.0}, {"bike_id": "fb8765b08f075a856677732f5abbb4fb", "fusion_lon": 0.0, "lon": -77.0585675, "name": "fb8765b08f075a856677732f5abbb4fb", "is_disabled": 0, "rental_uris": {"android": "https://dc.lft.to/lastmile_qr_scan", "ios": "https://dc.lft.to/lastmile_qr_scan"}, "type": "electric_scooter", "lat": 38.93588183333333, "is_reserved": 0, "fusion_lat": 0.0}, {"bike_id": "70b07d59dfe1093a92f68d4574c3ac16", "fusion_lon": 0.0, "lon": -77.023867, "name": "70b07d59dfe1093a92f68d4574c3ac16", "is_disabled": 0, "rental_uris": {"android": "https://dc.lft.to/lastmile_qr_scan", "ios": "https://dc.lft.to/lastmile_qr_scan"}, "type": "electric_scooter", "lat": 38.9019845, "is_reserved": 0, "fusion_lat": 0.0}, {"bike_id": "62dc913ab702eb27ccd3614f05122402", "fusion_lon": 0.0, "lon": -76.93351733333333, "name": "62dc913ab702eb27ccd3614f05122402", "is_disabled": 0, "rental_uris": {"android": "https://dc.lft.to/lastmile_qr_scan", "ios": "https://dc.lft.to/lastmile_qr_scan"}, "type": "electric_scooter", "lat": 38.89911016666667, "is_reserved": 0, "fusion_lat": 0.0}, {"bike_id": "ea112856ea86b5f88e332f9a83f14478", "fusion_lon": 0.0, "lon": -77.019967, "name": "ea112856ea86b5f88e332f9a83f14478", "is_disabled": 0, "rental_uris": {"android": "https://dc.lft.to/lastmile_qr_scan", "ios": "https://dc.lft.to/lastmile_qr_scan"}, "type": "electric_scooter", "lat": 38.91365283333333, "is_reserved": 0, "fusion_lat": 0.0}, {"bike_id": "602d8a49020ca3741e1357b9661a3abc", "fusion_lon": 0.0, "lon": -77.01725033333334, "name": "602d8a49020ca3741e1357b9661a3abc", "is_disabled": 0, "rental_uris": {"android": "https://dc.lft.to/lastmile_qr_scan", "ios": "https://dc.lft.to/lastmile_qr_scan"}, "type": "electric_scooter", "lat": 38.87283433333333, "is_reserved": 0, "fusion_lat": 0.0}, {"bike_id": "d07a5b22ed38d54e39f04486d73c130d", "fusion_lon": 0.0, "lon": -77.02691766666666, "name": "d07a5b22ed38d54e39f04486d73c130d", "is_disabled": 0, "rental_uris": {"android": "https://dc.lft.to/lastmile_qr_scan", "ios": "https://dc.lft.to/lastmile_qr_scan"}, "type": "electric_scooter", "lat": 38.9112515, "is_reserved": 0, "fusion_lat": 0.0}, {"bike_id": "79fc4014588916bf475a2dccc35293bd", "fusion_lon": 0.0, "lon": -77.04927083333334, "name": "79fc4014588916bf475a2dccc35293bd", "is_disabled": 0, "rental_uris": {"android": "https://dc.lft.to/lastmile_qr_scan", "ios": "https://dc.lft.to/lastmile_qr_scan"}, "type": "electric_bike", "lat": 38.813466166666664, "is_reserved": 0, "fusion_lat": 0.0}, {"bike_id": "5d0311caa94e3ac24921268fc2cc95a7", "fusion_lon": 0.0, "lon": -77.03492666666666, "name": "5d0311caa94e3ac24921268fc2cc95a7", "is_disabled": 0, "rental_uris": {"android": "https://dc.lft.to/lastmile_qr_scan", "ios": "https://dc.lft.to/lastmile_qr_scan"}, "type": "electric_scooter", "lat": 38.91693216666667, "is_reserved": 0, "fusion_lat": 0.0}, {"bike_id": "34a4fe0e356b067ff04e3717ca49ea62", "fusion_lon": 0.0, "lon": -77.025505, "name": "34a4fe0e356b067ff04e3717ca49ea62", "is_disabled": 0, "rental_uris": {"android": "https://dc.lft.to/lastmile_qr_scan", "ios": "https://dc.lft.to/lastmile_qr_scan"}, "type": "electric_scooter", "lat": 38.880684333333335, "is_reserved": 0, "fusion_lat": 0.0}, {"bike_id": "3f9ccb0a50ab463a5ad301820ea775d6", "fusion_lon": 0.0, "lon": -77.043963, "name": "3f9ccb0a50ab463a5ad301820ea775d6", "is_disabled": 0, "rental_uris": {"android": "https://dc.lft.to/lastmile_qr_scan", "ios": "https://dc.lft.to/lastmile_qr_scan"}, "type": "electric_scooter", "lat": 38.912679, "is_reserved": 0, "fusion_lat": 0.0}, {"bike_id": "4f1d8e888ab56b6de0d78353d4ad7eb3", "fusion_lon": 0.0, "lon": -77.0173775, "name": "4f1d8e888ab56b6de0d78353d4ad7eb3", "is_disabled": 0, "rental_uris": {"android": "https://dc.lft.to/lastmile_qr_scan", "ios": "https://dc.lft.to/lastmile_qr_scan"}, "type": "electric_scooter", "lat": 38.87500333333333, "is_reserved": 0, "fusion_lat": 0.0}, {"bike_id": "fec0780b80e3047b594f38cd9fc2f90a", "fusion_lon": 0.0, "lon": -77.04570016666666, "name": "fec0780b80e3047b594f38cd9fc2f90a", "is_disabled": 0, "rental_uris": {"android": "https://dc.lft.to/lastmile_qr_scan", "ios": "https://dc.lft.to/lastmile_qr_scan"}, "type": "electric_bike", "lat": 38.924235833333334, "is_reserved": 0, "fusion_lat": 0.0}, {"bike_id": "0e96e15449c4b36afcadd207c3f758e2", "fusion_lon": 0.0, "lon": -77.02684183333334, "name": "0e96e15449c4b36afcadd207c3f758e2", "is_disabled": 0, "rental_uris": {"android": "https://dc.lft.to/lastmile_qr_scan", "ios": "https://dc.lft.to/lastmile_qr_scan"}, "type": "electric_scooter", "lat": 38.908539, "is_reserved": 0, "fusion_lat": 0.0}, {"bike_id": "9cf49d94c581b3d82515bacc9b871623", "fusion_lon": 0.0, "lon": -77.0220985, "name": "9cf49d94c581b3d82515bacc9b871623", "is_disabled": 0, "rental_uris": {"android": "https://dc.lft.to/lastmile_qr_scan", "ios": "https://dc.lft.to/lastmile_qr_scan"}, "type": "electric_scooter", "lat": 38.915546, "is_reserved": 0, "fusion_lat": 0.0}, {"bike_id": "ec2f3815a24bac15ce2a1c81e4e21337", "fusion_lon": 0.0, "lon": -77.04535616666666, "name": "ec2f3815a24bac15ce2a1c81e4e21337", "is_disabled": 0, "rental_uris": {"android": "https://dc.lft.to/lastmile_qr_scan", "ios": "https://dc.lft.to/lastmile_qr_scan"}, "type": "electric_scooter", "lat": 38.932960333333334, "is_reserved": 0, "fusion_lat": 0.0}, {"bike_id": "c31739ea55b3c716f5abfae3e23b880a", "fusion_lon": 0.0, "lon": -77.02175916666667, "name": "c31739ea55b3c716f5abfae3e23b880a", "is_disabled": 0, "rental_uris": {"android": "https://dc.lft.to/lastmile_qr_scan", "ios": "https://dc.lft.to/lastmile_qr_scan"}, "type": "electric_scooter", "lat": 38.90592816666667, "is_reserved": 0, "fusion_lat": 0.0}, {"bike_id": "042a721505684b017e34ca3507f681ca", "fusion_lon": 0.0, "lon": -77.05119116666667, "name": "042a721505684b017e34ca3507f681ca", "is_disabled": 0, "rental_uris": {"android": "https://dc.lft.to/lastmile_qr_scan", "ios": "https://dc.lft.to/lastmile_qr_scan"}, "type": "electric_scooter", "lat": 38.9235045, "is_reserved": 0, "fusion_lat": 0.0}, {"bike_id": "6c1782c8297ba9440d17f667c8cc27a5", "fusion_lon": 0.0, "lon": -77.02788266666667, "name": "6c1782c8297ba9440d17f667c8cc27a5", "is_disabled": 0, "rental_uris": {"android": "https://dc.lft.to/lastmile_qr_scan", "ios": "https://dc.lft.to/lastmile_qr_scan"}, "type": "electric_scooter", "lat": 38.954000666666666, "is_reserved": 0, "fusion_lat": 0.0}, {"bike_id": "1dc43eafcc3beb077d4c7557fd538e9c", "fusion_lon": 0.0, "lon": -77.03440733333333, "name": "1dc43eafcc3beb077d4c7557fd538e9c", "is_disabled": 0, "rental_uris": {"android": "https://dc.lft.to/lastmile_qr_scan", "ios": "https://dc.lft.to/lastmile_qr_scan"}, "type": "electric_scooter", "lat": 38.93437183333333, "is_reserved": 0, "fusion_lat": 0.0}, {"bike_id": "ae5594f33d45a3881e247422dc8d2ac5", "fusion_lon": 0.0, "lon": -77.0364105, "name": "ae5594f33d45a3881e247422dc8d2ac5", "is_disabled": 0, "rental_uris": {"android": "https://dc.lft.to/lastmile_qr_scan", "ios": "https://dc.lft.to/lastmile_qr_scan"}, "type": "electric_scooter", "lat": 38.9068325, "is_reserved": 0, "fusion_lat": 0.0}, {"bike_id": "ce1fb39b31e4b96491bb98f2fae3e078", "fusion_lon": 0.0, "lon": -76.98826983333333, "name": "ce1fb39b31e4b96491bb98f2fae3e078", "is_disabled": 0, "rental_uris": {"android": "https://dc.lft.to/lastmile_qr_scan", "ios": "https://dc.lft.to/lastmile_qr_scan"}, "type": "electric_scooter", "lat": 38.90034583333333, "is_reserved": 0, "fusion_lat": 0.0}, {"bike_id": "5abb0873d3a7c0920466e470c9be500e", "fusion_lon": 0.0, "lon": -76.930422, "name": "5abb0873d3a7c0920466e470c9be500e", "is_disabled": 0, "rental_uris": {"android": "https://dc.lft.to/lastmile_qr_scan", "ios": "https://dc.lft.to/lastmile_qr_scan"}, "type": "electric_scooter", "lat": 38.8952075, "is_reserved": 0, "fusion_lat": 0.0}, {"bike_id": "29eadbaa457be4cde746f78d0fc58b82", "fusion_lon": 0.0, "lon": -76.9903525, "name": "29eadbaa457be4cde746f78d0fc58b82", "is_disabled": 0, "rental_uris": {"android": "https://dc.lft.to/lastmile_qr_scan", "ios": "https://dc.lft.to/lastmile_qr_scan"}, "type": "electric_scooter", "lat": 38.888709666666664, "is_reserved": 0, "fusion_lat": 0.0}, {"bike_id": "a143e35848ef3e65cca4511fdc84a134", "fusion_lon": 0.0, "lon": -77.0491135, "name": "a143e35848ef3e65cca4511fdc84a134", "is_disabled": 0, "rental_uris": {"android": "https://dc.lft.to/lastmile_qr_scan", "ios": "https://dc.lft.to/lastmile_qr_scan"}, "type": "electric_scooter", "lat": 38.9009355, "is_reserved": 0, "fusion_lat": 0.0}, {"bike_id": "7d29363f8eb1f0ffc1c733bc3ae2435f", "fusion_lon": 0.0, "lon": -77.09247616666667, "name": "7d29363f8eb1f0ffc1c733bc3ae2435f", "is_disabled": 0, "rental_uris": {"android": "https://dc.lft.to/lastmile_qr_scan", "ios": "https://dc.lft.to/lastmile_qr_scan"}, "type": "electric_scooter", "lat": 38.941536666666664, "is_reserved": 0, "fusion_lat": 0.0}, {"bike_id": "bfd6772a6294a2e68cc9f601abc4ec39", "fusion_lon": 0.0, "lon": -76.975885, "name": "bfd6772a6294a2e68cc9f601abc4ec39", "is_disabled": 0, "rental_uris": {"android": "https://dc.lft.to/lastmile_qr_scan", "ios": "https://dc.lft.to/lastmile_qr_scan"}, "type": "electric_bike", "lat": 38.8402895, "is_reserved": 0, "fusion_lat": 0.0}, {"bike_id": "b02740ecbce425f2b7cabab194b05216", "fusion_lon": 0.0, "lon": -77.03306566666667, "name": "b02740ecbce425f2b7cabab194b05216", "is_disabled": 0, "rental_uris": {"android": "https://dc.lft.to/lastmile_qr_scan", "ios": "https://dc.lft.to/lastmile_qr_scan"}, "type": "electric_scooter", "lat": 38.916049666666666, "is_reserved": 0, "fusion_lat": 0.0}, {"bike_id": "4944d19a252c78489073dd0461ad39ca", "fusion_lon": 0.0, "lon": -77.01606433333333, "name": "4944d19a252c78489073dd0461ad39ca", "is_disabled": 0, "rental_uris": {"android": "https://dc.lft.to/lastmile_qr_scan", "ios": "https://dc.lft.to/lastmile_qr_scan"}, "type": "electric_scooter", "lat": 38.9127735, "is_reserved": 0, "fusion_lat": 0.0}, {"bike_id": "e2588fe5b9a22d73d825a066e854609a", "fusion_lon": 0.0, "lon": -77.04297133333333, "name": "e2588fe5b9a22d73d825a066e854609a", "is_disabled": 0, "rental_uris": {"android": "https://dc.lft.to/lastmile_qr_scan", "ios": "https://dc.lft.to/lastmile_qr_scan"}, "type": "electric_scooter", "lat": 38.917862666666664, "is_reserved": 0, "fusion_lat": 0.0}, {"bike_id": "4a0b0cfb2c75a97b71a122bdd75609e0", "fusion_lon": 0.0, "lon": -77.01098916666666, "name": "4a0b0cfb2c75a97b71a122bdd75609e0", "is_disabled": 0, "rental_uris": {"android": "https://dc.lft.to/lastmile_qr_scan", "ios": "https://dc.lft.to/lastmile_qr_scan"}, "type": "electric_scooter", "lat": 38.903522333333335, "is_reserved": 0, "fusion_lat": 0.0}, {"bike_id": "2c14157c045013f23bedbb55c585bcf4", "fusion_lon": 0.0, "lon": -77.02631433333333, "name": "2c14157c045013f23bedbb55c585bcf4", "is_disabled": 0, "rental_uris": {"android": "https://dc.lft.to/lastmile_qr_scan", "ios": "https://dc.lft.to/lastmile_qr_scan"}, "type": "electric_scooter", "lat": 38.930084666666666, "is_reserved": 0, "fusion_lat": 0.0}, {"bike_id": "076b1cf49517882b5f93f1d8a3357ea5", "fusion_lon": 0.0, "lon": -77.0035015, "name": "076b1cf49517882b5f93f1d8a3357ea5", "is_disabled": 0, "rental_uris": {"android": "https://dc.lft.to/lastmile_qr_scan", "ios": "https://dc.lft.to/lastmile_qr_scan"}, "type": "electric_scooter", "lat": 38.90147666666667, "is_reserved": 0, "fusion_lat": 0.0}, {"bike_id": "74627b223a324860ed0277e17cf36f83", "fusion_lon": 0.0, "lon": -77.04333583333333, "name": "74627b223a324860ed0277e17cf36f83", "is_disabled": 0, "rental_uris": {"android": "https://dc.lft.to/lastmile_qr_scan", "ios": "https://dc.lft.to/lastmile_qr_scan"}, "type": "electric_scooter", "lat": 38.908835, "is_reserved": 0, "fusion_lat": 0.0}, {"bike_id": "4a285ed70d7f3876ab667c5265b3ca38", "fusion_lon": 0.0, "lon": -77.0432745, "name": "4a285ed70d7f3876ab667c5265b3ca38", "is_disabled": 0, "rental_uris": {"android": "https://dc.lft.to/lastmile_qr_scan", "ios": "https://dc.lft.to/lastmile_qr_scan"}, "type": "electric_scooter", "lat": 38.89227283333334, "is_reserved": 0, "fusion_lat": 0.0}, {"bike_id": "a573e61886864f29dfa68ee49d38c587", "fusion_lon": 0.0, "lon": -77.02163483333334, "name": "a573e61886864f29dfa68ee49d38c587", "is_disabled": 0, "rental_uris": {"android": "https://dc.lft.to/lastmile_qr_scan", "ios": "https://dc.lft.to/lastmile_qr_scan"}, "type": "electric_scooter", "lat": 38.883301, "is_reserved": 0, "fusion_lat": 0.0}, {"bike_id": "9a51c7c71c4ab533614fca17d0b70f28", "fusion_lon": 0.0, "lon": -76.9375385, "name": "9a51c7c71c4ab533614fca17d0b70f28", "is_disabled": 0, "rental_uris": {"android": "https://dc.lft.to/lastmile_qr_scan", "ios": "https://dc.lft.to/lastmile_qr_scan"}, "type": "electric_scooter", "lat": 38.89051716666667, "is_reserved": 0, "fusion_lat": 0.0}, {"bike_id": "685ec2a46bc63dfb3b3ca751e40b7b29", "fusion_lon": 0.0, "lon": -77.24443866666667, "name": "685ec2a46bc63dfb3b3ca751e40b7b29", "is_disabled": 0, "rental_uris": {"android": "https://dc.lft.to/lastmile_qr_scan", "ios": "https://dc.lft.to/lastmile_qr_scan"}, "type": "electric_bike", "lat": 38.88192866666667, "is_reserved": 0, "fusion_lat": 0.0}, {"bike_id": "80e151fffeb91dbdf74ad1c9b695717d", "fusion_lon": 0.0, "lon": -77.04329166666666, "name": "80e151fffeb91dbdf74ad1c9b695717d", "is_disabled": 0, "rental_uris": {"android": "https://dc.lft.to/lastmile_qr_scan", "ios": "https://dc.lft.to/lastmile_qr_scan"}, "type": "electric_scooter", "lat": 38.8922625, "is_reserved": 0, "fusion_lat": 0.0}, {"bike_id": "689270a2c4b52666b14eb7bb782071bd", "fusion_lon": 0.0, "lon": -77.0469385, "name": "689270a2c4b52666b14eb7bb782071bd", "is_disabled": 0, "rental_uris": {"android": "https://dc.lft.to/lastmile_qr_scan", "ios": "https://dc.lft.to/lastmile_qr_scan"}, "type": "electric_scooter", "lat": 38.90978366666667, "is_reserved": 0, "fusion_lat": 0.0}, {"bike_id": "51ff0b5e177b27895634ca1aa6416ba4", "fusion_lon": 0.0, "lon": -77.04184683333334, "name": "51ff0b5e177b27895634ca1aa6416ba4", "is_disabled": 0, "rental_uris": {"android": "https://dc.lft.to/lastmile_qr_scan", "ios": "https://dc.lft.to/lastmile_qr_scan"}, "type": "electric_scooter", "lat": 38.903738833333335, "is_reserved": 0, "fusion_lat": 0.0}, {"bike_id": "5a64e1764049262b6100655a0d6aee62", "fusion_lon": 0.0, "lon": -77.0267805, "name": "5a64e1764049262b6100655a0d6aee62", "is_disabled": 0, "rental_uris": {"android": "https://dc.lft.to/lastmile_qr_scan", "ios": "https://dc.lft.to/lastmile_qr_scan"}, "type": "electric_scooter", "lat": 38.91271833333333, "is_reserved": 0, "fusion_lat": 0.0}, {"bike_id": "7cee25994c1f96fc885a2b3d1702be6f", "fusion_lon": 0.0, "lon": -77.01881983333334, "name": "7cee25994c1f96fc885a2b3d1702be6f", "is_disabled": 0, "rental_uris": {"android": "https://dc.lft.to/lastmile_qr_scan", "ios": "https://dc.lft.to/lastmile_qr_scan"}, "type": "electric_scooter", "lat": 38.904379666666664, "is_reserved": 0, "fusion_lat": 0.0}, {"bike_id": "f6f87b2d8fe9a7770dc79c365133a88d", "fusion_lon": 0.0, "lon": -77.03230183333334, "name": "f6f87b2d8fe9a7770dc79c365133a88d", "is_disabled": 0, "rental_uris": {"android": "https://dc.lft.to/lastmile_qr_scan", "ios": "https://dc.lft.to/lastmile_qr_scan"}, "type": "electric_scooter", "lat": 38.961765166666666, "is_reserved": 0, "fusion_lat": 0.0}, {"bike_id": "5ca1968d35886831ba7588e498b7fd70", "fusion_lon": 0.0, "lon": -77.233204, "name": "5ca1968d35886831ba7588e498b7fd70", "is_disabled": 0, "rental_uris": {"android": "https://dc.lft.to/lastmile_qr_scan", "ios": "https://dc.lft.to/lastmile_qr_scan"}, "type": "electric_bike", "lat": 38.87286683333333, "is_reserved": 0, "fusion_lat": 0.0}, {"bike_id": "ca4e38161905a6c7e2d42ec619bfd65e", "fusion_lon": 0.0, "lon": -76.97159316666666, "name": "ca4e38161905a6c7e2d42ec619bfd65e", "is_disabled": 0, "rental_uris": {"android": "https://dc.lft.to/lastmile_qr_scan", "ios": "https://dc.lft.to/lastmile_qr_scan"}, "type": "electric_bike", "lat": 38.9164745, "is_reserved": 0, "fusion_lat": 0.0}, {"bike_id": "fad15f56b734cceb4f336df26a78f4e4", "fusion_lon": 0.0, "lon": -77.02952283333333, "name": "fad15f56b734cceb4f336df26a78f4e4", "is_disabled": 0, "rental_uris": {"android": "https://dc.lft.to/lastmile_qr_scan", "ios": "https://dc.lft.to/lastmile_qr_scan"}, "type": "electric_scooter", "lat": 38.90729966666667, "is_reserved": 0, "fusion_lat": 0.0}, {"bike_id": "4c70abe2f661eb33ac5e61d0fa9085b9", "fusion_lon": 0.0, "lon": -77.02720416666666, "name": "4c70abe2f661eb33ac5e61d0fa9085b9", "is_disabled": 0, "rental_uris": {"android": "https://dc.lft.to/lastmile_qr_scan", "ios": "https://dc.lft.to/lastmile_qr_scan"}, "type": "electric_scooter", "lat": 38.9248195, "is_reserved": 0, "fusion_lat": 0.0}, {"bike_id": "4c131d06158e061b9d148a83c225a003", "fusion_lon": 0.0, "lon": -77.0176335, "name": "4c131d06158e061b9d148a83c225a003", "is_disabled": 0, "rental_uris": {"android": "https://dc.lft.to/lastmile_qr_scan", "ios": "https://dc.lft.to/lastmile_qr_scan"}, "type": "electric_bike", "lat": 38.87880583333333, "is_reserved": 0, "fusion_lat": 0.0}, {"bike_id": "3c9b0a0fec61b0692765c20afe47d0f3", "fusion_lon": 0.0, "lon": -77.0148685, "name": "3c9b0a0fec61b0692765c20afe47d0f3", "is_disabled": 0, "rental_uris": {"android": "https://dc.lft.to/lastmile_qr_scan", "ios": "https://dc.lft.to/lastmile_qr_scan"}, "type": "electric_scooter", "lat": 38.8993145, "is_reserved": 0, "fusion_lat": 0.0}, {"bike_id": "86460e907b300ff28832c6d4d06fc163", "fusion_lon": 0.0, "lon": -77.033525, "name": "86460e907b300ff28832c6d4d06fc163", "is_disabled": 0, "rental_uris": {"android": "https://dc.lft.to/lastmile_qr_scan", "ios": "https://dc.lft.to/lastmile_qr_scan"}, "type": "electric_scooter", "lat": 38.928891, "is_reserved": 0, "fusion_lat": 0.0}, {"bike_id": "70464d02bb2c58b9b6e0864683ca84b8", "fusion_lon": 0.0, "lon": -77.0593025, "name": "70464d02bb2c58b9b6e0864683ca84b8", "is_disabled": 0, "rental_uris": {"android": "https://dc.lft.to/lastmile_qr_scan", "ios": "https://dc.lft.to/lastmile_qr_scan"}, "type": "electric_scooter", "lat": 38.909433666666665, "is_reserved": 0, "fusion_lat": 0.0}, {"bike_id": "20199d052b31b218a9030ca25a6d0697", "fusion_lon": 0.0, "lon": -77.036961, "name": "20199d052b31b218a9030ca25a6d0697", "is_disabled": 0, "rental_uris": {"android": "https://dc.lft.to/lastmile_qr_scan", "ios": "https://dc.lft.to/lastmile_qr_scan"}, "type": "electric_scooter", "lat": 38.926456333333334, "is_reserved": 0, "fusion_lat": 0.0}, {"bike_id": "9e2c8280477154497cda061933a6cc3f", "fusion_lon": 0.0, "lon": -77.069251, "name": "9e2c8280477154497cda061933a6cc3f", "is_disabled": 0, "rental_uris": {"android": "https://dc.lft.to/lastmile_qr_scan", "ios": "https://dc.lft.to/lastmile_qr_scan"}, "type": "electric_scooter", "lat": 38.90777166666667, "is_reserved": 0, "fusion_lat": 0.0}, {"bike_id": "a5a0cf08bc2dff9b63f2defd56737543", "fusion_lon": 0.0, "lon": -77.02495016666667, "name": "a5a0cf08bc2dff9b63f2defd56737543", "is_disabled": 0, "rental_uris": {"android": "https://dc.lft.to/lastmile_qr_scan", "ios": "https://dc.lft.to/lastmile_qr_scan"}, "type": "electric_scooter", "lat": 38.907324, "is_reserved": 0, "fusion_lat": 0.0}, {"bike_id": "2415e51371d42a6e50b1b3e63a8d383a", "fusion_lon": 0.0, "lon": -77.0488595, "name": "2415e51371d42a6e50b1b3e63a8d383a", "is_disabled": 0, "rental_uris": {"android": "https://dc.lft.to/lastmile_qr_scan", "ios": "https://dc.lft.to/lastmile_qr_scan"}, "type": "electric_scooter", "lat": 38.9006125, "is_reserved": 0, "fusion_lat": 0.0}, {"bike_id": "8747c2748670d8a1cfb7294c0770b222", "fusion_lon": 0.0, "lon": -77.032528, "name": "8747c2748670d8a1cfb7294c0770b222", "is_disabled": 0, "rental_uris": {"android": "https://dc.lft.to/lastmile_qr_scan", "ios": "https://dc.lft.to/lastmile_qr_scan"}, "type": "electric_scooter", "lat": 38.92356366666667, "is_reserved": 0, "fusion_lat": 0.0}, {"bike_id": "dac7de0ff673005fd091022920f4519a", "fusion_lon": 0.0, "lon": -77.027634, "name": "dac7de0ff673005fd091022920f4519a", "is_disabled": 0, "rental_uris": {"android": "https://dc.lft.to/lastmile_qr_scan", "ios": "https://dc.lft.to/lastmile_qr_scan"}, "type": "electric_scooter", "lat": 38.907256833333335, "is_reserved": 0, "fusion_lat": 0.0}, {"bike_id": "15b8253210ea1dc1f6d1734e9d63cfbf", "fusion_lon": 0.0, "lon": -77.11851566666667, "name": "15b8253210ea1dc1f6d1734e9d63cfbf", "is_disabled": 0, "rental_uris": {"android": "https://dc.lft.to/lastmile_qr_scan", "ios": "https://dc.lft.to/lastmile_qr_scan"}, "type": "electric_bike", "lat": 38.87734183333333, "is_reserved": 0, "fusion_lat": 0.0}, {"bike_id": "6eb0e8c70d6020ad10d0f8f4de280143", "fusion_lon": 0.0, "lon": -77.02206433333333, "name": "6eb0e8c70d6020ad10d0f8f4de280143", "is_disabled": 0, "rental_uris": {"android": "https://dc.lft.to/lastmile_qr_scan", "ios": "https://dc.lft.to/lastmile_qr_scan"}, "type": "electric_scooter", "lat": 38.87891916666667, "is_reserved": 0, "fusion_lat": 0.0}, {"bike_id": "043ea0d79b4cdd03b09f2cbc10dc3f31", "fusion_lon": 0.0, "lon": -76.93540283333333, "name": "043ea0d79b4cdd03b09f2cbc10dc3f31", "is_disabled": 0, "rental_uris": {"android": "https://dc.lft.to/lastmile_qr_scan", "ios": "https://dc.lft.to/lastmile_qr_scan"}, "type": "electric_bike", "lat": 38.9518525, "is_reserved": 0, "fusion_lat": 0.0}, {"bike_id": "200e5925248198e23181f1547b0aed73", "fusion_lon": 0.0, "lon": -77.03974683333334, "name": "200e5925248198e23181f1547b0aed73", "is_disabled": 0, "rental_uris": {"android": "https://dc.lft.to/lastmile_qr_scan", "ios": "https://dc.lft.to/lastmile_qr_scan"}, "type": "electric_scooter", "lat": 38.90621633333333, "is_reserved": 0, "fusion_lat": 0.0}, {"bike_id": "817db67178d69746f250b1697b1fd635", "fusion_lon": 0.0, "lon": -76.99761016666666, "name": "817db67178d69746f250b1697b1fd635", "is_disabled": 0, "rental_uris": {"android": "https://dc.lft.to/lastmile_qr_scan", "ios": "https://dc.lft.to/lastmile_qr_scan"}, "type": "electric_scooter", "lat": 38.88764116666667, "is_reserved": 0, "fusion_lat": 0.0}, {"bike_id": "db505feb112fc25aa0130776624b2049", "fusion_lon": 0.0, "lon": -77.0061035, "name": "db505feb112fc25aa0130776624b2049", "is_disabled": 0, "rental_uris": {"android": "https://dc.lft.to/lastmile_qr_scan", "ios": "https://dc.lft.to/lastmile_qr_scan"}, "type": "electric_scooter", "lat": 38.90573233333333, "is_reserved": 0, "fusion_lat": 0.0}, {"bike_id": "4aa7ab9eeb407321dabdd024021b05d2", "fusion_lon": 0.0, "lon": -77.03713816666667, "name": "4aa7ab9eeb407321dabdd024021b05d2", "is_disabled": 0, "rental_uris": {"android": "https://dc.lft.to/lastmile_qr_scan", "ios": "https://dc.lft.to/lastmile_qr_scan"}, "type": "electric_scooter", "lat": 38.918073166666666, "is_reserved": 0, "fusion_lat": 0.0}, {"bike_id": "91f024dd827959db99feb6408304586d", "fusion_lon": 0.0, "lon": -76.987123, "name": "91f024dd827959db99feb6408304586d", "is_disabled": 0, "rental_uris": {"android": "https://dc.lft.to/lastmile_qr_scan", "ios": "https://dc.lft.to/lastmile_qr_scan"}, "type": "electric_scooter", "lat": 38.86700233333333, "is_reserved": 0, "fusion_lat": 0.0}, {"bike_id": "4f6d05d14007a6b2b71fc77763110205", "fusion_lon": 0.0, "lon": -76.99869916666667, "name": "4f6d05d14007a6b2b71fc77763110205", "is_disabled": 0, "rental_uris": {"android": "https://dc.lft.to/lastmile_qr_scan", "ios": "https://dc.lft.to/lastmile_qr_scan"}, "type": "electric_scooter", "lat": 38.900262, "is_reserved": 0, "fusion_lat": 0.0}, {"bike_id": "fff3a780a40b5f772f2210e300a07500", "fusion_lon": 0.0, "lon": -77.023459, "name": "fff3a780a40b5f772f2210e300a07500", "is_disabled": 0, "rental_uris": {"android": "https://dc.lft.to/lastmile_qr_scan", "ios": "https://dc.lft.to/lastmile_qr_scan"}, "type": "electric_scooter", "lat": 38.94609633333334, "is_reserved": 0, "fusion_lat": 0.0}, {"bike_id": "6bc1225ef236850ca6158acd714cdafd", "fusion_lon": 0.0, "lon": -77.03238383333333, "name": "6bc1225ef236850ca6158acd714cdafd", "is_disabled": 0, "rental_uris": {"android": "https://dc.lft.to/lastmile_qr_scan", "ios": "https://dc.lft.to/lastmile_qr_scan"}, "type": "electric_scooter", "lat": 38.923587833333336, "is_reserved": 0, "fusion_lat": 0.0}, {"bike_id": "c33fba19c79ee23b90ad7ac7e4e331ce", "fusion_lon": 0.0, "lon": -76.9862905, "name": "c33fba19c79ee23b90ad7ac7e4e331ce", "is_disabled": 0, "rental_uris": {"android": "https://dc.lft.to/lastmile_qr_scan", "ios": "https://dc.lft.to/lastmile_qr_scan"}, "type": "electric_scooter", "lat": 38.88045233333333, "is_reserved": 0, "fusion_lat": 0.0}, {"bike_id": "8363d7b6201c2a16cccc5d4960e1536b", "fusion_lon": 0.0, "lon": -77.0175075, "name": "8363d7b6201c2a16cccc5d4960e1536b", "is_disabled": 0, "rental_uris": {"android": "https://dc.lft.to/lastmile_qr_scan", "ios": "https://dc.lft.to/lastmile_qr_scan"}, "type": "electric_scooter", "lat": 38.88336, "is_reserved": 0, "fusion_lat": 0.0}, {"bike_id": "6b9d41c7b48e76ca5d87b710045c3789", "fusion_lon": 0.0, "lon": -77.025155, "name": "6b9d41c7b48e76ca5d87b710045c3789", "is_disabled": 0, "rental_uris": {"android": "https://dc.lft.to/lastmile_qr_scan", "ios": "https://dc.lft.to/lastmile_qr_scan"}, "type": "electric_scooter", "lat": 38.920938, "is_reserved": 0, "fusion_lat": 0.0}, {"bike_id": "ebdc6d0fe29414589c20cf5f5546ece9", "fusion_lon": 0.0, "lon": -77.0335615, "name": "ebdc6d0fe29414589c20cf5f5546ece9", "is_disabled": 0, "rental_uris": {"android": "https://dc.lft.to/lastmile_qr_scan", "ios": "https://dc.lft.to/lastmile_qr_scan"}, "type": "electric_scooter", "lat": 38.92887916666667, "is_reserved": 0, "fusion_lat": 0.0}, {"bike_id": "9d339ec04cf4e1131e23234bbbf6a61f", "fusion_lon": 0.0, "lon": -77.02796183333334, "name": "9d339ec04cf4e1131e23234bbbf6a61f", "is_disabled": 0, "rental_uris": {"android": "https://dc.lft.to/lastmile_qr_scan", "ios": "https://dc.lft.to/lastmile_qr_scan"}, "type": "electric_scooter", "lat": 38.929741666666665, "is_reserved": 0, "fusion_lat": 0.0}, {"bike_id": "7f822dcfe31adb6461d390aa7c4b21fb", "fusion_lon": 0.0, "lon": -76.97732383333333, "name": "7f822dcfe31adb6461d390aa7c4b21fb", "is_disabled": 0, "rental_uris": {"android": "https://dc.lft.to/lastmile_qr_scan", "ios": "https://dc.lft.to/lastmile_qr_scan"}, "type": "electric_scooter", "lat": 38.89516283333333, "is_reserved": 0, "fusion_lat": 0.0}, {"bike_id": "754b28451dd911ca854a60070b2532e6", "fusion_lon": 0.0, "lon": -76.923314, "name": "754b28451dd911ca854a60070b2532e6", "is_disabled": 0, "rental_uris": {"android": "https://dc.lft.to/lastmile_qr_scan", "ios": "https://dc.lft.to/lastmile_qr_scan"}, "type": "electric_bike", "lat": 38.871109833333335, "is_reserved": 0, "fusion_lat": 0.0}, {"bike_id": "19cf79020637bc399400d11355ae539e", "fusion_lon": 0.0, "lon": -77.015815, "name": "19cf79020637bc399400d11355ae539e", "is_disabled": 0, "rental_uris": {"android": "https://dc.lft.to/lastmile_qr_scan", "ios": "https://dc.lft.to/lastmile_qr_scan"}, "type": "electric_scooter", "lat": 38.891780833333335, "is_reserved": 0, "fusion_lat": 0.0}, {"bike_id": "85c0696633366bf7f20751ea239df9e0", "fusion_lon": 0.0, "lon": -77.02725066666666, "name": "85c0696633366bf7f20751ea239df9e0", "is_disabled": 0, "rental_uris": {"android": "https://dc.lft.to/lastmile_qr_scan", "ios": "https://dc.lft.to/lastmile_qr_scan"}, "type": "electric_bike", "lat": 38.945552166666666, "is_reserved": 0, "fusion_lat": 0.0}, {"bike_id": "acf62c95aa6c9b711504eb2c621db823", "fusion_lon": 0.0, "lon": -77.023624, "name": "acf62c95aa6c9b711504eb2c621db823", "is_disabled": 0, "rental_uris": {"android": "https://dc.lft.to/lastmile_qr_scan", "ios": "https://dc.lft.to/lastmile_qr_scan"}, "type": "electric_scooter", "lat": 38.903756666666666, "is_reserved": 0, "fusion_lat": 0.0}, {"bike_id": "1722a0dfd479fbb242ae8cff3c3d0534", "fusion_lon": 0.0, "lon": -77.07345, "name": "1722a0dfd479fbb242ae8cff3c3d0534", "is_disabled": 0, "rental_uris": {"android": "https://dc.lft.to/lastmile_qr_scan", "ios": "https://dc.lft.to/lastmile_qr_scan"}, "type": "electric_bike", "lat": 38.930480833333334, "is_reserved": 0, "fusion_lat": 0.0}, {"bike_id": "3e2b417e698cc09b06640f8b8921f527", "fusion_lon": 0.0, "lon": -77.04130633333334, "name": "3e2b417e698cc09b06640f8b8921f527", "is_disabled": 0, "rental_uris": {"android": "https://dc.lft.to/lastmile_qr_scan", "ios": "https://dc.lft.to/lastmile_qr_scan"}, "type": "electric_scooter", "lat": 38.926489833333335, "is_reserved": 0, "fusion_lat": 0.0}, {"bike_id": "fc01ab1006efb96b7202694c612b71c4", "fusion_lon": 0.0, "lon": -77.0541875, "name": "fc01ab1006efb96b7202694c612b71c4", "is_disabled": 0, "rental_uris": {"android": "https://dc.lft.to/lastmile_qr_scan", "ios": "https://dc.lft.to/lastmile_qr_scan"}, "type": "electric_bike", "lat": 38.935318, "is_reserved": 0, "fusion_lat": 0.0}, {"bike_id": "9e44c17b6450dbd34b629a17c2dd9cd6", "fusion_lon": 0.0, "lon": -77.01305666666667, "name": "9e44c17b6450dbd34b629a17c2dd9cd6", "is_disabled": 0, "rental_uris": {"android": "https://dc.lft.to/lastmile_qr_scan", "ios": "https://dc.lft.to/lastmile_qr_scan"}, "type": "electric_scooter", "lat": 38.901374833333335, "is_reserved": 0, "fusion_lat": 0.0}, {"bike_id": "10693845a5c943a06dd06e1a947ac0b4", "fusion_lon": 0.0, "lon": -77.05784783333333, "name": "10693845a5c943a06dd06e1a947ac0b4", "is_disabled": 0, "rental_uris": {"android": "https://dc.lft.to/lastmile_qr_scan", "ios": "https://dc.lft.to/lastmile_qr_scan"}, "type": "electric_scooter", "lat": 38.901033166666664, "is_reserved": 0, "fusion_lat": 0.0}, {"bike_id": "43b632526efe4d26197de83b4f3e9ced", "fusion_lon": 0.0, "lon": -77.02875933333333, "name": "43b632526efe4d26197de83b4f3e9ced", "is_disabled": 0, "rental_uris": {"android": "https://dc.lft.to/lastmile_qr_scan", "ios": "https://dc.lft.to/lastmile_qr_scan"}, "type": "electric_scooter", "lat": 38.90430333333333, "is_reserved": 0, "fusion_lat": 0.0}, {"bike_id": "aae3c3b7e7d372502f8f0700ef78a286", "fusion_lon": 0.0, "lon": -77.02379516666667, "name": "aae3c3b7e7d372502f8f0700ef78a286", "is_disabled": 0, "rental_uris": {"android": "https://dc.lft.to/lastmile_qr_scan", "ios": "https://dc.lft.to/lastmile_qr_scan"}, "type": "electric_scooter", "lat": 38.907476833333334, "is_reserved": 0, "fusion_lat": 0.0}, {"bike_id": "6b7e304ffd0c00c71606a9e9c50fce99", "fusion_lon": 0.0, "lon": -77.02402366666666, "name": "6b7e304ffd0c00c71606a9e9c50fce99", "is_disabled": 0, "rental_uris": {"android": "https://dc.lft.to/lastmile_qr_scan", "ios": "https://dc.lft.to/lastmile_qr_scan"}, "type": "electric_scooter", "lat": 38.917411333333334, "is_reserved": 0, "fusion_lat": 0.0}, {"bike_id": "932d8042e846e7a7bb46aa8adb9e60a8", "fusion_lon": 0.0, "lon": -77.03535516666666, "name": "932d8042e846e7a7bb46aa8adb9e60a8", "is_disabled": 0, "rental_uris": {"android": "https://dc.lft.to/lastmile_qr_scan", "ios": "https://dc.lft.to/lastmile_qr_scan"}, "type": "electric_scooter", "lat": 38.92470816666667, "is_reserved": 0, "fusion_lat": 0.0}, {"bike_id": "e3139bfc1d33e5eff48b10ecb7346f32", "fusion_lon": 0.0, "lon": -77.058595, "name": "e3139bfc1d33e5eff48b10ecb7346f32", "is_disabled": 0, "rental_uris": {"android": "https://dc.lft.to/lastmile_qr_scan", "ios": "https://dc.lft.to/lastmile_qr_scan"}, "type": "electric_scooter", "lat": 38.93606833333333, "is_reserved": 0, "fusion_lat": 0.0}, {"bike_id": "059d4fbad400b9b42ad2d3d1a29be1c3", "fusion_lon": 0.0, "lon": -77.038787, "name": "059d4fbad400b9b42ad2d3d1a29be1c3", "is_disabled": 0, "rental_uris": {"android": "https://dc.lft.to/lastmile_qr_scan", "ios": "https://dc.lft.to/lastmile_qr_scan"}, "type": "electric_scooter", "lat": 38.931253166666664, "is_reserved": 0, "fusion_lat": 0.0}, {"bike_id": "59703bd48bc32947cef8843d187f0ab4", "fusion_lon": 0.0, "lon": -77.0316485, "name": "59703bd48bc32947cef8843d187f0ab4", "is_disabled": 0, "rental_uris": {"android": "https://dc.lft.to/lastmile_qr_scan", "ios": "https://dc.lft.to/lastmile_qr_scan"}, "type": "electric_scooter", "lat": 38.89221216666667, "is_reserved": 0, "fusion_lat": 0.0}, {"bike_id": "2cf393d0a84a0a78ccd9b5e2b7f8f0c8", "fusion_lon": 0.0, "lon": -77.0449275, "name": "2cf393d0a84a0a78ccd9b5e2b7f8f0c8", "is_disabled": 0, "rental_uris": {"android": "https://dc.lft.to/lastmile_qr_scan", "ios": "https://dc.lft.to/lastmile_qr_scan"}, "type": "electric_scooter", "lat": 38.90379466666667, "is_reserved": 0, "fusion_lat": 0.0}, {"bike_id": "6c7407e1e3841d5ce956314d01656228", "fusion_lon": 0.0, "lon": -77.03445816666667, "name": "6c7407e1e3841d5ce956314d01656228", "is_disabled": 0, "rental_uris": {"android": "https://dc.lft.to/lastmile_qr_scan", "ios": "https://dc.lft.to/lastmile_qr_scan"}, "type": "electric_scooter", "lat": 38.93545983333333, "is_reserved": 0, "fusion_lat": 0.0}, {"bike_id": "01b8f884c35f6f10c0371d57385637cd", "fusion_lon": 0.0, "lon": -77.0279985, "name": "01b8f884c35f6f10c0371d57385637cd", "is_disabled": 0, "rental_uris": {"android": "https://dc.lft.to/lastmile_qr_scan", "ios": "https://dc.lft.to/lastmile_qr_scan"}, "type": "electric_scooter", "lat": 38.89510933333333, "is_reserved": 0, "fusion_lat": 0.0}, {"bike_id": "28498798adf2526cccf67b67bbda6cd4", "fusion_lon": 0.0, "lon": -77.06511983333333, "name": "28498798adf2526cccf67b67bbda6cd4", "is_disabled": 0, "rental_uris": {"android": "https://dc.lft.to/lastmile_qr_scan", "ios": "https://dc.lft.to/lastmile_qr_scan"}, "type": "electric_scooter", "lat": 38.90589766666667, "is_reserved": 0, "fusion_lat": 0.0}, {"bike_id": "59640330e112e2715607047db00514f4", "fusion_lon": 0.0, "lon": -76.993642, "name": "59640330e112e2715607047db00514f4", "is_disabled": 0, "rental_uris": {"android": "https://dc.lft.to/lastmile_qr_scan", "ios": "https://dc.lft.to/lastmile_qr_scan"}, "type": "electric_scooter", "lat": 38.928346, "is_reserved": 0, "fusion_lat": 0.0}, {"bike_id": "b24fd9ae7396c41268bc771b9938b7ce", "fusion_lon": 0.0, "lon": -77.04137716666666, "name": "b24fd9ae7396c41268bc771b9938b7ce", "is_disabled": 0, "rental_uris": {"android": "https://dc.lft.to/lastmile_qr_scan", "ios": "https://dc.lft.to/lastmile_qr_scan"}, "type": "electric_scooter", "lat": 38.9336645, "is_reserved": 0, "fusion_lat": 0.0}, {"bike_id": "c0589d52772a173682e80598bb0f6e7a", "fusion_lon": 0.0, "lon": -77.068377, "name": "c0589d52772a173682e80598bb0f6e7a", "is_disabled": 0, "rental_uris": {"android": "https://dc.lft.to/lastmile_qr_scan", "ios": "https://dc.lft.to/lastmile_qr_scan"}, "type": "electric_scooter", "lat": 38.91722733333334, "is_reserved": 0, "fusion_lat": 0.0}, {"bike_id": "cc277d798c2bc9f7358f95844107937c", "fusion_lon": 0.0, "lon": -77.03851416666667, "name": "cc277d798c2bc9f7358f95844107937c", "is_disabled": 0, "rental_uris": {"android": "https://dc.lft.to/lastmile_qr_scan", "ios": "https://dc.lft.to/lastmile_qr_scan"}, "type": "electric_scooter", "lat": 38.915491, "is_reserved": 0, "fusion_lat": 0.0}, {"bike_id": "bb2cf0386ec4af445d81607798d23aad", "fusion_lon": 0.0, "lon": -77.0230455, "name": "bb2cf0386ec4af445d81607798d23aad", "is_disabled": 0, "rental_uris": {"android": "https://dc.lft.to/lastmile_qr_scan", "ios": "https://dc.lft.to/lastmile_qr_scan"}, "type": "electric_scooter", "lat": 38.91839983333333, "is_reserved": 0, "fusion_lat": 0.0}, {"bike_id": "72ccc031ac2f7467b5106fa9cd64ad2b", "fusion_lon": 0.0, "lon": -77.0217935, "name": "72ccc031ac2f7467b5106fa9cd64ad2b", "is_disabled": 0, "rental_uris": {"android": "https://dc.lft.to/lastmile_qr_scan", "ios": "https://dc.lft.to/lastmile_qr_scan"}, "type": "electric_scooter", "lat": 38.924953, "is_reserved": 0, "fusion_lat": 0.0}, {"bike_id": "8b9977f84564ffd3d903d240dc91a8f2", "fusion_lon": 0.0, "lon": -77.04687933333334, "name": "8b9977f84564ffd3d903d240dc91a8f2", "is_disabled": 0, "rental_uris": {"android": "https://dc.lft.to/lastmile_qr_scan", "ios": "https://dc.lft.to/lastmile_qr_scan"}, "type": "electric_scooter", "lat": 38.89223783333333, "is_reserved": 0, "fusion_lat": 0.0}, {"bike_id": "7a4cc6c34f7f4e365e0bfdaefbf0ae6f", "fusion_lon": 0.0, "lon": -77.04264283333333, "name": "7a4cc6c34f7f4e365e0bfdaefbf0ae6f", "is_disabled": 0, "rental_uris": {"android": "https://dc.lft.to/lastmile_qr_scan", "ios": "https://dc.lft.to/lastmile_qr_scan"}, "type": "electric_scooter", "lat": 38.90869766666667, "is_reserved": 0, "fusion_lat": 0.0}, {"bike_id": "878d6b69f63c72f25b322af8f9a74c97", "fusion_lon": 0.0, "lon": -77.04160083333333, "name": "878d6b69f63c72f25b322af8f9a74c97", "is_disabled": 0, "rental_uris": {"android": "https://dc.lft.to/lastmile_qr_scan", "ios": "https://dc.lft.to/lastmile_qr_scan"}, "type": "electric_scooter", "lat": 38.9164555, "is_reserved": 0, "fusion_lat": 0.0}, {"bike_id": "ac7bc07899623df925d2d5cf8852b6de", "fusion_lon": 0.0, "lon": -77.064983, "name": "ac7bc07899623df925d2d5cf8852b6de", "is_disabled": 0, "rental_uris": {"android": "https://dc.lft.to/lastmile_qr_scan", "ios": "https://dc.lft.to/lastmile_qr_scan"}, "type": "electric_bike", "lat": 38.9687215, "is_reserved": 0, "fusion_lat": 0.0}, {"bike_id": "fd4fbe742711e85182a9ce9e65e18ffb", "fusion_lon": 0.0, "lon": -77.0449985, "name": "fd4fbe742711e85182a9ce9e65e18ffb", "is_disabled": 0, "rental_uris": {"android": "https://dc.lft.to/lastmile_qr_scan", "ios": "https://dc.lft.to/lastmile_qr_scan"}, "type": "electric_bike", "lat": 38.84286, "is_reserved": 0, "fusion_lat": 0.0}, {"bike_id": "7e97d2fedd56d3b7e4c42510bbb87c41", "fusion_lon": 0.0, "lon": -77.0394385, "name": "7e97d2fedd56d3b7e4c42510bbb87c41", "is_disabled": 0, "rental_uris": {"android": "https://dc.lft.to/lastmile_qr_scan", "ios": "https://dc.lft.to/lastmile_qr_scan"}, "type": "electric_scooter", "lat": 38.92623283333333, "is_reserved": 0, "fusion_lat": 0.0}, {"bike_id": "490110e3538df68a3b90a5e74f54dd21", "fusion_lon": 0.0, "lon": -77.02577616666666, "name": "490110e3538df68a3b90a5e74f54dd21", "is_disabled": 0, "rental_uris": {"android": "https://dc.lft.to/lastmile_qr_scan", "ios": "https://dc.lft.to/lastmile_qr_scan"}, "type": "electric_scooter", "lat": 38.90346866666667, "is_reserved": 0, "fusion_lat": 0.0}, {"bike_id": "612d5b1238255eb2d6d7c8b9eaff2a30", "fusion_lon": 0.0, "lon": -76.98602666666666, "name": "612d5b1238255eb2d6d7c8b9eaff2a30", "is_disabled": 0, "rental_uris": {"android": "https://dc.lft.to/lastmile_qr_scan", "ios": "https://dc.lft.to/lastmile_qr_scan"}, "type": "electric_scooter", "lat": 38.87841733333333, "is_reserved": 0, "fusion_lat": 0.0}, {"bike_id": "2e341b538364d8dea37de9f55321df44", "fusion_lon": 0.0, "lon": -77.03102733333333, "name": "2e341b538364d8dea37de9f55321df44", "is_disabled": 0, "rental_uris": {"android": "https://dc.lft.to/lastmile_qr_scan", "ios": "https://dc.lft.to/lastmile_qr_scan"}, "type": "electric_scooter", "lat": 38.950729333333335, "is_reserved": 0, "fusion_lat": 0.0}, {"bike_id": "b435911a6b1065741be0508d9789df2a", "fusion_lon": 0.0, "lon": -76.96905333333333, "name": "b435911a6b1065741be0508d9789df2a", "is_disabled": 0, "rental_uris": {"android": "https://dc.lft.to/lastmile_qr_scan", "ios": "https://dc.lft.to/lastmile_qr_scan"}, "type": "electric_bike", "lat": 38.84613983333333, "is_reserved": 0, "fusion_lat": 0.0}, {"bike_id": "9ee2a0fd1d3f4408ec54c1dacee7c859", "fusion_lon": 0.0, "lon": -77.01366616666667, "name": "9ee2a0fd1d3f4408ec54c1dacee7c859", "is_disabled": 0, "rental_uris": {"android": "https://dc.lft.to/lastmile_qr_scan", "ios": "https://dc.lft.to/lastmile_qr_scan"}, "type": "electric_scooter", "lat": 38.92894033333334, "is_reserved": 0, "fusion_lat": 0.0}, {"bike_id": "e0c1bcf4da0fe668226c628abaf0fa7f", "fusion_lon": 0.0, "lon": -77.01746483333334, "name": "e0c1bcf4da0fe668226c628abaf0fa7f", "is_disabled": 0, "rental_uris": {"android": "https://dc.lft.to/lastmile_qr_scan", "ios": "https://dc.lft.to/lastmile_qr_scan"}, "type": "electric_scooter", "lat": 38.90261316666667, "is_reserved": 0, "fusion_lat": 0.0}, {"bike_id": "4129960faa431c901a1a38b3e8096e9b", "fusion_lon": 0.0, "lon": -76.949356, "name": "4129960faa431c901a1a38b3e8096e9b", "is_disabled": 0, "rental_uris": {"android": "https://dc.lft.to/lastmile_qr_scan", "ios": "https://dc.lft.to/lastmile_qr_scan"}, "type": "electric_scooter", "lat": 38.8935325, "is_reserved": 0, "fusion_lat": 0.0}, {"bike_id": "699234c84736550628c0dfa545e245c7", "fusion_lon": 0.0, "lon": -77.008845, "name": "699234c84736550628c0dfa545e245c7", "is_disabled": 0, "rental_uris": {"android": "https://dc.lft.to/lastmile_qr_scan", "ios": "https://dc.lft.to/lastmile_qr_scan"}, "type": "electric_scooter", "lat": 38.92488016666667, "is_reserved": 0, "fusion_lat": 0.0}, {"bike_id": "e400e360f389dc5867d5cd7cbbe2b659", "fusion_lon": 0.0, "lon": -77.0453315, "name": "e400e360f389dc5867d5cd7cbbe2b659", "is_disabled": 0, "rental_uris": {"android": "https://dc.lft.to/lastmile_qr_scan", "ios": "https://dc.lft.to/lastmile_qr_scan"}, "type": "electric_scooter", "lat": 38.91328333333333, "is_reserved": 0, "fusion_lat": 0.0}, {"bike_id": "727a8bd35d5bc029c590ec266d6cb020", "fusion_lon": 0.0, "lon": -76.99398983333333, "name": "727a8bd35d5bc029c590ec266d6cb020", "is_disabled": 0, "rental_uris": {"android": "https://dc.lft.to/lastmile_qr_scan", "ios": "https://dc.lft.to/lastmile_qr_scan"}, "type": "electric_scooter", "lat": 38.92162966666667, "is_reserved": 0, "fusion_lat": 0.0}, {"bike_id": "9c5bfaa0b70a543754a666d85534d0f6", "fusion_lon": 0.0, "lon": -76.99865183333333, "name": "9c5bfaa0b70a543754a666d85534d0f6", "is_disabled": 0, "rental_uris": {"android": "https://dc.lft.to/lastmile_qr_scan", "ios": "https://dc.lft.to/lastmile_qr_scan"}, "type": "electric_scooter", "lat": 38.900202166666666, "is_reserved": 0, "fusion_lat": 0.0}, {"bike_id": "852e3471203b38b0324a1c2adf112196", "fusion_lon": 0.0, "lon": -77.04492716666667, "name": "852e3471203b38b0324a1c2adf112196", "is_disabled": 0, "rental_uris": {"android": "https://dc.lft.to/lastmile_qr_scan", "ios": "https://dc.lft.to/lastmile_qr_scan"}, "type": "electric_scooter", "lat": 38.9034, "is_reserved": 0, "fusion_lat": 0.0}, {"bike_id": "fe9f20f36512bc4d5b08bc008dd40de4", "fusion_lon": 0.0, "lon": -77.01685816666667, "name": "fe9f20f36512bc4d5b08bc008dd40de4", "is_disabled": 0, "rental_uris": {"android": "https://dc.lft.to/lastmile_qr_scan", "ios": "https://dc.lft.to/lastmile_qr_scan"}, "type": "electric_scooter", "lat": 38.88120583333333, "is_reserved": 0, "fusion_lat": 0.0}, {"bike_id": "9cfbaf509778ad6e78f35f9ed21420d6", "fusion_lon": 0.0, "lon": -77.03212383333333, "name": "9cfbaf509778ad6e78f35f9ed21420d6", "is_disabled": 0, "rental_uris": {"android": "https://dc.lft.to/lastmile_qr_scan", "ios": "https://dc.lft.to/lastmile_qr_scan"}, "type": "electric_bike", "lat": 38.9331255, "is_reserved": 0, "fusion_lat": 0.0}, {"bike_id": "772ffb722e904dec8e4e24e0be3f978e", "fusion_lon": 0.0, "lon": -77.012011, "name": "772ffb722e904dec8e4e24e0be3f978e", "is_disabled": 0, "rental_uris": {"android": "https://dc.lft.to/lastmile_qr_scan", "ios": "https://dc.lft.to/lastmile_qr_scan"}, "type": "electric_scooter", "lat": 38.87098783333333, "is_reserved": 0, "fusion_lat": 0.0}, {"bike_id": "95c6fb40604d6c23c61451e89ff043ae", "fusion_lon": 0.0, "lon": -76.99953283333333, "name": "95c6fb40604d6c23c61451e89ff043ae", "is_disabled": 0, "rental_uris": {"android": "https://dc.lft.to/lastmile_qr_scan", "ios": "https://dc.lft.to/lastmile_qr_scan"}, "type": "electric_scooter", "lat": 38.91901166666667, "is_reserved": 0, "fusion_lat": 0.0}, {"bike_id": "854a14f34a99eacd8a32b8a87086fd2b", "fusion_lon": 0.0, "lon": -77.05852883333333, "name": "854a14f34a99eacd8a32b8a87086fd2b", "is_disabled": 0, "rental_uris": {"android": "https://dc.lft.to/lastmile_qr_scan", "ios": "https://dc.lft.to/lastmile_qr_scan"}, "type": "electric_scooter", "lat": 38.9360935, "is_reserved": 0, "fusion_lat": 0.0}, {"bike_id": "c98ed1e4774cc7a74eca631f441c2c13", "fusion_lon": 0.0, "lon": -77.02187316666667, "name": "c98ed1e4774cc7a74eca631f441c2c13", "is_disabled": 0, "rental_uris": {"android": "https://dc.lft.to/lastmile_qr_scan", "ios": "https://dc.lft.to/lastmile_qr_scan"}, "type": "electric_bike", "lat": 38.90699433333333, "is_reserved": 0, "fusion_lat": 0.0}, {"bike_id": "8cf867c04b147c19671fa432440af0b2", "fusion_lon": 0.0, "lon": -77.038755, "name": "8cf867c04b147c19671fa432440af0b2", "is_disabled": 0, "rental_uris": {"android": "https://dc.lft.to/lastmile_qr_scan", "ios": "https://dc.lft.to/lastmile_qr_scan"}, "type": "electric_scooter", "lat": 38.925098166666665, "is_reserved": 0, "fusion_lat": 0.0}, {"bike_id": "02194bfb14fdf31af6ee3c2546fcad56", "fusion_lon": 0.0, "lon": -76.96527283333333, "name": "02194bfb14fdf31af6ee3c2546fcad56", "is_disabled": 0, "rental_uris": {"android": "https://dc.lft.to/lastmile_qr_scan", "ios": "https://dc.lft.to/lastmile_qr_scan"}, "type": "electric_scooter", "lat": 38.8762995, "is_reserved": 0, "fusion_lat": 0.0}, {"bike_id": "e8968748822377ca1ae34f8c9ba06484", "fusion_lon": 0.0, "lon": -77.02657883333333, "name": "e8968748822377ca1ae34f8c9ba06484", "is_disabled": 0, "rental_uris": {"android": "https://dc.lft.to/lastmile_qr_scan", "ios": "https://dc.lft.to/lastmile_qr_scan"}, "type": "electric_bike", "lat": 38.98810533333334, "is_reserved": 0, "fusion_lat": 0.0}, {"bike_id": "5a92a63ac7ed7dc5024a8b533ad834c3", "fusion_lon": 0.0, "lon": -77.026222, "name": "5a92a63ac7ed7dc5024a8b533ad834c3", "is_disabled": 0, "rental_uris": {"android": "https://dc.lft.to/lastmile_qr_scan", "ios": "https://dc.lft.to/lastmile_qr_scan"}, "type": "electric_scooter", "lat": 38.9253585, "is_reserved": 0, "fusion_lat": 0.0}, {"bike_id": "46420bb96475ea0e420cc9af586cfd29", "fusion_lon": 0.0, "lon": -77.05351216666666, "name": "46420bb96475ea0e420cc9af586cfd29", "is_disabled": 0, "rental_uris": {"android": "https://dc.lft.to/lastmile_qr_scan", "ios": "https://dc.lft.to/lastmile_qr_scan"}, "type": "electric_scooter", "lat": 38.905371833333334, "is_reserved": 0, "fusion_lat": 0.0}, {"bike_id": "7d9f6456e7c5175d89cab423bf69ba44", "fusion_lon": 0.0, "lon": -76.92486166666667, "name": "7d9f6456e7c5175d89cab423bf69ba44", "is_disabled": 0, "rental_uris": {"android": "https://dc.lft.to/lastmile_qr_scan", "ios": "https://dc.lft.to/lastmile_qr_scan"}, "type": "electric_bike", "lat": 38.95886816666667, "is_reserved": 0, "fusion_lat": 0.0}, {"bike_id": "759d231c53ef8e544b5d2f8f9276aec9", "fusion_lon": 0.0, "lon": -76.99649166666667, "name": "759d231c53ef8e544b5d2f8f9276aec9", "is_disabled": 0, "rental_uris": {"android": "https://dc.lft.to/lastmile_qr_scan", "ios": "https://dc.lft.to/lastmile_qr_scan"}, "type": "electric_bike", "lat": 38.988240833333336, "is_reserved": 0, "fusion_lat": 0.0}, {"bike_id": "88779ec77b03fd45c2880c6bbe01cf00", "fusion_lon": 0.0, "lon": -77.00204483333333, "name": "88779ec77b03fd45c2880c6bbe01cf00", "is_disabled": 0, "rental_uris": {"android": "https://dc.lft.to/lastmile_qr_scan", "ios": "https://dc.lft.to/lastmile_qr_scan"}, "type": "electric_scooter", "lat": 38.90074, "is_reserved": 0, "fusion_lat": 0.0}, {"bike_id": "21e4ae64016eed9bd8fc92359a8b874b", "fusion_lon": 0.0, "lon": -77.02202633333333, "name": "21e4ae64016eed9bd8fc92359a8b874b", "is_disabled": 0, "rental_uris": {"android": "https://dc.lft.to/lastmile_qr_scan", "ios": "https://dc.lft.to/lastmile_qr_scan"}, "type": "electric_scooter", "lat": 38.910642, "is_reserved": 0, "fusion_lat": 0.0}, {"bike_id": "8bf4cbfd312e24c020575feabdd97b73", "fusion_lon": 0.0, "lon": -76.99387366666667, "name": "8bf4cbfd312e24c020575feabdd97b73", "is_disabled": 0, "rental_uris": {"android": "https://dc.lft.to/lastmile_qr_scan", "ios": "https://dc.lft.to/lastmile_qr_scan"}, "type": "electric_scooter", "lat": 38.89729033333333, "is_reserved": 0, "fusion_lat": 0.0}, {"bike_id": "ba6b66801986039f9bc42f2522fc8f20", "fusion_lon": 0.0, "lon": -77.01529316666667, "name": "ba6b66801986039f9bc42f2522fc8f20", "is_disabled": 0, "rental_uris": {"android": "https://dc.lft.to/lastmile_qr_scan", "ios": "https://dc.lft.to/lastmile_qr_scan"}, "type": "electric_scooter", "lat": 38.88737316666667, "is_reserved": 0, "fusion_lat": 0.0}, {"bike_id": "3b410e04bfbe0a11ea4fc82e3c2eb188", "fusion_lon": 0.0, "lon": -77.01859366666666, "name": "3b410e04bfbe0a11ea4fc82e3c2eb188", "is_disabled": 0, "rental_uris": {"android": "https://dc.lft.to/lastmile_qr_scan", "ios": "https://dc.lft.to/lastmile_qr_scan"}, "type": "electric_scooter", "lat": 38.9040105, "is_reserved": 0, "fusion_lat": 0.0}, {"bike_id": "a52a26dd964be26419cdc53857db7e90", "fusion_lon": 0.0, "lon": -77.02959716666666, "name": "a52a26dd964be26419cdc53857db7e90", "is_disabled": 0, "rental_uris": {"android": "https://dc.lft.to/lastmile_qr_scan", "ios": "https://dc.lft.to/lastmile_qr_scan"}, "type": "electric_scooter", "lat": 38.92697883333334, "is_reserved": 0, "fusion_lat": 0.0}, {"bike_id": "0c534e154c177815eb4916065c8d0d09", "fusion_lon": 0.0, "lon": -77.08185633333333, "name": "0c534e154c177815eb4916065c8d0d09", "is_disabled": 0, "rental_uris": {"android": "https://dc.lft.to/lastmile_qr_scan", "ios": "https://dc.lft.to/lastmile_qr_scan"}, "type": "electric_scooter", "lat": 38.935567666666664, "is_reserved": 0, "fusion_lat": 0.0}, {"bike_id": "ca85a8ac2da4837c3e5adfaf3414039c", "fusion_lon": 0.0, "lon": -77.019813, "name": "ca85a8ac2da4837c3e5adfaf3414039c", "is_disabled": 0, "rental_uris": {"android": "https://dc.lft.to/lastmile_qr_scan", "ios": "https://dc.lft.to/lastmile_qr_scan"}, "type": "electric_scooter", "lat": 38.886173666666664, "is_reserved": 0, "fusion_lat": 0.0}, {"bike_id": "04b6a152779c1a8882c738a4bb73ea41", "fusion_lon": 0.0, "lon": -77.002098, "name": "04b6a152779c1a8882c738a4bb73ea41", "is_disabled": 0, "rental_uris": {"android": "https://dc.lft.to/lastmile_qr_scan", "ios": "https://dc.lft.to/lastmile_qr_scan"}, "type": "electric_scooter", "lat": 38.8972095, "is_reserved": 0, "fusion_lat": 0.0}, {"bike_id": "91f15a03ef4dfedd8db6a4f189e4884e", "fusion_lon": 0.0, "lon": -77.01785766666667, "name": "91f15a03ef4dfedd8db6a4f189e4884e", "is_disabled": 0, "rental_uris": {"android": "https://dc.lft.to/lastmile_qr_scan", "ios": "https://dc.lft.to/lastmile_qr_scan"}, "type": "electric_scooter", "lat": 38.911107666666666, "is_reserved": 0, "fusion_lat": 0.0}, {"bike_id": "c3949ca17163a9f40d433391055af77e", "fusion_lon": 0.0, "lon": -77.04147133333333, "name": "c3949ca17163a9f40d433391055af77e", "is_disabled": 0, "rental_uris": {"android": "https://dc.lft.to/lastmile_qr_scan", "ios": "https://dc.lft.to/lastmile_qr_scan"}, "type": "electric_scooter", "lat": 38.9155315, "is_reserved": 0, "fusion_lat": 0.0}, {"bike_id": "0cfa5d1094e7d81f8617d9ecd2ce30ed", "fusion_lon": 0.0, "lon": -77.04343166666666, "name": "0cfa5d1094e7d81f8617d9ecd2ce30ed", "is_disabled": 0, "rental_uris": {"android": "https://dc.lft.to/lastmile_qr_scan", "ios": "https://dc.lft.to/lastmile_qr_scan"}, "type": "electric_scooter", "lat": 38.89726566666667, "is_reserved": 0, "fusion_lat": 0.0}, {"bike_id": "e7275bef4576ec191c4c25738eda430e", "fusion_lon": 0.0, "lon": -76.98062683333333, "name": "e7275bef4576ec191c4c25738eda430e", "is_disabled": 0, "rental_uris": {"android": "https://dc.lft.to/lastmile_qr_scan", "ios": "https://dc.lft.to/lastmile_qr_scan"}, "type": "electric_scooter", "lat": 38.884937666666666, "is_reserved": 0, "fusion_lat": 0.0}, {"bike_id": "ab952f1358d1e116268dafa56afcc7e1", "fusion_lon": 0.0, "lon": -77.04557633333333, "name": "ab952f1358d1e116268dafa56afcc7e1", "is_disabled": 0, "rental_uris": {"android": "https://dc.lft.to/lastmile_qr_scan", "ios": "https://dc.lft.to/lastmile_qr_scan"}, "type": "electric_scooter", "lat": 38.917816333333334, "is_reserved": 0, "fusion_lat": 0.0}, {"bike_id": "5d45470acc7976c6ed93af167a006c11", "fusion_lon": 0.0, "lon": -77.03907833333334, "name": "5d45470acc7976c6ed93af167a006c11", "is_disabled": 0, "rental_uris": {"android": "https://dc.lft.to/lastmile_qr_scan", "ios": "https://dc.lft.to/lastmile_qr_scan"}, "type": "electric_scooter", "lat": 38.91419166666667, "is_reserved": 0, "fusion_lat": 0.0}, {"bike_id": "10d50592a02780e968a0106ba364f88a", "fusion_lon": 0.0, "lon": -76.9953025, "name": "10d50592a02780e968a0106ba364f88a", "is_disabled": 0, "rental_uris": {"android": "https://dc.lft.to/lastmile_qr_scan", "ios": "https://dc.lft.to/lastmile_qr_scan"}, "type": "electric_scooter", "lat": 38.926776, "is_reserved": 0, "fusion_lat": 0.0}, {"bike_id": "21fb73a43bc5110e8c64921ef57b4b90", "fusion_lon": 0.0, "lon": -77.048206, "name": "21fb73a43bc5110e8c64921ef57b4b90", "is_disabled": 0, "rental_uris": {"android": "https://dc.lft.to/lastmile_qr_scan", "ios": "https://dc.lft.to/lastmile_qr_scan"}, "type": "electric_scooter", "lat": 38.902226166666665, "is_reserved": 0, "fusion_lat": 0.0}, {"bike_id": "482e656495093a8052ce778495c63a94", "fusion_lon": 0.0, "lon": -76.928683, "name": "482e656495093a8052ce778495c63a94", "is_disabled": 0, "rental_uris": {"android": "https://dc.lft.to/lastmile_qr_scan", "ios": "https://dc.lft.to/lastmile_qr_scan"}, "type": "electric_scooter", "lat": 38.8852815, "is_reserved": 0, "fusion_lat": 0.0}, {"bike_id": "519ea68210399f1aa13abdb8a9eaa2ee", "fusion_lon": 0.0, "lon": -77.0979465, "name": "519ea68210399f1aa13abdb8a9eaa2ee", "is_disabled": 0, "rental_uris": {"android": "https://dc.lft.to/lastmile_qr_scan", "ios": "https://dc.lft.to/lastmile_qr_scan"}, "type": "electric_bike", "lat": 38.850338666666666, "is_reserved": 0, "fusion_lat": 0.0}, {"bike_id": "2eb5a047725cdbd4775c437a1dfa2be1", "fusion_lon": 0.0, "lon": -77.09960333333333, "name": "2eb5a047725cdbd4775c437a1dfa2be1", "is_disabled": 0, "rental_uris": {"android": "https://dc.lft.to/lastmile_qr_scan", "ios": "https://dc.lft.to/lastmile_qr_scan"}, "type": "electric_bike", "lat": 38.8579145, "is_reserved": 0, "fusion_lat": 0.0}, {"bike_id": "e2b3483190f7da03fdf4f3897390a6c3", "fusion_lon": 0.0, "lon": -76.9794625, "name": "e2b3483190f7da03fdf4f3897390a6c3", "is_disabled": 0, "rental_uris": {"android": "https://dc.lft.to/lastmile_qr_scan", "ios": "https://dc.lft.to/lastmile_qr_scan"}, "type": "electric_scooter", "lat": 38.945296166666665, "is_reserved": 0, "fusion_lat": 0.0}, {"bike_id": "ed1bf823e8b01b3d72067fde17239246", "fusion_lon": 0.0, "lon": -77.00153466666667, "name": "ed1bf823e8b01b3d72067fde17239246", "is_disabled": 0, "rental_uris": {"android": "https://dc.lft.to/lastmile_qr_scan", "ios": "https://dc.lft.to/lastmile_qr_scan"}, "type": "electric_scooter", "lat": 38.907449, "is_reserved": 0, "fusion_lat": 0.0}, {"bike_id": "8935c99989e70066e93d62cd665aad2d", "fusion_lon": 0.0, "lon": -77.0295025, "name": "8935c99989e70066e93d62cd665aad2d", "is_disabled": 0, "rental_uris": {"android": "https://dc.lft.to/lastmile_qr_scan", "ios": "https://dc.lft.to/lastmile_qr_scan"}, "type": "electric_scooter", "lat": 38.907294, "is_reserved": 0, "fusion_lat": 0.0}, {"bike_id": "2f22f24963b49c45371e85ef45c94b62", "fusion_lon": 0.0, "lon": -77.02066916666666, "name": "2f22f24963b49c45371e85ef45c94b62", "is_disabled": 0, "rental_uris": {"android": "https://dc.lft.to/lastmile_qr_scan", "ios": "https://dc.lft.to/lastmile_qr_scan"}, "type": "electric_bike", "lat": 38.964424666666666, "is_reserved": 0, "fusion_lat": 0.0}, {"bike_id": "1569158672a1a310923cb50d0da57979", "fusion_lon": 0.0, "lon": -77.03588316666666, "name": "1569158672a1a310923cb50d0da57979", "is_disabled": 0, "rental_uris": {"android": "https://dc.lft.to/lastmile_qr_scan", "ios": "https://dc.lft.to/lastmile_qr_scan"}, "type": "electric_scooter", "lat": 38.912671, "is_reserved": 0, "fusion_lat": 0.0}, {"bike_id": "9e90d22d6d5b6e2264032e3213d829dc", "fusion_lon": 0.0, "lon": -77.00961983333333, "name": "9e90d22d6d5b6e2264032e3213d829dc", "is_disabled": 0, "rental_uris": {"android": "https://dc.lft.to/lastmile_qr_scan", "ios": "https://dc.lft.to/lastmile_qr_scan"}, "type": "electric_scooter", "lat": 38.90784033333333, "is_reserved": 0, "fusion_lat": 0.0}, {"bike_id": "ce92d0601319738ef09a1f60bc6c42da", "fusion_lon": 0.0, "lon": -77.02658583333333, "name": "ce92d0601319738ef09a1f60bc6c42da", "is_disabled": 0, "rental_uris": {"android": "https://dc.lft.to/lastmile_qr_scan", "ios": "https://dc.lft.to/lastmile_qr_scan"}, "type": "electric_scooter", "lat": 38.92219566666667, "is_reserved": 0, "fusion_lat": 0.0}, {"bike_id": "d3cc835ee07cfc49519f3faf4b820c2e", "fusion_lon": 0.0, "lon": -77.04659833333334, "name": "d3cc835ee07cfc49519f3faf4b820c2e", "is_disabled": 0, "rental_uris": {"android": "https://dc.lft.to/lastmile_qr_scan", "ios": "https://dc.lft.to/lastmile_qr_scan"}, "type": "electric_scooter", "lat": 38.90548583333333, "is_reserved": 0, "fusion_lat": 0.0}, {"bike_id": "1484291039336dd7280100e57488f8b6", "fusion_lon": 0.0, "lon": -77.04733483333334, "name": "1484291039336dd7280100e57488f8b6", "is_disabled": 0, "rental_uris": {"android": "https://dc.lft.to/lastmile_qr_scan", "ios": "https://dc.lft.to/lastmile_qr_scan"}, "type": "electric_scooter", "lat": 38.9015725, "is_reserved": 0, "fusion_lat": 0.0}, {"bike_id": "3b217036b4494a5002e47d63c0d2f090", "fusion_lon": 0.0, "lon": -77.01755416666667, "name": "3b217036b4494a5002e47d63c0d2f090", "is_disabled": 0, "rental_uris": {"android": "https://dc.lft.to/lastmile_qr_scan", "ios": "https://dc.lft.to/lastmile_qr_scan"}, "type": "electric_scooter", "lat": 38.87718783333333, "is_reserved": 0, "fusion_lat": 0.0}, {"bike_id": "47e417a1b190cd1d436e572b3b49359c", "fusion_lon": 0.0, "lon": -77.0221215, "name": "47e417a1b190cd1d436e572b3b49359c", "is_disabled": 0, "rental_uris": {"android": "https://dc.lft.to/lastmile_qr_scan", "ios": "https://dc.lft.to/lastmile_qr_scan"}, "type": "electric_scooter", "lat": 38.91565966666667, "is_reserved": 0, "fusion_lat": 0.0}, {"bike_id": "d64dbfdd6390246818845c7a3bd2d852", "fusion_lon": 0.0, "lon": -77.0247985, "name": "d64dbfdd6390246818845c7a3bd2d852", "is_disabled": 0, "rental_uris": {"android": "https://dc.lft.to/lastmile_qr_scan", "ios": "https://dc.lft.to/lastmile_qr_scan"}, "type": "electric_scooter", "lat": 38.90971966666667, "is_reserved": 0, "fusion_lat": 0.0}, {"bike_id": "c90fdb6149935cd79a12376f0f4e3c46", "fusion_lon": 0.0, "lon": -77.01763766666667, "name": "c90fdb6149935cd79a12376f0f4e3c46", "is_disabled": 0, "rental_uris": {"android": "https://dc.lft.to/lastmile_qr_scan", "ios": "https://dc.lft.to/lastmile_qr_scan"}, "type": "electric_scooter", "lat": 38.878607833333334, "is_reserved": 0, "fusion_lat": 0.0}, {"bike_id": "f809b8d3e6b775f98e13b870a7aef622", "fusion_lon": 0.0, "lon": -77.02194983333334, "name": "f809b8d3e6b775f98e13b870a7aef622", "is_disabled": 0, "rental_uris": {"android": "https://dc.lft.to/lastmile_qr_scan", "ios": "https://dc.lft.to/lastmile_qr_scan"}, "type": "electric_scooter", "lat": 38.8954995, "is_reserved": 0, "fusion_lat": 0.0}, {"bike_id": "aea36c0674616f44a1841d8bac6c6275", "fusion_lon": 0.0, "lon": -77.038569, "name": "aea36c0674616f44a1841d8bac6c6275", "is_disabled": 0, "rental_uris": {"android": "https://dc.lft.to/lastmile_qr_scan", "ios": "https://dc.lft.to/lastmile_qr_scan"}, "type": "electric_scooter", "lat": 38.90786933333333, "is_reserved": 0, "fusion_lat": 0.0}, {"bike_id": "041cc222f96a1d8413833ced6d241f31", "fusion_lon": 0.0, "lon": -77.035679, "name": "041cc222f96a1d8413833ced6d241f31", "is_disabled": 0, "rental_uris": {"android": "https://dc.lft.to/lastmile_qr_scan", "ios": "https://dc.lft.to/lastmile_qr_scan"}, "type": "electric_scooter", "lat": 38.92339416666667, "is_reserved": 0, "fusion_lat": 0.0}, {"bike_id": "71f40b907a940de0264cf688a9a4c186", "fusion_lon": 0.0, "lon": -77.02694016666666, "name": "71f40b907a940de0264cf688a9a4c186", "is_disabled": 0, "rental_uris": {"android": "https://dc.lft.to/lastmile_qr_scan", "ios": "https://dc.lft.to/lastmile_qr_scan"}, "type": "electric_scooter", "lat": 38.9113355, "is_reserved": 0, "fusion_lat": 0.0}, {"bike_id": "5fbcf8107b8ec385d03e291c07f7c4b9", "fusion_lon": 0.0, "lon": -77.0504345, "name": "5fbcf8107b8ec385d03e291c07f7c4b9", "is_disabled": 0, "rental_uris": {"android": "https://dc.lft.to/lastmile_qr_scan", "ios": "https://dc.lft.to/lastmile_qr_scan"}, "type": "electric_scooter", "lat": 38.92338383333333, "is_reserved": 0, "fusion_lat": 0.0}, {"bike_id": "149349fb8641fdd3df548a9f43d7ee92", "fusion_lon": 0.0, "lon": -77.02715683333334, "name": "149349fb8641fdd3df548a9f43d7ee92", "is_disabled": 0, "rental_uris": {"android": "https://dc.lft.to/lastmile_qr_scan", "ios": "https://dc.lft.to/lastmile_qr_scan"}, "type": "electric_scooter", "lat": 38.909585666666665, "is_reserved": 0, "fusion_lat": 0.0}, {"bike_id": "f1a843b2b193461cd1951abb1d386554", "fusion_lon": 0.0, "lon": -76.97743033333333, "name": "f1a843b2b193461cd1951abb1d386554", "is_disabled": 0, "rental_uris": {"android": "https://dc.lft.to/lastmile_qr_scan", "ios": "https://dc.lft.to/lastmile_qr_scan"}, "type": "electric_scooter", "lat": 38.868326333333336, "is_reserved": 0, "fusion_lat": 0.0}, {"bike_id": "48a25e5eca6d1a87ed94c182a49c7516", "fusion_lon": 0.0, "lon": -77.01759916666667, "name": "48a25e5eca6d1a87ed94c182a49c7516", "is_disabled": 0, "rental_uris": {"android": "https://dc.lft.to/lastmile_qr_scan", "ios": "https://dc.lft.to/lastmile_qr_scan"}, "type": "electric_scooter", "lat": 38.917338, "is_reserved": 0, "fusion_lat": 0.0}, {"bike_id": "4395b1c11e63369010660676c86f42d6", "fusion_lon": 0.0, "lon": -77.06204766666667, "name": "4395b1c11e63369010660676c86f42d6", "is_disabled": 0, "rental_uris": {"android": "https://dc.lft.to/lastmile_qr_scan", "ios": "https://dc.lft.to/lastmile_qr_scan"}, "type": "electric_bike", "lat": 38.92037416666667, "is_reserved": 0, "fusion_lat": 0.0}, {"bike_id": "0922c4af2a848d722fec9a4d621d3eba", "fusion_lon": 0.0, "lon": -77.04174233333333, "name": "0922c4af2a848d722fec9a4d621d3eba", "is_disabled": 0, "rental_uris": {"android": "https://dc.lft.to/lastmile_qr_scan", "ios": "https://dc.lft.to/lastmile_qr_scan"}, "type": "electric_scooter", "lat": 38.919397000000004, "is_reserved": 0, "fusion_lat": 0.0}, {"bike_id": "e18a5f542628cc619e86e3273e3389eb", "fusion_lon": 0.0, "lon": -77.029745, "name": "e18a5f542628cc619e86e3273e3389eb", "is_disabled": 0, "rental_uris": {"android": "https://dc.lft.to/lastmile_qr_scan", "ios": "https://dc.lft.to/lastmile_qr_scan"}, "type": "electric_scooter", "lat": 38.951952, "is_reserved": 0, "fusion_lat": 0.0}, {"bike_id": "a31c9329e6675d51c5560ca0a1046d66", "fusion_lon": 0.0, "lon": -76.96500966666666, "name": "a31c9329e6675d51c5560ca0a1046d66", "is_disabled": 0, "rental_uris": {"android": "https://dc.lft.to/lastmile_qr_scan", "ios": "https://dc.lft.to/lastmile_qr_scan"}, "type": "electric_bike", "lat": 38.875556, "is_reserved": 0, "fusion_lat": 0.0}, {"bike_id": "135539279219cd061bf44511699282a8", "fusion_lon": 0.0, "lon": -76.99944916666666, "name": "135539279219cd061bf44511699282a8", "is_disabled": 0, "rental_uris": {"android": "https://dc.lft.to/lastmile_qr_scan", "ios": "https://dc.lft.to/lastmile_qr_scan"}, "type": "electric_scooter", "lat": 38.842971, "is_reserved": 0, "fusion_lat": 0.0}, {"bike_id": "82c717f071ffae11d3dad29887c7c32c", "fusion_lon": 0.0, "lon": -77.03414533333333, "name": "82c717f071ffae11d3dad29887c7c32c", "is_disabled": 0, "rental_uris": {"android": "https://dc.lft.to/lastmile_qr_scan", "ios": "https://dc.lft.to/lastmile_qr_scan"}, "type": "electric_scooter", "lat": 38.90446016666667, "is_reserved": 0, "fusion_lat": 0.0}, {"bike_id": "797f3137a89763f9708bf90e35c698cc", "fusion_lon": 0.0, "lon": -77.0419145, "name": "797f3137a89763f9708bf90e35c698cc", "is_disabled": 0, "rental_uris": {"android": "https://dc.lft.to/lastmile_qr_scan", "ios": "https://dc.lft.to/lastmile_qr_scan"}, "type": "electric_scooter", "lat": 38.92623666666667, "is_reserved": 0, "fusion_lat": 0.0}, {"bike_id": "fbdd354dfb5f1c70d2f0657f36114778", "fusion_lon": 0.0, "lon": -77.03270333333333, "name": "fbdd354dfb5f1c70d2f0657f36114778", "is_disabled": 0, "rental_uris": {"android": "https://dc.lft.to/lastmile_qr_scan", "ios": "https://dc.lft.to/lastmile_qr_scan"}, "type": "electric_scooter", "lat": 38.9140395, "is_reserved": 0, "fusion_lat": 0.0}, {"bike_id": "6cd285a5946ca7c9916d26d5321a2e42", "fusion_lon": 0.0, "lon": -77.00327433333334, "name": "6cd285a5946ca7c9916d26d5321a2e42", "is_disabled": 0, "rental_uris": {"android": "https://dc.lft.to/lastmile_qr_scan", "ios": "https://dc.lft.to/lastmile_qr_scan"}, "type": "electric_scooter", "lat": 38.9026315, "is_reserved": 0, "fusion_lat": 0.0}, {"bike_id": "334f8fa695ba011f07c6ad8b34874c17", "fusion_lon": 0.0, "lon": -76.9811125, "name": "334f8fa695ba011f07c6ad8b34874c17", "is_disabled": 0, "rental_uris": {"android": "https://dc.lft.to/lastmile_qr_scan", "ios": "https://dc.lft.to/lastmile_qr_scan"}, "type": "electric_bike", "lat": 38.914736833333336, "is_reserved": 0, "fusion_lat": 0.0}, {"bike_id": "02de0e3ed433152e661d1e04197525f0", "fusion_lon": 0.0, "lon": -77.0199945, "name": "02de0e3ed433152e661d1e04197525f0", "is_disabled": 0, "rental_uris": {"android": "https://dc.lft.to/lastmile_qr_scan", "ios": "https://dc.lft.to/lastmile_qr_scan"}, "type": "electric_scooter", "lat": 38.91311533333333, "is_reserved": 0, "fusion_lat": 0.0}, {"bike_id": "175d34858d32b8ea989e50ab81df838f", "fusion_lon": 0.0, "lon": -76.9941585, "name": "175d34858d32b8ea989e50ab81df838f", "is_disabled": 0, "rental_uris": {"android": "https://dc.lft.to/lastmile_qr_scan", "ios": "https://dc.lft.to/lastmile_qr_scan"}, "type": "electric_scooter", "lat": 38.877895333333335, "is_reserved": 0, "fusion_lat": 0.0}, {"bike_id": "12ebb7b7e3e740732163bc548c37ccbb", "fusion_lon": 0.0, "lon": -77.02190183333333, "name": "12ebb7b7e3e740732163bc548c37ccbb", "is_disabled": 0, "rental_uris": {"android": "https://dc.lft.to/lastmile_qr_scan", "ios": "https://dc.lft.to/lastmile_qr_scan"}, "type": "electric_scooter", "lat": 38.911501333333334, "is_reserved": 0, "fusion_lat": 0.0}, {"bike_id": "7de0de53762ee6e4e8acc096d56ff538", "fusion_lon": 0.0, "lon": -77.04080166666667, "name": "7de0de53762ee6e4e8acc096d56ff538", "is_disabled": 0, "rental_uris": {"android": "https://dc.lft.to/lastmile_qr_scan", "ios": "https://dc.lft.to/lastmile_qr_scan"}, "type": "electric_scooter", "lat": 38.917018666666664, "is_reserved": 0, "fusion_lat": 0.0}, {"bike_id": "84bc9ea6b2a8cdd2cd748e55a32793e4", "fusion_lon": 0.0, "lon": -77.05412883333334, "name": "84bc9ea6b2a8cdd2cd748e55a32793e4", "is_disabled": 0, "rental_uris": {"android": "https://dc.lft.to/lastmile_qr_scan", "ios": "https://dc.lft.to/lastmile_qr_scan"}, "type": "electric_scooter", "lat": 38.902476666666665, "is_reserved": 0, "fusion_lat": 0.0}, {"bike_id": "ff5cf9a612590caa37f51cc13fbfa656", "fusion_lon": 0.0, "lon": -77.051331, "name": "ff5cf9a612590caa37f51cc13fbfa656", "is_disabled": 0, "rental_uris": {"android": "https://dc.lft.to/lastmile_qr_scan", "ios": "https://dc.lft.to/lastmile_qr_scan"}, "type": "electric_scooter", "lat": 38.905755, "is_reserved": 0, "fusion_lat": 0.0}, {"bike_id": "364904bee28dc01059c867a37425afd7", "fusion_lon": 0.0, "lon": -77.03224766666666, "name": "364904bee28dc01059c867a37425afd7", "is_disabled": 0, "rental_uris": {"android": "https://dc.lft.to/lastmile_qr_scan", "ios": "https://dc.lft.to/lastmile_qr_scan"}, "type": "electric_scooter", "lat": 38.91409083333333, "is_reserved": 0, "fusion_lat": 0.0}, {"bike_id": "3e4daa7a8641efa28eb6543b83318c10", "fusion_lon": 0.0, "lon": -77.02396666666667, "name": "3e4daa7a8641efa28eb6543b83318c10", "is_disabled": 0, "rental_uris": {"android": "https://dc.lft.to/lastmile_qr_scan", "ios": "https://dc.lft.to/lastmile_qr_scan"}, "type": "electric_scooter", "lat": 38.89722733333333, "is_reserved": 0, "fusion_lat": 0.0}, {"bike_id": "670b91a97203b8bdb1f0d05a3dcadadb", "fusion_lon": 0.0, "lon": -77.03106483333333, "name": "670b91a97203b8bdb1f0d05a3dcadadb", "is_disabled": 0, "rental_uris": {"android": "https://dc.lft.to/lastmile_qr_scan", "ios": "https://dc.lft.to/lastmile_qr_scan"}, "type": "electric_scooter", "lat": 38.917159833333336, "is_reserved": 0, "fusion_lat": 0.0}, {"bike_id": "cffbbdf89bf3df873a0f21947eeef2dd", "fusion_lon": 0.0, "lon": -77.03337533333334, "name": "cffbbdf89bf3df873a0f21947eeef2dd", "is_disabled": 0, "rental_uris": {"android": "https://dc.lft.to/lastmile_qr_scan", "ios": "https://dc.lft.to/lastmile_qr_scan"}, "type": "electric_scooter", "lat": 38.898278833333336, "is_reserved": 0, "fusion_lat": 0.0}, {"bike_id": "827e30c70491a89e30d648cefa3d7a6e", "fusion_lon": 0.0, "lon": -76.91160616666667, "name": "827e30c70491a89e30d648cefa3d7a6e", "is_disabled": 0, "rental_uris": {"android": "https://dc.lft.to/lastmile_qr_scan", "ios": "https://dc.lft.to/lastmile_qr_scan"}, "type": "electric_scooter", "lat": 38.894282, "is_reserved": 0, "fusion_lat": 0.0}, {"bike_id": "df0c24202fd9cef1203d10ebcf35dd19", "fusion_lon": 0.0, "lon": -77.03230183333334, "name": "df0c24202fd9cef1203d10ebcf35dd19", "is_disabled": 0, "rental_uris": {"android": "https://dc.lft.to/lastmile_qr_scan", "ios": "https://dc.lft.to/lastmile_qr_scan"}, "type": "electric_scooter", "lat": 38.927615333333335, "is_reserved": 0, "fusion_lat": 0.0}, {"bike_id": "db785ecd6103b2468563228906fc86ea", "fusion_lon": 0.0, "lon": -76.98711233333333, "name": "db785ecd6103b2468563228906fc86ea", "is_disabled": 0, "rental_uris": {"android": "https://dc.lft.to/lastmile_qr_scan", "ios": "https://dc.lft.to/lastmile_qr_scan"}, "type": "electric_scooter", "lat": 38.86696716666667, "is_reserved": 0, "fusion_lat": 0.0}, {"bike_id": "d7edd43989b53c9e31af1293d7c99395", "fusion_lon": 0.0, "lon": -77.014544, "name": "d7edd43989b53c9e31af1293d7c99395", "is_disabled": 0, "rental_uris": {"android": "https://dc.lft.to/lastmile_qr_scan", "ios": "https://dc.lft.to/lastmile_qr_scan"}, "type": "electric_scooter", "lat": 38.918232833333334, "is_reserved": 0, "fusion_lat": 0.0}, {"bike_id": "12471d2a2dc25775488b86b44f5f2053", "fusion_lon": 0.0, "lon": -77.02090866666667, "name": "12471d2a2dc25775488b86b44f5f2053", "is_disabled": 0, "rental_uris": {"android": "https://dc.lft.to/lastmile_qr_scan", "ios": "https://dc.lft.to/lastmile_qr_scan"}, "type": "electric_scooter", "lat": 38.931189333333336, "is_reserved": 0, "fusion_lat": 0.0}, {"bike_id": "76ad7f20a3b80196d04a42e14344abd8", "fusion_lon": 0.0, "lon": -77.03915133333334, "name": "76ad7f20a3b80196d04a42e14344abd8", "is_disabled": 0, "rental_uris": {"android": "https://dc.lft.to/lastmile_qr_scan", "ios": "https://dc.lft.to/lastmile_qr_scan"}, "type": "electric_scooter", "lat": 38.924728333333334, "is_reserved": 0, "fusion_lat": 0.0}, {"bike_id": "93278f0ca24ad2e8d9509987b71b07bf", "fusion_lon": 0.0, "lon": -76.99905866666667, "name": "93278f0ca24ad2e8d9509987b71b07bf", "is_disabled": 0, "rental_uris": {"android": "https://dc.lft.to/lastmile_qr_scan", "ios": "https://dc.lft.to/lastmile_qr_scan"}, "type": "electric_scooter", "lat": 38.9468935, "is_reserved": 0, "fusion_lat": 0.0}, {"bike_id": "f444e025dd51bb7a619967a2a29d7309", "fusion_lon": 0.0, "lon": -77.02721666666666, "name": "f444e025dd51bb7a619967a2a29d7309", "is_disabled": 0, "rental_uris": {"android": "https://dc.lft.to/lastmile_qr_scan", "ios": "https://dc.lft.to/lastmile_qr_scan"}, "type": "electric_scooter", "lat": 38.906703, "is_reserved": 0, "fusion_lat": 0.0}, {"bike_id": "e3416ff5ee73a7a4fe12485aa561857d", "fusion_lon": 0.0, "lon": -77.07722666666666, "name": "e3416ff5ee73a7a4fe12485aa561857d", "is_disabled": 0, "rental_uris": {"android": "https://dc.lft.to/lastmile_qr_scan", "ios": "https://dc.lft.to/lastmile_qr_scan"}, "type": "electric_scooter", "lat": 38.95765766666667, "is_reserved": 0, "fusion_lat": 0.0}, {"bike_id": "3148405c9c735ecb82c190b151660fe5", "fusion_lon": 0.0, "lon": -77.023459, "name": "3148405c9c735ecb82c190b151660fe5", "is_disabled": 0, "rental_uris": {"android": "https://dc.lft.to/lastmile_qr_scan", "ios": "https://dc.lft.to/lastmile_qr_scan"}, "type": "electric_scooter", "lat": 38.946138166666664, "is_reserved": 0, "fusion_lat": 0.0}, {"bike_id": "aea1225775809506510dbad9a70256b4", "fusion_lon": 0.0, "lon": -77.032686, "name": "aea1225775809506510dbad9a70256b4", "is_disabled": 0, "rental_uris": {"android": "https://dc.lft.to/lastmile_qr_scan", "ios": "https://dc.lft.to/lastmile_qr_scan"}, "type": "electric_scooter", "lat": 38.9140815, "is_reserved": 0, "fusion_lat": 0.0}, {"bike_id": "60156b13ffea0390c3a7881a0488f0ea", "fusion_lon": 0.0, "lon": -76.98836266666666, "name": "60156b13ffea0390c3a7881a0488f0ea", "is_disabled": 0, "rental_uris": {"android": "https://dc.lft.to/lastmile_qr_scan", "ios": "https://dc.lft.to/lastmile_qr_scan"}, "type": "electric_scooter", "lat": 38.89261666666667, "is_reserved": 0, "fusion_lat": 0.0}, {"bike_id": "21a9d1cb284645939017154f8fcdc2dc", "fusion_lon": 0.0, "lon": -77.02515866666667, "name": "21a9d1cb284645939017154f8fcdc2dc", "is_disabled": 0, "rental_uris": {"android": "https://dc.lft.to/lastmile_qr_scan", "ios": "https://dc.lft.to/lastmile_qr_scan"}, "type": "electric_scooter", "lat": 38.904068333333335, "is_reserved": 0, "fusion_lat": 0.0}, {"bike_id": "5f7e8f0c0c5d742fff8167cc039f24c1", "fusion_lon": 0.0, "lon": -77.03236816666667, "name": "5f7e8f0c0c5d742fff8167cc039f24c1", "is_disabled": 0, "rental_uris": {"android": "https://dc.lft.to/lastmile_qr_scan", "ios": "https://dc.lft.to/lastmile_qr_scan"}, "type": "electric_scooter", "lat": 38.91922516666666, "is_reserved": 0, "fusion_lat": 0.0}, {"bike_id": "fa92abcb82eeeff6b8724ecb07d5b8c3", "fusion_lon": 0.0, "lon": -76.99167666666666, "name": "fa92abcb82eeeff6b8724ecb07d5b8c3", "is_disabled": 0, "rental_uris": {"android": "https://dc.lft.to/lastmile_qr_scan", "ios": "https://dc.lft.to/lastmile_qr_scan"}, "type": "electric_scooter", "lat": 38.86321933333333, "is_reserved": 0, "fusion_lat": 0.0}, {"bike_id": "64044b910b4fef98151c4b1000accba8", "fusion_lon": 0.0, "lon": -77.0158955, "name": "64044b910b4fef98151c4b1000accba8", "is_disabled": 0, "rental_uris": {"android": "https://dc.lft.to/lastmile_qr_scan", "ios": "https://dc.lft.to/lastmile_qr_scan"}, "type": "electric_scooter", "lat": 38.89536583333334, "is_reserved": 0, "fusion_lat": 0.0}, {"bike_id": "70dfe923e614b81163994b5ad93dc050", "fusion_lon": 0.0, "lon": -76.97729, "name": "70dfe923e614b81163994b5ad93dc050", "is_disabled": 0, "rental_uris": {"android": "https://dc.lft.to/lastmile_qr_scan", "ios": "https://dc.lft.to/lastmile_qr_scan"}, "type": "electric_scooter", "lat": 38.895202166666664, "is_reserved": 0, "fusion_lat": 0.0}, {"bike_id": "9c0b0fe132f4ddc5cc8f7d2b825539e5", "fusion_lon": 0.0, "lon": -77.0684715, "name": "9c0b0fe132f4ddc5cc8f7d2b825539e5", "is_disabled": 0, "rental_uris": {"android": "https://dc.lft.to/lastmile_qr_scan", "ios": "https://dc.lft.to/lastmile_qr_scan"}, "type": "electric_scooter", "lat": 38.9527325, "is_reserved": 0, "fusion_lat": 0.0}, {"bike_id": "c848db3da2babaeca7c94929441b8ec1", "fusion_lon": 0.0, "lon": -76.939911, "name": "c848db3da2babaeca7c94929441b8ec1", "is_disabled": 0, "rental_uris": {"android": "https://dc.lft.to/lastmile_qr_scan", "ios": "https://dc.lft.to/lastmile_qr_scan"}, "type": "electric_scooter", "lat": 38.8997935, "is_reserved": 0, "fusion_lat": 0.0}, {"bike_id": "19a4d2a99b7092f45b518bb5f84db9ab", "fusion_lon": 0.0, "lon": -77.02373133333333, "name": "19a4d2a99b7092f45b518bb5f84db9ab", "is_disabled": 0, "rental_uris": {"android": "https://dc.lft.to/lastmile_qr_scan", "ios": "https://dc.lft.to/lastmile_qr_scan"}, "type": "electric_scooter", "lat": 38.902018, "is_reserved": 0, "fusion_lat": 0.0}, {"bike_id": "e06bd8d8d089a33a8c001ff56b2a9ade", "fusion_lon": 0.0, "lon": -77.0275375, "name": "e06bd8d8d089a33a8c001ff56b2a9ade", "is_disabled": 0, "rental_uris": {"android": "https://dc.lft.to/lastmile_qr_scan", "ios": "https://dc.lft.to/lastmile_qr_scan"}, "type": "electric_scooter", "lat": 38.95428966666667, "is_reserved": 0, "fusion_lat": 0.0}, {"bike_id": "08e176ebf1f356266510d35ca5679628", "fusion_lon": 0.0, "lon": -77.04443716666667, "name": "08e176ebf1f356266510d35ca5679628", "is_disabled": 0, "rental_uris": {"android": "https://dc.lft.to/lastmile_qr_scan", "ios": "https://dc.lft.to/lastmile_qr_scan"}, "type": "electric_scooter", "lat": 38.930255, "is_reserved": 0, "fusion_lat": 0.0}, {"bike_id": "fd48bfc31ee66ef53423a964f05c56f4", "fusion_lon": 0.0, "lon": -77.0294465, "name": "fd48bfc31ee66ef53423a964f05c56f4", "is_disabled": 0, "rental_uris": {"android": "https://dc.lft.to/lastmile_qr_scan", "ios": "https://dc.lft.to/lastmile_qr_scan"}, "type": "electric_scooter", "lat": 38.90487433333333, "is_reserved": 0, "fusion_lat": 0.0}, {"bike_id": "5f7160b9b79395efbcf782f6c124ede1", "fusion_lon": 0.0, "lon": -76.93158916666667, "name": "5f7160b9b79395efbcf782f6c124ede1", "is_disabled": 0, "rental_uris": {"android": "https://dc.lft.to/lastmile_qr_scan", "ios": "https://dc.lft.to/lastmile_qr_scan"}, "type": "electric_scooter", "lat": 38.89881183333333, "is_reserved": 0, "fusion_lat": 0.0}, {"bike_id": "d27ffc518f4bb2bafabc5d0484359f80", "fusion_lon": 0.0, "lon": -77.03322866666667, "name": "d27ffc518f4bb2bafabc5d0484359f80", "is_disabled": 0, "rental_uris": {"android": "https://dc.lft.to/lastmile_qr_scan", "ios": "https://dc.lft.to/lastmile_qr_scan"}, "type": "electric_scooter", "lat": 38.92161266666667, "is_reserved": 0, "fusion_lat": 0.0}, {"bike_id": "be87b3d7f05776f4693bef78c329d774", "fusion_lon": 0.0, "lon": -77.04825566666666, "name": "be87b3d7f05776f4693bef78c329d774", "is_disabled": 0, "rental_uris": {"android": "https://dc.lft.to/lastmile_qr_scan", "ios": "https://dc.lft.to/lastmile_qr_scan"}, "type": "electric_scooter", "lat": 38.907243666666666, "is_reserved": 0, "fusion_lat": 0.0}, {"bike_id": "702c952f3ddf753e9fe7bdbb65b8703e", "fusion_lon": 0.0, "lon": -77.04274433333333, "name": "702c952f3ddf753e9fe7bdbb65b8703e", "is_disabled": 0, "rental_uris": {"android": "https://dc.lft.to/lastmile_qr_scan", "ios": "https://dc.lft.to/lastmile_qr_scan"}, "type": "electric_scooter", "lat": 38.91416133333333, "is_reserved": 0, "fusion_lat": 0.0}, {"bike_id": "664b31a0cee37cad162c59de0935b8f2", "fusion_lon": 0.0, "lon": -77.0514465, "name": "664b31a0cee37cad162c59de0935b8f2", "is_disabled": 0, "rental_uris": {"android": "https://dc.lft.to/lastmile_qr_scan", "ios": "https://dc.lft.to/lastmile_qr_scan"}, "type": "electric_scooter", "lat": 38.90444866666667, "is_reserved": 0, "fusion_lat": 0.0}, {"bike_id": "d99156ae7ecf8b8b54e7fa688109efc2", "fusion_lon": 0.0, "lon": -77.03655933333333, "name": "d99156ae7ecf8b8b54e7fa688109efc2", "is_disabled": 0, "rental_uris": {"android": "https://dc.lft.to/lastmile_qr_scan", "ios": "https://dc.lft.to/lastmile_qr_scan"}, "type": "electric_scooter", "lat": 38.934871333333334, "is_reserved": 0, "fusion_lat": 0.0}, {"bike_id": "b075c80ec0f0e9d432a70f5809e96f85", "fusion_lon": 0.0, "lon": -77.0292855, "name": "b075c80ec0f0e9d432a70f5809e96f85", "is_disabled": 0, "rental_uris": {"android": "https://dc.lft.to/lastmile_qr_scan", "ios": "https://dc.lft.to/lastmile_qr_scan"}, "type": "electric_scooter", "lat": 38.93324783333333, "is_reserved": 0, "fusion_lat": 0.0}, {"bike_id": "d8b673ffcfe6c6b77e73e018c0449358", "fusion_lon": 0.0, "lon": -77.03167983333333, "name": "d8b673ffcfe6c6b77e73e018c0449358", "is_disabled": 0, "rental_uris": {"android": "https://dc.lft.to/lastmile_qr_scan", "ios": "https://dc.lft.to/lastmile_qr_scan"}, "type": "electric_scooter", "lat": 38.921095, "is_reserved": 0, "fusion_lat": 0.0}, {"bike_id": "e134b40206a1488b5e7136da338589b1", "fusion_lon": 0.0, "lon": -77.0402035, "name": "e134b40206a1488b5e7136da338589b1", "is_disabled": 0, "rental_uris": {"android": "https://dc.lft.to/lastmile_qr_scan", "ios": "https://dc.lft.to/lastmile_qr_scan"}, "type": "electric_scooter", "lat": 38.92176283333333, "is_reserved": 0, "fusion_lat": 0.0}, {"bike_id": "46ab2ee6ff4942b2fdcb3e515abd6359", "fusion_lon": 0.0, "lon": -77.03294983333333, "name": "46ab2ee6ff4942b2fdcb3e515abd6359", "is_disabled": 0, "rental_uris": {"android": "https://dc.lft.to/lastmile_qr_scan", "ios": "https://dc.lft.to/lastmile_qr_scan"}, "type": "electric_scooter", "lat": 38.956411333333335, "is_reserved": 0, "fusion_lat": 0.0}, {"bike_id": "0e239256c90325cde6bbf33c91ace6a6", "fusion_lon": 0.0, "lon": -77.037084, "name": "0e239256c90325cde6bbf33c91ace6a6", "is_disabled": 0, "rental_uris": {"android": "https://dc.lft.to/lastmile_qr_scan", "ios": "https://dc.lft.to/lastmile_qr_scan"}, "type": "electric_scooter", "lat": 38.90977433333333, "is_reserved": 0, "fusion_lat": 0.0}, {"bike_id": "b9a95b906f2148e90d855caee11f1e23", "fusion_lon": 0.0, "lon": -77.03644566666667, "name": "b9a95b906f2148e90d855caee11f1e23", "is_disabled": 0, "rental_uris": {"android": "https://dc.lft.to/lastmile_qr_scan", "ios": "https://dc.lft.to/lastmile_qr_scan"}, "type": "electric_scooter", "lat": 38.91311616666667, "is_reserved": 0, "fusion_lat": 0.0}, {"bike_id": "632758fcc28b7baf3a7b74c44dc41410", "fusion_lon": 0.0, "lon": -77.0070725, "name": "632758fcc28b7baf3a7b74c44dc41410", "is_disabled": 0, "rental_uris": {"android": "https://dc.lft.to/lastmile_qr_scan", "ios": "https://dc.lft.to/lastmile_qr_scan"}, "type": "electric_scooter", "lat": 38.9054395, "is_reserved": 0, "fusion_lat": 0.0}, {"bike_id": "053818dfb07c905afd38b813dcb8763f", "fusion_lon": 0.0, "lon": -77.04409083333333, "name": "053818dfb07c905afd38b813dcb8763f", "is_disabled": 0, "rental_uris": {"android": "https://dc.lft.to/lastmile_qr_scan", "ios": "https://dc.lft.to/lastmile_qr_scan"}, "type": "electric_scooter", "lat": 38.917879666666664, "is_reserved": 0, "fusion_lat": 0.0}, {"bike_id": "c39990e5408ea864011dcd1f84fb37bf", "fusion_lon": 0.0, "lon": -77.0170885, "name": "c39990e5408ea864011dcd1f84fb37bf", "is_disabled": 0, "rental_uris": {"android": "https://dc.lft.to/lastmile_qr_scan", "ios": "https://dc.lft.to/lastmile_qr_scan"}, "type": "electric_scooter", "lat": 38.917475833333334, "is_reserved": 0, "fusion_lat": 0.0}, {"bike_id": "b50e12417759e1cb786e0ab7bffcccc5", "fusion_lon": 0.0, "lon": -77.0312975, "name": "b50e12417759e1cb786e0ab7bffcccc5", "is_disabled": 0, "rental_uris": {"android": "https://dc.lft.to/lastmile_qr_scan", "ios": "https://dc.lft.to/lastmile_qr_scan"}, "type": "electric_scooter", "lat": 38.923782, "is_reserved": 0, "fusion_lat": 0.0}, {"bike_id": "9e67bf6e415b975ff385efe5421fca54", "fusion_lon": 0.0, "lon": -77.03658333333334, "name": "9e67bf6e415b975ff385efe5421fca54", "is_disabled": 0, "rental_uris": {"android": "https://dc.lft.to/lastmile_qr_scan", "ios": "https://dc.lft.to/lastmile_qr_scan"}, "type": "electric_scooter", "lat": 38.92288666666666, "is_reserved": 0, "fusion_lat": 0.0}, {"bike_id": "3bb5b49d984e6c9ee64eebb21591c151", "fusion_lon": 0.0, "lon": -77.04601216666667, "name": "3bb5b49d984e6c9ee64eebb21591c151", "is_disabled": 0, "rental_uris": {"android": "https://dc.lft.to/lastmile_qr_scan", "ios": "https://dc.lft.to/lastmile_qr_scan"}, "type": "electric_scooter", "lat": 38.9192425, "is_reserved": 0, "fusion_lat": 0.0}, {"bike_id": "a6772e0dd6b071c83522e891014b8fa1", "fusion_lon": 0.0, "lon": -77.08277216666667, "name": "a6772e0dd6b071c83522e891014b8fa1", "is_disabled": 0, "rental_uris": {"android": "https://dc.lft.to/lastmile_qr_scan", "ios": "https://dc.lft.to/lastmile_qr_scan"}, "type": "electric_scooter", "lat": 38.9302135, "is_reserved": 0, "fusion_lat": 0.0}, {"bike_id": "60fa19e6a24713354cb3d1f6cd3e5a27", "fusion_lon": 0.0, "lon": -77.03510233333333, "name": "60fa19e6a24713354cb3d1f6cd3e5a27", "is_disabled": 0, "rental_uris": {"android": "https://dc.lft.to/lastmile_qr_scan", "ios": "https://dc.lft.to/lastmile_qr_scan"}, "type": "electric_scooter", "lat": 38.92154383333333, "is_reserved": 0, "fusion_lat": 0.0}, {"bike_id": "391fa2917e053b0078bad0d6211e0bb6", "fusion_lon": 0.0, "lon": -76.98326333333333, "name": "391fa2917e053b0078bad0d6211e0bb6", "is_disabled": 0, "rental_uris": {"android": "https://dc.lft.to/lastmile_qr_scan", "ios": "https://dc.lft.to/lastmile_qr_scan"}, "type": "electric_scooter", "lat": 38.908697, "is_reserved": 0, "fusion_lat": 0.0}, {"bike_id": "f9eaa16322a142605a3ca3fd02d3a6b3", "fusion_lon": 0.0, "lon": -77.03468383333333, "name": "f9eaa16322a142605a3ca3fd02d3a6b3", "is_disabled": 0, "rental_uris": {"android": "https://dc.lft.to/lastmile_qr_scan", "ios": "https://dc.lft.to/lastmile_qr_scan"}, "type": "electric_scooter", "lat": 38.904585, "is_reserved": 0, "fusion_lat": 0.0}, {"bike_id": "28cd170faa0e074ff656f5bd87fdbddd", "fusion_lon": 0.0, "lon": -76.997004, "name": "28cd170faa0e074ff656f5bd87fdbddd", "is_disabled": 0, "rental_uris": {"android": "https://dc.lft.to/lastmile_qr_scan", "ios": "https://dc.lft.to/lastmile_qr_scan"}, "type": "electric_scooter", "lat": 38.908350166666665, "is_reserved": 0, "fusion_lat": 0.0}, {"bike_id": "85b9daccdc9661a5a09648465f7f90bc", "fusion_lon": 0.0, "lon": -77.02491816666667, "name": "85b9daccdc9661a5a09648465f7f90bc", "is_disabled": 0, "rental_uris": {"android": "https://dc.lft.to/lastmile_qr_scan", "ios": "https://dc.lft.to/lastmile_qr_scan"}, "type": "electric_scooter", "lat": 38.941864, "is_reserved": 0, "fusion_lat": 0.0}, {"bike_id": "0dca4ab94205b7d8a6d7ade07d8257f4", "fusion_lon": 0.0, "lon": -77.041603, "name": "0dca4ab94205b7d8a6d7ade07d8257f4", "is_disabled": 0, "rental_uris": {"android": "https://dc.lft.to/lastmile_qr_scan", "ios": "https://dc.lft.to/lastmile_qr_scan"}, "type": "electric_scooter", "lat": 38.912351, "is_reserved": 0, "fusion_lat": 0.0}, {"bike_id": "4d950eafdc16a888e3ac011e02435541", "fusion_lon": 0.0, "lon": -76.97970066666667, "name": "4d950eafdc16a888e3ac011e02435541", "is_disabled": 0, "rental_uris": {"android": "https://dc.lft.to/lastmile_qr_scan", "ios": "https://dc.lft.to/lastmile_qr_scan"},