{"data": {"bikes": [{"fusion_lat": 0.0, "name": "640b119da406889c5fe52c29b5c47b6a", "is_disabled": 0, "rental_uris": {"android": "https://dc.lft.to/lastmile_qr_scan", "ios": "https://dc.lft.to/lastmile_qr_scan"}, "fusion_lon": 0.0, "lat": 38.90349483333333, "bike_id": "640b119da406889c5fe52c29b5c47b6a", "type": "electric_scooter", "is_reserved": 0, "lon": -77.046599}, {"fusion_lat": 0.0, "name": "90e54f7a9fde66b43be11ffdc780b648", "is_disabled": 0, "rental_uris": {"android": "https://dc.lft.to/lastmile_qr_scan", "ios": "https://dc.lft.to/lastmile_qr_scan"}, "fusion_lon": 0.0, "lat": 38.950733666666665, "bike_id": "90e54f7a9fde66b43be11ffdc780b648", "type": "electric_bike", "is_reserved": 0, "lon": -77.01202516666666}, {"fusion_lat": 0.0, "name": "fbef3035a75935d5578db18d23c3d10a", "is_disabled": 0, "rental_uris": {"android": "https://dc.lft.to/lastmile_qr_scan", "ios": "https://dc.lft.to/lastmile_qr_scan"}, "fusion_lon": 0.0, "lat": 38.92868466666667, "bike_id": "fbef3035a75935d5578db18d23c3d10a", "type": "electric_scooter", "is_reserved": 0, "lon": -77.03335833333334}, {"fusion_lat": 0.0, "name": "11a3a88599d2e2771a2cbbd8ca33a1c8", "is_disabled": 0, "rental_uris": {"android": "https://dc.lft.to/lastmile_qr_scan", "ios": "https://dc.lft.to/lastmile_qr_scan"}, "fusion_lon": 0.0, "lat": 38.89907133333333, "bike_id": "11a3a88599d2e2771a2cbbd8ca33a1c8", "type": "electric_scooter", "is_reserved": 0, "lon": -76.93349233333333}, {"fusion_lat": 0.0, "name": "9df7f7a8cbfb662e139953ec209197a7", "is_disabled": 0, "rental_uris": {"android": "https://dc.lft.to/lastmile_qr_scan", "ios": "https://dc.lft.to/lastmile_qr_scan"}, "fusion_lon": 0.0, "lat": 38.922084, "bike_id": "9df7f7a8cbfb662e139953ec209197a7", "type": "electric_scooter", "is_reserved": 0, "lon": -77.0808185}, {"fusion_lat": 0.0, "name": "b95bf4870b26b9f8da6f840728675717", "is_disabled": 0, "rental_uris": {"android": "https://dc.lft.to/lastmile_qr_scan", "ios": "https://dc.lft.to/lastmile_qr_scan"}, "fusion_lon": 0.0, "lat": 38.9361155, "bike_id": "b95bf4870b26b9f8da6f840728675717", "type": "electric_scooter", "is_reserved": 0, "lon": -77.03191933333333}, {"fusion_lat": 0.0, "name": "8bb6c9bcb249b1afb3b4acb4b13f5695", "is_disabled": 0, "rental_uris": {"android": "https://dc.lft.to/lastmile_qr_scan", "ios": "https://dc.lft.to/lastmile_qr_scan"}, "fusion_lon": 0.0, "lat": 38.894805, "bike_id": "8bb6c9bcb249b1afb3b4acb4b13f5695", "type": "electric_scooter", "is_reserved": 0, "lon": -77.0217755}, {"fusion_lat": 0.0, "name": "8a85aff5783d92695b6435cf8f26f517", "is_disabled": 0, "rental_uris": {"android": "https://dc.lft.to/lastmile_qr_scan", "ios": "https://dc.lft.to/lastmile_qr_scan"}, "fusion_lon": 0.0, "lat": 38.89232333333333, "bike_id": "8a85aff5783d92695b6435cf8f26f517", "type": "electric_scooter", "is_reserved": 0, "lon": -77.0317935}, {"fusion_lat": 0.0, "name": "ff3312fc1d0e380c90c8bfe6ea170c69", "is_disabled": 0, "rental_uris": {"android": "https://dc.lft.to/lastmile_qr_scan", "ios": "https://dc.lft.to/lastmile_qr_scan"}, "fusion_lon": 0.0, "lat": 38.892190666666664, "bike_id": "ff3312fc1d0e380c90c8bfe6ea170c69", "type": "electric_scooter", "is_reserved": 0, "lon": -77.0468275}, {"fusion_lat": 0.0, "name": "94134f752421053c6ff36d47ed1ebbed", "is_disabled": 0, "rental_uris": {"android": "https://dc.lft.to/lastmile_qr_scan", "ios": "https://dc.lft.to/lastmile_qr_scan"}, "fusion_lon": 0.0, "lat": 38.95736733333333, "bike_id": "94134f752421053c6ff36d47ed1ebbed", "type": "electric_bike", "is_reserved": 0, "lon": -76.98081683333334}, {"fusion_lat": 0.0, "name": "fc50bfedba6fe15abacb08434ac7cc0c", "is_disabled": 0, "rental_uris": {"android": "https://dc.lft.to/lastmile_qr_scan", "ios": "https://dc.lft.to/lastmile_qr_scan"}, "fusion_lon": 0.0, "lat": 38.92698716666666, "bike_id": "fc50bfedba6fe15abacb08434ac7cc0c", "type": "electric_scooter", "is_reserved": 0, "lon": -77.0242685}, {"fusion_lat": 0.0, "name": "bd09cfeacdca0fcff596de5ce341c076", "is_disabled": 0, "rental_uris": {"android": "https://dc.lft.to/lastmile_qr_scan", "ios": "https://dc.lft.to/lastmile_qr_scan"}, "fusion_lon": 0.0, "lat": 38.902349666666666, "bike_id": "bd09cfeacdca0fcff596de5ce341c076", "type": "electric_scooter", "is_reserved": 0, "lon": -77.0490825}, {"fusion_lat": 0.0, "name": "e429c069c9915cc582256c4383af1528", "is_disabled": 0, "rental_uris": {"android": "https://dc.lft.to/lastmile_qr_scan", "ios": "https://dc.lft.to/lastmile_qr_scan"}, "fusion_lon": 0.0, "lat": 38.924805166666665, "bike_id": "e429c069c9915cc582256c4383af1528", "type": "electric_scooter", "is_reserved": 0, "lon": -77.02678033333333}, {"fusion_lat": 0.0, "name": "13bc22664184dc71e7f36f47dee861e7", "is_disabled": 0, "rental_uris": {"android": "https://dc.lft.to/lastmile_qr_scan", "ios": "https://dc.lft.to/lastmile_qr_scan"}, "fusion_lon": 0.0, "lat": 38.903888, "bike_id": "13bc22664184dc71e7f36f47dee861e7", "type": "electric_scooter", "is_reserved": 0, "lon": -77.04479616666667}, {"fusion_lat": 0.0, "name": "86ecea8b65ddfb93031cfe2807f09587", "is_disabled": 0, "rental_uris": {"android": "https://dc.lft.to/lastmile_qr_scan", "ios": "https://dc.lft.to/lastmile_qr_scan"}, "fusion_lon": 0.0, "lat": 38.907214, "bike_id": "86ecea8b65ddfb93031cfe2807f09587", "type": "electric_scooter", "is_reserved": 0, "lon": -77.04733066666667}, {"fusion_lat": 0.0, "name": "59be194e6003bcbf837b6daa6417e6e2", "is_disabled": 0, "rental_uris": {"android": "https://dc.lft.to/lastmile_qr_scan", "ios": "https://dc.lft.to/lastmile_qr_scan"}, "fusion_lon": 0.0, "lat": 38.92288116666667, "bike_id": "59be194e6003bcbf837b6daa6417e6e2", "type": "electric_scooter", "is_reserved": 0, "lon": -77.02526733333333}, {"fusion_lat": 0.0, "name": "5caa73012ea6a6f7b6c674ca91a165e8", "is_disabled": 0, "rental_uris": {"android": "https://dc.lft.to/lastmile_qr_scan", "ios": "https://dc.lft.to/lastmile_qr_scan"}, "fusion_lon": 0.0, "lat": 38.928689, "bike_id": "5caa73012ea6a6f7b6c674ca91a165e8", "type": "electric_scooter", "is_reserved": 0, "lon": -77.03289433333333}, {"fusion_lat": 0.0, "name": "cbaf72cd5131b568490aacfa18b116f6", "is_disabled": 0, "rental_uris": {"android": "https://dc.lft.to/lastmile_qr_scan", "ios": "https://dc.lft.to/lastmile_qr_scan"}, "fusion_lon": 0.0, "lat": 38.900836166666664, "bike_id": "cbaf72cd5131b568490aacfa18b116f6", "type": "electric_scooter", "is_reserved": 0, "lon": -77.05019166666666}, {"fusion_lat": 0.0, "name": "7c9776a4d751bbdbbb7dc218391cd22e", "is_disabled": 0, "rental_uris": {"android": "https://dc.lft.to/lastmile_qr_scan", "ios": "https://dc.lft.to/lastmile_qr_scan"}, "fusion_lon": 0.0, "lat": 38.878992, "bike_id": "7c9776a4d751bbdbbb7dc218391cd22e", "type": "electric_scooter", "is_reserved": 0, "lon": -77.0136295}, {"fusion_lat": 0.0, "name": "bc0236f1b989b1286419d3ad761e155c", "is_disabled": 0, "rental_uris": {"android": "https://dc.lft.to/lastmile_qr_scan", "ios": "https://dc.lft.to/lastmile_qr_scan"}, "fusion_lon": 0.0, "lat": 38.904774333333336, "bike_id": "bc0236f1b989b1286419d3ad761e155c", "type": "electric_scooter", "is_reserved": 0, "lon": -77.056836}, {"fusion_lat": 0.0, "name": "cbab751f8ec731ae4f1dd9a1639f848d", "is_disabled": 0, "rental_uris": {"android": "https://dc.lft.to/lastmile_qr_scan", "ios": "https://dc.lft.to/lastmile_qr_scan"}, "fusion_lon": 0.0, "lat": 38.895276833333334, "bike_id": "cbab751f8ec731ae4f1dd9a1639f848d", "type": "electric_scooter", "is_reserved": 0, "lon": -76.93413166666667}, {"fusion_lat": 0.0, "name": "9795a032dbfde91744bd7b338d07f6b4", "is_disabled": 0, "rental_uris": {"android": "https://dc.lft.to/lastmile_qr_scan", "ios": "https://dc.lft.to/lastmile_qr_scan"}, "fusion_lon": 0.0, "lat": 38.91399916666667, "bike_id": "9795a032dbfde91744bd7b338d07f6b4", "type": "electric_scooter", "is_reserved": 0, "lon": -77.04173533333334}, {"fusion_lat": 0.0, "name": "7df28f7c6974e2681ad6a766ccfa077e", "is_disabled": 0, "rental_uris": {"android": "https://dc.lft.to/lastmile_qr_scan", "ios": "https://dc.lft.to/lastmile_qr_scan"}, "fusion_lon": 0.0, "lat": 38.915503, "bike_id": "7df28f7c6974e2681ad6a766ccfa077e", "type": "electric_scooter", "is_reserved": 0, "lon": -77.03074116666667}, {"fusion_lat": 0.0, "name": "4eb0150db759446a15d643c18bc46910", "is_disabled": 0, "rental_uris": {"android": "https://dc.lft.to/lastmile_qr_scan", "ios": "https://dc.lft.to/lastmile_qr_scan"}, "fusion_lon": 0.0, "lat": 38.912137, "bike_id": "4eb0150db759446a15d643c18bc46910", "type": "electric_scooter", "is_reserved": 0, "lon": -77.0366245}, {"fusion_lat": 0.0, "name": "e17d386bf3fcb999afce533ad2f64ffe", "is_disabled": 0, "rental_uris": {"android": "https://dc.lft.to/lastmile_qr_scan", "ios": "https://dc.lft.to/lastmile_qr_scan"}, "fusion_lon": 0.0, "lat": 38.917499, "bike_id": "e17d386bf3fcb999afce533ad2f64ffe", "type": "electric_scooter", "is_reserved": 0, "lon": -77.00668683333333}, {"fusion_lat": 0.0, "name": "c159882bb6e4131d6e076effdd57fe27", "is_disabled": 0, "rental_uris": {"android": "https://dc.lft.to/lastmile_qr_scan", "ios": "https://dc.lft.to/lastmile_qr_scan"}, "fusion_lon": 0.0, "lat": 38.93718283333333, "bike_id": "c159882bb6e4131d6e076effdd57fe27", "type": "electric_scooter", "is_reserved": 0, "lon": -77.02451016666667}, {"fusion_lat": 0.0, "name": "d2959575ab0d38e441b5e270f3397543", "is_disabled": 0, "rental_uris": {"android": "https://dc.lft.to/lastmile_qr_scan", "ios": "https://dc.lft.to/lastmile_qr_scan"}, "fusion_lon": 0.0, "lat": 38.9463295, "bike_id": "d2959575ab0d38e441b5e270f3397543", "type": "electric_scooter", "is_reserved": 0, "lon": -77.09544633333333}, {"fusion_lat": 0.0, "name": "b20a6048907db621a19a7360c9ca8068", "is_disabled": 0, "rental_uris": {"android": "https://dc.lft.to/lastmile_qr_scan", "ios": "https://dc.lft.to/lastmile_qr_scan"}, "fusion_lon": 0.0, "lat": 38.902830333333334, "bike_id": "b20a6048907db621a19a7360c9ca8068", "type": "electric_scooter", "is_reserved": 0, "lon": -77.0296945}, {"fusion_lat": 0.0, "name": "c7408c88a797a80214c8ec13d0494766", "is_disabled": 0, "rental_uris": {"android": "https://dc.lft.to/lastmile_qr_scan", "ios": "https://dc.lft.to/lastmile_qr_scan"}, "fusion_lon": 0.0, "lat": 38.92075216666667, "bike_id": "c7408c88a797a80214c8ec13d0494766", "type": "electric_scooter", "is_reserved": 0, "lon": -77.0148185}, {"fusion_lat": 0.0, "name": "502740006f267668a9c5ac811e1bc20f", "is_disabled": 0, "rental_uris": {"android": "https://dc.lft.to/lastmile_qr_scan", "ios": "https://dc.lft.to/lastmile_qr_scan"}, "fusion_lon": 0.0, "lat": 38.90162616666667, "bike_id": "502740006f267668a9c5ac811e1bc20f", "type": "electric_scooter", "is_reserved": 0, "lon": -77.01995416666666}, {"fusion_lat": 0.0, "name": "1d122904eb5f5c0850df5f41e9e463c7", "is_disabled": 0, "rental_uris": {"android": "https://dc.lft.to/lastmile_qr_scan", "ios": "https://dc.lft.to/lastmile_qr_scan"}, "fusion_lon": 0.0, "lat": 38.919413666666664, "bike_id": "1d122904eb5f5c0850df5f41e9e463c7", "type": "electric_scooter", "is_reserved": 0, "lon": -77.07074116666666}, {"fusion_lat": 0.0, "name": "ef028567718ed7a71aa8a406c6c5b413", "is_disabled": 0, "rental_uris": {"android": "https://dc.lft.to/lastmile_qr_scan", "ios": "https://dc.lft.to/lastmile_qr_scan"}, "fusion_lon": 0.0, "lat": 38.9487835, "bike_id": "ef028567718ed7a71aa8a406c6c5b413", "type": "electric_scooter", "is_reserved": 0, "lon": -77.026959}, {"fusion_lat": 0.0, "name": "b9f32a33a8b429127ef2d5f450b32be6", "is_disabled": 0, "rental_uris": {"android": "https://dc.lft.to/lastmile_qr_scan", "ios": "https://dc.lft.to/lastmile_qr_scan"}, "fusion_lon": 0.0, "lat": 38.927935833333336, "bike_id": "b9f32a33a8b429127ef2d5f450b32be6", "type": "electric_scooter", "is_reserved": 0, "lon": -77.03216466666667}, {"fusion_lat": 0.0, "name": "9e2c43ab7ffb14df2e877a0395fd55f7", "is_disabled": 0, "rental_uris": {"android": "https://dc.lft.to/lastmile_qr_scan", "ios": "https://dc.lft.to/lastmile_qr_scan"}, "fusion_lon": 0.0, "lat": 38.907129833333336, "bike_id": "9e2c43ab7ffb14df2e877a0395fd55f7", "type": "electric_scooter", "is_reserved": 0, "lon": -77.0320215}, {"fusion_lat": 0.0, "name": "c93f805e9d651cb3cdcdf8f967849bec", "is_disabled": 0, "rental_uris": {"android": "https://dc.lft.to/lastmile_qr_scan", "ios": "https://dc.lft.to/lastmile_qr_scan"}, "fusion_lon": 0.0, "lat": 38.92557583333333, "bike_id": "c93f805e9d651cb3cdcdf8f967849bec", "type": "electric_scooter", "is_reserved": 0, "lon": -77.07762083333333}, {"fusion_lat": 0.0, "name": "96a83b0fe3faf1d51f86b29cdf0a0011", "is_disabled": 0, "rental_uris": {"android": "https://dc.lft.to/lastmile_qr_scan", "ios": "https://dc.lft.to/lastmile_qr_scan"}, "fusion_lon": 0.0, "lat": 38.913078666666664, "bike_id": "96a83b0fe3faf1d51f86b29cdf0a0011", "type": "electric_scooter", "is_reserved": 0, "lon": -77.04874416666667}, {"fusion_lat": 0.0, "name": "7d4eda4c88ec5bb65d8abaf71721b29f", "is_disabled": 0, "rental_uris": {"android": "https://dc.lft.to/lastmile_qr_scan", "ios": "https://dc.lft.to/lastmile_qr_scan"}, "fusion_lon": 0.0, "lat": 38.937661, "bike_id": "7d4eda4c88ec5bb65d8abaf71721b29f", "type": "electric_scooter", "is_reserved": 0, "lon": -77.032593}, {"fusion_lat": 0.0, "name": "266007c750b4c684916a8a35ae93afb9", "is_disabled": 0, "rental_uris": {"android": "https://dc.lft.to/lastmile_qr_scan", "ios": "https://dc.lft.to/lastmile_qr_scan"}, "fusion_lon": 0.0, "lat": 38.80495783333333, "bike_id": "266007c750b4c684916a8a35ae93afb9", "type": "electric_bike", "is_reserved": 0, "lon": -77.101617}, {"fusion_lat": 0.0, "name": "5022d527c59a8b5615240e02deed7ef9", "is_disabled": 0, "rental_uris": {"android": "https://dc.lft.to/lastmile_qr_scan", "ios": "https://dc.lft.to/lastmile_qr_scan"}, "fusion_lon": 0.0, "lat": 38.93114716666667, "bike_id": "5022d527c59a8b5615240e02deed7ef9", "type": "electric_scooter", "is_reserved": 0, "lon": -77.03836916666667}, {"fusion_lat": 0.0, "name": "bca5e45a4b44a84a8826ceedfa4120a7", "is_disabled": 0, "rental_uris": {"android": "https://dc.lft.to/lastmile_qr_scan", "ios": "https://dc.lft.to/lastmile_qr_scan"}, "fusion_lon": 0.0, "lat": 38.87832983333333, "bike_id": "bca5e45a4b44a84a8826ceedfa4120a7", "type": "electric_scooter", "is_reserved": 0, "lon": -76.96322483333333}, {"fusion_lat": 0.0, "name": "e4a7e80718259ab77eece90456ae8b84", "is_disabled": 0, "rental_uris": {"android": "https://dc.lft.to/lastmile_qr_scan", "ios": "https://dc.lft.to/lastmile_qr_scan"}, "fusion_lon": 0.0, "lat": 38.920458333333336, "bike_id": "e4a7e80718259ab77eece90456ae8b84", "type": "electric_scooter", "is_reserved": 0, "lon": -77.01727416666667}, {"fusion_lat": 0.0, "name": "88e904344f53c8080928e06422b97260", "is_disabled": 0, "rental_uris": {"android": "https://dc.lft.to/lastmile_qr_scan", "ios": "https://dc.lft.to/lastmile_qr_scan"}, "fusion_lon": 0.0, "lat": 38.89284633333333, "bike_id": "88e904344f53c8080928e06422b97260", "type": "electric_scooter", "is_reserved": 0, "lon": -76.983079}, {"fusion_lat": 0.0, "name": "2ea077882c3ba7c4ce028586f21f1e33", "is_disabled": 0, "rental_uris": {"android": "https://dc.lft.to/lastmile_qr_scan", "ios": "https://dc.lft.to/lastmile_qr_scan"}, "fusion_lon": 0.0, "lat": 38.900300333333334, "bike_id": "2ea077882c3ba7c4ce028586f21f1e33", "type": "electric_scooter", "is_reserved": 0, "lon": -76.9913775}, {"fusion_lat": 0.0, "name": "62bf690f4b6bd912452059e441a2776d", "is_disabled": 0, "rental_uris": {"android": "https://dc.lft.to/lastmile_qr_scan", "ios": "https://dc.lft.to/lastmile_qr_scan"}, "fusion_lon": 0.0, "lat": 38.899339, "bike_id": "62bf690f4b6bd912452059e441a2776d", "type": "electric_scooter", "is_reserved": 0, "lon": -77.003695}, {"fusion_lat": 0.0, "name": "3189fa3d3ab6f9b82417d02f8c613990", "is_disabled": 0, "rental_uris": {"android": "https://dc.lft.to/lastmile_qr_scan", "ios": "https://dc.lft.to/lastmile_qr_scan"}, "fusion_lon": 0.0, "lat": 38.961419666666664, "bike_id": "3189fa3d3ab6f9b82417d02f8c613990", "type": "electric_bike", "is_reserved": 0, "lon": -77.03234316666666}, {"fusion_lat": 0.0, "name": "8b2eac461dd2c37c408a2657a77acb1b", "is_disabled": 0, "rental_uris": {"android": "https://dc.lft.to/lastmile_qr_scan", "ios": "https://dc.lft.to/lastmile_qr_scan"}, "fusion_lon": 0.0, "lat": 38.939190333333336, "bike_id": "8b2eac461dd2c37c408a2657a77acb1b", "type": "electric_scooter", "is_reserved": 0, "lon": -77.0280035}, {"fusion_lat": 0.0, "name": "266a5a49dc6c82f694a09e8bf86b46d9", "is_disabled": 0, "rental_uris": {"android": "https://dc.lft.to/lastmile_qr_scan", "ios": "https://dc.lft.to/lastmile_qr_scan"}, "fusion_lon": 0.0, "lat": 38.910311166666666, "bike_id": "266a5a49dc6c82f694a09e8bf86b46d9", "type": "electric_scooter", "is_reserved": 0, "lon": -77.00758066666667}, {"fusion_lat": 0.0, "name": "49fb9642aa4eda25969aa6612e4f86c4", "is_disabled": 0, "rental_uris": {"android": "https://dc.lft.to/lastmile_qr_scan", "ios": "https://dc.lft.to/lastmile_qr_scan"}, "fusion_lon": 0.0, "lat": 38.884222666666666, "bike_id": "49fb9642aa4eda25969aa6612e4f86c4", "type": "electric_scooter", "is_reserved": 0, "lon": -77.019779}, {"fusion_lat": 0.0, "name": "ac42ec5808b9b75908fba7dd605d4556", "is_disabled": 0, "rental_uris": {"android": "https://dc.lft.to/lastmile_qr_scan", "ios": "https://dc.lft.to/lastmile_qr_scan"}, "fusion_lon": 0.0, "lat": 38.92347616666667, "bike_id": "ac42ec5808b9b75908fba7dd605d4556", "type": "electric_scooter", "is_reserved": 0, "lon": -77.00176866666666}, {"fusion_lat": 0.0, "name": "1f38c198b7186b4c7b8b3e7811996e4e", "is_disabled": 0, "rental_uris": {"android": "https://dc.lft.to/lastmile_qr_scan", "ios": "https://dc.lft.to/lastmile_qr_scan"}, "fusion_lon": 0.0, "lat": 38.9075195, "bike_id": "1f38c198b7186b4c7b8b3e7811996e4e", "type": "electric_scooter", "is_reserved": 0, "lon": -77.00086116666667}, {"fusion_lat": 0.0, "name": "9d6003ca5dc06c68bffe3b3b2953fb79", "is_disabled": 0, "rental_uris": {"android": "https://dc.lft.to/lastmile_qr_scan", "ios": "https://dc.lft.to/lastmile_qr_scan"}, "fusion_lon": 0.0, "lat": 38.93261616666667, "bike_id": "9d6003ca5dc06c68bffe3b3b2953fb79", "type": "electric_scooter", "is_reserved": 0, "lon": -77.01917283333333}, {"fusion_lat": 0.0, "name": "39c56843f47ac5718ea6662864b5b1da", "is_disabled": 0, "rental_uris": {"android": "https://dc.lft.to/lastmile_qr_scan", "ios": "https://dc.lft.to/lastmile_qr_scan"}, "fusion_lon": 0.0, "lat": 38.92720966666667, "bike_id": "39c56843f47ac5718ea6662864b5b1da", "type": "electric_scooter", "is_reserved": 0, "lon": -77.02095733333333}, {"fusion_lat": 0.0, "name": "803fbaa0591ba2da7eabd865a89ffe4d", "is_disabled": 0, "rental_uris": {"android": "https://dc.lft.to/lastmile_qr_scan", "ios": "https://dc.lft.to/lastmile_qr_scan"}, "fusion_lon": 0.0, "lat": 38.931201333333334, "bike_id": "803fbaa0591ba2da7eabd865a89ffe4d", "type": "electric_scooter", "is_reserved": 0, "lon": -77.0208865}, {"fusion_lat": 0.0, "name": "8e88eeb9d5fa26d81169724fa33f6bac", "is_disabled": 0, "rental_uris": {"android": "https://dc.lft.to/lastmile_qr_scan", "ios": "https://dc.lft.to/lastmile_qr_scan"}, "fusion_lon": 0.0, "lat": 38.91525333333333, "bike_id": "8e88eeb9d5fa26d81169724fa33f6bac", "type": "electric_scooter", "is_reserved": 0, "lon": -77.072681}, {"fusion_lat": 0.0, "name": "86d9e8f47586b774acbe9124f4cfb3ef", "is_disabled": 0, "rental_uris": {"android": "https://dc.lft.to/lastmile_qr_scan", "ios": "https://dc.lft.to/lastmile_qr_scan"}, "fusion_lon": 0.0, "lat": 38.90273716666667, "bike_id": "86d9e8f47586b774acbe9124f4cfb3ef", "type": "electric_scooter", "is_reserved": 0, "lon": -77.05914966666667}, {"fusion_lat": 0.0, "name": "a1b9b4cb43ad1b4c10d4ac1144b836da", "is_disabled": 0, "rental_uris": {"android": "https://dc.lft.to/lastmile_qr_scan", "ios": "https://dc.lft.to/lastmile_qr_scan"}, "fusion_lon": 0.0, "lat": 38.934890833333334, "bike_id": "a1b9b4cb43ad1b4c10d4ac1144b836da", "type": "electric_scooter", "is_reserved": 0, "lon": -77.04534466666667}, {"fusion_lat": 0.0, "name": "2ba3236c5013aab58733025eb9b09c8f", "is_disabled": 0, "rental_uris": {"android": "https://dc.lft.to/lastmile_qr_scan", "ios": "https://dc.lft.to/lastmile_qr_scan"}, "fusion_lon": 0.0, "lat": 38.93969633333333, "bike_id": "2ba3236c5013aab58733025eb9b09c8f", "type": "electric_scooter", "is_reserved": 0, "lon": -77.032833}, {"fusion_lat": 0.0, "name": "8660397aadd5e704559923a430aecafd", "is_disabled": 0, "rental_uris": {"android": "https://dc.lft.to/lastmile_qr_scan", "ios": "https://dc.lft.to/lastmile_qr_scan"}, "fusion_lon": 0.0, "lat": 38.90931466666667, "bike_id": "8660397aadd5e704559923a430aecafd", "type": "electric_scooter", "is_reserved": 0, "lon": -77.06264666666667}, {"fusion_lat": 0.0, "name": "6b5c9d0eb0e5e64a62acb2d0c6dbf899", "is_disabled": 0, "rental_uris": {"android": "https://dc.lft.to/lastmile_qr_scan", "ios": "https://dc.lft.to/lastmile_qr_scan"}, "fusion_lon": 0.0, "lat": 38.89667683333333, "bike_id": "6b5c9d0eb0e5e64a62acb2d0c6dbf899", "type": "electric_scooter", "is_reserved": 0, "lon": -76.93209133333333}, {"fusion_lat": 0.0, "name": "2db0d49410ae95262e71885ba99b9dd3", "is_disabled": 0, "rental_uris": {"android": "https://dc.lft.to/lastmile_qr_scan", "ios": "https://dc.lft.to/lastmile_qr_scan"}, "fusion_lon": 0.0, "lat": 38.936544, "bike_id": "2db0d49410ae95262e71885ba99b9dd3", "type": "electric_scooter", "is_reserved": 0, "lon": -77.0365445}, {"fusion_lat": 0.0, "name": "d4319549a4d2bef408bbe001cd1e05b4", "is_disabled": 0, "rental_uris": {"android": "https://dc.lft.to/lastmile_qr_scan", "ios": "https://dc.lft.to/lastmile_qr_scan"}, "fusion_lon": 0.0, "lat": 38.92487216666667, "bike_id": "d4319549a4d2bef408bbe001cd1e05b4", "type": "electric_bike", "is_reserved": 0, "lon": -77.23351966666667}, {"fusion_lat": 0.0, "name": "83a89fbdc4625cc65c65539870f7d86f", "is_disabled": 0, "rental_uris": {"android": "https://dc.lft.to/lastmile_qr_scan", "ios": "https://dc.lft.to/lastmile_qr_scan"}, "fusion_lon": 0.0, "lat": 38.90288066666667, "bike_id": "83a89fbdc4625cc65c65539870f7d86f", "type": "electric_scooter", "is_reserved": 0, "lon": -77.03368133333333}, {"fusion_lat": 0.0, "name": "80b5a39983fffe69b079b5b999ddd4c4", "is_disabled": 0, "rental_uris": {"android": "https://dc.lft.to/lastmile_qr_scan", "ios": "https://dc.lft.to/lastmile_qr_scan"}, "fusion_lon": 0.0, "lat": 38.9171345, "bike_id": "80b5a39983fffe69b079b5b999ddd4c4", "type": "electric_scooter", "is_reserved": 0, "lon": -77.03470516666667}, {"fusion_lat": 0.0, "name": "1625f6b6f4d4cf2a53536d570a6e3c0e", "is_disabled": 0, "rental_uris": {"android": "https://dc.lft.to/lastmile_qr_scan", "ios": "https://dc.lft.to/lastmile_qr_scan"}, "fusion_lon": 0.0, "lat": 38.842820833333334, "bike_id": "1625f6b6f4d4cf2a53536d570a6e3c0e", "type": "electric_bike", "is_reserved": 0, "lon": -77.04500916666667}, {"fusion_lat": 0.0, "name": "eb095dff953b6d7b6545937b61c8dddc", "is_disabled": 0, "rental_uris": {"android": "https://dc.lft.to/lastmile_qr_scan", "ios": "https://dc.lft.to/lastmile_qr_scan"}, "fusion_lon": 0.0, "lat": 38.895657166666666, "bike_id": "eb095dff953b6d7b6545937b61c8dddc", "type": "electric_bike", "is_reserved": 0, "lon": -77.12736033333333}, {"fusion_lat": 0.0, "name": "c166db5dcc4260541d32d22b86a9b866", "is_disabled": 0, "rental_uris": {"android": "https://dc.lft.to/lastmile_qr_scan", "ios": "https://dc.lft.to/lastmile_qr_scan"}, "fusion_lon": 0.0, "lat": 38.926891, "bike_id": "c166db5dcc4260541d32d22b86a9b866", "type": "electric_scooter", "is_reserved": 0, "lon": -77.00775633333333}, {"fusion_lat": 0.0, "name": "2c84bb8c3e113895adb6680aa7829c46", "is_disabled": 0, "rental_uris": {"android": "https://dc.lft.to/lastmile_qr_scan", "ios": "https://dc.lft.to/lastmile_qr_scan"}, "fusion_lon": 0.0, "lat": 38.853125666666664, "bike_id": "2c84bb8c3e113895adb6680aa7829c46", "type": "electric_bike", "is_reserved": 0, "lon": -77.04607816666666}, {"fusion_lat": 0.0, "name": "f97f8b7690729017fcc731693de41cef", "is_disabled": 0, "rental_uris": {"android": "https://dc.lft.to/lastmile_qr_scan", "ios": "https://dc.lft.to/lastmile_qr_scan"}, "fusion_lon": 0.0, "lat": 38.929554, "bike_id": "f97f8b7690729017fcc731693de41cef", "type": "electric_scooter", "is_reserved": 0, "lon": -77.034645}, {"fusion_lat": 0.0, "name": "2e1eb9af8986f8759e8e02b16aee22df", "is_disabled": 0, "rental_uris": {"android": "https://dc.lft.to/lastmile_qr_scan", "ios": "https://dc.lft.to/lastmile_qr_scan"}, "fusion_lon": 0.0, "lat": 38.911349666666666, "bike_id": "2e1eb9af8986f8759e8e02b16aee22df", "type": "electric_scooter", "is_reserved": 0, "lon": -77.01049983333333}, {"fusion_lat": 0.0, "name": "97e622a568c7afa565f90410cbb5c993", "is_disabled": 0, "rental_uris": {"android": "https://dc.lft.to/lastmile_qr_scan", "ios": "https://dc.lft.to/lastmile_qr_scan"}, "fusion_lon": 0.0, "lat": 38.89295933333333, "bike_id": "97e622a568c7afa565f90410cbb5c993", "type": "electric_scooter", "is_reserved": 0, "lon": -77.046571}, {"fusion_lat": 0.0, "name": "168091525cb2d1a89f4e5e7c040ace66", "is_disabled": 0, "rental_uris": {"android": "https://dc.lft.to/lastmile_qr_scan", "ios": "https://dc.lft.to/lastmile_qr_scan"}, "fusion_lon": 0.0, "lat": 38.90082066666667, "bike_id": "168091525cb2d1a89f4e5e7c040ace66", "type": "electric_scooter", "is_reserved": 0, "lon": -77.0270785}, {"fusion_lat": 0.0, "name": "645950ff637abecc53a26ffa2be01de6", "is_disabled": 0, "rental_uris": {"android": "https://dc.lft.to/lastmile_qr_scan", "ios": "https://dc.lft.to/lastmile_qr_scan"}, "fusion_lon": 0.0, "lat": 38.8973105, "bike_id": "645950ff637abecc53a26ffa2be01de6", "type": "electric_scooter", "is_reserved": 0, "lon": -76.94703383333334}, {"fusion_lat": 0.0, "name": "82bd606e5d8c4e9cd1a46259ce6438d4", "is_disabled": 0, "rental_uris": {"android": "https://dc.lft.to/lastmile_qr_scan", "ios": "https://dc.lft.to/lastmile_qr_scan"}, "fusion_lon": 0.0, "lat": 38.913984, "bike_id": "82bd606e5d8c4e9cd1a46259ce6438d4", "type": "electric_scooter", "is_reserved": 0, "lon": -77.01681466666666}, {"fusion_lat": 0.0, "name": "b7cda9ddb2a067735b4dbc818411e31e", "is_disabled": 0, "rental_uris": {"android": "https://dc.lft.to/lastmile_qr_scan", "ios": "https://dc.lft.to/lastmile_qr_scan"}, "fusion_lon": 0.0, "lat": 38.855649, "bike_id": "b7cda9ddb2a067735b4dbc818411e31e", "type": "electric_bike", "is_reserved": 0, "lon": -77.1131605}, {"fusion_lat": 0.0, "name": "4a68fd3d6a6019154fe772df584cca2c", "is_disabled": 0, "rental_uris": {"android": "https://dc.lft.to/lastmile_qr_scan", "ios": "https://dc.lft.to/lastmile_qr_scan"}, "fusion_lon": 0.0, "lat": 38.90448466666667, "bike_id": "4a68fd3d6a6019154fe772df584cca2c", "type": "electric_bike", "is_reserved": 0, "lon": -76.97421033333333}, {"fusion_lat": 0.0, "name": "20b25980cecb4d970ed637dbb553e639", "is_disabled": 0, "rental_uris": {"android": "https://dc.lft.to/lastmile_qr_scan", "ios": "https://dc.lft.to/lastmile_qr_scan"}, "fusion_lon": 0.0, "lat": 38.9607265, "bike_id": "20b25980cecb4d970ed637dbb553e639", "type": "electric_scooter", "is_reserved": 0, "lon": -77.00097633333333}, {"fusion_lat": 0.0, "name": "6ac1e3cb824e9dbb6d6f7526f3d1b818", "is_disabled": 0, "rental_uris": {"android": "https://dc.lft.to/lastmile_qr_scan", "ios": "https://dc.lft.to/lastmile_qr_scan"}, "fusion_lon": 0.0, "lat": 38.8921995, "bike_id": "6ac1e3cb824e9dbb6d6f7526f3d1b818", "type": "electric_scooter", "is_reserved": 0, "lon": -77.043849}, {"fusion_lat": 0.0, "name": "cec234fc63d66efd02e9c0f480c5f3ef", "is_disabled": 0, "rental_uris": {"android": "https://dc.lft.to/lastmile_qr_scan", "ios": "https://dc.lft.to/lastmile_qr_scan"}, "fusion_lon": 0.0, "lat": 38.915443833333335, "bike_id": "cec234fc63d66efd02e9c0f480c5f3ef", "type": "electric_scooter", "is_reserved": 0, "lon": -77.0433515}, {"fusion_lat": 0.0, "name": "d3f3375007668ce6bcdae96728f68f81", "is_disabled": 0, "rental_uris": {"android": "https://dc.lft.to/lastmile_qr_scan", "ios": "https://dc.lft.to/lastmile_qr_scan"}, "fusion_lon": 0.0, "lat": 38.79761716666667, "bike_id": "d3f3375007668ce6bcdae96728f68f81", "type": "electric_bike", "is_reserved": 0, "lon": -77.04752983333333}, {"fusion_lat": 0.0, "name": "c333850f948b6061b55942791c18fd06", "is_disabled": 0, "rental_uris": {"android": "https://dc.lft.to/lastmile_qr_scan", "ios": "https://dc.lft.to/lastmile_qr_scan"}, "fusion_lon": 0.0, "lat": 38.892329833333335, "bike_id": "c333850f948b6061b55942791c18fd06", "type": "electric_scooter", "is_reserved": 0, "lon": -77.00290316666667}, {"fusion_lat": 0.0, "name": "01d7de6c31f19588daf9bc577fe113a3", "is_disabled": 0, "rental_uris": {"android": "https://dc.lft.to/lastmile_qr_scan", "ios": "https://dc.lft.to/lastmile_qr_scan"}, "fusion_lon": 0.0, "lat": 38.883254, "bike_id": "01d7de6c31f19588daf9bc577fe113a3", "type": "electric_bike", "is_reserved": 0, "lon": -76.96056866666666}, {"fusion_lat": 0.0, "name": "9243ddf6a2119c6310ce6f6011a0d4bc", "is_disabled": 0, "rental_uris": {"android": "https://dc.lft.to/lastmile_qr_scan", "ios": "https://dc.lft.to/lastmile_qr_scan"}, "fusion_lon": 0.0, "lat": 38.90761, "bike_id": "9243ddf6a2119c6310ce6f6011a0d4bc", "type": "electric_scooter", "is_reserved": 0, "lon": -77.0565535}, {"fusion_lat": 0.0, "name": "6b81c123fbc4e0b051755d35aad37437", "is_disabled": 0, "rental_uris": {"android": "https://dc.lft.to/lastmile_qr_scan", "ios": "https://dc.lft.to/lastmile_qr_scan"}, "fusion_lon": 0.0, "lat": 38.8278605, "bike_id": "6b81c123fbc4e0b051755d35aad37437", "type": "electric_bike", "is_reserved": 0, "lon": -77.12487133333333}, {"fusion_lat": 0.0, "name": "e330991d073999ca68409554b9e159e8", "is_disabled": 0, "rental_uris": {"android": "https://dc.lft.to/lastmile_qr_scan", "ios": "https://dc.lft.to/lastmile_qr_scan"}, "fusion_lon": 0.0, "lat": 38.911173166666664, "bike_id": "e330991d073999ca68409554b9e159e8", "type": "electric_scooter", "is_reserved": 0, "lon": -77.08132033333334}, {"fusion_lat": 0.0, "name": "4e8f5e5c915c889be700fdc03560c79e", "is_disabled": 0, "rental_uris": {"android": "https://dc.lft.to/lastmile_qr_scan", "ios": "https://dc.lft.to/lastmile_qr_scan"}, "fusion_lon": 0.0, "lat": 38.92154383333333, "bike_id": "4e8f5e5c915c889be700fdc03560c79e", "type": "electric_scooter", "is_reserved": 0, "lon": -77.0336175}, {"fusion_lat": 0.0, "name": "0177c86d23fb0c4a1511451ccaeb3087", "is_disabled": 0, "rental_uris": {"android": "https://dc.lft.to/lastmile_qr_scan", "ios": "https://dc.lft.to/lastmile_qr_scan"}, "fusion_lon": 0.0, "lat": 38.914841833333334, "bike_id": "0177c86d23fb0c4a1511451ccaeb3087", "type": "electric_scooter", "is_reserved": 0, "lon": -77.040167}, {"fusion_lat": 0.0, "name": "7e59525b969c6e52822321f0ef93f133", "is_disabled": 0, "rental_uris": {"android": "https://dc.lft.to/lastmile_qr_scan", "ios": "https://dc.lft.to/lastmile_qr_scan"}, "fusion_lon": 0.0, "lat": 38.939676666666664, "bike_id": "7e59525b969c6e52822321f0ef93f133", "type": "electric_scooter", "is_reserved": 0, "lon": -77.032807}, {"fusion_lat": 0.0, "name": "dbf12449fcf17a06901174500d7efe78", "is_disabled": 0, "rental_uris": {"android": "https://dc.lft.to/lastmile_qr_scan", "ios": "https://dc.lft.to/lastmile_qr_scan"}, "fusion_lon": 0.0, "lat": 38.93774533333333, "bike_id": "dbf12449fcf17a06901174500d7efe78", "type": "electric_scooter", "is_reserved": 0, "lon": -77.032662}, {"fusion_lat": 0.0, "name": "f91b71c484413f703dc3771e4c07d383", "is_disabled": 0, "rental_uris": {"android": "https://dc.lft.to/lastmile_qr_scan", "ios": "https://dc.lft.to/lastmile_qr_scan"}, "fusion_lon": 0.0, "lat": 38.897118166666665, "bike_id": "f91b71c484413f703dc3771e4c07d383", "type": "electric_scooter", "is_reserved": 0, "lon": -77.02284533333334}, {"fusion_lat": 0.0, "name": "67c30f95eb63b962a7ca6c473c4403c5", "is_disabled": 0, "rental_uris": {"android": "https://dc.lft.to/lastmile_qr_scan", "ios": "https://dc.lft.to/lastmile_qr_scan"}, "fusion_lon": 0.0, "lat": 38.92823666666666, "bike_id": "67c30f95eb63b962a7ca6c473c4403c5", "type": "electric_scooter", "is_reserved": 0, "lon": -77.02259083333334}, {"fusion_lat": 0.0, "name": "a9949d6703c86d3140f6dc8b0a680571", "is_disabled": 0, "rental_uris": {"android": "https://dc.lft.to/lastmile_qr_scan", "ios": "https://dc.lft.to/lastmile_qr_scan"}, "fusion_lon": 0.0, "lat": 38.922274, "bike_id": "a9949d6703c86d3140f6dc8b0a680571", "type": "electric_scooter", "is_reserved": 0, "lon": -77.02367633333333}, {"fusion_lat": 0.0, "name": "906a65b86b0ee0b927faa45fecec38f8", "is_disabled": 0, "rental_uris": {"android": "https://dc.lft.to/lastmile_qr_scan", "ios": "https://dc.lft.to/lastmile_qr_scan"}, "fusion_lon": 0.0, "lat": 38.905624, "bike_id": "906a65b86b0ee0b927faa45fecec38f8", "type": "electric_scooter", "is_reserved": 0, "lon": -77.02956533333334}, {"fusion_lat": 0.0, "name": "452402da137332ee11eb7c71fbc1ad36", "is_disabled": 0, "rental_uris": {"android": "https://dc.lft.to/lastmile_qr_scan", "ios": "https://dc.lft.to/lastmile_qr_scan"}, "fusion_lon": 0.0, "lat": 38.932028, "bike_id": "452402da137332ee11eb7c71fbc1ad36", "type": "electric_scooter", "is_reserved": 0, "lon": -77.0374805}, {"fusion_lat": 0.0, "name": "8033c1952810ad4b6cb9813a621e4303", "is_disabled": 0, "rental_uris": {"android": "https://dc.lft.to/lastmile_qr_scan", "ios": "https://dc.lft.to/lastmile_qr_scan"}, "fusion_lon": 0.0, "lat": 38.979599666666665, "bike_id": "8033c1952810ad4b6cb9813a621e4303", "type": "electric_scooter", "is_reserved": 0, "lon": -77.02604583333333}, {"fusion_lat": 0.0, "name": "2a947ccd47e7028d126375663e91b7e0", "is_disabled": 0, "rental_uris": {"android": "https://dc.lft.to/lastmile_qr_scan", "ios": "https://dc.lft.to/lastmile_qr_scan"}, "fusion_lon": 0.0, "lat": 38.994473166666666, "bike_id": "2a947ccd47e7028d126375663e91b7e0", "type": "electric_bike", "is_reserved": 0, "lon": -76.99590683333334}, {"fusion_lat": 0.0, "name": "a09d46ed589688588f00bc7cef0154b6", "is_disabled": 0, "rental_uris": {"android": "https://dc.lft.to/lastmile_qr_scan", "ios": "https://dc.lft.to/lastmile_qr_scan"}, "fusion_lon": 0.0, "lat": 38.9405145, "bike_id": "a09d46ed589688588f00bc7cef0154b6", "type": "electric_bike", "is_reserved": 0, "lon": -76.90421216666667}, {"fusion_lat": 0.0, "name": "27d71c8ff3586a5b0fed9e46c371d071", "is_disabled": 0, "rental_uris": {"android": "https://dc.lft.to/lastmile_qr_scan", "ios": "https://dc.lft.to/lastmile_qr_scan"}, "fusion_lon": 0.0, "lat": 38.91697833333333, "bike_id": "27d71c8ff3586a5b0fed9e46c371d071", "type": "electric_scooter", "is_reserved": 0, "lon": -77.03775566666667}, {"fusion_lat": 0.0, "name": "0c327510627aed8c14262d59cb44aea1", "is_disabled": 0, "rental_uris": {"android": "https://dc.lft.to/lastmile_qr_scan", "ios": "https://dc.lft.to/lastmile_qr_scan"}, "fusion_lon": 0.0, "lat": 38.90124633333333, "bike_id": "0c327510627aed8c14262d59cb44aea1", "type": "electric_scooter", "is_reserved": 0, "lon": -77.0169615}, {"fusion_lat": 0.0, "name": "b9fa963236b4b7c5dfe876487b8d03d2", "is_disabled": 0, "rental_uris": {"android": "https://dc.lft.to/lastmile_qr_scan", "ios": "https://dc.lft.to/lastmile_qr_scan"}, "fusion_lon": 0.0, "lat": 38.9030435, "bike_id": "b9fa963236b4b7c5dfe876487b8d03d2", "type": "electric_scooter", "is_reserved": 0, "lon": -76.9765055}, {"fusion_lat": 0.0, "name": "aed9b269a239b399e7a71ced389a54c3", "is_disabled": 0, "rental_uris": {"android": "https://dc.lft.to/lastmile_qr_scan", "ios": "https://dc.lft.to/lastmile_qr_scan"}, "fusion_lon": 0.0, "lat": 38.94390583333333, "bike_id": "aed9b269a239b399e7a71ced389a54c3", "type": "electric_scooter", "is_reserved": 0, "lon": -77.0260515}, {"fusion_lat": 0.0, "name": "85f9af3047a25f0d36fc16d903748197", "is_disabled": 0, "rental_uris": {"android": "https://dc.lft.to/lastmile_qr_scan", "ios": "https://dc.lft.to/lastmile_qr_scan"}, "fusion_lon": 0.0, "lat": 38.926717833333335, "bike_id": "85f9af3047a25f0d36fc16d903748197", "type": "electric_scooter", "is_reserved": 0, "lon": -77.03227483333333}, {"fusion_lat": 0.0, "name": "a0b5d4a889786f7237c4bf596eb5fdb7", "is_disabled": 0, "rental_uris": {"android": "https://dc.lft.to/lastmile_qr_scan", "ios": "https://dc.lft.to/lastmile_qr_scan"}, "fusion_lon": 0.0, "lat": 38.88671216666667, "bike_id": "a0b5d4a889786f7237c4bf596eb5fdb7", "type": "electric_scooter", "is_reserved": 0, "lon": -77.028283}, {"fusion_lat": 0.0, "name": "9432cffe18c609003ca0da972470603a", "is_disabled": 0, "rental_uris": {"android": "https://dc.lft.to/lastmile_qr_scan", "ios": "https://dc.lft.to/lastmile_qr_scan"}, "fusion_lon": 0.0, "lat": 38.9284765, "bike_id": "9432cffe18c609003ca0da972470603a", "type": "electric_scooter", "is_reserved": 0, "lon": -77.03260816666666}, {"fusion_lat": 0.0, "name": "38fbd09ff683c43a1296ba9a0fc0e4de", "is_disabled": 0, "rental_uris": {"android": "https://dc.lft.to/lastmile_qr_scan", "ios": "https://dc.lft.to/lastmile_qr_scan"}, "fusion_lon": 0.0, "lat": 38.93591583333333, "bike_id": "38fbd09ff683c43a1296ba9a0fc0e4de", "type": "electric_scooter", "is_reserved": 0, "lon": -77.0335775}, {"fusion_lat": 0.0, "name": "85268b739318e5fffc8f2c22687112e4", "is_disabled": 0, "rental_uris": {"android": "https://dc.lft.to/lastmile_qr_scan", "ios": "https://dc.lft.to/lastmile_qr_scan"}, "fusion_lon": 0.0, "lat": 38.922850333333336, "bike_id": "85268b739318e5fffc8f2c22687112e4", "type": "electric_scooter", "is_reserved": 0, "lon": -77.023331}, {"fusion_lat": 0.0, "name": "e7e33dac0e96599d361f07daddbb94af", "is_disabled": 0, "rental_uris": {"android": "https://dc.lft.to/lastmile_qr_scan", "ios": "https://dc.lft.to/lastmile_qr_scan"}, "fusion_lon": 0.0, "lat": 38.918532666666664, "bike_id": "e7e33dac0e96599d361f07daddbb94af", "type": "electric_scooter", "is_reserved": 0, "lon": -77.03220183333333}, {"fusion_lat": 0.0, "name": "ad29a77d532bd797c143109b2daff9fe", "is_disabled": 0, "rental_uris": {"android": "https://dc.lft.to/lastmile_qr_scan", "ios": "https://dc.lft.to/lastmile_qr_scan"}, "fusion_lon": 0.0, "lat": 38.883137166666664, "bike_id": "ad29a77d532bd797c143109b2daff9fe", "type": "electric_scooter", "is_reserved": 0, "lon": -77.01377866666667}, {"fusion_lat": 0.0, "name": "c937c494a0a870e3c6f5550b3eb38566", "is_disabled": 0, "rental_uris": {"android": "https://dc.lft.to/lastmile_qr_scan", "ios": "https://dc.lft.to/lastmile_qr_scan"}, "fusion_lon": 0.0, "lat": 38.92449666666667, "bike_id": "c937c494a0a870e3c6f5550b3eb38566", "type": "electric_scooter", "is_reserved": 0, "lon": -77.00877133333333}, {"fusion_lat": 0.0, "name": "12a25249032d49941ed4d78f161e16fd", "is_disabled": 0, "rental_uris": {"android": "https://dc.lft.to/lastmile_qr_scan", "ios": "https://dc.lft.to/lastmile_qr_scan"}, "fusion_lon": 0.0, "lat": 38.91267116666667, "bike_id": "12a25249032d49941ed4d78f161e16fd", "type": "electric_scooter", "is_reserved": 0, "lon": -77.04209866666666}, {"fusion_lat": 0.0, "name": "62c43c1ef374f63cc908a257d5942271", "is_disabled": 0, "rental_uris": {"android": "https://dc.lft.to/lastmile_qr_scan", "ios": "https://dc.lft.to/lastmile_qr_scan"}, "fusion_lon": 0.0, "lat": 38.896838, "bike_id": "62c43c1ef374f63cc908a257d5942271", "type": "electric_scooter", "is_reserved": 0, "lon": -77.05103916666667}, {"fusion_lat": 0.0, "name": "ddf9a6096715be706cb07ff5dc4962e3", "is_disabled": 0, "rental_uris": {"android": "https://dc.lft.to/lastmile_qr_scan", "ios": "https://dc.lft.to/lastmile_qr_scan"}, "fusion_lon": 0.0, "lat": 38.92177933333333, "bike_id": "ddf9a6096715be706cb07ff5dc4962e3", "type": "electric_scooter", "is_reserved": 0, "lon": -77.03836716666666}, {"fusion_lat": 0.0, "name": "9ba57ab738e8f057f94dd6ebe8988519", "is_disabled": 0, "rental_uris": {"android": "https://dc.lft.to/lastmile_qr_scan", "ios": "https://dc.lft.to/lastmile_qr_scan"}, "fusion_lon": 0.0, "lat": 38.93563816666666, "bike_id": "9ba57ab738e8f057f94dd6ebe8988519", "type": "electric_scooter", "is_reserved": 0, "lon": -77.03483516666667}, {"fusion_lat": 0.0, "name": "5f45e3729a03901b6e0ec56fb5f9d2e6", "is_disabled": 0, "rental_uris": {"android": "https://dc.lft.to/lastmile_qr_scan", "ios": "https://dc.lft.to/lastmile_qr_scan"}, "fusion_lon": 0.0, "lat": 38.91669816666667, "bike_id": "5f45e3729a03901b6e0ec56fb5f9d2e6", "type": "electric_scooter", "is_reserved": 0, "lon": -77.0272395}, {"fusion_lat": 0.0, "name": "e5b042e7e0a87913c98dc9fbaa327674", "is_disabled": 0, "rental_uris": {"android": "https://dc.lft.to/lastmile_qr_scan", "ios": "https://dc.lft.to/lastmile_qr_scan"}, "fusion_lon": 0.0, "lat": 38.949214833333336, "bike_id": "e5b042e7e0a87913c98dc9fbaa327674", "type": "electric_scooter", "is_reserved": 0, "lon": -77.01853583333333}, {"fusion_lat": 0.0, "name": "08756280706269a25de1d27e3f0e2e23", "is_disabled": 0, "rental_uris": {"android": "https://dc.lft.to/lastmile_qr_scan", "ios": "https://dc.lft.to/lastmile_qr_scan"}, "fusion_lon": 0.0, "lat": 38.902403666666665, "bike_id": "08756280706269a25de1d27e3f0e2e23", "type": "electric_scooter", "is_reserved": 0, "lon": -77.01931983333333}, {"fusion_lat": 0.0, "name": "735799196537a94497bcbac0879d0176", "is_disabled": 0, "rental_uris": {"android": "https://dc.lft.to/lastmile_qr_scan", "ios": "https://dc.lft.to/lastmile_qr_scan"}, "fusion_lon": 0.0, "lat": 38.930524, "bike_id": "735799196537a94497bcbac0879d0176", "type": "electric_scooter", "is_reserved": 0, "lon": -77.03355933333333}, {"fusion_lat": 0.0, "name": "4a089a4a275d367e5c9cdce52f80bd10", "is_disabled": 0, "rental_uris": {"android": "https://dc.lft.to/lastmile_qr_scan", "ios": "https://dc.lft.to/lastmile_qr_scan"}, "fusion_lon": 0.0, "lat": 38.800090833333336, "bike_id": "4a089a4a275d367e5c9cdce52f80bd10", "type": "electric_bike", "is_reserved": 0, "lon": -77.12993933333334}, {"fusion_lat": 0.0, "name": "37ed63d7dd80c886ac77b763f1d3099d", "is_disabled": 0, "rental_uris": {"android": "https://dc.lft.to/lastmile_qr_scan", "ios": "https://dc.lft.to/lastmile_qr_scan"}, "fusion_lon": 0.0, "lat": 38.899462666666665, "bike_id": "37ed63d7dd80c886ac77b763f1d3099d", "type": "electric_scooter", "is_reserved": 0, "lon": -77.0144555}, {"fusion_lat": 0.0, "name": "7bc7c54b7564018a891da5d23a385269", "is_disabled": 0, "rental_uris": {"android": "https://dc.lft.to/lastmile_qr_scan", "ios": "https://dc.lft.to/lastmile_qr_scan"}, "fusion_lon": 0.0, "lat": 38.914253333333335, "bike_id": "7bc7c54b7564018a891da5d23a385269", "type": "electric_scooter", "is_reserved": 0, "lon": -76.98450183333334}, {"fusion_lat": 0.0, "name": "4e95d9debcf2ec0254a0b6732a380f69", "is_disabled": 0, "rental_uris": {"android": "https://dc.lft.to/lastmile_qr_scan", "ios": "https://dc.lft.to/lastmile_qr_scan"}, "fusion_lon": 0.0, "lat": 38.918146666666665, "bike_id": "4e95d9debcf2ec0254a0b6732a380f69", "type": "electric_scooter", "is_reserved": 0, "lon": -77.02695483333333}, {"fusion_lat": 0.0, "name": "0885003e9bfb2ec63ffe2d44ffe2a062", "is_disabled": 0, "rental_uris": {"android": "https://dc.lft.to/lastmile_qr_scan", "ios": "https://dc.lft.to/lastmile_qr_scan"}, "fusion_lon": 0.0, "lat": 38.91699466666667, "bike_id": "0885003e9bfb2ec63ffe2d44ffe2a062", "type": "electric_scooter", "is_reserved": 0, "lon": -77.037522}, {"fusion_lat": 0.0, "name": "b8d9a8c42aa52f2576a89d08b3a682cc", "is_disabled": 0, "rental_uris": {"android": "https://dc.lft.to/lastmile_qr_scan", "ios": "https://dc.lft.to/lastmile_qr_scan"}, "fusion_lon": 0.0, "lat": 38.9099135, "bike_id": "b8d9a8c42aa52f2576a89d08b3a682cc", "type": "electric_scooter", "is_reserved": 0, "lon": -77.03204466666666}, {"fusion_lat": 0.0, "name": "74866a545b30541a7b6ed2d68d4200f0", "is_disabled": 0, "rental_uris": {"android": "https://dc.lft.to/lastmile_qr_scan", "ios": "https://dc.lft.to/lastmile_qr_scan"}, "fusion_lon": 0.0, "lat": 38.938659666666666, "bike_id": "74866a545b30541a7b6ed2d68d4200f0", "type": "electric_scooter", "is_reserved": 0, "lon": -77.0320705}, {"fusion_lat": 0.0, "name": "5d0756d5180b91f3040404d1ec3e69b4", "is_disabled": 0, "rental_uris": {"android": "https://dc.lft.to/lastmile_qr_scan", "ios": "https://dc.lft.to/lastmile_qr_scan"}, "fusion_lon": 0.0, "lat": 38.87831633333333, "bike_id": "5d0756d5180b91f3040404d1ec3e69b4", "type": "electric_scooter", "is_reserved": 0, "lon": -76.99009583333333}, {"fusion_lat": 0.0, "name": "eb6700cf5d1ea8452d09d83596af6f90", "is_disabled": 0, "rental_uris": {"android": "https://dc.lft.to/lastmile_qr_scan", "ios": "https://dc.lft.to/lastmile_qr_scan"}, "fusion_lon": 0.0, "lat": 38.90060416666667, "bike_id": "eb6700cf5d1ea8452d09d83596af6f90", "type": "electric_scooter", "is_reserved": 0, "lon": -77.04487083333333}, {"fusion_lat": 0.0, "name": "43d0ade2eb9d9aee0a005bbe3bf67c4d", "is_disabled": 0, "rental_uris": {"android": "https://dc.lft.to/lastmile_qr_scan", "ios": "https://dc.lft.to/lastmile_qr_scan"}, "fusion_lon": 0.0, "lat": 38.853594333333334, "bike_id": "43d0ade2eb9d9aee0a005bbe3bf67c4d", "type": "electric_bike", "is_reserved": 0, "lon": -77.11497266666667}, {"fusion_lat": 0.0, "name": "c286ae7007111650e36c07f8d05175e5", "is_disabled": 0, "rental_uris": {"android": "https://dc.lft.to/lastmile_qr_scan", "ios": "https://dc.lft.to/lastmile_qr_scan"}, "fusion_lon": 0.0, "lat": 38.90006733333333, "bike_id": "c286ae7007111650e36c07f8d05175e5", "type": "electric_scooter", "is_reserved": 0, "lon": -76.99845483333333}, {"fusion_lat": 0.0, "name": "cb0d80c5a0d1353b587bd3c1fac906a9", "is_disabled": 0, "rental_uris": {"android": "https://dc.lft.to/lastmile_qr_scan", "ios": "https://dc.lft.to/lastmile_qr_scan"}, "fusion_lon": 0.0, "lat": 38.90948916666667, "bike_id": "cb0d80c5a0d1353b587bd3c1fac906a9", "type": "electric_scooter", "is_reserved": 0, "lon": -77.04735183333334}, {"fusion_lat": 0.0, "name": "7064d71a5d0c9635a399d918cdb070cd", "is_disabled": 0, "rental_uris": {"android": "https://dc.lft.to/lastmile_qr_scan", "ios": "https://dc.lft.to/lastmile_qr_scan"}, "fusion_lon": 0.0, "lat": 38.896308, "bike_id": "7064d71a5d0c9635a399d918cdb070cd", "type": "electric_scooter", "is_reserved": 0, "lon": -77.02230016666667}, {"fusion_lat": 0.0, "name": "30eac5fccd6a5d893e9a65dcc943ef20", "is_disabled": 0, "rental_uris": {"android": "https://dc.lft.to/lastmile_qr_scan", "ios": "https://dc.lft.to/lastmile_qr_scan"}, "fusion_lon": 0.0, "lat": 39.038956, "bike_id": "30eac5fccd6a5d893e9a65dcc943ef20", "type": "electric_bike", "is_reserved": 0, "lon": -77.05023183333333}, {"fusion_lat": 0.0, "name": "840bd3d2adb1e1571a2364b56d0e6d06", "is_disabled": 0, "rental_uris": {"android": "https://dc.lft.to/lastmile_qr_scan", "ios": "https://dc.lft.to/lastmile_qr_scan"}, "fusion_lon": 0.0, "lat": 38.90786683333333, "bike_id": "840bd3d2adb1e1571a2364b56d0e6d06", "type": "electric_scooter", "is_reserved": 0, "lon": -77.0239025}, {"fusion_lat": 0.0, "name": "294e28133339822e7afc4662ca73c93b", "is_disabled": 0, "rental_uris": {"android": "https://dc.lft.to/lastmile_qr_scan", "ios": "https://dc.lft.to/lastmile_qr_scan"}, "fusion_lon": 0.0, "lat": 38.90834683333333, "bike_id": "294e28133339822e7afc4662ca73c93b", "type": "electric_scooter", "is_reserved": 0, "lon": -77.04269983333333}, {"fusion_lat": 0.0, "name": "5b870549ccc1e3cde1164aa278390e76", "is_disabled": 0, "rental_uris": {"android": "https://dc.lft.to/lastmile_qr_scan", "ios": "https://dc.lft.to/lastmile_qr_scan"}, "fusion_lon": 0.0, "lat": 38.9259125, "bike_id": "5b870549ccc1e3cde1164aa278390e76", "type": "electric_scooter", "is_reserved": 0, "lon": -77.03766133333333}, {"fusion_lat": 0.0, "name": "c2cf1842072f4121ae5c9d5b2600cad2", "is_disabled": 0, "rental_uris": {"android": "https://dc.lft.to/lastmile_qr_scan", "ios": "https://dc.lft.to/lastmile_qr_scan"}, "fusion_lon": 0.0, "lat": 38.93414666666666, "bike_id": "c2cf1842072f4121ae5c9d5b2600cad2", "type": "electric_scooter", "is_reserved": 0, "lon": -77.04158783333334}, {"fusion_lat": 0.0, "name": "99fed2fe6f1416232c02155707d0501a", "is_disabled": 0, "rental_uris": {"android": "https://dc.lft.to/lastmile_qr_scan", "ios": "https://dc.lft.to/lastmile_qr_scan"}, "fusion_lon": 0.0, "lat": 38.93504766666667, "bike_id": "99fed2fe6f1416232c02155707d0501a", "type": "electric_scooter", "is_reserved": 0, "lon": -77.0241235}, {"fusion_lat": 0.0, "name": "9a20d39e61e16c219676baf7ac94f86d", "is_disabled": 0, "rental_uris": {"android": "https://dc.lft.to/lastmile_qr_scan", "ios": "https://dc.lft.to/lastmile_qr_scan"}, "fusion_lon": 0.0, "lat": 38.90084083333333, "bike_id": "9a20d39e61e16c219676baf7ac94f86d", "type": "electric_scooter", "is_reserved": 0, "lon": -77.05836583333334}, {"fusion_lat": 0.0, "name": "c8af5ffcefc13fefbc78546c3c412635", "is_disabled": 0, "rental_uris": {"android": "https://dc.lft.to/lastmile_qr_scan", "ios": "https://dc.lft.to/lastmile_qr_scan"}, "fusion_lon": 0.0, "lat": 38.897244666666666, "bike_id": "c8af5ffcefc13fefbc78546c3c412635", "type": "electric_scooter", "is_reserved": 0, "lon": -77.02149933333334}, {"fusion_lat": 0.0, "name": "ec91f89e4aa6b14ec49521d79528f653", "is_disabled": 0, "rental_uris": {"android": "https://dc.lft.to/lastmile_qr_scan", "ios": "https://dc.lft.to/lastmile_qr_scan"}, "fusion_lon": 0.0, "lat": 38.9067955, "bike_id": "ec91f89e4aa6b14ec49521d79528f653", "type": "electric_scooter", "is_reserved": 0, "lon": -77.0701075}, {"fusion_lat": 0.0, "name": "7d11c4e060c63bcb3269bcf37c0adac9", "is_disabled": 0, "rental_uris": {"android": "https://dc.lft.to/lastmile_qr_scan", "ios": "https://dc.lft.to/lastmile_qr_scan"}, "fusion_lon": 0.0, "lat": 38.9075965, "bike_id": "7d11c4e060c63bcb3269bcf37c0adac9", "type": "electric_scooter", "is_reserved": 0, "lon": -77.042223}, {"fusion_lat": 0.0, "name": "382260b766eb50ff4e0bb2df6b6f53af", "is_disabled": 0, "rental_uris": {"android": "https://dc.lft.to/lastmile_qr_scan", "ios": "https://dc.lft.to/lastmile_qr_scan"}, "fusion_lon": 0.0, "lat": 38.89885566666667, "bike_id": "382260b766eb50ff4e0bb2df6b6f53af", "type": "electric_scooter", "is_reserved": 0, "lon": -76.9334795}, {"fusion_lat": 0.0, "name": "d8ff0c397bf5567520313ee9df53d905", "is_disabled": 0, "rental_uris": {"android": "https://dc.lft.to/lastmile_qr_scan", "ios": "https://dc.lft.to/lastmile_qr_scan"}, "fusion_lon": 0.0, "lat": 38.9096105, "bike_id": "d8ff0c397bf5567520313ee9df53d905", "type": "electric_scooter", "is_reserved": 0, "lon": -77.01040066666667}, {"fusion_lat": 0.0, "name": "a071306d2e205f25fdd88f81c313411b", "is_disabled": 0, "rental_uris": {"android": "https://dc.lft.to/lastmile_qr_scan", "ios": "https://dc.lft.to/lastmile_qr_scan"}, "fusion_lon": 0.0, "lat": 38.9407995, "bike_id": "a071306d2e205f25fdd88f81c313411b", "type": "electric_scooter", "is_reserved": 0, "lon": -77.02389833333334}, {"fusion_lat": 0.0, "name": "9a0e319eaa628f3c190e0869063437c5", "is_disabled": 0, "rental_uris": {"android": "https://dc.lft.to/lastmile_qr_scan", "ios": "https://dc.lft.to/lastmile_qr_scan"}, "fusion_lon": 0.0, "lat": 38.928231, "bike_id": "9a0e319eaa628f3c190e0869063437c5", "type": "electric_scooter", "is_reserved": 0, "lon": -77.02257066666667}, {"fusion_lat": 0.0, "name": "1fa97a8cb5b86847545bcf0a436fc567", "is_disabled": 0, "rental_uris": {"android": "https://dc.lft.to/lastmile_qr_scan", "ios": "https://dc.lft.to/lastmile_qr_scan"}, "fusion_lon": 0.0, "lat": 38.88740766666667, "bike_id": "1fa97a8cb5b86847545bcf0a436fc567", "type": "electric_scooter", "is_reserved": 0, "lon": -77.0153605}, {"fusion_lat": 0.0, "name": "00be0bd965a07f8a2e321b5756aac3b9", "is_disabled": 0, "rental_uris": {"android": "https://dc.lft.to/lastmile_qr_scan", "ios": "https://dc.lft.to/lastmile_qr_scan"}, "fusion_lon": 0.0, "lat": 38.924924, "bike_id": "00be0bd965a07f8a2e321b5756aac3b9", "type": "electric_scooter", "is_reserved": 0, "lon": -77.05756516666666}, {"fusion_lat": 0.0, "name": "22b7a1b898bb6589be552d8fda50eab5", "is_disabled": 0, "rental_uris": {"android": "https://dc.lft.to/lastmile_qr_scan", "ios": "https://dc.lft.to/lastmile_qr_scan"}, "fusion_lon": 0.0, "lat": 38.926125666666664, "bike_id": "22b7a1b898bb6589be552d8fda50eab5", "type": "electric_scooter", "is_reserved": 0, "lon": -77.03961866666667}, {"fusion_lat": 0.0, "name": "52b9910793d55fae114a800e6f81ab74", "is_disabled": 0, "rental_uris": {"android": "https://dc.lft.to/lastmile_qr_scan", "ios": "https://dc.lft.to/lastmile_qr_scan"}, "fusion_lon": 0.0, "lat": 38.89599033333333, "bike_id": "52b9910793d55fae114a800e6f81ab74", "type": "electric_scooter", "is_reserved": 0, "lon": -77.02518766666667}, {"fusion_lat": 0.0, "name": "25600f55a20ca817523ea778fd617a9a", "is_disabled": 0, "rental_uris": {"android": "https://dc.lft.to/lastmile_qr_scan", "ios": "https://dc.lft.to/lastmile_qr_scan"}, "fusion_lon": 0.0, "lat": 38.909569, "bike_id": "25600f55a20ca817523ea778fd617a9a", "type": "electric_scooter", "is_reserved": 0, "lon": -77.04867983333334}, {"fusion_lat": 0.0, "name": "7b516ca4582e11e02b310873e43741e9", "is_disabled": 0, "rental_uris": {"android": "https://dc.lft.to/lastmile_qr_scan", "ios": "https://dc.lft.to/lastmile_qr_scan"}, "fusion_lon": 0.0, "lat": 38.904554, "bike_id": "7b516ca4582e11e02b310873e43741e9", "type": "electric_scooter", "is_reserved": 0, "lon": -77.001631}, {"fusion_lat": 0.0, "name": "ad3a225abb1e78869580a6b9007cfd8e", "is_disabled": 0, "rental_uris": {"android": "https://dc.lft.to/lastmile_qr_scan", "ios": "https://dc.lft.to/lastmile_qr_scan"}, "fusion_lon": 0.0, "lat": 38.92811066666667, "bike_id": "ad3a225abb1e78869580a6b9007cfd8e", "type": "electric_scooter", "is_reserved": 0, "lon": -77.04357516666667}, {"fusion_lat": 0.0, "name": "7d2e8c83f196bc89c9a797682535b1b9", "is_disabled": 0, "rental_uris": {"android": "https://dc.lft.to/lastmile_qr_scan", "ios": "https://dc.lft.to/lastmile_qr_scan"}, "fusion_lon": 0.0, "lat": 38.88535516666666, "bike_id": "7d2e8c83f196bc89c9a797682535b1b9", "type": "electric_scooter", "is_reserved": 0, "lon": -77.01517483333333}, {"fusion_lat": 0.0, "name": "4ad6a732d715325cad1a3c0e26967c34", "is_disabled": 0, "rental_uris": {"android": "https://dc.lft.to/lastmile_qr_scan", "ios": "https://dc.lft.to/lastmile_qr_scan"}, "fusion_lon": 0.0, "lat": 38.9042595, "bike_id": "4ad6a732d715325cad1a3c0e26967c34", "type": "electric_scooter", "is_reserved": 0, "lon": -76.94976583333333}, {"fusion_lat": 0.0, "name": "680016d01db12a75a6f79d206dee44c3", "is_disabled": 0, "rental_uris": {"android": "https://dc.lft.to/lastmile_qr_scan", "ios": "https://dc.lft.to/lastmile_qr_scan"}, "fusion_lon": 0.0, "lat": 38.940704, "bike_id": "680016d01db12a75a6f79d206dee44c3", "type": "electric_bike", "is_reserved": 0, "lon": -76.99459066666667}, {"fusion_lat": 0.0, "name": "6cd045385d000b40cd9c13b2bf0dcec1", "is_disabled": 0, "rental_uris": {"android": "https://dc.lft.to/lastmile_qr_scan", "ios": "https://dc.lft.to/lastmile_qr_scan"}, "fusion_lon": 0.0, "lat": 38.9233255, "bike_id": "6cd045385d000b40cd9c13b2bf0dcec1", "type": "electric_scooter", "is_reserved": 0, "lon": -77.0207525}, {"fusion_lat": 0.0, "name": "b80a490e0a70aab32c3503fe18276bd3", "is_disabled": 0, "rental_uris": {"android": "https://dc.lft.to/lastmile_qr_scan", "ios": "https://dc.lft.to/lastmile_qr_scan"}, "fusion_lon": 0.0, "lat": 38.90246033333333, "bike_id": "b80a490e0a70aab32c3503fe18276bd3", "type": "electric_scooter", "is_reserved": 0, "lon": -77.0436415}, {"fusion_lat": 0.0, "name": "26d915a6a9133a2722888adc4d8ac39b", "is_disabled": 0, "rental_uris": {"android": "https://dc.lft.to/lastmile_qr_scan", "ios": "https://dc.lft.to/lastmile_qr_scan"}, "fusion_lon": 0.0, "lat": 38.93151533333333, "bike_id": "26d915a6a9133a2722888adc4d8ac39b", "type": "electric_scooter", "is_reserved": 0, "lon": -77.07842166666667}, {"fusion_lat": 0.0, "name": "108d6b8136e5b78ff96d86adb474ade1", "is_disabled": 0, "rental_uris": {"android": "https://dc.lft.to/lastmile_qr_scan", "ios": "https://dc.lft.to/lastmile_qr_scan"}, "fusion_lon": 0.0, "lat": 38.908074166666665, "bike_id": "108d6b8136e5b78ff96d86adb474ade1", "type": "electric_scooter", "is_reserved": 0, "lon": -77.04352116666666}, {"fusion_lat": 0.0, "name": "45a8e1f8c3b4d73e6a086f0947c5b5ad", "is_disabled": 0, "rental_uris": {"android": "https://dc.lft.to/lastmile_qr_scan", "ios": "https://dc.lft.to/lastmile_qr_scan"}, "fusion_lon": 0.0, "lat": 38.88142216666667, "bike_id": "45a8e1f8c3b4d73e6a086f0947c5b5ad", "type": "electric_scooter", "is_reserved": 0, "lon": -76.99617116666667}, {"fusion_lat": 0.0, "name": "02433a17f059548e11f84358908a9e6c", "is_disabled": 0, "rental_uris": {"android": "https://dc.lft.to/lastmile_qr_scan", "ios": "https://dc.lft.to/lastmile_qr_scan"}, "fusion_lon": 0.0, "lat": 38.92419116666667, "bike_id": "02433a17f059548e11f84358908a9e6c", "type": "electric_scooter", "is_reserved": 0, "lon": -77.02009916666667}, {"fusion_lat": 0.0, "name": "28bc48ef0f9f4d1f51c1b9632634cf31", "is_disabled": 0, "rental_uris": {"android": "https://dc.lft.to/lastmile_qr_scan", "ios": "https://dc.lft.to/lastmile_qr_scan"}, "fusion_lon": 0.0, "lat": 38.9072485, "bike_id": "28bc48ef0f9f4d1f51c1b9632634cf31", "type": "electric_scooter", "is_reserved": 0, "lon": -77.04810933333333}, {"fusion_lat": 0.0, "name": "40fc01834a66f345c87ef0512f098cd0", "is_disabled": 0, "rental_uris": {"android": "https://dc.lft.to/lastmile_qr_scan", "ios": "https://dc.lft.to/lastmile_qr_scan"}, "fusion_lon": 0.0, "lat": 38.920662, "bike_id": "40fc01834a66f345c87ef0512f098cd0", "type": "electric_scooter", "is_reserved": 0, "lon": -77.04192933333333}, {"fusion_lat": 0.0, "name": "043d90e967434af4f6b3452c4fe427ad", "is_disabled": 0, "rental_uris": {"android": "https://dc.lft.to/lastmile_qr_scan", "ios": "https://dc.lft.to/lastmile_qr_scan"}, "fusion_lon": 0.0, "lat": 38.905046666666664, "bike_id": "043d90e967434af4f6b3452c4fe427ad", "type": "electric_scooter", "is_reserved": 0, "lon": -77.05802766666666}, {"fusion_lat": 0.0, "name": "7d1270719a0e94c3c27543d0a2d27702", "is_disabled": 0, "rental_uris": {"android": "https://dc.lft.to/lastmile_qr_scan", "ios": "https://dc.lft.to/lastmile_qr_scan"}, "fusion_lon": 0.0, "lat": 38.91721416666667, "bike_id": "7d1270719a0e94c3c27543d0a2d27702", "type": "electric_scooter", "is_reserved": 0, "lon": -77.0081735}, {"fusion_lat": 0.0, "name": "c545ad79a66c7669ab239d299eac739b", "is_disabled": 0, "rental_uris": {"android": "https://dc.lft.to/lastmile_qr_scan", "ios": "https://dc.lft.to/lastmile_qr_scan"}, "fusion_lon": 0.0, "lat": 38.924612, "bike_id": "c545ad79a66c7669ab239d299eac739b", "type": "electric_scooter", "is_reserved": 0, "lon": -76.993319}, {"fusion_lat": 0.0, "name": "43b6108a787267bb2f1d8eed25365d11", "is_disabled": 0, "rental_uris": {"android": "https://dc.lft.to/lastmile_qr_scan", "ios": "https://dc.lft.to/lastmile_qr_scan"}, "fusion_lon": 0.0, "lat": 38.920298333333335, "bike_id": "43b6108a787267bb2f1d8eed25365d11", "type": "electric_scooter", "is_reserved": 0, "lon": -76.995762}, {"fusion_lat": 0.0, "name": "1773811f0b0fa0374cbeda2315078686", "is_disabled": 0, "rental_uris": {"android": "https://dc.lft.to/lastmile_qr_scan", "ios": "https://dc.lft.to/lastmile_qr_scan"}, "fusion_lon": 0.0, "lat": 38.86257166666667, "bike_id": "1773811f0b0fa0374cbeda2315078686", "type": "electric_bike", "is_reserved": 0, "lon": -76.98350266666667}, {"fusion_lat": 0.0, "name": "b50eef2f87beee1781d1c5cf76015a91", "is_disabled": 0, "rental_uris": {"android": "https://dc.lft.to/lastmile_qr_scan", "ios": "https://dc.lft.to/lastmile_qr_scan"}, "fusion_lon": 0.0, "lat": 38.90097866666667, "bike_id": "b50eef2f87beee1781d1c5cf76015a91", "type": "electric_scooter", "is_reserved": 0, "lon": -77.01940183333333}, {"fusion_lat": 0.0, "name": "121839cc0d90445118eef7e0be8df420", "is_disabled": 0, "rental_uris": {"android": "https://dc.lft.to/lastmile_qr_scan", "ios": "https://dc.lft.to/lastmile_qr_scan"}, "fusion_lon": 0.0, "lat": 38.89480566666667, "bike_id": "121839cc0d90445118eef7e0be8df420", "type": "electric_scooter", "is_reserved": 0, "lon": -77.021762}, {"fusion_lat": 0.0, "name": "f2ed654337c056b62e1eb2f0788cc86b", "is_disabled": 0, "rental_uris": {"android": "https://dc.lft.to/lastmile_qr_scan", "ios": "https://dc.lft.to/lastmile_qr_scan"}, "fusion_lon": 0.0, "lat": 38.910252166666666, "bike_id": "f2ed654337c056b62e1eb2f0788cc86b", "type": "electric_scooter", "is_reserved": 0, "lon": -77.007555}, {"fusion_lat": 0.0, "name": "da8551e34632c1ef143103c5a38b113a", "is_disabled": 0, "rental_uris": {"android": "https://dc.lft.to/lastmile_qr_scan", "ios": "https://dc.lft.to/lastmile_qr_scan"}, "fusion_lon": 0.0, "lat": 38.858030666666664, "bike_id": "da8551e34632c1ef143103c5a38b113a", "type": "electric_bike", "is_reserved": 0, "lon": -76.98729683333333}, {"fusion_lat": 0.0, "name": "ce28b44b2c4ece0d7657a634db043542", "is_disabled": 0, "rental_uris": {"android": "https://dc.lft.to/lastmile_qr_scan", "ios": "https://dc.lft.to/lastmile_qr_scan"}, "fusion_lon": 0.0, "lat": 38.897450666666664, "bike_id": "ce28b44b2c4ece0d7657a634db043542", "type": "electric_bike", "is_reserved": 0, "lon": -77.00746416666667}, {"fusion_lat": 0.0, "name": "e2d8ddf19f9a7d60db6bb418b24672ef", "is_disabled": 0, "rental_uris": {"android": "https://dc.lft.to/lastmile_qr_scan", "ios": "https://dc.lft.to/lastmile_qr_scan"}, "fusion_lon": 0.0, "lat": 38.920655333333336, "bike_id": "e2d8ddf19f9a7d60db6bb418b24672ef", "type": "electric_scooter", "is_reserved": 0, "lon": -76.99863333333333}, {"fusion_lat": 0.0, "name": "a07aa32a9b29fae163739a20eb47847c", "is_disabled": 0, "rental_uris": {"android": "https://dc.lft.to/lastmile_qr_scan", "ios": "https://dc.lft.to/lastmile_qr_scan"}, "fusion_lon": 0.0, "lat": 38.92360766666667, "bike_id": "a07aa32a9b29fae163739a20eb47847c", "type": "electric_scooter", "is_reserved": 0, "lon": -77.042367}, {"fusion_lat": 0.0, "name": "e9ca99e7b88b4b75c378cf911d575084", "is_disabled": 0, "rental_uris": {"android": "https://dc.lft.to/lastmile_qr_scan", "ios": "https://dc.lft.to/lastmile_qr_scan"}, "fusion_lon": 0.0, "lat": 38.89752516666667, "bike_id": "e9ca99e7b88b4b75c378cf911d575084", "type": "electric_scooter", "is_reserved": 0, "lon": -77.00750283333333}, {"fusion_lat": 0.0, "name": "751d34643a06ed21a12ce69e26cd6538", "is_disabled": 0, "rental_uris": {"android": "https://dc.lft.to/lastmile_qr_scan", "ios": "https://dc.lft.to/lastmile_qr_scan"}, "fusion_lon": 0.0, "lat": 38.86627683333333, "bike_id": "751d34643a06ed21a12ce69e26cd6538", "type": "electric_scooter", "is_reserved": 0, "lon": -76.9871715}, {"fusion_lat": 0.0, "name": "62ff3673779bc0cbdd65a31a8ddd72ab", "is_disabled": 0, "rental_uris": {"android": "https://dc.lft.to/lastmile_qr_scan", "ios": "https://dc.lft.to/lastmile_qr_scan"}, "fusion_lon": 0.0, "lat": 38.89221916666666, "bike_id": "62ff3673779bc0cbdd65a31a8ddd72ab", "type": "electric_scooter", "is_reserved": 0, "lon": -77.02777233333333}, {"fusion_lat": 0.0, "name": "42e0dad4d7551d0b0901267e16a57bed", "is_disabled": 0, "rental_uris": {"android": "https://dc.lft.to/lastmile_qr_scan", "ios": "https://dc.lft.to/lastmile_qr_scan"}, "fusion_lon": 0.0, "lat": 38.951148833333335, "bike_id": "42e0dad4d7551d0b0901267e16a57bed", "type": "electric_scooter", "is_reserved": 0, "lon": -77.0586385}, {"fusion_lat": 0.0, "name": "dd599099f9f2efd9ad7379c072a47219", "is_disabled": 0, "rental_uris": {"android": "https://dc.lft.to/lastmile_qr_scan", "ios": "https://dc.lft.to/lastmile_qr_scan"}, "fusion_lon": 0.0, "lat": 38.91703566666666, "bike_id": "dd599099f9f2efd9ad7379c072a47219", "type": "electric_scooter", "is_reserved": 0, "lon": -77.03720183333333}, {"fusion_lat": 0.0, "name": "076c4fe6efb31c52a73ff8f79649e300", "is_disabled": 0, "rental_uris": {"android": "https://dc.lft.to/lastmile_qr_scan", "ios": "https://dc.lft.to/lastmile_qr_scan"}, "fusion_lon": 0.0, "lat": 38.91510383333333, "bike_id": "076c4fe6efb31c52a73ff8f79649e300", "type": "electric_scooter", "is_reserved": 0, "lon": -77.03266466666666}, {"fusion_lat": 0.0, "name": "79fb2ee43ceb0e9a04cbdadb984a38c8", "is_disabled": 0, "rental_uris": {"android": "https://dc.lft.to/lastmile_qr_scan", "ios": "https://dc.lft.to/lastmile_qr_scan"}, "fusion_lon": 0.0, "lat": 38.932417, "bike_id": "79fb2ee43ceb0e9a04cbdadb984a38c8", "type": "electric_bike", "is_reserved": 0, "lon": -76.97420083333333}, {"fusion_lat": 0.0, "name": "88565d1e83cfb75abadc273cb97297e0", "is_disabled": 0, "rental_uris": {"android": "https://dc.lft.to/lastmile_qr_scan", "ios": "https://dc.lft.to/lastmile_qr_scan"}, "fusion_lon": 0.0, "lat": 38.943043, "bike_id": "88565d1e83cfb75abadc273cb97297e0", "type": "electric_bike", "is_reserved": 0, "lon": -77.02069066666667}, {"fusion_lat": 0.0, "name": "13fc34c2636f6c92672846014927dc3a", "is_disabled": 0, "rental_uris": {"android": "https://dc.lft.to/lastmile_qr_scan", "ios": "https://dc.lft.to/lastmile_qr_scan"}, "fusion_lon": 0.0, "lat": 38.9547645, "bike_id": "13fc34c2636f6c92672846014927dc3a", "type": "electric_scooter", "is_reserved": 0, "lon": -77.07773666666667}, {"fusion_lat": 0.0, "name": "520ddd8397fd948e30769df57954ff71", "is_disabled": 0, "rental_uris": {"android": "https://dc.lft.to/lastmile_qr_scan", "ios": "https://dc.lft.to/lastmile_qr_scan"}, "fusion_lon": 0.0, "lat": 38.8746795, "bike_id": "520ddd8397fd948e30769df57954ff71", "type": "electric_bike", "is_reserved": 0, "lon": -76.99963783333334}, {"fusion_lat": 0.0, "name": "6f4e0463130017002d56b96b1006f8af", "is_disabled": 0, "rental_uris": {"android": "https://dc.lft.to/lastmile_qr_scan", "ios": "https://dc.lft.to/lastmile_qr_scan"}, "fusion_lon": 0.0, "lat": 38.9401995, "bike_id": "6f4e0463130017002d56b96b1006f8af", "type": "electric_scooter", "is_reserved": 0, "lon": -77.0277205}, {"fusion_lat": 0.0, "name": "2984746e058b5304967830bf5e130046", "is_disabled": 0, "rental_uris": {"android": "https://dc.lft.to/lastmile_qr_scan", "ios": "https://dc.lft.to/lastmile_qr_scan"}, "fusion_lon": 0.0, "lat": 38.9113975, "bike_id": "2984746e058b5304967830bf5e130046", "type": "electric_scooter", "is_reserved": 0, "lon": -77.03210816666666}, {"fusion_lat": 0.0, "name": "c45aed69292e27d1c41fe7090f1e3d86", "is_disabled": 0, "rental_uris": {"android": "https://dc.lft.to/lastmile_qr_scan", "ios": "https://dc.lft.to/lastmile_qr_scan"}, "fusion_lon": 0.0, "lat": 38.92236583333333, "bike_id": "c45aed69292e27d1c41fe7090f1e3d86", "type": "electric_scooter", "is_reserved": 0, "lon": -77.03518483333333}, {"fusion_lat": 0.0, "name": "4486a0fe3b363c5993107a211baf9be6", "is_disabled": 0, "rental_uris": {"android": "https://dc.lft.to/lastmile_qr_scan", "ios": "https://dc.lft.to/lastmile_qr_scan"}, "fusion_lon": 0.0, "lat": 38.920817666666665, "bike_id": "4486a0fe3b363c5993107a211baf9be6", "type": "electric_scooter", "is_reserved": 0, "lon": -77.0230405}, {"fusion_lat": 0.0, "name": "c38b061263512ccf5ba2436ff77f01b6", "is_disabled": 0, "rental_uris": {"android": "https://dc.lft.to/lastmile_qr_scan", "ios": "https://dc.lft.to/lastmile_qr_scan"}, "fusion_lon": 0.0, "lat": 38.926176833333336, "bike_id": "c38b061263512ccf5ba2436ff77f01b6", "type": "electric_scooter", "is_reserved": 0, "lon": -77.02219183333334}, {"fusion_lat": 0.0, "name": "b8db18f6a84ac4f3d3c42b38a99026e0", "is_disabled": 0, "rental_uris": {"android": "https://dc.lft.to/lastmile_qr_scan", "ios": "https://dc.lft.to/lastmile_qr_scan"}, "fusion_lon": 0.0, "lat": 38.913217333333336, "bike_id": "b8db18f6a84ac4f3d3c42b38a99026e0", "type": "electric_scooter", "is_reserved": 0, "lon": -77.04709016666666}, {"fusion_lat": 0.0, "name": "53fe0648e0bc2b5869f4f3d915d8a7e2", "is_disabled": 0, "rental_uris": {"android": "https://dc.lft.to/lastmile_qr_scan", "ios": "https://dc.lft.to/lastmile_qr_scan"}, "fusion_lon": 0.0, "lat": 38.887576, "bike_id": "53fe0648e0bc2b5869f4f3d915d8a7e2", "type": "electric_scooter", "is_reserved": 0, "lon": -77.00168516666666}, {"fusion_lat": 0.0, "name": "974e58572ad0deb1760254a4f4a5f2e9", "is_disabled": 0, "rental_uris": {"android": "https://dc.lft.to/lastmile_qr_scan", "ios": "https://dc.lft.to/lastmile_qr_scan"}, "fusion_lon": 0.0, "lat": 38.90528366666667, "bike_id": "974e58572ad0deb1760254a4f4a5f2e9", "type": "electric_scooter", "is_reserved": 0, "lon": -77.0613765}, {"fusion_lat": 0.0, "name": "386bd0f819f84bafb8eecc23b636f5b4", "is_disabled": 0, "rental_uris": {"android": "https://dc.lft.to/lastmile_qr_scan", "ios": "https://dc.lft.to/lastmile_qr_scan"}, "fusion_lon": 0.0, "lat": 38.91027533333333, "bike_id": "386bd0f819f84bafb8eecc23b636f5b4", "type": "electric_scooter", "is_reserved": 0, "lon": -77.00759966666666}, {"fusion_lat": 0.0, "name": "0a5bad8dc242be3bd73d15b2a3793e7f", "is_disabled": 0, "rental_uris": {"android": "https://dc.lft.to/lastmile_qr_scan", "ios": "https://dc.lft.to/lastmile_qr_scan"}, "fusion_lon": 0.0, "lat": 38.91715266666667, "bike_id": "0a5bad8dc242be3bd73d15b2a3793e7f", "type": "electric_scooter", "is_reserved": 0, "lon": -76.96868433333333}, {"fusion_lat": 0.0, "name": "a0e842baa500f9f506cb34df7684d32d", "is_disabled": 0, "rental_uris": {"android": "https://dc.lft.to/lastmile_qr_scan", "ios": "https://dc.lft.to/lastmile_qr_scan"}, "fusion_lon": 0.0, "lat": 38.905535666666665, "bike_id": "a0e842baa500f9f506cb34df7684d32d", "type": "electric_scooter", "is_reserved": 0, "lon": -77.0652055}, {"fusion_lat": 0.0, "name": "915197aa75d94d60023405a656b3d34c", "is_disabled": 0, "rental_uris": {"android": "https://dc.lft.to/lastmile_qr_scan", "ios": "https://dc.lft.to/lastmile_qr_scan"}, "fusion_lon": 0.0, "lat": 38.92250683333333, "bike_id": "915197aa75d94d60023405a656b3d34c", "type": "electric_scooter", "is_reserved": 0, "lon": -77.07451966666666}, {"fusion_lat": 0.0, "name": "9a6c2a8ef7aa571df1b6cc579b7b11ab", "is_disabled": 0, "rental_uris": {"android": "https://dc.lft.to/lastmile_qr_scan", "ios": "https://dc.lft.to/lastmile_qr_scan"}, "fusion_lon": 0.0, "lat": 38.906334333333334, "bike_id": "9a6c2a8ef7aa571df1b6cc579b7b11ab", "type": "electric_scooter", "is_reserved": 0, "lon": -77.031393}, {"fusion_lat": 0.0, "name": "d0057970dcaa0c207d6113a78052a798", "is_disabled": 0, "rental_uris": {"android": "https://dc.lft.to/lastmile_qr_scan", "ios": "https://dc.lft.to/lastmile_qr_scan"}, "fusion_lon": 0.0, "lat": 38.914992166666664, "bike_id": "d0057970dcaa0c207d6113a78052a798", "type": "electric_scooter", "is_reserved": 0, "lon": -76.98368733333334}, {"fusion_lat": 0.0, "name": "5aa9f1e1a7aac409a3749660008a5981", "is_disabled": 0, "rental_uris": {"android": "https://dc.lft.to/lastmile_qr_scan", "ios": "https://dc.lft.to/lastmile_qr_scan"}, "fusion_lon": 0.0, "lat": 38.8882645, "bike_id": "5aa9f1e1a7aac409a3749660008a5981", "type": "electric_scooter", "is_reserved": 0, "lon": -76.98666816666666}, {"fusion_lat": 0.0, "name": "bb47fd14d86ffc5fcda6b1f06b279554", "is_disabled": 0, "rental_uris": {"android": "https://dc.lft.to/lastmile_qr_scan", "ios": "https://dc.lft.to/lastmile_qr_scan"}, "fusion_lon": 0.0, "lat": 38.9226755, "bike_id": "bb47fd14d86ffc5fcda6b1f06b279554", "type": "electric_bike", "is_reserved": 0, "lon": -77.02247083333333}, {"fusion_lat": 0.0, "name": "3bc3110c38305de4ea693e3de9dfe40c", "is_disabled": 0, "rental_uris": {"android": "https://dc.lft.to/lastmile_qr_scan", "ios": "https://dc.lft.to/lastmile_qr_scan"}, "fusion_lon": 0.0, "lat": 38.905655333333335, "bike_id": "3bc3110c38305de4ea693e3de9dfe40c", "type": "electric_scooter", "is_reserved": 0, "lon": -76.98200433333334}, {"fusion_lat": 0.0, "name": "de833f435e2a8cfe0b17b8ff45bbd613", "is_disabled": 0, "rental_uris": {"android": "https://dc.lft.to/lastmile_qr_scan", "ios": "https://dc.lft.to/lastmile_qr_scan"}, "fusion_lon": 0.0, "lat": 38.907967, "bike_id": "de833f435e2a8cfe0b17b8ff45bbd613", "type": "electric_scooter", "is_reserved": 0, "lon": -76.99425233333334}, {"fusion_lat": 0.0, "name": "5f8423588c2e17b0f25c01b88a8749d7", "is_disabled": 0, "rental_uris": {"android": "https://dc.lft.to/lastmile_qr_scan", "ios": "https://dc.lft.to/lastmile_qr_scan"}, "fusion_lon": 0.0, "lat": 38.90719683333333, "bike_id": "5f8423588c2e17b0f25c01b88a8749d7", "type": "electric_scooter", "is_reserved": 0, "lon": -77.0254265}, {"fusion_lat": 0.0, "name": "eb1a360e7acf4d86d8a1ceeb20810e75", "is_disabled": 0, "rental_uris": {"android": "https://dc.lft.to/lastmile_qr_scan", "ios": "https://dc.lft.to/lastmile_qr_scan"}, "fusion_lon": 0.0, "lat": 38.92975066666666, "bike_id": "eb1a360e7acf4d86d8a1ceeb20810e75", "type": "electric_scooter", "is_reserved": 0, "lon": -77.03272816666667}, {"fusion_lat": 0.0, "name": "54948f6107ef7d5730129da6dd555e7e", "is_disabled": 0, "rental_uris": {"android": "https://dc.lft.to/lastmile_qr_scan", "ios": "https://dc.lft.to/lastmile_qr_scan"}, "fusion_lon": 0.0, "lat": 38.917292833333335, "bike_id": "54948f6107ef7d5730129da6dd555e7e", "type": "electric_scooter", "is_reserved": 0, "lon": -77.036638}, {"fusion_lat": 0.0, "name": "da317a2b3bec2176ef674ea7448e313c", "is_disabled": 0, "rental_uris": {"android": "https://dc.lft.to/lastmile_qr_scan", "ios": "https://dc.lft.to/lastmile_qr_scan"}, "fusion_lon": 0.0, "lat": 38.931525666666666, "bike_id": "da317a2b3bec2176ef674ea7448e313c", "type": "electric_scooter", "is_reserved": 0, "lon": -77.039697}, {"fusion_lat": 0.0, "name": "31e92806a5350d1a35cf4858a195b1f5", "is_disabled": 0, "rental_uris": {"android": "https://dc.lft.to/lastmile_qr_scan", "ios": "https://dc.lft.to/lastmile_qr_scan"}, "fusion_lon": 0.0, "lat": 38.89475433333333, "bike_id": "31e92806a5350d1a35cf4858a195b1f5", "type": "electric_scooter", "is_reserved": 0, "lon": -77.02183216666667}, {"fusion_lat": 0.0, "name": "c53044f06594ae78ed16b854c0c4b3fb", "is_disabled": 0, "rental_uris": {"android": "https://dc.lft.to/lastmile_qr_scan", "ios": "https://dc.lft.to/lastmile_qr_scan"}, "fusion_lon": 0.0, "lat": 38.887022, "bike_id": "c53044f06594ae78ed16b854c0c4b3fb", "type": "electric_scooter", "is_reserved": 0, "lon": -76.99606066666666}, {"fusion_lat": 0.0, "name": "51a25494e76c8aeecfe2a306e1247dd4", "is_disabled": 0, "rental_uris": {"android": "https://dc.lft.to/lastmile_qr_scan", "ios": "https://dc.lft.to/lastmile_qr_scan"}, "fusion_lon": 0.0, "lat": 38.819373, "bike_id": "51a25494e76c8aeecfe2a306e1247dd4", "type": "electric_bike", "is_reserved": 0, "lon": -77.00201016666666}, {"fusion_lat": 0.0, "name": "e5c154a784add7270f40a3aa335ecf20", "is_disabled": 0, "rental_uris": {"android": "https://dc.lft.to/lastmile_qr_scan", "ios": "https://dc.lft.to/lastmile_qr_scan"}, "fusion_lon": 0.0, "lat": 38.89224083333333, "bike_id": "e5c154a784add7270f40a3aa335ecf20", "type": "electric_scooter", "is_reserved": 0, "lon": -77.02717283333334}, {"fusion_lat": 0.0, "name": "42887ad29dc235f7faf25925717a79b2", "is_disabled": 0, "rental_uris": {"android": "https://dc.lft.to/lastmile_qr_scan", "ios": "https://dc.lft.to/lastmile_qr_scan"}, "fusion_lon": 0.0, "lat": 38.952675, "bike_id": "42887ad29dc235f7faf25925717a79b2", "type": "electric_bike", "is_reserved": 0, "lon": -76.99951}, {"fusion_lat": 0.0, "name": "e2aeefc3c513931283a042792fdee777", "is_disabled": 0, "rental_uris": {"android": "https://dc.lft.to/lastmile_qr_scan", "ios": "https://dc.lft.to/lastmile_qr_scan"}, "fusion_lon": 0.0, "lat": 38.87968333333333, "bike_id": "e2aeefc3c513931283a042792fdee777", "type": "electric_bike", "is_reserved": 0, "lon": -76.91613583333333}, {"fusion_lat": 0.0, "name": "076133551cb6d9fed3eb1c173a999111", "is_disabled": 0, "rental_uris": {"android": "https://dc.lft.to/lastmile_qr_scan", "ios": "https://dc.lft.to/lastmile_qr_scan"}, "fusion_lon": 0.0, "lat": 38.91730583333333, "bike_id": "076133551cb6d9fed3eb1c173a999111", "type": "electric_scooter", "is_reserved": 0, "lon": -77.036617}, {"fusion_lat": 0.0, "name": "3aed45b3f6cd2fe4fa8d91517b8b2477", "is_disabled": 0, "rental_uris": {"android": "https://dc.lft.to/lastmile_qr_scan", "ios": "https://dc.lft.to/lastmile_qr_scan"}, "fusion_lon": 0.0, "lat": 38.90041383333333, "bike_id": "3aed45b3f6cd2fe4fa8d91517b8b2477", "type": "electric_scooter", "is_reserved": 0, "lon": -76.98552916666667}, {"fusion_lat": 0.0, "name": "208e448facd4a978540029d7dd145b82", "is_disabled": 0, "rental_uris": {"android": "https://dc.lft.to/lastmile_qr_scan", "ios": "https://dc.lft.to/lastmile_qr_scan"}, "fusion_lon": 0.0, "lat": 38.9179125, "bike_id": "208e448facd4a978540029d7dd145b82", "type": "electric_scooter", "is_reserved": 0, "lon": -77.04029116666666}, {"fusion_lat": 0.0, "name": "a22ebf8aae8349612ebef5f94200658f", "is_disabled": 0, "rental_uris": {"android": "https://dc.lft.to/lastmile_qr_scan", "ios": "https://dc.lft.to/lastmile_qr_scan"}, "fusion_lon": 0.0, "lat": 38.89753866666667, "bike_id": "a22ebf8aae8349612ebef5f94200658f", "type": "electric_scooter", "is_reserved": 0, "lon": -77.02153466666667}, {"fusion_lat": 0.0, "name": "b1778b172721c7afe2d10d6a5482cde7", "is_disabled": 0, "rental_uris": {"android": "https://dc.lft.to/lastmile_qr_scan", "ios": "https://dc.lft.to/lastmile_qr_scan"}, "fusion_lon": 0.0, "lat": 38.9242475, "bike_id": "b1778b172721c7afe2d10d6a5482cde7", "type": "electric_scooter", "is_reserved": 0, "lon": -77.01955183333334}, {"fusion_lat": 0.0, "name": "4add1094ca04b6de141d7bb45f371852", "is_disabled": 0, "rental_uris": {"android": "https://dc.lft.to/lastmile_qr_scan", "ios": "https://dc.lft.to/lastmile_qr_scan"}, "fusion_lon": 0.0, "lat": 38.938828666666666, "bike_id": "4add1094ca04b6de141d7bb45f371852", "type": "electric_scooter", "is_reserved": 0, "lon": -77.02461516666666}, {"fusion_lat": 0.0, "name": "72626f9746bb87d053fcc2337a3449d0", "is_disabled": 0, "rental_uris": {"android": "https://dc.lft.to/lastmile_qr_scan", "ios": "https://dc.lft.to/lastmile_qr_scan"}, "fusion_lon": 0.0, "lat": 38.925401, "bike_id": "72626f9746bb87d053fcc2337a3449d0", "type": "electric_scooter", "is_reserved": 0, "lon": -77.038285}, {"fusion_lat": 0.0, "name": "0e0f17b06cbc6aadfb32f6cb97f19ed5", "is_disabled": 0, "rental_uris": {"android": "https://dc.lft.to/lastmile_qr_scan", "ios": "https://dc.lft.to/lastmile_qr_scan"}, "fusion_lon": 0.0, "lat": 38.913231833333334, "bike_id": "0e0f17b06cbc6aadfb32f6cb97f19ed5", "type": "electric_scooter", "is_reserved": 0, "lon": -77.02138066666667}, {"fusion_lat": 0.0, "name": "c8f37535993954284776cf5557fb7a00", "is_disabled": 0, "rental_uris": {"android": "https://dc.lft.to/lastmile_qr_scan", "ios": "https://dc.lft.to/lastmile_qr_scan"}, "fusion_lon": 0.0, "lat": 38.885093499999996, "bike_id": "c8f37535993954284776cf5557fb7a00", "type": "electric_scooter", "is_reserved": 0, "lon": -77.01114766666667}, {"fusion_lat": 0.0, "name": "361cc564f5d7a394fe3b11acbacb08bf", "is_disabled": 0, "rental_uris": {"android": "https://dc.lft.to/lastmile_qr_scan", "ios": "https://dc.lft.to/lastmile_qr_scan"}, "fusion_lon": 0.0, "lat": 38.8969645, "bike_id": "361cc564f5d7a394fe3b11acbacb08bf", "type": "electric_scooter", "is_reserved": 0, "lon": -77.0433845}, {"fusion_lat": 0.0, "name": "60812cc69e1f6465616664a7b54acc22", "is_disabled": 0, "rental_uris": {"android": "https://dc.lft.to/lastmile_qr_scan", "ios": "https://dc.lft.to/lastmile_qr_scan"}, "fusion_lon": 0.0, "lat": 38.9086795, "bike_id": "60812cc69e1f6465616664a7b54acc22", "type": "electric_scooter", "is_reserved": 0, "lon": -77.0487555}, {"fusion_lat": 0.0, "name": "2bcab252c76f4f03e1fbd0624048f5fa", "is_disabled": 0, "rental_uris": {"android": "https://dc.lft.to/lastmile_qr_scan", "ios": "https://dc.lft.to/lastmile_qr_scan"}, "fusion_lon": 0.0, "lat": 38.93973916666667, "bike_id": "2bcab252c76f4f03e1fbd0624048f5fa", "type": "electric_scooter", "is_reserved": 0, "lon": -77.03277633333333}, {"fusion_lat": 0.0, "name": "363fb576d18cb4f902c33fdf12203337", "is_disabled": 0, "rental_uris": {"android": "https://dc.lft.to/lastmile_qr_scan", "ios": "https://dc.lft.to/lastmile_qr_scan"}, "fusion_lon": 0.0, "lat": 38.93179033333333, "bike_id": "363fb576d18cb4f902c33fdf12203337", "type": "electric_scooter", "is_reserved": 0, "lon": -77.03806083333333}, {"fusion_lat": 0.0, "name": "dbf6a8d38cf829071a0f238bb15149bd", "is_disabled": 0, "rental_uris": {"android": "https://dc.lft.to/lastmile_qr_scan", "ios": "https://dc.lft.to/lastmile_qr_scan"}, "fusion_lon": 0.0, "lat": 38.885213666666665, "bike_id": "dbf6a8d38cf829071a0f238bb15149bd", "type": "electric_scooter", "is_reserved": 0, "lon": -76.997698}, {"fusion_lat": 0.0, "name": "2a311a855ba49aa5b8d4b68d89333301", "is_disabled": 0, "rental_uris": {"android": "https://dc.lft.to/lastmile_qr_scan", "ios": "https://dc.lft.to/lastmile_qr_scan"}, "fusion_lon": 0.0, "lat": 38.782681833333335, "bike_id": "2a311a855ba49aa5b8d4b68d89333301", "type": "electric_bike", "is_reserved": 0, "lon": -77.01610833333334}, {"fusion_lat": 0.0, "name": "e053108fb465d5088174df8cb3216120", "is_disabled": 0, "rental_uris": {"android": "https://dc.lft.to/lastmile_qr_scan", "ios": "https://dc.lft.to/lastmile_qr_scan"}, "fusion_lon": 0.0, "lat": 38.9172135, "bike_id": "e053108fb465d5088174df8cb3216120", "type": "electric_scooter", "is_reserved": 0, "lon": -77.029753}, {"fusion_lat": 0.0, "name": "277e8be1bf40e1a530951e6360f6e3cd", "is_disabled": 0, "rental_uris": {"android": "https://dc.lft.to/lastmile_qr_scan", "ios": "https://dc.lft.to/lastmile_qr_scan"}, "fusion_lon": 0.0, "lat": 38.96490033333333, "bike_id": "277e8be1bf40e1a530951e6360f6e3cd", "type": "electric_bike", "is_reserved": 0, "lon": -77.10719166666667}, {"fusion_lat": 0.0, "name": "d80f0facf2cec86f217c1000a21f2a4a", "is_disabled": 0, "rental_uris": {"android": "https://dc.lft.to/lastmile_qr_scan", "ios": "https://dc.lft.to/lastmile_qr_scan"}, "fusion_lon": 0.0, "lat": 38.9290575, "bike_id": "d80f0facf2cec86f217c1000a21f2a4a", "type": "electric_scooter", "is_reserved": 0, "lon": -77.021435}, {"fusion_lat": 0.0, "name": "605c60d0667925fc922829b6c5518061", "is_disabled": 0, "rental_uris": {"android": "https://dc.lft.to/lastmile_qr_scan", "ios": "https://dc.lft.to/lastmile_qr_scan"}, "fusion_lon": 0.0, "lat": 38.914354333333335, "bike_id": "605c60d0667925fc922829b6c5518061", "type": "electric_scooter", "is_reserved": 0, "lon": -76.99353983333333}, {"fusion_lat": 0.0, "name": "6528c5bd540eae010256c72a24725a9f", "is_disabled": 0, "rental_uris": {"android": "https://dc.lft.to/lastmile_qr_scan", "ios": "https://dc.lft.to/lastmile_qr_scan"}, "fusion_lon": 0.0, "lat": 38.900417833333336, "bike_id": "6528c5bd540eae010256c72a24725a9f", "type": "electric_scooter", "is_reserved": 0, "lon": -77.0352385}, {"fusion_lat": 0.0, "name": "822c9abc12229eaf89707f07059e30ea", "is_disabled": 0, "rental_uris": {"android": "https://dc.lft.to/lastmile_qr_scan", "ios": "https://dc.lft.to/lastmile_qr_scan"}, "fusion_lon": 0.0, "lat": 38.84054916666667, "bike_id": "822c9abc12229eaf89707f07059e30ea", "type": "electric_scooter", "is_reserved": 0, "lon": -76.9766905}, {"fusion_lat": 0.0, "name": "a61f0f5f5f01851be15349d99f6a3c8a", "is_disabled": 0, "rental_uris": {"android": "https://dc.lft.to/lastmile_qr_scan", "ios": "https://dc.lft.to/lastmile_qr_scan"}, "fusion_lon": 0.0, "lat": 38.8984205, "bike_id": "a61f0f5f5f01851be15349d99f6a3c8a", "type": "electric_scooter", "is_reserved": 0, "lon": -77.02426}, {"fusion_lat": 0.0, "name": "4ce7312b5053c8d06e51455a579ef8f6", "is_disabled": 0, "rental_uris": {"android": "https://dc.lft.to/lastmile_qr_scan", "ios": "https://dc.lft.to/lastmile_qr_scan"}, "fusion_lon": 0.0, "lat": 38.90208916666667, "bike_id": "4ce7312b5053c8d06e51455a579ef8f6", "type": "electric_scooter", "is_reserved": 0, "lon": -77.02204766666667}, {"fusion_lat": 0.0, "name": "3de4e25a0de658d8153b59e1634d8433", "is_disabled": 0, "rental_uris": {"android": "https://dc.lft.to/lastmile_qr_scan", "ios": "https://dc.lft.to/lastmile_qr_scan"}, "fusion_lon": 0.0, "lat": 38.906878166666665, "bike_id": "3de4e25a0de658d8153b59e1634d8433", "type": "electric_scooter", "is_reserved": 0, "lon": -77.03587716666667}, {"fusion_lat": 0.0, "name": "7155421069a1cdefec96a56c8ed28433", "is_disabled": 0, "rental_uris": {"android": "https://dc.lft.to/lastmile_qr_scan", "ios": "https://dc.lft.to/lastmile_qr_scan"}, "fusion_lon": 0.0, "lat": 38.962057, "bike_id": "7155421069a1cdefec96a56c8ed28433", "type": "electric_scooter", "is_reserved": 0, "lon": -77.02232966666666}, {"fusion_lat": 0.0, "name": "1cb9deddadda5e6c2e3c368d53674227", "is_disabled": 0, "rental_uris": {"android": "https://dc.lft.to/lastmile_qr_scan", "ios": "https://dc.lft.to/lastmile_qr_scan"}, "fusion_lon": 0.0, "lat": 38.922099, "bike_id": "1cb9deddadda5e6c2e3c368d53674227", "type": "electric_scooter", "is_reserved": 0, "lon": -77.01815216666667}, {"fusion_lat": 0.0, "name": "45bf36bf64128b25b1f889d6aa4d84c7", "is_disabled": 0, "rental_uris": {"android": "https://dc.lft.to/lastmile_qr_scan", "ios": "https://dc.lft.to/lastmile_qr_scan"}, "fusion_lon": 0.0, "lat": 38.907421, "bike_id": "45bf36bf64128b25b1f889d6aa4d84c7", "type": "electric_scooter", "is_reserved": 0, "lon": -77.041601}, {"fusion_lat": 0.0, "name": "941a1a669ba58df061567653a187a57a", "is_disabled": 0, "rental_uris": {"android": "https://dc.lft.to/lastmile_qr_scan", "ios": "https://dc.lft.to/lastmile_qr_scan"}, "fusion_lon": 0.0, "lat": 38.94183483333333, "bike_id": "941a1a669ba58df061567653a187a57a", "type": "electric_scooter", "is_reserved": 0, "lon": -77.02494766666666}, {"fusion_lat": 0.0, "name": "ce8e67c1ea4380f18470982dbe7eeb7d", "is_disabled": 0, "rental_uris": {"android": "https://dc.lft.to/lastmile_qr_scan", "ios": "https://dc.lft.to/lastmile_qr_scan"}, "fusion_lon": 0.0, "lat": 38.900629333333335, "bike_id": "ce8e67c1ea4380f18470982dbe7eeb7d", "type": "electric_scooter", "is_reserved": 0, "lon": -76.933854}, {"fusion_lat": 0.0, "name": "39b79a0fee28389ea4e2f5ddd1a1237b", "is_disabled": 0, "rental_uris": {"android": "https://dc.lft.to/lastmile_qr_scan", "ios": "https://dc.lft.to/lastmile_qr_scan"}, "fusion_lon": 0.0, "lat": 38.892209, "bike_id": "39b79a0fee28389ea4e2f5ddd1a1237b", "type": "electric_scooter", "is_reserved": 0, "lon": -77.0271025}, {"fusion_lat": 0.0, "name": "c3dae1863875d4228a580a7918e45bc7", "is_disabled": 0, "rental_uris": {"android": "https://dc.lft.to/lastmile_qr_scan", "ios": "https://dc.lft.to/lastmile_qr_scan"}, "fusion_lon": 0.0, "lat": 38.9426835, "bike_id": "c3dae1863875d4228a580a7918e45bc7", "type": "electric_bike", "is_reserved": 0, "lon": -76.985148}, {"fusion_lat": 0.0, "name": "7960e91d45d144b50c330b03271c8e6a", "is_disabled": 0, "rental_uris": {"android": "https://dc.lft.to/lastmile_qr_scan", "ios": "https://dc.lft.to/lastmile_qr_scan"}, "fusion_lon": 0.0, "lat": 38.90397133333333, "bike_id": "7960e91d45d144b50c330b03271c8e6a", "type": "electric_scooter", "is_reserved": 0, "lon": -77.06132116666667}, {"fusion_lat": 0.0, "name": "f970d240aea83889867789e43a391400", "is_disabled": 0, "rental_uris": {"android": "https://dc.lft.to/lastmile_qr_scan", "ios": "https://dc.lft.to/lastmile_qr_scan"}, "fusion_lon": 0.0, "lat": 38.895655166666664, "bike_id": "f970d240aea83889867789e43a391400", "type": "electric_bike", "is_reserved": 0, "lon": -77.12738433333334}, {"fusion_lat": 0.0, "name": "2c4e2549e474dfac4aec4b422b3d9259", "is_disabled": 0, "rental_uris": {"android": "https://dc.lft.to/lastmile_qr_scan", "ios": "https://dc.lft.to/lastmile_qr_scan"}, "fusion_lon": 0.0, "lat": 38.896066166666664, "bike_id": "2c4e2549e474dfac4aec4b422b3d9259", "type": "electric_scooter", "is_reserved": 0, "lon": -77.04975983333334}, {"fusion_lat": 0.0, "name": "aa30fcb995c8c31dee75104d79ef41ee", "is_disabled": 0, "rental_uris": {"android": "https://dc.lft.to/lastmile_qr_scan", "ios": "https://dc.lft.to/lastmile_qr_scan"}, "fusion_lon": 0.0, "lat": 38.937463, "bike_id": "aa30fcb995c8c31dee75104d79ef41ee", "type": "electric_scooter", "is_reserved": 0, "lon": -77.02524166666667}, {"fusion_lat": 0.0, "name": "2a30110aa43b0db3e68c09ab94f857ff", "is_disabled": 0, "rental_uris": {"android": "https://dc.lft.to/lastmile_qr_scan", "ios": "https://dc.lft.to/lastmile_qr_scan"}, "fusion_lon": 0.0, "lat": 38.91778333333333, "bike_id": "2a30110aa43b0db3e68c09ab94f857ff", "type": "electric_scooter", "is_reserved": 0, "lon": -77.040967}, {"fusion_lat": 0.0, "name": "408ce42ad1cf6bc3af4493a03e7b6cd7", "is_disabled": 0, "rental_uris": {"android": "https://dc.lft.to/lastmile_qr_scan", "ios": "https://dc.lft.to/lastmile_qr_scan"}, "fusion_lon": 0.0, "lat": 38.92310333333333, "bike_id": "408ce42ad1cf6bc3af4493a03e7b6cd7", "type": "electric_scooter", "is_reserved": 0, "lon": -77.0366225}, {"fusion_lat": 0.0, "name": "747c3b93eaf93905e3e5555dcb44491d", "is_disabled": 0, "rental_uris": {"android": "https://dc.lft.to/lastmile_qr_scan", "ios": "https://dc.lft.to/lastmile_qr_scan"}, "fusion_lon": 0.0, "lat": 38.91516883333333, "bike_id": "747c3b93eaf93905e3e5555dcb44491d", "type": "electric_scooter", "is_reserved": 0, "lon": -77.0269595}, {"fusion_lat": 0.0, "name": "510fb8627f4eb079568cec0843e55d93", "is_disabled": 0, "rental_uris": {"android": "https://dc.lft.to/lastmile_qr_scan", "ios": "https://dc.lft.to/lastmile_qr_scan"}, "fusion_lon": 0.0, "lat": 38.9452275, "bike_id": "510fb8627f4eb079568cec0843e55d93", "type": "electric_scooter", "is_reserved": 0, "lon": -77.02272133333334}, {"fusion_lat": 0.0, "name": "a369f9afec7973a2bd6a2dd9b9856be9", "is_disabled": 0, "rental_uris": {"android": "https://dc.lft.to/lastmile_qr_scan", "ios": "https://dc.lft.to/lastmile_qr_scan"}, "fusion_lon": 0.0, "lat": 38.87711016666667, "bike_id": "a369f9afec7973a2bd6a2dd9b9856be9", "type": "electric_scooter", "is_reserved": 0, "lon": -76.9938455}, {"fusion_lat": 0.0, "name": "4e6e02592d517255fa4aa50446cff02f", "is_disabled": 0, "rental_uris": {"android": "https://dc.lft.to/lastmile_qr_scan", "ios": "https://dc.lft.to/lastmile_qr_scan"}, "fusion_lon": 0.0, "lat": 38.93509916666667, "bike_id": "4e6e02592d517255fa4aa50446cff02f", "type": "electric_scooter", "is_reserved": 0, "lon": -77.07351433333334}, {"fusion_lat": 0.0, "name": "c95d2ede437976c8f6de044320854298", "is_disabled": 0, "rental_uris": {"android": "https://dc.lft.to/lastmile_qr_scan", "ios": "https://dc.lft.to/lastmile_qr_scan"}, "fusion_lon": 0.0, "lat": 38.8934595, "bike_id": "c95d2ede437976c8f6de044320854298", "type": "electric_scooter", "is_reserved": 0, "lon": -76.94820516666667}, {"fusion_lat": 0.0, "name": "b948f1f22012a3b1f131e22d47b56192", "is_disabled": 0, "rental_uris": {"android": "https://dc.lft.to/lastmile_qr_scan", "ios": "https://dc.lft.to/lastmile_qr_scan"}, "fusion_lon": 0.0, "lat": 38.9265475, "bike_id": "b948f1f22012a3b1f131e22d47b56192", "type": "electric_scooter", "is_reserved": 0, "lon": -77.03707366666667}, {"fusion_lat": 0.0, "name": "5f4dfb29fba9eed9d88aba099e32ba90", "is_disabled": 0, "rental_uris": {"android": "https://dc.lft.to/lastmile_qr_scan", "ios": "https://dc.lft.to/lastmile_qr_scan"}, "fusion_lon": 0.0, "lat": 38.983904333333335, "bike_id": "5f4dfb29fba9eed9d88aba099e32ba90", "type": "electric_scooter", "is_reserved": 0, "lon": -77.0263275}, {"fusion_lat": 0.0, "name": "ba81eee79e72c33fd0a89bc07349a2bc", "is_disabled": 0, "rental_uris": {"android": "https://dc.lft.to/lastmile_qr_scan", "ios": "https://dc.lft.to/lastmile_qr_scan"}, "fusion_lon": 0.0, "lat": 38.891927, "bike_id": "ba81eee79e72c33fd0a89bc07349a2bc", "type": "electric_scooter", "is_reserved": 0, "lon": -77.02251783333334}, {"fusion_lat": 0.0, "name": "16dbaa9ad7ab15a48209fe4fc7cb1063", "is_disabled": 0, "rental_uris": {"android": "https://dc.lft.to/lastmile_qr_scan", "ios": "https://dc.lft.to/lastmile_qr_scan"}, "fusion_lon": 0.0, "lat": 38.91821783333333, "bike_id": "16dbaa9ad7ab15a48209fe4fc7cb1063", "type": "electric_scooter", "is_reserved": 0, "lon": -77.03137683333334}, {"fusion_lat": 0.0, "name": "04f0f2a0c9731cceff18e6a14e19479b", "is_disabled": 0, "rental_uris": {"android": "https://dc.lft.to/lastmile_qr_scan", "ios": "https://dc.lft.to/lastmile_qr_scan"}, "fusion_lon": 0.0, "lat": 38.9233975, "bike_id": "04f0f2a0c9731cceff18e6a14e19479b", "type": "electric_scooter", "is_reserved": 0, "lon": -77.03486816666667}, {"fusion_lat": 0.0, "name": "b5a12e3947b80a6a8e45b8bb2fdc2ef9", "is_disabled": 0, "rental_uris": {"android": "https://dc.lft.to/lastmile_qr_scan", "ios": "https://dc.lft.to/lastmile_qr_scan"}, "fusion_lon": 0.0, "lat": 38.98815833333333, "bike_id": "b5a12e3947b80a6a8e45b8bb2fdc2ef9", "type": "electric_bike", "is_reserved": 0, "lon": -77.02653583333333}, {"fusion_lat": 0.0, "name": "45842a832a58fd79677da806263030f7", "is_disabled": 0, "rental_uris": {"android": "https://dc.lft.to/lastmile_qr_scan", "ios": "https://dc.lft.to/lastmile_qr_scan"}, "fusion_lon": 0.0, "lat": 38.930630666666666, "bike_id": "45842a832a58fd79677da806263030f7", "type": "electric_scooter", "is_reserved": 0, "lon": -77.03945116666667}, {"fusion_lat": 0.0, "name": "e50edae443976af524e991d363086969", "is_disabled": 0, "rental_uris": {"android": "https://dc.lft.to/lastmile_qr_scan", "ios": "https://dc.lft.to/lastmile_qr_scan"}, "fusion_lon": 0.0, "lat": 38.9009235, "bike_id": "e50edae443976af524e991d363086969", "type": "electric_bike", "is_reserved": 0, "lon": -77.05904133333334}, {"fusion_lat": 0.0, "name": "c9070720dfb00a4fc44289901210d758", "is_disabled": 0, "rental_uris": {"android": "https://dc.lft.to/lastmile_qr_scan", "ios": "https://dc.lft.to/lastmile_qr_scan"}, "fusion_lon": 0.0, "lat": 38.927943166666665, "bike_id": "c9070720dfb00a4fc44289901210d758", "type": "electric_scooter", "is_reserved": 0, "lon": -76.955557}, {"fusion_lat": 0.0, "name": "5e042a2cd660a4137196bbe9618d4682", "is_disabled": 0, "rental_uris": {"android": "https://dc.lft.to/lastmile_qr_scan", "ios": "https://dc.lft.to/lastmile_qr_scan"}, "fusion_lon": 0.0, "lat": 38.904853, "bike_id": "5e042a2cd660a4137196bbe9618d4682", "type": "electric_scooter", "is_reserved": 0, "lon": -76.9495985}, {"fusion_lat": 0.0, "name": "dde8141149687aeb7100d083fecdccca", "is_disabled": 0, "rental_uris": {"android": "https://dc.lft.to/lastmile_qr_scan", "ios": "https://dc.lft.to/lastmile_qr_scan"}, "fusion_lon": 0.0, "lat": 38.9240445, "bike_id": "dde8141149687aeb7100d083fecdccca", "type": "electric_scooter", "is_reserved": 0, "lon": -77.042779}, {"fusion_lat": 0.0, "name": "e86f95bb09c4703e831b3c0ba10b4df7", "is_disabled": 0, "rental_uris": {"android": "https://dc.lft.to/lastmile_qr_scan", "ios": "https://dc.lft.to/lastmile_qr_scan"}, "fusion_lon": 0.0, "lat": 38.900804, "bike_id": "e86f95bb09c4703e831b3c0ba10b4df7", "type": "electric_scooter", "is_reserved": 0, "lon": -77.0215745}, {"fusion_lat": 0.0, "name": "ed13c1b09e55d874ec95e32745a954e2", "is_disabled": 0, "rental_uris": {"android": "https://dc.lft.to/lastmile_qr_scan", "ios": "https://dc.lft.to/lastmile_qr_scan"}, "fusion_lon": 0.0, "lat": 38.926023, "bike_id": "ed13c1b09e55d874ec95e32745a954e2", "type": "electric_scooter", "is_reserved": 0, "lon": -77.02156333333333}, {"fusion_lat": 0.0, "name": "d194179362bc64e9b9d5f0c405e73018", "is_disabled": 0, "rental_uris": {"android": "https://dc.lft.to/lastmile_qr_scan", "ios": "https://dc.lft.to/lastmile_qr_scan"}, "fusion_lon": 0.0, "lat": 38.9076415, "bike_id": "d194179362bc64e9b9d5f0c405e73018", "type": "electric_scooter", "is_reserved": 0, "lon": -77.062303}, {"fusion_lat": 0.0, "name": "64cf22ecc31631ea3e2a0e7e9dc567b9", "is_disabled": 0, "rental_uris": {"android": "https://dc.lft.to/lastmile_qr_scan", "ios": "https://dc.lft.to/lastmile_qr_scan"}, "fusion_lon": 0.0, "lat": 38.94921516666667, "bike_id": "64cf22ecc31631ea3e2a0e7e9dc567b9", "type": "electric_scooter", "is_reserved": 0, "lon": -77.01859866666666}, {"fusion_lat": 0.0, "name": "7928837af76c3e674abc8c064e29670c", "is_disabled": 0, "rental_uris": {"android": "https://dc.lft.to/lastmile_qr_scan", "ios": "https://dc.lft.to/lastmile_qr_scan"}, "fusion_lon": 0.0, "lat": 38.8982015, "bike_id": "7928837af76c3e674abc8c064e29670c", "type": "electric_scooter", "is_reserved": 0, "lon": -77.02634633333334}, {"fusion_lat": 0.0, "name": "575683a329dadc060c827dd58be1e141", "is_disabled": 0, "rental_uris": {"android": "https://dc.lft.to/lastmile_qr_scan", "ios": "https://dc.lft.to/lastmile_qr_scan"}, "fusion_lon": 0.0, "lat": 38.892195666666666, "bike_id": "575683a329dadc060c827dd58be1e141", "type": "electric_scooter", "is_reserved": 0, "lon": -77.026915}, {"fusion_lat": 0.0, "name": "43b827b8bc6eef31e26c57528c61ce9e", "is_disabled": 0, "rental_uris": {"android": "https://dc.lft.to/lastmile_qr_scan", "ios": "https://dc.lft.to/lastmile_qr_scan"}, "fusion_lon": 0.0, "lat": 38.948459166666666, "bike_id": "43b827b8bc6eef31e26c57528c61ce9e", "type": "electric_scooter", "is_reserved": 0, "lon": -77.079828}, {"fusion_lat": 0.0, "name": "71cab527d60fa2f06891445ddac67947", "is_disabled": 0, "rental_uris": {"android": "https://dc.lft.to/lastmile_qr_scan", "ios": "https://dc.lft.to/lastmile_qr_scan"}, "fusion_lon": 0.0, "lat": 38.8955265, "bike_id": "71cab527d60fa2f06891445ddac67947", "type": "electric_scooter", "is_reserved": 0, "lon": -77.01112766666667}, {"fusion_lat": 0.0, "name": "7e8fe3e8cc9f876b7a63b7d5faa9d810", "is_disabled": 0, "rental_uris": {"android": "https://dc.lft.to/lastmile_qr_scan", "ios": "https://dc.lft.to/lastmile_qr_scan"}, "fusion_lon": 0.0, "lat": 38.905225, "bike_id": "7e8fe3e8cc9f876b7a63b7d5faa9d810", "type": "electric_scooter", "is_reserved": 0, "lon": -77.06383116666666}, {"fusion_lat": 0.0, "name": "396b9f55f863d97fa1994f0c0792277e", "is_disabled": 0, "rental_uris": {"android": "https://dc.lft.to/lastmile_qr_scan", "ios": "https://dc.lft.to/lastmile_qr_scan"}, "fusion_lon": 0.0, "lat": 38.85769466666667, "bike_id": "396b9f55f863d97fa1994f0c0792277e", "type": "electric_bike", "is_reserved": 0, "lon": -76.98768}, {"fusion_lat": 0.0, "name": "03c11d9831448fdaf1b5803da6d2db18", "is_disabled": 0, "rental_uris": {"android": "https://dc.lft.to/lastmile_qr_scan", "ios": "https://dc.lft.to/lastmile_qr_scan"}, "fusion_lon": 0.0, "lat": 38.91697766666667, "bike_id": "03c11d9831448fdaf1b5803da6d2db18", "type": "electric_scooter", "is_reserved": 0, "lon": -77.01237033333334}, {"fusion_lat": 0.0, "name": "d47fadf9a68e6468cb8fd9b13015bd7f", "is_disabled": 0, "rental_uris": {"android": "https://dc.lft.to/lastmile_qr_scan", "ios": "https://dc.lft.to/lastmile_qr_scan"}, "fusion_lon": 0.0, "lat": 38.883923833333334, "bike_id": "d47fadf9a68e6468cb8fd9b13015bd7f", "type": "electric_scooter", "is_reserved": 0, "lon": -76.9304585}, {"fusion_lat": 0.0, "name": "7ffaea1f992a0fadc72ec173995a19ef", "is_disabled": 0, "rental_uris": {"android": "https://dc.lft.to/lastmile_qr_scan", "ios": "https://dc.lft.to/lastmile_qr_scan"}, "fusion_lon": 0.0, "lat": 38.940874666666666, "bike_id": "7ffaea1f992a0fadc72ec173995a19ef", "type": "electric_scooter", "is_reserved": 0, "lon": -77.06181883333333}, {"fusion_lat": 0.0, "name": "f65e986895ee6cda9a2c29ca5ce84b2d", "is_disabled": 0, "rental_uris": {"android": "https://dc.lft.to/lastmile_qr_scan", "ios": "https://dc.lft.to/lastmile_qr_scan"}, "fusion_lon": 0.0, "lat": 38.89727233333333, "bike_id": "f65e986895ee6cda9a2c29ca5ce84b2d", "type": "electric_scooter", "is_reserved": 0, "lon": -77.0552415}, {"fusion_lat": 0.0, "name": "31cbaa5e7e3a945dbe2126d18cca7566", "is_disabled": 0, "rental_uris": {"android": "https://dc.lft.to/lastmile_qr_scan", "ios": "https://dc.lft.to/lastmile_qr_scan"}, "fusion_lon": 0.0, "lat": 38.913324833333334, "bike_id": "31cbaa5e7e3a945dbe2126d18cca7566", "type": "electric_scooter", "is_reserved": 0, "lon": -77.039813}, {"fusion_lat": 0.0, "name": "07971762a40f7beaac8f7696ba07c106", "is_disabled": 0, "rental_uris": {"android": "https://dc.lft.to/lastmile_qr_scan", "ios": "https://dc.lft.to/lastmile_qr_scan"}, "fusion_lon": 0.0, "lat": 38.85702033333333, "bike_id": "07971762a40f7beaac8f7696ba07c106", "type": "electric_scooter", "is_reserved": 0, "lon": -76.99592833333334}, {"fusion_lat": 0.0, "name": "fc47c8499867eff7c5155f9017a5f823", "is_disabled": 0, "rental_uris": {"android": "https://dc.lft.to/lastmile_qr_scan", "ios": "https://dc.lft.to/lastmile_qr_scan"}, "fusion_lon": 0.0, "lat": 38.900426, "bike_id": "fc47c8499867eff7c5155f9017a5f823", "type": "electric_scooter", "is_reserved": 0, "lon": -77.03212083333334}, {"fusion_lat": 0.0, "name": "d7080ed6947aeebed8bf600ff2f5ee0e", "is_disabled": 0, "rental_uris": {"android": "https://dc.lft.to/lastmile_qr_scan", "ios": "https://dc.lft.to/lastmile_qr_scan"}, "fusion_lon": 0.0, "lat": 38.9178005, "bike_id": "d7080ed6947aeebed8bf600ff2f5ee0e", "type": "electric_scooter", "is_reserved": 0, "lon": -77.023144}, {"fusion_lat": 0.0, "name": "99c574b26e5953fb9914edcb5d22c24c", "is_disabled": 0, "rental_uris": {"android": "https://dc.lft.to/lastmile_qr_scan", "ios": "https://dc.lft.to/lastmile_qr_scan"},