{"data": {"bikes": [{"is_reserved": 0, "fusion_lon": 0.0, "fusion_lat": 0.0, "name": "831c8616a0d6134647bb08b2680f03ce", "type": "electric_scooter", "is_disabled": 0, "lat": 38.89221116666667, "rental_uris": {"android": "https://dc.lft.to/lastmile_qr_scan", "ios": "https://dc.lft.to/lastmile_qr_scan"}, "bike_id": "831c8616a0d6134647bb08b2680f03ce", "lon": -77.04263933333333}, {"is_reserved": 0, "fusion_lon": 0.0, "fusion_lat": 0.0, "name": "986516b40933038759ba89ec758f662f", "type": "electric_scooter", "is_disabled": 0, "lat": 38.920063999999996, "rental_uris": {"android": "https://dc.lft.to/lastmile_qr_scan", "ios": "https://dc.lft.to/lastmile_qr_scan"}, "bike_id": "986516b40933038759ba89ec758f662f", "lon": -77.02172383333334}, {"is_reserved": 0, "fusion_lon": 0.0, "fusion_lat": 0.0, "name": "dd04351ccff164175209caa782c95ed9", "type": "electric_scooter", "is_disabled": 0, "lat": 38.93960766666667, "rental_uris": {"android": "https://dc.lft.to/lastmile_qr_scan", "ios": "https://dc.lft.to/lastmile_qr_scan"}, "bike_id": "dd04351ccff164175209caa782c95ed9", "lon": -77.02754066666667}, {"is_reserved": 0, "fusion_lon": 0.0, "fusion_lat": 0.0, "name": "0407d4debaf4fd5bea9ca29226279318", "type": "electric_scooter", "is_disabled": 0, "lat": 38.936736333333336, "rental_uris": {"android": "https://dc.lft.to/lastmile_qr_scan", "ios": "https://dc.lft.to/lastmile_qr_scan"}, "bike_id": "0407d4debaf4fd5bea9ca29226279318", "lon": -77.03636916666666}, {"is_reserved": 0, "fusion_lon": 0.0, "fusion_lat": 0.0, "name": "85c05ce551747aab673793865ce61970", "type": "electric_scooter", "is_disabled": 0, "lat": 38.9154235, "rental_uris": {"android": "https://dc.lft.to/lastmile_qr_scan", "ios": "https://dc.lft.to/lastmile_qr_scan"}, "bike_id": "85c05ce551747aab673793865ce61970", "lon": -77.01271766666666}, {"is_reserved": 0, "fusion_lon": 0.0, "fusion_lat": 0.0, "name": "9c30d28c735c9c39da9ab71fbc927149", "type": "electric_scooter", "is_disabled": 0, "lat": 38.8858635, "rental_uris": {"android": "https://dc.lft.to/lastmile_qr_scan", "ios": "https://dc.lft.to/lastmile_qr_scan"}, "bike_id": "9c30d28c735c9c39da9ab71fbc927149", "lon": -76.99622466666666}, {"is_reserved": 0, "fusion_lon": 0.0, "fusion_lat": 0.0, "name": "7ace73f2584fda12ab3d3a59db09a1f4", "type": "electric_scooter", "is_disabled": 0, "lat": 38.86505966666667, "rental_uris": {"android": "https://dc.lft.to/lastmile_qr_scan", "ios": "https://dc.lft.to/lastmile_qr_scan"}, "bike_id": "7ace73f2584fda12ab3d3a59db09a1f4", "lon": -76.99000533333333}, {"is_reserved": 0, "fusion_lon": 0.0, "fusion_lat": 0.0, "name": "e7f5c148a193f664efb2f51a2671beca", "type": "electric_scooter", "is_disabled": 0, "lat": 38.9073505, "rental_uris": {"android": "https://dc.lft.to/lastmile_qr_scan", "ios": "https://dc.lft.to/lastmile_qr_scan"}, "bike_id": "e7f5c148a193f664efb2f51a2671beca", "lon": -77.02690233333334}, {"is_reserved": 0, "fusion_lon": 0.0, "fusion_lat": 0.0, "name": "e695864ba1ee1132cc97eb5b6f9c7d74", "type": "electric_scooter", "is_disabled": 0, "lat": 38.935407833333336, "rental_uris": {"android": "https://dc.lft.to/lastmile_qr_scan", "ios": "https://dc.lft.to/lastmile_qr_scan"}, "bike_id": "e695864ba1ee1132cc97eb5b6f9c7d74", "lon": -77.05750166666667}, {"is_reserved": 0, "fusion_lon": 0.0, "fusion_lat": 0.0, "name": "574c2f27a391c96ab94628d28e524000", "type": "electric_scooter", "is_disabled": 0, "lat": 38.891006833333336, "rental_uris": {"android": "https://dc.lft.to/lastmile_qr_scan", "ios": "https://dc.lft.to/lastmile_qr_scan"}, "bike_id": "574c2f27a391c96ab94628d28e524000", "lon": -77.002851}, {"is_reserved": 0, "fusion_lon": 0.0, "fusion_lat": 0.0, "name": "4992181a7b0f60af4304fb9bfaed5026", "type": "electric_scooter", "is_disabled": 0, "lat": 38.92266683333333, "rental_uris": {"android": "https://dc.lft.to/lastmile_qr_scan", "ios": "https://dc.lft.to/lastmile_qr_scan"}, "bike_id": "4992181a7b0f60af4304fb9bfaed5026", "lon": -77.02967433333333}, {"is_reserved": 0, "fusion_lon": 0.0, "fusion_lat": 0.0, "name": "cc0578064982e74f52c1ef4fec1be2cd", "type": "electric_scooter", "is_disabled": 0, "lat": 38.92342933333333, "rental_uris": {"android": "https://dc.lft.to/lastmile_qr_scan", "ios": "https://dc.lft.to/lastmile_qr_scan"}, "bike_id": "cc0578064982e74f52c1ef4fec1be2cd", "lon": -77.04789366666667}, {"is_reserved": 0, "fusion_lon": 0.0, "fusion_lat": 0.0, "name": "cfdb246576ab3f158bf6d3c7fdd5f2cd", "type": "electric_scooter", "is_disabled": 0, "lat": 38.87822366666666, "rental_uris": {"android": "https://dc.lft.to/lastmile_qr_scan", "ios": "https://dc.lft.to/lastmile_qr_scan"}, "bike_id": "cfdb246576ab3f158bf6d3c7fdd5f2cd", "lon": -76.9310005}, {"is_reserved": 0, "fusion_lon": 0.0, "fusion_lat": 0.0, "name": "fa9d2ab25acd44ce477ab47f5181bf6c", "type": "electric_scooter", "is_disabled": 0, "lat": 38.9140595, "rental_uris": {"android": "https://dc.lft.to/lastmile_qr_scan", "ios": "https://dc.lft.to/lastmile_qr_scan"}, "bike_id": "fa9d2ab25acd44ce477ab47f5181bf6c", "lon": -77.041847}, {"is_reserved": 0, "fusion_lon": 0.0, "fusion_lat": 0.0, "name": "cb706e68f39eb4fa3c4237676bb23f6e", "type": "electric_scooter", "is_disabled": 0, "lat": 38.91300016666667, "rental_uris": {"android": "https://dc.lft.to/lastmile_qr_scan", "ios": "https://dc.lft.to/lastmile_qr_scan"}, "bike_id": "cb706e68f39eb4fa3c4237676bb23f6e", "lon": -76.98473716666666}, {"is_reserved": 0, "fusion_lon": 0.0, "fusion_lat": 0.0, "name": "ef230d8fd99aad17ace9c4816f62f499", "type": "electric_scooter", "is_disabled": 0, "lat": 38.86425766666667, "rental_uris": {"android": "https://dc.lft.to/lastmile_qr_scan", "ios": "https://dc.lft.to/lastmile_qr_scan"}, "bike_id": "ef230d8fd99aad17ace9c4816f62f499", "lon": -77.012158}, {"is_reserved": 0, "fusion_lon": 0.0, "fusion_lat": 0.0, "name": "d13bc0e0a802b7141a4ffae537c7b5e2", "type": "electric_scooter", "is_disabled": 0, "lat": 38.90436583333333, "rental_uris": {"android": "https://dc.lft.to/lastmile_qr_scan", "ios": "https://dc.lft.to/lastmile_qr_scan"}, "bike_id": "d13bc0e0a802b7141a4ffae537c7b5e2", "lon": -77.02594333333333}, {"is_reserved": 0, "fusion_lon": 0.0, "fusion_lat": 0.0, "name": "ae3eaff66c210979eb35900f3e524ff8", "type": "electric_scooter", "is_disabled": 0, "lat": 38.917461333333335, "rental_uris": {"android": "https://dc.lft.to/lastmile_qr_scan", "ios": "https://dc.lft.to/lastmile_qr_scan"}, "bike_id": "ae3eaff66c210979eb35900f3e524ff8", "lon": -77.01084866666666}, {"is_reserved": 0, "fusion_lon": 0.0, "fusion_lat": 0.0, "name": "14e6b589b3daaf02d2a804e983468571", "type": "electric_scooter", "is_disabled": 0, "lat": 38.88585716666667, "rental_uris": {"android": "https://dc.lft.to/lastmile_qr_scan", "ios": "https://dc.lft.to/lastmile_qr_scan"}, "bike_id": "14e6b589b3daaf02d2a804e983468571", "lon": -76.92988166666666}, {"is_reserved": 0, "fusion_lon": 0.0, "fusion_lat": 0.0, "name": "5042074a280023b400a187de6100fd65", "type": "electric_scooter", "is_disabled": 0, "lat": 38.90076766666667, "rental_uris": {"android": "https://dc.lft.to/lastmile_qr_scan", "ios": "https://dc.lft.to/lastmile_qr_scan"}, "bike_id": "5042074a280023b400a187de6100fd65", "lon": -77.0020675}, {"is_reserved": 0, "fusion_lon": 0.0, "fusion_lat": 0.0, "name": "3ec10ee6a82f526b7a8108494774ccc1", "type": "electric_scooter", "is_disabled": 0, "lat": 38.927828833333336, "rental_uris": {"android": "https://dc.lft.to/lastmile_qr_scan", "ios": "https://dc.lft.to/lastmile_qr_scan"}, "bike_id": "3ec10ee6a82f526b7a8108494774ccc1", "lon": -77.027804}, {"is_reserved": 0, "fusion_lon": 0.0, "fusion_lat": 0.0, "name": "a4d7719245e0ac80c4ef343dc6f84035", "type": "electric_scooter", "is_disabled": 0, "lat": 38.90729266666666, "rental_uris": {"android": "https://dc.lft.to/lastmile_qr_scan", "ios": "https://dc.lft.to/lastmile_qr_scan"}, "bike_id": "a4d7719245e0ac80c4ef343dc6f84035", "lon": -77.0383125}, {"is_reserved": 0, "fusion_lon": 0.0, "fusion_lat": 0.0, "name": "cb031200bb7abdbbdd0b4af36d6f9879", "type": "electric_scooter", "is_disabled": 0, "lat": 38.90013666666667, "rental_uris": {"android": "https://dc.lft.to/lastmile_qr_scan", "ios": "https://dc.lft.to/lastmile_qr_scan"}, "bike_id": "cb031200bb7abdbbdd0b4af36d6f9879", "lon": -76.98870533333333}, {"is_reserved": 0, "fusion_lon": 0.0, "fusion_lat": 0.0, "name": "8e30369240b4ed1c0d50bed54af60986", "type": "electric_scooter", "is_disabled": 0, "lat": 38.87354916666666, "rental_uris": {"android": "https://dc.lft.to/lastmile_qr_scan", "ios": "https://dc.lft.to/lastmile_qr_scan"}, "bike_id": "8e30369240b4ed1c0d50bed54af60986", "lon": -77.00597533333334}, {"is_reserved": 0, "fusion_lon": 0.0, "fusion_lat": 0.0, "name": "e934ec2892d4053b9800c0fc79da7b4a", "type": "electric_bike", "is_disabled": 0, "lat": 38.87639633333333, "rental_uris": {"android": "https://dc.lft.to/lastmile_qr_scan", "ios": "https://dc.lft.to/lastmile_qr_scan"}, "bike_id": "e934ec2892d4053b9800c0fc79da7b4a", "lon": -76.98866066666666}, {"is_reserved": 0, "fusion_lon": 0.0, "fusion_lat": 0.0, "name": "c336268ac063deb5f247efc4f61785ac", "type": "electric_scooter", "is_disabled": 0, "lat": 38.90292483333333, "rental_uris": {"android": "https://dc.lft.to/lastmile_qr_scan", "ios": "https://dc.lft.to/lastmile_qr_scan"}, "bike_id": "c336268ac063deb5f247efc4f61785ac", "lon": -77.033716}, {"is_reserved": 0, "fusion_lon": 0.0, "fusion_lat": 0.0, "name": "6d7ff959ba0c9af012d6d22e708fe607", "type": "electric_scooter", "is_disabled": 0, "lat": 38.916976166666664, "rental_uris": {"android": "https://dc.lft.to/lastmile_qr_scan", "ios": "https://dc.lft.to/lastmile_qr_scan"}, "bike_id": "6d7ff959ba0c9af012d6d22e708fe607", "lon": -77.04198966666667}, {"is_reserved": 0, "fusion_lon": 0.0, "fusion_lat": 0.0, "name": "6fbafe39dbdf2d4ed69199bbb3633cef", "type": "electric_scooter", "is_disabled": 0, "lat": 38.9611045, "rental_uris": {"android": "https://dc.lft.to/lastmile_qr_scan", "ios": "https://dc.lft.to/lastmile_qr_scan"}, "bike_id": "6fbafe39dbdf2d4ed69199bbb3633cef", "lon": -77.0095055}, {"is_reserved": 0, "fusion_lon": 0.0, "fusion_lat": 0.0, "name": "4230fdec532ac41acf4f4defe4a752c9", "type": "electric_scooter", "is_disabled": 0, "lat": 38.900713333333336, "rental_uris": {"android": "https://dc.lft.to/lastmile_qr_scan", "ios": "https://dc.lft.to/lastmile_qr_scan"}, "bike_id": "4230fdec532ac41acf4f4defe4a752c9", "lon": -77.04835116666666}, {"is_reserved": 0, "fusion_lon": 0.0, "fusion_lat": 0.0, "name": "1b4bfdf96d71f4dca116a347947f3b73", "type": "electric_scooter", "is_disabled": 0, "lat": 38.936746666666664, "rental_uris": {"android": "https://dc.lft.to/lastmile_qr_scan", "ios": "https://dc.lft.to/lastmile_qr_scan"}, "bike_id": "1b4bfdf96d71f4dca116a347947f3b73", "lon": -77.03636866666666}, {"is_reserved": 0, "fusion_lon": 0.0, "fusion_lat": 0.0, "name": "4a856fdd58b460825c4c045ed7bf56f0", "type": "electric_scooter", "is_disabled": 0, "lat": 38.919200833333335, "rental_uris": {"android": "https://dc.lft.to/lastmile_qr_scan", "ios": "https://dc.lft.to/lastmile_qr_scan"}, "bike_id": "4a856fdd58b460825c4c045ed7bf56f0", "lon": -77.0480625}, {"is_reserved": 0, "fusion_lon": 0.0, "fusion_lat": 0.0, "name": "cc71e0f95480f094ec5580e3850e754a", "type": "electric_scooter", "is_disabled": 0, "lat": 38.90417883333333, "rental_uris": {"android": "https://dc.lft.to/lastmile_qr_scan", "ios": "https://dc.lft.to/lastmile_qr_scan"}, "bike_id": "cc71e0f95480f094ec5580e3850e754a", "lon": -77.029585}, {"is_reserved": 0, "fusion_lon": 0.0, "fusion_lat": 0.0, "name": "040f522eb3c811257693333543ebbbb3", "type": "electric_scooter", "is_disabled": 0, "lat": 38.911219333333335, "rental_uris": {"android": "https://dc.lft.to/lastmile_qr_scan", "ios": "https://dc.lft.to/lastmile_qr_scan"}, "bike_id": "040f522eb3c811257693333543ebbbb3", "lon": -77.03835}, {"is_reserved": 0, "fusion_lon": 0.0, "fusion_lat": 0.0, "name": "76e9b2fcf1493462352139b4093394f7", "type": "electric_scooter", "is_disabled": 0, "lat": 38.88320233333334, "rental_uris": {"android": "https://dc.lft.to/lastmile_qr_scan", "ios": "https://dc.lft.to/lastmile_qr_scan"}, "bike_id": "76e9b2fcf1493462352139b4093394f7", "lon": -77.01764833333333}, {"is_reserved": 0, "fusion_lon": 0.0, "fusion_lat": 0.0, "name": "ebd3c9930f89fb0ceba19a887364a9a2", "type": "electric_scooter", "is_disabled": 0, "lat": 38.91709083333333, "rental_uris": {"android": "https://dc.lft.to/lastmile_qr_scan", "ios": "https://dc.lft.to/lastmile_qr_scan"}, "bike_id": "ebd3c9930f89fb0ceba19a887364a9a2", "lon": -77.03472366666666}, {"is_reserved": 0, "fusion_lon": 0.0, "fusion_lat": 0.0, "name": "893ca47dcf53f9fa1101961d3547764f", "type": "electric_bike", "is_disabled": 0, "lat": 38.87989233333333, "rental_uris": {"android": "https://dc.lft.to/lastmile_qr_scan", "ios": "https://dc.lft.to/lastmile_qr_scan"}, "bike_id": "893ca47dcf53f9fa1101961d3547764f", "lon": -76.91604416666667}, {"is_reserved": 0, "fusion_lon": 0.0, "fusion_lat": 0.0, "name": "3559c5109ff6688c44f8abf893dd3de1", "type": "electric_scooter", "is_disabled": 0, "lat": 38.9058145, "rental_uris": {"android": "https://dc.lft.to/lastmile_qr_scan", "ios": "https://dc.lft.to/lastmile_qr_scan"}, "bike_id": "3559c5109ff6688c44f8abf893dd3de1", "lon": -77.00884416666666}, {"is_reserved": 0, "fusion_lon": 0.0, "fusion_lat": 0.0, "name": "74f37f25baef72f2e6ac9b670088c4c1", "type": "electric_scooter", "is_disabled": 0, "lat": 38.9233045, "rental_uris": {"android": "https://dc.lft.to/lastmile_qr_scan", "ios": "https://dc.lft.to/lastmile_qr_scan"}, "bike_id": "74f37f25baef72f2e6ac9b670088c4c1", "lon": -76.999134}, {"is_reserved": 0, "fusion_lon": 0.0, "fusion_lat": 0.0, "name": "0fdc09473310bf6d1f29d47e465d0c65", "type": "electric_scooter", "is_disabled": 0, "lat": 38.8802795, "rental_uris": {"android": "https://dc.lft.to/lastmile_qr_scan", "ios": "https://dc.lft.to/lastmile_qr_scan"}, "bike_id": "0fdc09473310bf6d1f29d47e465d0c65", "lon": -76.98486466666667}, {"is_reserved": 0, "fusion_lon": 0.0, "fusion_lat": 0.0, "name": "8ff6892e9001650f7375f0306d016764", "type": "electric_scooter", "is_disabled": 0, "lat": 38.91889616666667, "rental_uris": {"android": "https://dc.lft.to/lastmile_qr_scan", "ios": "https://dc.lft.to/lastmile_qr_scan"}, "bike_id": "8ff6892e9001650f7375f0306d016764", "lon": -77.034908}, {"is_reserved": 0, "fusion_lon": 0.0, "fusion_lat": 0.0, "name": "3b6e88a397cb13ca19f53cfee8355b15", "type": "electric_scooter", "is_disabled": 0, "lat": 38.9097995, "rental_uris": {"android": "https://dc.lft.to/lastmile_qr_scan", "ios": "https://dc.lft.to/lastmile_qr_scan"}, "bike_id": "3b6e88a397cb13ca19f53cfee8355b15", "lon": -77.0318315}, {"is_reserved": 0, "fusion_lon": 0.0, "fusion_lat": 0.0, "name": "f85aabda2e8187f737ae0de69bbbc5fd", "type": "electric_scooter", "is_disabled": 0, "lat": 38.9065265, "rental_uris": {"android": "https://dc.lft.to/lastmile_qr_scan", "ios": "https://dc.lft.to/lastmile_qr_scan"}, "bike_id": "f85aabda2e8187f737ae0de69bbbc5fd", "lon": -77.0486425}, {"is_reserved": 0, "fusion_lon": 0.0, "fusion_lat": 0.0, "name": "b538a915a1fb1408b988931ddadaf34f", "type": "electric_scooter", "is_disabled": 0, "lat": 38.914221, "rental_uris": {"android": "https://dc.lft.to/lastmile_qr_scan", "ios": "https://dc.lft.to/lastmile_qr_scan"}, "bike_id": "b538a915a1fb1408b988931ddadaf34f", "lon": -77.02599033333334}, {"is_reserved": 0, "fusion_lon": 0.0, "fusion_lat": 0.0, "name": "a643b6837ea30f18c191366c19cb81e0", "type": "electric_scooter", "is_disabled": 0, "lat": 38.9038285, "rental_uris": {"android": "https://dc.lft.to/lastmile_qr_scan", "ios": "https://dc.lft.to/lastmile_qr_scan"}, "bike_id": "a643b6837ea30f18c191366c19cb81e0", "lon": -77.04187966666667}, {"is_reserved": 0, "fusion_lon": 0.0, "fusion_lat": 0.0, "name": "22c21a8dd422505e695a9e846a25b025", "type": "electric_scooter", "is_disabled": 0, "lat": 38.918229833333335, "rental_uris": {"android": "https://dc.lft.to/lastmile_qr_scan", "ios": "https://dc.lft.to/lastmile_qr_scan"}, "bike_id": "22c21a8dd422505e695a9e846a25b025", "lon": -77.02422433333334}, {"is_reserved": 0, "fusion_lon": 0.0, "fusion_lat": 0.0, "name": "26c28de8206a43634f383f388ad5207a", "type": "electric_scooter", "is_disabled": 0, "lat": 38.90332866666667, "rental_uris": {"android": "https://dc.lft.to/lastmile_qr_scan", "ios": "https://dc.lft.to/lastmile_qr_scan"}, "bike_id": "26c28de8206a43634f383f388ad5207a", "lon": -77.04351816666667}, {"is_reserved": 0, "fusion_lon": 0.0, "fusion_lat": 0.0, "name": "f8a4216ceef0e15e8528f4fa9b1fe9d3", "type": "electric_scooter", "is_disabled": 0, "lat": 38.93482083333333, "rental_uris": {"android": "https://dc.lft.to/lastmile_qr_scan", "ios": "https://dc.lft.to/lastmile_qr_scan"}, "bike_id": "f8a4216ceef0e15e8528f4fa9b1fe9d3", "lon": -77.05792666666666}, {"is_reserved": 0, "fusion_lon": 0.0, "fusion_lat": 0.0, "name": "74e2f18d339523c9a017e3e1d7d32f59", "type": "electric_scooter", "is_disabled": 0, "lat": 38.917094166666665, "rental_uris": {"android": "https://dc.lft.to/lastmile_qr_scan", "ios": "https://dc.lft.to/lastmile_qr_scan"}, "bike_id": "74e2f18d339523c9a017e3e1d7d32f59", "lon": -77.0347525}, {"is_reserved": 0, "fusion_lon": 0.0, "fusion_lat": 0.0, "name": "afc29e5eb712d7f862fa8bed8b738d70", "type": "electric_bike", "is_disabled": 0, "lat": 38.8772865, "rental_uris": {"android": "https://dc.lft.to/lastmile_qr_scan", "ios": "https://dc.lft.to/lastmile_qr_scan"}, "bike_id": "afc29e5eb712d7f862fa8bed8b738d70", "lon": -76.98107483333334}, {"is_reserved": 0, "fusion_lon": 0.0, "fusion_lat": 0.0, "name": "d80b73533cfbde47847ba1b2c0131dc3", "type": "electric_scooter", "is_disabled": 0, "lat": 38.907372333333335, "rental_uris": {"android": "https://dc.lft.to/lastmile_qr_scan", "ios": "https://dc.lft.to/lastmile_qr_scan"}, "bike_id": "d80b73533cfbde47847ba1b2c0131dc3", "lon": -77.03293883333333}, {"is_reserved": 0, "fusion_lon": 0.0, "fusion_lat": 0.0, "name": "1a1d6b0fd79116f4ab7dcf9d9c0579cb", "type": "electric_scooter", "is_disabled": 0, "lat": 38.905605333333334, "rental_uris": {"android": "https://dc.lft.to/lastmile_qr_scan", "ios": "https://dc.lft.to/lastmile_qr_scan"}, "bike_id": "1a1d6b0fd79116f4ab7dcf9d9c0579cb", "lon": -77.005951}, {"is_reserved": 0, "fusion_lon": 0.0, "fusion_lat": 0.0, "name": "4b0bed35e131dad4a183d67ec4d1cd45", "type": "electric_scooter", "is_disabled": 0, "lat": 38.86063216666667, "rental_uris": {"android": "https://dc.lft.to/lastmile_qr_scan", "ios": "https://dc.lft.to/lastmile_qr_scan"}, "bike_id": "4b0bed35e131dad4a183d67ec4d1cd45", "lon": -76.98423933333333}, {"is_reserved": 0, "fusion_lon": 0.0, "fusion_lat": 0.0, "name": "af3e8bfc60af1f2ac86bb55c5e102edc", "type": "electric_scooter", "is_disabled": 0, "lat": 38.900262166666664, "rental_uris": {"android": "https://dc.lft.to/lastmile_qr_scan", "ios": "https://dc.lft.to/lastmile_qr_scan"}, "bike_id": "af3e8bfc60af1f2ac86bb55c5e102edc", "lon": -76.98860583333334}, {"is_reserved": 0, "fusion_lon": 0.0, "fusion_lat": 0.0, "name": "98d28233e12f0eb9e225abe69b9aaf69", "type": "electric_scooter", "is_disabled": 0, "lat": 38.9290135, "rental_uris": {"android": "https://dc.lft.to/lastmile_qr_scan", "ios": "https://dc.lft.to/lastmile_qr_scan"}, "bike_id": "98d28233e12f0eb9e225abe69b9aaf69", "lon": -77.03278766666666}, {"is_reserved": 0, "fusion_lon": 0.0, "fusion_lat": 0.0, "name": "0b258a48d14cd50b1313e48a180064a6", "type": "electric_scooter", "is_disabled": 0, "lat": 38.89853333333333, "rental_uris": {"android": "https://dc.lft.to/lastmile_qr_scan", "ios": "https://dc.lft.to/lastmile_qr_scan"}, "bike_id": "0b258a48d14cd50b1313e48a180064a6", "lon": -76.93205266666666}, {"is_reserved": 0, "fusion_lon": 0.0, "fusion_lat": 0.0, "name": "e6b5a7f3e09b70b56f746c896a34ac6d", "type": "electric_scooter", "is_disabled": 0, "lat": 38.91918016666666, "rental_uris": {"android": "https://dc.lft.to/lastmile_qr_scan", "ios": "https://dc.lft.to/lastmile_qr_scan"}, "bike_id": "e6b5a7f3e09b70b56f746c896a34ac6d", "lon": -77.02512633333333}, {"is_reserved": 0, "fusion_lon": 0.0, "fusion_lat": 0.0, "name": "9b1b9331d296530517732a4b6ff64e5e", "type": "electric_scooter", "is_disabled": 0, "lat": 38.92249016666667, "rental_uris": {"android": "https://dc.lft.to/lastmile_qr_scan", "ios": "https://dc.lft.to/lastmile_qr_scan"}, "bike_id": "9b1b9331d296530517732a4b6ff64e5e", "lon": -77.03016416666667}, {"is_reserved": 0, "fusion_lon": 0.0, "fusion_lat": 0.0, "name": "cab8595fee3e29f0c3e6fbfef3b72003", "type": "electric_scooter", "is_disabled": 0, "lat": 38.880486833333336, "rental_uris": {"android": "https://dc.lft.to/lastmile_qr_scan", "ios": "https://dc.lft.to/lastmile_qr_scan"}, "bike_id": "cab8595fee3e29f0c3e6fbfef3b72003", "lon": -77.02007566666667}, {"is_reserved": 0, "fusion_lon": 0.0, "fusion_lat": 0.0, "name": "62e4388abb49380f572900a9c47119a6", "type": "electric_scooter", "is_disabled": 0, "lat": 38.9287425, "rental_uris": {"android": "https://dc.lft.to/lastmile_qr_scan", "ios": "https://dc.lft.to/lastmile_qr_scan"}, "bike_id": "62e4388abb49380f572900a9c47119a6", "lon": -77.03408666666667}, {"is_reserved": 0, "fusion_lon": 0.0, "fusion_lat": 0.0, "name": "3412c424d0837f34463ba4073ca7333b", "type": "electric_bike", "is_disabled": 0, "lat": 38.93226, "rental_uris": {"android": "https://dc.lft.to/lastmile_qr_scan", "ios": "https://dc.lft.to/lastmile_qr_scan"}, "bike_id": "3412c424d0837f34463ba4073ca7333b", "lon": -77.1812265}, {"is_reserved": 0, "fusion_lon": 0.0, "fusion_lat": 0.0, "name": "07aa2b91e8c9e26ce3a123e7bb018731", "type": "electric_bike", "is_disabled": 0, "lat": 38.95327666666667, "rental_uris": {"android": "https://dc.lft.to/lastmile_qr_scan", "ios": "https://dc.lft.to/lastmile_qr_scan"}, "bike_id": "07aa2b91e8c9e26ce3a123e7bb018731", "lon": -76.95437116666666}, {"is_reserved": 0, "fusion_lon": 0.0, "fusion_lat": 0.0, "name": "ea91558acb9be50ec0d8439f56be9fee", "type": "electric_scooter", "is_disabled": 0, "lat": 38.9125535, "rental_uris": {"android": "https://dc.lft.to/lastmile_qr_scan", "ios": "https://dc.lft.to/lastmile_qr_scan"}, "bike_id": "ea91558acb9be50ec0d8439f56be9fee", "lon": -77.073176}, {"is_reserved": 0, "fusion_lon": 0.0, "fusion_lat": 0.0, "name": "4876c57a40fd1e3b105689a0a30e1bf6", "type": "electric_scooter", "is_disabled": 0, "lat": 38.95188183333333, "rental_uris": {"android": "https://dc.lft.to/lastmile_qr_scan", "ios": "https://dc.lft.to/lastmile_qr_scan"}, "bike_id": "4876c57a40fd1e3b105689a0a30e1bf6", "lon": -77.02617366666666}, {"is_reserved": 0, "fusion_lon": 0.0, "fusion_lat": 0.0, "name": "fa29b4bad8adbbd3f6d29fe0443893a0", "type": "electric_scooter", "is_disabled": 0, "lat": 38.926197, "rental_uris": {"android": "https://dc.lft.to/lastmile_qr_scan", "ios": "https://dc.lft.to/lastmile_qr_scan"}, "bike_id": "fa29b4bad8adbbd3f6d29fe0443893a0", "lon": -77.04332}, {"is_reserved": 0, "fusion_lon": 0.0, "fusion_lat": 0.0, "name": "d2b7e0879655b9f1d846fb0519d325e9", "type": "electric_scooter", "is_disabled": 0, "lat": 38.912707166666664, "rental_uris": {"android": "https://dc.lft.to/lastmile_qr_scan", "ios": "https://dc.lft.to/lastmile_qr_scan"}, "bike_id": "d2b7e0879655b9f1d846fb0519d325e9", "lon": -77.04115366666667}, {"is_reserved": 0, "fusion_lon": 0.0, "fusion_lat": 0.0, "name": "83efa1162d8ae22ed4aa78e059231ee2", "type": "electric_scooter", "is_disabled": 0, "lat": 38.90073533333333, "rental_uris": {"android": "https://dc.lft.to/lastmile_qr_scan", "ios": "https://dc.lft.to/lastmile_qr_scan"}, "bike_id": "83efa1162d8ae22ed4aa78e059231ee2", "lon": -77.00213283333333}, {"is_reserved": 0, "fusion_lon": 0.0, "fusion_lat": 0.0, "name": "48215845a911a9026096cb8236833954", "type": "electric_scooter", "is_disabled": 0, "lat": 38.9215895, "rental_uris": {"android": "https://dc.lft.to/lastmile_qr_scan", "ios": "https://dc.lft.to/lastmile_qr_scan"}, "bike_id": "48215845a911a9026096cb8236833954", "lon": -77.03377066666667}, {"is_reserved": 0, "fusion_lon": 0.0, "fusion_lat": 0.0, "name": "631c00fef9fdd2c09802d9209fd9b860", "type": "electric_scooter", "is_disabled": 0, "lat": 38.894295166666666, "rental_uris": {"android": "https://dc.lft.to/lastmile_qr_scan", "ios": "https://dc.lft.to/lastmile_qr_scan"}, "bike_id": "631c00fef9fdd2c09802d9209fd9b860", "lon": -77.040014}, {"is_reserved": 0, "fusion_lon": 0.0, "fusion_lat": 0.0, "name": "e9b5b24ac79c5a47affabb42f5f996da", "type": "electric_scooter", "is_disabled": 0, "lat": 38.904932, "rental_uris": {"android": "https://dc.lft.to/lastmile_qr_scan", "ios": "https://dc.lft.to/lastmile_qr_scan"}, "bike_id": "e9b5b24ac79c5a47affabb42f5f996da", "lon": -76.98712683333333}, {"is_reserved": 0, "fusion_lon": 0.0, "fusion_lat": 0.0, "name": "8d73ee8d7aa4fe1efc066fab11f18804", "type": "electric_bike", "is_disabled": 0, "lat": 38.92427283333333, "rental_uris": {"android": "https://dc.lft.to/lastmile_qr_scan", "ios": "https://dc.lft.to/lastmile_qr_scan"}, "bike_id": "8d73ee8d7aa4fe1efc066fab11f18804", "lon": -76.99657116666667}, {"is_reserved": 0, "fusion_lon": 0.0, "fusion_lat": 0.0, "name": "52d24472f4ded8b9ed172ec44c6064ed", "type": "electric_scooter", "is_disabled": 0, "lat": 38.91109483333334, "rental_uris": {"android": "https://dc.lft.to/lastmile_qr_scan", "ios": "https://dc.lft.to/lastmile_qr_scan"}, "bike_id": "52d24472f4ded8b9ed172ec44c6064ed", "lon": -77.03255833333333}, {"is_reserved": 0, "fusion_lon": 0.0, "fusion_lat": 0.0, "name": "ade69586db8b24b3c294a4390d1ade73", "type": "electric_scooter", "is_disabled": 0, "lat": 38.916928166666665, "rental_uris": {"android": "https://dc.lft.to/lastmile_qr_scan", "ios": "https://dc.lft.to/lastmile_qr_scan"}, "bike_id": "ade69586db8b24b3c294a4390d1ade73", "lon": -77.03219316666667}, {"is_reserved": 0, "fusion_lon": 0.0, "fusion_lat": 0.0, "name": "e04fe4f6277e6b0da280ec8201623ec2", "type": "electric_scooter", "is_disabled": 0, "lat": 38.908598166666664, "rental_uris": {"android": "https://dc.lft.to/lastmile_qr_scan", "ios": "https://dc.lft.to/lastmile_qr_scan"}, "bike_id": "e04fe4f6277e6b0da280ec8201623ec2", "lon": -77.04492566666667}, {"is_reserved": 0, "fusion_lon": 0.0, "fusion_lat": 0.0, "name": "238be499a07b988abab5868e81e19c4d", "type": "electric_scooter", "is_disabled": 0, "lat": 38.916321833333335, "rental_uris": {"android": "https://dc.lft.to/lastmile_qr_scan", "ios": "https://dc.lft.to/lastmile_qr_scan"}, "bike_id": "238be499a07b988abab5868e81e19c4d", "lon": -77.04798716666667}, {"is_reserved": 0, "fusion_lon": 0.0, "fusion_lat": 0.0, "name": "d4902f4526becca2a0de97771376c714", "type": "electric_scooter", "is_disabled": 0, "lat": 38.91819266666667, "rental_uris": {"android": "https://dc.lft.to/lastmile_qr_scan", "ios": "https://dc.lft.to/lastmile_qr_scan"}, "bike_id": "d4902f4526becca2a0de97771376c714", "lon": -77.08942633333334}, {"is_reserved": 0, "fusion_lon": 0.0, "fusion_lat": 0.0, "name": "731be72e6ce03d655208e1292e4ab2e4", "type": "electric_scooter", "is_disabled": 0, "lat": 38.9173745, "rental_uris": {"android": "https://dc.lft.to/lastmile_qr_scan", "ios": "https://dc.lft.to/lastmile_qr_scan"}, "bike_id": "731be72e6ce03d655208e1292e4ab2e4", "lon": -77.02699716666666}, {"is_reserved": 0, "fusion_lon": 0.0, "fusion_lat": 0.0, "name": "3506da29bf69dbaaa0492ec5c791002b", "type": "electric_scooter", "is_disabled": 0, "lat": 38.936114833333335, "rental_uris": {"android": "https://dc.lft.to/lastmile_qr_scan", "ios": "https://dc.lft.to/lastmile_qr_scan"}, "bike_id": "3506da29bf69dbaaa0492ec5c791002b", "lon": -77.037792}, {"is_reserved": 0, "fusion_lon": 0.0, "fusion_lat": 0.0, "name": "51fa16d06e8c8554d21abbc6df66503b", "type": "electric_bike", "is_disabled": 0, "lat": 38.963249166666664, "rental_uris": {"android": "https://dc.lft.to/lastmile_qr_scan", "ios": "https://dc.lft.to/lastmile_qr_scan"}, "bike_id": "51fa16d06e8c8554d21abbc6df66503b", "lon": -76.97362266666667}, {"is_reserved": 0, "fusion_lon": 0.0, "fusion_lat": 0.0, "name": "a433a075ebae60be7f3bb12c437fde29", "type": "electric_bike", "is_disabled": 0, "lat": 38.969146333333335, "rental_uris": {"android": "https://dc.lft.to/lastmile_qr_scan", "ios": "https://dc.lft.to/lastmile_qr_scan"}, "bike_id": "a433a075ebae60be7f3bb12c437fde29", "lon": -76.99490983333334}, {"is_reserved": 0, "fusion_lon": 0.0, "fusion_lat": 0.0, "name": "d07e02065e484dfced78658f510ba10e", "type": "electric_scooter", "is_disabled": 0, "lat": 38.9232755, "rental_uris": {"android": "https://dc.lft.to/lastmile_qr_scan", "ios": "https://dc.lft.to/lastmile_qr_scan"}, "bike_id": "d07e02065e484dfced78658f510ba10e", "lon": -77.00052816666667}, {"is_reserved": 0, "fusion_lon": 0.0, "fusion_lat": 0.0, "name": "58f53efb9f7ced93a73e2ac8d97a5075", "type": "electric_scooter", "is_disabled": 0, "lat": 38.91265033333333, "rental_uris": {"android": "https://dc.lft.to/lastmile_qr_scan", "ios": "https://dc.lft.to/lastmile_qr_scan"}, "bike_id": "58f53efb9f7ced93a73e2ac8d97a5075", "lon": -77.0311985}, {"is_reserved": 0, "fusion_lon": 0.0, "fusion_lat": 0.0, "name": "be0a20e64bf7217494cd8e13416fa8a0", "type": "electric_scooter", "is_disabled": 0, "lat": 38.928818, "rental_uris": {"android": "https://dc.lft.to/lastmile_qr_scan", "ios": "https://dc.lft.to/lastmile_qr_scan"}, "bike_id": "be0a20e64bf7217494cd8e13416fa8a0", "lon": -77.0364975}, {"is_reserved": 0, "fusion_lon": 0.0, "fusion_lat": 0.0, "name": "ae46fbc2a8adcb1f6049785542da9bd1", "type": "electric_scooter", "is_disabled": 0, "lat": 38.930427333333334, "rental_uris": {"android": "https://dc.lft.to/lastmile_qr_scan", "ios": "https://dc.lft.to/lastmile_qr_scan"}, "bike_id": "ae46fbc2a8adcb1f6049785542da9bd1", "lon": -77.01227233333333}, {"is_reserved": 0, "fusion_lon": 0.0, "fusion_lat": 0.0, "name": "88307acbb39157d366bf2f27e1f8e4d7", "type": "electric_scooter", "is_disabled": 0, "lat": 38.92489033333333, "rental_uris": {"android": "https://dc.lft.to/lastmile_qr_scan", "ios": "https://dc.lft.to/lastmile_qr_scan"}, "bike_id": "88307acbb39157d366bf2f27e1f8e4d7", "lon": -77.02696866666666}, {"is_reserved": 0, "fusion_lon": 0.0, "fusion_lat": 0.0, "name": "cdf546394bbccc170755c7d95bfcdaf7", "type": "electric_bike", "is_disabled": 0, "lat": 38.862621833333336, "rental_uris": {"android": "https://dc.lft.to/lastmile_qr_scan", "ios": "https://dc.lft.to/lastmile_qr_scan"}, "bike_id": "cdf546394bbccc170755c7d95bfcdaf7", "lon": -76.98353016666667}, {"is_reserved": 0, "fusion_lon": 0.0, "fusion_lat": 0.0, "name": "7ef16f5c12be5a7f2bc525583fc3e88a", "type": "electric_scooter", "is_disabled": 0, "lat": 38.90866483333333, "rental_uris": {"android": "https://dc.lft.to/lastmile_qr_scan", "ios": "https://dc.lft.to/lastmile_qr_scan"}, "bike_id": "7ef16f5c12be5a7f2bc525583fc3e88a", "lon": -77.085948}, {"is_reserved": 0, "fusion_lon": 0.0, "fusion_lat": 0.0, "name": "4523a0f45994ce30643e016093422a8c", "type": "electric_bike", "is_disabled": 0, "lat": 39.054967166666664, "rental_uris": {"android": "https://dc.lft.to/lastmile_qr_scan", "ios": "https://dc.lft.to/lastmile_qr_scan"}, "bike_id": "4523a0f45994ce30643e016093422a8c", "lon": -77.11787833333334}, {"is_reserved": 0, "fusion_lon": 0.0, "fusion_lat": 0.0, "name": "3a3483a274f58392480075432a3cc655", "type": "electric_bike", "is_disabled": 0, "lat": 39.034308333333335, "rental_uris": {"android": "https://dc.lft.to/lastmile_qr_scan", "ios": "https://dc.lft.to/lastmile_qr_scan"}, "bike_id": "3a3483a274f58392480075432a3cc655", "lon": -77.04092233333333}, {"is_reserved": 0, "fusion_lon": 0.0, "fusion_lat": 0.0, "name": "a13a1d7aca1c9e847113848a8b6a4ee8", "type": "electric_bike", "is_disabled": 0, "lat": 38.883385, "rental_uris": {"android": "https://dc.lft.to/lastmile_qr_scan", "ios": "https://dc.lft.to/lastmile_qr_scan"}, "bike_id": "a13a1d7aca1c9e847113848a8b6a4ee8", "lon": -77.065641}, {"is_reserved": 0, "fusion_lon": 0.0, "fusion_lat": 0.0, "name": "175ebf9007f0cf9c859eeabba4692d55", "type": "electric_scooter", "is_disabled": 0, "lat": 38.88125733333333, "rental_uris": {"android": "https://dc.lft.to/lastmile_qr_scan", "ios": "https://dc.lft.to/lastmile_qr_scan"}, "bike_id": "175ebf9007f0cf9c859eeabba4692d55", "lon": -77.00081266666666}, {"is_reserved": 0, "fusion_lon": 0.0, "fusion_lat": 0.0, "name": "3985b59d88a5dfa5408f844096b410cf", "type": "electric_scooter", "is_disabled": 0, "lat": 38.9266075, "rental_uris": {"android": "https://dc.lft.to/lastmile_qr_scan", "ios": "https://dc.lft.to/lastmile_qr_scan"}, "bike_id": "3985b59d88a5dfa5408f844096b410cf", "lon": -77.00869683333333}, {"is_reserved": 0, "fusion_lon": 0.0, "fusion_lat": 0.0, "name": "787ab27d5cfb7fa9acc8edd6baf638fd", "type": "electric_scooter", "is_disabled": 0, "lat": 38.929642, "rental_uris": {"android": "https://dc.lft.to/lastmile_qr_scan", "ios": "https://dc.lft.to/lastmile_qr_scan"}, "bike_id": "787ab27d5cfb7fa9acc8edd6baf638fd", "lon": -77.0275875}, {"is_reserved": 0, "fusion_lon": 0.0, "fusion_lat": 0.0, "name": "1410acb93d22e35d4b82403c7319513b", "type": "electric_bike", "is_disabled": 0, "lat": 38.7967765, "rental_uris": {"android": "https://dc.lft.to/lastmile_qr_scan", "ios": "https://dc.lft.to/lastmile_qr_scan"}, "bike_id": "1410acb93d22e35d4b82403c7319513b", "lon": -76.9933365}, {"is_reserved": 0, "fusion_lon": 0.0, "fusion_lat": 0.0, "name": "635f0d8011e4efd8327da723edd5d619", "type": "electric_scooter", "is_disabled": 0, "lat": 38.90383966666667, "rental_uris": {"android": "https://dc.lft.to/lastmile_qr_scan", "ios": "https://dc.lft.to/lastmile_qr_scan"}, "bike_id": "635f0d8011e4efd8327da723edd5d619", "lon": -77.04176633333333}, {"is_reserved": 0, "fusion_lon": 0.0, "fusion_lat": 0.0, "name": "a2e1754f4454df12732a30d0b18492b1", "type": "electric_scooter", "is_disabled": 0, "lat": 38.89322816666667, "rental_uris": {"android": "https://dc.lft.to/lastmile_qr_scan", "ios": "https://dc.lft.to/lastmile_qr_scan"}, "bike_id": "a2e1754f4454df12732a30d0b18492b1", "lon": -77.01798033333333}, {"is_reserved": 0, "fusion_lon": 0.0, "fusion_lat": 0.0, "name": "fcd41c2debc2c0fdb5b4e10544f90d32", "type": "electric_scooter", "is_disabled": 0, "lat": 38.887407, "rental_uris": {"android": "https://dc.lft.to/lastmile_qr_scan", "ios": "https://dc.lft.to/lastmile_qr_scan"}, "bike_id": "fcd41c2debc2c0fdb5b4e10544f90d32", "lon": -77.02212}, {"is_reserved": 0, "fusion_lon": 0.0, "fusion_lat": 0.0, "name": "9bc7a2d1a79b41c730c4afa07e571597", "type": "electric_scooter", "is_disabled": 0, "lat": 38.891678, "rental_uris": {"android": "https://dc.lft.to/lastmile_qr_scan", "ios": "https://dc.lft.to/lastmile_qr_scan"}, "bike_id": "9bc7a2d1a79b41c730c4afa07e571597", "lon": -76.95185283333333}, {"is_reserved": 0, "fusion_lon": 0.0, "fusion_lat": 0.0, "name": "0788e7836ce8d30ba238ab2867fe3a8c", "type": "electric_scooter", "is_disabled": 0, "lat": 38.900749166666664, "rental_uris": {"android": "https://dc.lft.to/lastmile_qr_scan", "ios": "https://dc.lft.to/lastmile_qr_scan"}, "bike_id": "0788e7836ce8d30ba238ab2867fe3a8c", "lon": -77.0020975}, {"is_reserved": 0, "fusion_lon": 0.0, "fusion_lat": 0.0, "name": "99daf65d2de277deae1b70e0f3e21b91", "type": "electric_scooter", "is_disabled": 0, "lat": 38.9023585, "rental_uris": {"android": "https://dc.lft.to/lastmile_qr_scan", "ios": "https://dc.lft.to/lastmile_qr_scan"}, "bike_id": "99daf65d2de277deae1b70e0f3e21b91", "lon": -77.05338166666667}, {"is_reserved": 0, "fusion_lon": 0.0, "fusion_lat": 0.0, "name": "6e40fbc8c86a1c55abb6cd13b174c57f", "type": "electric_bike", "is_disabled": 0, "lat": 38.80654933333334, "rental_uris": {"android": "https://dc.lft.to/lastmile_qr_scan", "ios": "https://dc.lft.to/lastmile_qr_scan"}, "bike_id": "6e40fbc8c86a1c55abb6cd13b174c57f", "lon": -77.08759733333333}, {"is_reserved": 0, "fusion_lon": 0.0, "fusion_lat": 0.0, "name": "a87ab3d8d300cf4619e34227bca497a9", "type": "electric_bike", "is_disabled": 0, "lat": 38.95644516666667, "rental_uris": {"android": "https://dc.lft.to/lastmile_qr_scan", "ios": "https://dc.lft.to/lastmile_qr_scan"}, "bike_id": "a87ab3d8d300cf4619e34227bca497a9", "lon": -77.02260433333333}, {"is_reserved": 0, "fusion_lon": 0.0, "fusion_lat": 0.0, "name": "cea0cfb17ce76d2539e20d63e3c89447", "type": "electric_scooter", "is_disabled": 0, "lat": 38.94991066666667, "rental_uris": {"android": "https://dc.lft.to/lastmile_qr_scan", "ios": "https://dc.lft.to/lastmile_qr_scan"}, "bike_id": "cea0cfb17ce76d2539e20d63e3c89447", "lon": -77.0270375}, {"is_reserved": 0, "fusion_lon": 0.0, "fusion_lat": 0.0, "name": "79381beb0d183c82366259d643bd4431", "type": "electric_scooter", "is_disabled": 0, "lat": 38.930137, "rental_uris": {"android": "https://dc.lft.to/lastmile_qr_scan", "ios": "https://dc.lft.to/lastmile_qr_scan"}, "bike_id": "79381beb0d183c82366259d643bd4431", "lon": -77.06092733333334}, {"is_reserved": 0, "fusion_lon": 0.0, "fusion_lat": 0.0, "name": "9647eceb940be953e8d02b5bbe153861", "type": "electric_scooter", "is_disabled": 0, "lat": 38.888389833333335, "rental_uris": {"android": "https://dc.lft.to/lastmile_qr_scan", "ios": "https://dc.lft.to/lastmile_qr_scan"}, "bike_id": "9647eceb940be953e8d02b5bbe153861", "lon": -77.04907133333333}, {"is_reserved": 0, "fusion_lon": 0.0, "fusion_lat": 0.0, "name": "801b0045f66efe0f77561cc4b1a3643c", "type": "electric_bike", "is_disabled": 0, "lat": 38.838123, "rental_uris": {"android": "https://dc.lft.to/lastmile_qr_scan", "ios": "https://dc.lft.to/lastmile_qr_scan"}, "bike_id": "801b0045f66efe0f77561cc4b1a3643c", "lon": -77.0952525}, {"is_reserved": 0, "fusion_lon": 0.0, "fusion_lat": 0.0, "name": "db6e3e231d50e90d4cf9c212ecf5f6d6", "type": "electric_scooter", "is_disabled": 0, "lat": 38.97120366666667, "rental_uris": {"android": "https://dc.lft.to/lastmile_qr_scan", "ios": "https://dc.lft.to/lastmile_qr_scan"}, "bike_id": "db6e3e231d50e90d4cf9c212ecf5f6d6", "lon": -77.0168865}, {"is_reserved": 0, "fusion_lon": 0.0, "fusion_lat": 0.0, "name": "944c75778f96fff8e46490d33f1c26ed", "type": "electric_bike", "is_disabled": 0, "lat": 38.85776633333333, "rental_uris": {"android": "https://dc.lft.to/lastmile_qr_scan", "ios": "https://dc.lft.to/lastmile_qr_scan"}, "bike_id": "944c75778f96fff8e46490d33f1c26ed", "lon": -76.98768266666667}, {"is_reserved": 0, "fusion_lon": 0.0, "fusion_lat": 0.0, "name": "1c76c2eb124ac2a32ebdaf76ce70d456", "type": "electric_scooter", "is_disabled": 0, "lat": 38.94175833333333, "rental_uris": {"android": "https://dc.lft.to/lastmile_qr_scan", "ios": "https://dc.lft.to/lastmile_qr_scan"}, "bike_id": "1c76c2eb124ac2a32ebdaf76ce70d456", "lon": -77.02561266666666}, {"is_reserved": 0, "fusion_lon": 0.0, "fusion_lat": 0.0, "name": "a12c064cc1d105ed57e32216c08b3556", "type": "electric_scooter", "is_disabled": 0, "lat": 38.866691, "rental_uris": {"android": "https://dc.lft.to/lastmile_qr_scan", "ios": "https://dc.lft.to/lastmile_qr_scan"}, "bike_id": "a12c064cc1d105ed57e32216c08b3556", "lon": -76.98509333333334}, {"is_reserved": 0, "fusion_lon": 0.0, "fusion_lat": 0.0, "name": "bef9210e7a7b3aa0dfd624569a1c8230", "type": "electric_scooter", "is_disabled": 0, "lat": 38.92159383333333, "rental_uris": {"android": "https://dc.lft.to/lastmile_qr_scan", "ios": "https://dc.lft.to/lastmile_qr_scan"}, "bike_id": "bef9210e7a7b3aa0dfd624569a1c8230", "lon": -77.04226533333333}, {"is_reserved": 0, "fusion_lon": 0.0, "fusion_lat": 0.0, "name": "99c80ec7b575c28e650cba81a76f0619", "type": "electric_scooter", "is_disabled": 0, "lat": 38.9059545, "rental_uris": {"android": "https://dc.lft.to/lastmile_qr_scan", "ios": "https://dc.lft.to/lastmile_qr_scan"}, "bike_id": "99c80ec7b575c28e650cba81a76f0619", "lon": -77.02210616666666}, {"is_reserved": 0, "fusion_lon": 0.0, "fusion_lat": 0.0, "name": "f4e95509c4146aeeba97b9695bb4d4e9", "type": "electric_scooter", "is_disabled": 0, "lat": 38.84995516666667, "rental_uris": {"android": "https://dc.lft.to/lastmile_qr_scan", "ios": "https://dc.lft.to/lastmile_qr_scan"}, "bike_id": "f4e95509c4146aeeba97b9695bb4d4e9", "lon": -76.98347966666667}, {"is_reserved": 0, "fusion_lon": 0.0, "fusion_lat": 0.0, "name": "a383c44b18ecd36e376313bec7b61ae7", "type": "electric_scooter", "is_disabled": 0, "lat": 38.922928166666665, "rental_uris": {"android": "https://dc.lft.to/lastmile_qr_scan", "ios": "https://dc.lft.to/lastmile_qr_scan"}, "bike_id": "a383c44b18ecd36e376313bec7b61ae7", "lon": -77.07290883333333}, {"is_reserved": 0, "fusion_lon": 0.0, "fusion_lat": 0.0, "name": "9c937eefc6abc9e9e9a9df44dd4d5819", "type": "electric_scooter", "is_disabled": 0, "lat": 38.90178483333333, "rental_uris": {"android": "https://dc.lft.to/lastmile_qr_scan", "ios": "https://dc.lft.to/lastmile_qr_scan"}, "bike_id": "9c937eefc6abc9e9e9a9df44dd4d5819", "lon": -76.92866033333334}, {"is_reserved": 0, "fusion_lon": 0.0, "fusion_lat": 0.0, "name": "f75c3d9a93d04a2a5194885af2160c03", "type": "electric_scooter", "is_disabled": 0, "lat": 38.858490333333336, "rental_uris": {"android": "https://dc.lft.to/lastmile_qr_scan", "ios": "https://dc.lft.to/lastmile_qr_scan"}, "bike_id": "f75c3d9a93d04a2a5194885af2160c03", "lon": -76.98564883333333}, {"is_reserved": 0, "fusion_lon": 0.0, "fusion_lat": 0.0, "name": "e5803520b030566d9c2c6f51a20704a8", "type": "electric_bike", "is_disabled": 0, "lat": 38.8361205, "rental_uris": {"android": "https://dc.lft.to/lastmile_qr_scan", "ios": "https://dc.lft.to/lastmile_qr_scan"}, "bike_id": "e5803520b030566d9c2c6f51a20704a8", "lon": -77.00381683333333}, {"is_reserved": 0, "fusion_lon": 0.0, "fusion_lat": 0.0, "name": "bf2f045473fffae1312cb59bc297ab21", "type": "electric_scooter", "is_disabled": 0, "lat": 38.90882283333333, "rental_uris": {"android": "https://dc.lft.to/lastmile_qr_scan", "ios": "https://dc.lft.to/lastmile_qr_scan"}, "bike_id": "bf2f045473fffae1312cb59bc297ab21", "lon": -76.9985835}, {"is_reserved": 0, "fusion_lon": 0.0, "fusion_lat": 0.0, "name": "2481cc50ebcb689a1322981626167f93", "type": "electric_scooter", "is_disabled": 0, "lat": 38.90266966666667, "rental_uris": {"android": "https://dc.lft.to/lastmile_qr_scan", "ios": "https://dc.lft.to/lastmile_qr_scan"}, "bike_id": "2481cc50ebcb689a1322981626167f93", "lon": -77.03898683333334}, {"is_reserved": 0, "fusion_lon": 0.0, "fusion_lat": 0.0, "name": "ddc5b0c24093cad2c8540929e0ce990e", "type": "electric_scooter", "is_disabled": 0, "lat": 38.902821833333334, "rental_uris": {"android": "https://dc.lft.to/lastmile_qr_scan", "ios": "https://dc.lft.to/lastmile_qr_scan"}, "bike_id": "ddc5b0c24093cad2c8540929e0ce990e", "lon": -77.03642816666667}, {"is_reserved": 0, "fusion_lon": 0.0, "fusion_lat": 0.0, "name": "fc7f487356332f7c677115193bc62cd1", "type": "electric_scooter", "is_disabled": 0, "lat": 38.900216, "rental_uris": {"android": "https://dc.lft.to/lastmile_qr_scan", "ios": "https://dc.lft.to/lastmile_qr_scan"}, "bike_id": "fc7f487356332f7c677115193bc62cd1", "lon": -77.01200366666667}, {"is_reserved": 0, "fusion_lon": 0.0, "fusion_lat": 0.0, "name": "7df662696f57c9d48ef94c440e92bb1b", "type": "electric_scooter", "is_disabled": 0, "lat": 38.92211183333333, "rental_uris": {"android": "https://dc.lft.to/lastmile_qr_scan", "ios": "https://dc.lft.to/lastmile_qr_scan"}, "bike_id": "7df662696f57c9d48ef94c440e92bb1b", "lon": -77.0401795}, {"is_reserved": 0, "fusion_lon": 0.0, "fusion_lat": 0.0, "name": "72ac3ff7cce6ea23d4850bc9322d1ae2", "type": "electric_scooter", "is_disabled": 0, "lat": 38.90623383333333, "rental_uris": {"android": "https://dc.lft.to/lastmile_qr_scan", "ios": "https://dc.lft.to/lastmile_qr_scan"}, "bike_id": "72ac3ff7cce6ea23d4850bc9322d1ae2", "lon": -77.03966733333333}, {"is_reserved": 0, "fusion_lon": 0.0, "fusion_lat": 0.0, "name": "ffc4378b8e037aa1c5fb301afedafef8", "type": "electric_scooter", "is_disabled": 0, "lat": 38.904257333333334, "rental_uris": {"android": "https://dc.lft.to/lastmile_qr_scan", "ios": "https://dc.lft.to/lastmile_qr_scan"}, "bike_id": "ffc4378b8e037aa1c5fb301afedafef8", "lon": -77.0534525}, {"is_reserved": 0, "fusion_lon": 0.0, "fusion_lat": 0.0, "name": "3e55537e4dbaf6266f4277339fe7f5be", "type": "electric_scooter", "is_disabled": 0, "lat": 38.922498166666664, "rental_uris": {"android": "https://dc.lft.to/lastmile_qr_scan", "ios": "https://dc.lft.to/lastmile_qr_scan"}, "bike_id": "3e55537e4dbaf6266f4277339fe7f5be", "lon": -77.0308545}, {"is_reserved": 0, "fusion_lon": 0.0, "fusion_lat": 0.0, "name": "f2997a7ba44071a5520d3ffca9b6a355", "type": "electric_scooter", "is_disabled": 0, "lat": 38.899642666666665, "rental_uris": {"android": "https://dc.lft.to/lastmile_qr_scan", "ios": "https://dc.lft.to/lastmile_qr_scan"}, "bike_id": "f2997a7ba44071a5520d3ffca9b6a355", "lon": -77.0515505}, {"is_reserved": 0, "fusion_lon": 0.0, "fusion_lat": 0.0, "name": "dbbcb79ffe64e6b4c78b85ad85230503", "type": "electric_scooter", "is_disabled": 0, "lat": 38.923442, "rental_uris": {"android": "https://dc.lft.to/lastmile_qr_scan", "ios": "https://dc.lft.to/lastmile_qr_scan"}, "bike_id": "dbbcb79ffe64e6b4c78b85ad85230503", "lon": -77.05121483333333}, {"is_reserved": 0, "fusion_lon": 0.0, "fusion_lat": 0.0, "name": "edfa83dfe14550873352134493dcd39d", "type": "electric_scooter", "is_disabled": 0, "lat": 38.8859885, "rental_uris": {"android": "https://dc.lft.to/lastmile_qr_scan", "ios": "https://dc.lft.to/lastmile_qr_scan"}, "bike_id": "edfa83dfe14550873352134493dcd39d", "lon": -76.99101716666667}, {"is_reserved": 0, "fusion_lon": 0.0, "fusion_lat": 0.0, "name": "71167a89f8e0d29d4d28a023ed1cee87", "type": "electric_scooter", "is_disabled": 0, "lat": 38.881065666666665, "rental_uris": {"android": "https://dc.lft.to/lastmile_qr_scan", "ios": "https://dc.lft.to/lastmile_qr_scan"}, "bike_id": "71167a89f8e0d29d4d28a023ed1cee87", "lon": -77.01663483333333}, {"is_reserved": 0, "fusion_lon": 0.0, "fusion_lat": 0.0, "name": "3610df841549a6711bd8663d12c3b094", "type": "electric_scooter", "is_disabled": 0, "lat": 38.904488666666666, "rental_uris": {"android": "https://dc.lft.to/lastmile_qr_scan", "ios": "https://dc.lft.to/lastmile_qr_scan"}, "bike_id": "3610df841549a6711bd8663d12c3b094", "lon": -77.044767}, {"is_reserved": 0, "fusion_lon": 0.0, "fusion_lat": 0.0, "name": "d5480ca23eb0f554bcc983e3e25839ec", "type": "electric_scooter", "is_disabled": 0, "lat": 38.957321, "rental_uris": {"android": "https://dc.lft.to/lastmile_qr_scan", "ios": "https://dc.lft.to/lastmile_qr_scan"}, "bike_id": "d5480ca23eb0f554bcc983e3e25839ec", "lon": -77.0240505}, {"is_reserved": 0, "fusion_lon": 0.0, "fusion_lat": 0.0, "name": "47d0cb2a3edb690cb5b0f7f8fddb31e0", "type": "electric_bike", "is_disabled": 0, "lat": 38.8001335, "rental_uris": {"android": "https://dc.lft.to/lastmile_qr_scan", "ios": "https://dc.lft.to/lastmile_qr_scan"}, "bike_id": "47d0cb2a3edb690cb5b0f7f8fddb31e0", "lon": -77.05487116666667}, {"is_reserved": 0, "fusion_lon": 0.0, "fusion_lat": 0.0, "name": "c46942985f72ad6791837ee3108cd975", "type": "electric_scooter", "is_disabled": 0, "lat": 38.9176295, "rental_uris": {"android": "https://dc.lft.to/lastmile_qr_scan", "ios": "https://dc.lft.to/lastmile_qr_scan"}, "bike_id": "c46942985f72ad6791837ee3108cd975", "lon": -77.025154}, {"is_reserved": 0, "fusion_lon": 0.0, "fusion_lat": 0.0, "name": "8cd8b87972c8bf577bc4920d2edd064c", "type": "electric_scooter", "is_disabled": 0, "lat": 38.920086, "rental_uris": {"android": "https://dc.lft.to/lastmile_qr_scan", "ios": "https://dc.lft.to/lastmile_qr_scan"}, "bike_id": "8cd8b87972c8bf577bc4920d2edd064c", "lon": -77.03891183333333}, {"is_reserved": 0, "fusion_lon": 0.0, "fusion_lat": 0.0, "name": "9480ccd03ef842b1dbb0b51e42dae1c5", "type": "electric_scooter", "is_disabled": 0, "lat": 38.887230333333335, "rental_uris": {"android": "https://dc.lft.to/lastmile_qr_scan", "ios": "https://dc.lft.to/lastmile_qr_scan"}, "bike_id": "9480ccd03ef842b1dbb0b51e42dae1c5", "lon": -77.02178466666666}, {"is_reserved": 0, "fusion_lon": 0.0, "fusion_lat": 0.0, "name": "ba751bc26d4dab2eb4cf56c635e917ec", "type": "electric_scooter", "is_disabled": 0, "lat": 38.911212, "rental_uris": {"android": "https://dc.lft.to/lastmile_qr_scan", "ios": "https://dc.lft.to/lastmile_qr_scan"}, "bike_id": "ba751bc26d4dab2eb4cf56c635e917ec", "lon": -77.03826816666667}, {"is_reserved": 0, "fusion_lon": 0.0, "fusion_lat": 0.0, "name": "0a3a9ab49a0573ec2b5697382615d67c", "type": "electric_scooter", "is_disabled": 0, "lat": 38.92945516666666, "rental_uris": {"android": "https://dc.lft.to/lastmile_qr_scan", "ios": "https://dc.lft.to/lastmile_qr_scan"}, "bike_id": "0a3a9ab49a0573ec2b5697382615d67c", "lon": -77.01646016666666}, {"is_reserved": 0, "fusion_lon": 0.0, "fusion_lat": 0.0, "name": "b991dec20022ce1ea2e97e514c270793", "type": "electric_scooter", "is_disabled": 0, "lat": 38.925777333333336, "rental_uris": {"android": "https://dc.lft.to/lastmile_qr_scan", "ios": "https://dc.lft.to/lastmile_qr_scan"}, "bike_id": "b991dec20022ce1ea2e97e514c270793", "lon": -77.03774333333334}, {"is_reserved": 0, "fusion_lon": 0.0, "fusion_lat": 0.0, "name": "5af4aae0e770a8dc4b9ce91c3fbd4972", "type": "electric_scooter", "is_disabled": 0, "lat": 38.902540333333334, "rental_uris": {"android": "https://dc.lft.to/lastmile_qr_scan", "ios": "https://dc.lft.to/lastmile_qr_scan"}, "bike_id": "5af4aae0e770a8dc4b9ce91c3fbd4972", "lon": -77.01771283333333}, {"is_reserved": 0, "fusion_lon": 0.0, "fusion_lat": 0.0, "name": "8d4c29a616bcbb3a40d2c614499ff6b6", "type": "electric_scooter", "is_disabled": 0, "lat": 38.929281333333336, "rental_uris": {"android": "https://dc.lft.to/lastmile_qr_scan", "ios": "https://dc.lft.to/lastmile_qr_scan"}, "bike_id": "8d4c29a616bcbb3a40d2c614499ff6b6", "lon": -77.02335783333334}, {"is_reserved": 0, "fusion_lon": 0.0, "fusion_lat": 0.0, "name": "474892a63286844ff318e20f8fbf88cc", "type": "electric_scooter", "is_disabled": 0, "lat": 38.91756383333333, "rental_uris": {"android": "https://dc.lft.to/lastmile_qr_scan", "ios": "https://dc.lft.to/lastmile_qr_scan"}, "bike_id": "474892a63286844ff318e20f8fbf88cc", "lon": -77.01222766666666}, {"is_reserved": 0, "fusion_lon": 0.0, "fusion_lat": 0.0, "name": "7317988278fcf13917cfe2c8ec779bd5", "type": "electric_scooter", "is_disabled": 0, "lat": 38.923173, "rental_uris": {"android": "https://dc.lft.to/lastmile_qr_scan", "ios": "https://dc.lft.to/lastmile_qr_scan"}, "bike_id": "7317988278fcf13917cfe2c8ec779bd5", "lon": -77.0564815}, {"is_reserved": 0, "fusion_lon": 0.0, "fusion_lat": 0.0, "name": "078f47ab235f62483959f1943c9f3a3f", "type": "electric_scooter", "is_disabled": 0, "lat": 38.900234, "rental_uris": {"android": "https://dc.lft.to/lastmile_qr_scan", "ios": "https://dc.lft.to/lastmile_qr_scan"}, "bike_id": "078f47ab235f62483959f1943c9f3a3f", "lon": -77.04135833333333}, {"is_reserved": 0, "fusion_lon": 0.0, "fusion_lat": 0.0, "name": "ce7d3ca939ce8dabfaf4c1a966cf3c0b", "type": "electric_scooter", "is_disabled": 0, "lat": 38.9118285, "rental_uris": {"android": "https://dc.lft.to/lastmile_qr_scan", "ios": "https://dc.lft.to/lastmile_qr_scan"}, "bike_id": "ce7d3ca939ce8dabfaf4c1a966cf3c0b", "lon": -77.04338616666666}, {"is_reserved": 0, "fusion_lon": 0.0, "fusion_lat": 0.0, "name": "1d8db16a9de80c5e7b00bb6ff20f87d6", "type": "electric_scooter", "is_disabled": 0, "lat": 38.94208016666666, "rental_uris": {"android": "https://dc.lft.to/lastmile_qr_scan", "ios": "https://dc.lft.to/lastmile_qr_scan"}, "bike_id": "1d8db16a9de80c5e7b00bb6ff20f87d6", "lon": -77.025138}, {"is_reserved": 0, "fusion_lon": 0.0, "fusion_lat": 0.0, "name": "0b2e8c44e6ddfa11775e97bcf4e96fde", "type": "electric_scooter", "is_disabled": 0, "lat": 38.9003335, "rental_uris": {"android": "https://dc.lft.to/lastmile_qr_scan", "ios": "https://dc.lft.to/lastmile_qr_scan"}, "bike_id": "0b2e8c44e6ddfa11775e97bcf4e96fde", "lon": -76.988604}, {"is_reserved": 0, "fusion_lon": 0.0, "fusion_lat": 0.0, "name": "e88df47cdd7964765c048086c3c2c0aa", "type": "electric_scooter", "is_disabled": 0, "lat": 38.874881, "rental_uris": {"android": "https://dc.lft.to/lastmile_qr_scan", "ios": "https://dc.lft.to/lastmile_qr_scan"}, "bike_id": "e88df47cdd7964765c048086c3c2c0aa", "lon": -77.0022975}, {"is_reserved": 0, "fusion_lon": 0.0, "fusion_lat": 0.0, "name": "092b6e9d62392e2d57f42f36c359c5db", "type": "electric_scooter", "is_disabled": 0, "lat": 38.909817833333335, "rental_uris": {"android": "https://dc.lft.to/lastmile_qr_scan", "ios": "https://dc.lft.to/lastmile_qr_scan"}, "bike_id": "092b6e9d62392e2d57f42f36c359c5db", "lon": -77.03183566666667}, {"is_reserved": 0, "fusion_lon": 0.0, "fusion_lat": 0.0, "name": "695050ae27e30c92fd59212ae2189efd", "type": "electric_scooter", "is_disabled": 0, "lat": 38.921062666666664, "rental_uris": {"android": "https://dc.lft.to/lastmile_qr_scan", "ios": "https://dc.lft.to/lastmile_qr_scan"}, "bike_id": "695050ae27e30c92fd59212ae2189efd", "lon": -77.01808466666667}, {"is_reserved": 0, "fusion_lon": 0.0, "fusion_lat": 0.0, "name": "213f55f81234a1e570afd0cafc48b732", "type": "electric_scooter", "is_disabled": 0, "lat": 38.885063333333335, "rental_uris": {"android": "https://dc.lft.to/lastmile_qr_scan", "ios": "https://dc.lft.to/lastmile_qr_scan"}, "bike_id": "213f55f81234a1e570afd0cafc48b732", "lon": -77.02007883333333}, {"is_reserved": 0, "fusion_lon": 0.0, "fusion_lat": 0.0, "name": "2cf623a2303892a6df959724eadd4ceb", "type": "electric_scooter", "is_disabled": 0, "lat": 38.89238, "rental_uris": {"android": "https://dc.lft.to/lastmile_qr_scan", "ios": "https://dc.lft.to/lastmile_qr_scan"}, "bike_id": "2cf623a2303892a6df959724eadd4ceb", "lon": -77.03182216666667}, {"is_reserved": 0, "fusion_lon": 0.0, "fusion_lat": 0.0, "name": "10bcdbc40a488a3f311a148a751089ee", "type": "electric_scooter", "is_disabled": 0, "lat": 38.9047145, "rental_uris": {"android": "https://dc.lft.to/lastmile_qr_scan", "ios": "https://dc.lft.to/lastmile_qr_scan"}, "bike_id": "10bcdbc40a488a3f311a148a751089ee", "lon": -77.017197}, {"is_reserved": 0, "fusion_lon": 0.0, "fusion_lat": 0.0, "name": "14e79227e918f4af523bbadd0b420f62", "type": "electric_scooter", "is_disabled": 0, "lat": 38.866405666666665, "rental_uris": {"android": "https://dc.lft.to/lastmile_qr_scan", "ios": "https://dc.lft.to/lastmile_qr_scan"}, "bike_id": "14e79227e918f4af523bbadd0b420f62", "lon": -76.98265233333333}, {"is_reserved": 0, "fusion_lon": 0.0, "fusion_lat": 0.0, "name": "7cc6ffa6b635d7b52e25517b63df00d5", "type": "electric_scooter", "is_disabled": 0, "lat": 38.90082183333333, "rental_uris": {"android": "https://dc.lft.to/lastmile_qr_scan", "ios": "https://dc.lft.to/lastmile_qr_scan"}, "bike_id": "7cc6ffa6b635d7b52e25517b63df00d5", "lon": -76.99365466666667}, {"is_reserved": 0, "fusion_lon": 0.0, "fusion_lat": 0.0, "name": "83167b86f8d471b26e71bb6494049948", "type": "electric_scooter", "is_disabled": 0, "lat": 38.91717766666667, "rental_uris": {"android": "https://dc.lft.to/lastmile_qr_scan", "ios": "https://dc.lft.to/lastmile_qr_scan"}, "bike_id": "83167b86f8d471b26e71bb6494049948", "lon": -77.03859633333333}, {"is_reserved": 0, "fusion_lon": 0.0, "fusion_lat": 0.0, "name": "22e65c68d9f47bf22daac1bd7c0fc7bf", "type": "electric_scooter", "is_disabled": 0, "lat": 38.9077265, "rental_uris": {"android": "https://dc.lft.to/lastmile_qr_scan", "ios": "https://dc.lft.to/lastmile_qr_scan"}, "bike_id": "22e65c68d9f47bf22daac1bd7c0fc7bf", "lon": -77.03466233333333}, {"is_reserved": 0, "fusion_lon": 0.0, "fusion_lat": 0.0, "name": "60fca69cd044ab022bdb24e0cd6b4b03", "type": "electric_scooter", "is_disabled": 0, "lat": 38.92067483333334, "rental_uris": {"android": "https://dc.lft.to/lastmile_qr_scan", "ios": "https://dc.lft.to/lastmile_qr_scan"}, "bike_id": "60fca69cd044ab022bdb24e0cd6b4b03", "lon": -77.02247016666666}, {"is_reserved": 0, "fusion_lon": 0.0, "fusion_lat": 0.0, "name": "bb36cb0f9167626f21981a96acc34d52", "type": "electric_scooter", "is_disabled": 0, "lat": 38.9470215, "rental_uris": {"android": "https://dc.lft.to/lastmile_qr_scan", "ios": "https://dc.lft.to/lastmile_qr_scan"}, "bike_id": "bb36cb0f9167626f21981a96acc34d52", "lon": -77.019369}, {"is_reserved": 0, "fusion_lon": 0.0, "fusion_lat": 0.0, "name": "b5434fbd41b3ccee04be8117da2880e3", "type": "electric_scooter", "is_disabled": 0, "lat": 38.88919466666667, "rental_uris": {"android": "https://dc.lft.to/lastmile_qr_scan", "ios": "https://dc.lft.to/lastmile_qr_scan"}, "bike_id": "b5434fbd41b3ccee04be8117da2880e3", "lon": -76.99185633333333}, {"is_reserved": 0, "fusion_lon": 0.0, "fusion_lat": 0.0, "name": "ef1c83c6e05e6584bf13d745e6e3988c", "type": "electric_bike", "is_disabled": 0, "lat": 38.95048583333333, "rental_uris": {"android": "https://dc.lft.to/lastmile_qr_scan", "ios": "https://dc.lft.to/lastmile_qr_scan"}, "bike_id": "ef1c83c6e05e6584bf13d745e6e3988c", "lon": -77.01968116666667}, {"is_reserved": 0, "fusion_lon": 0.0, "fusion_lat": 0.0, "name": "0fde8a1f62141d98384a2f45d2e0f228", "type": "electric_scooter", "is_disabled": 0, "lat": 38.900458, "rental_uris": {"android": "https://dc.lft.to/lastmile_qr_scan", "ios": "https://dc.lft.to/lastmile_qr_scan"}, "bike_id": "0fde8a1f62141d98384a2f45d2e0f228", "lon": -77.04340966666666}, {"is_reserved": 0, "fusion_lon": 0.0, "fusion_lat": 0.0, "name": "e94e82c5b6a5778de7db073d4cf02d93", "type": "electric_scooter", "is_disabled": 0, "lat": 38.885685333333335, "rental_uris": {"android": "https://dc.lft.to/lastmile_qr_scan", "ios": "https://dc.lft.to/lastmile_qr_scan"}, "bike_id": "e94e82c5b6a5778de7db073d4cf02d93", "lon": -77.01999733333334}, {"is_reserved": 0, "fusion_lon": 0.0, "fusion_lat": 0.0, "name": "a50d9db5ddd2863f7d2a753e533333e5", "type": "electric_scooter", "is_disabled": 0, "lat": 38.8986635, "rental_uris": {"android": "https://dc.lft.to/lastmile_qr_scan", "ios": "https://dc.lft.to/lastmile_qr_scan"}, "bike_id": "a50d9db5ddd2863f7d2a753e533333e5", "lon": -76.94662333333333}, {"is_reserved": 0, "fusion_lon": 0.0, "fusion_lat": 0.0, "name": "b16808794a3cc60bb5b836e5ec9c0bee", "type": "electric_scooter", "is_disabled": 0, "lat": 38.91694783333333, "rental_uris": {"android": "https://dc.lft.to/lastmile_qr_scan", "ios": "https://dc.lft.to/lastmile_qr_scan"}, "bike_id": "b16808794a3cc60bb5b836e5ec9c0bee", "lon": -77.0117265}, {"is_reserved": 0, "fusion_lon": 0.0, "fusion_lat": 0.0, "name": "fd624a27e9c58f722acd7be80a037dd7", "type": "electric_bike", "is_disabled": 0, "lat": 38.876748166666665, "rental_uris": {"android": "https://dc.lft.to/lastmile_qr_scan", "ios": "https://dc.lft.to/lastmile_qr_scan"}, "bike_id": "fd624a27e9c58f722acd7be80a037dd7", "lon": -77.01440033333333}, {"is_reserved": 0, "fusion_lon": 0.0, "fusion_lat": 0.0, "name": "fa4687e3743cceac61ed6a318c3c2e30", "type": "electric_scooter", "is_disabled": 0, "lat": 38.901254333333334, "rental_uris": {"android": "https://dc.lft.to/lastmile_qr_scan", "ios": "https://dc.lft.to/lastmile_qr_scan"}, "bike_id": "fa4687e3743cceac61ed6a318c3c2e30", "lon": -77.0435455}, {"is_reserved": 0, "fusion_lon": 0.0, "fusion_lat": 0.0, "name": "c8fcee721db3b206befdc05d6eb553df", "type": "electric_scooter", "is_disabled": 0, "lat": 38.911200666666666, "rental_uris": {"android": "https://dc.lft.to/lastmile_qr_scan", "ios": "https://dc.lft.to/lastmile_qr_scan"}, "bike_id": "c8fcee721db3b206befdc05d6eb553df", "lon": -77.04319833333334}, {"is_reserved": 0, "fusion_lon": 0.0, "fusion_lat": 0.0, "name": "37a4a29ac81256469e0233feaa283318", "type": "electric_scooter", "is_disabled": 0, "lat": 38.9085795, "rental_uris": {"android": "https://dc.lft.to/lastmile_qr_scan", "ios": "https://dc.lft.to/lastmile_qr_scan"}, "bike_id": "37a4a29ac81256469e0233feaa283318", "lon": -77.04271016666667}, {"is_reserved": 0, "fusion_lon": 0.0, "fusion_lat": 0.0, "name": "007cff0907d5c54bf4f44d1eac33da77", "type": "electric_scooter", "is_disabled": 0, "lat": 38.876821, "rental_uris": {"android": "https://dc.lft.to/lastmile_qr_scan", "ios": "https://dc.lft.to/lastmile_qr_scan"}, "bike_id": "007cff0907d5c54bf4f44d1eac33da77", "lon": -77.01787633333333}, {"is_reserved": 0, "fusion_lon": 0.0, "fusion_lat": 0.0, "name": "f12dede5f6134d5c628e210f8708b7ed", "type": "electric_scooter", "is_disabled": 0, "lat": 38.908628, "rental_uris": {"android": "https://dc.lft.to/lastmile_qr_scan", "ios": "https://dc.lft.to/lastmile_qr_scan"}, "bike_id": "f12dede5f6134d5c628e210f8708b7ed", "lon": -77.070948}, {"is_reserved": 0, "fusion_lon": 0.0, "fusion_lat": 0.0, "name": "dac94c40e44a2a0d1fdebf81ef3da53f", "type": "electric_scooter", "is_disabled": 0, "lat": 38.8806315, "rental_uris": {"android": "https://dc.lft.to/lastmile_qr_scan", "ios": "https://dc.lft.to/lastmile_qr_scan"}, "bike_id": "dac94c40e44a2a0d1fdebf81ef3da53f", "lon": -76.93218133333333}, {"is_reserved": 0, "fusion_lon": 0.0, "fusion_lat": 0.0, "name": "8cdeb47df5032d88c5ccb27f311463b0", "type": "electric_scooter", "is_disabled": 0, "lat": 38.9056075, "rental_uris": {"android": "https://dc.lft.to/lastmile_qr_scan", "ios": "https://dc.lft.to/lastmile_qr_scan"}, "bike_id": "8cdeb47df5032d88c5ccb27f311463b0", "lon": -77.007011}, {"is_reserved": 0, "fusion_lon": 0.0, "fusion_lat": 0.0, "name": "2b725b1517789c04a08a95ab6acffa88", "type": "electric_scooter", "is_disabled": 0, "lat": 38.910588, "rental_uris": {"android": "https://dc.lft.to/lastmile_qr_scan", "ios": "https://dc.lft.to/lastmile_qr_scan"}, "bike_id": "2b725b1517789c04a08a95ab6acffa88", "lon": -77.04251316666667}, {"is_reserved": 0, "fusion_lon": 0.0, "fusion_lat": 0.0, "name": "08137ba7b7467f3f14b3df5c241595da", "type": "electric_bike", "is_disabled": 0, "lat": 38.949240333333336, "rental_uris": {"android": "https://dc.lft.to/lastmile_qr_scan", "ios": "https://dc.lft.to/lastmile_qr_scan"}, "bike_id": "08137ba7b7467f3f14b3df5c241595da", "lon": -77.00798683333333}, {"is_reserved": 0, "fusion_lon": 0.0, "fusion_lat": 0.0, "name": "4ed0041286b256e4c690b80a5c116c86", "type": "electric_scooter", "is_disabled": 0, "lat": 38.906529166666665, "rental_uris": {"android": "https://dc.lft.to/lastmile_qr_scan", "ios": "https://dc.lft.to/lastmile_qr_scan"}, "bike_id": "4ed0041286b256e4c690b80a5c116c86", "lon": -77.027069}, {"is_reserved": 0, "fusion_lon": 0.0, "fusion_lat": 0.0, "name": "186c42af546399325b4334faf318938f", "type": "electric_scooter", "is_disabled": 0, "lat": 38.909019, "rental_uris": {"android": "https://dc.lft.to/lastmile_qr_scan", "ios": "https://dc.lft.to/lastmile_qr_scan"}, "bike_id": "186c42af546399325b4334faf318938f", "lon": -77.0457215}, {"is_reserved": 0, "fusion_lon": 0.0, "fusion_lat": 0.0, "name": "99d31b50702f553b6f2b146e28efb2cd", "type": "electric_scooter", "is_disabled": 0, "lat": 38.945139166666664, "rental_uris": {"android": "https://dc.lft.to/lastmile_qr_scan", "ios": "https://dc.lft.to/lastmile_qr_scan"}, "bike_id": "99d31b50702f553b6f2b146e28efb2cd", "lon": -77.03318233333333}, {"is_reserved": 0, "fusion_lon": 0.0, "fusion_lat": 0.0, "name": "0723ec743c28c559c9cf2650754ba73c", "type": "electric_scooter", "is_disabled": 0, "lat": 38.922495833333336, "rental_uris": {"android": "https://dc.lft.to/lastmile_qr_scan", "ios": "https://dc.lft.to/lastmile_qr_scan"}, "bike_id": "0723ec743c28c559c9cf2650754ba73c", "lon": -77.030645}, {"is_reserved": 0, "fusion_lon": 0.0, "fusion_lat": 0.0, "name": "eba782439dcfc6c3c817b515f8aa3c8d", "type": "electric_scooter", "is_disabled": 0, "lat": 38.908177333333335, "rental_uris": {"android": "https://dc.lft.to/lastmile_qr_scan", "ios": "https://dc.lft.to/lastmile_qr_scan"}, "bike_id": "eba782439dcfc6c3c817b515f8aa3c8d", "lon": -77.04331633333334}, {"is_reserved": 0, "fusion_lon": 0.0, "fusion_lat": 0.0, "name": "1ed98b93c9e6da5f10f58c9c5dcbc3a7", "type": "electric_bike", "is_disabled": 0, "lat": 38.8589485, "rental_uris": {"android": "https://dc.lft.to/lastmile_qr_scan", "ios": "https://dc.lft.to/lastmile_qr_scan"}, "bike_id": "1ed98b93c9e6da5f10f58c9c5dcbc3a7", "lon": -77.11859233333334}, {"is_reserved": 0, "fusion_lon": 0.0, "fusion_lat": 0.0, "name": "8bd6ad49efac925b1f92f8df1085da9d", "type": "electric_scooter", "is_disabled": 0, "lat": 38.92870283333333, "rental_uris": {"android": "https://dc.lft.to/lastmile_qr_scan", "ios": "https://dc.lft.to/lastmile_qr_scan"}, "bike_id": "8bd6ad49efac925b1f92f8df1085da9d", "lon": -77.033205}, {"is_reserved": 0, "fusion_lon": 0.0, "fusion_lat": 0.0, "name": "7bb3a20ddcfd847c35e8df08ef6a6e46", "type": "electric_scooter", "is_disabled": 0, "lat": 38.911174333333335, "rental_uris": {"android": "https://dc.lft.to/lastmile_qr_scan", "ios": "https://dc.lft.to/lastmile_qr_scan"}, "bike_id": "7bb3a20ddcfd847c35e8df08ef6a6e46", "lon": -77.03156383333334}, {"is_reserved": 0, "fusion_lon": 0.0, "fusion_lat": 0.0, "name": "b64b3c1fcf0488ec38c6b9d55e79be19", "type": "electric_scooter", "is_disabled": 0, "lat": 38.92156466666667, "rental_uris": {"android": "https://dc.lft.to/lastmile_qr_scan", "ios": "https://dc.lft.to/lastmile_qr_scan"}, "bike_id": "b64b3c1fcf0488ec38c6b9d55e79be19", "lon": -77.0350385}, {"is_reserved": 0, "fusion_lon": 0.0, "fusion_lat": 0.0, "name": "c10df4bab2cfd1a540bfa20aed07acdc", "type": "electric_scooter", "is_disabled": 0, "lat": 38.9216625, "rental_uris": {"android": "https://dc.lft.to/lastmile_qr_scan", "ios": "https://dc.lft.to/lastmile_qr_scan"}, "bike_id": "c10df4bab2cfd1a540bfa20aed07acdc", "lon": -77.03339266666667}, {"is_reserved": 0, "fusion_lon": 0.0, "fusion_lat": 0.0, "name": "579e3fab66cd89f3967ed60bff364988", "type": "electric_scooter", "is_disabled": 0, "lat": 38.916902666666665, "rental_uris": {"android": "https://dc.lft.to/lastmile_qr_scan", "ios": "https://dc.lft.to/lastmile_qr_scan"}, "bike_id": "579e3fab66cd89f3967ed60bff364988", "lon": -77.03119216666667}, {"is_reserved": 0, "fusion_lon": 0.0, "fusion_lat": 0.0, "name": "1367507ab6f3e9a052d632cf4aab5563", "type": "electric_scooter", "is_disabled": 0, "lat": 38.908174, "rental_uris": {"android": "https://dc.lft.to/lastmile_qr_scan", "ios": "https://dc.lft.to/lastmile_qr_scan"}, "bike_id": "1367507ab6f3e9a052d632cf4aab5563", "lon": -76.99227066666667}, {"is_reserved": 0, "fusion_lon": 0.0, "fusion_lat": 0.0, "name": "b18fe85176ade96e05c3a7027c9bf577", "type": "electric_scooter", "is_disabled": 0, "lat": 38.9079435, "rental_uris": {"android": "https://dc.lft.to/lastmile_qr_scan", "ios": "https://dc.lft.to/lastmile_qr_scan"}, "bike_id": "b18fe85176ade96e05c3a7027c9bf577", "lon": -77.0386285}, {"is_reserved": 0, "fusion_lon": 0.0, "fusion_lat": 0.0, "name": "50a4aee1f1961cf1ec8105f814f44f82", "type": "electric_scooter", "is_disabled": 0, "lat": 38.9072355, "rental_uris": {"android": "https://dc.lft.to/lastmile_qr_scan", "ios": "https://dc.lft.to/lastmile_qr_scan"}, "bike_id": "50a4aee1f1961cf1ec8105f814f44f82", "lon": -77.03833733333333}, {"is_reserved": 0, "fusion_lon": 0.0, "fusion_lat": 0.0, "name": "3bc49c1c317037727a3174d3ad54d43f", "type": "electric_scooter", "is_disabled": 0, "lat": 38.892331666666664, "rental_uris": {"android": "https://dc.lft.to/lastmile_qr_scan", "ios": "https://dc.lft.to/lastmile_qr_scan"}, "bike_id": "3bc49c1c317037727a3174d3ad54d43f", "lon": -77.03185016666667}, {"is_reserved": 0, "fusion_lon": 0.0, "fusion_lat": 0.0, "name": "b489069b05f9cb0006ed646d6e8aec48", "type": "electric_scooter", "is_disabled": 0, "lat": 38.88616433333333, "rental_uris": {"android": "https://dc.lft.to/lastmile_qr_scan", "ios": "https://dc.lft.to/lastmile_qr_scan"}, "bike_id": "b489069b05f9cb0006ed646d6e8aec48", "lon": -76.99652716666667}, {"is_reserved": 0, "fusion_lon": 0.0, "fusion_lat": 0.0, "name": "7e7511b5c849f90490303f7aa90d45e2", "type": "electric_scooter", "is_disabled": 0, "lat": 38.88279633333333, "rental_uris": {"android": "https://dc.lft.to/lastmile_qr_scan", "ios": "https://dc.lft.to/lastmile_qr_scan"}, "bike_id": "7e7511b5c849f90490303f7aa90d45e2", "lon": -76.98779483333334}, {"is_reserved": 0, "fusion_lon": 0.0, "fusion_lat": 0.0, "name": "0a7e85ddbc687beb389cd6efdf82ac10", "type": "electric_scooter", "is_disabled": 0, "lat": 38.95153533333333, "rental_uris": {"android": "https://dc.lft.to/lastmile_qr_scan", "ios": "https://dc.lft.to/lastmile_qr_scan"}, "bike_id": "0a7e85ddbc687beb389cd6efdf82ac10", "lon": -77.01866183333334}, {"is_reserved": 0, "fusion_lon": 0.0, "fusion_lat": 0.0, "name": "abc95df64f64124e8de369da24505270", "type": "electric_scooter", "is_disabled": 0, "lat": 38.93534966666667, "rental_uris": {"android": "https://dc.lft.to/lastmile_qr_scan", "ios": "https://dc.lft.to/lastmile_qr_scan"}, "bike_id": "abc95df64f64124e8de369da24505270", "lon": -77.02352066666667}, {"is_reserved": 0, "fusion_lon": 0.0, "fusion_lat": 0.0, "name": "59e52b1c2eaec6c968510ae71af53908", "type": "electric_bike", "is_disabled": 0, "lat": 38.9361055, "rental_uris": {"android": "https://dc.lft.to/lastmile_qr_scan", "ios": "https://dc.lft.to/lastmile_qr_scan"}, "bike_id": "59e52b1c2eaec6c968510ae71af53908", "lon": -77.03724266666667}, {"is_reserved": 0, "fusion_lon": 0.0, "fusion_lat": 0.0, "name": "37d9094614c44f6a9c1d2bcacb88e985", "type": "electric_scooter", "is_disabled": 0, "lat": 38.922235666666666, "rental_uris": {"android": "https://dc.lft.to/lastmile_qr_scan", "ios": "https://dc.lft.to/lastmile_qr_scan"}, "bike_id": "37d9094614c44f6a9c1d2bcacb88e985", "lon": -77.03731166666667}, {"is_reserved": 0, "fusion_lon": 0.0, "fusion_lat": 0.0, "name": "1af911ec8695117d8867ae397f09629e", "type": "electric_scooter", "is_disabled": 0, "lat": 38.89787916666667, "rental_uris": {"android": "https://dc.lft.to/lastmile_qr_scan", "ios": "https://dc.lft.to/lastmile_qr_scan"}, "bike_id": "1af911ec8695117d8867ae397f09629e", "lon": -77.04014216666667}, {"is_reserved": 0, "fusion_lon": 0.0, "fusion_lat": 0.0, "name": "6bcc41f335028d96c2cc1aad3b307a99", "type": "electric_scooter", "is_disabled": 0, "lat": 38.90700366666667, "rental_uris": {"android": "https://dc.lft.to/lastmile_qr_scan", "ios": "https://dc.lft.to/lastmile_qr_scan"}, "bike_id": "6bcc41f335028d96c2cc1aad3b307a99", "lon": -76.98690683333334}, {"is_reserved": 0, "fusion_lon": 0.0, "fusion_lat": 0.0, "name": "184fd8a2f2578ae0e0da9375835f3159", "type": "electric_scooter", "is_disabled": 0, "lat": 38.913385, "rental_uris": {"android": "https://dc.lft.to/lastmile_qr_scan", "ios": "https://dc.lft.to/lastmile_qr_scan"}, "bike_id": "184fd8a2f2578ae0e0da9375835f3159", "lon": -77.010334}, {"is_reserved": 0, "fusion_lon": 0.0, "fusion_lat": 0.0, "name": "a9f3c5df2f14a9ada223e06fe0a448f4", "type": "electric_scooter", "is_disabled": 0, "lat": 38.916834333333334, "rental_uris": {"android": "https://dc.lft.to/lastmile_qr_scan", "ios": "https://dc.lft.to/lastmile_qr_scan"}, "bike_id": "a9f3c5df2f14a9ada223e06fe0a448f4", "lon": -77.02951466666667}, {"is_reserved": 0, "fusion_lon": 0.0, "fusion_lat": 0.0, "name": "dfbffb18c326baf2040e38eeec1c27f3", "type": "electric_scooter", "is_disabled": 0, "lat": 38.92149, "rental_uris": {"android": "https://dc.lft.to/lastmile_qr_scan", "ios": "https://dc.lft.to/lastmile_qr_scan"}, "bike_id": "dfbffb18c326baf2040e38eeec1c27f3", "lon": -77.0207175}, {"is_reserved": 0, "fusion_lon": 0.0, "fusion_lat": 0.0, "name": "891d4966b5c78251f35a1175e1d61c82", "type": "electric_scooter", "is_disabled": 0, "lat": 38.91862883333334, "rental_uris": {"android": "https://dc.lft.to/lastmile_qr_scan", "ios": "https://dc.lft.to/lastmile_qr_scan"}, "bike_id": "891d4966b5c78251f35a1175e1d61c82", "lon": -77.0253125}, {"is_reserved": 0, "fusion_lon": 0.0, "fusion_lat": 0.0, "name": "9d2c46c00b7b5d9520db486ba512eb4d", "type": "electric_scooter", "is_disabled": 0, "lat": 38.934932333333336, "rental_uris": {"android": "https://dc.lft.to/lastmile_qr_scan", "ios": "https://dc.lft.to/lastmile_qr_scan"}, "bike_id": "9d2c46c00b7b5d9520db486ba512eb4d", "lon": -77.036545}, {"is_reserved": 0, "fusion_lon": 0.0, "fusion_lat": 0.0, "name": "cd4459e80b735498132c295fb8b2cf1a", "type": "electric_scooter", "is_disabled": 0, "lat": 38.923205333333335, "rental_uris": {"android": "https://dc.lft.to/lastmile_qr_scan", "ios": "https://dc.lft.to/lastmile_qr_scan"}, "bike_id": "cd4459e80b735498132c295fb8b2cf1a", "lon": -77.04347216666666}, {"is_reserved": 0, "fusion_lon": 0.0, "fusion_lat": 0.0, "name": "19bbd90192cabac9a39acc0bdb07d654", "type": "electric_scooter", "is_disabled": 0, "lat": 38.94262466666667, "rental_uris": {"android": "https://dc.lft.to/lastmile_qr_scan", "ios": "https://dc.lft.to/lastmile_qr_scan"}, "bike_id": "19bbd90192cabac9a39acc0bdb07d654", "lon": -77.0284365}, {"is_reserved": 0, "fusion_lon": 0.0, "fusion_lat": 0.0, "name": "883f21f901bab27e9f9f19de7febe79c", "type": "electric_bike", "is_disabled": 0, "lat": 38.9455315, "rental_uris": {"android": "https://dc.lft.to/lastmile_qr_scan", "ios": "https://dc.lft.to/lastmile_qr_scan"}, "bike_id": "883f21f901bab27e9f9f19de7febe79c", "lon": -76.89540233333334}, {"is_reserved": 0, "fusion_lon": 0.0, "fusion_lat": 0.0, "name": "d55a2c325fcf8480a9224009e303e1f1", "type": "electric_bike", "is_disabled": 0, "lat": 39.0579265, "rental_uris": {"android": "https://dc.lft.to/lastmile_qr_scan", "ios": "https://dc.lft.to/lastmile_qr_scan"}, "bike_id": "d55a2c325fcf8480a9224009e303e1f1", "lon": -77.15017883333333}, {"is_reserved": 0, "fusion_lon": 0.0, "fusion_lat": 0.0, "name": "3aeadc4243cf9474e846823f2488875c", "type": "electric_scooter", "is_disabled": 0, "lat": 38.92583483333333, "rental_uris": {"android": "https://dc.lft.to/lastmile_qr_scan", "ios": "https://dc.lft.to/lastmile_qr_scan"}, "bike_id": "3aeadc4243cf9474e846823f2488875c", "lon": -77.02683266666666}, {"is_reserved": 0, "fusion_lon": 0.0, "fusion_lat": 0.0, "name": "d8e52972b2a884c2fb546bc2bd2ba63f", "type": "electric_scooter", "is_disabled": 0, "lat": 38.8951925, "rental_uris": {"android": "https://dc.lft.to/lastmile_qr_scan", "ios": "https://dc.lft.to/lastmile_qr_scan"}, "bike_id": "d8e52972b2a884c2fb546bc2bd2ba63f", "lon": -77.03960533333333}, {"is_reserved": 0, "fusion_lon": 0.0, "fusion_lat": 0.0, "name": "d28755e11466aa7683590b43f54499fe", "type": "electric_scooter", "is_disabled": 0, "lat": 38.9035285, "rental_uris": {"android": "https://dc.lft.to/lastmile_qr_scan", "ios": "https://dc.lft.to/lastmile_qr_scan"}, "bike_id": "d28755e11466aa7683590b43f54499fe", "lon": -77.0534575}, {"is_reserved": 0, "fusion_lon": 0.0, "fusion_lat": 0.0, "name": "98b17b11a321c5d16bdf9905b3c87da2", "type": "electric_scooter", "is_disabled": 0, "lat": 38.924495, "rental_uris": {"android": "https://dc.lft.to/lastmile_qr_scan", "ios": "https://dc.lft.to/lastmile_qr_scan"}, "bike_id": "98b17b11a321c5d16bdf9905b3c87da2", "lon": -77.0575605}, {"is_reserved": 0, "fusion_lon": 0.0, "fusion_lat": 0.0, "name": "b80908c5ae85095a1c95ee9e3a1d445c", "type": "electric_scooter", "is_disabled": 0, "lat": 38.9232455, "rental_uris": {"android": "https://dc.lft.to/lastmile_qr_scan", "ios": "https://dc.lft.to/lastmile_qr_scan"}, "bike_id": "b80908c5ae85095a1c95ee9e3a1d445c", "lon": -77.0354645}, {"is_reserved": 0, "fusion_lon": 0.0, "fusion_lat": 0.0, "name": "da8963afa519c698db8630d3734f0889", "type": "electric_scooter", "is_disabled": 0, "lat": 38.91064266666667, "rental_uris": {"android": "https://dc.lft.to/lastmile_qr_scan", "ios": "https://dc.lft.to/lastmile_qr_scan"}, "bike_id": "da8963afa519c698db8630d3734f0889", "lon": -77.04103916666666}, {"is_reserved": 0, "fusion_lon": 0.0, "fusion_lat": 0.0, "name": "8b98b6829e50c866bfc7bb141e468d92", "type": "electric_scooter", "is_disabled": 0, "lat": 38.9305085, "rental_uris": {"android": "https://dc.lft.to/lastmile_qr_scan", "ios": "https://dc.lft.to/lastmile_qr_scan"}, "bike_id": "8b98b6829e50c866bfc7bb141e468d92", "lon": -77.037946}, {"is_reserved": 0, "fusion_lon": 0.0, "fusion_lat": 0.0, "name": "e9d97c778f7fe2fc2b91cd1f10d5c877", "type": "electric_scooter", "is_disabled": 0, "lat": 38.921918833333336, "rental_uris": {"android": "https://dc.lft.to/lastmile_qr_scan", "ios": "https://dc.lft.to/lastmile_qr_scan"}, "bike_id": "e9d97c778f7fe2fc2b91cd1f10d5c877", "lon": -77.04233983333333}, {"is_reserved": 0, "fusion_lon": 0.0, "fusion_lat": 0.0, "name": "bf51bc14d1765885407c491dda7db8da", "type": "electric_scooter", "is_disabled": 0, "lat": 38.8973115, "rental_uris": {"android": "https://dc.lft.to/lastmile_qr_scan", "ios": "https://dc.lft.to/lastmile_qr_scan"}, "bike_id": "bf51bc14d1765885407c491dda7db8da", "lon": -77.0547625}, {"is_reserved": 0, "fusion_lon": 0.0, "fusion_lat": 0.0, "name": "92d4aedcf19697b156769ccf5ac2be70", "type": "electric_scooter", "is_disabled": 0, "lat": 38.95329566666667, "rental_uris": {"android": "https://dc.lft.to/lastmile_qr_scan", "ios": "https://dc.lft.to/lastmile_qr_scan"}, "bike_id": "92d4aedcf19697b156769ccf5ac2be70", "lon": -77.0707095}, {"is_reserved": 0, "fusion_lon": 0.0, "fusion_lat": 0.0, "name": "0de56d1ce88a19b3134cb34e777f0d85", "type": "electric_scooter", "is_disabled": 0, "lat": 38.90031316666666, "rental_uris": {"android": "https://dc.lft.to/lastmile_qr_scan", "ios": "https://dc.lft.to/lastmile_qr_scan"}, "bike_id": "0de56d1ce88a19b3134cb34e777f0d85", "lon": -76.98857183333334}, {"is_reserved": 0, "fusion_lon": 0.0, "fusion_lat": 0.0, "name": "1497aa34eafb9b1d2091f2d027fc687b", "type": "electric_scooter", "is_disabled": 0, "lat": 38.9044645, "rental_uris": {"android": "https://dc.lft.to/lastmile_qr_scan", "ios": "https://dc.lft.to/lastmile_qr_scan"}, "bike_id": "1497aa34eafb9b1d2091f2d027fc687b", "lon": -76.99624433333334}, {"is_reserved": 0, "fusion_lon": 0.0, "fusion_lat": 0.0, "name": "84c521ef0435c7bcb1ecda13ebdadf24", "type": "electric_scooter", "is_disabled": 0, "lat": 38.90781666666667, "rental_uris": {"android": "https://dc.lft.to/lastmile_qr_scan", "ios": "https://dc.lft.to/lastmile_qr_scan"}, "bike_id": "84c521ef0435c7bcb1ecda13ebdadf24", "lon": -77.03443416666667}, {"is_reserved": 0, "fusion_lon": 0.0, "fusion_lat": 0.0, "name": "f50791e4f1a9024cbc191512696f58f2", "type": "electric_scooter", "is_disabled": 0, "lat": 38.910222, "rental_uris": {"android": "https://dc.lft.to/lastmile_qr_scan", "ios": "https://dc.lft.to/lastmile_qr_scan"}, "bike_id": "f50791e4f1a9024cbc191512696f58f2", "lon": -77.064938}, {"is_reserved": 0, "fusion_lon": 0.0, "fusion_lat": 0.0, "name": "54b8d1f0ceb2cf8339c4c726d7f641f9", "type": "electric_scooter", "is_disabled": 0, "lat": 38.918334333333334, "rental_uris": {"android": "https://dc.lft.to/lastmile_qr_scan", "ios": "https://dc.lft.to/lastmile_qr_scan"}, "bike_id": "54b8d1f0ceb2cf8339c4c726d7f641f9", "lon": -77.02469516666666}, {"is_reserved": 0, "fusion_lon": 0.0, "fusion_lat": 0.0, "name": "a94cfbe64f64f6e5ae4ba10f69b4fdfc", "type": "electric_scooter", "is_disabled": 0, "lat": 38.92427683333333, "rental_uris": {"android": "https://dc.lft.to/lastmile_qr_scan", "ios": "https://dc.lft.to/lastmile_qr_scan"}, "bike_id": "a94cfbe64f64f6e5ae4ba10f69b4fdfc", "lon": -77.03554066666666}, {"is_reserved": 0, "fusion_lon": 0.0, "fusion_lat": 0.0, "name": "6b6916d48d869327308034c1ab636ae8", "type": "electric_scooter", "is_disabled": 0, "lat": 38.9141755, "rental_uris": {"android": "https://dc.lft.to/lastmile_qr_scan", "ios": "https://dc.lft.to/lastmile_qr_scan"}, "bike_id": "6b6916d48d869327308034c1ab636ae8", "lon": -77.0215445}, {"is_reserved": 0, "fusion_lon": 0.0, "fusion_lat": 0.0, "name": "8623d1de23269a607875326812f9f4e6", "type": "electric_bike", "is_disabled": 0, "lat": 38.93181966666667, "rental_uris": {"android": "https://dc.lft.to/lastmile_qr_scan", "ios": "https://dc.lft.to/lastmile_qr_scan"}, "bike_id": "8623d1de23269a607875326812f9f4e6", "lon": -77.03542333333333}, {"is_reserved": 0, "fusion_lon": 0.0, "fusion_lat": 0.0, "name": "0acc29b72023d1ead5673bcc34675ffe", "type": "electric_scooter", "is_disabled": 0, "lat": 38.8959215, "rental_uris": {"android": "https://dc.lft.to/lastmile_qr_scan", "ios": "https://dc.lft.to/lastmile_qr_scan"}, "bike_id": "0acc29b72023d1ead5673bcc34675ffe", "lon": -77.0280045}, {"is_reserved": 0, "fusion_lon": 0.0, "fusion_lat": 0.0, "name": "47dab3f1ccf03d188e5a30ded744ef12", "type": "electric_scooter", "is_disabled": 0, "lat": 38.900025, "rental_uris": {"android": "https://dc.lft.to/lastmile_qr_scan", "ios": "https://dc.lft.to/lastmile_qr_scan"}, "bike_id": "47dab3f1ccf03d188e5a30ded744ef12", "lon": -76.99841083333334}, {"is_reserved": 0, "fusion_lon": 0.0, "fusion_lat": 0.0, "name": "74a1a6fbee963e87bf847b01ed8cdafd", "type": "electric_scooter", "is_disabled": 0, "lat": 38.92574916666667, "rental_uris": {"android": "https://dc.lft.to/lastmile_qr_scan", "ios": "https://dc.lft.to/lastmile_qr_scan"}, "bike_id": "74a1a6fbee963e87bf847b01ed8cdafd", "lon": -77.052896}, {"is_reserved": 0, "fusion_lon": 0.0, "fusion_lat": 0.0, "name": "6b57b9de7267ece7a852b262d8940725", "type": "electric_scooter", "is_disabled": 0, "lat": 38.90815633333333, "rental_uris": {"android": "https://dc.lft.to/lastmile_qr_scan", "ios": "https://dc.lft.to/lastmile_qr_scan"}, "bike_id": "6b57b9de7267ece7a852b262d8940725", "lon": -77.04327833333333}, {"is_reserved": 0, "fusion_lon": 0.0, "fusion_lat": 0.0, "name": "ced69172f4f8fbc04ed173897f392f53", "type": "electric_scooter", "is_disabled": 0, "lat": 38.87730483333333, "rental_uris": {"android": "https://dc.lft.to/lastmile_qr_scan", "ios": "https://dc.lft.to/lastmile_qr_scan"}, "bike_id": "ced69172f4f8fbc04ed173897f392f53", "lon": -77.01783616666667}, {"is_reserved": 0, "fusion_lon": 0.0, "fusion_lat": 0.0, "name": "435080916eba7536f82f7ac361b9a5cd", "type": "electric_scooter", "is_disabled": 0, "lat": 38.955283666666666, "rental_uris": {"android": "https://dc.lft.to/lastmile_qr_scan", "ios": "https://dc.lft.to/lastmile_qr_scan"}, "bike_id": "435080916eba7536f82f7ac361b9a5cd", "lon": -77.0221385}, {"is_reserved": 0, "fusion_lon": 0.0, "fusion_lat": 0.0, "name": "94f720b1b5ef6786c0db2ae9bb5e1902", "type": "electric_scooter", "is_disabled": 0, "lat": 38.910556, "rental_uris": {"android": "https://dc.lft.to/lastmile_qr_scan", "ios": "https://dc.lft.to/lastmile_qr_scan"}, "bike_id": "94f720b1b5ef6786c0db2ae9bb5e1902", "lon": -77.0220245}, {"is_reserved": 0, "fusion_lon": 0.0, "fusion_lat": 0.0, "name": "df12bd9ef5a592fda3b94862e4377ea5", "type": "electric_scooter", "is_disabled": 0, "lat": 38.89855683333333, "rental_uris": {"android": "https://dc.lft.to/lastmile_qr_scan", "ios": "https://dc.lft.to/lastmile_qr_scan"}, "bike_id": "df12bd9ef5a592fda3b94862e4377ea5", "lon": -76.99018533333333}, {"is_reserved": 0, "fusion_lon": 0.0, "fusion_lat": 0.0, "name": "334daea470b106096fe7b8f34ab7e6fd", "type": "electric_scooter", "is_disabled": 0, "lat": 38.90381466666667, "rental_uris": {"android": "https://dc.lft.to/lastmile_qr_scan", "ios": "https://dc.lft.to/lastmile_qr_scan"}, "bike_id": "334daea470b106096fe7b8f34ab7e6fd", "lon": -77.04862316666667}, {"is_reserved": 0, "fusion_lon": 0.0, "fusion_lat": 0.0, "name": "39f381ce001d780a596019fb10a22024", "type": "electric_scooter", "is_disabled": 0, "lat": 38.89221083333333, "rental_uris": {"android": "https://dc.lft.to/lastmile_qr_scan", "ios": "https://dc.lft.to/lastmile_qr_scan"}, "bike_id": "39f381ce001d780a596019fb10a22024", "lon": -77.04308683333333}, {"is_reserved": 0, "fusion_lon": 0.0, "fusion_lat": 0.0, "name": "538da0d54ff54c903da2ba7a9405deb5", "type": "electric_scooter", "is_disabled": 0, "lat": 38.918939333333334, "rental_uris": {"android": "https://dc.lft.to/lastmile_qr_scan", "ios": "https://dc.lft.to/lastmile_qr_scan"}, "bike_id": "538da0d54ff54c903da2ba7a9405deb5", "lon": -77.012081}, {"is_reserved": 0, "fusion_lon": 0.0, "fusion_lat": 0.0, "name": "b23b94f8aa37847ddd6dfc6720436aae", "type": "electric_scooter", "is_disabled": 0, "lat": 38.912620833333335, "rental_uris": {"android": "https://dc.lft.to/lastmile_qr_scan", "ios": "https://dc.lft.to/lastmile_qr_scan"}, "bike_id": "b23b94f8aa37847ddd6dfc6720436aae", "lon": -77.030736}, {"is_reserved": 0, "fusion_lon": 0.0, "fusion_lat": 0.0, "name": "801531908fc84b74c2f8bfbf2f817c7e", "type": "electric_scooter", "is_disabled": 0, "lat": 38.9126405, "rental_uris": {"android": "https://dc.lft.to/lastmile_qr_scan", "ios": "https://dc.lft.to/lastmile_qr_scan"}, "bike_id": "801531908fc84b74c2f8bfbf2f817c7e", "lon": -77.03864283333333}, {"is_reserved": 0, "fusion_lon": 0.0, "fusion_lat": 0.0, "name": "75d570cbabb446d0c8e78d65d3128da6", "type": "electric_scooter", "is_disabled": 0, "lat": 38.900163666666664, "rental_uris": {"android": "https://dc.lft.to/lastmile_qr_scan", "ios": "https://dc.lft.to/lastmile_qr_scan"}, "bike_id": "75d570cbabb446d0c8e78d65d3128da6", "lon": -77.003067}, {"is_reserved": 0, "fusion_lon": 0.0, "fusion_lat": 0.0, "name": "3b7f6d25942cadbec68f256255140a9c", "type": "electric_scooter", "is_disabled": 0, "lat": 38.892279, "rental_uris": {"android": "https://dc.lft.to/lastmile_qr_scan", "ios": "https://dc.lft.to/lastmile_qr_scan"}, "bike_id": "3b7f6d25942cadbec68f256255140a9c", "lon": -77.04507533333333}, {"is_reserved": 0, "fusion_lon": 0.0, "fusion_lat": 0.0, "name": "f61fc9041ba06fc389cf820ec2aa2f2e", "type": "electric_scooter", "is_disabled": 0, "lat": 38.9026805, "rental_uris": {"android": "https://dc.lft.to/lastmile_qr_scan", "ios": "https://dc.lft.to/lastmile_qr_scan"}, "bike_id": "f61fc9041ba06fc389cf820ec2aa2f2e", "lon": -77.0388785}, {"is_reserved": 0, "fusion_lon": 0.0, "fusion_lat": 0.0, "name": "eb846258b5b220b28941c25ad0a66a5b", "type": "electric_scooter", "is_disabled": 0, "lat": 38.9140555, "rental_uris": {"android": "https://dc.lft.to/lastmile_qr_scan", "ios": "https://dc.lft.to/lastmile_qr_scan"}, "bike_id": "eb846258b5b220b28941c25ad0a66a5b", "lon": -77.03951833333333}, {"is_reserved": 0, "fusion_lon": 0.0, "fusion_lat": 0.0, "name": "b99ca8e8a1676ed13ef63cfaf118860c", "type": "electric_scooter", "is_disabled": 0, "lat": 38.907576666666664, "rental_uris": {"android": "https://dc.lft.to/lastmile_qr_scan", "ios": "https://dc.lft.to/lastmile_qr_scan"}, "bike_id": "b99ca8e8a1676ed13ef63cfaf118860c", "lon": -77.04559416666666}, {"is_reserved": 0, "fusion_lon": 0.0, "fusion_lat": 0.0, "name": "4fc35fe9d08fa827ad43f88a5a8c964c", "type": "electric_scooter", "is_disabled": 0, "lat": 38.9252845, "rental_uris": {"android": "https://dc.lft.to/lastmile_qr_scan", "ios": "https://dc.lft.to/lastmile_qr_scan"}, "bike_id": "4fc35fe9d08fa827ad43f88a5a8c964c", "lon": -77.0442265}, {"is_reserved": 0, "fusion_lon": 0.0, "fusion_lat": 0.0, "name": "ecdcd54ef399ac853cb68aa698b805b8", "type": "electric_scooter", "is_disabled": 0, "lat": 38.90665283333333, "rental_uris": {"android": "https://dc.lft.to/lastmile_qr_scan", "ios": "https://dc.lft.to/lastmile_qr_scan"}, "bike_id": "ecdcd54ef399ac853cb68aa698b805b8", "lon": -77.00194183333333}, {"is_reserved": 0, "fusion_lon": 0.0, "fusion_lat": 0.0, "name": "18663cf97141554296a3ad0b3aaad56f", "type": "electric_scooter", "is_disabled": 0, "lat": 38.90433816666667, "rental_uris": {"android": "https://dc.lft.to/lastmile_qr_scan", "ios": "https://dc.lft.to/lastmile_qr_scan"}, "bike_id": "18663cf97141554296a3ad0b3aaad56f", "lon": -77.02596833333334}, {"is_reserved": 0, "fusion_lon": 0.0, "fusion_lat": 0.0, "name": "5a1acc6e7fb6b44fa6f8b9ad04b2d928", "type": "electric_scooter", "is_disabled": 0, "lat": 38.9303915, "rental_uris": {"android": "https://dc.lft.to/lastmile_qr_scan", "ios": "https://dc.lft.to/lastmile_qr_scan"}, "bike_id": "5a1acc6e7fb6b44fa6f8b9ad04b2d928", "lon": -77.02781533333334}, {"is_reserved": 0, "fusion_lon": 0.0, "fusion_lat": 0.0, "name": "f4c5cb8f7211e9fcfedc4f3d65322904", "type": "electric_scooter", "is_disabled": 0, "lat": 38.90545866666667, "rental_uris": {"android": "https://dc.lft.to/lastmile_qr_scan", "ios": "https://dc.lft.to/lastmile_qr_scan"}, "bike_id": "f4c5cb8f7211e9fcfedc4f3d65322904", "lon": -77.005994}, {"is_reserved": 0, "fusion_lon": 0.0, "fusion_lat": 0.0, "name": "c0cbda3ba19a60e79144caed743e0377", "type": "electric_scooter", "is_disabled": 0, "lat": 38.907402, "rental_uris": {"android": "https://dc.lft.to/lastmile_qr_scan", "ios": "https://dc.lft.to/lastmile_qr_scan"}, "bike_id": "c0cbda3ba19a60e79144caed743e0377", "lon": -77.02954916666667}, {"is_reserved": 0, "fusion_lon": 0.0, "fusion_lat": 0.0, "name": "1b1ba3445aa2c1652d7530e9acd143cb", "type": "electric_scooter", "is_disabled": 0, "lat": 38.93284766666667, "rental_uris": {"android": "https://dc.lft.to/lastmile_qr_scan", "ios": "https://dc.lft.to/lastmile_qr_scan"}, "bike_id": "1b1ba3445aa2c1652d7530e9acd143cb", "lon": -77.025423}, {"is_reserved": 0, "fusion_lon": 0.0, "fusion_lat": 0.0, "name": "43d7bfb23995ebb634eb32cb31ec98dd", "type": "electric_bike", "is_disabled": 0, "lat": 38.911784, "rental_uris": {"android": "https://dc.lft.to/lastmile_qr_scan", "ios": "https://dc.lft.to/lastmile_qr_scan"}, "bike_id": "43d7bfb23995ebb634eb32cb31ec98dd", "lon": -77.0115485}, {"is_reserved": 0, "fusion_lon": 0.0, "fusion_lat": 0.0, "name": "452511b0fd9d2fc42b241b9099bcec88", "type": "electric_bike", "is_disabled": 0, "lat": 38.829132666666666, "rental_uris": {"android": "https://dc.lft.to/lastmile_qr_scan", "ios": "https://dc.lft.to/lastmile_qr_scan"}, "bike_id": "452511b0fd9d2fc42b241b9099bcec88", "lon": -76.99783483333333}, {"is_reserved": 0, "fusion_lon": 0.0, "fusion_lat": 0.0, "name": "bf97cb6815e1309c4f01506872760de4", "type": "electric_scooter", "is_disabled": 0, "lat": 38.90600416666667, "rental_uris": {"android": "https://dc.lft.to/lastmile_qr_scan", "ios": "https://dc.lft.to/lastmile_qr_scan"}, "bike_id": "bf97cb6815e1309c4f01506872760de4", "lon": -77.04045933333333}, {"is_reserved": 0, "fusion_lon": 0.0, "fusion_lat": 0.0, "name": "a8d89a9f623046711ec92f89aa950d00", "type": "electric_scooter", "is_disabled": 0, "lat": 38.8989035, "rental_uris": {"android": "https://dc.lft.to/lastmile_qr_scan", "ios": "https://dc.lft.to/lastmile_qr_scan"}, "bike_id": "a8d89a9f623046711ec92f89aa950d00", "lon": -77.03258383333333}, {"is_reserved": 0, "fusion_lon": 0.0, "fusion_lat": 0.0, "name": "495d520b202881522e8e9f83b03554a3", "type": "electric_scooter", "is_disabled": 0, "lat": 38.899659666666665, "rental_uris": {"android": "https://dc.lft.to/lastmile_qr_scan", "ios": "https://dc.lft.to/lastmile_qr_scan"}, "bike_id": "495d520b202881522e8e9f83b03554a3", "lon": -77.04510316666666}, {"is_reserved": 0, "fusion_lon": 0.0, "fusion_lat": 0.0, "name": "81fa1f7011acdbba0aafa610a0d3031e", "type": "electric_scooter", "is_disabled": 0, "lat": 38.911862666666664, "rental_uris": {"android": "https://dc.lft.to/lastmile_qr_scan", "ios": "https://dc.lft.to/lastmile_qr_scan"}, "bike_id": "81fa1f7011acdbba0aafa610a0d3031e", "lon": -77.00312566666666}, {"is_reserved": 0, "fusion_lon": 0.0, "fusion_lat": 0.0, "name": "f4357faaaccdb242aca05e1025ddc994", "type": "electric_scooter", "is_disabled": 0, "lat": 38.921059666666665, "rental_uris": {"android": "https://dc.lft.to/lastmile_qr_scan", "ios": "https://dc.lft.to/lastmile_qr_scan"}, "bike_id": "f4357faaaccdb242aca05e1025ddc994", "lon": -76.99393033333334}, {"is_reserved": 0, "fusion_lon": 0.0, "fusion_lat": 0.0, "name": "eddaf6d92681a1c60f56bc184b9bbf06", "type": "electric_scooter", "is_disabled": 0, "lat": 38.948404833333335, "rental_uris": {"android": "https://dc.lft.to/lastmile_qr_scan", "ios": "https://dc.lft.to/lastmile_qr_scan"}, "bike_id": "eddaf6d92681a1c60f56bc184b9bbf06", "lon": -77.02546883333333}, {"is_reserved": 0, "fusion_lon": 0.0, "fusion_lat": 0.0, "name": "91bcb98385df04e120ce610732166774", "type": "electric_scooter", "is_disabled": 0, "lat": 38.90406766666667, "rental_uris": {"android": "https://dc.lft.to/lastmile_qr_scan", "ios": "https://dc.lft.to/lastmile_qr_scan"}, "bike_id": "91bcb98385df04e120ce610732166774", "lon": -77.06771016666667}, {"is_reserved": 0, "fusion_lon": 0.0, "fusion_lat": 0.0, "name": "678382186507a9ae6ef6e366a1fc7058", "type": "electric_scooter", "is_disabled": 0, "lat": 38.900488833333334, "rental_uris": {"android": "https://dc.lft.to/lastmile_qr_scan", "ios": "https://dc.lft.to/lastmile_qr_scan"}, "bike_id": "678382186507a9ae6ef6e366a1fc7058", "lon": -77.04366483333334}, {"is_reserved": 0, "fusion_lon": 0.0, "fusion_lat": 0.0, "name": "abf9100d70862171b4fa296314bbfc06", "type": "electric_scooter", "is_disabled": 0, "lat": 38.931149833333336, "rental_uris": {"android": "https://dc.lft.to/lastmile_qr_scan", "ios": "https://dc.lft.to/lastmile_qr_scan"}, "bike_id": "abf9100d70862171b4fa296314bbfc06", "lon": -77.03028916666666}, {"is_reserved": 0, "fusion_lon": 0.0, "fusion_lat": 0.0, "name": "6d53537ba72da5f807919d2f9cc4790e", "type": "electric_scooter", "is_disabled": 0, "lat": 38.915527833333336, "rental_uris": {"android": "https://dc.lft.to/lastmile_qr_scan", "ios": "https://dc.lft.to/lastmile_qr_scan"}, "bike_id": "6d53537ba72da5f807919d2f9cc4790e", "lon": -77.02423083333333}, {"is_reserved": 0, "fusion_lon": 0.0, "fusion_lat": 0.0, "name": "b8b70dcacb535e0d371749007b2c8a09", "type": "electric_scooter", "is_disabled": 0, "lat": 38.957334833333334, "rental_uris": {"android": "https://dc.lft.to/lastmile_qr_scan", "ios": "https://dc.lft.to/lastmile_qr_scan"}, "bike_id": "b8b70dcacb535e0d371749007b2c8a09", "lon": -77.02404}, {"is_reserved": 0, "fusion_lon": 0.0, "fusion_lat": 0.0, "name": "57d55950f0fea91fabb0f3ebb50689fa", "type": "electric_scooter", "is_disabled": 0, "lat": 38.90338883333333, "rental_uris": {"android": "https://dc.lft.to/lastmile_qr_scan", "ios": "https://dc.lft.to/lastmile_qr_scan"}, "bike_id": "57d55950f0fea91fabb0f3ebb50689fa", "lon": -76.98274566666667}, {"is_reserved": 0, "fusion_lon": 0.0, "fusion_lat": 0.0, "name": "fa10c328181404de83b38929955f9817", "type": "electric_scooter", "is_disabled": 0, "lat": 38.90550016666667, "rental_uris": {"android": "https://dc.lft.to/lastmile_qr_scan", "ios": "https://dc.lft.to/lastmile_qr_scan"}, "bike_id": "fa10c328181404de83b38929955f9817", "lon": -77.00494016666667}, {"is_reserved": 0, "fusion_lon": 0.0, "fusion_lat": 0.0, "name": "a47afd1aee4aabc29a8f19aef4808f0a", "type": "electric_scooter", "is_disabled": 0, "lat": 38.91494383333333, "rental_uris": {"android": "https://dc.lft.to/lastmile_qr_scan", "ios": "https://dc.lft.to/lastmile_qr_scan"}, "bike_id": "a47afd1aee4aabc29a8f19aef4808f0a", "lon": -77.01998483333334}, {"is_reserved": 0, "fusion_lon": 0.0, "fusion_lat": 0.0, "name": "06a816cc00c56f5618203ff7f8fa77c0", "type": "electric_scooter", "is_disabled": 0, "lat": 38.907354166666664, "rental_uris": {"android": "https://dc.lft.to/lastmile_qr_scan", "ios": "https://dc.lft.to/lastmile_qr_scan"}, "bike_id": "06a816cc00c56f5618203ff7f8fa77c0", "lon": -76.98629816666667}, {"is_reserved": 0, "fusion_lon": 0.0, "fusion_lat": 0.0, "name": "22bed8c42bcd7aba660be95a8e338441", "type": "electric_scooter", "is_disabled": 0, "lat": 38.87707316666667, "rental_uris": {"android": "https://dc.lft.to/lastmile_qr_scan", "ios": "https://dc.lft.to/lastmile_qr_scan"}, "bike_id": "22bed8c42bcd7aba660be95a8e338441", "lon": -77.01734683333333}, {"is_reserved": 0, "fusion_lon": 0.0, "fusion_lat": 0.0, "name": "74522b01c0b1e97641ea98e77471df95", "type": "electric_scooter", "is_disabled": 0, "lat": 38.893625, "rental_uris": {"android": "https://dc.lft.to/lastmile_qr_scan", "ios": "https://dc.lft.to/lastmile_qr_scan"}, "bike_id": "74522b01c0b1e97641ea98e77471df95", "lon": -76.98643683333333}, {"is_reserved": 0, "fusion_lon": 0.0, "fusion_lat": 0.0, "name": "581b05c1c793bbaeece36d01e333ac7d", "type": "electric_scooter", "is_disabled": 0, "lat": 38.91931483333333, "rental_uris": {"android": "https://dc.lft.to/lastmile_qr_scan", "ios": "https://dc.lft.to/lastmile_qr_scan"}, "bike_id": "581b05c1c793bbaeece36d01e333ac7d", "lon": -77.03185266666667}, {"is_reserved": 0, "fusion_lon": 0.0, "fusion_lat": 0.0, "name": "5ed793d332f5b4133f487505cce6e9de", "type": "electric_scooter", "is_disabled": 0, "lat": 38.905133, "rental_uris": {"android": "https://dc.lft.to/lastmile_qr_scan", "ios": "https://dc.lft.to/lastmile_qr_scan"}, "bike_id": "5ed793d332f5b4133f487505cce6e9de", "lon": -77.04783316666666}, {"is_reserved": 0, "fusion_lon": 0.0, "fusion_lat": 0.0, "name": "108e9044adf0622ccef9ea7c7e1d8e27", "type": "electric_scooter", "is_disabled": 0, "lat": 38.9038085, "rental_uris": {"android": "https://dc.lft.to/lastmile_qr_scan", "ios": "https://dc.lft.to/lastmile_qr_scan"}, "bike_id": "108e9044adf0622ccef9ea7c7e1d8e27", "lon": -77.0425755}, {"is_reserved": 0, "fusion_lon": 0.0, "fusion_lat": 0.0, "name": "9a304877637d08eb20f08fab647e7f03", "type": "electric_scooter", "is_disabled": 0, "lat": 38.92250166666667, "rental_uris": {"android": "https://dc.lft.to/lastmile_qr_scan", "ios": "https://dc.lft.to/lastmile_qr_scan"}, "bike_id": "9a304877637d08eb20f08fab647e7f03", "lon": -77.0308515}, {"is_reserved": 0, "fusion_lon": 0.0, "fusion_lat": 0.0, "name": "d458f16e2892fdee344c71b108226226", "type": "electric_bike", "is_disabled": 0, "lat": 39.04237066666666, "rental_uris": {"android": "https://dc.lft.to/lastmile_qr_scan", "ios": "https://dc.lft.to/lastmile_qr_scan"}, "bike_id": "d458f16e2892fdee344c71b108226226", "lon": -76.99735466666667}, {"is_reserved": 0, "fusion_lon": 0.0, "fusion_lat": 0.0, "name": "8e18b3598bacd0b36f86b5e4210e76c8", "type": "electric_scooter", "is_disabled": 0, "lat": 38.90516483333333, "rental_uris": {"android": "https://dc.lft.to/lastmile_qr_scan", "ios": "https://dc.lft.to/lastmile_qr_scan"}, "bike_id": "8e18b3598bacd0b36f86b5e4210e76c8", "lon": -77.00128883333333}, {"is_reserved": 0, "fusion_lon": 0.0, "fusion_lat": 0.0, "name": "9089c41339b4b9f0669a4d0f194f9b47", "type": "electric_scooter", "is_disabled": 0, "lat": 38.90737016666667, "rental_uris": {"android": "https://dc.lft.to/lastmile_qr_scan", "ios": "https://dc.lft.to/lastmile_qr_scan"}, "bike_id": "9089c41339b4b9f0669a4d0f194f9b47", "lon": -77.026912}, {"is_reserved": 0, "fusion_lon": 0.0, "fusion_lat": 0.0, "name": "3b94fa8b76ad3e574538689ba23d9950", "type": "electric_scooter", "is_disabled": 0, "lat": 38.95183183333333, "rental_uris": {"android": "https://dc.lft.to/lastmile_qr_scan", "ios": "https://dc.lft.to/lastmile_qr_scan"}, "bike_id": "3b94fa8b76ad3e574538689ba23d9950", "lon": -77.02729666666667}, {"is_reserved": 0, "fusion_lon": 0.0, "fusion_lat": 0.0, "name": "1f685ca196f6bfbbc24673621a047594", "type": "electric_bike", "is_disabled": 0, "lat": 38.90273666666667, "rental_uris": {"android": "https://dc.lft.to/lastmile_qr_scan", "ios": "https://dc.lft.to/lastmile_qr_scan"}, "bike_id": "1f685ca196f6bfbbc24673621a047594", "lon": -76.92926683333333}, {"is_reserved": 0, "fusion_lon": 0.0, "fusion_lat": 0.0, "name": "e6b37b5d695eb208f529856be32ecdb4", "type": "electric_scooter", "is_disabled": 0, "lat": 38.895961, "rental_uris": {"android": "https://dc.lft.to/lastmile_qr_scan", "ios": "https://dc.lft.to/lastmile_qr_scan"}, "bike_id": "e6b37b5d695eb208f529856be32ecdb4", "lon": -77.00768083333334}, {"is_reserved": 0, "fusion_lon": 0.0, "fusion_lat": 0.0, "name": "858f1bc94245263f44a0b6c82ca80a7d", "type": "electric_bike", "is_disabled": 0, "lat": 38.9386095, "rental_uris": {"android": "https://dc.lft.to/lastmile_qr_scan", "ios": "https://dc.lft.to/lastmile_qr_scan"}, "bike_id": "858f1bc94245263f44a0b6c82ca80a7d", "lon": -76.99314016666666}, {"is_reserved": 0, "fusion_lon": 0.0, "fusion_lat": 0.0, "name": "34a3f4b7e1a6333c5d2c06fdf3de9604", "type": "electric_scooter", "is_disabled": 0, "lat": 38.972228333333334, "rental_uris": {"android": "https://dc.lft.to/lastmile_qr_scan", "ios": "https://dc.lft.to/lastmile_qr_scan"}, "bike_id": "34a3f4b7e1a6333c5d2c06fdf3de9604", "lon": -77.02649566666666}, {"is_reserved": 0, "fusion_lon": 0.0, "fusion_lat": 0.0, "name": "c9f017f61f86191cc1f973959942150c", "type": "electric_scooter", "is_disabled": 0, "lat": 38.907553666666665, "rental_uris": {"android": "https://dc.lft.to/lastmile_qr_scan", "ios": "https://dc.lft.to/lastmile_qr_scan"}, "bike_id": "c9f017f61f86191cc1f973959942150c", "lon": -77.002626}, {"is_reserved": 0, "fusion_lon": 0.0, "fusion_lat": 0.0, "name": "2c28b3330961ca5489179011a666215a", "type": "electric_scooter", "is_disabled": 0, "lat": 38.9109965, "rental_uris": {"android": "https://dc.lft.to/lastmile_qr_scan", "ios": "https://dc.lft.to/lastmile_qr_scan"}, "bike_id": "2c28b3330961ca5489179011a666215a", "lon": -77.0297105}, {"is_reserved": 0, "fusion_lon": 0.0, "fusion_lat": 0.0, "name": "00d837343faa452d1fd9377c93a1492f", "type": "electric_scooter", "is_disabled": 0, "lat": 38.89222083333333, "rental_uris": {"android": "https://dc.lft.to/lastmile_qr_scan", "ios": "https://dc.lft.to/lastmile_qr_scan"}, "bike_id": "00d837343faa452d1fd9377c93a1492f", "lon": -77.04373916666667},