{"data": {"bikes": [{"is_disabled": 0, "fusion_lon": 0.0, "fusion_lat": 0.0, "lat": 38.917290333333334, "type": "electric_scooter", "lon": -76.991808, "bike_id": "01dc5c413c8cb5d975991fbf3492ef15", "rental_uris": {"android": "https://dc.lft.to/lastmile_qr_scan", "ios": "https://dc.lft.to/lastmile_qr_scan"}, "name": "01dc5c413c8cb5d975991fbf3492ef15", "is_reserved": 0}, {"is_disabled": 0, "fusion_lon": 0.0, "fusion_lat": 0.0, "lat": 38.9178585, "type": "electric_scooter", "lon": -77.03446233333334, "bike_id": "4abfd23b481b2b12cfefd270c0430357", "rental_uris": {"android": "https://dc.lft.to/lastmile_qr_scan", "ios": "https://dc.lft.to/lastmile_qr_scan"}, "name": "4abfd23b481b2b12cfefd270c0430357", "is_reserved": 0}, {"is_disabled": 0, "fusion_lon": 0.0, "fusion_lat": 0.0, "lat": 38.88564483333333, "type": "electric_scooter", "lon": -77.0007045, "bike_id": "bc25968f1dc7fc078f23abd0d07073ad", "rental_uris": {"android": "https://dc.lft.to/lastmile_qr_scan", "ios": "https://dc.lft.to/lastmile_qr_scan"}, "name": "bc25968f1dc7fc078f23abd0d07073ad", "is_reserved": 0}, {"is_disabled": 0, "fusion_lon": 0.0, "fusion_lat": 0.0, "lat": 38.97049883333333, "type": "electric_bike", "lon": -76.96062566666667, "bike_id": "4e56df17d6c3a1238802dbfe84237229", "rental_uris": {"android": "https://dc.lft.to/lastmile_qr_scan", "ios": "https://dc.lft.to/lastmile_qr_scan"}, "name": "4e56df17d6c3a1238802dbfe84237229", "is_reserved": 0}, {"is_disabled": 0, "fusion_lon": 0.0, "fusion_lat": 0.0, "lat": 38.900089666666666, "type": "electric_scooter", "lon": -76.99592383333334, "bike_id": "3843bfb38db716ef2004903ae9f0e22f", "rental_uris": {"android": "https://dc.lft.to/lastmile_qr_scan", "ios": "https://dc.lft.to/lastmile_qr_scan"}, "name": "3843bfb38db716ef2004903ae9f0e22f", "is_reserved": 0}, {"is_disabled": 0, "fusion_lon": 0.0, "fusion_lat": 0.0, "lat": 38.915833666666664, "type": "electric_scooter", "lon": -77.04680433333333, "bike_id": "95c21b43f950fc68970bed233c709080", "rental_uris": {"android": "https://dc.lft.to/lastmile_qr_scan", "ios": "https://dc.lft.to/lastmile_qr_scan"}, "name": "95c21b43f950fc68970bed233c709080", "is_reserved": 0}, {"is_disabled": 0, "fusion_lon": 0.0, "fusion_lat": 0.0, "lat": 38.921653666666664, "type": "electric_scooter", "lon": -77.04339216666666, "bike_id": "a8e091ff5087f6aa274e9c4fe7a4748c", "rental_uris": {"android": "https://dc.lft.to/lastmile_qr_scan", "ios": "https://dc.lft.to/lastmile_qr_scan"}, "name": "a8e091ff5087f6aa274e9c4fe7a4748c", "is_reserved": 0}, {"is_disabled": 0, "fusion_lon": 0.0, "fusion_lat": 0.0, "lat": 38.90726466666667, "type": "electric_scooter", "lon": -77.01136083333333, "bike_id": "861150dfe0bef3ad0c52084bd14d598d", "rental_uris": {"android": "https://dc.lft.to/lastmile_qr_scan", "ios": "https://dc.lft.to/lastmile_qr_scan"}, "name": "861150dfe0bef3ad0c52084bd14d598d", "is_reserved": 0}, {"is_disabled": 0, "fusion_lon": 0.0, "fusion_lat": 0.0, "lat": 38.91575433333333, "type": "electric_scooter", "lon": -77.01998133333333, "bike_id": "fd59e3bce4599b1d60c4e2a36abd178b", "rental_uris": {"android": "https://dc.lft.to/lastmile_qr_scan", "ios": "https://dc.lft.to/lastmile_qr_scan"}, "name": "fd59e3bce4599b1d60c4e2a36abd178b", "is_reserved": 0}, {"is_disabled": 0, "fusion_lon": 0.0, "fusion_lat": 0.0, "lat": 38.92071583333333, "type": "electric_scooter", "lon": -77.02392366666666, "bike_id": "05963d9e265d9974c957c8b991ea60e7", "rental_uris": {"android": "https://dc.lft.to/lastmile_qr_scan", "ios": "https://dc.lft.to/lastmile_qr_scan"}, "name": "05963d9e265d9974c957c8b991ea60e7", "is_reserved": 0}, {"is_disabled": 0, "fusion_lon": 0.0, "fusion_lat": 0.0, "lat": 38.8921815, "type": "electric_scooter", "lon": -77.022215, "bike_id": "794f0e41eb0f85b80ae337d824120d4b", "rental_uris": {"android": "https://dc.lft.to/lastmile_qr_scan", "ios": "https://dc.lft.to/lastmile_qr_scan"}, "name": "794f0e41eb0f85b80ae337d824120d4b", "is_reserved": 0}, {"is_disabled": 0, "fusion_lon": 0.0, "fusion_lat": 0.0, "lat": 38.911986, "type": "electric_scooter", "lon": -76.98483833333333, "bike_id": "092437c31d8f8a2d13653f8110c643d2", "rental_uris": {"android": "https://dc.lft.to/lastmile_qr_scan", "ios": "https://dc.lft.to/lastmile_qr_scan"}, "name": "092437c31d8f8a2d13653f8110c643d2", "is_reserved": 0}, {"is_disabled": 0, "fusion_lon": 0.0, "fusion_lat": 0.0, "lat": 38.90676466666667, "type": "electric_scooter", "lon": -77.03439316666666, "bike_id": "034fde2fff059f9737f864e5571860ca", "rental_uris": {"android": "https://dc.lft.to/lastmile_qr_scan", "ios": "https://dc.lft.to/lastmile_qr_scan"}, "name": "034fde2fff059f9737f864e5571860ca", "is_reserved": 0}, {"is_disabled": 0, "fusion_lon": 0.0, "fusion_lat": 0.0, "lat": 38.907331166666665, "type": "electric_scooter", "lon": -77.023709, "bike_id": "88a1ce00819c00f59b41aac1a39fa731", "rental_uris": {"android": "https://dc.lft.to/lastmile_qr_scan", "ios": "https://dc.lft.to/lastmile_qr_scan"}, "name": "88a1ce00819c00f59b41aac1a39fa731", "is_reserved": 0}, {"is_disabled": 0, "fusion_lon": 0.0, "fusion_lat": 0.0, "lat": 38.89194883333333, "type": "electric_scooter", "lon": -77.03171783333333, "bike_id": "d47979c385367a0905564abc5963b6ec", "rental_uris": {"android": "https://dc.lft.to/lastmile_qr_scan", "ios": "https://dc.lft.to/lastmile_qr_scan"}, "name": "d47979c385367a0905564abc5963b6ec", "is_reserved": 0}, {"is_disabled": 0, "fusion_lon": 0.0, "fusion_lat": 0.0, "lat": 38.8635285, "type": "electric_scooter", "lon": -76.9907185, "bike_id": "a59e65682a8e863d3911140fe591a6fd", "rental_uris": {"android": "https://dc.lft.to/lastmile_qr_scan", "ios": "https://dc.lft.to/lastmile_qr_scan"}, "name": "a59e65682a8e863d3911140fe591a6fd", "is_reserved": 0}, {"is_disabled": 0, "fusion_lon": 0.0, "fusion_lat": 0.0, "lat": 38.91231666666667, "type": "electric_scooter", "lon": -77.04883216666667, "bike_id": "3a7a8910ff5d136bab9eab74cc066625", "rental_uris": {"android": "https://dc.lft.to/lastmile_qr_scan", "ios": "https://dc.lft.to/lastmile_qr_scan"}, "name": "3a7a8910ff5d136bab9eab74cc066625", "is_reserved": 0}, {"is_disabled": 0, "fusion_lon": 0.0, "fusion_lat": 0.0, "lat": 38.91709916666667, "type": "electric_scooter", "lon": -77.0257595, "bike_id": "e5c7d0b480d80d82a7c4f65b02f23a0c", "rental_uris": {"android": "https://dc.lft.to/lastmile_qr_scan", "ios": "https://dc.lft.to/lastmile_qr_scan"}, "name": "e5c7d0b480d80d82a7c4f65b02f23a0c", "is_reserved": 0}, {"is_disabled": 0, "fusion_lon": 0.0, "fusion_lat": 0.0, "lat": 38.990869833333335, "type": "electric_bike", "lon": -76.87494216666667, "bike_id": "a07df6a41d8386b3aa947d512032b4ec", "rental_uris": {"android": "https://dc.lft.to/lastmile_qr_scan", "ios": "https://dc.lft.to/lastmile_qr_scan"}, "name": "a07df6a41d8386b3aa947d512032b4ec", "is_reserved": 0}, {"is_disabled": 0, "fusion_lon": 0.0, "fusion_lat": 0.0, "lat": 38.90456566666667, "type": "electric_scooter", "lon": -77.028167, "bike_id": "492e9f636212c027cb74a75f0d4c25b4", "rental_uris": {"android": "https://dc.lft.to/lastmile_qr_scan", "ios": "https://dc.lft.to/lastmile_qr_scan"}, "name": "492e9f636212c027cb74a75f0d4c25b4", "is_reserved": 0}, {"is_disabled": 0, "fusion_lon": 0.0, "fusion_lat": 0.0, "lat": 38.9027795, "type": "electric_scooter", "lon": -77.045163, "bike_id": "3ad800a858b277992e82f726687b2ad9", "rental_uris": {"android": "https://dc.lft.to/lastmile_qr_scan", "ios": "https://dc.lft.to/lastmile_qr_scan"}, "name": "3ad800a858b277992e82f726687b2ad9", "is_reserved": 0}, {"is_disabled": 0, "fusion_lon": 0.0, "fusion_lat": 0.0, "lat": 38.90412766666667, "type": "electric_scooter", "lon": -77.02568883333333, "bike_id": "0894a27b1a68bb82b13393a738943734", "rental_uris": {"android": "https://dc.lft.to/lastmile_qr_scan", "ios": "https://dc.lft.to/lastmile_qr_scan"}, "name": "0894a27b1a68bb82b13393a738943734", "is_reserved": 0}, {"is_disabled": 0, "fusion_lon": 0.0, "fusion_lat": 0.0, "lat": 38.88510433333333, "type": "electric_scooter", "lon": -77.00564583333333, "bike_id": "1f5e73517153ac153cfe067520485bee", "rental_uris": {"android": "https://dc.lft.to/lastmile_qr_scan", "ios": "https://dc.lft.to/lastmile_qr_scan"}, "name": "1f5e73517153ac153cfe067520485bee", "is_reserved": 0}, {"is_disabled": 0, "fusion_lon": 0.0, "fusion_lat": 0.0, "lat": 38.95599266666667, "type": "electric_scooter", "lon": -77.00980183333333, "bike_id": "56dbfc6b84c6c74a1dae0f2a2933ca20", "rental_uris": {"android": "https://dc.lft.to/lastmile_qr_scan", "ios": "https://dc.lft.to/lastmile_qr_scan"}, "name": "56dbfc6b84c6c74a1dae0f2a2933ca20", "is_reserved": 0}, {"is_disabled": 0, "fusion_lon": 0.0, "fusion_lat": 0.0, "lat": 38.9658615, "type": "electric_bike", "lon": -76.97956916666666, "bike_id": "0b0d6df0472bb02e7786f0d690e1c7f3", "rental_uris": {"android": "https://dc.lft.to/lastmile_qr_scan", "ios": "https://dc.lft.to/lastmile_qr_scan"}, "name": "0b0d6df0472bb02e7786f0d690e1c7f3", "is_reserved": 0}, {"is_disabled": 0, "fusion_lon": 0.0, "fusion_lat": 0.0, "lat": 38.8748615, "type": "electric_bike", "lon": -77.04901233333334, "bike_id": "56ba1fa169e1ed452a293c99cdb22384", "rental_uris": {"android": "https://dc.lft.to/lastmile_qr_scan", "ios": "https://dc.lft.to/lastmile_qr_scan"}, "name": "56ba1fa169e1ed452a293c99cdb22384", "is_reserved": 0}, {"is_disabled": 0, "fusion_lon": 0.0, "fusion_lat": 0.0, "lat": 38.87693616666667, "type": "electric_scooter", "lon": -77.01734083333334, "bike_id": "f0c6dd7b91e5179473eca7a4a4bcd686", "rental_uris": {"android": "https://dc.lft.to/lastmile_qr_scan", "ios": "https://dc.lft.to/lastmile_qr_scan"}, "name": "f0c6dd7b91e5179473eca7a4a4bcd686", "is_reserved": 0}, {"is_disabled": 0, "fusion_lon": 0.0, "fusion_lat": 0.0, "lat": 38.8985475, "type": "electric_scooter", "lon": -77.033678, "bike_id": "35d38778ac7db58112e08f4d555503a8", "rental_uris": {"android": "https://dc.lft.to/lastmile_qr_scan", "ios": "https://dc.lft.to/lastmile_qr_scan"}, "name": "35d38778ac7db58112e08f4d555503a8", "is_reserved": 0}, {"is_disabled": 0, "fusion_lon": 0.0, "fusion_lat": 0.0, "lat": 38.91220666666667, "type": "electric_scooter", "lon": -77.03205166666666, "bike_id": "03650608b542bf3692130e023074c16a", "rental_uris": {"android": "https://dc.lft.to/lastmile_qr_scan", "ios": "https://dc.lft.to/lastmile_qr_scan"}, "name": "03650608b542bf3692130e023074c16a", "is_reserved": 0}, {"is_disabled": 0, "fusion_lon": 0.0, "fusion_lat": 0.0, "lat": 38.915471, "type": "electric_scooter", "lon": -77.03851733333333, "bike_id": "a2f605fa6f02e3789e7e4e177f82b518", "rental_uris": {"android": "https://dc.lft.to/lastmile_qr_scan", "ios": "https://dc.lft.to/lastmile_qr_scan"}, "name": "a2f605fa6f02e3789e7e4e177f82b518", "is_reserved": 0}, {"is_disabled": 0, "fusion_lon": 0.0, "fusion_lat": 0.0, "lat": 38.96215383333333, "type": "electric_scooter", "lon": -77.02806366666667, "bike_id": "1414bf27d7219248c4db45f1fd0592ee", "rental_uris": {"android": "https://dc.lft.to/lastmile_qr_scan", "ios": "https://dc.lft.to/lastmile_qr_scan"}, "name": "1414bf27d7219248c4db45f1fd0592ee", "is_reserved": 0}, {"is_disabled": 0, "fusion_lon": 0.0, "fusion_lat": 0.0, "lat": 38.902354, "type": "electric_scooter", "lon": -77.06250266666666, "bike_id": "339d9795ef158aeb76c60a952844e0a1", "rental_uris": {"android": "https://dc.lft.to/lastmile_qr_scan", "ios": "https://dc.lft.to/lastmile_qr_scan"}, "name": "339d9795ef158aeb76c60a952844e0a1", "is_reserved": 0}, {"is_disabled": 0, "fusion_lon": 0.0, "fusion_lat": 0.0, "lat": 38.92601916666667, "type": "electric_scooter", "lon": -77.02155816666667, "bike_id": "ea961882b4e65b7e13857e88b5bb3cde", "rental_uris": {"android": "https://dc.lft.to/lastmile_qr_scan", "ios": "https://dc.lft.to/lastmile_qr_scan"}, "name": "ea961882b4e65b7e13857e88b5bb3cde", "is_reserved": 0}, {"is_disabled": 0, "fusion_lon": 0.0, "fusion_lat": 0.0, "lat": 38.90249033333333, "type": "electric_scooter", "lon": -76.94626016666666, "bike_id": "1a36d434f2850e291455c52210f1611e", "rental_uris": {"android": "https://dc.lft.to/lastmile_qr_scan", "ios": "https://dc.lft.to/lastmile_qr_scan"}, "name": "1a36d434f2850e291455c52210f1611e", "is_reserved": 0}, {"is_disabled": 0, "fusion_lon": 0.0, "fusion_lat": 0.0, "lat": 38.929796833333334, "type": "electric_scooter", "lon": -77.0550315, "bike_id": "3e38c9701011ba087a14dfa0cbf6b8e8", "rental_uris": {"android": "https://dc.lft.to/lastmile_qr_scan", "ios": "https://dc.lft.to/lastmile_qr_scan"}, "name": "3e38c9701011ba087a14dfa0cbf6b8e8", "is_reserved": 0}, {"is_disabled": 0, "fusion_lon": 0.0, "fusion_lat": 0.0, "lat": 38.9183525, "type": "electric_scooter", "lon": -77.03211283333333, "bike_id": "9b9c266dc2fc954c132da91e42031cc6", "rental_uris": {"android": "https://dc.lft.to/lastmile_qr_scan", "ios": "https://dc.lft.to/lastmile_qr_scan"}, "name": "9b9c266dc2fc954c132da91e42031cc6", "is_reserved": 0}, {"is_disabled": 0, "fusion_lon": 0.0, "fusion_lat": 0.0, "lat": 38.92812716666667, "type": "electric_scooter", "lon": -77.01403283333333, "bike_id": "07af925caa02f8b1ae0fed8902c89325", "rental_uris": {"android": "https://dc.lft.to/lastmile_qr_scan", "ios": "https://dc.lft.to/lastmile_qr_scan"}, "name": "07af925caa02f8b1ae0fed8902c89325", "is_reserved": 0}, {"is_disabled": 0, "fusion_lon": 0.0, "fusion_lat": 0.0, "lat": 38.99060016666667, "type": "electric_bike", "lon": -77.10029016666667, "bike_id": "9655e2c253c0c6bb1a0949bc6a8692e2", "rental_uris": {"android": "https://dc.lft.to/lastmile_qr_scan", "ios": "https://dc.lft.to/lastmile_qr_scan"}, "name": "9655e2c253c0c6bb1a0949bc6a8692e2", "is_reserved": 0}, {"is_disabled": 0, "fusion_lon": 0.0, "fusion_lat": 0.0, "lat": 38.90455033333333, "type": "electric_scooter", "lon": -77.01705683333333, "bike_id": "cb0e43362ee9a86077e87e8e7bec6ff5", "rental_uris": {"android": "https://dc.lft.to/lastmile_qr_scan", "ios": "https://dc.lft.to/lastmile_qr_scan"}, "name": "cb0e43362ee9a86077e87e8e7bec6ff5", "is_reserved": 0}, {"is_disabled": 0, "fusion_lon": 0.0, "fusion_lat": 0.0, "lat": 38.9042555, "type": "electric_scooter", "lon": -77.02602933333333, "bike_id": "1b4f8d2b827c2fda4df7dab56ebd4b98", "rental_uris": {"android": "https://dc.lft.to/lastmile_qr_scan", "ios": "https://dc.lft.to/lastmile_qr_scan"}, "name": "1b4f8d2b827c2fda4df7dab56ebd4b98", "is_reserved": 0}, {"is_disabled": 0, "fusion_lon": 0.0, "fusion_lat": 0.0, "lat": 38.916818, "type": "electric_scooter", "lon": -77.02682816666666, "bike_id": "9899d2f993a558f0b699d9a37223bbd1", "rental_uris": {"android": "https://dc.lft.to/lastmile_qr_scan", "ios": "https://dc.lft.to/lastmile_qr_scan"}, "name": "9899d2f993a558f0b699d9a37223bbd1", "is_reserved": 0}, {"is_disabled": 0, "fusion_lon": 0.0, "fusion_lat": 0.0, "lat": 38.8869925, "type": "electric_scooter", "lon": -76.9536625, "bike_id": "67c6b7805122cf7a00b846584d2a6c63", "rental_uris": {"android": "https://dc.lft.to/lastmile_qr_scan", "ios": "https://dc.lft.to/lastmile_qr_scan"}, "name": "67c6b7805122cf7a00b846584d2a6c63", "is_reserved": 0}, {"is_disabled": 0, "fusion_lon": 0.0, "fusion_lat": 0.0, "lat": 38.862452166666664, "type": "electric_scooter", "lon": -76.99529133333333, "bike_id": "ee5157eb98df23a9b5cbfaf5f61ecd64", "rental_uris": {"android": "https://dc.lft.to/lastmile_qr_scan", "ios": "https://dc.lft.to/lastmile_qr_scan"}, "name": "ee5157eb98df23a9b5cbfaf5f61ecd64", "is_reserved": 0}, {"is_disabled": 0, "fusion_lon": 0.0, "fusion_lat": 0.0, "lat": 38.84285883333333, "type": "electric_scooter", "lon": -76.99945666666666, "bike_id": "e2d66441c356edad326583b6070c2122", "rental_uris": {"android": "https://dc.lft.to/lastmile_qr_scan", "ios": "https://dc.lft.to/lastmile_qr_scan"}, "name": "e2d66441c356edad326583b6070c2122", "is_reserved": 0}, {"is_disabled": 0, "fusion_lon": 0.0, "fusion_lat": 0.0, "lat": 38.895252166666666, "type": "electric_scooter", "lon": -76.9489275, "bike_id": "5d221a78df447985d9164ecf0bc616ba", "rental_uris": {"android": "https://dc.lft.to/lastmile_qr_scan", "ios": "https://dc.lft.to/lastmile_qr_scan"}, "name": "5d221a78df447985d9164ecf0bc616ba", "is_reserved": 0}, {"is_disabled": 0, "fusion_lon": 0.0, "fusion_lat": 0.0, "lat": 38.90030983333333, "type": "electric_scooter", "lon": -77.00707016666667, "bike_id": "ce1d633685356c801ea9007cfcb466cf", "rental_uris": {"android": "https://dc.lft.to/lastmile_qr_scan", "ios": "https://dc.lft.to/lastmile_qr_scan"}, "name": "ce1d633685356c801ea9007cfcb466cf", "is_reserved": 0}, {"is_disabled": 0, "fusion_lon": 0.0, "fusion_lat": 0.0, "lat": 38.919180833333336, "type": "electric_scooter", "lon": -77.03176816666667, "bike_id": "81828e2dd20fc6e583345dd70b27db55", "rental_uris": {"android": "https://dc.lft.to/lastmile_qr_scan", "ios": "https://dc.lft.to/lastmile_qr_scan"}, "name": "81828e2dd20fc6e583345dd70b27db55", "is_reserved": 0}, {"is_disabled": 0, "fusion_lon": 0.0, "fusion_lat": 0.0, "lat": 38.917368, "type": "electric_scooter", "lon": -77.03659, "bike_id": "865810e2371cd2b727792de8cf059d09", "rental_uris": {"android": "https://dc.lft.to/lastmile_qr_scan", "ios": "https://dc.lft.to/lastmile_qr_scan"}, "name": "865810e2371cd2b727792de8cf059d09", "is_reserved": 0}, {"is_disabled": 0, "fusion_lon": 0.0, "fusion_lat": 0.0, "lat": 38.910387666666665, "type": "electric_scooter", "lon": -77.03621266666667, "bike_id": "b9b60450a27f7f3075863b9962da7574", "rental_uris": {"android": "https://dc.lft.to/lastmile_qr_scan", "ios": "https://dc.lft.to/lastmile_qr_scan"}, "name": "b9b60450a27f7f3075863b9962da7574", "is_reserved": 0}, {"is_disabled": 0, "fusion_lon": 0.0, "fusion_lat": 0.0, "lat": 38.903274, "type": "electric_bike", "lon": -76.97530433333333, "bike_id": "70be596217e2a3ad52f01c4a0c420f97", "rental_uris": {"android": "https://dc.lft.to/lastmile_qr_scan", "ios": "https://dc.lft.to/lastmile_qr_scan"}, "name": "70be596217e2a3ad52f01c4a0c420f97", "is_reserved": 0}, {"is_disabled": 0, "fusion_lon": 0.0, "fusion_lat": 0.0, "lat": 38.8858195, "type": "electric_scooter", "lon": -77.01224966666666, "bike_id": "47d56ab450c262a5c9e0bcf7e904a625", "rental_uris": {"android": "https://dc.lft.to/lastmile_qr_scan", "ios": "https://dc.lft.to/lastmile_qr_scan"}, "name": "47d56ab450c262a5c9e0bcf7e904a625", "is_reserved": 0}, {"is_disabled": 0, "fusion_lon": 0.0, "fusion_lat": 0.0, "lat": 38.934924, "type": "electric_scooter", "lon": -77.0272145, "bike_id": "1998b3488b5bfa0714c6a1946a6621d7", "rental_uris": {"android": "https://dc.lft.to/lastmile_qr_scan", "ios": "https://dc.lft.to/lastmile_qr_scan"}, "name": "1998b3488b5bfa0714c6a1946a6621d7", "is_reserved": 0}, {"is_disabled": 0, "fusion_lon": 0.0, "fusion_lat": 0.0, "lat": 38.900566833333336, "type": "electric_scooter", "lon": -77.04889383333334, "bike_id": "6aadb76bdf12a167760c6c7fcc389dd3", "rental_uris": {"android": "https://dc.lft.to/lastmile_qr_scan", "ios": "https://dc.lft.to/lastmile_qr_scan"}, "name": "6aadb76bdf12a167760c6c7fcc389dd3", "is_reserved": 0}, {"is_disabled": 0, "fusion_lon": 0.0, "fusion_lat": 0.0, "lat": 38.91597483333334, "type": "electric_scooter", "lon": -77.02349633333333, "bike_id": "c9c39b19e301e65003db76180303497f", "rental_uris": {"android": "https://dc.lft.to/lastmile_qr_scan", "ios": "https://dc.lft.to/lastmile_qr_scan"}, "name": "c9c39b19e301e65003db76180303497f", "is_reserved": 0}, {"is_disabled": 0, "fusion_lon": 0.0, "fusion_lat": 0.0, "lat": 38.920522166666665, "type": "electric_scooter", "lon": -76.9988385, "bike_id": "6883d4830d1d2a98c0f807611a26206d", "rental_uris": {"android": "https://dc.lft.to/lastmile_qr_scan", "ios": "https://dc.lft.to/lastmile_qr_scan"}, "name": "6883d4830d1d2a98c0f807611a26206d", "is_reserved": 0}, {"is_disabled": 0, "fusion_lon": 0.0, "fusion_lat": 0.0, "lat": 38.89525016666666, "type": "electric_scooter", "lon": -76.94893383333333, "bike_id": "fa9c7dad44669b148fff4336534d7da5", "rental_uris": {"android": "https://dc.lft.to/lastmile_qr_scan", "ios": "https://dc.lft.to/lastmile_qr_scan"}, "name": "fa9c7dad44669b148fff4336534d7da5", "is_reserved": 0}, {"is_disabled": 0, "fusion_lon": 0.0, "fusion_lat": 0.0, "lat": 38.9324115, "type": "electric_scooter", "lon": -77.02977733333333, "bike_id": "a3b29a26c81894980eaca5a7dc2ff886", "rental_uris": {"android": "https://dc.lft.to/lastmile_qr_scan", "ios": "https://dc.lft.to/lastmile_qr_scan"}, "name": "a3b29a26c81894980eaca5a7dc2ff886", "is_reserved": 0}, {"is_disabled": 0, "fusion_lon": 0.0, "fusion_lat": 0.0, "lat": 38.915779666666666, "type": "electric_scooter", "lon": -77.0199935, "bike_id": "5a671fd64b8742e9d5ab71b995bd6871", "rental_uris": {"android": "https://dc.lft.to/lastmile_qr_scan", "ios": "https://dc.lft.to/lastmile_qr_scan"}, "name": "5a671fd64b8742e9d5ab71b995bd6871", "is_reserved": 0}, {"is_disabled": 0, "fusion_lon": 0.0, "fusion_lat": 0.0, "lat": 38.925099833333334, "type": "electric_scooter", "lon": -77.0236415, "bike_id": "2c678e0e21b03da5bede5362b82c48b5", "rental_uris": {"android": "https://dc.lft.to/lastmile_qr_scan", "ios": "https://dc.lft.to/lastmile_qr_scan"}, "name": "2c678e0e21b03da5bede5362b82c48b5", "is_reserved": 0}, {"is_disabled": 0, "fusion_lon": 0.0, "fusion_lat": 0.0, "lat": 38.91041883333333, "type": "electric_scooter", "lon": -77.04348383333334, "bike_id": "e0935d65c8361e1627b0e51f83b77e03", "rental_uris": {"android": "https://dc.lft.to/lastmile_qr_scan", "ios": "https://dc.lft.to/lastmile_qr_scan"}, "name": "e0935d65c8361e1627b0e51f83b77e03", "is_reserved": 0}, {"is_disabled": 0, "fusion_lon": 0.0, "fusion_lat": 0.0, "lat": 38.9068075, "type": "electric_scooter", "lon": -77.00916066666667, "bike_id": "56a05494533d43f604348d85033c99ba", "rental_uris": {"android": "https://dc.lft.to/lastmile_qr_scan", "ios": "https://dc.lft.to/lastmile_qr_scan"}, "name": "56a05494533d43f604348d85033c99ba", "is_reserved": 0}, {"is_disabled": 0, "fusion_lon": 0.0, "fusion_lat": 0.0, "lat": 38.921670666666664, "type": "electric_scooter", "lon": -76.99391916666667, "bike_id": "93165f796d9ffa01c37fadc2f86dfcf1", "rental_uris": {"android": "https://dc.lft.to/lastmile_qr_scan", "ios": "https://dc.lft.to/lastmile_qr_scan"}, "name": "93165f796d9ffa01c37fadc2f86dfcf1", "is_reserved": 0}, {"is_disabled": 0, "fusion_lon": 0.0, "fusion_lat": 0.0, "lat": 38.89526033333333, "type": "electric_scooter", "lon": -77.00341566666667, "bike_id": "06d8ec0f06aa95aabc22887b7879166e", "rental_uris": {"android": "https://dc.lft.to/lastmile_qr_scan", "ios": "https://dc.lft.to/lastmile_qr_scan"}, "name": "06d8ec0f06aa95aabc22887b7879166e", "is_reserved": 0}, {"is_disabled": 0, "fusion_lon": 0.0, "fusion_lat": 0.0, "lat": 38.89510033333333, "type": "electric_scooter", "lon": -76.94886116666666, "bike_id": "df252b86ea1ca35a61fb83b4af67228a", "rental_uris": {"android": "https://dc.lft.to/lastmile_qr_scan", "ios": "https://dc.lft.to/lastmile_qr_scan"}, "name": "df252b86ea1ca35a61fb83b4af67228a", "is_reserved": 0}, {"is_disabled": 0, "fusion_lon": 0.0, "fusion_lat": 0.0, "lat": 38.88080033333333, "type": "electric_scooter", "lon": -77.02574483333333, "bike_id": "be57c11239525b77d988030aee96910f", "rental_uris": {"android": "https://dc.lft.to/lastmile_qr_scan", "ios": "https://dc.lft.to/lastmile_qr_scan"}, "name": "be57c11239525b77d988030aee96910f", "is_reserved": 0}, {"is_disabled": 0, "fusion_lon": 0.0, "fusion_lat": 0.0, "lat": 38.894775333333335, "type": "electric_scooter", "lon": -77.02017733333334, "bike_id": "2a3dcd624ccc88004d2fd6d5f065f745", "rental_uris": {"android": "https://dc.lft.to/lastmile_qr_scan", "ios": "https://dc.lft.to/lastmile_qr_scan"}, "name": "2a3dcd624ccc88004d2fd6d5f065f745", "is_reserved": 0}, {"is_disabled": 0, "fusion_lon": 0.0, "fusion_lat": 0.0, "lat": 38.9016585, "type": "electric_bike", "lon": -77.039401, "bike_id": "a5066c62aee33752a05d95256589c18b", "rental_uris": {"android": "https://dc.lft.to/lastmile_qr_scan", "ios": "https://dc.lft.to/lastmile_qr_scan"}, "name": "a5066c62aee33752a05d95256589c18b", "is_reserved": 0}, {"is_disabled": 0, "fusion_lon": 0.0, "fusion_lat": 0.0, "lat": 38.941962333333336, "type": "electric_scooter", "lon": -77.018276, "bike_id": "81c66298ca00872885a543998226dac7", "rental_uris": {"android": "https://dc.lft.to/lastmile_qr_scan", "ios": "https://dc.lft.to/lastmile_qr_scan"}, "name": "81c66298ca00872885a543998226dac7", "is_reserved": 0}, {"is_disabled": 0, "fusion_lon": 0.0, "fusion_lat": 0.0, "lat": 38.9305915, "type": "electric_scooter", "lon": -77.02976583333333, "bike_id": "25a02bfa4a53494384e02d7cb5db62dd", "rental_uris": {"android": "https://dc.lft.to/lastmile_qr_scan", "ios": "https://dc.lft.to/lastmile_qr_scan"}, "name": "25a02bfa4a53494384e02d7cb5db62dd", "is_reserved": 0}, {"is_disabled": 0, "fusion_lon": 0.0, "fusion_lat": 0.0, "lat": 38.923048666666666, "type": "electric_scooter", "lon": -77.03919166666667, "bike_id": "c3f9de50eb082bb2952be64acb52ade6", "rental_uris": {"android": "https://dc.lft.to/lastmile_qr_scan", "ios": "https://dc.lft.to/lastmile_qr_scan"}, "name": "c3f9de50eb082bb2952be64acb52ade6", "is_reserved": 0}, {"is_disabled": 0, "fusion_lon": 0.0, "fusion_lat": 0.0, "lat": 38.908611, "type": "electric_scooter", "lon": -77.02284983333334, "bike_id": "f670c60e43417d14e31c9b4b509d9c48", "rental_uris": {"android": "https://dc.lft.to/lastmile_qr_scan", "ios": "https://dc.lft.to/lastmile_qr_scan"}, "name": "f670c60e43417d14e31c9b4b509d9c48", "is_reserved": 0}, {"is_disabled": 0, "fusion_lon": 0.0, "fusion_lat": 0.0, "lat": 38.86236983333333, "type": "electric_scooter", "lon": -76.99492966666666, "bike_id": "2bde4f7191d75449e1c4d51da12d5127", "rental_uris": {"android": "https://dc.lft.to/lastmile_qr_scan", "ios": "https://dc.lft.to/lastmile_qr_scan"}, "name": "2bde4f7191d75449e1c4d51da12d5127", "is_reserved": 0}, {"is_disabled": 0, "fusion_lon": 0.0, "fusion_lat": 0.0, "lat": 38.89447166666667, "type": "electric_bike", "lon": -77.15828333333333, "bike_id": "b18ecc08e23f93ee98811a61c75e25ad", "rental_uris": {"android": "https://dc.lft.to/lastmile_qr_scan", "ios": "https://dc.lft.to/lastmile_qr_scan"}, "name": "b18ecc08e23f93ee98811a61c75e25ad", "is_reserved": 0}, {"is_disabled": 0, "fusion_lon": 0.0, "fusion_lat": 0.0, "lat": 38.924998, "type": "electric_scooter", "lon": -77.05218383333333, "bike_id": "eb6ee0efadd6844b840deae0036eea3c", "rental_uris": {"android": "https://dc.lft.to/lastmile_qr_scan", "ios": "https://dc.lft.to/lastmile_qr_scan"}, "name": "eb6ee0efadd6844b840deae0036eea3c", "is_reserved": 0}, {"is_disabled": 0, "fusion_lon": 0.0, "fusion_lat": 0.0, "lat": 38.91192366666667, "type": "electric_scooter", "lon": -77.03857783333333, "bike_id": "de36a587c5dad2d6ad8a0ec33ceb0a93", "rental_uris": {"android": "https://dc.lft.to/lastmile_qr_scan", "ios": "https://dc.lft.to/lastmile_qr_scan"}, "name": "de36a587c5dad2d6ad8a0ec33ceb0a93", "is_reserved": 0}, {"is_disabled": 0, "fusion_lon": 0.0, "fusion_lat": 0.0, "lat": 38.9355465, "type": "electric_scooter", "lon": -77.03476933333333, "bike_id": "1cb0e8bbd743980e0adffe898af7418b", "rental_uris": {"android": "https://dc.lft.to/lastmile_qr_scan", "ios": "https://dc.lft.to/lastmile_qr_scan"}, "name": "1cb0e8bbd743980e0adffe898af7418b", "is_reserved": 0}, {"is_disabled": 0, "fusion_lon": 0.0, "fusion_lat": 0.0, "lat": 38.913220833333334, "type": "electric_scooter", "lon": -77.03185116666667, "bike_id": "b9d3b658bdaa5632ea5a70fb0ee88f66", "rental_uris": {"android": "https://dc.lft.to/lastmile_qr_scan", "ios": "https://dc.lft.to/lastmile_qr_scan"}, "name": "b9d3b658bdaa5632ea5a70fb0ee88f66", "is_reserved": 0}, {"is_disabled": 0, "fusion_lon": 0.0, "fusion_lat": 0.0, "lat": 38.83933966666667, "type": "electric_bike", "lon": -77.07897033333333, "bike_id": "2fb514759bf344e4a6c9a167c1c52c3c", "rental_uris": {"android": "https://dc.lft.to/lastmile_qr_scan", "ios": "https://dc.lft.to/lastmile_qr_scan"}, "name": "2fb514759bf344e4a6c9a167c1c52c3c", "is_reserved": 0}, {"is_disabled": 0, "fusion_lon": 0.0, "fusion_lat": 0.0, "lat": 38.90763533333333, "type": "electric_scooter", "lon": -77.0385765, "bike_id": "90e2cd2a367b77de3883e9ef4a7909b7", "rental_uris": {"android": "https://dc.lft.to/lastmile_qr_scan", "ios": "https://dc.lft.to/lastmile_qr_scan"}, "name": "90e2cd2a367b77de3883e9ef4a7909b7", "is_reserved": 0}, {"is_disabled": 0, "fusion_lon": 0.0, "fusion_lat": 0.0, "lat": 38.914964, "type": "electric_scooter", "lon": -76.9835995, "bike_id": "591472f101a19ff933e9456b03dbe7f2", "rental_uris": {"android": "https://dc.lft.to/lastmile_qr_scan", "ios": "https://dc.lft.to/lastmile_qr_scan"}, "name": "591472f101a19ff933e9456b03dbe7f2", "is_reserved": 0}, {"is_disabled": 0, "fusion_lon": 0.0, "fusion_lat": 0.0, "lat": 38.9284085, "type": "electric_scooter", "lon": -77.05632016666667, "bike_id": "cc488d1abfbc9cff450adc439865bbe3", "rental_uris": {"android": "https://dc.lft.to/lastmile_qr_scan", "ios": "https://dc.lft.to/lastmile_qr_scan"}, "name": "cc488d1abfbc9cff450adc439865bbe3", "is_reserved": 0}, {"is_disabled": 0, "fusion_lon": 0.0, "fusion_lat": 0.0, "lat": 38.9185175, "type": "electric_bike", "lon": -76.96090516666666, "bike_id": "fe46073be0d28018066bb3ed62587253", "rental_uris": {"android": "https://dc.lft.to/lastmile_qr_scan", "ios": "https://dc.lft.to/lastmile_qr_scan"}, "name": "fe46073be0d28018066bb3ed62587253", "is_reserved": 0}, {"is_disabled": 0, "fusion_lon": 0.0, "fusion_lat": 0.0, "lat": 38.90540216666667, "type": "electric_scooter", "lon": -77.0466195, "bike_id": "9b54aa729a2ad1c9ddbe5ad9b95619e5", "rental_uris": {"android": "https://dc.lft.to/lastmile_qr_scan", "ios": "https://dc.lft.to/lastmile_qr_scan"}, "name": "9b54aa729a2ad1c9ddbe5ad9b95619e5", "is_reserved": 0}, {"is_disabled": 0, "fusion_lon": 0.0, "fusion_lat": 0.0, "lat": 38.9009925, "type": "electric_scooter", "lon": -77.05031733333334, "bike_id": "dee30285df82ea4f9503dc2b5739c9f7", "rental_uris": {"android": "https://dc.lft.to/lastmile_qr_scan", "ios": "https://dc.lft.to/lastmile_qr_scan"}, "name": "dee30285df82ea4f9503dc2b5739c9f7", "is_reserved": 0}, {"is_disabled": 0, "fusion_lon": 0.0, "fusion_lat": 0.0, "lat": 38.910871, "type": "electric_scooter", "lon": -77.08773866666667, "bike_id": "e9126bbe1cde01cd82df5172da2394fa", "rental_uris": {"android": "https://dc.lft.to/lastmile_qr_scan", "ios": "https://dc.lft.to/lastmile_qr_scan"}, "name": "e9126bbe1cde01cd82df5172da2394fa", "is_reserved": 0}, {"is_disabled": 0, "fusion_lon": 0.0, "fusion_lat": 0.0, "lat": 38.917065, "type": "electric_scooter", "lon": -77.02438683333334, "bike_id": "526b5ad77a0f1fb090c0733a1ea21766", "rental_uris": {"android": "https://dc.lft.to/lastmile_qr_scan", "ios": "https://dc.lft.to/lastmile_qr_scan"}, "name": "526b5ad77a0f1fb090c0733a1ea21766", "is_reserved": 0}, {"is_disabled": 0, "fusion_lon": 0.0, "fusion_lat": 0.0, "lat": 38.925804666666664, "type": "electric_scooter", "lon": -77.05536516666666, "bike_id": "2af26a6ee777335282edb42b5e67cf94", "rental_uris": {"android": "https://dc.lft.to/lastmile_qr_scan", "ios": "https://dc.lft.to/lastmile_qr_scan"}, "name": "2af26a6ee777335282edb42b5e67cf94", "is_reserved": 0}, {"is_disabled": 0, "fusion_lon": 0.0, "fusion_lat": 0.0, "lat": 38.916773166666665, "type": "electric_scooter", "lon": -77.03687116666667, "bike_id": "1fc19eb2debb7b5af049334992202a7e", "rental_uris": {"android": "https://dc.lft.to/lastmile_qr_scan", "ios": "https://dc.lft.to/lastmile_qr_scan"}, "name": "1fc19eb2debb7b5af049334992202a7e", "is_reserved": 0}, {"is_disabled": 0, "fusion_lon": 0.0, "fusion_lat": 0.0, "lat": 38.8876475, "type": "electric_bike", "lon": -77.12257733333334, "bike_id": "93e2f33bf3c07185d34c9ad3e9af7820", "rental_uris": {"android": "https://dc.lft.to/lastmile_qr_scan", "ios": "https://dc.lft.to/lastmile_qr_scan"}, "name": "93e2f33bf3c07185d34c9ad3e9af7820", "is_reserved": 0}, {"is_disabled": 0, "fusion_lon": 0.0, "fusion_lat": 0.0, "lat": 38.877841333333336, "type": "electric_scooter", "lon": -76.99409633333333, "bike_id": "a634424c286da8c8d92325cd67d7859e", "rental_uris": {"android": "https://dc.lft.to/lastmile_qr_scan", "ios": "https://dc.lft.to/lastmile_qr_scan"}, "name": "a634424c286da8c8d92325cd67d7859e", "is_reserved": 0}, {"is_disabled": 0, "fusion_lon": 0.0, "fusion_lat": 0.0, "lat": 38.9078215, "type": "electric_scooter", "lon": -77.04505616666667, "bike_id": "2295e8464258cb04f50045dad0095c48", "rental_uris": {"android": "https://dc.lft.to/lastmile_qr_scan", "ios": "https://dc.lft.to/lastmile_qr_scan"}, "name": "2295e8464258cb04f50045dad0095c48", "is_reserved": 0}, {"is_disabled": 0, "fusion_lon": 0.0, "fusion_lat": 0.0, "lat": 38.918802, "type": "electric_scooter", "lon": -77.0417075, "bike_id": "06fd5772b0cc2e2388537af40601baf4", "rental_uris": {"android": "https://dc.lft.to/lastmile_qr_scan", "ios": "https://dc.lft.to/lastmile_qr_scan"}, "name": "06fd5772b0cc2e2388537af40601baf4", "is_reserved": 0}, {"is_disabled": 0, "fusion_lon": 0.0, "fusion_lat": 0.0, "lat": 38.899419333333334, "type": "electric_scooter", "lon": -77.040536, "bike_id": "66b71cf83b0feebaa01d577ae2f7d1e0", "rental_uris": {"android": "https://dc.lft.to/lastmile_qr_scan", "ios": "https://dc.lft.to/lastmile_qr_scan"}, "name": "66b71cf83b0feebaa01d577ae2f7d1e0", "is_reserved": 0}, {"is_disabled": 0, "fusion_lon": 0.0, "fusion_lat": 0.0, "lat": 38.8319245, "type": "electric_bike", "lon": -77.07682516666667, "bike_id": "30bf3a601a173282c63011804326bfe4", "rental_uris": {"android": "https://dc.lft.to/lastmile_qr_scan", "ios": "https://dc.lft.to/lastmile_qr_scan"}, "name": "30bf3a601a173282c63011804326bfe4", "is_reserved": 0}, {"is_disabled": 0, "fusion_lon": 0.0, "fusion_lat": 0.0, "lat": 38.90256316666667, "type": "electric_scooter", "lon": -77.03442133333333, "bike_id": "ff522e8173706c4c486a3f544fc3feae", "rental_uris": {"android": "https://dc.lft.to/lastmile_qr_scan", "ios": "https://dc.lft.to/lastmile_qr_scan"}, "name": "ff522e8173706c4c486a3f544fc3feae", "is_reserved": 0}, {"is_disabled": 0, "fusion_lon": 0.0, "fusion_lat": 0.0, "lat": 38.9133595, "type": "electric_scooter", "lon": -77.0486155, "bike_id": "24a49e235195e838b183cf9ea641a870", "rental_uris": {"android": "https://dc.lft.to/lastmile_qr_scan", "ios": "https://dc.lft.to/lastmile_qr_scan"}, "name": "24a49e235195e838b183cf9ea641a870", "is_reserved": 0}, {"is_disabled": 0, "fusion_lon": 0.0, "fusion_lat": 0.0, "lat": 38.912104166666666, "type": "electric_scooter", "lon": -77.05104416666667, "bike_id": "5034ac54cf746ca14cf0b1b1559f661d", "rental_uris": {"android": "https://dc.lft.to/lastmile_qr_scan", "ios": "https://dc.lft.to/lastmile_qr_scan"}, "name": "5034ac54cf746ca14cf0b1b1559f661d", "is_reserved": 0}, {"is_disabled": 0, "fusion_lon": 0.0, "fusion_lat": 0.0, "lat": 38.955625, "type": "electric_bike", "lon": -76.9354395, "bike_id": "409fc5624a18c88e8685e07d20d64501", "rental_uris": {"android": "https://dc.lft.to/lastmile_qr_scan", "ios": "https://dc.lft.to/lastmile_qr_scan"}, "name": "409fc5624a18c88e8685e07d20d64501", "is_reserved": 0}, {"is_disabled": 0, "fusion_lon": 0.0, "fusion_lat": 0.0, "lat": 38.833154666666665, "type": "electric_scooter", "lon": -77.00004833333334, "bike_id": "941e6d3ef0cdcf345229093c0783ed58", "rental_uris": {"android": "https://dc.lft.to/lastmile_qr_scan", "ios": "https://dc.lft.to/lastmile_qr_scan"}, "name": "941e6d3ef0cdcf345229093c0783ed58", "is_reserved": 0}, {"is_disabled": 0, "fusion_lon": 0.0, "fusion_lat": 0.0, "lat": 38.8286895, "type": "electric_bike", "lon": -77.11223833333334, "bike_id": "6af8bfb2bd0c9466f6fc6eb0565cd815", "rental_uris": {"android": "https://dc.lft.to/lastmile_qr_scan", "ios": "https://dc.lft.to/lastmile_qr_scan"}, "name": "6af8bfb2bd0c9466f6fc6eb0565cd815", "is_reserved": 0}, {"is_disabled": 0, "fusion_lon": 0.0, "fusion_lat": 0.0, "lat": 38.844306833333334, "type": "electric_scooter", "lon": -76.99778983333333, "bike_id": "044ef2075272cc71071d700eb369d2c2", "rental_uris": {"android": "https://dc.lft.to/lastmile_qr_scan", "ios": "https://dc.lft.to/lastmile_qr_scan"}, "name": "044ef2075272cc71071d700eb369d2c2", "is_reserved": 0}, {"is_disabled": 0, "fusion_lon": 0.0, "fusion_lat": 0.0, "lat": 38.91681883333333, "type": "electric_scooter", "lon": -77.03681233333333, "bike_id": "31a3bd4780640d96f558ba9008ea9933", "rental_uris": {"android": "https://dc.lft.to/lastmile_qr_scan", "ios": "https://dc.lft.to/lastmile_qr_scan"}, "name": "31a3bd4780640d96f558ba9008ea9933", "is_reserved": 0}, {"is_disabled": 0, "fusion_lon": 0.0, "fusion_lat": 0.0, "lat": 38.8993185, "type": "electric_scooter", "lon": -77.04034033333333, "bike_id": "4bec80de23cd2e558772676ae6e0fc47", "rental_uris": {"android": "https://dc.lft.to/lastmile_qr_scan", "ios": "https://dc.lft.to/lastmile_qr_scan"}, "name": "4bec80de23cd2e558772676ae6e0fc47", "is_reserved": 0}, {"is_disabled": 0, "fusion_lon": 0.0, "fusion_lat": 0.0, "lat": 38.866093666666664, "type": "electric_scooter", "lon": -77.01076216666667, "bike_id": "5437ad5cd8900e48e01a2ce36f989557", "rental_uris": {"android": "https://dc.lft.to/lastmile_qr_scan", "ios": "https://dc.lft.to/lastmile_qr_scan"}, "name": "5437ad5cd8900e48e01a2ce36f989557", "is_reserved": 0}, {"is_disabled": 0, "fusion_lon": 0.0, "fusion_lat": 0.0, "lat": 38.856504, "type": "electric_bike", "lon": -77.08525916666666, "bike_id": "020dd3bde5bf1f109cf21b3a4442eb06", "rental_uris": {"android": "https://dc.lft.to/lastmile_qr_scan", "ios": "https://dc.lft.to/lastmile_qr_scan"}, "name": "020dd3bde5bf1f109cf21b3a4442eb06", "is_reserved": 0}, {"is_disabled": 0, "fusion_lon": 0.0, "fusion_lat": 0.0, "lat": 38.925780833333334, "type": "electric_scooter", "lon": -77.03211783333333, "bike_id": "2c23eb126634f233be43a20d9848990c", "rental_uris": {"android": "https://dc.lft.to/lastmile_qr_scan", "ios": "https://dc.lft.to/lastmile_qr_scan"}, "name": "2c23eb126634f233be43a20d9848990c", "is_reserved": 0}, {"is_disabled": 0, "fusion_lon": 0.0, "fusion_lat": 0.0, "lat": 38.84931066666667, "type": "electric_bike", "lon": -77.10013766666667, "bike_id": "b4f1b637d275fc0520531fc044e087b1", "rental_uris": {"android": "https://dc.lft.to/lastmile_qr_scan", "ios": "https://dc.lft.to/lastmile_qr_scan"}, "name": "b4f1b637d275fc0520531fc044e087b1", "is_reserved": 0}, {"is_disabled": 0, "fusion_lon": 0.0, "fusion_lat": 0.0, "lat": 38.91174516666667, "type": "electric_scooter", "lon": -77.041449, "bike_id": "34dd1b02af3ae72a96e90a6551dc7d5b", "rental_uris": {"android": "https://dc.lft.to/lastmile_qr_scan", "ios": "https://dc.lft.to/lastmile_qr_scan"}, "name": "34dd1b02af3ae72a96e90a6551dc7d5b", "is_reserved": 0}, {"is_disabled": 0, "fusion_lon": 0.0, "fusion_lat": 0.0, "lat": 38.886182166666664, "type": "electric_scooter", "lon": -77.00574533333334, "bike_id": "81318f9c64e9ae5c4a35b64456b1f81e", "rental_uris": {"android": "https://dc.lft.to/lastmile_qr_scan", "ios": "https://dc.lft.to/lastmile_qr_scan"}, "name": "81318f9c64e9ae5c4a35b64456b1f81e", "is_reserved": 0}, {"is_disabled": 0, "fusion_lon": 0.0, "fusion_lat": 0.0, "lat": 38.8966945, "type": "electric_scooter", "lon": -77.0513225, "bike_id": "294422a3620cc6f7640851cd73307c65", "rental_uris": {"android": "https://dc.lft.to/lastmile_qr_scan", "ios": "https://dc.lft.to/lastmile_qr_scan"}, "name": "294422a3620cc6f7640851cd73307c65", "is_reserved": 0}, {"is_disabled": 0, "fusion_lon": 0.0, "fusion_lat": 0.0, "lat": 38.956368499999996, "type": "electric_scooter", "lon": -77.09100383333333, "bike_id": "be35ce425c5eae38695b72d5a42ff9b7", "rental_uris": {"android": "https://dc.lft.to/lastmile_qr_scan", "ios": "https://dc.lft.to/lastmile_qr_scan"}, "name": "be35ce425c5eae38695b72d5a42ff9b7", "is_reserved": 0}, {"is_disabled": 0, "fusion_lon": 0.0, "fusion_lat": 0.0, "lat": 38.8783165, "type": "electric_scooter", "lon": -77.02281483333333, "bike_id": "3364fb0ad11be880f64f9d83c84e2a7c", "rental_uris": {"android": "https://dc.lft.to/lastmile_qr_scan", "ios": "https://dc.lft.to/lastmile_qr_scan"}, "name": "3364fb0ad11be880f64f9d83c84e2a7c", "is_reserved": 0}, {"is_disabled": 0, "fusion_lon": 0.0, "fusion_lat": 0.0, "lat": 38.862461333333336, "type": "electric_scooter", "lon": -76.99531433333334, "bike_id": "e535d5c9d3c48bd1c1f8835e9023063d", "rental_uris": {"android": "https://dc.lft.to/lastmile_qr_scan", "ios": "https://dc.lft.to/lastmile_qr_scan"}, "name": "e535d5c9d3c48bd1c1f8835e9023063d", "is_reserved": 0}, {"is_disabled": 0, "fusion_lon": 0.0, "fusion_lat": 0.0, "lat": 38.89455133333333, "type": "electric_scooter", "lon": -76.94825816666666, "bike_id": "1846111a7227ff735913ac442b73f488", "rental_uris": {"android": "https://dc.lft.to/lastmile_qr_scan", "ios": "https://dc.lft.to/lastmile_qr_scan"}, "name": "1846111a7227ff735913ac442b73f488", "is_reserved": 0}, {"is_disabled": 0, "fusion_lon": 0.0, "fusion_lat": 0.0, "lat": 38.9173565, "type": "electric_scooter", "lon": -77.0364175, "bike_id": "e70d767eb71af3d92853715e73da000e", "rental_uris": {"android": "https://dc.lft.to/lastmile_qr_scan", "ios": "https://dc.lft.to/lastmile_qr_scan"}, "name": "e70d767eb71af3d92853715e73da000e", "is_reserved": 0}, {"is_disabled": 0, "fusion_lon": 0.0, "fusion_lat": 0.0, "lat": 38.91760883333333, "type": "electric_bike", "lon": -77.02444116666666, "bike_id": "7b6a1005bb796b1a29a2efa269d4afa1", "rental_uris": {"android": "https://dc.lft.to/lastmile_qr_scan", "ios": "https://dc.lft.to/lastmile_qr_scan"}, "name": "7b6a1005bb796b1a29a2efa269d4afa1", "is_reserved": 0}, {"is_disabled": 0, "fusion_lon": 0.0, "fusion_lat": 0.0, "lat": 38.904558333333334, "type": "electric_scooter", "lon": -77.02812216666666, "bike_id": "ac54459c66da52363694ad6a1bbc0791", "rental_uris": {"android": "https://dc.lft.to/lastmile_qr_scan", "ios": "https://dc.lft.to/lastmile_qr_scan"}, "name": "ac54459c66da52363694ad6a1bbc0791", "is_reserved": 0}, {"is_disabled": 0, "fusion_lon": 0.0, "fusion_lat": 0.0, "lat": 38.89550416666667, "type": "electric_scooter", "lon": -77.0090935, "bike_id": "399719dc03df2c153c724e7792f4212f", "rental_uris": {"android": "https://dc.lft.to/lastmile_qr_scan", "ios": "https://dc.lft.to/lastmile_qr_scan"}, "name": "399719dc03df2c153c724e7792f4212f", "is_reserved": 0}, {"is_disabled": 0, "fusion_lon": 0.0, "fusion_lat": 0.0, "lat": 38.89899966666667, "type": "electric_scooter", "lon": -76.99344133333334, "bike_id": "86585883c337efcb4d98b0f5166b37cf", "rental_uris": {"android": "https://dc.lft.to/lastmile_qr_scan", "ios": "https://dc.lft.to/lastmile_qr_scan"}, "name": "86585883c337efcb4d98b0f5166b37cf", "is_reserved": 0}, {"is_disabled": 0, "fusion_lon": 0.0, "fusion_lat": 0.0, "lat": 38.858039166666664, "type": "electric_scooter", "lon": -76.98655516666666, "bike_id": "677317489f6ee676017186d6c54bcf36", "rental_uris": {"android": "https://dc.lft.to/lastmile_qr_scan", "ios": "https://dc.lft.to/lastmile_qr_scan"}, "name": "677317489f6ee676017186d6c54bcf36", "is_reserved": 0}, {"is_disabled": 0, "fusion_lon": 0.0, "fusion_lat": 0.0, "lat": 38.91763, "type": "electric_scooter", "lon": -77.0343305, "bike_id": "db4aaa96126fc14be366b5fcaa2de44e", "rental_uris": {"android": "https://dc.lft.to/lastmile_qr_scan", "ios": "https://dc.lft.to/lastmile_qr_scan"}, "name": "db4aaa96126fc14be366b5fcaa2de44e", "is_reserved": 0}, {"is_disabled": 0, "fusion_lon": 0.0, "fusion_lat": 0.0, "lat": 38.89193783333333, "type": "electric_scooter", "lon": -77.0029685, "bike_id": "26c2be7f9cac448d184811fa2a7a2c79", "rental_uris": {"android": "https://dc.lft.to/lastmile_qr_scan", "ios": "https://dc.lft.to/lastmile_qr_scan"}, "name": "26c2be7f9cac448d184811fa2a7a2c79", "is_reserved": 0}, {"is_disabled": 0, "fusion_lon": 0.0, "fusion_lat": 0.0, "lat": 38.90130933333333, "type": "electric_scooter", "lon": -77.04352333333334, "bike_id": "d1dc8908435085b5ba4fd0b5f3eb357f", "rental_uris": {"android": "https://dc.lft.to/lastmile_qr_scan", "ios": "https://dc.lft.to/lastmile_qr_scan"}, "name": "d1dc8908435085b5ba4fd0b5f3eb357f", "is_reserved": 0}, {"is_disabled": 0, "fusion_lon": 0.0, "fusion_lat": 0.0, "lat": 38.910377, "type": "electric_scooter", "lon": -77.04010933333333, "bike_id": "1761408fdfba53e67f48fbf93f7ba1d5", "rental_uris": {"android": "https://dc.lft.to/lastmile_qr_scan", "ios": "https://dc.lft.to/lastmile_qr_scan"}, "name": "1761408fdfba53e67f48fbf93f7ba1d5", "is_reserved": 0}, {"is_disabled": 0, "fusion_lon": 0.0, "fusion_lat": 0.0, "lat": 38.90474533333333, "type": "electric_scooter", "lon": -77.0299875, "bike_id": "0f1abe016067ad77fb6d01a1358f4a4b", "rental_uris": {"android": "https://dc.lft.to/lastmile_qr_scan", "ios": "https://dc.lft.to/lastmile_qr_scan"}, "name": "0f1abe016067ad77fb6d01a1358f4a4b", "is_reserved": 0}, {"is_disabled": 0, "fusion_lon": 0.0, "fusion_lat": 0.0, "lat": 38.91313683333333, "type": "electric_scooter", "lon": -76.98654233333333, "bike_id": "ebb52d1d292672763bf943e703f34de9", "rental_uris": {"android": "https://dc.lft.to/lastmile_qr_scan", "ios": "https://dc.lft.to/lastmile_qr_scan"}, "name": "ebb52d1d292672763bf943e703f34de9", "is_reserved": 0}, {"is_disabled": 0, "fusion_lon": 0.0, "fusion_lat": 0.0, "lat": 38.903633666666664, "type": "electric_scooter", "lon": -77.03174716666666, "bike_id": "3f623b3510ca44e38b68d79bbb1ca705", "rental_uris": {"android": "https://dc.lft.to/lastmile_qr_scan", "ios": "https://dc.lft.to/lastmile_qr_scan"}, "name": "3f623b3510ca44e38b68d79bbb1ca705", "is_reserved": 0}, {"is_disabled": 0, "fusion_lon": 0.0, "fusion_lat": 0.0, "lat": 38.902778166666664, "type": "electric_scooter", "lon": -77.03363366666666, "bike_id": "88438e3310af7220318fa1f301e43df6", "rental_uris": {"android": "https://dc.lft.to/lastmile_qr_scan", "ios": "https://dc.lft.to/lastmile_qr_scan"}, "name": "88438e3310af7220318fa1f301e43df6", "is_reserved": 0}, {"is_disabled": 0, "fusion_lon": 0.0, "fusion_lat": 0.0, "lat": 38.914088, "type": "electric_scooter", "lon": -77.04178883333333, "bike_id": "3dab98b780f54e5811823988d67fe90f", "rental_uris": {"android": "https://dc.lft.to/lastmile_qr_scan", "ios": "https://dc.lft.to/lastmile_qr_scan"}, "name": "3dab98b780f54e5811823988d67fe90f", "is_reserved": 0}, {"is_disabled": 0, "fusion_lon": 0.0, "fusion_lat": 0.0, "lat": 38.94196783333334, "type": "electric_scooter", "lon": -77.0259115, "bike_id": "837cd4da21b0915706ace7249b308921", "rental_uris": {"android": "https://dc.lft.to/lastmile_qr_scan", "ios": "https://dc.lft.to/lastmile_qr_scan"}, "name": "837cd4da21b0915706ace7249b308921", "is_reserved": 0}, {"is_disabled": 0, "fusion_lon": 0.0, "fusion_lat": 0.0, "lat": 38.91251916666667, "type": "electric_scooter", "lon": -77.03269633333333, "bike_id": "c422ef87698a6cfdeb3a98ae68d6bbe2", "rental_uris": {"android": "https://dc.lft.to/lastmile_qr_scan", "ios": "https://dc.lft.to/lastmile_qr_scan"}, "name": "c422ef87698a6cfdeb3a98ae68d6bbe2", "is_reserved": 0}, {"is_disabled": 0, "fusion_lon": 0.0, "fusion_lat": 0.0, "lat": 38.9156025, "type": "electric_scooter", "lon": -77.0327455, "bike_id": "341244705ddedbd375e4320fbd629e7b", "rental_uris": {"android": "https://dc.lft.to/lastmile_qr_scan", "ios": "https://dc.lft.to/lastmile_qr_scan"}, "name": "341244705ddedbd375e4320fbd629e7b", "is_reserved": 0}, {"is_disabled": 0, "fusion_lon": 0.0, "fusion_lat": 0.0, "lat": 38.902357333333335, "type": "electric_scooter", "lon": -77.00200983333333, "bike_id": "8f7216caa8193d532a432ecb4195f6c9", "rental_uris": {"android": "https://dc.lft.to/lastmile_qr_scan", "ios": "https://dc.lft.to/lastmile_qr_scan"}, "name": "8f7216caa8193d532a432ecb4195f6c9", "is_reserved": 0}, {"is_disabled": 0, "fusion_lon": 0.0, "fusion_lat": 0.0, "lat": 38.905365833333335, "type": "electric_scooter", "lon": -77.02946, "bike_id": "876fcfc5b9b625dcfb1242af9a9aba7e", "rental_uris": {"android": "https://dc.lft.to/lastmile_qr_scan", "ios": "https://dc.lft.to/lastmile_qr_scan"}, "name": "876fcfc5b9b625dcfb1242af9a9aba7e", "is_reserved": 0}, {"is_disabled": 0, "fusion_lon": 0.0, "fusion_lat": 0.0, "lat": 38.917843166666664, "type": "electric_scooter", "lon": -77.02297066666667, "bike_id": "9e4c15dcd4ba75272894712b8cb4353b", "rental_uris": {"android": "https://dc.lft.to/lastmile_qr_scan", "ios": "https://dc.lft.to/lastmile_qr_scan"}, "name": "9e4c15dcd4ba75272894712b8cb4353b", "is_reserved": 0}, {"is_disabled": 0, "fusion_lon": 0.0, "fusion_lat": 0.0, "lat": 38.885034166666664, "type": "electric_scooter", "lon": -77.00563733333334, "bike_id": "08fd9577b92cf8ea40e9c315adaab40a", "rental_uris": {"android": "https://dc.lft.to/lastmile_qr_scan", "ios": "https://dc.lft.to/lastmile_qr_scan"}, "name": "08fd9577b92cf8ea40e9c315adaab40a", "is_reserved": 0}, {"is_disabled": 0, "fusion_lon": 0.0, "fusion_lat": 0.0, "lat": 38.89965383333333, "type": "electric_scooter", "lon": -77.04615316666667, "bike_id": "24aa125b8419f2d2cb237ead5ff7b9e6", "rental_uris": {"android": "https://dc.lft.to/lastmile_qr_scan", "ios": "https://dc.lft.to/lastmile_qr_scan"}, "name": "24aa125b8419f2d2cb237ead5ff7b9e6", "is_reserved": 0}, {"is_disabled": 0, "fusion_lon": 0.0, "fusion_lat": 0.0, "lat": 38.89718366666666, "type": "electric_scooter", "lon": -77.00792916666667, "bike_id": "33fb01eb628926cef7d738727430595a", "rental_uris": {"android": "https://dc.lft.to/lastmile_qr_scan", "ios": "https://dc.lft.to/lastmile_qr_scan"}, "name": "33fb01eb628926cef7d738727430595a", "is_reserved": 0}, {"is_disabled": 0, "fusion_lon": 0.0, "fusion_lat": 0.0, "lat": 38.86111266666666, "type": "electric_scooter", "lon": -76.98370483333333, "bike_id": "c27851fcb54222a471a50e09feb078c4", "rental_uris": {"android": "https://dc.lft.to/lastmile_qr_scan", "ios": "https://dc.lft.to/lastmile_qr_scan"}, "name": "c27851fcb54222a471a50e09feb078c4", "is_reserved": 0}, {"is_disabled": 0, "fusion_lon": 0.0, "fusion_lat": 0.0, "lat": 38.8961645, "type": "electric_scooter", "lon": -76.996353, "bike_id": "733412a12e9f5bb9a793b37126c34bac", "rental_uris": {"android": "https://dc.lft.to/lastmile_qr_scan", "ios": "https://dc.lft.to/lastmile_qr_scan"}, "name": "733412a12e9f5bb9a793b37126c34bac", "is_reserved": 0}, {"is_disabled": 0, "fusion_lon": 0.0, "fusion_lat": 0.0, "lat": 38.92066066666667, "type": "electric_scooter", "lon": -77.02518133333334, "bike_id": "bc4cfd584b453781f138f0a42275d8c8", "rental_uris": {"android": "https://dc.lft.to/lastmile_qr_scan", "ios": "https://dc.lft.to/lastmile_qr_scan"}, "name": "bc4cfd584b453781f138f0a42275d8c8", "is_reserved": 0}, {"is_disabled": 0, "fusion_lon": 0.0, "fusion_lat": 0.0, "lat": 38.918717666666666, "type": "electric_bike", "lon": -76.96125066666667, "bike_id": "d37324757d9759f943195a03c92bc4dd", "rental_uris": {"android": "https://dc.lft.to/lastmile_qr_scan", "ios": "https://dc.lft.to/lastmile_qr_scan"}, "name": "d37324757d9759f943195a03c92bc4dd", "is_reserved": 0}, {"is_disabled": 0, "fusion_lon": 0.0, "fusion_lat": 0.0, "lat": 38.9224655, "type": "electric_scooter", "lon": -77.03085516666667, "bike_id": "8f9cf0f20e33b43f182a71ffdd9c614f", "rental_uris": {"android": "https://dc.lft.to/lastmile_qr_scan", "ios": "https://dc.lft.to/lastmile_qr_scan"}, "name": "8f9cf0f20e33b43f182a71ffdd9c614f", "is_reserved": 0}, {"is_disabled": 0, "fusion_lon": 0.0, "fusion_lat": 0.0, "lat": 38.935368833333335, "type": "electric_scooter", "lon": -77.07296466666666, "bike_id": "e5f64d259a96a3355b3ea97a47fa4299", "rental_uris": {"android": "https://dc.lft.to/lastmile_qr_scan", "ios": "https://dc.lft.to/lastmile_qr_scan"}, "name": "e5f64d259a96a3355b3ea97a47fa4299", "is_reserved": 0}, {"is_disabled": 0, "fusion_lon": 0.0, "fusion_lat": 0.0, "lat": 38.93247066666667, "type": "electric_scooter", "lon": -77.0327755, "bike_id": "7259bb41f40ff04aacd1d5538d495778", "rental_uris": {"android": "https://dc.lft.to/lastmile_qr_scan", "ios": "https://dc.lft.to/lastmile_qr_scan"}, "name": "7259bb41f40ff04aacd1d5538d495778", "is_reserved": 0}, {"is_disabled": 0, "fusion_lon": 0.0, "fusion_lat": 0.0, "lat": 38.90175766666667, "type": "electric_scooter", "lon": -76.92826983333333, "bike_id": "0c9dc6383df4f4342388275bbd4be435", "rental_uris": {"android": "https://dc.lft.to/lastmile_qr_scan", "ios": "https://dc.lft.to/lastmile_qr_scan"}, "name": "0c9dc6383df4f4342388275bbd4be435", "is_reserved": 0}, {"is_disabled": 0, "fusion_lon": 0.0, "fusion_lat": 0.0, "lat": 38.905234, "type": "electric_scooter", "lon": -77.0476015, "bike_id": "089ae6d436bc3c18508b5008ca990580", "rental_uris": {"android": "https://dc.lft.to/lastmile_qr_scan", "ios": "https://dc.lft.to/lastmile_qr_scan"}, "name": "089ae6d436bc3c18508b5008ca990580", "is_reserved": 0}, {"is_disabled": 0, "fusion_lon": 0.0, "fusion_lat": 0.0, "lat": 38.90527433333333, "type": "electric_scooter", "lon": -77.02976266666667, "bike_id": "6254738938a43a72289b6a86658eb619", "rental_uris": {"android": "https://dc.lft.to/lastmile_qr_scan", "ios": "https://dc.lft.to/lastmile_qr_scan"}, "name": "6254738938a43a72289b6a86658eb619", "is_reserved": 0}, {"is_disabled": 0, "fusion_lon": 0.0, "fusion_lat": 0.0, "lat": 38.90415983333333, "type": "electric_scooter", "lon": -77.0257105, "bike_id": "cb862cb3883fc2de9da57148eb7c290e", "rental_uris": {"android": "https://dc.lft.to/lastmile_qr_scan", "ios": "https://dc.lft.to/lastmile_qr_scan"}, "name": "cb862cb3883fc2de9da57148eb7c290e", "is_reserved": 0}, {"is_disabled": 0, "fusion_lon": 0.0, "fusion_lat": 0.0, "lat": 38.89623366666667, "type": "electric_scooter", "lon": -77.02374966666666, "bike_id": "43c5dec167d89b12a9f3faac794c8b46", "rental_uris": {"android": "https://dc.lft.to/lastmile_qr_scan", "ios": "https://dc.lft.to/lastmile_qr_scan"}, "name": "43c5dec167d89b12a9f3faac794c8b46", "is_reserved": 0}, {"is_disabled": 0, "fusion_lon": 0.0, "fusion_lat": 0.0, "lat": 38.887496, "type": "electric_bike", "lon": -76.90092516666667, "bike_id": "e9648d1f50542336be08a46f30faa5a4", "rental_uris": {"android": "https://dc.lft.to/lastmile_qr_scan", "ios": "https://dc.lft.to/lastmile_qr_scan"}, "name": "e9648d1f50542336be08a46f30faa5a4", "is_reserved": 0}, {"is_disabled": 0, "fusion_lon": 0.0, "fusion_lat": 0.0, "lat": 38.915363166666666, "type": "electric_scooter", "lon": -77.019659, "bike_id": "30d9bb300096126f3ee7c8ab5399432e", "rental_uris": {"android": "https://dc.lft.to/lastmile_qr_scan", "ios": "https://dc.lft.to/lastmile_qr_scan"}, "name": "30d9bb300096126f3ee7c8ab5399432e", "is_reserved": 0}, {"is_disabled": 0, "fusion_lon": 0.0, "fusion_lat": 0.0, "lat": 38.880407166666664, "type": "electric_bike", "lon": -77.025148, "bike_id": "4bc8c48ed1f3f75fb1749454a2c75e89", "rental_uris": {"android": "https://dc.lft.to/lastmile_qr_scan", "ios": "https://dc.lft.to/lastmile_qr_scan"}, "name": "4bc8c48ed1f3f75fb1749454a2c75e89", "is_reserved": 0}, {"is_disabled": 0, "fusion_lon": 0.0, "fusion_lat": 0.0, "lat": 38.924413333333334, "type": "electric_bike", "lon": -76.9683365, "bike_id": "bac2e4377c6001962b4d7a8737012e3b", "rental_uris": {"android": "https://dc.lft.to/lastmile_qr_scan", "ios": "https://dc.lft.to/lastmile_qr_scan"}, "name": "bac2e4377c6001962b4d7a8737012e3b", "is_reserved": 0}, {"is_disabled": 0, "fusion_lon": 0.0, "fusion_lat": 0.0, "lat": 38.8745605, "type": "electric_scooter", "lon": -77.009628, "bike_id": "e8219dba7bd7bab6207071996dc97037", "rental_uris": {"android": "https://dc.lft.to/lastmile_qr_scan", "ios": "https://dc.lft.to/lastmile_qr_scan"}, "name": "e8219dba7bd7bab6207071996dc97037", "is_reserved": 0}, {"is_disabled": 0, "fusion_lon": 0.0, "fusion_lat": 0.0, "lat": 38.925493, "type": "electric_scooter", "lon": -77.03313433333334, "bike_id": "888eee4970f8308927e11cfe3ea028f2", "rental_uris": {"android": "https://dc.lft.to/lastmile_qr_scan", "ios": "https://dc.lft.to/lastmile_qr_scan"}, "name": "888eee4970f8308927e11cfe3ea028f2", "is_reserved": 0}, {"is_disabled": 0, "fusion_lon": 0.0, "fusion_lat": 0.0, "lat": 38.93635233333333, "type": "electric_scooter", "lon": -77.03262816666667, "bike_id": "516a6052fa3d5873ce83e67cc553caa1", "rental_uris": {"android": "https://dc.lft.to/lastmile_qr_scan", "ios": "https://dc.lft.to/lastmile_qr_scan"}, "name": "516a6052fa3d5873ce83e67cc553caa1", "is_reserved": 0}, {"is_disabled": 0, "fusion_lon": 0.0, "fusion_lat": 0.0, "lat": 38.893705, "type": "electric_scooter", "lon": -76.94996883333333, "bike_id": "5d77b61f676f54d3fc8e98fcab93d7db", "rental_uris": {"android": "https://dc.lft.to/lastmile_qr_scan", "ios": "https://dc.lft.to/lastmile_qr_scan"}, "name": "5d77b61f676f54d3fc8e98fcab93d7db", "is_reserved": 0}, {"is_disabled": 0, "fusion_lon": 0.0, "fusion_lat": 0.0, "lat": 39.1056385, "type": "electric_bike", "lon": -77.15268183333333, "bike_id": "f82801c8a3d3ec3e4517a4f2f3976054", "rental_uris": {"android": "https://dc.lft.to/lastmile_qr_scan", "ios": "https://dc.lft.to/lastmile_qr_scan"}, "name": "f82801c8a3d3ec3e4517a4f2f3976054", "is_reserved": 0}, {"is_disabled": 0, "fusion_lon": 0.0, "fusion_lat": 0.0, "lat": 38.90976033333333, "type": "electric_bike", "lon": -77.08829833333333, "bike_id": "749fd5f8403239fa98ea60f0a77ed686", "rental_uris": {"android": "https://dc.lft.to/lastmile_qr_scan", "ios": "https://dc.lft.to/lastmile_qr_scan"}, "name": "749fd5f8403239fa98ea60f0a77ed686", "is_reserved": 0}, {"is_disabled": 0, "fusion_lon": 0.0, "fusion_lat": 0.0, "lat": 38.92034066666667, "type": "electric_scooter", "lon": -77.048156, "bike_id": "411b46abdd1c033f17113d06878f8041", "rental_uris": {"android": "https://dc.lft.to/lastmile_qr_scan", "ios": "https://dc.lft.to/lastmile_qr_scan"}, "name": "411b46abdd1c033f17113d06878f8041", "is_reserved": 0}, {"is_disabled": 0, "fusion_lon": 0.0, "fusion_lat": 0.0, "lat": 38.90256133333333, "type": "electric_scooter", "lon": -77.04538, "bike_id": "e3fc023ae057da8ce80778c841d9b97f", "rental_uris": {"android": "https://dc.lft.to/lastmile_qr_scan", "ios": "https://dc.lft.to/lastmile_qr_scan"}, "name": "e3fc023ae057da8ce80778c841d9b97f", "is_reserved": 0}, {"is_disabled": 0, "fusion_lon": 0.0, "fusion_lat": 0.0, "lat": 38.923454666666665, "type": "electric_bike", "lon": -76.99246466666666, "bike_id": "2574546ed8f30b7619892c63b1df572e", "rental_uris": {"android": "https://dc.lft.to/lastmile_qr_scan", "ios": "https://dc.lft.to/lastmile_qr_scan"}, "name": "2574546ed8f30b7619892c63b1df572e", "is_reserved": 0}, {"is_disabled": 0, "fusion_lon": 0.0, "fusion_lat": 0.0, "lat": 38.88121566666667, "type": "electric_scooter", "lon": -77.02071966666666, "bike_id": "e6fc3eab89573d103f66ee8d2c6809c7", "rental_uris": {"android": "https://dc.lft.to/lastmile_qr_scan", "ios": "https://dc.lft.to/lastmile_qr_scan"}, "name": "e6fc3eab89573d103f66ee8d2c6809c7", "is_reserved": 0}, {"is_disabled": 0, "fusion_lon": 0.0, "fusion_lat": 0.0, "lat": 38.892202166666664, "type": "electric_scooter", "lon": -77.02220466666667, "bike_id": "07706b230a135ff3b914c9225c373c37", "rental_uris": {"android": "https://dc.lft.to/lastmile_qr_scan", "ios": "https://dc.lft.to/lastmile_qr_scan"}, "name": "07706b230a135ff3b914c9225c373c37", "is_reserved": 0}, {"is_disabled": 0, "fusion_lon": 0.0, "fusion_lat": 0.0, "lat": 38.91787133333333, "type": "electric_scooter", "lon": -77.04358833333333, "bike_id": "1de8e71b0a45b8489370b74fedf25cfc", "rental_uris": {"android": "https://dc.lft.to/lastmile_qr_scan", "ios": "https://dc.lft.to/lastmile_qr_scan"}, "name": "1de8e71b0a45b8489370b74fedf25cfc", "is_reserved": 0}, {"is_disabled": 0, "fusion_lon": 0.0, "fusion_lat": 0.0, "lat": 38.867878166666664, "type": "electric_bike", "lon": -77.01455, "bike_id": "87b7c8c9a90fb6c93bef41f8302ceda1", "rental_uris": {"android": "https://dc.lft.to/lastmile_qr_scan", "ios": "https://dc.lft.to/lastmile_qr_scan"}, "name": "87b7c8c9a90fb6c93bef41f8302ceda1", "is_reserved": 0}, {"is_disabled": 0, "fusion_lon": 0.0, "fusion_lat": 0.0, "lat": 38.906229, "type": "electric_scooter", "lon": -77.06892316666666, "bike_id": "d8360cf013bef124dc534ec361590005", "rental_uris": {"android": "https://dc.lft.to/lastmile_qr_scan", "ios": "https://dc.lft.to/lastmile_qr_scan"}, "name": "d8360cf013bef124dc534ec361590005", "is_reserved": 0}, {"is_disabled": 0, "fusion_lon": 0.0, "fusion_lat": 0.0, "lat": 38.9906965, "type": "electric_bike", "lon": -77.0238255, "bike_id": "62d0d2d9814c6cb641ed33de3707ac7d", "rental_uris": {"android": "https://dc.lft.to/lastmile_qr_scan", "ios": "https://dc.lft.to/lastmile_qr_scan"}, "name": "62d0d2d9814c6cb641ed33de3707ac7d", "is_reserved": 0}, {"is_disabled": 0, "fusion_lon": 0.0, "fusion_lat": 0.0, "lat": 38.907213166666665, "type": "electric_scooter", "lon": -77.029823, "bike_id": "8bd7333bd86e7120b588ed481709b97c", "rental_uris": {"android": "https://dc.lft.to/lastmile_qr_scan", "ios": "https://dc.lft.to/lastmile_qr_scan"}, "name": "8bd7333bd86e7120b588ed481709b97c", "is_reserved": 0}, {"is_disabled": 0, "fusion_lon": 0.0, "fusion_lat": 0.0, "lat": 38.89754966666667, "type": "electric_scooter", "lon": -77.02650783333333, "bike_id": "219c8f279df2f2ff0955d43853af5689", "rental_uris": {"android": "https://dc.lft.to/lastmile_qr_scan", "ios": "https://dc.lft.to/lastmile_qr_scan"}, "name": "219c8f279df2f2ff0955d43853af5689", "is_reserved": 0}, {"is_disabled": 0, "fusion_lon": 0.0, "fusion_lat": 0.0, "lat": 38.884157333333334, "type": "electric_scooter", "lon": -77.03301533333334, "bike_id": "5ed5824de3d8011acf7512388c21ab78", "rental_uris": {"android": "https://dc.lft.to/lastmile_qr_scan", "ios": "https://dc.lft.to/lastmile_qr_scan"}, "name": "5ed5824de3d8011acf7512388c21ab78", "is_reserved": 0}, {"is_disabled": 0, "fusion_lon": 0.0, "fusion_lat": 0.0, "lat": 38.8935265, "type": "electric_scooter", "lon": -77.00334216666667, "bike_id": "4e3a67d7f7ee88a2f629d07cb7f2979c", "rental_uris": {"android": "https://dc.lft.to/lastmile_qr_scan", "ios": "https://dc.lft.to/lastmile_qr_scan"}, "name": "4e3a67d7f7ee88a2f629d07cb7f2979c", "is_reserved": 0}, {"is_disabled": 0, "fusion_lon": 0.0, "fusion_lat": 0.0, "lat": 38.94507883333333, "type": "electric_bike", "lon": -77.00670866666667, "bike_id": "3ef197acfce8d6bb4d3832aeb106f072", "rental_uris": {"android": "https://dc.lft.to/lastmile_qr_scan", "ios": "https://dc.lft.to/lastmile_qr_scan"}, "name": "3ef197acfce8d6bb4d3832aeb106f072", "is_reserved": 0}, {"is_disabled": 0, "fusion_lon": 0.0, "fusion_lat": 0.0, "lat": 38.918082166666665, "type": "electric_scooter", "lon": -77.026862, "bike_id": "d3d6a99bd63597b642b5a171b5051b74", "rental_uris": {"android": "https://dc.lft.to/lastmile_qr_scan", "ios": "https://dc.lft.to/lastmile_qr_scan"}, "name": "d3d6a99bd63597b642b5a171b5051b74", "is_reserved": 0}, {"is_disabled": 0, "fusion_lon": 0.0, "fusion_lat": 0.0, "lat": 38.900186166666664, "type": "electric_scooter", "lon": -77.03324466666666, "bike_id": "8d133443cb992cd7b5856482dde76e50", "rental_uris": {"android": "https://dc.lft.to/lastmile_qr_scan", "ios": "https://dc.lft.to/lastmile_qr_scan"}, "name": "8d133443cb992cd7b5856482dde76e50", "is_reserved": 0}, {"is_disabled": 0, "fusion_lon": 0.0, "fusion_lat": 0.0, "lat": 38.9169235, "type": "electric_scooter", "lon": -77.0408225, "bike_id": "0f628cf91987f83436f0c2160fbe5056", "rental_uris": {"android": "https://dc.lft.to/lastmile_qr_scan", "ios": "https://dc.lft.to/lastmile_qr_scan"}, "name": "0f628cf91987f83436f0c2160fbe5056", "is_reserved": 0}, {"is_disabled": 0, "fusion_lon": 0.0, "fusion_lat": 0.0, "lat": 38.8985005, "type": "electric_scooter", "lon": -76.990344, "bike_id": "cc8b8ff9cf8c98aa10d32b68517d83bd", "rental_uris": {"android": "https://dc.lft.to/lastmile_qr_scan", "ios": "https://dc.lft.to/lastmile_qr_scan"}, "name": "cc8b8ff9cf8c98aa10d32b68517d83bd", "is_reserved": 0}, {"is_disabled": 0, "fusion_lon": 0.0, "fusion_lat": 0.0, "lat": 38.9278755, "type": "electric_scooter", "lon": -77.027409, "bike_id": "8589baec642f8b4c0182a9c0f8a6ff67", "rental_uris": {"android": "https://dc.lft.to/lastmile_qr_scan", "ios": "https://dc.lft.to/lastmile_qr_scan"}, "name": "8589baec642f8b4c0182a9c0f8a6ff67", "is_reserved": 0}, {"is_disabled": 0, "fusion_lon": 0.0, "fusion_lat": 0.0, "lat": 38.927848833333336, "type": "electric_scooter", "lon": -77.02740116666666, "bike_id": "947606ab509092acbb43a0bda1fddebd", "rental_uris": {"android": "https://dc.lft.to/lastmile_qr_scan", "ios": "https://dc.lft.to/lastmile_qr_scan"}, "name": "947606ab509092acbb43a0bda1fddebd", "is_reserved": 0}, {"is_disabled": 0, "fusion_lon": 0.0, "fusion_lat": 0.0, "lat": 38.902435833333335, "type": "electric_scooter", "lon": -77.01728083333333, "bike_id": "716085d24f74f2530470d0f1ea61feaa", "rental_uris": {"android": "https://dc.lft.to/lastmile_qr_scan", "ios": "https://dc.lft.to/lastmile_qr_scan"}, "name": "716085d24f74f2530470d0f1ea61feaa", "is_reserved": 0}, {"is_disabled": 0, "fusion_lon": 0.0, "fusion_lat": 0.0, "lat": 38.906819666666664, "type": "electric_bike", "lon": -77.07137666666667, "bike_id": "0c9482d90ea47441f2cd6df7206c556d", "rental_uris": {"android": "https://dc.lft.to/lastmile_qr_scan", "ios": "https://dc.lft.to/lastmile_qr_scan"}, "name": "0c9482d90ea47441f2cd6df7206c556d", "is_reserved": 0}, {"is_disabled": 0, "fusion_lon": 0.0, "fusion_lat": 0.0, "lat": 38.87456483333333, "type": "electric_scooter", "lon": -77.005058, "bike_id": "f6f5455c14bb9ae12895fef3488f3a47", "rental_uris": {"android": "https://dc.lft.to/lastmile_qr_scan", "ios": "https://dc.lft.to/lastmile_qr_scan"}, "name": "f6f5455c14bb9ae12895fef3488f3a47", "is_reserved": 0}, {"is_disabled": 0, "fusion_lon": 0.0, "fusion_lat": 0.0, "lat": 38.91383833333333, "type": "electric_scooter", "lon": -77.01707516666667, "bike_id": "69b07fd3d70020264f2eb63028a91ee7", "rental_uris": {"android": "https://dc.lft.to/lastmile_qr_scan", "ios": "https://dc.lft.to/lastmile_qr_scan"}, "name": "69b07fd3d70020264f2eb63028a91ee7", "is_reserved": 0}, {"is_disabled": 0, "fusion_lon": 0.0, "fusion_lat": 0.0, "lat": 38.90392333333333, "type": "electric_scooter", "lon": -77.0280295, "bike_id": "50ddabf24c760d1d4af94ae79b8c184b", "rental_uris": {"android": "https://dc.lft.to/lastmile_qr_scan", "ios": "https://dc.lft.to/lastmile_qr_scan"}, "name": "50ddabf24c760d1d4af94ae79b8c184b", "is_reserved": 0}, {"is_disabled": 0, "fusion_lon": 0.0, "fusion_lat": 0.0, "lat": 38.9177155, "type": "electric_scooter", "lon": -77.02953616666667, "bike_id": "e94b97d7bfac60ad6d652501e9744eae", "rental_uris": {"android": "https://dc.lft.to/lastmile_qr_scan", "ios": "https://dc.lft.to/lastmile_qr_scan"}, "name": "e94b97d7bfac60ad6d652501e9744eae", "is_reserved": 0}, {"is_disabled": 0, "fusion_lon": 0.0, "fusion_lat": 0.0, "lat": 39.007814833333335, "type": "electric_bike", "lon": -76.995692, "bike_id": "10c9d5b2acad57a180841c13770199fb", "rental_uris": {"android": "https://dc.lft.to/lastmile_qr_scan", "ios": "https://dc.lft.to/lastmile_qr_scan"}, "name": "10c9d5b2acad57a180841c13770199fb", "is_reserved": 0}, {"is_disabled": 0, "fusion_lon": 0.0, "fusion_lat": 0.0, "lat": 38.93551016666667, "type": "electric_bike", "lon": -77.08198033333333, "bike_id": "16a080ec0be5d9d152b611727a54151d", "rental_uris": {"android": "https://dc.lft.to/lastmile_qr_scan", "ios": "https://dc.lft.to/lastmile_qr_scan"}, "name": "16a080ec0be5d9d152b611727a54151d", "is_reserved": 0}, {"is_disabled": 0, "fusion_lon": 0.0, "fusion_lat": 0.0, "lat": 38.919624, "type": "electric_scooter", "lon": -77.03209966666667, "bike_id": "6273bdc05b083f19000419e08d37e7e9", "rental_uris": {"android": "https://dc.lft.to/lastmile_qr_scan", "ios": "https://dc.lft.to/lastmile_qr_scan"}, "name": "6273bdc05b083f19000419e08d37e7e9", "is_reserved": 0}, {"is_disabled": 0, "fusion_lon": 0.0, "fusion_lat": 0.0, "lat": 38.89603983333333, "type": "electric_scooter", "lon": -77.02655333333334, "bike_id": "363af3a5b035a54f4414e1207562f334", "rental_uris": {"android": "https://dc.lft.to/lastmile_qr_scan", "ios": "https://dc.lft.to/lastmile_qr_scan"}, "name": "363af3a5b035a54f4414e1207562f334", "is_reserved": 0}, {"is_disabled": 0, "fusion_lon": 0.0, "fusion_lat": 0.0, "lat": 38.90980583333333, "type": "electric_scooter", "lon": -77.03847716666667, "bike_id": "2309f3bdd3edfe9f5258a7b173ff75c8", "rental_uris": {"android": "https://dc.lft.to/lastmile_qr_scan", "ios": "https://dc.lft.to/lastmile_qr_scan"}, "name": "2309f3bdd3edfe9f5258a7b173ff75c8", "is_reserved": 0}, {"is_disabled": 0, "fusion_lon": 0.0, "fusion_lat": 0.0, "lat": 38.942841666666666, "type": "electric_bike", "lon": -77.06923433333333, "bike_id": "c9e36976f64940189d1fedc1e9030877", "rental_uris": {"android": "https://dc.lft.to/lastmile_qr_scan", "ios": "https://dc.lft.to/lastmile_qr_scan"}, "name": "c9e36976f64940189d1fedc1e9030877", "is_reserved": 0}, {"is_disabled": 0, "fusion_lon": 0.0, "fusion_lat": 0.0, "lat": 38.87385833333333, "type": "electric_scooter", "lon": -77.00195, "bike_id": "9231e0fd45b0b04511becbd02701c590", "rental_uris": {"android": "https://dc.lft.to/lastmile_qr_scan", "ios": "https://dc.lft.to/lastmile_qr_scan"}, "name": "9231e0fd45b0b04511becbd02701c590", "is_reserved": 0}, {"is_disabled": 0, "fusion_lon": 0.0, "fusion_lat": 0.0, "lat": 38.89837166666667, "type": "electric_scooter", "lon": -77.00742566666666, "bike_id": "5262f4545fcb2d37cf6ffa7d1367a2df", "rental_uris": {"android": "https://dc.lft.to/lastmile_qr_scan", "ios": "https://dc.lft.to/lastmile_qr_scan"}, "name": "5262f4545fcb2d37cf6ffa7d1367a2df", "is_reserved": 0}, {"is_disabled": 0, "fusion_lon": 0.0, "fusion_lat": 0.0, "lat": 38.92071716666667, "type": "electric_scooter", "lon": -77.02397583333334, "bike_id": "2c1950d4ca03aef378b3b90cf7911ce3", "rental_uris": {"android": "https://dc.lft.to/lastmile_qr_scan", "ios": "https://dc.lft.to/lastmile_qr_scan"}, "name": "2c1950d4ca03aef378b3b90cf7911ce3", "is_reserved": 0}, {"is_disabled": 0, "fusion_lon": 0.0, "fusion_lat": 0.0, "lat": 38.906415833333334, "type": "electric_scooter", "lon": -77.04528, "bike_id": "43228a9ad25299236bd2076f95d1d8a4", "rental_uris": {"android": "https://dc.lft.to/lastmile_qr_scan", "ios": "https://dc.lft.to/lastmile_qr_scan"}, "name": "43228a9ad25299236bd2076f95d1d8a4", "is_reserved": 0}, {"is_disabled": 0, "fusion_lon": 0.0, "fusion_lat": 0.0, "lat": 38.86692716666667, "type": "electric_scooter", "lon": -76.987101, "bike_id": "bf94ef632b20ddf2dffe8716806dcf2c", "rental_uris": {"android": "https://dc.lft.to/lastmile_qr_scan", "ios": "https://dc.lft.to/lastmile_qr_scan"}, "name": "bf94ef632b20ddf2dffe8716806dcf2c", "is_reserved": 0}, {"is_disabled": 0, "fusion_lon": 0.0, "fusion_lat": 0.0, "lat": 38.912790333333334, "type": "electric_scooter", "lon": -77.0726305, "bike_id": "2c3a9dfac0bec9f60eaaba6fbde424b5", "rental_uris": {"android": "https://dc.lft.to/lastmile_qr_scan", "ios": "https://dc.lft.to/lastmile_qr_scan"}, "name": "2c3a9dfac0bec9f60eaaba6fbde424b5", "is_reserved": 0}, {"is_disabled": 0, "fusion_lon": 0.0, "fusion_lat": 0.0, "lat": 38.925824, "type": "electric_scooter", "lon": -77.0321095, "bike_id": "4cac2b237192140ab087e09b2eee21c3", "rental_uris": {"android": "https://dc.lft.to/lastmile_qr_scan", "ios": "https://dc.lft.to/lastmile_qr_scan"}, "name": "4cac2b237192140ab087e09b2eee21c3", "is_reserved": 0}, {"is_disabled": 0, "fusion_lon": 0.0, "fusion_lat": 0.0, "lat": 38.9100915, "type": "electric_scooter", "lon": -76.99388283333333, "bike_id": "544757a79607fda9f42f22985d93caeb", "rental_uris": {"android": "https://dc.lft.to/lastmile_qr_scan", "ios": "https://dc.lft.to/lastmile_qr_scan"}, "name": "544757a79607fda9f42f22985d93caeb", "is_reserved": 0}, {"is_disabled": 0, "fusion_lon": 0.0, "fusion_lat": 0.0, "lat": 38.937636499999996, "type": "electric_scooter", "lon": -77.02497, "bike_id": "465c8ec792b98f6b58d79ef7bc62b57d", "rental_uris": {"android": "https://dc.lft.to/lastmile_qr_scan", "ios": "https://dc.lft.to/lastmile_qr_scan"}, "name": "465c8ec792b98f6b58d79ef7bc62b57d", "is_reserved": 0}, {"is_disabled": 0, "fusion_lon": 0.0, "fusion_lat": 0.0, "lat": 38.9273935, "type": "electric_scooter", "lon": -77.01202133333334, "bike_id": "9b608e35c2774a1d1490dd624d793a27", "rental_uris": {"android": "https://dc.lft.to/lastmile_qr_scan", "ios": "https://dc.lft.to/lastmile_qr_scan"}, "name": "9b608e35c2774a1d1490dd624d793a27", "is_reserved": 0}, {"is_disabled": 0, "fusion_lon": 0.0, "fusion_lat": 0.0, "lat": 38.9086085, "type": "electric_scooter", "lon": -77.0269085, "bike_id": "d097f05c6670b8e35c361c914c465e99", "rental_uris": {"android": "https://dc.lft.to/lastmile_qr_scan", "ios": "https://dc.lft.to/lastmile_qr_scan"}, "name": "d097f05c6670b8e35c361c914c465e99", "is_reserved": 0}, {"is_disabled": 0, "fusion_lon": 0.0, "fusion_lat": 0.0, "lat": 38.90529333333333, "type": "electric_scooter", "lon": -77.05703733333333, "bike_id": "a9cf33abdae151c8c1768a9e3a980e0b", "rental_uris": {"android": "https://dc.lft.to/lastmile_qr_scan", "ios": "https://dc.lft.to/lastmile_qr_scan"}, "name": "a9cf33abdae151c8c1768a9e3a980e0b", "is_reserved": 0}, {"is_disabled": 0, "fusion_lon": 0.0, "fusion_lat": 0.0, "lat": 38.8442735, "type": "electric_scooter", "lon": -76.99779, "bike_id": "775065cb5062e03b1ec49fc221232a17", "rental_uris": {"android": "https://dc.lft.to/lastmile_qr_scan", "ios": "https://dc.lft.to/lastmile_qr_scan"}, "name": "775065cb5062e03b1ec49fc221232a17", "is_reserved": 0}, {"is_disabled": 0, "fusion_lon": 0.0, "fusion_lat": 0.0, "lat": 38.9324555, "type": "electric_scooter", "lon": -77.03274733333333, "bike_id": "2253c400b8accac299344f271507312b", "rental_uris": {"android": "https://dc.lft.to/lastmile_qr_scan", "ios": "https://dc.lft.to/lastmile_qr_scan"}, "name": "2253c400b8accac299344f271507312b", "is_reserved": 0}, {"is_disabled": 0, "fusion_lon": 0.0, "fusion_lat": 0.0, "lat": 38.88573783333333, "type": "electric_scooter", "lon": -77.01540216666666, "bike_id": "a4a36480536a0397c35d76893b2cf522", "rental_uris": {"android": "https://dc.lft.to/lastmile_qr_scan", "ios": "https://dc.lft.to/lastmile_qr_scan"}, "name": "a4a36480536a0397c35d76893b2cf522", "is_reserved": 0}, {"is_disabled": 0, "fusion_lon": 0.0, "fusion_lat": 0.0, "lat": 38.92475866666667, "type": "electric_scooter", "lon": -77.03059833333333, "bike_id": "3f8d923a01d0f7822bcf36de0549dae0", "rental_uris": {"android": "https://dc.lft.to/lastmile_qr_scan", "ios": "https://dc.lft.to/lastmile_qr_scan"}, "name": "3f8d923a01d0f7822bcf36de0549dae0", "is_reserved": 0}, {"is_disabled": 0, "fusion_lon": 0.0, "fusion_lat": 0.0, "lat": 38.957747166666664, "type": "electric_bike", "lon": -76.94087966666666, "bike_id": "4715fd3268c315f5e8956d0e732671ad", "rental_uris": {"android": "https://dc.lft.to/lastmile_qr_scan", "ios": "https://dc.lft.to/lastmile_qr_scan"}, "name": "4715fd3268c315f5e8956d0e732671ad", "is_reserved": 0}, {"is_disabled": 0, "fusion_lon": 0.0, "fusion_lat": 0.0, "lat": 38.925777333333336, "type": "electric_scooter", "lon": -77.03213016666666, "bike_id": "be6c847d0fbad346fafe97d0cc559602", "rental_uris": {"android": "https://dc.lft.to/lastmile_qr_scan", "ios": "https://dc.lft.to/lastmile_qr_scan"}, "name": "be6c847d0fbad346fafe97d0cc559602", "is_reserved": 0}, {"is_disabled": 0, "fusion_lon": 0.0, "fusion_lat": 0.0, "lat": 38.915207333333335, "type": "electric_scooter", "lon": -77.04596033333333, "bike_id": "bd4fa2acba0e56c01826dfb296548de6", "rental_uris": {"android": "https://dc.lft.to/lastmile_qr_scan", "ios": "https://dc.lft.to/lastmile_qr_scan"}, "name": "bd4fa2acba0e56c01826dfb296548de6", "is_reserved": 0}, {"is_disabled": 0, "fusion_lon": 0.0, "fusion_lat": 0.0, "lat": 38.90685216666667, "type": "electric_bike", "lon": -76.95194716666667, "bike_id": "259dda3f84379ae36e9eb4d94ddcd097", "rental_uris": {"android": "https://dc.lft.to/lastmile_qr_scan", "ios": "https://dc.lft.to/lastmile_qr_scan"}, "name": "259dda3f84379ae36e9eb4d94ddcd097", "is_reserved": 0}, {"is_disabled": 0, "fusion_lon": 0.0, "fusion_lat": 0.0, "lat": 38.89364316666666, "type": "electric_scooter", "lon": -76.940185, "bike_id": "b3a6af3644a092e7e58731e61b369db6", "rental_uris": {"android": "https://dc.lft.to/lastmile_qr_scan", "ios": "https://dc.lft.to/lastmile_qr_scan"}, "name": "b3a6af3644a092e7e58731e61b369db6", "is_reserved": 0}, {"is_disabled": 0, "fusion_lon": 0.0, "fusion_lat": 0.0, "lat": 38.910965166666664, "type": "electric_scooter", "lon": -77.031831, "bike_id": "87993a3791079dac846e3881b088c0b4", "rental_uris": {"android": "https://dc.lft.to/lastmile_qr_scan", "ios": "https://dc.lft.to/lastmile_qr_scan"}, "name": "87993a3791079dac846e3881b088c0b4", "is_reserved": 0}, {"is_disabled": 0, "fusion_lon": 0.0, "fusion_lat": 0.0, "lat": 38.910074333333334, "type": "electric_scooter", "lon": -76.99399466666667, "bike_id": "7b3492da7be9ecbde7d79201952ab1b0", "rental_uris": {"android": "https://dc.lft.to/lastmile_qr_scan", "ios": "https://dc.lft.to/lastmile_qr_scan"}, "name": "7b3492da7be9ecbde7d79201952ab1b0", "is_reserved": 0}, {"is_disabled": 0, "fusion_lon": 0.0, "fusion_lat": 0.0, "lat": 38.89197083333333, "type": "electric_scooter", "lon": -77.03175066666667, "bike_id": "34f93f193f80bcb6e90c71adbb8a13b3", "rental_uris": {"android": "https://dc.lft.to/lastmile_qr_scan", "ios": "https://dc.lft.to/lastmile_qr_scan"}, "name": "34f93f193f80bcb6e90c71adbb8a13b3", "is_reserved": 0}, {"is_disabled": 0, "fusion_lon": 0.0, "fusion_lat": 0.0, "lat": 38.874779833333335, "type": "electric_bike", "lon": -76.96520416666667, "bike_id": "c4ef0640e52e12f1d543593716e861cd", "rental_uris": {"android": "https://dc.lft.to/lastmile_qr_scan", "ios": "https://dc.lft.to/lastmile_qr_scan"}, "name": "c4ef0640e52e12f1d543593716e861cd", "is_reserved": 0}, {"is_disabled": 0, "fusion_lon": 0.0, "fusion_lat": 0.0, "lat": 38.921067, "type": "electric_scooter", "lon": -77.0421735, "bike_id": "b9ddfd479832db08f0480a99c4024b02", "rental_uris": {"android": "https://dc.lft.to/lastmile_qr_scan", "ios": "https://dc.lft.to/lastmile_qr_scan"}, "name": "b9ddfd479832db08f0480a99c4024b02", "is_reserved": 0}, {"is_disabled": 0, "fusion_lon": 0.0, "fusion_lat": 0.0, "lat": 38.91410066666667, "type": "electric_scooter", "lon": -77.04181183333333, "bike_id": "e23641692aa666a87f8f6dcf29f2e823", "rental_uris": {"android": "https://dc.lft.to/lastmile_qr_scan", "ios": "https://dc.lft.to/lastmile_qr_scan"}, "name": "e23641692aa666a87f8f6dcf29f2e823", "is_reserved": 0}, {"is_disabled": 0, "fusion_lon": 0.0, "fusion_lat": 0.0, "lat": 38.89845066666667, "type": "electric_scooter", "lon": -77.02776266666666, "bike_id": "84765119a79dabce1d9d1344caa495d9", "rental_uris": {"android": "https://dc.lft.to/lastmile_qr_scan", "ios": "https://dc.lft.to/lastmile_qr_scan"}, "name": "84765119a79dabce1d9d1344caa495d9", "is_reserved": 0}, {"is_disabled": 0, "fusion_lon": 0.0, "fusion_lat": 0.0, "lat": 38.9279035, "type": "electric_scooter", "lon": -77.02739483333333, "bike_id": "62a1de2017257ebe708756bc1da9d5fe", "rental_uris": {"android": "https://dc.lft.to/lastmile_qr_scan", "ios": "https://dc.lft.to/lastmile_qr_scan"}, "name": "62a1de2017257ebe708756bc1da9d5fe", "is_reserved": 0}, {"is_disabled": 0, "fusion_lon": 0.0, "fusion_lat": 0.0, "lat": 38.93476066666667, "type": "electric_scooter", "lon": -77.0240465, "bike_id": "d233fa74169f1810411a1693f2951d8c", "rental_uris": {"android": "https://dc.lft.to/lastmile_qr_scan", "ios": "https://dc.lft.to/lastmile_qr_scan"}, "name": "d233fa74169f1810411a1693f2951d8c", "is_reserved": 0}, {"is_disabled": 0, "fusion_lon": 0.0, "fusion_lat": 0.0, "lat": 38.918071833333336, "type": "electric_scooter", "lon": -77.03567566666666, "bike_id": "47cc1d80ab7e7d7487a9f2b941c39943", "rental_uris": {"android": "https://dc.lft.to/lastmile_qr_scan", "ios": "https://dc.lft.to/lastmile_qr_scan"}, "name": "47cc1d80ab7e7d7487a9f2b941c39943", "is_reserved": 0}, {"is_disabled": 0, "fusion_lon": 0.0, "fusion_lat": 0.0, "lat": 38.916061, "type": "electric_scooter", "lon": -77.02308166666667, "bike_id": "2151c0d120b7fb939c6cb8e84565b2e2", "rental_uris": {"android": "https://dc.lft.to/lastmile_qr_scan", "ios": "https://dc.lft.to/lastmile_qr_scan"}, "name": "2151c0d120b7fb939c6cb8e84565b2e2", "is_reserved": 0}, {"is_disabled": 0, "fusion_lon": 0.0, "fusion_lat": 0.0, "lat": 38.92477, "type": "electric_scooter", "lon": -77.02996933333333, "bike_id": "b258b0d52e50ab799ca042bc461499cf", "rental_uris": {"android": "https://dc.lft.to/lastmile_qr_scan", "ios": "https://dc.lft.to/lastmile_qr_scan"}, "name": "b258b0d52e50ab799ca042bc461499cf", "is_reserved": 0}, {"is_disabled": 0, "fusion_lon": 0.0, "fusion_lat": 0.0, "lat": 38.9017375, "type": "electric_bike", "lon": -77.05096616666667, "bike_id": "ef78833c0ef73a2a4293561a73a3685d", "rental_uris": {"android": "https://dc.lft.to/lastmile_qr_scan", "ios": "https://dc.lft.to/lastmile_qr_scan"}, "name": "ef78833c0ef73a2a4293561a73a3685d", "is_reserved": 0}, {"is_disabled": 0, "fusion_lon": 0.0, "fusion_lat": 0.0, "lat": 38.909758333333336, "type": "electric_scooter", "lon": -77.03858566666666, "bike_id": "549524c20f0af30e4ee9f6d1dd6231e2", "rental_uris": {"android": "https://dc.lft.to/lastmile_qr_scan", "ios": "https://dc.lft.to/lastmile_qr_scan"}, "name": "549524c20f0af30e4ee9f6d1dd6231e2", "is_reserved": 0}, {"is_disabled": 0, "fusion_lon": 0.0, "fusion_lat": 0.0, "lat": 38.80295916666667, "type": "electric_bike", "lon": -77.03985316666666, "bike_id": "effe3fd7fe88c8e9de107beabc3ecb28", "rental_uris": {"android": "https://dc.lft.to/lastmile_qr_scan", "ios": "https://dc.lft.to/lastmile_qr_scan"}, "name": "effe3fd7fe88c8e9de107beabc3ecb28", "is_reserved": 0}, {"is_disabled": 0, "fusion_lon": 0.0, "fusion_lat": 0.0, "lat": 38.88738083333333, "type": "electric_scooter", "lon": -77.015353, "bike_id": "6cd3133b68f8844fb3843dfc3c79d558", "rental_uris": {"android": "https://dc.lft.to/lastmile_qr_scan", "ios": "https://dc.lft.to/lastmile_qr_scan"}, "name": "6cd3133b68f8844fb3843dfc3c79d558", "is_reserved": 0}, {"is_disabled": 0, "fusion_lon": 0.0, "fusion_lat": 0.0, "lat": 38.91681533333333, "type": "electric_bike", "lon": -77.09575866666667, "bike_id": "9d2db8387c8ca9d03d1c2cc1f17ed743", "rental_uris": {"android": "https://dc.lft.to/lastmile_qr_scan", "ios": "https://dc.lft.to/lastmile_qr_scan"}, "name": "9d2db8387c8ca9d03d1c2cc1f17ed743", "is_reserved": 0}, {"is_disabled": 0, "fusion_lon": 0.0, "fusion_lat": 0.0, "lat": 38.892176166666665, "type": "electric_scooter", "lon": -77.0221995, "bike_id": "23b423d65b93c0f76952334cf0dd8695", "rental_uris": {"android": "https://dc.lft.to/lastmile_qr_scan", "ios": "https://dc.lft.to/lastmile_qr_scan"}, "name": "23b423d65b93c0f76952334cf0dd8695", "is_reserved": 0}, {"is_disabled": 0, "fusion_lon": 0.0, "fusion_lat": 0.0, "lat": 38.86503316666666, "type": "electric_scooter", "lon": -76.99002733333333, "bike_id": "f65d096f0d96e4a7e9abb1a89009889f", "rental_uris": {"android": "https://dc.lft.to/lastmile_qr_scan", "ios": "https://dc.lft.to/lastmile_qr_scan"}, "name": "f65d096f0d96e4a7e9abb1a89009889f", "is_reserved": 0}, {"is_disabled": 0, "fusion_lon": 0.0, "fusion_lat": 0.0, "lat": 38.99224866666667, "type": "electric_bike", "lon": -76.87776583333333, "bike_id": "eaf309a39d2eda551b7fc6732b7fde64", "rental_uris": {"android": "https://dc.lft.to/lastmile_qr_scan", "ios": "https://dc.lft.to/lastmile_qr_scan"}, "name": "eaf309a39d2eda551b7fc6732b7fde64", "is_reserved": 0}, {"is_disabled": 0, "fusion_lon": 0.0, "fusion_lat": 0.0, "lat": 38.9289865, "type": "electric_scooter", "lon": -77.01652633333333, "bike_id": "139454d0d627833bfbb75a06d0338db2", "rental_uris": {"android": "https://dc.lft.to/lastmile_qr_scan", "ios": "https://dc.lft.to/lastmile_qr_scan"}, "name": "139454d0d627833bfbb75a06d0338db2", "is_reserved": 0}, {"is_disabled": 0, "fusion_lon": 0.0, "fusion_lat": 0.0, "lat": 38.887437166666665, "type": "electric_scooter", "lon": -77.02862416666666, "bike_id": "925b7c53ac5c3337c6e3f56769eceeea", "rental_uris": {"android": "https://dc.lft.to/lastmile_qr_scan", "ios": "https://dc.lft.to/lastmile_qr_scan"}, "name": "925b7c53ac5c3337c6e3f56769eceeea", "is_reserved": 0}, {"is_disabled": 0, "fusion_lon": 0.0, "fusion_lat": 0.0, "lat": 38.907681833333335, "type": "electric_scooter", "lon": -77.03250916666667, "bike_id": "5354fb399c27a97faf72c447060d3c2f", "rental_uris": {"android": "https://dc.lft.to/lastmile_qr_scan", "ios": "https://dc.lft.to/lastmile_qr_scan"}, "name": "5354fb399c27a97faf72c447060d3c2f", "is_reserved": 0}, {"is_disabled": 0, "fusion_lon": 0.0, "fusion_lat": 0.0, "lat": 38.90728566666667, "type": "electric_scooter", "lon": -77.02373733333333, "bike_id": "c7eee2ebc4995ef116e54268f299378b", "rental_uris": {"android": "https://dc.lft.to/lastmile_qr_scan", "ios": "https://dc.lft.to/lastmile_qr_scan"}, "name": "c7eee2ebc4995ef116e54268f299378b", "is_reserved": 0}, {"is_disabled": 0, "fusion_lon": 0.0, "fusion_lat": 0.0, "lat": 38.889661833333335, "type": "electric_bike", "lon": -76.948623, "bike_id": "4bf8679fe05106c9bdeae8cb237a8c3f", "rental_uris": {"android": "https://dc.lft.to/lastmile_qr_scan", "ios": "https://dc.lft.to/lastmile_qr_scan"}, "name": "4bf8679fe05106c9bdeae8cb237a8c3f", "is_reserved": 0}, {"is_disabled": 0, "fusion_lon": 0.0, "fusion_lat": 0.0, "lat": 38.97573633333333, "type": "electric_bike", "lon": -76.964061, "bike_id": "1f9f0ff7b7b4a61180f357f490e38130", "rental_uris": {"android": "https://dc.lft.to/lastmile_qr_scan", "ios": "https://dc.lft.to/lastmile_qr_scan"}, "name": "1f9f0ff7b7b4a61180f357f490e38130", "is_reserved": 0}, {"is_disabled": 0, "fusion_lon": 0.0, "fusion_lat": 0.0, "lat": 38.888242166666664, "type": "electric_bike", "lon": -77.12737916666667, "bike_id": "8c7fc9c8c93a3f8e6887496428a84aff", "rental_uris": {"android": "https://dc.lft.to/lastmile_qr_scan", "ios": "https://dc.lft.to/lastmile_qr_scan"}, "name": "8c7fc9c8c93a3f8e6887496428a84aff", "is_reserved": 0}, {"is_disabled": 0, "fusion_lon": 0.0, "fusion_lat": 0.0, "lat": 38.903673166666664, "type": "electric_scooter", "lon": -77.04328516666666, "bike_id": "897c81f2072b9744fc304a5f394cd234", "rental_uris": {"android": "https://dc.lft.to/lastmile_qr_scan", "ios": "https://dc.lft.to/lastmile_qr_scan"}, "name": "897c81f2072b9744fc304a5f394cd234", "is_reserved": 0}, {"is_disabled": 0, "fusion_lon": 0.0, "fusion_lat": 0.0, "lat": 38.881176333333336, "type": "electric_scooter", "lon": -76.99597516666667, "bike_id": "ca86ee79395508ff0b640550f9cce289", "rental_uris": {"android": "https://dc.lft.to/lastmile_qr_scan", "ios": "https://dc.lft.to/lastmile_qr_scan"}, "name": "ca86ee79395508ff0b640550f9cce289", "is_reserved": 0}, {"is_disabled": 0, "fusion_lon": 0.0, "fusion_lat": 0.0, "lat": 38.89603916666667, "type": "electric_scooter", "lon": -77.01120116666667, "bike_id": "661d68fa3950461b2bc91233ecc2c0dc", "rental_uris": {"android": "https://dc.lft.to/lastmile_qr_scan", "ios": "https://dc.lft.to/lastmile_qr_scan"}, "name": "661d68fa3950461b2bc91233ecc2c0dc", "is_reserved": 0}, {"is_disabled": 0, "fusion_lon": 0.0, "fusion_lat": 0.0, "lat": 38.936851, "type": "electric_scooter", "lon": -77.03281866666667, "bike_id": "9b8c6c0fafea246dce83da91a654d502", "rental_uris": {"android": "https://dc.lft.to/lastmile_qr_scan", "ios": "https://dc.lft.to/lastmile_qr_scan"}, "name": "9b8c6c0fafea246dce83da91a654d502", "is_reserved": 0}, {"is_disabled": 0, "fusion_lon": 0.0, "fusion_lat": 0.0, "lat": 38.8807395, "type": "electric_scooter", "lon": -77.00649333333334, "bike_id": "cdf27e1d3d1eca1d861046c753d5d04e", "rental_uris": {"android": "https://dc.lft.to/lastmile_qr_scan", "ios": "https://dc.lft.to/lastmile_qr_scan"}, "name": "cdf27e1d3d1eca1d861046c753d5d04e", "is_reserved": 0}, {"is_disabled": 0, "fusion_lon": 0.0, "fusion_lat": 0.0, "lat": 38.91606133333333, "type": "electric_scooter", "lon": -77.02480916666667, "bike_id": "a13b09b3b546a9259797b0d20ab5aa93", "rental_uris": {"android": "https://dc.lft.to/lastmile_qr_scan", "ios": "https://dc.lft.to/lastmile_qr_scan"}, "name": "a13b09b3b546a9259797b0d20ab5aa93", "is_reserved": 0}, {"is_disabled": 0, "fusion_lon": 0.0, "fusion_lat": 0.0, "lat": 38.92013433333334, "type": "electric_scooter", "lon": -77.032072, "bike_id": "4ccd69275209533c2cec44d063300728", "rental_uris": {"android": "https://dc.lft.to/lastmile_qr_scan", "ios": "https://dc.lft.to/lastmile_qr_scan"}, "name": "4ccd69275209533c2cec44d063300728", "is_reserved": 0}, {"is_disabled": 0, "fusion_lon": 0.0, "fusion_lat": 0.0, "lat": 38.951984, "type": "electric_bike", "lon": -77.0237105, "bike_id": "8ba9b8cfc6e2a7af4b4ad4148feb48f5", "rental_uris": {"android": "https://dc.lft.to/lastmile_qr_scan", "ios": "https://dc.lft.to/lastmile_qr_scan"}, "name": "8ba9b8cfc6e2a7af4b4ad4148feb48f5", "is_reserved": 0}, {"is_disabled": 0, "fusion_lon": 0.0, "fusion_lat": 0.0, "lat": 38.9198175, "type": "electric_scooter", "lon": -77.03806716666666, "bike_id": "dd6b7da26b64d80d69ac3d1f253ccb1a", "rental_uris": {"android": "https://dc.lft.to/lastmile_qr_scan", "ios": "https://dc.lft.to/lastmile_qr_scan"}, "name": "dd6b7da26b64d80d69ac3d1f253ccb1a", "is_reserved": 0}, {"is_disabled": 0, "fusion_lon": 0.0, "fusion_lat": 0.0, "lat": 38.924880333333334, "type": "electric_scooter", "lon": -77.03927766666666, "bike_id": "dce8d6aa7ae3f55ddfea2cfd7022e676", "rental_uris": {"android": "https://dc.lft.to/lastmile_qr_scan", "ios": "https://dc.lft.to/lastmile_qr_scan"}, "name": "dce8d6aa7ae3f55ddfea2cfd7022e676", "is_reserved": 0}, {"is_disabled": 0, "fusion_lon": 0.0, "fusion_lat": 0.0, "lat": 38.905900333333335, "type": "electric_scooter", "lon": -77.02407333333333, "bike_id": "7cc4f6f3887ed7f10ed63834c44fed5e", "rental_uris": {"android": "https://dc.lft.to/lastmile_qr_scan", "ios": "https://dc.lft.to/lastmile_qr_scan"}, "name": "7cc4f6f3887ed7f10ed63834c44fed5e", "is_reserved": 0}, {"is_disabled": 0, "fusion_lon": 0.0, "fusion_lat": 0.0, "lat": 38.956338833333334, "type": "electric_scooter", "lon": -77.02978233333333, "bike_id": "fb1b656406456bac55fd6845d09bce01", "rental_uris": {"android": "https://dc.lft.to/lastmile_qr_scan", "ios": "https://dc.lft.to/lastmile_qr_scan"}, "name": "fb1b656406456bac55fd6845d09bce01", "is_reserved": 0}, {"is_disabled": 0, "fusion_lon": 0.0, "fusion_lat": 0.0, "lat": 38.902693, "type": "electric_scooter", "lon": -77.03850116666666, "bike_id": "3e5da0a96c0609bcbf6524c09043edff", "rental_uris": {"android": "https://dc.lft.to/lastmile_qr_scan", "ios": "https://dc.lft.to/lastmile_qr_scan"}, "name": "3e5da0a96c0609bcbf6524c09043edff", "is_reserved": 0}, {"is_disabled": 0, "fusion_lon": 0.0, "fusion_lat": 0.0, "lat": 38.902387166666664, "type": "electric_scooter", "lon": -77.046656, "bike_id": "45391bcd1307e988c93916851ec18736", "rental_uris": {"android": "https://dc.lft.to/lastmile_qr_scan", "ios": "https://dc.lft.to/lastmile_qr_scan"}, "name": "45391bcd1307e988c93916851ec18736", "is_reserved": 0}, {"is_disabled": 0, "fusion_lon": 0.0, "fusion_lat": 0.0, "lat": 38.910924333333334, "type": "electric_bike", "lon": -76.98482616666666, "bike_id": "b499b5c15c74a0e6bfb4115fdfc84d72", "rental_uris": {"android": "https://dc.lft.to/lastmile_qr_scan", "ios": "https://dc.lft.to/lastmile_qr_scan"}, "name": "b499b5c15c74a0e6bfb4115fdfc84d72", "is_reserved": 0}, {"is_disabled": 0, "fusion_lon": 0.0, "fusion_lat": 0.0, "lat": 38.9072575, "type": "electric_scooter", "lon": -77.0396495, "bike_id": "74e25b5c6ef4f5ca70b7faed6f5903f2", "rental_uris": {"android": "https://dc.lft.to/lastmile_qr_scan", "ios": "https://dc.lft.to/lastmile_qr_scan"}, "name": "74e25b5c6ef4f5ca70b7faed6f5903f2", "is_reserved": 0}, {"is_disabled": 0, "fusion_lon": 0.0, "fusion_lat": 0.0, "lat": 38.8506325, "type": "electric_bike", "lon": -76.97330816666667, "bike_id": "f6902b724be3ced0cbd84fbfaa742adf", "rental_uris": {"android": "https://dc.lft.to/lastmile_qr_scan", "ios": "https://dc.lft.to/lastmile_qr_scan"}, "name": "f6902b724be3ced0cbd84fbfaa742adf", "is_reserved": 0}, {"is_disabled": 0, "fusion_lon": 0.0, "fusion_lat": 0.0, "lat": 38.8762525, "type": "electric_scooter", "lon": -76.96527266666666, "bike_id": "ae9ff9f8e3347b3e6fbe2b3d1c0d6b8c", "rental_uris": {"android": "https://dc.lft.to/lastmile_qr_scan", "ios": "https://dc.lft.to/lastmile_qr_scan"}, "name": "ae9ff9f8e3347b3e6fbe2b3d1c0d6b8c", "is_reserved": 0}, {"is_disabled": 0, "fusion_lon": 0.0, "fusion_lat": 0.0, "lat": 38.909684, "type": "electric_scooter", "lon": -77.032131, "bike_id": "200ecb7cef0188703bfbc8f3bc96c441", "rental_uris": {"android": "https://dc.lft.to/lastmile_qr_scan", "ios": "https://dc.lft.to/lastmile_qr_scan"}, "name": "200ecb7cef0188703bfbc8f3bc96c441", "is_reserved": 0}, {"is_disabled": 0, "fusion_lon": 0.0, "fusion_lat": 0.0, "lat": 38.9508375, "type": "electric_bike", "lon": -76.96560183333334, "bike_id": "0bbb95d2ab595ed78f6a5f63404ece8e", "rental_uris": {"android": "https://dc.lft.to/lastmile_qr_scan", "ios": "https://dc.lft.to/lastmile_qr_scan"}, "name": "0bbb95d2ab595ed78f6a5f63404ece8e", "is_reserved": 0}, {"is_disabled": 0, "fusion_lon": 0.0, "fusion_lat": 0.0, "lat": 38.907932333333335, "type": "electric_scooter", "lon": -77.04101283333334, "bike_id": "45801213ddd46c2b0cc7bf8bb64cd7cb", "rental_uris": {"android": "https://dc.lft.to/lastmile_qr_scan", "ios": "https://dc.lft.to/lastmile_qr_scan"}, "name": "45801213ddd46c2b0cc7bf8bb64cd7cb", "is_reserved": 0}, {"is_disabled": 0, "fusion_lon": 0.0, "fusion_lat": 0.0, "lat": 38.9072905, "type": "electric_scooter", "lon": -77.02369933333334, "bike_id": "a4f071f00770f1a19baadde7991a9dff", "rental_uris": {"android": "https://dc.lft.to/lastmile_qr_scan", "ios": "https://dc.lft.to/lastmile_qr_scan"}, "name": "a4f071f00770f1a19baadde7991a9dff", "is_reserved": 0}, {"is_disabled": 0, "fusion_lon": 0.0, "fusion_lat": 0.0, "lat": 38.90116183333333, "type": "electric_scooter", "lon": -77.03247816666666, "bike_id": "af1529b9861643b475467abeb7f62b23", "rental_uris": {"android": "https://dc.lft.to/lastmile_qr_scan", "ios": "https://dc.lft.to/lastmile_qr_scan"}, "name": "af1529b9861643b475467abeb7f62b23", "is_reserved": 0}, {"is_disabled": 0, "fusion_lon": 0.0, "fusion_lat": 0.0, "lat": 38.89833566666667, "type": "electric_scooter", "lon": -77.02954183333334, "bike_id": "e7a11fdbd179c8270758b423d021d243", "rental_uris": {"android": "https://dc.lft.to/lastmile_qr_scan", "ios": "https://dc.lft.to/lastmile_qr_scan"}, "name": "e7a11fdbd179c8270758b423d021d243", "is_reserved": 0}, {"is_disabled": 0, "fusion_lon": 0.0, "fusion_lat": 0.0, "lat": 38.90637383333333, "type": "electric_scooter", "lon": -77.01795383333334, "bike_id": "f575ef1cb66b60dbb9b2ebf0399a1da2", "rental_uris": {"android": "https://dc.lft.to/lastmile_qr_scan", "ios": "https://dc.lft.to/lastmile_qr_scan"}, "name": "f575ef1cb66b60dbb9b2ebf0399a1da2", "is_reserved": 0}, {"is_disabled": 0, "fusion_lon": 0.0, "fusion_lat": 0.0, "lat": 38.956118833333335, "type": "electric_scooter", "lon": -77.02759866666666, "bike_id": "1fdb1820336fa42a1c56f7a5e17c413e", "rental_uris": {"android": "https://dc.lft.to/lastmile_qr_scan", "ios": "https://dc.lft.to/lastmile_qr_scan"}, "name": "1fdb1820336fa42a1c56f7a5e17c413e", "is_reserved": 0}, {"is_disabled": 0, "fusion_lon": 0.0, "fusion_lat": 0.0, "lat": 38.962131, "type": "electric_scooter", "lon": -77.028054, "bike_id": "105afbede24992dca6a11f1e216fc75b", "rental_uris": {"android": "https://dc.lft.to/lastmile_qr_scan", "ios": "https://dc.lft.to/lastmile_qr_scan"}, "name": "105afbede24992dca6a11f1e216fc75b", "is_reserved": 0}, {"is_disabled": 0, "fusion_lon": 0.0, "fusion_lat": 0.0, "lat": 38.86656933333333, "type": "electric_scooter", "lon": -76.98884566666666, "bike_id": "795c14dfc0f1259c2280eb674e0ba9df", "rental_uris": {"android": "https://dc.lft.to/lastmile_qr_scan", "ios": "https://dc.lft.to/lastmile_qr_scan"}, "name": "795c14dfc0f1259c2280eb674e0ba9df", "is_reserved": 0}, {"is_disabled": 0, "fusion_lon": 0.0, "fusion_lat": 0.0, "lat": 38.905024833333336, "type": "electric_scooter", "lon": -77.02946016666667, "bike_id": "04f2b36b48d8453ef2f2ccc487e723a7", "rental_uris": {"android": "https://dc.lft.to/lastmile_qr_scan", "ios": "https://dc.lft.to/lastmile_qr_scan"}, "name": "04f2b36b48d8453ef2f2ccc487e723a7", "is_reserved": 0}, {"is_disabled": 0, "fusion_lon": 0.0, "fusion_lat": 0.0, "lat": 38.89308883333333, "type": "electric_scooter", "lon": -77.021177, "bike_id": "5184e07349cde999ea2becde2cc0bd93", "rental_uris": {"android": "https://dc.lft.to/lastmile_qr_scan", "ios": "https://dc.lft.to/lastmile_qr_scan"}, "name": "5184e07349cde999ea2becde2cc0bd93", "is_reserved": 0}, {"is_disabled": 0, "fusion_lon": 0.0, "fusion_lat": 0.0, "lat": 38.878355, "type": "electric_scooter", "lon": -77.02281533333333, "bike_id": "3cea55e540726d9e143e6eb9d35bf7e7", "rental_uris": {"android": "https://dc.lft.to/lastmile_qr_scan", "ios": "https://dc.lft.to/lastmile_qr_scan"}, "name": "3cea55e540726d9e143e6eb9d35bf7e7", "is_reserved": 0}, {"is_disabled": 0, "fusion_lon": 0.0, "fusion_lat": 0.0, "lat": 38.9422475, "type": "electric_scooter", "lon": -77.02156866666667, "bike_id": "4699ee39b3b99900ce8e4eec9d487821", "rental_uris": {"android": "https://dc.lft.to/lastmile_qr_scan", "ios": "https://dc.lft.to/lastmile_qr_scan"}, "name": "4699ee39b3b99900ce8e4eec9d487821", "is_reserved": 0}, {"is_disabled": 0, "fusion_lon": 0.0, "fusion_lat": 0.0, "lat": 38.90791883333333, "type": "electric_scooter", "lon": -76.997005, "bike_id": "6fd59b40c307efe5388f7c56125869b6", "rental_uris": {"android": "https://dc.lft.to/lastmile_qr_scan", "ios": "https://dc.lft.to/lastmile_qr_scan"}, "name": "6fd59b40c307efe5388f7c56125869b6", "is_reserved": 0}, {"is_disabled": 0, "fusion_lon": 0.0, "fusion_lat": 0.0, "lat": 38.93751816666666, "type": "electric_scooter", "lon": -77.02479883333334, "bike_id": "d4b54ac955d6b42d793689e650381436", "rental_uris": {"android": "https://dc.lft.to/lastmile_qr_scan", "ios": "https://dc.lft.to/lastmile_qr_scan"}, "name": "d4b54ac955d6b42d793689e650381436", "is_reserved": 0}, {"is_disabled": 0, "fusion_lon": 0.0, "fusion_lat": 0.0, "lat": 38.94275916666667, "type": "electric_scooter", "lon": -77.03633466666666, "bike_id": "b1b1a7893348d43fead6f83d8c046a60", "rental_uris": {"android": "https://dc.lft.to/lastmile_qr_scan", "ios": "https://dc.lft.to/lastmile_qr_scan"}, "name": "b1b1a7893348d43fead6f83d8c046a60", "is_reserved": 0}, {"is_disabled": 0, "fusion_lon": 0.0, "fusion_lat": 0.0, "lat": 38.9498395, "type": "electric_scooter", "lon": -77.02702533333333, "bike_id": "1a2cce3c0e829a3a488f8bf220469dcc", "rental_uris": {"android": "https://dc.lft.to/lastmile_qr_scan", "ios": "https://dc.lft.to/lastmile_qr_scan"}, "name": "1a2cce3c0e829a3a488f8bf220469dcc", "is_reserved": 0}, {"is_disabled": 0, "fusion_lon": 0.0, "fusion_lat": 0.0, "lat": 38.84797316666667, "type": "electric_scooter", "lon": -76.9671125, "bike_id": "9669cf233472696b120fb2816b32e02f", "rental_uris": {"android": "https://dc.lft.to/lastmile_qr_scan", "ios": "https://dc.lft.to/lastmile_qr_scan"}, "name": "9669cf233472696b120fb2816b32e02f", "is_reserved": 0}, {"is_disabled": 0, "fusion_lon": 0.0, "fusion_lat": 0.0, "lat": 38.858101833333336, "type": "electric_scooter", "lon": -76.989633, "bike_id": "d591dbaaeea70f0162d75ac4eae88e19", "rental_uris": {"android": "https://dc.lft.to/lastmile_qr_scan", "ios": "https://dc.lft.to/lastmile_qr_scan"}, "name": "d591dbaaeea70f0162d75ac4eae88e19", "is_reserved": 0}, {"is_disabled": 0, "fusion_lon": 0.0, "fusion_lat": 0.0, "lat": 38.909543, "type": "electric_scooter", "lon": -77.02383633333334, "bike_id": "a11b37e51a2b8c3d74f1ee1b7a3899ee", "rental_uris": {"android": "https://dc.lft.to/lastmile_qr_scan", "ios": "https://dc.lft.to/lastmile_qr_scan"}, "name": "a11b37e51a2b8c3d74f1ee1b7a3899ee", "is_reserved": 0}, {"is_disabled": 0, "fusion_lon": 0.0, "fusion_lat": 0.0, "lat": 38.90141833333333, "type": "electric_scooter", "lon": -77.02881633333334, "bike_id": "31092d619ff669d9d47048b37cffa0c3", "rental_uris": {"android": "https://dc.lft.to/lastmile_qr_scan", "ios": "https://dc.lft.to/lastmile_qr_scan"}, "name": "31092d619ff669d9d47048b37cffa0c3", "is_reserved": 0}, {"is_disabled": 0, "fusion_lon": 0.0, "fusion_lat": 0.0, "lat": 38.900294833333334, "type": "electric_scooter", "lon": -76.9962785, "bike_id": "86926c15dc1db3a457d266cf73f12724", "rental_uris": {"android": "https://dc.lft.to/lastmile_qr_scan", "ios": "https://dc.lft.to/lastmile_qr_scan"}, "name": "86926c15dc1db3a457d266cf73f12724", "is_reserved": 0}, {"is_disabled": 0, "fusion_lon": 0.0, "fusion_lat": 0.0, "lat": 38.93094966666666, "type": "electric_scooter", "lon": -77.0266085, "bike_id": "0c09b00c56a65ad7c0b17f44a2b15397", "rental_uris": {"android": "https://dc.lft.to/lastmile_qr_scan", "ios": "https://dc.lft.to/lastmile_qr_scan"}, "name": "0c09b00c56a65ad7c0b17f44a2b15397", "is_reserved": 0},