{"data": {"bikes": [{"lat": 38.9077445, "is_disabled": 0, "type": "electric_scooter", "lon": -77.03852283333333, "bike_id": "3279bd91bb6daff91ffd480538ddbb3e", "fusion_lat": 0.0, "name": "3279bd91bb6daff91ffd480538ddbb3e", "is_reserved": 0, "rental_uris": {"android": "https://dc.lft.to/lastmile_qr_scan", "ios": "https://dc.lft.to/lastmile_qr_scan"}, "fusion_lon": 0.0}, {"lat": 38.950297166666665, "is_disabled": 0, "type": "electric_bike", "lon": -77.02965766666667, "bike_id": "39f460459685875c80c3dd0428653d6f", "fusion_lat": 0.0, "name": "39f460459685875c80c3dd0428653d6f", "is_reserved": 0, "rental_uris": {"android": "https://dc.lft.to/lastmile_qr_scan", "ios": "https://dc.lft.to/lastmile_qr_scan"}, "fusion_lon": 0.0}, {"lat": 38.91475666666667, "is_disabled": 0, "type": "electric_scooter", "lon": -77.00348133333334, "bike_id": "7493b8bc5382880a9de9041e6c6ae9fc", "fusion_lat": 0.0, "name": "7493b8bc5382880a9de9041e6c6ae9fc", "is_reserved": 0, "rental_uris": {"android": "https://dc.lft.to/lastmile_qr_scan", "ios": "https://dc.lft.to/lastmile_qr_scan"}, "fusion_lon": 0.0}, {"lat": 38.9029635, "is_disabled": 0, "type": "electric_scooter", "lon": -77.00051583333334, "bike_id": "001166730a7826aeef8efaaae4072916", "fusion_lat": 0.0, "name": "001166730a7826aeef8efaaae4072916", "is_reserved": 0, "rental_uris": {"android": "https://dc.lft.to/lastmile_qr_scan", "ios": "https://dc.lft.to/lastmile_qr_scan"}, "fusion_lon": 0.0}, {"lat": 38.924933333333335, "is_disabled": 0, "type": "electric_scooter", "lon": -77.028446, "bike_id": "7eb9416f1435d0168802b9e91d25d7fc", "fusion_lat": 0.0, "name": "7eb9416f1435d0168802b9e91d25d7fc", "is_reserved": 0, "rental_uris": {"android": "https://dc.lft.to/lastmile_qr_scan", "ios": "https://dc.lft.to/lastmile_qr_scan"}, "fusion_lon": 0.0}, {"lat": 38.92196666666667, "is_disabled": 0, "type": "electric_scooter", "lon": -77.03979216666667, "bike_id": "fd60ef9313495772ed1b1d5a564743da", "fusion_lat": 0.0, "name": "fd60ef9313495772ed1b1d5a564743da", "is_reserved": 0, "rental_uris": {"android": "https://dc.lft.to/lastmile_qr_scan", "ios": "https://dc.lft.to/lastmile_qr_scan"}, "fusion_lon": 0.0}, {"lat": 38.986519333333334, "is_disabled": 0, "type": "electric_bike", "lon": -77.056467, "bike_id": "326759a8a887f6bcd17bbdb731d4bf6a", "fusion_lat": 0.0, "name": "326759a8a887f6bcd17bbdb731d4bf6a", "is_reserved": 0, "rental_uris": {"android": "https://dc.lft.to/lastmile_qr_scan", "ios": "https://dc.lft.to/lastmile_qr_scan"}, "fusion_lon": 0.0}, {"lat": 38.9068215, "is_disabled": 0, "type": "electric_scooter", "lon": -77.0627055, "bike_id": "a15761c2bfcc3907f68e04dd4c1a8dc8", "fusion_lat": 0.0, "name": "a15761c2bfcc3907f68e04dd4c1a8dc8", "is_reserved": 0, "rental_uris": {"android": "https://dc.lft.to/lastmile_qr_scan", "ios": "https://dc.lft.to/lastmile_qr_scan"}, "fusion_lon": 0.0}, {"lat": 38.9155285, "is_disabled": 0, "type": "electric_scooter", "lon": -77.01236383333334, "bike_id": "d4da6f348f0a660984524053171f3430", "fusion_lat": 0.0, "name": "d4da6f348f0a660984524053171f3430", "is_reserved": 0, "rental_uris": {"android": "https://dc.lft.to/lastmile_qr_scan", "ios": "https://dc.lft.to/lastmile_qr_scan"}, "fusion_lon": 0.0}, {"lat": 38.84423433333333, "is_disabled": 0, "type": "electric_scooter", "lon": -76.9977925, "bike_id": "2576a324cf736a218481c1692d44992b", "fusion_lat": 0.0, "name": "2576a324cf736a218481c1692d44992b", "is_reserved": 0, "rental_uris": {"android": "https://dc.lft.to/lastmile_qr_scan", "ios": "https://dc.lft.to/lastmile_qr_scan"}, "fusion_lon": 0.0}, {"lat": 38.924075333333334, "is_disabled": 0, "type": "electric_scooter", "lon": -77.03534266666666, "bike_id": "8dc8419e68d2045545b6de38090f1ee6", "fusion_lat": 0.0, "name": "8dc8419e68d2045545b6de38090f1ee6", "is_reserved": 0, "rental_uris": {"android": "https://dc.lft.to/lastmile_qr_scan", "ios": "https://dc.lft.to/lastmile_qr_scan"}, "fusion_lon": 0.0}, {"lat": 38.922911166666665, "is_disabled": 0, "type": "electric_bike", "lon": -76.99332966666667, "bike_id": "8ff4126d563739e29d1c6b3ecdfdba4f", "fusion_lat": 0.0, "name": "8ff4126d563739e29d1c6b3ecdfdba4f", "is_reserved": 0, "rental_uris": {"android": "https://dc.lft.to/lastmile_qr_scan", "ios": "https://dc.lft.to/lastmile_qr_scan"}, "fusion_lon": 0.0}, {"lat": 38.95214816666667, "is_disabled": 0, "type": "electric_scooter", "lon": -77.08602083333334, "bike_id": "dd8bc3dc8257b8c2e286ff07264b5480", "fusion_lat": 0.0, "name": "dd8bc3dc8257b8c2e286ff07264b5480", "is_reserved": 0, "rental_uris": {"android": "https://dc.lft.to/lastmile_qr_scan", "ios": "https://dc.lft.to/lastmile_qr_scan"}, "fusion_lon": 0.0}, {"lat": 38.919237333333335, "is_disabled": 0, "type": "electric_scooter", "lon": -77.03204316666667, "bike_id": "c69ac5c26db5380b30ec910653e15f33", "fusion_lat": 0.0, "name": "c69ac5c26db5380b30ec910653e15f33", "is_reserved": 0, "rental_uris": {"android": "https://dc.lft.to/lastmile_qr_scan", "ios": "https://dc.lft.to/lastmile_qr_scan"}, "fusion_lon": 0.0}, {"lat": 38.9999675, "is_disabled": 0, "type": "electric_bike", "lon": -76.92501783333333, "bike_id": "a1d0c08687ce0c26cceb0e4c2d830eac", "fusion_lat": 0.0, "name": "a1d0c08687ce0c26cceb0e4c2d830eac", "is_reserved": 0, "rental_uris": {"android": "https://dc.lft.to/lastmile_qr_scan", "ios": "https://dc.lft.to/lastmile_qr_scan"}, "fusion_lon": 0.0}, {"lat": 38.90501316666667, "is_disabled": 0, "type": "electric_scooter", "lon": -77.02951233333333, "bike_id": "a7ecfc3e4af62ae1dda37ac6abb82415", "fusion_lat": 0.0, "name": "a7ecfc3e4af62ae1dda37ac6abb82415", "is_reserved": 0, "rental_uris": {"android": "https://dc.lft.to/lastmile_qr_scan", "ios": "https://dc.lft.to/lastmile_qr_scan"}, "fusion_lon": 0.0}, {"lat": 38.89101466666666, "is_disabled": 0, "type": "electric_scooter", "lon": -76.95280983333333, "bike_id": "a2ab4a9e92893f2dc19320cca2224fb7", "fusion_lat": 0.0, "name": "a2ab4a9e92893f2dc19320cca2224fb7", "is_reserved": 0, "rental_uris": {"android": "https://dc.lft.to/lastmile_qr_scan", "ios": "https://dc.lft.to/lastmile_qr_scan"}, "fusion_lon": 0.0}, {"lat": 38.9048975, "is_disabled": 0, "type": "electric_scooter", "lon": -77.005077, "bike_id": "5dd784d463e7ea0c0b29a12ec90e3f65", "fusion_lat": 0.0, "name": "5dd784d463e7ea0c0b29a12ec90e3f65", "is_reserved": 0, "rental_uris": {"android": "https://dc.lft.to/lastmile_qr_scan", "ios": "https://dc.lft.to/lastmile_qr_scan"}, "fusion_lon": 0.0}, {"lat": 38.907376166666666, "is_disabled": 0, "type": "electric_scooter", "lon": -77.02950866666667, "bike_id": "552f69272a7c58ec3e6ab689d7374d0c", "fusion_lat": 0.0, "name": "552f69272a7c58ec3e6ab689d7374d0c", "is_reserved": 0, "rental_uris": {"android": "https://dc.lft.to/lastmile_qr_scan", "ios": "https://dc.lft.to/lastmile_qr_scan"}, "fusion_lon": 0.0}, {"lat": 38.91842333333334, "is_disabled": 0, "type": "electric_scooter", "lon": -77.03533683333333, "bike_id": "1e6d9b8acfc90030f8b6968a49232001", "fusion_lat": 0.0, "name": "1e6d9b8acfc90030f8b6968a49232001", "is_reserved": 0, "rental_uris": {"android": "https://dc.lft.to/lastmile_qr_scan", "ios": "https://dc.lft.to/lastmile_qr_scan"}, "fusion_lon": 0.0}, {"lat": 38.80228566666667, "is_disabled": 0, "type": "electric_bike", "lon": -77.0791485, "bike_id": "b381fcf68428b52d375925c980b6c221", "fusion_lat": 0.0, "name": "b381fcf68428b52d375925c980b6c221", "is_reserved": 0, "rental_uris": {"android": "https://dc.lft.to/lastmile_qr_scan", "ios": "https://dc.lft.to/lastmile_qr_scan"}, "fusion_lon": 0.0}, {"lat": 38.92793233333333, "is_disabled": 0, "type": "electric_scooter", "lon": -77.02596783333334, "bike_id": "121145d90689e240a52a09b8e60f130a", "fusion_lat": 0.0, "name": "121145d90689e240a52a09b8e60f130a", "is_reserved": 0, "rental_uris": {"android": "https://dc.lft.to/lastmile_qr_scan", "ios": "https://dc.lft.to/lastmile_qr_scan"}, "fusion_lon": 0.0}, {"lat": 38.93285783333333, "is_disabled": 0, "type": "electric_scooter", "lon": -77.026709, "bike_id": "494fa738214788c65703d65d4e87275a", "fusion_lat": 0.0, "name": "494fa738214788c65703d65d4e87275a", "is_reserved": 0, "rental_uris": {"android": "https://dc.lft.to/lastmile_qr_scan", "ios": "https://dc.lft.to/lastmile_qr_scan"}, "fusion_lon": 0.0}, {"lat": 38.89955283333333, "is_disabled": 0, "type": "electric_scooter", "lon": -77.052009, "bike_id": "b02df5266dd0706a973614d16c870d5a", "fusion_lat": 0.0, "name": "b02df5266dd0706a973614d16c870d5a", "is_reserved": 0, "rental_uris": {"android": "https://dc.lft.to/lastmile_qr_scan", "ios": "https://dc.lft.to/lastmile_qr_scan"}, "fusion_lon": 0.0}, {"lat": 38.9211065, "is_disabled": 0, "type": "electric_scooter", "lon": -77.04695733333334, "bike_id": "dd5c8679c19af8044dd0aaee81c28d5f", "fusion_lat": 0.0, "name": "dd5c8679c19af8044dd0aaee81c28d5f", "is_reserved": 0, "rental_uris": {"android": "https://dc.lft.to/lastmile_qr_scan", "ios": "https://dc.lft.to/lastmile_qr_scan"}, "fusion_lon": 0.0}, {"lat": 38.919703, "is_disabled": 0, "type": "electric_scooter", "lon": -77.03337116666667, "bike_id": "2d1c093f39e7817e542fafb00cd00b06", "fusion_lat": 0.0, "name": "2d1c093f39e7817e542fafb00cd00b06", "is_reserved": 0, "rental_uris": {"android": "https://dc.lft.to/lastmile_qr_scan", "ios": "https://dc.lft.to/lastmile_qr_scan"}, "fusion_lon": 0.0}, {"lat": 38.863687, "is_disabled": 0, "type": "electric_scooter", "lon": -76.99036733333334, "bike_id": "a5469efaf14d681030a73f004e405d72", "fusion_lat": 0.0, "name": "a5469efaf14d681030a73f004e405d72", "is_reserved": 0, "rental_uris": {"android": "https://dc.lft.to/lastmile_qr_scan", "ios": "https://dc.lft.to/lastmile_qr_scan"}, "fusion_lon": 0.0}, {"lat": 38.8972385, "is_disabled": 0, "type": "electric_scooter", "lon": -77.022409, "bike_id": "92a41ee0f1f745953ad870ca2c1bb9a5", "fusion_lat": 0.0, "name": "92a41ee0f1f745953ad870ca2c1bb9a5", "is_reserved": 0, "rental_uris": {"android": "https://dc.lft.to/lastmile_qr_scan", "ios": "https://dc.lft.to/lastmile_qr_scan"}, "fusion_lon": 0.0}, {"lat": 38.933822666666664, "is_disabled": 0, "type": "electric_scooter", "lon": -76.99517733333333, "bike_id": "400c75ece31e7dd5be41d3e9eab73390", "fusion_lat": 0.0, "name": "400c75ece31e7dd5be41d3e9eab73390", "is_reserved": 0, "rental_uris": {"android": "https://dc.lft.to/lastmile_qr_scan", "ios": "https://dc.lft.to/lastmile_qr_scan"}, "fusion_lon": 0.0}, {"lat": 38.8853545, "is_disabled": 0, "type": "electric_scooter", "lon": -76.982737, "bike_id": "71646a663979f6bc1b408d37bb7defeb", "fusion_lat": 0.0, "name": "71646a663979f6bc1b408d37bb7defeb", "is_reserved": 0, "rental_uris": {"android": "https://dc.lft.to/lastmile_qr_scan", "ios": "https://dc.lft.to/lastmile_qr_scan"}, "fusion_lon": 0.0}, {"lat": 38.9191145, "is_disabled": 0, "type": "electric_scooter", "lon": -77.0446805, "bike_id": "ece70831f75bebdac30cdbee710eedde", "fusion_lat": 0.0, "name": "ece70831f75bebdac30cdbee710eedde", "is_reserved": 0, "rental_uris": {"android": "https://dc.lft.to/lastmile_qr_scan", "ios": "https://dc.lft.to/lastmile_qr_scan"}, "fusion_lon": 0.0}, {"lat": 38.92119733333333, "is_disabled": 0, "type": "electric_scooter", "lon": -77.04149616666666, "bike_id": "fa333d892e51e08e0ebb720a6e531e0b", "fusion_lat": 0.0, "name": "fa333d892e51e08e0ebb720a6e531e0b", "is_reserved": 0, "rental_uris": {"android": "https://dc.lft.to/lastmile_qr_scan", "ios": "https://dc.lft.to/lastmile_qr_scan"}, "fusion_lon": 0.0}, {"lat": 38.94823316666667, "is_disabled": 0, "type": "electric_scooter", "lon": -76.9990175, "bike_id": "9201c87a919bc57e5a59fb74be82d201", "fusion_lat": 0.0, "name": "9201c87a919bc57e5a59fb74be82d201", "is_reserved": 0, "rental_uris": {"android": "https://dc.lft.to/lastmile_qr_scan", "ios": "https://dc.lft.to/lastmile_qr_scan"}, "fusion_lon": 0.0}, {"lat": 38.896837166666664, "is_disabled": 0, "type": "electric_scooter", "lon": -76.93606983333333, "bike_id": "36e2902246cca2a61f209509cae1ba43", "fusion_lat": 0.0, "name": "36e2902246cca2a61f209509cae1ba43", "is_reserved": 0, "rental_uris": {"android": "https://dc.lft.to/lastmile_qr_scan", "ios": "https://dc.lft.to/lastmile_qr_scan"}, "fusion_lon": 0.0}, {"lat": 38.90119116666666, "is_disabled": 0, "type": "electric_scooter", "lon": -77.01768616666666, "bike_id": "4da338f21556f609d2ba0fd26ad33d36", "fusion_lat": 0.0, "name": "4da338f21556f609d2ba0fd26ad33d36", "is_reserved": 0, "rental_uris": {"android": "https://dc.lft.to/lastmile_qr_scan", "ios": "https://dc.lft.to/lastmile_qr_scan"}, "fusion_lon": 0.0}, {"lat": 38.8844955, "is_disabled": 0, "type": "electric_scooter", "lon": -76.95099883333333, "bike_id": "b5c9b6623a828c94a4fd09bb0fdf70b5", "fusion_lat": 0.0, "name": "b5c9b6623a828c94a4fd09bb0fdf70b5", "is_reserved": 0, "rental_uris": {"android": "https://dc.lft.to/lastmile_qr_scan", "ios": "https://dc.lft.to/lastmile_qr_scan"}, "fusion_lon": 0.0}, {"lat": 38.98820683333334, "is_disabled": 0, "type": "electric_bike", "lon": -77.02661716666667, "bike_id": "640aa3250b5f8b78a82a1f239bd15fc4", "fusion_lat": 0.0, "name": "640aa3250b5f8b78a82a1f239bd15fc4", "is_reserved": 0, "rental_uris": {"android": "https://dc.lft.to/lastmile_qr_scan", "ios": "https://dc.lft.to/lastmile_qr_scan"}, "fusion_lon": 0.0}, {"lat": 38.924278666666666, "is_disabled": 0, "type": "electric_scooter", "lon": -77.04244316666667, "bike_id": "2594880b9dae007307281f98de169899", "fusion_lat": 0.0, "name": "2594880b9dae007307281f98de169899", "is_reserved": 0, "rental_uris": {"android": "https://dc.lft.to/lastmile_qr_scan", "ios": "https://dc.lft.to/lastmile_qr_scan"}, "fusion_lon": 0.0}, {"lat": 38.93073366666667, "is_disabled": 0, "type": "electric_scooter", "lon": -77.03392966666667, "bike_id": "8a96ab9e75db8e4db6c608ea9169bd50", "fusion_lat": 0.0, "name": "8a96ab9e75db8e4db6c608ea9169bd50", "is_reserved": 0, "rental_uris": {"android": "https://dc.lft.to/lastmile_qr_scan", "ios": "https://dc.lft.to/lastmile_qr_scan"}, "fusion_lon": 0.0}, {"lat": 38.9445975, "is_disabled": 0, "type": "electric_scooter", "lon": -77.06027233333333, "bike_id": "1be397ac07ce1f7b7698deffcb7c3af6", "fusion_lat": 0.0, "name": "1be397ac07ce1f7b7698deffcb7c3af6", "is_reserved": 0, "rental_uris": {"android": "https://dc.lft.to/lastmile_qr_scan", "ios": "https://dc.lft.to/lastmile_qr_scan"}, "fusion_lon": 0.0}, {"lat": 38.93639266666667, "is_disabled": 0, "type": "electric_scooter", "lon": -77.024981, "bike_id": "4bbc8decc31c755e31ad72fb4fa596bf", "fusion_lat": 0.0, "name": "4bbc8decc31c755e31ad72fb4fa596bf", "is_reserved": 0, "rental_uris": {"android": "https://dc.lft.to/lastmile_qr_scan", "ios": "https://dc.lft.to/lastmile_qr_scan"}, "fusion_lon": 0.0}, {"lat": 38.908052166666664, "is_disabled": 0, "type": "electric_scooter", "lon": -77.0635375, "bike_id": "5722a3da440d68add8ee33ae652342b3", "fusion_lat": 0.0, "name": "5722a3da440d68add8ee33ae652342b3", "is_reserved": 0, "rental_uris": {"android": "https://dc.lft.to/lastmile_qr_scan", "ios": "https://dc.lft.to/lastmile_qr_scan"}, "fusion_lon": 0.0}, {"lat": 38.884884166666666, "is_disabled": 0, "type": "electric_scooter", "lon": -77.03475983333334, "bike_id": "bf521db599dbb82214a5db744d0f9d55", "fusion_lat": 0.0, "name": "bf521db599dbb82214a5db744d0f9d55", "is_reserved": 0, "rental_uris": {"android": "https://dc.lft.to/lastmile_qr_scan", "ios": "https://dc.lft.to/lastmile_qr_scan"}, "fusion_lon": 0.0}, {"lat": 38.92534666666667, "is_disabled": 0, "type": "electric_scooter", "lon": -77.044322, "bike_id": "4c096ca154f1a616d887e119d3e6eebf", "fusion_lat": 0.0, "name": "4c096ca154f1a616d887e119d3e6eebf", "is_reserved": 0, "rental_uris": {"android": "https://dc.lft.to/lastmile_qr_scan", "ios": "https://dc.lft.to/lastmile_qr_scan"}, "fusion_lon": 0.0}, {"lat": 38.90040883333333, "is_disabled": 0, "type": "electric_scooter", "lon": -76.99386766666667, "bike_id": "84923140948db1bdb51b7901ca320d59", "fusion_lat": 0.0, "name": "84923140948db1bdb51b7901ca320d59", "is_reserved": 0, "rental_uris": {"android": "https://dc.lft.to/lastmile_qr_scan", "ios": "https://dc.lft.to/lastmile_qr_scan"}, "fusion_lon": 0.0}, {"lat": 38.928494, "is_disabled": 0, "type": "electric_bike", "lon": -77.1067875, "bike_id": "3bd79cd48ec6e99f23147aad0709f87b", "fusion_lat": 0.0, "name": "3bd79cd48ec6e99f23147aad0709f87b", "is_reserved": 0, "rental_uris": {"android": "https://dc.lft.to/lastmile_qr_scan", "ios": "https://dc.lft.to/lastmile_qr_scan"}, "fusion_lon": 0.0}, {"lat": 38.91489133333333, "is_disabled": 0, "type": "electric_scooter", "lon": -77.03263266666667, "bike_id": "8997684b25527a57fc7985c4a9177eea", "fusion_lat": 0.0, "name": "8997684b25527a57fc7985c4a9177eea", "is_reserved": 0, "rental_uris": {"android": "https://dc.lft.to/lastmile_qr_scan", "ios": "https://dc.lft.to/lastmile_qr_scan"}, "fusion_lon": 0.0}, {"lat": 38.807426, "is_disabled": 0, "type": "electric_bike", "lon": -77.09430483333334, "bike_id": "8a6525fc1b7a951114e57ec7d3183c73", "fusion_lat": 0.0, "name": "8a6525fc1b7a951114e57ec7d3183c73", "is_reserved": 0, "rental_uris": {"android": "https://dc.lft.to/lastmile_qr_scan", "ios": "https://dc.lft.to/lastmile_qr_scan"}, "fusion_lon": 0.0}, {"lat": 38.947076, "is_disabled": 0, "type": "electric_scooter", "lon": -77.019414, "bike_id": "332bd5d4f224e63515d7fe414bd9c46e", "fusion_lat": 0.0, "name": "332bd5d4f224e63515d7fe414bd9c46e", "is_reserved": 0, "rental_uris": {"android": "https://dc.lft.to/lastmile_qr_scan", "ios": "https://dc.lft.to/lastmile_qr_scan"}, "fusion_lon": 0.0}, {"lat": 38.935404166666665, "is_disabled": 0, "type": "electric_scooter", "lon": -77.034162, "bike_id": "532e48520cac83cffd28babcd60edc14", "fusion_lat": 0.0, "name": "532e48520cac83cffd28babcd60edc14", "is_reserved": 0, "rental_uris": {"android": "https://dc.lft.to/lastmile_qr_scan", "ios": "https://dc.lft.to/lastmile_qr_scan"}, "fusion_lon": 0.0}, {"lat": 38.92193066666667, "is_disabled": 0, "type": "electric_scooter", "lon": -77.0412855, "bike_id": "ef87bc6edd07eec53afa2e01a04c6ede", "fusion_lat": 0.0, "name": "ef87bc6edd07eec53afa2e01a04c6ede", "is_reserved": 0, "rental_uris": {"android": "https://dc.lft.to/lastmile_qr_scan", "ios": "https://dc.lft.to/lastmile_qr_scan"}, "fusion_lon": 0.0}, {"lat": 38.9025095, "is_disabled": 0, "type": "electric_scooter", "lon": -77.01768516666667, "bike_id": "d9425f08d686664d6ef3c7180409ca78", "fusion_lat": 0.0, "name": "d9425f08d686664d6ef3c7180409ca78", "is_reserved": 0, "rental_uris": {"android": "https://dc.lft.to/lastmile_qr_scan", "ios": "https://dc.lft.to/lastmile_qr_scan"}, "fusion_lon": 0.0}, {"lat": 38.96117683333333, "is_disabled": 0, "type": "electric_scooter", "lon": -77.02812183333333, "bike_id": "8f676667b77fd0fd07fbdf86a74620d0", "fusion_lat": 0.0, "name": "8f676667b77fd0fd07fbdf86a74620d0", "is_reserved": 0, "rental_uris": {"android": "https://dc.lft.to/lastmile_qr_scan", "ios": "https://dc.lft.to/lastmile_qr_scan"}, "fusion_lon": 0.0}, {"lat": 38.905702, "is_disabled": 0, "type": "electric_scooter", "lon": -77.0179395, "bike_id": "3fbabd2d4666d0bf9764785c22ffad5e", "fusion_lat": 0.0, "name": "3fbabd2d4666d0bf9764785c22ffad5e", "is_reserved": 0, "rental_uris": {"android": "https://dc.lft.to/lastmile_qr_scan", "ios": "https://dc.lft.to/lastmile_qr_scan"}, "fusion_lon": 0.0}, {"lat": 38.9291525, "is_disabled": 0, "type": "electric_scooter", "lon": -77.02191666666667, "bike_id": "55ba9e1fadd9d2e655dc21d5678f7fd5", "fusion_lat": 0.0, "name": "55ba9e1fadd9d2e655dc21d5678f7fd5", "is_reserved": 0, "rental_uris": {"android": "https://dc.lft.to/lastmile_qr_scan", "ios": "https://dc.lft.to/lastmile_qr_scan"}, "fusion_lon": 0.0}, {"lat": 38.892280666666665, "is_disabled": 0, "type": "electric_scooter", "lon": -77.0211895, "bike_id": "9d038716f88ee93b16c5d595f4d2e806", "fusion_lat": 0.0, "name": "9d038716f88ee93b16c5d595f4d2e806", "is_reserved": 0, "rental_uris": {"android": "https://dc.lft.to/lastmile_qr_scan", "ios": "https://dc.lft.to/lastmile_qr_scan"}, "fusion_lon": 0.0}, {"lat": 38.906836166666665, "is_disabled": 0, "type": "electric_scooter", "lon": -77.060707, "bike_id": "94c9f2b033334f4f86432e1d9e251f4d", "fusion_lat": 0.0, "name": "94c9f2b033334f4f86432e1d9e251f4d", "is_reserved": 0, "rental_uris": {"android": "https://dc.lft.to/lastmile_qr_scan", "ios": "https://dc.lft.to/lastmile_qr_scan"}, "fusion_lon": 0.0}, {"lat": 38.92565866666666, "is_disabled": 0, "type": "electric_scooter", "lon": -77.057532, "bike_id": "a366f3261b8092bf433ffe262851616b", "fusion_lat": 0.0, "name": "a366f3261b8092bf433ffe262851616b", "is_reserved": 0, "rental_uris": {"android": "https://dc.lft.to/lastmile_qr_scan", "ios": "https://dc.lft.to/lastmile_qr_scan"}, "fusion_lon": 0.0}, {"lat": 38.921186666666664, "is_disabled": 0, "type": "electric_scooter", "lon": -77.018036, "bike_id": "981cd7b474a9b6a4a089ccb8f60d0096", "fusion_lat": 0.0, "name": "981cd7b474a9b6a4a089ccb8f60d0096", "is_reserved": 0, "rental_uris": {"android": "https://dc.lft.to/lastmile_qr_scan", "ios": "https://dc.lft.to/lastmile_qr_scan"}, "fusion_lon": 0.0}, {"lat": 38.931441, "is_disabled": 0, "type": "electric_scooter", "lon": -77.04143116666667, "bike_id": "f1b266d8ec69974cef27f353f1122c39", "fusion_lat": 0.0, "name": "f1b266d8ec69974cef27f353f1122c39", "is_reserved": 0, "rental_uris": {"android": "https://dc.lft.to/lastmile_qr_scan", "ios": "https://dc.lft.to/lastmile_qr_scan"}, "fusion_lon": 0.0}, {"lat": 38.866515666666665, "is_disabled": 0, "type": "electric_scooter", "lon": -76.98879216666667, "bike_id": "b4fe871cdac774376109ac5f8d9f1670", "fusion_lat": 0.0, "name": "b4fe871cdac774376109ac5f8d9f1670", "is_reserved": 0, "rental_uris": {"android": "https://dc.lft.to/lastmile_qr_scan", "ios": "https://dc.lft.to/lastmile_qr_scan"}, "fusion_lon": 0.0}, {"lat": 38.921516, "is_disabled": 0, "type": "electric_scooter", "lon": -77.03347966666666, "bike_id": "abe638c5dd52e35c76b5d15b18c10129", "fusion_lat": 0.0, "name": "abe638c5dd52e35c76b5d15b18c10129", "is_reserved": 0, "rental_uris": {"android": "https://dc.lft.to/lastmile_qr_scan", "ios": "https://dc.lft.to/lastmile_qr_scan"}, "fusion_lon": 0.0}, {"lat": 38.9231255, "is_disabled": 0, "type": "electric_scooter", "lon": -77.03971116666666, "bike_id": "e008a31d0dfdec3004a9e0e8e63c2105", "fusion_lat": 0.0, "name": "e008a31d0dfdec3004a9e0e8e63c2105", "is_reserved": 0, "rental_uris": {"android": "https://dc.lft.to/lastmile_qr_scan", "ios": "https://dc.lft.to/lastmile_qr_scan"}, "fusion_lon": 0.0}, {"lat": 38.9056595, "is_disabled": 0, "type": "electric_scooter", "lon": -77.02943233333333, "bike_id": "9f0cc25217539045d90d0dbb7a6d3085", "fusion_lat": 0.0, "name": "9f0cc25217539045d90d0dbb7a6d3085", "is_reserved": 0, "rental_uris": {"android": "https://dc.lft.to/lastmile_qr_scan", "ios": "https://dc.lft.to/lastmile_qr_scan"}, "fusion_lon": 0.0}, {"lat": 38.91358833333334, "is_disabled": 0, "type": "electric_scooter", "lon": -77.06922033333333, "bike_id": "93d6aee3283d4d3240847eb4ecd6e3a3", "fusion_lat": 0.0, "name": "93d6aee3283d4d3240847eb4ecd6e3a3", "is_reserved": 0, "rental_uris": {"android": "https://dc.lft.to/lastmile_qr_scan", "ios": "https://dc.lft.to/lastmile_qr_scan"}, "fusion_lon": 0.0}, {"lat": 38.83986683333333, "is_disabled": 0, "type": "electric_bike", "lon": -77.00570516666667, "bike_id": "0d8793a4e9543493c8f1ca11b88e0c51", "fusion_lat": 0.0, "name": "0d8793a4e9543493c8f1ca11b88e0c51", "is_reserved": 0, "rental_uris": {"android": "https://dc.lft.to/lastmile_qr_scan", "ios": "https://dc.lft.to/lastmile_qr_scan"}, "fusion_lon": 0.0}, {"lat": 38.923917, "is_disabled": 0, "type": "electric_scooter", "lon": -77.02542633333333, "bike_id": "7c140a280a1988eff38990c7eabf5b90", "fusion_lat": 0.0, "name": "7c140a280a1988eff38990c7eabf5b90", "is_reserved": 0, "rental_uris": {"android": "https://dc.lft.to/lastmile_qr_scan", "ios": "https://dc.lft.to/lastmile_qr_scan"}, "fusion_lon": 0.0}, {"lat": 38.90822933333333, "is_disabled": 0, "type": "electric_scooter", "lon": -76.94148316666667, "bike_id": "98895d3fc1663cda66808a9844d999e2", "fusion_lat": 0.0, "name": "98895d3fc1663cda66808a9844d999e2", "is_reserved": 0, "rental_uris": {"android": "https://dc.lft.to/lastmile_qr_scan", "ios": "https://dc.lft.to/lastmile_qr_scan"}, "fusion_lon": 0.0}, {"lat": 38.936326333333334, "is_disabled": 0, "type": "electric_scooter", "lon": -77.036627, "bike_id": "3d75f84672880f324fc95cfae092156f", "fusion_lat": 0.0, "name": "3d75f84672880f324fc95cfae092156f", "is_reserved": 0, "rental_uris": {"android": "https://dc.lft.to/lastmile_qr_scan", "ios": "https://dc.lft.to/lastmile_qr_scan"}, "fusion_lon": 0.0}, {"lat": 38.923997, "is_disabled": 0, "type": "electric_scooter", "lon": -77.05254766666667, "bike_id": "2630f4a960d7b7ff750a759bc7b50f55", "fusion_lat": 0.0, "name": "2630f4a960d7b7ff750a759bc7b50f55", "is_reserved": 0, "rental_uris": {"android": "https://dc.lft.to/lastmile_qr_scan", "ios": "https://dc.lft.to/lastmile_qr_scan"}, "fusion_lon": 0.0}, {"lat": 38.88132383333333, "is_disabled": 0, "type": "electric_scooter", "lon": -77.016568, "bike_id": "15d9a892a5376c6df390cbdcd9220de6", "fusion_lat": 0.0, "name": "15d9a892a5376c6df390cbdcd9220de6", "is_reserved": 0, "rental_uris": {"android": "https://dc.lft.to/lastmile_qr_scan", "ios": "https://dc.lft.to/lastmile_qr_scan"}, "fusion_lon": 0.0}, {"lat": 38.88406633333334, "is_disabled": 0, "type": "electric_bike", "lon": -76.96055883333334, "bike_id": "4e330aa0c8ab56e96c9ebc312bbd8fc4", "fusion_lat": 0.0, "name": "4e330aa0c8ab56e96c9ebc312bbd8fc4", "is_reserved": 0, "rental_uris": {"android": "https://dc.lft.to/lastmile_qr_scan", "ios": "https://dc.lft.to/lastmile_qr_scan"}, "fusion_lon": 0.0}, {"lat": 38.91255783333333, "is_disabled": 0, "type": "electric_scooter", "lon": -77.03865366666666, "bike_id": "71f875ee46024139a19761d2c1017ba7", "fusion_lat": 0.0, "name": "71f875ee46024139a19761d2c1017ba7", "is_reserved": 0, "rental_uris": {"android": "https://dc.lft.to/lastmile_qr_scan", "ios": "https://dc.lft.to/lastmile_qr_scan"}, "fusion_lon": 0.0}, {"lat": 38.904166833333335, "is_disabled": 0, "type": "electric_scooter", "lon": -77.02506583333333, "bike_id": "3b5849fd9180d563345858af8cdca061", "fusion_lat": 0.0, "name": "3b5849fd9180d563345858af8cdca061", "is_reserved": 0, "rental_uris": {"android": "https://dc.lft.to/lastmile_qr_scan", "ios": "https://dc.lft.to/lastmile_qr_scan"}, "fusion_lon": 0.0}, {"lat": 38.90990083333333, "is_disabled": 0, "type": "electric_scooter", "lon": -76.98463733333334, "bike_id": "19ceadd682b978a051bc9e36e5245ecd", "fusion_lat": 0.0, "name": "19ceadd682b978a051bc9e36e5245ecd", "is_reserved": 0, "rental_uris": {"android": "https://dc.lft.to/lastmile_qr_scan", "ios": "https://dc.lft.to/lastmile_qr_scan"}, "fusion_lon": 0.0}, {"lat": 38.929171333333336, "is_disabled": 0, "type": "electric_scooter", "lon": -77.03631483333334, "bike_id": "8200b0a4c3fc38e7d424e514a18a63cd", "fusion_lat": 0.0, "name": "8200b0a4c3fc38e7d424e514a18a63cd", "is_reserved": 0, "rental_uris": {"android": "https://dc.lft.to/lastmile_qr_scan", "ios": "https://dc.lft.to/lastmile_qr_scan"}, "fusion_lon": 0.0}, {"lat": 38.90045666666666, "is_disabled": 0, "type": "electric_scooter", "lon": -76.99506, "bike_id": "bd4c4026dcaa0376c433464aa070af91", "fusion_lat": 0.0, "name": "bd4c4026dcaa0376c433464aa070af91", "is_reserved": 0, "rental_uris": {"android": "https://dc.lft.to/lastmile_qr_scan", "ios": "https://dc.lft.to/lastmile_qr_scan"}, "fusion_lon": 0.0}, {"lat": 38.925711, "is_disabled": 0, "type": "electric_scooter", "lon": -77.02720216666667, "bike_id": "61ffa4efbb72c946744169238e49b0b1", "fusion_lat": 0.0, "name": "61ffa4efbb72c946744169238e49b0b1", "is_reserved": 0, "rental_uris": {"android": "https://dc.lft.to/lastmile_qr_scan", "ios": "https://dc.lft.to/lastmile_qr_scan"}, "fusion_lon": 0.0}, {"lat": 38.917673666666666, "is_disabled": 0, "type": "electric_scooter", "lon": -77.02887033333333, "bike_id": "05dfa975fa977057cbeb24f3add017a9", "fusion_lat": 0.0, "name": "05dfa975fa977057cbeb24f3add017a9", "is_reserved": 0, "rental_uris": {"android": "https://dc.lft.to/lastmile_qr_scan", "ios": "https://dc.lft.to/lastmile_qr_scan"}, "fusion_lon": 0.0}, {"lat": 38.93133266666667, "is_disabled": 0, "type": "electric_scooter", "lon": -77.03255833333333, "bike_id": "d56f1dc4915c2f8809a726670b0504bd", "fusion_lat": 0.0, "name": "d56f1dc4915c2f8809a726670b0504bd", "is_reserved": 0, "rental_uris": {"android": "https://dc.lft.to/lastmile_qr_scan", "ios": "https://dc.lft.to/lastmile_qr_scan"}, "fusion_lon": 0.0}, {"lat": 38.872108, "is_disabled": 0, "type": "electric_bike", "lon": -77.01526566666666, "bike_id": "38f052e2bba2c62c0bc7bf639ed4aed0", "fusion_lat": 0.0, "name": "38f052e2bba2c62c0bc7bf639ed4aed0", "is_reserved": 0, "rental_uris": {"android": "https://dc.lft.to/lastmile_qr_scan", "ios": "https://dc.lft.to/lastmile_qr_scan"}, "fusion_lon": 0.0}, {"lat": 38.928615666666666, "is_disabled": 0, "type": "electric_bike", "lon": -77.22221366666666, "bike_id": "d6322c68b76127dca3a47457d5b0922c", "fusion_lat": 0.0, "name": "d6322c68b76127dca3a47457d5b0922c", "is_reserved": 0, "rental_uris": {"android": "https://dc.lft.to/lastmile_qr_scan", "ios": "https://dc.lft.to/lastmile_qr_scan"}, "fusion_lon": 0.0}, {"lat": 38.92203383333333, "is_disabled": 0, "type": "electric_scooter", "lon": -76.95661116666666, "bike_id": "8af529da1ef4fd4cceedb69add85c98f", "fusion_lat": 0.0, "name": "8af529da1ef4fd4cceedb69add85c98f", "is_reserved": 0, "rental_uris": {"android": "https://dc.lft.to/lastmile_qr_scan", "ios": "https://dc.lft.to/lastmile_qr_scan"}, "fusion_lon": 0.0}, {"lat": 38.90230316666667, "is_disabled": 0, "type": "electric_scooter", "lon": -77.043331, "bike_id": "cd5ca4c946cb83e6333e4430a24ae9d1", "fusion_lat": 0.0, "name": "cd5ca4c946cb83e6333e4430a24ae9d1", "is_reserved": 0, "rental_uris": {"android": "https://dc.lft.to/lastmile_qr_scan", "ios": "https://dc.lft.to/lastmile_qr_scan"}, "fusion_lon": 0.0}, {"lat": 38.9655425, "is_disabled": 0, "type": "electric_bike", "lon": -77.02037466666667, "bike_id": "ab67ee896f29af4244bef9d15296ba0e", "fusion_lat": 0.0, "name": "ab67ee896f29af4244bef9d15296ba0e", "is_reserved": 0, "rental_uris": {"android": "https://dc.lft.to/lastmile_qr_scan", "ios": "https://dc.lft.to/lastmile_qr_scan"}, "fusion_lon": 0.0}, {"lat": 38.90340416666667, "is_disabled": 0, "type": "electric_scooter", "lon": -77.02905266666667, "bike_id": "ecbbec7a5db0bc559cd200d43f3a83ef", "fusion_lat": 0.0, "name": "ecbbec7a5db0bc559cd200d43f3a83ef", "is_reserved": 0, "rental_uris": {"android": "https://dc.lft.to/lastmile_qr_scan", "ios": "https://dc.lft.to/lastmile_qr_scan"}, "fusion_lon": 0.0}, {"lat": 38.899685166666664, "is_disabled": 0, "type": "electric_scooter", "lon": -77.02296883333334, "bike_id": "ba9757221c629a4843efd0bf7f0e2318", "fusion_lat": 0.0, "name": "ba9757221c629a4843efd0bf7f0e2318", "is_reserved": 0, "rental_uris": {"android": "https://dc.lft.to/lastmile_qr_scan", "ios": "https://dc.lft.to/lastmile_qr_scan"}, "fusion_lon": 0.0}, {"lat": 38.92262183333333, "is_disabled": 0, "type": "electric_scooter", "lon": -77.04295116666667, "bike_id": "38b50f4ce9519d0a07a86cd3bf5715d0", "fusion_lat": 0.0, "name": "38b50f4ce9519d0a07a86cd3bf5715d0", "is_reserved": 0, "rental_uris": {"android": "https://dc.lft.to/lastmile_qr_scan", "ios": "https://dc.lft.to/lastmile_qr_scan"}, "fusion_lon": 0.0}, {"lat": 39.08861516666666, "is_disabled": 0, "type": "electric_bike", "lon": -77.1784325, "bike_id": "958020d2ea32fa27dfa5f9df051f13b6", "fusion_lat": 0.0, "name": "958020d2ea32fa27dfa5f9df051f13b6", "is_reserved": 0, "rental_uris": {"android": "https://dc.lft.to/lastmile_qr_scan", "ios": "https://dc.lft.to/lastmile_qr_scan"}, "fusion_lon": 0.0}, {"lat": 38.90635183333333, "is_disabled": 0, "type": "electric_scooter", "lon": -77.0467145, "bike_id": "8398d2ff5ea40f59f4d5de06034614a5", "fusion_lat": 0.0, "name": "8398d2ff5ea40f59f4d5de06034614a5", "is_reserved": 0, "rental_uris": {"android": "https://dc.lft.to/lastmile_qr_scan", "ios": "https://dc.lft.to/lastmile_qr_scan"}, "fusion_lon": 0.0}, {"lat": 38.93260933333333, "is_disabled": 0, "type": "electric_scooter", "lon": -77.03276583333333, "bike_id": "e74ca37107f5b08eb0ab3dcc8289798b", "fusion_lat": 0.0, "name": "e74ca37107f5b08eb0ab3dcc8289798b", "is_reserved": 0, "rental_uris": {"android": "https://dc.lft.to/lastmile_qr_scan", "ios": "https://dc.lft.to/lastmile_qr_scan"}, "fusion_lon": 0.0}, {"lat": 38.94073733333333, "is_disabled": 0, "type": "electric_scooter", "lon": -77.0614495, "bike_id": "0ba487ebf91630612b3658faaa72ad00", "fusion_lat": 0.0, "name": "0ba487ebf91630612b3658faaa72ad00", "is_reserved": 0, "rental_uris": {"android": "https://dc.lft.to/lastmile_qr_scan", "ios": "https://dc.lft.to/lastmile_qr_scan"}, "fusion_lon": 0.0}, {"lat": 38.93657833333333, "is_disabled": 0, "type": "electric_scooter", "lon": -77.0365545, "bike_id": "ac4ad72ee7ffeabc6d92fe09ad07d3a6", "fusion_lat": 0.0, "name": "ac4ad72ee7ffeabc6d92fe09ad07d3a6", "is_reserved": 0, "rental_uris": {"android": "https://dc.lft.to/lastmile_qr_scan", "ios": "https://dc.lft.to/lastmile_qr_scan"}, "fusion_lon": 0.0}, {"lat": 38.932892, "is_disabled": 0, "type": "electric_scooter", "lon": -77.0282625, "bike_id": "a4fc57f68e64510c5ea33d8b07443437", "fusion_lat": 0.0, "name": "a4fc57f68e64510c5ea33d8b07443437", "is_reserved": 0, "rental_uris": {"android": "https://dc.lft.to/lastmile_qr_scan", "ios": "https://dc.lft.to/lastmile_qr_scan"}, "fusion_lon": 0.0}, {"lat": 38.905552666666665, "is_disabled": 0, "type": "electric_scooter", "lon": -77.043265, "bike_id": "7478bdbc45216c4f25ebc4a8121e7b1b", "fusion_lat": 0.0, "name": "7478bdbc45216c4f25ebc4a8121e7b1b", "is_reserved": 0, "rental_uris": {"android": "https://dc.lft.to/lastmile_qr_scan", "ios": "https://dc.lft.to/lastmile_qr_scan"}, "fusion_lon": 0.0}, {"lat": 38.90526233333333, "is_disabled": 0, "type": "electric_scooter", "lon": -77.005715, "bike_id": "9f5dacd23d34bc42f23eacb99be63962", "fusion_lat": 0.0, "name": "9f5dacd23d34bc42f23eacb99be63962", "is_reserved": 0, "rental_uris": {"android": "https://dc.lft.to/lastmile_qr_scan", "ios": "https://dc.lft.to/lastmile_qr_scan"}, "fusion_lon": 0.0}, {"lat": 38.931092166666666, "is_disabled": 0, "type": "electric_scooter", "lon": -77.03515983333334, "bike_id": "6ee22d7b3a1e23a1aeeeb942529eeaac", "fusion_lat": 0.0, "name": "6ee22d7b3a1e23a1aeeeb942529eeaac", "is_reserved": 0, "rental_uris": {"android": "https://dc.lft.to/lastmile_qr_scan", "ios": "https://dc.lft.to/lastmile_qr_scan"}, "fusion_lon": 0.0}, {"lat": 38.91477866666666, "is_disabled": 0, "type": "electric_scooter", "lon": -76.983597, "bike_id": "0b9caf25022030d88e2b91745f4e0d61", "fusion_lat": 0.0, "name": "0b9caf25022030d88e2b91745f4e0d61", "is_reserved": 0, "rental_uris": {"android": "https://dc.lft.to/lastmile_qr_scan", "ios": "https://dc.lft.to/lastmile_qr_scan"}, "fusion_lon": 0.0}, {"lat": 38.93209433333333, "is_disabled": 0, "type": "electric_scooter", "lon": -77.04426466666666, "bike_id": "4877ab8eeea305fb0627f46dd9562a24", "fusion_lat": 0.0, "name": "4877ab8eeea305fb0627f46dd9562a24", "is_reserved": 0, "rental_uris": {"android": "https://dc.lft.to/lastmile_qr_scan", "ios": "https://dc.lft.to/lastmile_qr_scan"}, "fusion_lon": 0.0}, {"lat": 38.87627666666667, "is_disabled": 0, "type": "electric_scooter", "lon": -76.965263, "bike_id": "d7b6bf7b9b53769d8ba34d6c58beb44a", "fusion_lat": 0.0, "name": "d7b6bf7b9b53769d8ba34d6c58beb44a", "is_reserved": 0, "rental_uris": {"android": "https://dc.lft.to/lastmile_qr_scan", "ios": "https://dc.lft.to/lastmile_qr_scan"}, "fusion_lon": 0.0}, {"lat": 38.90206716666667, "is_disabled": 0, "type": "electric_scooter", "lon": -77.05309183333334, "bike_id": "d9b579e80245eb990855111df72e4c0a", "fusion_lat": 0.0, "name": "d9b579e80245eb990855111df72e4c0a", "is_reserved": 0, "rental_uris": {"android": "https://dc.lft.to/lastmile_qr_scan", "ios": "https://dc.lft.to/lastmile_qr_scan"}, "fusion_lon": 0.0}, {"lat": 38.89331466666667, "is_disabled": 0, "type": "electric_scooter", "lon": -76.9299375, "bike_id": "25cef31a385c6106f6e0a1bfa2b455fb", "fusion_lat": 0.0, "name": "25cef31a385c6106f6e0a1bfa2b455fb", "is_reserved": 0, "rental_uris": {"android": "https://dc.lft.to/lastmile_qr_scan", "ios": "https://dc.lft.to/lastmile_qr_scan"}, "fusion_lon": 0.0}, {"lat": 38.8962445, "is_disabled": 0, "type": "electric_scooter", "lon": -76.99853, "bike_id": "3a0d0bc7a693921ef4561957e84e6567", "fusion_lat": 0.0, "name": "3a0d0bc7a693921ef4561957e84e6567", "is_reserved": 0, "rental_uris": {"android": "https://dc.lft.to/lastmile_qr_scan", "ios": "https://dc.lft.to/lastmile_qr_scan"}, "fusion_lon": 0.0}, {"lat": 38.90934983333333, "is_disabled": 0, "type": "electric_scooter", "lon": -77.03841816666667, "bike_id": "60def028221a106239d3c7401515ad17", "fusion_lat": 0.0, "name": "60def028221a106239d3c7401515ad17", "is_reserved": 0, "rental_uris": {"android": "https://dc.lft.to/lastmile_qr_scan", "ios": "https://dc.lft.to/lastmile_qr_scan"}, "fusion_lon": 0.0}, {"lat": 38.8625445, "is_disabled": 0, "type": "electric_scooter", "lon": -76.99511716666666, "bike_id": "73640d4fb65ac455137c279754b0f35c", "fusion_lat": 0.0, "name": "73640d4fb65ac455137c279754b0f35c", "is_reserved": 0, "rental_uris": {"android": "https://dc.lft.to/lastmile_qr_scan", "ios": "https://dc.lft.to/lastmile_qr_scan"}, "fusion_lon": 0.0}, {"lat": 38.920347166666666, "is_disabled": 0, "type": "electric_scooter", "lon": -77.02411033333334, "bike_id": "7c112c7b903c032f72830fa624daf660", "fusion_lat": 0.0, "name": "7c112c7b903c032f72830fa624daf660", "is_reserved": 0, "rental_uris": {"android": "https://dc.lft.to/lastmile_qr_scan", "ios": "https://dc.lft.to/lastmile_qr_scan"}, "fusion_lon": 0.0}, {"lat": 38.908573833333335, "is_disabled": 0, "type": "electric_scooter", "lon": -77.04768466666667, "bike_id": "771b1658d57cce57128520b354f178d4", "fusion_lat": 0.0, "name": "771b1658d57cce57128520b354f178d4", "is_reserved": 0, "rental_uris": {"android": "https://dc.lft.to/lastmile_qr_scan", "ios": "https://dc.lft.to/lastmile_qr_scan"}, "fusion_lon": 0.0}, {"lat": 38.8616215, "is_disabled": 0, "type": "electric_bike", "lon": -77.13096833333333, "bike_id": "89696ca89c4286da6a6ecbb8f68d4242", "fusion_lat": 0.0, "name": "89696ca89c4286da6a6ecbb8f68d4242", "is_reserved": 0, "rental_uris": {"android": "https://dc.lft.to/lastmile_qr_scan", "ios": "https://dc.lft.to/lastmile_qr_scan"}, "fusion_lon": 0.0}, {"lat": 38.940938333333335, "is_disabled": 0, "type": "electric_scooter", "lon": -77.0230055, "bike_id": "82152c5399d471f0b100fe7127a9325d", "fusion_lat": 0.0, "name": "82152c5399d471f0b100fe7127a9325d", "is_reserved": 0, "rental_uris": {"android": "https://dc.lft.to/lastmile_qr_scan", "ios": "https://dc.lft.to/lastmile_qr_scan"}, "fusion_lon": 0.0}, {"lat": 38.90260633333333, "is_disabled": 0, "type": "electric_scooter", "lon": -77.04594816666666, "bike_id": "29ce4e125a9617db3ffb4e7a25332c7a", "fusion_lat": 0.0, "name": "29ce4e125a9617db3ffb4e7a25332c7a", "is_reserved": 0, "rental_uris": {"android": "https://dc.lft.to/lastmile_qr_scan", "ios": "https://dc.lft.to/lastmile_qr_scan"}, "fusion_lon": 0.0}, {"lat": 38.87982083333333, "is_disabled": 0, "type": "electric_bike", "lon": -76.91603733333334, "bike_id": "7c324faf4311e0034d6e290f83318fef", "fusion_lat": 0.0, "name": "7c324faf4311e0034d6e290f83318fef", "is_reserved": 0, "rental_uris": {"android": "https://dc.lft.to/lastmile_qr_scan", "ios": "https://dc.lft.to/lastmile_qr_scan"}, "fusion_lon": 0.0}, {"lat": 38.889261, "is_disabled": 0, "type": "electric_scooter", "lon": -76.9737415, "bike_id": "1e2e04696920af23d6ad1bbfe38bb64a", "fusion_lat": 0.0, "name": "1e2e04696920af23d6ad1bbfe38bb64a", "is_reserved": 0, "rental_uris": {"android": "https://dc.lft.to/lastmile_qr_scan", "ios": "https://dc.lft.to/lastmile_qr_scan"}, "fusion_lon": 0.0}, {"lat": 38.935131166666665, "is_disabled": 0, "type": "electric_scooter", "lon": -77.03675716666666, "bike_id": "de7e540c9cf96b5334679b271e490c4f", "fusion_lat": 0.0, "name": "de7e540c9cf96b5334679b271e490c4f", "is_reserved": 0, "rental_uris": {"android": "https://dc.lft.to/lastmile_qr_scan", "ios": "https://dc.lft.to/lastmile_qr_scan"}, "fusion_lon": 0.0}, {"lat": 38.879414, "is_disabled": 0, "type": "electric_scooter", "lon": -77.00729866666667, "bike_id": "5e281497c642a576da2b8cdb46884518", "fusion_lat": 0.0, "name": "5e281497c642a576da2b8cdb46884518", "is_reserved": 0, "rental_uris": {"android": "https://dc.lft.to/lastmile_qr_scan", "ios": "https://dc.lft.to/lastmile_qr_scan"}, "fusion_lon": 0.0}, {"lat": 38.917100166666664, "is_disabled": 0, "type": "electric_scooter", "lon": -77.03225633333334, "bike_id": "8e2977ba945699b933800b1084ddac03", "fusion_lat": 0.0, "name": "8e2977ba945699b933800b1084ddac03", "is_reserved": 0, "rental_uris": {"android": "https://dc.lft.to/lastmile_qr_scan", "ios": "https://dc.lft.to/lastmile_qr_scan"}, "fusion_lon": 0.0}, {"lat": 38.9134065, "is_disabled": 0, "type": "electric_scooter", "lon": -77.00223533333333, "bike_id": "baf3d0dc29e2e20aaa9b55cbcc67febc", "fusion_lat": 0.0, "name": "baf3d0dc29e2e20aaa9b55cbcc67febc", "is_reserved": 0, "rental_uris": {"android": "https://dc.lft.to/lastmile_qr_scan", "ios": "https://dc.lft.to/lastmile_qr_scan"}, "fusion_lon": 0.0}, {"lat": 38.92339116666667, "is_disabled": 0, "type": "electric_scooter", "lon": -77.01905266666667, "bike_id": "9fe4c5d808dc7a104ad6336296fd1039", "fusion_lat": 0.0, "name": "9fe4c5d808dc7a104ad6336296fd1039", "is_reserved": 0, "rental_uris": {"android": "https://dc.lft.to/lastmile_qr_scan", "ios": "https://dc.lft.to/lastmile_qr_scan"}, "fusion_lon": 0.0}, {"lat": 38.9224755, "is_disabled": 0, "type": "electric_scooter", "lon": -77.04250016666667, "bike_id": "aa268a8e42a5cdeb5667688e4547dbd3", "fusion_lat": 0.0, "name": "aa268a8e42a5cdeb5667688e4547dbd3", "is_reserved": 0, "rental_uris": {"android": "https://dc.lft.to/lastmile_qr_scan", "ios": "https://dc.lft.to/lastmile_qr_scan"}, "fusion_lon": 0.0}, {"lat": 38.91740716666666, "is_disabled": 0, "type": "electric_scooter", "lon": -77.06895633333333, "bike_id": "baf228cc95d51161cf010c4f2f30eaca", "fusion_lat": 0.0, "name": "baf228cc95d51161cf010c4f2f30eaca", "is_reserved": 0, "rental_uris": {"android": "https://dc.lft.to/lastmile_qr_scan", "ios": "https://dc.lft.to/lastmile_qr_scan"}, "fusion_lon": 0.0}, {"lat": 38.912337666666666, "is_disabled": 0, "type": "electric_scooter", "lon": -77.04504416666667, "bike_id": "3e0f44e693aa0dfe7afd22a89c69e054", "fusion_lat": 0.0, "name": "3e0f44e693aa0dfe7afd22a89c69e054", "is_reserved": 0, "rental_uris": {"android": "https://dc.lft.to/lastmile_qr_scan", "ios": "https://dc.lft.to/lastmile_qr_scan"}, "fusion_lon": 0.0}, {"lat": 38.918079, "is_disabled": 0, "type": "electric_scooter", "lon": -77.03436066666667, "bike_id": "26526db47ffa879a5386c01a3cae5985", "fusion_lat": 0.0, "name": "26526db47ffa879a5386c01a3cae5985", "is_reserved": 0, "rental_uris": {"android": "https://dc.lft.to/lastmile_qr_scan", "ios": "https://dc.lft.to/lastmile_qr_scan"}, "fusion_lon": 0.0}, {"lat": 38.857911666666666, "is_disabled": 0, "type": "electric_scooter", "lon": -76.98694183333333, "bike_id": "e6a89c05b923821b08541bcb16b0a1fc", "fusion_lat": 0.0, "name": "e6a89c05b923821b08541bcb16b0a1fc", "is_reserved": 0, "rental_uris": {"android": "https://dc.lft.to/lastmile_qr_scan", "ios": "https://dc.lft.to/lastmile_qr_scan"}, "fusion_lon": 0.0}, {"lat": 38.8833935, "is_disabled": 0, "type": "electric_scooter", "lon": -77.03147383333334, "bike_id": "6fb931fc337e9ff8126279e279789767", "fusion_lat": 0.0, "name": "6fb931fc337e9ff8126279e279789767", "is_reserved": 0, "rental_uris": {"android": "https://dc.lft.to/lastmile_qr_scan", "ios": "https://dc.lft.to/lastmile_qr_scan"}, "fusion_lon": 0.0}, {"lat": 38.92388833333333, "is_disabled": 0, "type": "electric_scooter", "lon": -77.00064266666666, "bike_id": "dd31c46f5f50e1a86a5eb9ffd62411b0", "fusion_lat": 0.0, "name": "dd31c46f5f50e1a86a5eb9ffd62411b0", "is_reserved": 0, "rental_uris": {"android": "https://dc.lft.to/lastmile_qr_scan", "ios": "https://dc.lft.to/lastmile_qr_scan"}, "fusion_lon": 0.0}, {"lat": 38.86107116666667, "is_disabled": 0, "type": "electric_scooter", "lon": -76.96761283333333, "bike_id": "eb8d35c628fa22067557d1890902565f", "fusion_lat": 0.0, "name": "eb8d35c628fa22067557d1890902565f", "is_reserved": 0, "rental_uris": {"android": "https://dc.lft.to/lastmile_qr_scan", "ios": "https://dc.lft.to/lastmile_qr_scan"}, "fusion_lon": 0.0}, {"lat": 38.898938333333334, "is_disabled": 0, "type": "electric_scooter", "lon": -77.02165866666667, "bike_id": "27ad304e89b24e9112cea60d95c6a9d0", "fusion_lat": 0.0, "name": "27ad304e89b24e9112cea60d95c6a9d0", "is_reserved": 0, "rental_uris": {"android": "https://dc.lft.to/lastmile_qr_scan", "ios": "https://dc.lft.to/lastmile_qr_scan"}, "fusion_lon": 0.0}, {"lat": 38.924168, "is_disabled": 0, "type": "electric_scooter", "lon": -77.03548916666666, "bike_id": "ef0ae0ea4754a5aa558829ec275d76ae", "fusion_lat": 0.0, "name": "ef0ae0ea4754a5aa558829ec275d76ae", "is_reserved": 0, "rental_uris": {"android": "https://dc.lft.to/lastmile_qr_scan", "ios": "https://dc.lft.to/lastmile_qr_scan"}, "fusion_lon": 0.0}, {"lat": 38.91565216666667, "is_disabled": 0, "type": "electric_scooter", "lon": -77.03851933333333, "bike_id": "4b3e9cb02d0dcd94c6362be01a1d3de1", "fusion_lat": 0.0, "name": "4b3e9cb02d0dcd94c6362be01a1d3de1", "is_reserved": 0, "rental_uris": {"android": "https://dc.lft.to/lastmile_qr_scan", "ios": "https://dc.lft.to/lastmile_qr_scan"}, "fusion_lon": 0.0}, {"lat": 38.966076666666666, "is_disabled": 0, "type": "electric_scooter", "lon": -77.02054316666667, "bike_id": "85daba1d9557ac5b588a1aed3250f0d2", "fusion_lat": 0.0, "name": "85daba1d9557ac5b588a1aed3250f0d2", "is_reserved": 0, "rental_uris": {"android": "https://dc.lft.to/lastmile_qr_scan", "ios": "https://dc.lft.to/lastmile_qr_scan"}, "fusion_lon": 0.0}, {"lat": 38.92094983333333, "is_disabled": 0, "type": "electric_scooter", "lon": -77.022151, "bike_id": "107c85465e3a52ef77b593c78926c33b", "fusion_lat": 0.0, "name": "107c85465e3a52ef77b593c78926c33b", "is_reserved": 0, "rental_uris": {"android": "https://dc.lft.to/lastmile_qr_scan", "ios": "https://dc.lft.to/lastmile_qr_scan"}, "fusion_lon": 0.0}, {"lat": 38.8580605, "is_disabled": 0, "type": "electric_scooter", "lon": -76.98651866666667, "bike_id": "efde51d09e7f6e434aa62d25b510f6ff", "fusion_lat": 0.0, "name": "efde51d09e7f6e434aa62d25b510f6ff", "is_reserved": 0, "rental_uris": {"android": "https://dc.lft.to/lastmile_qr_scan", "ios": "https://dc.lft.to/lastmile_qr_scan"}, "fusion_lon": 0.0}, {"lat": 38.910341833333334, "is_disabled": 0, "type": "electric_scooter", "lon": -77.0487645, "bike_id": "0df6b72a95e4400d1ad770641d9dcc33", "fusion_lat": 0.0, "name": "0df6b72a95e4400d1ad770641d9dcc33", "is_reserved": 0, "rental_uris": {"android": "https://dc.lft.to/lastmile_qr_scan", "ios": "https://dc.lft.to/lastmile_qr_scan"}, "fusion_lon": 0.0}, {"lat": 38.912568, "is_disabled": 0, "type": "electric_scooter", "lon": -76.98354616666667, "bike_id": "586088c90345b6f65dd04fe218d711ad", "fusion_lat": 0.0, "name": "586088c90345b6f65dd04fe218d711ad", "is_reserved": 0, "rental_uris": {"android": "https://dc.lft.to/lastmile_qr_scan", "ios": "https://dc.lft.to/lastmile_qr_scan"}, "fusion_lon": 0.0}, {"lat": 38.8928485, "is_disabled": 0, "type": "electric_scooter", "lon": -76.95854333333334, "bike_id": "7ebff5759df3b608d3a90b08cb52bff1", "fusion_lat": 0.0, "name": "7ebff5759df3b608d3a90b08cb52bff1", "is_reserved": 0, "rental_uris": {"android": "https://dc.lft.to/lastmile_qr_scan", "ios": "https://dc.lft.to/lastmile_qr_scan"}, "fusion_lon": 0.0}, {"lat": 38.899967333333336, "is_disabled": 0, "type": "electric_scooter", "lon": -76.99959666666666, "bike_id": "d3988605ec440df28de1b5c63fafa642", "fusion_lat": 0.0, "name": "d3988605ec440df28de1b5c63fafa642", "is_reserved": 0, "rental_uris": {"android": "https://dc.lft.to/lastmile_qr_scan", "ios": "https://dc.lft.to/lastmile_qr_scan"}, "fusion_lon": 0.0}, {"lat": 38.87939516666667, "is_disabled": 0, "type": "electric_scooter", "lon": -77.004093, "bike_id": "68d9f72f137fd59765efa92c840ab5d5", "fusion_lat": 0.0, "name": "68d9f72f137fd59765efa92c840ab5d5", "is_reserved": 0, "rental_uris": {"android": "https://dc.lft.to/lastmile_qr_scan", "ios": "https://dc.lft.to/lastmile_qr_scan"}, "fusion_lon": 0.0}, {"lat": 38.8926955, "is_disabled": 0, "type": "electric_scooter", "lon": -77.020251, "bike_id": "f56dd29d4699712f35f8b6f2db040920", "fusion_lat": 0.0, "name": "f56dd29d4699712f35f8b6f2db040920", "is_reserved": 0, "rental_uris": {"android": "https://dc.lft.to/lastmile_qr_scan", "ios": "https://dc.lft.to/lastmile_qr_scan"}, "fusion_lon": 0.0}, {"lat": 38.924513833333336, "is_disabled": 0, "type": "electric_scooter", "lon": -77.08038416666666, "bike_id": "853f60ce85e255e9599275a0522dacbf", "fusion_lat": 0.0, "name": "853f60ce85e255e9599275a0522dacbf", "is_reserved": 0, "rental_uris": {"android": "https://dc.lft.to/lastmile_qr_scan", "ios": "https://dc.lft.to/lastmile_qr_scan"}, "fusion_lon": 0.0}, {"lat": 38.92955933333333, "is_disabled": 0, "type": "electric_scooter", "lon": -76.99090216666667, "bike_id": "6234bd298d7ad21f4b38b8b3ef3a1ec7", "fusion_lat": 0.0, "name": "6234bd298d7ad21f4b38b8b3ef3a1ec7", "is_reserved": 0, "rental_uris": {"android": "https://dc.lft.to/lastmile_qr_scan", "ios": "https://dc.lft.to/lastmile_qr_scan"}, "fusion_lon": 0.0}, {"lat": 38.91524183333333, "is_disabled": 0, "type": "electric_scooter", "lon": -77.03844716666667, "bike_id": "499c6739ae5eaff06b659b845f3d73ec", "fusion_lat": 0.0, "name": "499c6739ae5eaff06b659b845f3d73ec", "is_reserved": 0, "rental_uris": {"android": "https://dc.lft.to/lastmile_qr_scan", "ios": "https://dc.lft.to/lastmile_qr_scan"}, "fusion_lon": 0.0}, {"lat": 38.90539883333334, "is_disabled": 0, "type": "electric_scooter", "lon": -77.04882066666667, "bike_id": "9fcb9c99ef63be58b33b1b8798a6dbc6", "fusion_lat": 0.0, "name": "9fcb9c99ef63be58b33b1b8798a6dbc6", "is_reserved": 0, "rental_uris": {"android": "https://dc.lft.to/lastmile_qr_scan", "ios": "https://dc.lft.to/lastmile_qr_scan"}, "fusion_lon": 0.0}, {"lat": 38.900127499999996, "is_disabled": 0, "type": "electric_scooter", "lon": -77.01200733333333, "bike_id": "70153c7a16172cdf4e94afe6c06e36ea", "fusion_lat": 0.0, "name": "70153c7a16172cdf4e94afe6c06e36ea", "is_reserved": 0, "rental_uris": {"android": "https://dc.lft.to/lastmile_qr_scan", "ios": "https://dc.lft.to/lastmile_qr_scan"}, "fusion_lon": 0.0}, {"lat": 38.90084983333333, "is_disabled": 0, "type": "electric_scooter", "lon": -77.0505775, "bike_id": "b6a98036874ed1a30bc47cc62ac08bee", "fusion_lat": 0.0, "name": "b6a98036874ed1a30bc47cc62ac08bee", "is_reserved": 0, "rental_uris": {"android": "https://dc.lft.to/lastmile_qr_scan", "ios": "https://dc.lft.to/lastmile_qr_scan"}, "fusion_lon": 0.0}, {"lat": 38.88486183333333, "is_disabled": 0, "type": "electric_scooter", "lon": -77.02410233333333, "bike_id": "eebef0642620e7427b7ae08c59a771c5", "fusion_lat": 0.0, "name": "eebef0642620e7427b7ae08c59a771c5", "is_reserved": 0, "rental_uris": {"android": "https://dc.lft.to/lastmile_qr_scan", "ios": "https://dc.lft.to/lastmile_qr_scan"}, "fusion_lon": 0.0}, {"lat": 38.86509366666667, "is_disabled": 0, "type": "electric_scooter", "lon": -76.99005083333333, "bike_id": "8720dac1a37444b6ad778e2b31ef872f", "fusion_lat": 0.0, "name": "8720dac1a37444b6ad778e2b31ef872f", "is_reserved": 0, "rental_uris": {"android": "https://dc.lft.to/lastmile_qr_scan", "ios": "https://dc.lft.to/lastmile_qr_scan"}, "fusion_lon": 0.0}, {"lat": 38.88127716666666, "is_disabled": 0, "type": "electric_scooter", "lon": -77.01661, "bike_id": "4bd34c1f39e650dad34f6dba6efa0ba7", "fusion_lat": 0.0, "name": "4bd34c1f39e650dad34f6dba6efa0ba7", "is_reserved": 0, "rental_uris": {"android": "https://dc.lft.to/lastmile_qr_scan", "ios": "https://dc.lft.to/lastmile_qr_scan"}, "fusion_lon": 0.0}, {"lat": 38.86712566666667, "is_disabled": 0, "type": "electric_scooter", "lon": -76.98727616666666, "bike_id": "4fc4ee184e997a789963f71f4e2b197a", "fusion_lat": 0.0, "name": "4fc4ee184e997a789963f71f4e2b197a", "is_reserved": 0, "rental_uris": {"android": "https://dc.lft.to/lastmile_qr_scan", "ios": "https://dc.lft.to/lastmile_qr_scan"}, "fusion_lon": 0.0}, {"lat": 38.925097, "is_disabled": 0, "type": "electric_scooter", "lon": -76.98232783333333, "bike_id": "1ecb07980a969e9b6f2a8051fedc4e14", "fusion_lat": 0.0, "name": "1ecb07980a969e9b6f2a8051fedc4e14", "is_reserved": 0, "rental_uris": {"android": "https://dc.lft.to/lastmile_qr_scan", "ios": "https://dc.lft.to/lastmile_qr_scan"}, "fusion_lon": 0.0}, {"lat": 38.94920166666667, "is_disabled": 0, "type": "electric_bike", "lon": -77.00802116666667, "bike_id": "4281b1e53686bb4675279066bb55bd26", "fusion_lat": 0.0, "name": "4281b1e53686bb4675279066bb55bd26", "is_reserved": 0, "rental_uris": {"android": "https://dc.lft.to/lastmile_qr_scan", "ios": "https://dc.lft.to/lastmile_qr_scan"}, "fusion_lon": 0.0}, {"lat": 38.89876533333333, "is_disabled": 0, "type": "electric_scooter", "lon": -77.0203565, "bike_id": "d22f6570ad4f4fda503e98f8feba8d94", "fusion_lat": 0.0, "name": "d22f6570ad4f4fda503e98f8feba8d94", "is_reserved": 0, "rental_uris": {"android": "https://dc.lft.to/lastmile_qr_scan", "ios": "https://dc.lft.to/lastmile_qr_scan"}, "fusion_lon": 0.0}, {"lat": 38.92065616666667, "is_disabled": 0, "type": "electric_scooter", "lon": -77.04804933333334, "bike_id": "da56b9203b590af5a0a9124d845d8f23", "fusion_lat": 0.0, "name": "da56b9203b590af5a0a9124d845d8f23", "is_reserved": 0, "rental_uris": {"android": "https://dc.lft.to/lastmile_qr_scan", "ios": "https://dc.lft.to/lastmile_qr_scan"}, "fusion_lon": 0.0}, {"lat": 38.877302, "is_disabled": 0, "type": "electric_bike", "lon": -76.98107666666667, "bike_id": "291c1362f288edeaae5415e8ebda8a9f", "fusion_lat": 0.0, "name": "291c1362f288edeaae5415e8ebda8a9f", "is_reserved": 0, "rental_uris": {"android": "https://dc.lft.to/lastmile_qr_scan", "ios": "https://dc.lft.to/lastmile_qr_scan"}, "fusion_lon": 0.0}, {"lat": 38.86673866666667, "is_disabled": 0, "type": "electric_scooter", "lon": -76.98539783333334, "bike_id": "514a09dea32b72a623ab11d7987914a1", "fusion_lat": 0.0, "name": "514a09dea32b72a623ab11d7987914a1", "is_reserved": 0, "rental_uris": {"android": "https://dc.lft.to/lastmile_qr_scan", "ios": "https://dc.lft.to/lastmile_qr_scan"}, "fusion_lon": 0.0}, {"lat": 38.900098166666666, "is_disabled": 0, "type": "electric_scooter", "lon": -77.011965, "bike_id": "b59a2e7e0a2ada95cf536185956ca0de", "fusion_lat": 0.0, "name": "b59a2e7e0a2ada95cf536185956ca0de", "is_reserved": 0, "rental_uris": {"android": "https://dc.lft.to/lastmile_qr_scan", "ios": "https://dc.lft.to/lastmile_qr_scan"}, "fusion_lon": 0.0}, {"lat": 38.917631166666666, "is_disabled": 0, "type": "electric_scooter", "lon": -77.02822833333333, "bike_id": "2491a140d669af3b0cb8fc77b70ba6ef", "fusion_lat": 0.0, "name": "2491a140d669af3b0cb8fc77b70ba6ef", "is_reserved": 0, "rental_uris": {"android": "https://dc.lft.to/lastmile_qr_scan", "ios": "https://dc.lft.to/lastmile_qr_scan"}, "fusion_lon": 0.0}, {"lat": 38.897419666666664, "is_disabled": 0, "type": "electric_scooter", "lon": -77.00074733333334, "bike_id": "1831d19a6859e65454496ce4018bdaec", "fusion_lat": 0.0, "name": "1831d19a6859e65454496ce4018bdaec", "is_reserved": 0, "rental_uris": {"android": "https://dc.lft.to/lastmile_qr_scan", "ios": "https://dc.lft.to/lastmile_qr_scan"}, "fusion_lon": 0.0}, {"lat": 38.832299, "is_disabled": 0, "type": "electric_bike", "lon": -77.0497255, "bike_id": "7139af0456e61574c2b51fc8f0918a21", "fusion_lat": 0.0, "name": "7139af0456e61574c2b51fc8f0918a21", "is_reserved": 0, "rental_uris": {"android": "https://dc.lft.to/lastmile_qr_scan", "ios": "https://dc.lft.to/lastmile_qr_scan"}, "fusion_lon": 0.0}, {"lat": 38.93314766666667, "is_disabled": 0, "type": "electric_scooter", "lon": -77.0451775, "bike_id": "829f726b6e40ccce1c5f77d45bc5239f", "fusion_lat": 0.0, "name": "829f726b6e40ccce1c5f77d45bc5239f", "is_reserved": 0, "rental_uris": {"android": "https://dc.lft.to/lastmile_qr_scan", "ios": "https://dc.lft.to/lastmile_qr_scan"}, "fusion_lon": 0.0}, {"lat": 38.909675666666665, "is_disabled": 0, "type": "electric_scooter", "lon": -77.0394615, "bike_id": "7376d91db0edb7e466eeca94f0a7664c", "fusion_lat": 0.0, "name": "7376d91db0edb7e466eeca94f0a7664c", "is_reserved": 0, "rental_uris": {"android": "https://dc.lft.to/lastmile_qr_scan", "ios": "https://dc.lft.to/lastmile_qr_scan"}, "fusion_lon": 0.0}, {"lat": 38.872858, "is_disabled": 0, "type": "electric_scooter", "lon": -77.00983133333334, "bike_id": "b9eb93db43896ca370cb0ce9b9f274e5", "fusion_lat": 0.0, "name": "b9eb93db43896ca370cb0ce9b9f274e5", "is_reserved": 0, "rental_uris": {"android": "https://dc.lft.to/lastmile_qr_scan", "ios": "https://dc.lft.to/lastmile_qr_scan"}, "fusion_lon": 0.0}, {"lat": 38.8785385, "is_disabled": 0, "type": "electric_scooter", "lon": -77.0071965, "bike_id": "118ca0905d2e93f93a13f863f1a06aea", "fusion_lat": 0.0, "name": "118ca0905d2e93f93a13f863f1a06aea", "is_reserved": 0, "rental_uris": {"android": "https://dc.lft.to/lastmile_qr_scan", "ios": "https://dc.lft.to/lastmile_qr_scan"}, "fusion_lon": 0.0}, {"lat": 38.91664516666667, "is_disabled": 0, "type": "electric_scooter", "lon": -77.024054, "bike_id": "60ddb1d835b3f49af8c3c4e897752c26", "fusion_lat": 0.0, "name": "60ddb1d835b3f49af8c3c4e897752c26", "is_reserved": 0, "rental_uris": {"android": "https://dc.lft.to/lastmile_qr_scan", "ios": "https://dc.lft.to/lastmile_qr_scan"}, "fusion_lon": 0.0}, {"lat": 38.834180833333335, "is_disabled": 0, "type": "electric_bike", "lon": -77.10380283333333, "bike_id": "158b8bfe34716d16a32ff0fafe0594af", "fusion_lat": 0.0, "name": "158b8bfe34716d16a32ff0fafe0594af", "is_reserved": 0, "rental_uris": {"android": "https://dc.lft.to/lastmile_qr_scan", "ios": "https://dc.lft.to/lastmile_qr_scan"}, "fusion_lon": 0.0}, {"lat": 38.9004085, "is_disabled": 0, "type": "electric_scooter", "lon": -76.98374666666666, "bike_id": "e0ba9f2a9c8d5216ceb2edd6f65227f1", "fusion_lat": 0.0, "name": "e0ba9f2a9c8d5216ceb2edd6f65227f1", "is_reserved": 0, "rental_uris": {"android": "https://dc.lft.to/lastmile_qr_scan", "ios": "https://dc.lft.to/lastmile_qr_scan"}, "fusion_lon": 0.0}, {"lat": 38.859274, "is_disabled": 0, "type": "electric_scooter", "lon": -76.99719616666667, "bike_id": "d7265794fefc9587a85bf72a7546c50a", "fusion_lat": 0.0, "name": "d7265794fefc9587a85bf72a7546c50a", "is_reserved": 0, "rental_uris": {"android": "https://dc.lft.to/lastmile_qr_scan", "ios": "https://dc.lft.to/lastmile_qr_scan"}, "fusion_lon": 0.0}, {"lat": 38.865231333333334, "is_disabled": 0, "type": "electric_scooter", "lon": -76.99024233333333, "bike_id": "3cdcae9847206eafa5104affc3e98990", "fusion_lat": 0.0, "name": "3cdcae9847206eafa5104affc3e98990", "is_reserved": 0, "rental_uris": {"android": "https://dc.lft.to/lastmile_qr_scan", "ios": "https://dc.lft.to/lastmile_qr_scan"}, "fusion_lon": 0.0}, {"lat": 38.84463866666667, "is_disabled": 0, "type": "electric_bike", "lon": -76.9875345, "bike_id": "b2b3e6dcc1bdfa23aa70dc9def146763", "fusion_lat": 0.0, "name": "b2b3e6dcc1bdfa23aa70dc9def146763", "is_reserved": 0, "rental_uris": {"android": "https://dc.lft.to/lastmile_qr_scan", "ios": "https://dc.lft.to/lastmile_qr_scan"}, "fusion_lon": 0.0}, {"lat": 38.90506216666667, "is_disabled": 0, "type": "electric_scooter", "lon": -77.02944033333333, "bike_id": "f32b16066b9c474376ea7093f0379782", "fusion_lat": 0.0, "name": "f32b16066b9c474376ea7093f0379782", "is_reserved": 0, "rental_uris": {"android": "https://dc.lft.to/lastmile_qr_scan", "ios": "https://dc.lft.to/lastmile_qr_scan"}, "fusion_lon": 0.0}, {"lat": 38.92398, "is_disabled": 0, "type": "electric_scooter", "lon": -77.02736116666667, "bike_id": "1b866570855b96fff423f5ee2f728c00", "fusion_lat": 0.0, "name": "1b866570855b96fff423f5ee2f728c00", "is_reserved": 0, "rental_uris": {"android": "https://dc.lft.to/lastmile_qr_scan", "ios": "https://dc.lft.to/lastmile_qr_scan"}, "fusion_lon": 0.0}, {"lat": 38.87628483333334, "is_disabled": 0, "type": "electric_scooter", "lon": -76.96529866666667, "bike_id": "03e107d5c8d921a890ffd17cecbb37b7", "fusion_lat": 0.0, "name": "03e107d5c8d921a890ffd17cecbb37b7", "is_reserved": 0, "rental_uris": {"android": "https://dc.lft.to/lastmile_qr_scan", "ios": "https://dc.lft.to/lastmile_qr_scan"}, "fusion_lon": 0.0}, {"lat": 38.86997233333334, "is_disabled": 0, "type": "electric_bike", "lon": -77.065677, "bike_id": "d48e308c5960359678e56fe4092613cc", "fusion_lat": 0.0, "name": "d48e308c5960359678e56fe4092613cc", "is_reserved": 0, "rental_uris": {"android": "https://dc.lft.to/lastmile_qr_scan", "ios": "https://dc.lft.to/lastmile_qr_scan"}, "fusion_lon": 0.0}, {"lat": 38.90609, "is_disabled": 0, "type": "electric_scooter", "lon": -76.9898915, "bike_id": "3db12ff650668ab93d6ded861fa81147", "fusion_lat": 0.0, "name": "3db12ff650668ab93d6ded861fa81147", "is_reserved": 0, "rental_uris": {"android": "https://dc.lft.to/lastmile_qr_scan", "ios": "https://dc.lft.to/lastmile_qr_scan"}, "fusion_lon": 0.0}, {"lat": 38.9038625, "is_disabled": 0, "type": "electric_scooter", "lon": -77.04286716666667, "bike_id": "6f4194660f223fc4849333d25a7bcd2e", "fusion_lat": 0.0, "name": "6f4194660f223fc4849333d25a7bcd2e", "is_reserved": 0, "rental_uris": {"android": "https://dc.lft.to/lastmile_qr_scan", "ios": "https://dc.lft.to/lastmile_qr_scan"}, "fusion_lon": 0.0}, {"lat": 38.9344825, "is_disabled": 0, "type": "electric_scooter", "lon": -77.03090783333333, "bike_id": "ed38d02dd4e3873c73801e6d23b9ddec", "fusion_lat": 0.0, "name": "ed38d02dd4e3873c73801e6d23b9ddec", "is_reserved": 0, "rental_uris": {"android": "https://dc.lft.to/lastmile_qr_scan", "ios": "https://dc.lft.to/lastmile_qr_scan"}, "fusion_lon": 0.0}, {"lat": 38.896031, "is_disabled": 0, "type": "electric_bike", "lon": -77.12665516666667, "bike_id": "c1873589361eb1c86d4129b5ec1e4321", "fusion_lat": 0.0, "name": "c1873589361eb1c86d4129b5ec1e4321", "is_reserved": 0, "rental_uris": {"android": "https://dc.lft.to/lastmile_qr_scan", "ios": "https://dc.lft.to/lastmile_qr_scan"}, "fusion_lon": 0.0}, {"lat": 38.93206433333334, "is_disabled": 0, "type": "electric_scooter", "lon": -76.97767016666667, "bike_id": "b876902679cea450887c772cb5998fc5", "fusion_lat": 0.0, "name": "b876902679cea450887c772cb5998fc5", "is_reserved": 0, "rental_uris": {"android": "https://dc.lft.to/lastmile_qr_scan", "ios": "https://dc.lft.to/lastmile_qr_scan"}, "fusion_lon": 0.0}, {"lat": 38.865268, "is_disabled": 0, "type": "electric_scooter", "lon": -76.99027366666667, "bike_id": "2b5aea5717bcbf5e942c3b6ffed3c3e2", "fusion_lat": 0.0, "name": "2b5aea5717bcbf5e942c3b6ffed3c3e2", "is_reserved": 0, "rental_uris": {"android": "https://dc.lft.to/lastmile_qr_scan", "ios": "https://dc.lft.to/lastmile_qr_scan"}, "fusion_lon": 0.0}, {"lat": 38.92783683333333, "is_disabled": 0, "type": "electric_scooter", "lon": -77.027935, "bike_id": "64031bf3805ceb88ced450ce6c10d5e7", "fusion_lat": 0.0, "name": "64031bf3805ceb88ced450ce6c10d5e7", "is_reserved": 0, "rental_uris": {"android": "https://dc.lft.to/lastmile_qr_scan", "ios": "https://dc.lft.to/lastmile_qr_scan"}, "fusion_lon": 0.0}, {"lat": 38.914112333333335, "is_disabled": 0, "type": "electric_scooter", "lon": -77.03812316666667, "bike_id": "6ff80fb89431494db99a6d0e69c8b289", "fusion_lat": 0.0, "name": "6ff80fb89431494db99a6d0e69c8b289", "is_reserved": 0, "rental_uris": {"android": "https://dc.lft.to/lastmile_qr_scan", "ios": "https://dc.lft.to/lastmile_qr_scan"}, "fusion_lon": 0.0}, {"lat": 38.910176166666666, "is_disabled": 0, "type": "electric_scooter", "lon": -77.04451816666666, "bike_id": "14f045f6e657e733ca0c187fc1f6c92a", "fusion_lat": 0.0, "name": "14f045f6e657e733ca0c187fc1f6c92a", "is_reserved": 0, "rental_uris": {"android": "https://dc.lft.to/lastmile_qr_scan", "ios": "https://dc.lft.to/lastmile_qr_scan"}, "fusion_lon": 0.0}, {"lat": 38.93356766666667, "is_disabled": 0, "type": "electric_bike", "lon": -77.0995795, "bike_id": "3b8b0d14900d33070fa2009e0874b0fa", "fusion_lat": 0.0, "name": "3b8b0d14900d33070fa2009e0874b0fa", "is_reserved": 0, "rental_uris": {"android": "https://dc.lft.to/lastmile_qr_scan", "ios": "https://dc.lft.to/lastmile_qr_scan"}, "fusion_lon": 0.0}, {"lat": 38.913664833333335, "is_disabled": 0, "type": "electric_scooter", "lon": -77.06848383333333, "bike_id": "563b920b8a9209e796bf76e30fccdacf", "fusion_lat": 0.0, "name": "563b920b8a9209e796bf76e30fccdacf", "is_reserved": 0, "rental_uris": {"android": "https://dc.lft.to/lastmile_qr_scan", "ios": "https://dc.lft.to/lastmile_qr_scan"}, "fusion_lon": 0.0}, {"lat": 38.9076705, "is_disabled": 0, "type": "electric_scooter", "lon": -77.06066383333334, "bike_id": "8af0d75ac789c56a3a78ead7cdbb96ce", "fusion_lat": 0.0, "name": "8af0d75ac789c56a3a78ead7cdbb96ce", "is_reserved": 0, "rental_uris": {"android": "https://dc.lft.to/lastmile_qr_scan", "ios": "https://dc.lft.to/lastmile_qr_scan"}, "fusion_lon": 0.0}, {"lat": 38.90035783333333, "is_disabled": 0, "type": "electric_scooter", "lon": -77.03136766666667, "bike_id": "1c7eb5318772d876b14d9f4d46cca7d8", "fusion_lat": 0.0, "name": "1c7eb5318772d876b14d9f4d46cca7d8", "is_reserved": 0, "rental_uris": {"android": "https://dc.lft.to/lastmile_qr_scan", "ios": "https://dc.lft.to/lastmile_qr_scan"}, "fusion_lon": 0.0}, {"lat": 38.90661733333334, "is_disabled": 0, "type": "electric_scooter", "lon": -77.03861216666667, "bike_id": "daa00dd5e0c520d787be8909c5deb745", "fusion_lat": 0.0, "name": "daa00dd5e0c520d787be8909c5deb745", "is_reserved": 0, "rental_uris": {"android": "https://dc.lft.to/lastmile_qr_scan", "ios": "https://dc.lft.to/lastmile_qr_scan"}, "fusion_lon": 0.0}, {"lat": 38.923262, "is_disabled": 0, "type": "electric_scooter", "lon": -77.02704466666667, "bike_id": "d60640f0208825bf19a855d4254b96c6", "fusion_lat": 0.0, "name": "d60640f0208825bf19a855d4254b96c6", "is_reserved": 0, "rental_uris": {"android": "https://dc.lft.to/lastmile_qr_scan", "ios": "https://dc.lft.to/lastmile_qr_scan"}, "fusion_lon": 0.0}, {"lat": 38.9019755, "is_disabled": 0, "type": "electric_scooter", "lon": -77.02375016666667, "bike_id": "4fa1f40ef033db32cbcbf5284d5418d4", "fusion_lat": 0.0, "name": "4fa1f40ef033db32cbcbf5284d5418d4", "is_reserved": 0, "rental_uris": {"android": "https://dc.lft.to/lastmile_qr_scan", "ios": "https://dc.lft.to/lastmile_qr_scan"}, "fusion_lon": 0.0}, {"lat": 38.89968483333333, "is_disabled": 0, "type": "electric_scooter", "lon": -76.92660933333333, "bike_id": "4ef386ed4f95b7ba8a3e09d4ce4fb002", "fusion_lat": 0.0, "name": "4ef386ed4f95b7ba8a3e09d4ce4fb002", "is_reserved": 0, "rental_uris": {"android": "https://dc.lft.to/lastmile_qr_scan", "ios": "https://dc.lft.to/lastmile_qr_scan"}, "fusion_lon": 0.0}, {"lat": 38.923157833333335, "is_disabled": 0, "type": "electric_scooter", "lon": -77.03860283333333, "bike_id": "8e871ed501062cfe7dc92045f5f90b21", "fusion_lat": 0.0, "name": "8e871ed501062cfe7dc92045f5f90b21", "is_reserved": 0, "rental_uris": {"android": "https://dc.lft.to/lastmile_qr_scan", "ios": "https://dc.lft.to/lastmile_qr_scan"}, "fusion_lon": 0.0}, {"lat": 38.90499033333333, "is_disabled": 0, "type": "electric_scooter", "lon": -77.02953583333333, "bike_id": "7a95071c206bbc2fb1495d0f93f90402", "fusion_lat": 0.0, "name": "7a95071c206bbc2fb1495d0f93f90402", "is_reserved": 0, "rental_uris": {"android": "https://dc.lft.to/lastmile_qr_scan", "ios": "https://dc.lft.to/lastmile_qr_scan"}, "fusion_lon": 0.0}, {"lat": 38.907190666666665, "is_disabled": 0, "type": "electric_scooter", "lon": -77.04823483333334, "bike_id": "1dc3c111fef97b609d579d2ca7f4d6b1", "fusion_lat": 0.0, "name": "1dc3c111fef97b609d579d2ca7f4d6b1", "is_reserved": 0, "rental_uris": {"android": "https://dc.lft.to/lastmile_qr_scan", "ios": "https://dc.lft.to/lastmile_qr_scan"}, "fusion_lon": 0.0}, {"lat": 39.052017166666666, "is_disabled": 0, "type": "electric_bike", "lon": -77.109247, "bike_id": "9510092f45e8af0946b23f3c35b871fa", "fusion_lat": 0.0, "name": "9510092f45e8af0946b23f3c35b871fa", "is_reserved": 0, "rental_uris": {"android": "https://dc.lft.to/lastmile_qr_scan", "ios": "https://dc.lft.to/lastmile_qr_scan"}, "fusion_lon": 0.0}, {"lat": 38.90064116666667, "is_disabled": 0, "type": "electric_scooter", "lon": -77.001795, "bike_id": "301cdff03755bf75db7049222fa79849", "fusion_lat": 0.0, "name": "301cdff03755bf75db7049222fa79849", "is_reserved": 0, "rental_uris": {"android": "https://dc.lft.to/lastmile_qr_scan", "ios": "https://dc.lft.to/lastmile_qr_scan"}, "fusion_lon": 0.0}, {"lat": 38.892293, "is_disabled": 0, "type": "electric_scooter", "lon": -77.05001266666666, "bike_id": "6d0d25362e6a21597ef6430386ed0691", "fusion_lat": 0.0, "name": "6d0d25362e6a21597ef6430386ed0691", "is_reserved": 0, "rental_uris": {"android": "https://dc.lft.to/lastmile_qr_scan", "ios": "https://dc.lft.to/lastmile_qr_scan"}, "fusion_lon": 0.0}, {"lat": 38.91708833333333, "is_disabled": 0, "type": "electric_scooter", "lon": -77.03863966666667, "bike_id": "e7d0f7acc1059f432c98a1eef72b3be9", "fusion_lat": 0.0, "name": "e7d0f7acc1059f432c98a1eef72b3be9", "is_reserved": 0, "rental_uris": {"android": "https://dc.lft.to/lastmile_qr_scan", "ios": "https://dc.lft.to/lastmile_qr_scan"}, "fusion_lon": 0.0}, {"lat": 38.907874166666666, "is_disabled": 0, "type": "electric_scooter", "lon": -77.04342433333333, "bike_id": "ab86f3c8331ed413a790b858ba2c0521", "fusion_lat": 0.0, "name": "ab86f3c8331ed413a790b858ba2c0521", "is_reserved": 0, "rental_uris": {"android": "https://dc.lft.to/lastmile_qr_scan", "ios": "https://dc.lft.to/lastmile_qr_scan"}, "fusion_lon": 0.0}, {"lat": 38.9035765, "is_disabled": 0, "type": "electric_scooter", "lon": -77.05343133333334, "bike_id": "53eb1133698d1785d630dbcedca4cba2", "fusion_lat": 0.0, "name": "53eb1133698d1785d630dbcedca4cba2", "is_reserved": 0, "rental_uris": {"android": "https://dc.lft.to/lastmile_qr_scan", "ios": "https://dc.lft.to/lastmile_qr_scan"}, "fusion_lon": 0.0}, {"lat": 38.9036205, "is_disabled": 0, "type": "electric_scooter", "lon": -77.04271316666667, "bike_id": "be6759311a6981f718e6b4c2ad394fa8", "fusion_lat": 0.0, "name": "be6759311a6981f718e6b4c2ad394fa8", "is_reserved": 0, "rental_uris": {"android": "https://dc.lft.to/lastmile_qr_scan", "ios": "https://dc.lft.to/lastmile_qr_scan"}, "fusion_lon": 0.0}, {"lat": 38.925679, "is_disabled": 0, "type": "electric_scooter", "lon": -77.03538483333334, "bike_id": "3d183e05d88207a9b474b278af3d9774", "fusion_lat": 0.0, "name": "3d183e05d88207a9b474b278af3d9774", "is_reserved": 0, "rental_uris": {"android": "https://dc.lft.to/lastmile_qr_scan", "ios": "https://dc.lft.to/lastmile_qr_scan"}, "fusion_lon": 0.0}, {"lat": 38.90810716666667, "is_disabled": 0, "type": "electric_scooter", "lon": -76.98277433333334, "bike_id": "d05286060afa6448741375d5ce366eae", "fusion_lat": 0.0, "name": "d05286060afa6448741375d5ce366eae", "is_reserved": 0, "rental_uris": {"android": "https://dc.lft.to/lastmile_qr_scan", "ios": "https://dc.lft.to/lastmile_qr_scan"}, "fusion_lon": 0.0}, {"lat": 38.9098225, "is_disabled": 0, "type": "electric_bike", "lon": -76.9852435, "bike_id": "5900f65830ba960c0d53013ff20f4dcb", "fusion_lat": 0.0, "name": "5900f65830ba960c0d53013ff20f4dcb", "is_reserved": 0, "rental_uris": {"android": "https://dc.lft.to/lastmile_qr_scan", "ios": "https://dc.lft.to/lastmile_qr_scan"}, "fusion_lon": 0.0}, {"lat": 38.9056895, "is_disabled": 0, "type": "electric_scooter", "lon": -77.034096, "bike_id": "51fbb43070e0e571157e63cd1adc67ef", "fusion_lat": 0.0, "name": "51fbb43070e0e571157e63cd1adc67ef", "is_reserved": 0, "rental_uris": {"android": "https://dc.lft.to/lastmile_qr_scan", "ios": "https://dc.lft.to/lastmile_qr_scan"}, "fusion_lon": 0.0}, {"lat": 38.97275916666667, "is_disabled": 0, "type": "electric_bike", "lon": -77.03627866666666, "bike_id": "2b180331f7d576a23ddb80e326956833", "fusion_lat": 0.0, "name": "2b180331f7d576a23ddb80e326956833", "is_reserved": 0, "rental_uris": {"android": "https://dc.lft.to/lastmile_qr_scan", "ios": "https://dc.lft.to/lastmile_qr_scan"}, "fusion_lon": 0.0}, {"lat": 38.914201166666665, "is_disabled": 0, "type": "electric_scooter", "lon": -77.02203166666666, "bike_id": "92319789ad1f2307690f4e74ce07b0d0", "fusion_lat": 0.0, "name": "92319789ad1f2307690f4e74ce07b0d0", "is_reserved": 0, "rental_uris": {"android": "https://dc.lft.to/lastmile_qr_scan", "ios": "https://dc.lft.to/lastmile_qr_scan"}, "fusion_lon": 0.0}, {"lat": 38.89484183333333, "is_disabled": 0, "type": "electric_scooter", "lon": -77.0212895, "bike_id": "a1be96a91b234a375ddfdc7ea3d016a6", "fusion_lat": 0.0, "name": "a1be96a91b234a375ddfdc7ea3d016a6", "is_reserved": 0, "rental_uris": {"android": "https://dc.lft.to/lastmile_qr_scan", "ios": "https://dc.lft.to/lastmile_qr_scan"}, "fusion_lon": 0.0}, {"lat": 38.9181455, "is_disabled": 0, "type": "electric_scooter", "lon": -77.03915316666667, "bike_id": "e762b126ae78013ab092dcb2786600e4", "fusion_lat": 0.0, "name": "e762b126ae78013ab092dcb2786600e4", "is_reserved": 0, "rental_uris": {"android": "https://dc.lft.to/lastmile_qr_scan", "ios": "https://dc.lft.to/lastmile_qr_scan"}, "fusion_lon": 0.0}, {"lat": 38.893474833333336, "is_disabled": 0, "type": "electric_scooter", "lon": -76.94936883333334, "bike_id": "e671638dfe8cb759b2bd1dfe7f242c2d", "fusion_lat": 0.0, "name": "e671638dfe8cb759b2bd1dfe7f242c2d", "is_reserved": 0, "rental_uris": {"android": "https://dc.lft.to/lastmile_qr_scan", "ios": "https://dc.lft.to/lastmile_qr_scan"}, "fusion_lon": 0.0}, {"lat": 38.88069466666666, "is_disabled": 0, "type": "electric_bike", "lon": -77.10937533333333, "bike_id": "434de30e788bd23f17b403b70cdd11d9", "fusion_lat": 0.0, "name": "434de30e788bd23f17b403b70cdd11d9", "is_reserved": 0, "rental_uris": {"android": "https://dc.lft.to/lastmile_qr_scan", "ios": "https://dc.lft.to/lastmile_qr_scan"}, "fusion_lon": 0.0}, {"lat": 38.903474, "is_disabled": 0, "type": "electric_scooter", "lon": -77.05227216666667, "bike_id": "be31d2acc707ed0079aff7c0df546471", "fusion_lat": 0.0, "name": "be31d2acc707ed0079aff7c0df546471", "is_reserved": 0, "rental_uris": {"android": "https://dc.lft.to/lastmile_qr_scan", "ios": "https://dc.lft.to/lastmile_qr_scan"}, "fusion_lon": 0.0}, {"lat": 38.896545, "is_disabled": 0, "type": "electric_scooter", "lon": -77.00517966666666, "bike_id": "30466a458081571d9414b6ed00a34fdb", "fusion_lat": 0.0, "name": "30466a458081571d9414b6ed00a34fdb", "is_reserved": 0, "rental_uris": {"android": "https://dc.lft.to/lastmile_qr_scan", "ios": "https://dc.lft.to/lastmile_qr_scan"}, "fusion_lon": 0.0}, {"lat": 38.91887833333333, "is_disabled": 0, "type": "electric_scooter", "lon": -77.03499933333333, "bike_id": "41b55ca2a16ea808d28f7574108ffa0b", "fusion_lat": 0.0, "name": "41b55ca2a16ea808d28f7574108ffa0b", "is_reserved": 0, "rental_uris": {"android": "https://dc.lft.to/lastmile_qr_scan", "ios": "https://dc.lft.to/lastmile_qr_scan"}, "fusion_lon": 0.0}, {"lat": 38.94111633333333, "is_disabled": 0, "type": "electric_scooter", "lon": -77.07735, "bike_id": "1c1a0e3ba6621298f63ead8ca995510c", "fusion_lat": 0.0, "name": "1c1a0e3ba6621298f63ead8ca995510c", "is_reserved": 0, "rental_uris": {"android": "https://dc.lft.to/lastmile_qr_scan", "ios": "https://dc.lft.to/lastmile_qr_scan"}, "fusion_lon": 0.0}, {"lat": 38.905888, "is_disabled": 0, "type": "electric_scooter", "lon": -76.98619633333334, "bike_id": "e5037192ada4e098d0ffafe76452c045", "fusion_lat": 0.0, "name": "e5037192ada4e098d0ffafe76452c045", "is_reserved": 0, "rental_uris": {"android": "https://dc.lft.to/lastmile_qr_scan", "ios": "https://dc.lft.to/lastmile_qr_scan"}, "fusion_lon": 0.0}, {"lat": 38.93919183333333, "is_disabled": 0, "type": "electric_scooter", "lon": -77.06673966666666, "bike_id": "378c3a650d89bd8125a93ba6c73760f7", "fusion_lat": 0.0, "name": "378c3a650d89bd8125a93ba6c73760f7", "is_reserved": 0, "rental_uris": {"android": "https://dc.lft.to/lastmile_qr_scan", "ios": "https://dc.lft.to/lastmile_qr_scan"}, "fusion_lon": 0.0}, {"lat": 38.90870283333334, "is_disabled": 0, "type": "electric_bike", "lon": -76.940133, "bike_id": "797596ecc8e633d9be2690777fbe8bd8", "fusion_lat": 0.0, "name": "797596ecc8e633d9be2690777fbe8bd8", "is_reserved": 0, "rental_uris": {"android": "https://dc.lft.to/lastmile_qr_scan", "ios": "https://dc.lft.to/lastmile_qr_scan"}, "fusion_lon": 0.0}, {"lat": 38.928835, "is_disabled": 0, "type": "electric_scooter", "lon": -77.05749016666667, "bike_id": "6a98eb085c3e825961acf2a7ce171adf", "fusion_lat": 0.0, "name": "6a98eb085c3e825961acf2a7ce171adf", "is_reserved": 0, "rental_uris": {"android": "https://dc.lft.to/lastmile_qr_scan", "ios": "https://dc.lft.to/lastmile_qr_scan"}, "fusion_lon": 0.0}, {"lat": 38.921207333333335, "is_disabled": 0, "type": "electric_scooter", "lon": -77.045719, "bike_id": "cb9fd171b23a03656d285bb77443bbfc", "fusion_lat": 0.0, "name": "cb9fd171b23a03656d285bb77443bbfc", "is_reserved": 0, "rental_uris": {"android": "https://dc.lft.to/lastmile_qr_scan", "ios": "https://dc.lft.to/lastmile_qr_scan"}, "fusion_lon": 0.0}, {"lat": 38.8671025, "is_disabled": 0, "type": "electric_scooter", "lon": -76.987295, "bike_id": "e8946af2b1626624015f1e650e329dc3", "fusion_lat": 0.0, "name": "e8946af2b1626624015f1e650e329dc3", "is_reserved": 0, "rental_uris": {"android": "https://dc.lft.to/lastmile_qr_scan", "ios": "https://dc.lft.to/lastmile_qr_scan"}, "fusion_lon": 0.0}, {"lat": 38.845069, "is_disabled": 0, "type": "electric_bike", "lon": -76.99354366666667, "bike_id": "fdd5df0065f73582b073c61a8b1347e5", "fusion_lat": 0.0, "name": "fdd5df0065f73582b073c61a8b1347e5", "is_reserved": 0, "rental_uris": {"android": "https://dc.lft.to/lastmile_qr_scan", "ios": "https://dc.lft.to/lastmile_qr_scan"}, "fusion_lon": 0.0}, {"lat": 38.874212166666666, "is_disabled": 0, "type": "electric_bike", "lon": -77.08580683333334, "bike_id": "95166d60dd8995661f2b13a7afca9bb9", "fusion_lat": 0.0, "name": "95166d60dd8995661f2b13a7afca9bb9", "is_reserved": 0, "rental_uris": {"android": "https://dc.lft.to/lastmile_qr_scan", "ios": "https://dc.lft.to/lastmile_qr_scan"}, "fusion_lon": 0.0}, {"lat": 38.923820666666664, "is_disabled": 0, "type": "electric_scooter", "lon": -77.03656883333333, "bike_id": "638b6f374491f63d67e533c4b967ec15", "fusion_lat": 0.0, "name": "638b6f374491f63d67e533c4b967ec15", "is_reserved": 0, "rental_uris": {"android": "https://dc.lft.to/lastmile_qr_scan", "ios": "https://dc.lft.to/lastmile_qr_scan"}, "fusion_lon": 0.0}, {"lat": 38.9169475, "is_disabled": 0, "type": "electric_scooter", "lon": -77.04278233333334, "bike_id": "de5e65ea11b40877019f17388cf70f49", "fusion_lat": 0.0, "name": "de5e65ea11b40877019f17388cf70f49", "is_reserved": 0, "rental_uris": {"android": "https://dc.lft.to/lastmile_qr_scan", "ios": "https://dc.lft.to/lastmile_qr_scan"}, "fusion_lon": 0.0}, {"lat": 38.904051, "is_disabled": 0, "type": "electric_bike", "lon": -77.06527416666667, "bike_id": "1a764a0abf1c1a5a30a44d026bf61ec3", "fusion_lat": 0.0, "name": "1a764a0abf1c1a5a30a44d026bf61ec3", "is_reserved": 0, "rental_uris": {"android": "https://dc.lft.to/lastmile_qr_scan", "ios": "https://dc.lft.to/lastmile_qr_scan"}, "fusion_lon": 0.0}, {"lat": 38.879659, "is_disabled": 0, "type": "electric_scooter", "lon": -77.01744083333334, "bike_id": "aa8917598c4a4d42376be64cc7b4ac0e", "fusion_lat": 0.0, "name": "aa8917598c4a4d42376be64cc7b4ac0e", "is_reserved": 0, "rental_uris": {"android": "https://dc.lft.to/lastmile_qr_scan", "ios": "https://dc.lft.to/lastmile_qr_scan"}, "fusion_lon": 0.0}, {"lat": 38.924639166666665, "is_disabled": 0, "type": "electric_bike", "lon": -77.20838216666667, "bike_id": "54b534279d4e2d8706ddbac3c9030d64", "fusion_lat": 0.0, "name": "54b534279d4e2d8706ddbac3c9030d64", "is_reserved": 0, "rental_uris": {"android": "https://dc.lft.to/lastmile_qr_scan", "ios": "https://dc.lft.to/lastmile_qr_scan"}, "fusion_lon": 0.0}, {"lat": 38.91111516666667, "is_disabled": 0, "type": "electric_scooter", "lon": -77.0382765, "bike_id": "48e80f5dcba476f51a743247b12807d4", "fusion_lat": 0.0, "name": "48e80f5dcba476f51a743247b12807d4", "is_reserved": 0, "rental_uris": {"android": "https://dc.lft.to/lastmile_qr_scan", "ios": "https://dc.lft.to/lastmile_qr_scan"}, "fusion_lon": 0.0}, {"lat": 38.9003535, "is_disabled": 0, "type": "electric_scooter", "lon": -77.00594316666667, "bike_id": "114492f7ab539094e25557febe1bb18d", "fusion_lat": 0.0, "name": "114492f7ab539094e25557febe1bb18d", "is_reserved": 0, "rental_uris": {"android": "https://dc.lft.to/lastmile_qr_scan", "ios": "https://dc.lft.to/lastmile_qr_scan"}, "fusion_lon": 0.0}, {"lat": 38.9140925, "is_disabled": 0, "type": "electric_scooter", "lon": -76.989281, "bike_id": "3f732608e9c2e07c4cd80bdc3aae5a62", "fusion_lat": 0.0, "name": "3f732608e9c2e07c4cd80bdc3aae5a62", "is_reserved": 0, "rental_uris": {"android": "https://dc.lft.to/lastmile_qr_scan", "ios": "https://dc.lft.to/lastmile_qr_scan"}, "fusion_lon": 0.0}, {"lat": 38.92570083333333, "is_disabled": 0, "type": "electric_scooter", "lon": -77.02564583333333, "bike_id": "a6997b9222acbcdfb61b094ed7c0d0cd", "fusion_lat": 0.0, "name": "a6997b9222acbcdfb61b094ed7c0d0cd", "is_reserved": 0, "rental_uris": {"android": "https://dc.lft.to/lastmile_qr_scan", "ios": "https://dc.lft.to/lastmile_qr_scan"}, "fusion_lon": 0.0}, {"lat": 38.93605316666667, "is_disabled": 0, "type": "electric_scooter", "lon": -77.0353005, "bike_id": "6a01aaa36d20f97439a966f8a0055843", "fusion_lat": 0.0, "name": "6a01aaa36d20f97439a966f8a0055843", "is_reserved": 0, "rental_uris": {"android": "https://dc.lft.to/lastmile_qr_scan", "ios": "https://dc.lft.to/lastmile_qr_scan"}, "fusion_lon": 0.0}, {"lat": 38.90964916666667, "is_disabled": 0, "type": "electric_scooter", "lon": -77.03737816666667, "bike_id": "98ef18482ffef7a1a8cbcfd4c5c992a8", "fusion_lat": 0.0, "name": "98ef18482ffef7a1a8cbcfd4c5c992a8", "is_reserved": 0, "rental_uris": {"android": "https://dc.lft.to/lastmile_qr_scan", "ios": "https://dc.lft.to/lastmile_qr_scan"}, "fusion_lon": 0.0}, {"lat": 38.924486, "is_disabled": 0, "type": "electric_scooter", "lon": -76.99327083333333, "bike_id": "889de6f5b32d2f5ee036f9d69bf85f70", "fusion_lat": 0.0, "name": "889de6f5b32d2f5ee036f9d69bf85f70", "is_reserved": 0, "rental_uris": {"android": "https://dc.lft.to/lastmile_qr_scan", "ios": "https://dc.lft.to/lastmile_qr_scan"}, "fusion_lon": 0.0}, {"lat": 38.944505666666664, "is_disabled": 0, "type": "electric_scooter", "lon": -77.06027033333334, "bike_id": "895170d445f7bf5783de909e88500f2b", "fusion_lat": 0.0, "name": "895170d445f7bf5783de909e88500f2b", "is_reserved": 0, "rental_uris": {"android": "https://dc.lft.to/lastmile_qr_scan", "ios": "https://dc.lft.to/lastmile_qr_scan"}, "fusion_lon": 0.0}, {"lat": 38.917081333333336, "is_disabled": 0, "type": "electric_scooter", "lon": -77.038615, "bike_id": "5ce26534d02cce32a635701159335cfc", "fusion_lat": 0.0, "name": "5ce26534d02cce32a635701159335cfc", "is_reserved": 0, "rental_uris": {"android": "https://dc.lft.to/lastmile_qr_scan", "ios": "https://dc.lft.to/lastmile_qr_scan"}, "fusion_lon": 0.0}, {"lat": 38.89731166666667, "is_disabled": 0, "type": "electric_scooter", "lon": -77.04804766666666, "bike_id": "974c0fabbbf6ad08c84c5aa674438e4d", "fusion_lat": 0.0, "name": "974c0fabbbf6ad08c84c5aa674438e4d", "is_reserved": 0, "rental_uris": {"android": "https://dc.lft.to/lastmile_qr_scan", "ios": "https://dc.lft.to/lastmile_qr_scan"}, "fusion_lon": 0.0}, {"lat": 38.91116933333333, "is_disabled": 0, "type": "electric_scooter", "lon": -77.003345, "bike_id": "b788ea67f2b4b8cc8c258e910d7a1476", "fusion_lat": 0.0, "name": "b788ea67f2b4b8cc8c258e910d7a1476", "is_reserved": 0, "rental_uris": {"android": "https://dc.lft.to/lastmile_qr_scan", "ios": "https://dc.lft.to/lastmile_qr_scan"}, "fusion_lon": 0.0}, {"lat": 38.9166515, "is_disabled": 0, "type": "electric_scooter", "lon": -77.03353666666666, "bike_id": "df89c32953832943432694258a1d2c21", "fusion_lat": 0.0, "name": "df89c32953832943432694258a1d2c21", "is_reserved": 0, "rental_uris": {"android": "https://dc.lft.to/lastmile_qr_scan", "ios": "https://dc.lft.to/lastmile_qr_scan"}, "fusion_lon": 0.0}, {"lat": 38.89225316666667, "is_disabled": 0, "type": "electric_scooter", "lon": -77.0500435, "bike_id": "8cb22a4c59d0d823dc9d6a02edbbe1cb", "fusion_lat": 0.0, "name": "8cb22a4c59d0d823dc9d6a02edbbe1cb", "is_reserved": 0, "rental_uris": {"android": "https://dc.lft.to/lastmile_qr_scan", "ios": "https://dc.lft.to/lastmile_qr_scan"}, "fusion_lon": 0.0}, {"lat": 38.930919333333335, "is_disabled": 0, "type": "electric_scooter", "lon": -77.03259966666667, "bike_id": "6c7555ce350e08c2d46f9c3c73a851d3", "fusion_lat": 0.0, "name": "6c7555ce350e08c2d46f9c3c73a851d3", "is_reserved": 0, "rental_uris": {"android": "https://dc.lft.to/lastmile_qr_scan", "ios": "https://dc.lft.to/lastmile_qr_scan"}, "fusion_lon": 0.0}, {"lat": 38.8661965, "is_disabled": 0, "type": "electric_bike", "lon": -76.94571316666666, "bike_id": "79928ff022503375eb9465e363d4007a", "fusion_lat": 0.0, "name": "79928ff022503375eb9465e363d4007a", "is_reserved": 0, "rental_uris": {"android": "https://dc.lft.to/lastmile_qr_scan", "ios": "https://dc.lft.to/lastmile_qr_scan"}, "fusion_lon": 0.0}, {"lat": 38.919208166666664, "is_disabled": 0, "type": "electric_scooter", "lon": -77.048067, "bike_id": "e347bb27e2e7989048e532fc14fa5f6e", "fusion_lat": 0.0, "name": "e347bb27e2e7989048e532fc14fa5f6e", "is_reserved": 0, "rental_uris": {"android": "https://dc.lft.to/lastmile_qr_scan", "ios": "https://dc.lft.to/lastmile_qr_scan"}, "fusion_lon": 0.0}, {"lat": 38.917836333333334, "is_disabled": 0, "type": "electric_scooter", "lon": -77.04301616666666, "bike_id": "300eb903fc0ef2e69b3ea8dfc4e16642", "fusion_lat": 0.0, "name": "300eb903fc0ef2e69b3ea8dfc4e16642", "is_reserved": 0, "rental_uris": {"android": "https://dc.lft.to/lastmile_qr_scan", "ios": "https://dc.lft.to/lastmile_qr_scan"}, "fusion_lon": 0.0}, {"lat": 38.9595695, "is_disabled": 0, "type": "electric_bike", "lon": -77.10094883333333, "bike_id": "3e194dc5680eb3b9e84a5a34575ed130", "fusion_lat": 0.0, "name": "3e194dc5680eb3b9e84a5a34575ed130", "is_reserved": 0, "rental_uris": {"android": "https://dc.lft.to/lastmile_qr_scan", "ios": "https://dc.lft.to/lastmile_qr_scan"}, "fusion_lon": 0.0}, {"lat": 38.898983666666666, "is_disabled": 0, "type": "electric_scooter", "lon": -77.03187733333333, "bike_id": "cdbfa364da6a13070ff2700cc367b724", "fusion_lat": 0.0, "name": "cdbfa364da6a13070ff2700cc367b724", "is_reserved": 0, "rental_uris": {"android": "https://dc.lft.to/lastmile_qr_scan", "ios": "https://dc.lft.to/lastmile_qr_scan"}, "fusion_lon": 0.0}, {"lat": 38.87233166666667, "is_disabled": 0, "type": "electric_bike", "lon": -77.01163983333333, "bike_id": "2ed4b4aef1fa0efbb418d8edda27e2af", "fusion_lat": 0.0, "name": "2ed4b4aef1fa0efbb418d8edda27e2af", "is_reserved": 0, "rental_uris": {"android": "https://dc.lft.to/lastmile_qr_scan", "ios": "https://dc.lft.to/lastmile_qr_scan"}, "fusion_lon": 0.0}, {"lat": 38.89682333333333, "is_disabled": 0, "type": "electric_scooter", "lon": -76.9353985, "bike_id": "453b5bf065c09fcd7a97e5edbf53c7b9", "fusion_lat": 0.0, "name": "453b5bf065c09fcd7a97e5edbf53c7b9", "is_reserved": 0, "rental_uris": {"android": "https://dc.lft.to/lastmile_qr_scan", "ios": "https://dc.lft.to/lastmile_qr_scan"}, "fusion_lon": 0.0}, {"lat": 38.9006535, "is_disabled": 0, "type": "electric_scooter", "lon": -77.0019265, "bike_id": "58eb7ca84e490d241b28973b58d088b6", "fusion_lat": 0.0, "name": "58eb7ca84e490d241b28973b58d088b6", "is_reserved": 0, "rental_uris": {"android": "https://dc.lft.to/lastmile_qr_scan", "ios": "https://dc.lft.to/lastmile_qr_scan"}, "fusion_lon": 0.0}, {"lat": 38.892271666666666, "is_disabled": 0, "type": "electric_scooter", "lon": -77.04874166666667, "bike_id": "565a0c74904b019d8cf129d2060883ff", "fusion_lat": 0.0, "name": "565a0c74904b019d8cf129d2060883ff", "is_reserved": 0, "rental_uris": {"android": "https://dc.lft.to/lastmile_qr_scan", "ios": "https://dc.lft.to/lastmile_qr_scan"}, "fusion_lon": 0.0}, {"lat": 38.961492166666666, "is_disabled": 0, "type": "electric_scooter", "lon": -77.02792316666667, "bike_id": "d175fbeabc43f3e8ab57116e1781190f", "fusion_lat": 0.0, "name": "d175fbeabc43f3e8ab57116e1781190f", "is_reserved": 0, "rental_uris": {"android": "https://dc.lft.to/lastmile_qr_scan", "ios": "https://dc.lft.to/lastmile_qr_scan"}, "fusion_lon": 0.0}, {"lat": 38.9132935, "is_disabled": 0, "type": "electric_scooter", "lon": -77.03267266666667, "bike_id": "19b866d1d6b5284154fb17f4f82401a2", "fusion_lat": 0.0, "name": "19b866d1d6b5284154fb17f4f82401a2", "is_reserved": 0, "rental_uris": {"android": "https://dc.lft.to/lastmile_qr_scan", "ios": "https://dc.lft.to/lastmile_qr_scan"}, "fusion_lon": 0.0}, {"lat": 38.92060883333333, "is_disabled": 0, "type": "electric_scooter", "lon": -77.04341816666667, "bike_id": "3552f05e4cc06cde57c61b9b92b9baa6", "fusion_lat": 0.0, "name": "3552f05e4cc06cde57c61b9b92b9baa6", "is_reserved": 0, "rental_uris": {"android": "https://dc.lft.to/lastmile_qr_scan", "ios": "https://dc.lft.to/lastmile_qr_scan"}, "fusion_lon": 0.0}, {"lat": 38.908841333333335, "is_disabled": 0, "type": "electric_scooter", "lon": -77.04402416666667, "bike_id": "61d87d39cafb09e23f95ee1fa84affa8", "fusion_lat": 0.0, "name": "61d87d39cafb09e23f95ee1fa84affa8", "is_reserved": 0, "rental_uris": {"android": "https://dc.lft.to/lastmile_qr_scan", "ios": "https://dc.lft.to/lastmile_qr_scan"}, "fusion_lon": 0.0}, {"lat": 38.914918166666666, "is_disabled": 0, "type": "electric_scooter", "lon": -77.03268166666666, "bike_id": "c4c68b37a57433edcde5830f9a5d6b2e", "fusion_lat": 0.0, "name": "c4c68b37a57433edcde5830f9a5d6b2e", "is_reserved": 0, "rental_uris": {"android": "https://dc.lft.to/lastmile_qr_scan", "ios": "https://dc.lft.to/lastmile_qr_scan"}, "fusion_lon": 0.0}, {"lat": 38.84034666666667, "is_disabled": 0, "type": "electric_bike", "lon": -76.97620766666667, "bike_id": "d65cadc5a86e2eee0155b1ad0b539fef", "fusion_lat": 0.0, "name": "d65cadc5a86e2eee0155b1ad0b539fef", "is_reserved": 0, "rental_uris": {"android": "https://dc.lft.to/lastmile_qr_scan", "ios": "https://dc.lft.to/lastmile_qr_scan"}, "fusion_lon": 0.0}, {"lat": 38.905601833333336, "is_disabled": 0, "type": "electric_scooter", "lon": -77.02916283333333, "bike_id": "111e4095a0015b11ebbbeb309e73eb38", "fusion_lat": 0.0, "name": "111e4095a0015b11ebbbeb309e73eb38", "is_reserved": 0, "rental_uris": {"android": "https://dc.lft.to/lastmile_qr_scan", "ios": "https://dc.lft.to/lastmile_qr_scan"}, "fusion_lon": 0.0}, {"lat": 38.95402716666667, "is_disabled": 0, "type": "electric_scooter", "lon": -77.03629516666666, "bike_id": "93e9e3974db25f2223973fae60aa021f", "fusion_lat": 0.0, "name": "93e9e3974db25f2223973fae60aa021f", "is_reserved": 0, "rental_uris": {"android": "https://dc.lft.to/lastmile_qr_scan", "ios": "https://dc.lft.to/lastmile_qr_scan"}, "fusion_lon": 0.0}, {"lat": 38.922048833333335, "is_disabled": 0, "type": "electric_scooter", "lon": -77.04006316666667, "bike_id": "35301f8ef415d9171b4dae1630958053", "fusion_lat": 0.0, "name": "35301f8ef415d9171b4dae1630958053", "is_reserved": 0, "rental_uris": {"android": "https://dc.lft.to/lastmile_qr_scan", "ios": "https://dc.lft.to/lastmile_qr_scan"}, "fusion_lon": 0.0}, {"lat": 38.89717233333333, "is_disabled": 0, "type": "electric_scooter", "lon": -77.007985, "bike_id": "320bff06e9034ec22028ed683cd42490", "fusion_lat": 0.0, "name": "320bff06e9034ec22028ed683cd42490", "is_reserved": 0, "rental_uris": {"android": "https://dc.lft.to/lastmile_qr_scan", "ios": "https://dc.lft.to/lastmile_qr_scan"}, "fusion_lon": 0.0}, {"lat": 38.886085333333334, "is_disabled": 0, "type": "electric_scooter", "lon": -77.02198116666666, "bike_id": "b6f82e29ecf98f39adbecbf2889bad70", "fusion_lat": 0.0, "name": "b6f82e29ecf98f39adbecbf2889bad70", "is_reserved": 0, "rental_uris": {"android": "https://dc.lft.to/lastmile_qr_scan", "ios": "https://dc.lft.to/lastmile_qr_scan"}, "fusion_lon": 0.0}, {"lat": 38.9161005, "is_disabled": 0, "type": "electric_scooter", "lon": -77.021283, "bike_id": "90a7f2db0298bcefa5f5ad1fbe22e7a8", "fusion_lat": 0.0, "name": "90a7f2db0298bcefa5f5ad1fbe22e7a8", "is_reserved": 0, "rental_uris": {"android": "https://dc.lft.to/lastmile_qr_scan", "ios": "https://dc.lft.to/lastmile_qr_scan"}, "fusion_lon": 0.0}, {"lat": 38.91785, "is_disabled": 0, "type": "electric_scooter", "lon": -77.0231375, "bike_id": "bf3afbac0a9aafd902be3e2ed0562389", "fusion_lat": 0.0, "name": "bf3afbac0a9aafd902be3e2ed0562389", "is_reserved": 0, "rental_uris": {"android": "https://dc.lft.to/lastmile_qr_scan", "ios": "https://dc.lft.to/lastmile_qr_scan"}, "fusion_lon": 0.0}, {"lat": 38.917445666666666, "is_disabled": 0, "type": "electric_scooter", "lon": -77.00760366666667, "bike_id": "6f425d34f6705013eafdc0b6e87c3dd3", "fusion_lat": 0.0, "name": "6f425d34f6705013eafdc0b6e87c3dd3", "is_reserved": 0, "rental_uris": {"android": "https://dc.lft.to/lastmile_qr_scan", "ios": "https://dc.lft.to/lastmile_qr_scan"}, "fusion_lon": 0.0}, {"lat": 38.89045, "is_disabled": 0, "type": "electric_scooter", "lon": -76.95141633333333, "bike_id": "5a013d24068d45d5353c483a5677e2ae", "fusion_lat": 0.0, "name": "5a013d24068d45d5353c483a5677e2ae", "is_reserved": 0, "rental_uris": {"android": "https://dc.lft.to/lastmile_qr_scan", "ios": "https://dc.lft.to/lastmile_qr_scan"}, "fusion_lon": 0.0}, {"lat": 38.9317485, "is_disabled": 0, "type": "electric_scooter", "lon": -77.02813283333333, "bike_id": "40d0b7b6f09d5e39bc643045fbae1528", "fusion_lat": 0.0, "name": "40d0b7b6f09d5e39bc643045fbae1528", "is_reserved": 0, "rental_uris": {"android": "https://dc.lft.to/lastmile_qr_scan", "ios": "https://dc.lft.to/lastmile_qr_scan"}, "fusion_lon": 0.0}, {"lat": 38.86906666666667, "is_disabled": 0, "type": "electric_bike", "lon": -77.13179683333334, "bike_id": "e4fcef9b35b3ed812980e4ee2d3c7203", "fusion_lat": 0.0, "name": "e4fcef9b35b3ed812980e4ee2d3c7203", "is_reserved": 0, "rental_uris": {"android": "https://dc.lft.to/lastmile_qr_scan", "ios": "https://dc.lft.to/lastmile_qr_scan"}, "fusion_lon": 0.0}, {"lat": 38.903627666666665, "is_disabled": 0, "type": "electric_scooter", "lon": -77.04333666666666, "bike_id": "fa9b33b6c730d1660c865333bb27d965", "fusion_lat": 0.0, "name": "fa9b33b6c730d1660c865333bb27d965", "is_reserved": 0, "rental_uris": {"android": "https://dc.lft.to/lastmile_qr_scan", "ios": "https://dc.lft.to/lastmile_qr_scan"}, "fusion_lon": 0.0}, {"lat": 38.906538166666664, "is_disabled": 0, "type": "electric_scooter", "lon": -77.02581783333333, "bike_id": "13802e7038351544c9744a8b8fc84d66", "fusion_lat": 0.0, "name": "13802e7038351544c9744a8b8fc84d66", "is_reserved": 0, "rental_uris": {"android": "https://dc.lft.to/lastmile_qr_scan", "ios": "https://dc.lft.to/lastmile_qr_scan"}, "fusion_lon": 0.0}, {"lat": 38.91046433333333, "is_disabled": 0, "type": "electric_scooter", "lon": -77.01508433333333, "bike_id": "06e3ca3ca4e7b96a8c82a5fbdffe22c7", "fusion_lat": 0.0, "name": "06e3ca3ca4e7b96a8c82a5fbdffe22c7", "is_reserved": 0, "rental_uris": {"android": "https://dc.lft.to/lastmile_qr_scan", "ios": "https://dc.lft.to/lastmile_qr_scan"}, "fusion_lon": 0.0}, {"lat": 38.90755983333333, "is_disabled": 0, "type": "electric_scooter", "lon": -77.04246733333333, "bike_id": "3b4d8bbf37dbdc781f6a6935569da619", "fusion_lat": 0.0, "name": "3b4d8bbf37dbdc781f6a6935569da619", "is_reserved": 0, "rental_uris": {"android": "https://dc.lft.to/lastmile_qr_scan", "ios": "https://dc.lft.to/lastmile_qr_scan"}, "fusion_lon": 0.0}, {"lat": 38.93415983333333, "is_disabled": 0, "type": "electric_scooter", "lon": -77.0578505, "bike_id": "e225dba8f42c77599160c9cae25e6c61", "fusion_lat": 0.0, "name": "e225dba8f42c77599160c9cae25e6c61", "is_reserved": 0, "rental_uris": {"android": "https://dc.lft.to/lastmile_qr_scan", "ios": "https://dc.lft.to/lastmile_qr_scan"}, "fusion_lon": 0.0}, {"lat": 38.9055795, "is_disabled": 0, "type": "electric_scooter", "lon": -77.03417316666666, "bike_id": "21575ef17fb34e08f3e050c7cba7eddd", "fusion_lat": 0.0, "name": "21575ef17fb34e08f3e050c7cba7eddd", "is_reserved": 0, "rental_uris": {"android": "https://dc.lft.to/lastmile_qr_scan", "ios": "https://dc.lft.to/lastmile_qr_scan"}, "fusion_lon": 0.0}, {"lat": 38.91059933333333, "is_disabled": 0, "type": "electric_scooter", "lon": -77.02656, "bike_id": "a43fb02807b0251d31cbe935c88fb713", "fusion_lat": 0.0, "name": "a43fb02807b0251d31cbe935c88fb713", "is_reserved": 0, "rental_uris": {"android": "https://dc.lft.to/lastmile_qr_scan", "ios": "https://dc.lft.to/lastmile_qr_scan"}, "fusion_lon": 0.0}, {"lat": 38.915456666666664, "is_disabled": 0, "type": "electric_scooter", "lon": -77.00977666666667, "bike_id": "b602e5d0f0ddd83109f242c0ad24c5d5", "fusion_lat": 0.0, "name": "b602e5d0f0ddd83109f242c0ad24c5d5", "is_reserved": 0, "rental_uris": {"android": "https://dc.lft.to/lastmile_qr_scan", "ios": "https://dc.lft.to/lastmile_qr_scan"}, "fusion_lon": 0.0}, {"lat": 38.93422066666667, "is_disabled": 0, "type": "electric_scooter", "lon": -77.02843416666667, "bike_id": "f3960ae1fd04fc98c4c78c534b429aab", "fusion_lat": 0.0, "name": "f3960ae1fd04fc98c4c78c534b429aab", "is_reserved": 0, "rental_uris": {"android": "https://dc.lft.to/lastmile_qr_scan", "ios": "https://dc.lft.to/lastmile_qr_scan"}, "fusion_lon": 0.0}, {"lat": 38.84430066666667, "is_disabled": 0, "type": "electric_scooter", "lon": -76.998108, "bike_id": "637ea858f0583ed1afc7da6e62619ccb", "fusion_lat": 0.0, "name": "637ea858f0583ed1afc7da6e62619ccb", "is_reserved": 0, "rental_uris": {"android": "https://dc.lft.to/lastmile_qr_scan", "ios": "https://dc.lft.to/lastmile_qr_scan"}, "fusion_lon": 0.0}, {"lat": 38.931879, "is_disabled": 0, "type": "electric_scooter", "lon": -77.03873166666666, "bike_id": "75bc305665a5462648f6dd41d106e337", "fusion_lat": 0.0, "name": "75bc305665a5462648f6dd41d106e337", "is_reserved": 0, "rental_uris": {"android": "https://dc.lft.to/lastmile_qr_scan", "ios": "https://dc.lft.to/lastmile_qr_scan"}, "fusion_lon": 0.0}, {"lat": 38.903908, "is_disabled": 0, "type": "electric_scooter", "lon": -76.98489283333333, "bike_id": "0cc69afc8e03a08012009fd013b61741", "fusion_lat": 0.0, "name": "0cc69afc8e03a08012009fd013b61741", "is_reserved": 0, "rental_uris": {"android": "https://dc.lft.to/lastmile_qr_scan", "ios": "https://dc.lft.to/lastmile_qr_scan"}, "fusion_lon": 0.0}, {"lat": 38.922406, "is_disabled": 0, "type": "electric_scooter", "lon": -77.029931, "bike_id": "3988b08602919f29064d99a61fea8caf", "fusion_lat": 0.0, "name": "3988b08602919f29064d99a61fea8caf", "is_reserved": 0, "rental_uris": {"android": "https://dc.lft.to/lastmile_qr_scan", "ios": "https://dc.lft.to/lastmile_qr_scan"}, "fusion_lon": 0.0}, {"lat": 38.9211685, "is_disabled": 0, "type": "electric_scooter", "lon": -77.04223716666667, "bike_id": "f3a36b9f543b76fc5157c1346aa9c669", "fusion_lat": 0.0, "name": "f3a36b9f543b76fc5157c1346aa9c669", "is_reserved": 0, "rental_uris": {"android": "https://dc.lft.to/lastmile_qr_scan", "ios": "https://dc.lft.to/lastmile_qr_scan"}, "fusion_lon": 0.0}, {"lat": 38.938633333333335, "is_disabled": 0, "type": "electric_scooter", "lon": -77.02595083333334, "bike_id": "4b8fc7c08b8403c0b33b12173f913fc4", "fusion_lat": 0.0, "name": "4b8fc7c08b8403c0b33b12173f913fc4", "is_reserved": 0, "rental_uris": {"android": "https://dc.lft.to/lastmile_qr_scan", "ios": "https://dc.lft.to/lastmile_qr_scan"}, "fusion_lon": 0.0}, {"lat": 38.904960833333334, "is_disabled": 0, "type": "electric_scooter", "lon": -76.99539566666667, "bike_id": "e218dc2c5ed5661d8deeb6ec7d4da506", "fusion_lat": 0.0, "name": "e218dc2c5ed5661d8deeb6ec7d4da506", "is_reserved": 0, "rental_uris": {"android": "https://dc.lft.to/lastmile_qr_scan", "ios": "https://dc.lft.to/lastmile_qr_scan"}, "fusion_lon": 0.0}, {"lat": 38.810486833333336, "is_disabled": 0, "type": "electric_bike", "lon": -77.08511333333334, "bike_id": "0273027e457e1647ca234d37081f6354", "fusion_lat": 0.0, "name": "0273027e457e1647ca234d37081f6354", "is_reserved": 0, "rental_uris": {"android": "https://dc.lft.to/lastmile_qr_scan", "ios": "https://dc.lft.to/lastmile_qr_scan"}, "fusion_lon": 0.0},