{"data": {"bikes": [{"is_disabled": 0, "fusion_lon": 0.0, "fusion_lat": 0.0, "lat": 38.91699283333333, "type": "electric_scooter", "lon": -77.028274, "bike_id": "0acd4267be959b61d8c611756170b969", "rental_uris": {"android": "https://dc.lft.to/lastmile_qr_scan", "ios": "https://dc.lft.to/lastmile_qr_scan"}, "name": "0acd4267be959b61d8c611756170b969", "is_reserved": 0}, {"is_disabled": 0, "fusion_lon": 0.0, "fusion_lat": 0.0, "lat": 38.865850333333334, "type": "electric_scooter", "lon": -76.98719066666666, "bike_id": "c659e8a121f845c5d8ddc7138135a1c7", "rental_uris": {"android": "https://dc.lft.to/lastmile_qr_scan", "ios": "https://dc.lft.to/lastmile_qr_scan"}, "name": "c659e8a121f845c5d8ddc7138135a1c7", "is_reserved": 0}, {"is_disabled": 0, "fusion_lon": 0.0, "fusion_lat": 0.0, "lat": 38.88747333333333, "type": "electric_scooter", "lon": -77.02228416666667, "bike_id": "ece26084f4deca8898982ba4fb5a1745", "rental_uris": {"android": "https://dc.lft.to/lastmile_qr_scan", "ios": "https://dc.lft.to/lastmile_qr_scan"}, "name": "ece26084f4deca8898982ba4fb5a1745", "is_reserved": 0}, {"is_disabled": 0, "fusion_lon": 0.0, "fusion_lat": 0.0, "lat": 38.90834433333333, "type": "electric_scooter", "lon": -77.03944033333333, "bike_id": "c66f50e1363dbe1be0f0e037cca6d157", "rental_uris": {"android": "https://dc.lft.to/lastmile_qr_scan", "ios": "https://dc.lft.to/lastmile_qr_scan"}, "name": "c66f50e1363dbe1be0f0e037cca6d157", "is_reserved": 0}, {"is_disabled": 0, "fusion_lon": 0.0, "fusion_lat": 0.0, "lat": 38.945359833333335, "type": "electric_bike", "lon": -77.34461133333333, "bike_id": "f849d1eaf0bdf5ed4fa5c5f00472f2ed", "rental_uris": {"android": "https://dc.lft.to/lastmile_qr_scan", "ios": "https://dc.lft.to/lastmile_qr_scan"}, "name": "f849d1eaf0bdf5ed4fa5c5f00472f2ed", "is_reserved": 0}, {"is_disabled": 0, "fusion_lon": 0.0, "fusion_lat": 0.0, "lat": 38.96543616666666, "type": "electric_bike", "lon": -76.970651, "bike_id": "f5d1b7a75e47e741c3518e05f9fc09b1", "rental_uris": {"android": "https://dc.lft.to/lastmile_qr_scan", "ios": "https://dc.lft.to/lastmile_qr_scan"}, "name": "f5d1b7a75e47e741c3518e05f9fc09b1", "is_reserved": 0}, {"is_disabled": 0, "fusion_lon": 0.0, "fusion_lat": 0.0, "lat": 38.919046, "type": "electric_scooter", "lon": -77.02447733333334, "bike_id": "6e56f63d89bb1764e1ce5ae2dc3d3699", "rental_uris": {"android": "https://dc.lft.to/lastmile_qr_scan", "ios": "https://dc.lft.to/lastmile_qr_scan"}, "name": "6e56f63d89bb1764e1ce5ae2dc3d3699", "is_reserved": 0}, {"is_disabled": 0, "fusion_lon": 0.0, "fusion_lat": 0.0, "lat": 38.94979583333333, "type": "electric_scooter", "lon": -77.09437883333334, "bike_id": "5b5f6d5e8b3293fd4efef7c8ded506d8", "rental_uris": {"android": "https://dc.lft.to/lastmile_qr_scan", "ios": "https://dc.lft.to/lastmile_qr_scan"}, "name": "5b5f6d5e8b3293fd4efef7c8ded506d8", "is_reserved": 0}, {"is_disabled": 0, "fusion_lon": 0.0, "fusion_lat": 0.0, "lat": 38.87824716666667, "type": "electric_scooter", "lon": -76.963177, "bike_id": "73700f67869c715234ef9b62dc8080ef", "rental_uris": {"android": "https://dc.lft.to/lastmile_qr_scan", "ios": "https://dc.lft.to/lastmile_qr_scan"}, "name": "73700f67869c715234ef9b62dc8080ef", "is_reserved": 0}, {"is_disabled": 0, "fusion_lon": 0.0, "fusion_lat": 0.0, "lat": 38.876765666666664, "type": "electric_scooter", "lon": -76.93193683333334, "bike_id": "a8540b46d18d16a7bffc03229ff670f3", "rental_uris": {"android": "https://dc.lft.to/lastmile_qr_scan", "ios": "https://dc.lft.to/lastmile_qr_scan"}, "name": "a8540b46d18d16a7bffc03229ff670f3", "is_reserved": 0}, {"is_disabled": 0, "fusion_lon": 0.0, "fusion_lat": 0.0, "lat": 38.900241333333334, "type": "electric_scooter", "lon": -77.0240495, "bike_id": "464c274fb8f5d7876a1ca2c75f62f95f", "rental_uris": {"android": "https://dc.lft.to/lastmile_qr_scan", "ios": "https://dc.lft.to/lastmile_qr_scan"}, "name": "464c274fb8f5d7876a1ca2c75f62f95f", "is_reserved": 0}, {"is_disabled": 0, "fusion_lon": 0.0, "fusion_lat": 0.0, "lat": 38.92220416666667, "type": "electric_scooter", "lon": -77.042425, "bike_id": "b415f708423d34aee5f1224597a693db", "rental_uris": {"android": "https://dc.lft.to/lastmile_qr_scan", "ios": "https://dc.lft.to/lastmile_qr_scan"}, "name": "b415f708423d34aee5f1224597a693db", "is_reserved": 0}, {"is_disabled": 0, "fusion_lon": 0.0, "fusion_lat": 0.0, "lat": 38.93390616666667, "type": "electric_scooter", "lon": -77.04555116666667, "bike_id": "5a822c4e2348d1b42400e0f970a7c188", "rental_uris": {"android": "https://dc.lft.to/lastmile_qr_scan", "ios": "https://dc.lft.to/lastmile_qr_scan"}, "name": "5a822c4e2348d1b42400e0f970a7c188", "is_reserved": 0}, {"is_disabled": 0, "fusion_lon": 0.0, "fusion_lat": 0.0, "lat": 38.91578883333333, "type": "electric_scooter", "lon": -76.98114733333334, "bike_id": "8dc57266731048f634431417f64c3584", "rental_uris": {"android": "https://dc.lft.to/lastmile_qr_scan", "ios": "https://dc.lft.to/lastmile_qr_scan"}, "name": "8dc57266731048f634431417f64c3584", "is_reserved": 0}, {"is_disabled": 0, "fusion_lon": 0.0, "fusion_lat": 0.0, "lat": 38.90625933333333, "type": "electric_scooter", "lon": -77.03150416666666, "bike_id": "9f981ac9a6dad399a9426181d33cf8b9", "rental_uris": {"android": "https://dc.lft.to/lastmile_qr_scan", "ios": "https://dc.lft.to/lastmile_qr_scan"}, "name": "9f981ac9a6dad399a9426181d33cf8b9", "is_reserved": 0}, {"is_disabled": 0, "fusion_lon": 0.0, "fusion_lat": 0.0, "lat": 38.85922333333333, "type": "electric_scooter", "lon": -76.9878145, "bike_id": "22c42364327170801d6e140cd655eeee", "rental_uris": {"android": "https://dc.lft.to/lastmile_qr_scan", "ios": "https://dc.lft.to/lastmile_qr_scan"}, "name": "22c42364327170801d6e140cd655eeee", "is_reserved": 0}, {"is_disabled": 0, "fusion_lon": 0.0, "fusion_lat": 0.0, "lat": 38.8764885, "type": "electric_scooter", "lon": -77.01624333333334, "bike_id": "b163f31e1ea707e52431b14b716e329c", "rental_uris": {"android": "https://dc.lft.to/lastmile_qr_scan", "ios": "https://dc.lft.to/lastmile_qr_scan"}, "name": "b163f31e1ea707e52431b14b716e329c", "is_reserved": 0}, {"is_disabled": 0, "fusion_lon": 0.0, "fusion_lat": 0.0, "lat": 38.924570833333334, "type": "electric_scooter", "lon": -77.05087216666666, "bike_id": "20c1eb80f30d61ee733219fc24acd871", "rental_uris": {"android": "https://dc.lft.to/lastmile_qr_scan", "ios": "https://dc.lft.to/lastmile_qr_scan"}, "name": "20c1eb80f30d61ee733219fc24acd871", "is_reserved": 0}, {"is_disabled": 0, "fusion_lon": 0.0, "fusion_lat": 0.0, "lat": 38.952964, "type": "electric_scooter", "lon": -77.03586566666667, "bike_id": "a792bb15b6545f7b770b725c4b9bca39", "rental_uris": {"android": "https://dc.lft.to/lastmile_qr_scan", "ios": "https://dc.lft.to/lastmile_qr_scan"}, "name": "a792bb15b6545f7b770b725c4b9bca39", "is_reserved": 0}, {"is_disabled": 0, "fusion_lon": 0.0, "fusion_lat": 0.0, "lat": 38.926067333333336, "type": "electric_scooter", "lon": -77.02155683333334, "bike_id": "f2fbcd6dfa3b659a906851939300e0a5", "rental_uris": {"android": "https://dc.lft.to/lastmile_qr_scan", "ios": "https://dc.lft.to/lastmile_qr_scan"}, "name": "f2fbcd6dfa3b659a906851939300e0a5", "is_reserved": 0}, {"is_disabled": 0, "fusion_lon": 0.0, "fusion_lat": 0.0, "lat": 38.87233833333333, "type": "electric_scooter", "lon": -77.00580083333334, "bike_id": "8f11a438637fc71a232f6f50e2ea856d", "rental_uris": {"android": "https://dc.lft.to/lastmile_qr_scan", "ios": "https://dc.lft.to/lastmile_qr_scan"}, "name": "8f11a438637fc71a232f6f50e2ea856d", "is_reserved": 0}, {"is_disabled": 0, "fusion_lon": 0.0, "fusion_lat": 0.0, "lat": 38.920572, "type": "electric_scooter", "lon": -77.02866916666666, "bike_id": "9e77d7a89038c98a00803f521ebb5bee", "rental_uris": {"android": "https://dc.lft.to/lastmile_qr_scan", "ios": "https://dc.lft.to/lastmile_qr_scan"}, "name": "9e77d7a89038c98a00803f521ebb5bee", "is_reserved": 0}, {"is_disabled": 0, "fusion_lon": 0.0, "fusion_lat": 0.0, "lat": 38.9149175, "type": "electric_scooter", "lon": -77.0185915, "bike_id": "53b5ac015f177b4656c505c28f0678d3", "rental_uris": {"android": "https://dc.lft.to/lastmile_qr_scan", "ios": "https://dc.lft.to/lastmile_qr_scan"}, "name": "53b5ac015f177b4656c505c28f0678d3", "is_reserved": 0}, {"is_disabled": 0, "fusion_lon": 0.0, "fusion_lat": 0.0, "lat": 38.8935395, "type": "electric_scooter", "lon": -77.02220416666667, "bike_id": "6c073f2762d17bbbcebcfc210e083862", "rental_uris": {"android": "https://dc.lft.to/lastmile_qr_scan", "ios": "https://dc.lft.to/lastmile_qr_scan"}, "name": "6c073f2762d17bbbcebcfc210e083862", "is_reserved": 0}, {"is_disabled": 0, "fusion_lon": 0.0, "fusion_lat": 0.0, "lat": 38.8606045, "type": "electric_bike", "lon": -77.09435933333333, "bike_id": "30dd9c8fb59e9b1165ebcbdcf0540c05", "rental_uris": {"android": "https://dc.lft.to/lastmile_qr_scan", "ios": "https://dc.lft.to/lastmile_qr_scan"}, "name": "30dd9c8fb59e9b1165ebcbdcf0540c05", "is_reserved": 0}, {"is_disabled": 0, "fusion_lon": 0.0, "fusion_lat": 0.0, "lat": 38.91117766666667, "type": "electric_scooter", "lon": -77.047218, "bike_id": "119f4ddf9a3a7cc149a05c7c8a0e941a", "rental_uris": {"android": "https://dc.lft.to/lastmile_qr_scan", "ios": "https://dc.lft.to/lastmile_qr_scan"}, "name": "119f4ddf9a3a7cc149a05c7c8a0e941a", "is_reserved": 0}, {"is_disabled": 0, "fusion_lon": 0.0, "fusion_lat": 0.0, "lat": 38.928574833333336, "type": "electric_scooter", "lon": -77.01429116666667, "bike_id": "ed319342e247b890cb466f893db0f7a5", "rental_uris": {"android": "https://dc.lft.to/lastmile_qr_scan", "ios": "https://dc.lft.to/lastmile_qr_scan"}, "name": "ed319342e247b890cb466f893db0f7a5", "is_reserved": 0}, {"is_disabled": 0, "fusion_lon": 0.0, "fusion_lat": 0.0, "lat": 38.92979583333333, "type": "electric_scooter", "lon": -77.03469183333333, "bike_id": "b54c2e6e2eae9958eb7ce3c9ce060438", "rental_uris": {"android": "https://dc.lft.to/lastmile_qr_scan", "ios": "https://dc.lft.to/lastmile_qr_scan"}, "name": "b54c2e6e2eae9958eb7ce3c9ce060438", "is_reserved": 0}, {"is_disabled": 0, "fusion_lon": 0.0, "fusion_lat": 0.0, "lat": 38.887583166666666, "type": "electric_scooter", "lon": -77.0336185, "bike_id": "7a47be4bc84ac0367ada863ab2cf952b", "rental_uris": {"android": "https://dc.lft.to/lastmile_qr_scan", "ios": "https://dc.lft.to/lastmile_qr_scan"}, "name": "7a47be4bc84ac0367ada863ab2cf952b", "is_reserved": 0}, {"is_disabled": 0, "fusion_lon": 0.0, "fusion_lat": 0.0, "lat": 38.919531, "type": "electric_scooter", "lon": -77.02817766666666, "bike_id": "45c1b83df7c9bdd7b4b1f75a7becdb00", "rental_uris": {"android": "https://dc.lft.to/lastmile_qr_scan", "ios": "https://dc.lft.to/lastmile_qr_scan"}, "name": "45c1b83df7c9bdd7b4b1f75a7becdb00", "is_reserved": 0}, {"is_disabled": 0, "fusion_lon": 0.0, "fusion_lat": 0.0, "lat": 38.83375633333333, "type": "electric_scooter", "lon": -76.99299016666667, "bike_id": "f26a03225f38486291d8d9f98e89e7dc", "rental_uris": {"android": "https://dc.lft.to/lastmile_qr_scan", "ios": "https://dc.lft.to/lastmile_qr_scan"}, "name": "f26a03225f38486291d8d9f98e89e7dc", "is_reserved": 0}, {"is_disabled": 0, "fusion_lon": 0.0, "fusion_lat": 0.0, "lat": 38.914139, "type": "electric_scooter", "lon": -77.02214383333333, "bike_id": "c21dc358b3c909db5143bd59afcdc68d", "rental_uris": {"android": "https://dc.lft.to/lastmile_qr_scan", "ios": "https://dc.lft.to/lastmile_qr_scan"}, "name": "c21dc358b3c909db5143bd59afcdc68d", "is_reserved": 0}, {"is_disabled": 0, "fusion_lon": 0.0, "fusion_lat": 0.0, "lat": 38.8961095, "type": "electric_scooter", "lon": -77.03379633333333, "bike_id": "accb34ad5a56885ac3dc03024a2e155d", "rental_uris": {"android": "https://dc.lft.to/lastmile_qr_scan", "ios": "https://dc.lft.to/lastmile_qr_scan"}, "name": "accb34ad5a56885ac3dc03024a2e155d", "is_reserved": 0}, {"is_disabled": 0, "fusion_lon": 0.0, "fusion_lat": 0.0, "lat": 38.90078116666667, "type": "electric_scooter", "lon": -76.98834216666667, "bike_id": "db5bd700886f6609ee82eaf1258e6518", "rental_uris": {"android": "https://dc.lft.to/lastmile_qr_scan", "ios": "https://dc.lft.to/lastmile_qr_scan"}, "name": "db5bd700886f6609ee82eaf1258e6518", "is_reserved": 0}, {"is_disabled": 0, "fusion_lon": 0.0, "fusion_lat": 0.0, "lat": 38.911781166666664, "type": "electric_scooter", "lon": -77.00433366666667, "bike_id": "ee0203592d5ce56ae7e2298b116d5413", "rental_uris": {"android": "https://dc.lft.to/lastmile_qr_scan", "ios": "https://dc.lft.to/lastmile_qr_scan"}, "name": "ee0203592d5ce56ae7e2298b116d5413", "is_reserved": 0}, {"is_disabled": 0, "fusion_lon": 0.0, "fusion_lat": 0.0, "lat": 38.918144, "type": "electric_scooter", "lon": -77.01214966666667, "bike_id": "dcf701f8a84abacc10d7f37ba1d9c361", "rental_uris": {"android": "https://dc.lft.to/lastmile_qr_scan", "ios": "https://dc.lft.to/lastmile_qr_scan"}, "name": "dcf701f8a84abacc10d7f37ba1d9c361", "is_reserved": 0}, {"is_disabled": 0, "fusion_lon": 0.0, "fusion_lat": 0.0, "lat": 38.921624666666666, "type": "electric_scooter", "lon": -77.03379416666667, "bike_id": "9aa51675be9673b0b0570ac38d5cb633", "rental_uris": {"android": "https://dc.lft.to/lastmile_qr_scan", "ios": "https://dc.lft.to/lastmile_qr_scan"}, "name": "9aa51675be9673b0b0570ac38d5cb633", "is_reserved": 0}, {"is_disabled": 0, "fusion_lon": 0.0, "fusion_lat": 0.0, "lat": 38.878035, "type": "electric_scooter", "lon": -77.00711316666667, "bike_id": "1bc718640f5f4443810191da6ca14e13", "rental_uris": {"android": "https://dc.lft.to/lastmile_qr_scan", "ios": "https://dc.lft.to/lastmile_qr_scan"}, "name": "1bc718640f5f4443810191da6ca14e13", "is_reserved": 0}, {"is_disabled": 0, "fusion_lon": 0.0, "fusion_lat": 0.0, "lat": 38.901394833333335, "type": "electric_scooter", "lon": -77.05915516666667, "bike_id": "4a442b7494af0bea326c273a10dcec64", "rental_uris": {"android": "https://dc.lft.to/lastmile_qr_scan", "ios": "https://dc.lft.to/lastmile_qr_scan"}, "name": "4a442b7494af0bea326c273a10dcec64", "is_reserved": 0}, {"is_disabled": 0, "fusion_lon": 0.0, "fusion_lat": 0.0, "lat": 38.92174466666667, "type": "electric_scooter", "lon": -77.05531216666667, "bike_id": "30ded7e291c1a06743fb0c0f36eedba6", "rental_uris": {"android": "https://dc.lft.to/lastmile_qr_scan", "ios": "https://dc.lft.to/lastmile_qr_scan"}, "name": "30ded7e291c1a06743fb0c0f36eedba6", "is_reserved": 0}, {"is_disabled": 0, "fusion_lon": 0.0, "fusion_lat": 0.0, "lat": 38.91762166666667, "type": "electric_scooter", "lon": -77.00498533333334, "bike_id": "7fd5e2cb8306e6d51ba4abab235f4bfe", "rental_uris": {"android": "https://dc.lft.to/lastmile_qr_scan", "ios": "https://dc.lft.to/lastmile_qr_scan"}, "name": "7fd5e2cb8306e6d51ba4abab235f4bfe", "is_reserved": 0}, {"is_disabled": 0, "fusion_lon": 0.0, "fusion_lat": 0.0, "lat": 38.8934685, "type": "electric_scooter", "lon": -76.94948016666666, "bike_id": "fa1d6dbf64876c21706fe6659e7aba69", "rental_uris": {"android": "https://dc.lft.to/lastmile_qr_scan", "ios": "https://dc.lft.to/lastmile_qr_scan"}, "name": "fa1d6dbf64876c21706fe6659e7aba69", "is_reserved": 0}, {"is_disabled": 0, "fusion_lon": 0.0, "fusion_lat": 0.0, "lat": 38.91632166666667, "type": "electric_scooter", "lon": -77.0256005, "bike_id": "2452b7c8752669b7f7a5021568630165", "rental_uris": {"android": "https://dc.lft.to/lastmile_qr_scan", "ios": "https://dc.lft.to/lastmile_qr_scan"}, "name": "2452b7c8752669b7f7a5021568630165", "is_reserved": 0}, {"is_disabled": 0, "fusion_lon": 0.0, "fusion_lat": 0.0, "lat": 38.94921033333333, "type": "electric_scooter", "lon": -77.01854233333333, "bike_id": "b974c3b1d82def84bb37781cbd6e357f", "rental_uris": {"android": "https://dc.lft.to/lastmile_qr_scan", "ios": "https://dc.lft.to/lastmile_qr_scan"}, "name": "b974c3b1d82def84bb37781cbd6e357f", "is_reserved": 0}, {"is_disabled": 0, "fusion_lon": 0.0, "fusion_lat": 0.0, "lat": 38.93552066666667, "type": "electric_scooter", "lon": -77.02863516666666, "bike_id": "aff427d5b4f3a23b2e3a92554ea2e7f3", "rental_uris": {"android": "https://dc.lft.to/lastmile_qr_scan", "ios": "https://dc.lft.to/lastmile_qr_scan"}, "name": "aff427d5b4f3a23b2e3a92554ea2e7f3", "is_reserved": 0}, {"is_disabled": 0, "fusion_lon": 0.0, "fusion_lat": 0.0, "lat": 38.900279833333336, "type": "electric_scooter", "lon": -77.04392783333333, "bike_id": "88b87383408a81cba73ccf9fd1a34868", "rental_uris": {"android": "https://dc.lft.to/lastmile_qr_scan", "ios": "https://dc.lft.to/lastmile_qr_scan"}, "name": "88b87383408a81cba73ccf9fd1a34868", "is_reserved": 0}, {"is_disabled": 0, "fusion_lon": 0.0, "fusion_lat": 0.0, "lat": 38.9148445, "type": "electric_scooter", "lon": -77.03285666666666, "bike_id": "2c6c653f66db5bb14a4bf47310d338ad", "rental_uris": {"android": "https://dc.lft.to/lastmile_qr_scan", "ios": "https://dc.lft.to/lastmile_qr_scan"}, "name": "2c6c653f66db5bb14a4bf47310d338ad", "is_reserved": 0}, {"is_disabled": 0, "fusion_lon": 0.0, "fusion_lat": 0.0, "lat": 38.9056015, "type": "electric_scooter", "lon": -77.06602266666667, "bike_id": "33a7db497f48f95027836c7bd7d5e2d4", "rental_uris": {"android": "https://dc.lft.to/lastmile_qr_scan", "ios": "https://dc.lft.to/lastmile_qr_scan"}, "name": "33a7db497f48f95027836c7bd7d5e2d4", "is_reserved": 0}, {"is_disabled": 0, "fusion_lon": 0.0, "fusion_lat": 0.0, "lat": 38.90772583333333, "type": "electric_scooter", "lon": -77.03470583333333, "bike_id": "9b3d7bc9fd22c23e5111af46544e9800", "rental_uris": {"android": "https://dc.lft.to/lastmile_qr_scan", "ios": "https://dc.lft.to/lastmile_qr_scan"}, "name": "9b3d7bc9fd22c23e5111af46544e9800", "is_reserved": 0}, {"is_disabled": 0, "fusion_lon": 0.0, "fusion_lat": 0.0, "lat": 38.9028225, "type": "electric_scooter", "lon": -76.97401866666667, "bike_id": "967343dde6e1eba0a34ccf3ee34309d2", "rental_uris": {"android": "https://dc.lft.to/lastmile_qr_scan", "ios": "https://dc.lft.to/lastmile_qr_scan"}, "name": "967343dde6e1eba0a34ccf3ee34309d2", "is_reserved": 0}, {"is_disabled": 0, "fusion_lon": 0.0, "fusion_lat": 0.0, "lat": 38.926136166666666, "type": "electric_scooter", "lon": -77.02163416666667, "bike_id": "33f3748091b2b7f99f9fcbdccb320d8d", "rental_uris": {"android": "https://dc.lft.to/lastmile_qr_scan", "ios": "https://dc.lft.to/lastmile_qr_scan"}, "name": "33f3748091b2b7f99f9fcbdccb320d8d", "is_reserved": 0}, {"is_disabled": 0, "fusion_lon": 0.0, "fusion_lat": 0.0, "lat": 38.89232483333333, "type": "electric_scooter", "lon": -77.02207866666667, "bike_id": "2771801c688de094e683a7cea767fd79", "rental_uris": {"android": "https://dc.lft.to/lastmile_qr_scan", "ios": "https://dc.lft.to/lastmile_qr_scan"}, "name": "2771801c688de094e683a7cea767fd79", "is_reserved": 0}, {"is_disabled": 0, "fusion_lon": 0.0, "fusion_lat": 0.0, "lat": 38.918375, "type": "electric_scooter", "lon": -77.03939366666667, "bike_id": "b3e46da7ea08fd88100164c4b2bf14de", "rental_uris": {"android": "https://dc.lft.to/lastmile_qr_scan", "ios": "https://dc.lft.to/lastmile_qr_scan"}, "name": "b3e46da7ea08fd88100164c4b2bf14de", "is_reserved": 0}, {"is_disabled": 0, "fusion_lon": 0.0, "fusion_lat": 0.0, "lat": 38.920770833333336, "type": "electric_scooter", "lon": -77.0180655, "bike_id": "98b8a9e95e7702c1312fc2275390baad", "rental_uris": {"android": "https://dc.lft.to/lastmile_qr_scan", "ios": "https://dc.lft.to/lastmile_qr_scan"}, "name": "98b8a9e95e7702c1312fc2275390baad", "is_reserved": 0}, {"is_disabled": 0, "fusion_lon": 0.0, "fusion_lat": 0.0, "lat": 38.9011485, "type": "electric_scooter", "lon": -77.0174495, "bike_id": "dda65097b05c3ae557f72a2403477a07", "rental_uris": {"android": "https://dc.lft.to/lastmile_qr_scan", "ios": "https://dc.lft.to/lastmile_qr_scan"}, "name": "dda65097b05c3ae557f72a2403477a07", "is_reserved": 0}, {"is_disabled": 0, "fusion_lon": 0.0, "fusion_lat": 0.0, "lat": 38.88972183333333, "type": "electric_scooter", "lon": -76.98746616666666, "bike_id": "71151b10bbc4bbbd1282f443e4692bdf", "rental_uris": {"android": "https://dc.lft.to/lastmile_qr_scan", "ios": "https://dc.lft.to/lastmile_qr_scan"}, "name": "71151b10bbc4bbbd1282f443e4692bdf", "is_reserved": 0}, {"is_disabled": 0, "fusion_lon": 0.0, "fusion_lat": 0.0, "lat": 38.896671166666664, "type": "electric_bike", "lon": -77.03213216666667, "bike_id": "2b1339a83cd37943a97d0f90ae256468", "rental_uris": {"android": "https://dc.lft.to/lastmile_qr_scan", "ios": "https://dc.lft.to/lastmile_qr_scan"}, "name": "2b1339a83cd37943a97d0f90ae256468", "is_reserved": 0}, {"is_disabled": 0, "fusion_lon": 0.0, "fusion_lat": 0.0, "lat": 38.89722066666667, "type": "electric_scooter", "lon": -77.03355966666666, "bike_id": "09ec906459ca0597563bf978484a7eda", "rental_uris": {"android": "https://dc.lft.to/lastmile_qr_scan", "ios": "https://dc.lft.to/lastmile_qr_scan"}, "name": "09ec906459ca0597563bf978484a7eda", "is_reserved": 0}, {"is_disabled": 0, "fusion_lon": 0.0, "fusion_lat": 0.0, "lat": 38.901447, "type": "electric_scooter", "lon": -77.04332583333333, "bike_id": "b6034dc23dfcc77422952d0185d4b29d", "rental_uris": {"android": "https://dc.lft.to/lastmile_qr_scan", "ios": "https://dc.lft.to/lastmile_qr_scan"}, "name": "b6034dc23dfcc77422952d0185d4b29d", "is_reserved": 0}, {"is_disabled": 0, "fusion_lon": 0.0, "fusion_lat": 0.0, "lat": 38.8956515, "type": "electric_bike", "lon": -76.9761935, "bike_id": "3affa5e4bba9df48edb8b44f936f5951", "rental_uris": {"android": "https://dc.lft.to/lastmile_qr_scan", "ios": "https://dc.lft.to/lastmile_qr_scan"}, "name": "3affa5e4bba9df48edb8b44f936f5951", "is_reserved": 0}, {"is_disabled": 0, "fusion_lon": 0.0, "fusion_lat": 0.0, "lat": 38.898843666666664, "type": "electric_scooter", "lon": -76.931592, "bike_id": "963643a6a1366fa09ba3e680029b4333", "rental_uris": {"android": "https://dc.lft.to/lastmile_qr_scan", "ios": "https://dc.lft.to/lastmile_qr_scan"}, "name": "963643a6a1366fa09ba3e680029b4333", "is_reserved": 0}, {"is_disabled": 0, "fusion_lon": 0.0, "fusion_lat": 0.0, "lat": 38.86584033333333, "type": "electric_scooter", "lon": -76.9904535, "bike_id": "4bd16f244bd75c2ee308cde5e6af4029", "rental_uris": {"android": "https://dc.lft.to/lastmile_qr_scan", "ios": "https://dc.lft.to/lastmile_qr_scan"}, "name": "4bd16f244bd75c2ee308cde5e6af4029", "is_reserved": 0}, {"is_disabled": 0, "fusion_lon": 0.0, "fusion_lat": 0.0, "lat": 38.8950655, "type": "electric_scooter", "lon": -76.94880683333334, "bike_id": "aaf6db01c19979977c3aaeed53a35609", "rental_uris": {"android": "https://dc.lft.to/lastmile_qr_scan", "ios": "https://dc.lft.to/lastmile_qr_scan"}, "name": "aaf6db01c19979977c3aaeed53a35609", "is_reserved": 0}, {"is_disabled": 0, "fusion_lon": 0.0, "fusion_lat": 0.0, "lat": 38.99935266666667, "type": "electric_bike", "lon": -77.00123266666667, "bike_id": "59a66fe497843b83ab939c7cc8cffc02", "rental_uris": {"android": "https://dc.lft.to/lastmile_qr_scan", "ios": "https://dc.lft.to/lastmile_qr_scan"}, "name": "59a66fe497843b83ab939c7cc8cffc02", "is_reserved": 0}, {"is_disabled": 0, "fusion_lon": 0.0, "fusion_lat": 0.0, "lat": 39.0959465, "type": "electric_bike", "lon": -77.147831, "bike_id": "3007fb9e016c3450cf824c12c0bf3aca", "rental_uris": {"android": "https://dc.lft.to/lastmile_qr_scan", "ios": "https://dc.lft.to/lastmile_qr_scan"}, "name": "3007fb9e016c3450cf824c12c0bf3aca", "is_reserved": 0}, {"is_disabled": 0, "fusion_lon": 0.0, "fusion_lat": 0.0, "lat": 38.88014233333333, "type": "electric_scooter", "lon": -76.931196, "bike_id": "884bb83a41128655b212591b4090b3a3", "rental_uris": {"android": "https://dc.lft.to/lastmile_qr_scan", "ios": "https://dc.lft.to/lastmile_qr_scan"}, "name": "884bb83a41128655b212591b4090b3a3", "is_reserved": 0}, {"is_disabled": 0, "fusion_lon": 0.0, "fusion_lat": 0.0, "lat": 38.90720133333333, "type": "electric_scooter", "lon": -77.01714916666667, "bike_id": "a112de9b4a2b317b0a35cb01813cdbdc", "rental_uris": {"android": "https://dc.lft.to/lastmile_qr_scan", "ios": "https://dc.lft.to/lastmile_qr_scan"}, "name": "a112de9b4a2b317b0a35cb01813cdbdc", "is_reserved": 0}, {"is_disabled": 0, "fusion_lon": 0.0, "fusion_lat": 0.0, "lat": 38.855709166666664, "type": "electric_bike", "lon": -77.10709633333333, "bike_id": "46bcd02c5d99a2cf07d132eb5ae9d8d8", "rental_uris": {"android": "https://dc.lft.to/lastmile_qr_scan", "ios": "https://dc.lft.to/lastmile_qr_scan"}, "name": "46bcd02c5d99a2cf07d132eb5ae9d8d8", "is_reserved": 0}, {"is_disabled": 0, "fusion_lon": 0.0, "fusion_lat": 0.0, "lat": 38.919382166666665, "type": "electric_scooter", "lon": -77.0813625, "bike_id": "87f2b2f60595aea5c66e6756e268edc7", "rental_uris": {"android": "https://dc.lft.to/lastmile_qr_scan", "ios": "https://dc.lft.to/lastmile_qr_scan"}, "name": "87f2b2f60595aea5c66e6756e268edc7", "is_reserved": 0}, {"is_disabled": 0, "fusion_lon": 0.0, "fusion_lat": 0.0, "lat": 38.915584, "type": "electric_scooter", "lon": -77.02050633333333, "bike_id": "f950f8875aace95b24fddcb76d67a6b6", "rental_uris": {"android": "https://dc.lft.to/lastmile_qr_scan", "ios": "https://dc.lft.to/lastmile_qr_scan"}, "name": "f950f8875aace95b24fddcb76d67a6b6", "is_reserved": 0}, {"is_disabled": 0, "fusion_lon": 0.0, "fusion_lat": 0.0, "lat": 38.912534, "type": "electric_scooter", "lon": -77.04163116666666, "bike_id": "cb497cbc7f9c25fad58a223d06cea61f", "rental_uris": {"android": "https://dc.lft.to/lastmile_qr_scan", "ios": "https://dc.lft.to/lastmile_qr_scan"}, "name": "cb497cbc7f9c25fad58a223d06cea61f", "is_reserved": 0}, {"is_disabled": 0, "fusion_lon": 0.0, "fusion_lat": 0.0, "lat": 38.9140245, "type": "electric_scooter", "lon": -77.02669883333333, "bike_id": "29dae22a051731ae6024a560cbd27842", "rental_uris": {"android": "https://dc.lft.to/lastmile_qr_scan", "ios": "https://dc.lft.to/lastmile_qr_scan"}, "name": "29dae22a051731ae6024a560cbd27842", "is_reserved": 0}, {"is_disabled": 0, "fusion_lon": 0.0, "fusion_lat": 0.0, "lat": 38.93114116666667, "type": "electric_scooter", "lon": -77.03509733333334, "bike_id": "59169dade638c2e6ea5b51c6d4a0a591", "rental_uris": {"android": "https://dc.lft.to/lastmile_qr_scan", "ios": "https://dc.lft.to/lastmile_qr_scan"}, "name": "59169dade638c2e6ea5b51c6d4a0a591", "is_reserved": 0}, {"is_disabled": 0, "fusion_lon": 0.0, "fusion_lat": 0.0, "lat": 38.92715233333333, "type": "electric_scooter", "lon": -77.040544, "bike_id": "8e27f950af67e7040464d268fc8b0d69", "rental_uris": {"android": "https://dc.lft.to/lastmile_qr_scan", "ios": "https://dc.lft.to/lastmile_qr_scan"}, "name": "8e27f950af67e7040464d268fc8b0d69", "is_reserved": 0}, {"is_disabled": 0, "fusion_lon": 0.0, "fusion_lat": 0.0, "lat": 38.919799833333336, "type": "electric_scooter", "lon": -77.02167, "bike_id": "8088f0070317452d5b861f1f0d93547d", "rental_uris": {"android": "https://dc.lft.to/lastmile_qr_scan", "ios": "https://dc.lft.to/lastmile_qr_scan"}, "name": "8088f0070317452d5b861f1f0d93547d", "is_reserved": 0}, {"is_disabled": 0, "fusion_lon": 0.0, "fusion_lat": 0.0, "lat": 38.918290666666664, "type": "electric_scooter", "lon": -77.02386016666667, "bike_id": "9d3461dfeb9d39fed5b7b7abbccb5e20", "rental_uris": {"android": "https://dc.lft.to/lastmile_qr_scan", "ios": "https://dc.lft.to/lastmile_qr_scan"}, "name": "9d3461dfeb9d39fed5b7b7abbccb5e20", "is_reserved": 0}, {"is_disabled": 0, "fusion_lon": 0.0, "fusion_lat": 0.0, "lat": 38.938609166666666, "type": "electric_scooter", "lon": -77.02652933333333, "bike_id": "16a2c1afaaed3fa13f0ce0aafa7332bc", "rental_uris": {"android": "https://dc.lft.to/lastmile_qr_scan", "ios": "https://dc.lft.to/lastmile_qr_scan"}, "name": "16a2c1afaaed3fa13f0ce0aafa7332bc", "is_reserved": 0}, {"is_disabled": 0, "fusion_lon": 0.0, "fusion_lat": 0.0, "lat": 38.9221305, "type": "electric_scooter", "lon": -77.03315566666667, "bike_id": "c1c73f748bf7c99f643620d9f4566ddb", "rental_uris": {"android": "https://dc.lft.to/lastmile_qr_scan", "ios": "https://dc.lft.to/lastmile_qr_scan"}, "name": "c1c73f748bf7c99f643620d9f4566ddb", "is_reserved": 0}, {"is_disabled": 0, "fusion_lon": 0.0, "fusion_lat": 0.0, "lat": 38.87932433333334, "type": "electric_scooter", "lon": -77.0070605, "bike_id": "a5f0344c8747ea4079cdc6c3e857301d", "rental_uris": {"android": "https://dc.lft.to/lastmile_qr_scan", "ios": "https://dc.lft.to/lastmile_qr_scan"}, "name": "a5f0344c8747ea4079cdc6c3e857301d", "is_reserved": 0}, {"is_disabled": 0, "fusion_lon": 0.0, "fusion_lat": 0.0, "lat": 38.9100505, "type": "electric_scooter", "lon": -77.04423983333334, "bike_id": "53ffcf8cf5a089d8ba46f473bf6f8498", "rental_uris": {"android": "https://dc.lft.to/lastmile_qr_scan", "ios": "https://dc.lft.to/lastmile_qr_scan"}, "name": "53ffcf8cf5a089d8ba46f473bf6f8498", "is_reserved": 0}, {"is_disabled": 0, "fusion_lon": 0.0, "fusion_lat": 0.0, "lat": 38.91719766666667, "type": "electric_scooter", "lon": -77.036643, "bike_id": "1b2a416eb51084743e3f07b4c138b8cf", "rental_uris": {"android": "https://dc.lft.to/lastmile_qr_scan", "ios": "https://dc.lft.to/lastmile_qr_scan"}, "name": "1b2a416eb51084743e3f07b4c138b8cf", "is_reserved": 0}, {"is_disabled": 0, "fusion_lon": 0.0, "fusion_lat": 0.0, "lat": 38.91708666666667, "type": "electric_scooter", "lon": -77.02315016666667, "bike_id": "554615e5b3922002c81bc040c440eb51", "rental_uris": {"android": "https://dc.lft.to/lastmile_qr_scan", "ios": "https://dc.lft.to/lastmile_qr_scan"}, "name": "554615e5b3922002c81bc040c440eb51", "is_reserved": 0}, {"is_disabled": 0, "fusion_lon": 0.0, "fusion_lat": 0.0, "lat": 38.892230833333336, "type": "electric_scooter", "lon": -77.0471215, "bike_id": "95bde4937ac70fef0066a39cf3cb1c6b", "rental_uris": {"android": "https://dc.lft.to/lastmile_qr_scan", "ios": "https://dc.lft.to/lastmile_qr_scan"}, "name": "95bde4937ac70fef0066a39cf3cb1c6b", "is_reserved": 0}, {"is_disabled": 0, "fusion_lon": 0.0, "fusion_lat": 0.0, "lat": 38.90614, "type": "electric_bike", "lon": -77.07626033333334, "bike_id": "6ffa70935f5cb7bd8b74f82934339035", "rental_uris": {"android": "https://dc.lft.to/lastmile_qr_scan", "ios": "https://dc.lft.to/lastmile_qr_scan"}, "name": "6ffa70935f5cb7bd8b74f82934339035", "is_reserved": 0}, {"is_disabled": 0, "fusion_lon": 0.0, "fusion_lat": 0.0, "lat": 38.921148333333335, "type": "electric_scooter", "lon": -77.017414, "bike_id": "9aee61f172d8ea697d2069d3bc165689", "rental_uris": {"android": "https://dc.lft.to/lastmile_qr_scan", "ios": "https://dc.lft.to/lastmile_qr_scan"}, "name": "9aee61f172d8ea697d2069d3bc165689", "is_reserved": 0}, {"is_disabled": 0, "fusion_lon": 0.0, "fusion_lat": 0.0, "lat": 38.90051366666667, "type": "electric_scooter", "lon": -77.00793983333334, "bike_id": "f1458359750d05d5d3de8b61cf34966a", "rental_uris": {"android": "https://dc.lft.to/lastmile_qr_scan", "ios": "https://dc.lft.to/lastmile_qr_scan"}, "name": "f1458359750d05d5d3de8b61cf34966a", "is_reserved": 0}, {"is_disabled": 0, "fusion_lon": 0.0, "fusion_lat": 0.0, "lat": 38.906898, "type": "electric_scooter", "lon": -77.02388516666667, "bike_id": "bb9083a00e146992ac9047a54888ca1a", "rental_uris": {"android": "https://dc.lft.to/lastmile_qr_scan", "ios": "https://dc.lft.to/lastmile_qr_scan"}, "name": "bb9083a00e146992ac9047a54888ca1a", "is_reserved": 0}, {"is_disabled": 0, "fusion_lon": 0.0, "fusion_lat": 0.0, "lat": 38.899752666666664, "type": "electric_scooter", "lon": -77.023199, "bike_id": "9d01b1ab596960be40d40500397851f1", "rental_uris": {"android": "https://dc.lft.to/lastmile_qr_scan", "ios": "https://dc.lft.to/lastmile_qr_scan"}, "name": "9d01b1ab596960be40d40500397851f1", "is_reserved": 0}, {"is_disabled": 0, "fusion_lon": 0.0, "fusion_lat": 0.0, "lat": 38.921127166666665, "type": "electric_scooter", "lon": -77.03006983333333, "bike_id": "5663cb8ffd42875bd6d54164a6bd16cc", "rental_uris": {"android": "https://dc.lft.to/lastmile_qr_scan", "ios": "https://dc.lft.to/lastmile_qr_scan"}, "name": "5663cb8ffd42875bd6d54164a6bd16cc", "is_reserved": 0}, {"is_disabled": 0, "fusion_lon": 0.0, "fusion_lat": 0.0, "lat": 38.927452833333334, "type": "electric_scooter", "lon": -77.032708, "bike_id": "074347e593b4cf531cc51ea201e3c511", "rental_uris": {"android": "https://dc.lft.to/lastmile_qr_scan", "ios": "https://dc.lft.to/lastmile_qr_scan"}, "name": "074347e593b4cf531cc51ea201e3c511", "is_reserved": 0}, {"is_disabled": 0, "fusion_lon": 0.0, "fusion_lat": 0.0, "lat": 38.90566183333333, "type": "electric_scooter", "lon": -77.00533766666666, "bike_id": "13f7da214d90e903336fa666e6764f98", "rental_uris": {"android": "https://dc.lft.to/lastmile_qr_scan", "ios": "https://dc.lft.to/lastmile_qr_scan"}, "name": "13f7da214d90e903336fa666e6764f98", "is_reserved": 0}, {"is_disabled": 0, "fusion_lon": 0.0, "fusion_lat": 0.0, "lat": 38.92602333333333, "type": "electric_scooter", "lon": -77.02159883333333, "bike_id": "e939b967d9e25b9c6b642c309daf8416", "rental_uris": {"android": "https://dc.lft.to/lastmile_qr_scan", "ios": "https://dc.lft.to/lastmile_qr_scan"}, "name": "e939b967d9e25b9c6b642c309daf8416", "is_reserved": 0}, {"is_disabled": 0, "fusion_lon": 0.0, "fusion_lat": 0.0, "lat": 38.9221785, "type": "electric_scooter", "lon": -77.03457066666667, "bike_id": "c8a4d4371712db5dbb33193e6de65384", "rental_uris": {"android": "https://dc.lft.to/lastmile_qr_scan", "ios": "https://dc.lft.to/lastmile_qr_scan"}, "name": "c8a4d4371712db5dbb33193e6de65384", "is_reserved": 0}, {"is_disabled": 0, "fusion_lon": 0.0, "fusion_lat": 0.0, "lat": 38.903301, "type": "electric_scooter", "lon": -77.03849633333333, "bike_id": "0b4b4e08552adaf85417999ed70ebc7b", "rental_uris": {"android": "https://dc.lft.to/lastmile_qr_scan", "ios": "https://dc.lft.to/lastmile_qr_scan"}, "name": "0b4b4e08552adaf85417999ed70ebc7b", "is_reserved": 0}, {"is_disabled": 0, "fusion_lon": 0.0, "fusion_lat": 0.0, "lat": 38.908932, "type": "electric_scooter", "lon": -77.04346833333334, "bike_id": "09b21359a1e7b30542bca60dfb585b2d", "rental_uris": {"android": "https://dc.lft.to/lastmile_qr_scan", "ios": "https://dc.lft.to/lastmile_qr_scan"}, "name": "09b21359a1e7b30542bca60dfb585b2d", "is_reserved": 0}, {"is_disabled": 0, "fusion_lon": 0.0, "fusion_lat": 0.0, "lat": 38.9191285, "type": "electric_scooter", "lon": -77.03624066666667, "bike_id": "87af121248a46bfb707f4c5df0f8bcf0", "rental_uris": {"android": "https://dc.lft.to/lastmile_qr_scan", "ios": "https://dc.lft.to/lastmile_qr_scan"}, "name": "87af121248a46bfb707f4c5df0f8bcf0", "is_reserved": 0}, {"is_disabled": 0, "fusion_lon": 0.0, "fusion_lat": 0.0, "lat": 38.89746066666667, "type": "electric_scooter", "lon": -77.00982766666667, "bike_id": "dbe7f95a9a2f9957449f80e06e1bb1f1", "rental_uris": {"android": "https://dc.lft.to/lastmile_qr_scan", "ios": "https://dc.lft.to/lastmile_qr_scan"}, "name": "dbe7f95a9a2f9957449f80e06e1bb1f1", "is_reserved": 0}, {"is_disabled": 0, "fusion_lon": 0.0, "fusion_lat": 0.0, "lat": 38.88741516666666, "type": "electric_scooter", "lon": -77.02162316666667, "bike_id": "852dbe3b89571a057aff24d56a81304d", "rental_uris": {"android": "https://dc.lft.to/lastmile_qr_scan", "ios": "https://dc.lft.to/lastmile_qr_scan"}, "name": "852dbe3b89571a057aff24d56a81304d", "is_reserved": 0}, {"is_disabled": 0, "fusion_lon": 0.0, "fusion_lat": 0.0, "lat": 38.942223166666665, "type": "electric_scooter", "lon": -77.02497283333334, "bike_id": "c41f95c06f06ddfadedf537c2a86ff92", "rental_uris": {"android": "https://dc.lft.to/lastmile_qr_scan", "ios": "https://dc.lft.to/lastmile_qr_scan"}, "name": "c41f95c06f06ddfadedf537c2a86ff92", "is_reserved": 0}, {"is_disabled": 0, "fusion_lon": 0.0, "fusion_lat": 0.0, "lat": 38.902533166666664, "type": "electric_scooter", "lon": -77.04288466666667, "bike_id": "4c6d8fbf6e1195343c087af4c5a23fd4", "rental_uris": {"android": "https://dc.lft.to/lastmile_qr_scan", "ios": "https://dc.lft.to/lastmile_qr_scan"}, "name": "4c6d8fbf6e1195343c087af4c5a23fd4", "is_reserved": 0}, {"is_disabled": 0, "fusion_lon": 0.0, "fusion_lat": 0.0, "lat": 38.927533, "type": "electric_scooter", "lon": -77.00598033333333, "bike_id": "bbc6a8734cf4e4b03482a97d440e1606", "rental_uris": {"android": "https://dc.lft.to/lastmile_qr_scan", "ios": "https://dc.lft.to/lastmile_qr_scan"}, "name": "bbc6a8734cf4e4b03482a97d440e1606", "is_reserved": 0}, {"is_disabled": 0, "fusion_lon": 0.0, "fusion_lat": 0.0, "lat": 38.876384, "type": "electric_scooter", "lon": -77.003346, "bike_id": "ff644179be8353fdddc5f0ae73c55e40", "rental_uris": {"android": "https://dc.lft.to/lastmile_qr_scan", "ios": "https://dc.lft.to/lastmile_qr_scan"}, "name": "ff644179be8353fdddc5f0ae73c55e40", "is_reserved": 0}, {"is_disabled": 0, "fusion_lon": 0.0, "fusion_lat": 0.0, "lat": 38.90384533333334, "type": "electric_scooter", "lon": -76.99007366666666, "bike_id": "5c5c371df68035f36481216c2332feec", "rental_uris": {"android": "https://dc.lft.to/lastmile_qr_scan", "ios": "https://dc.lft.to/lastmile_qr_scan"}, "name": "5c5c371df68035f36481216c2332feec", "is_reserved": 0}, {"is_disabled": 0, "fusion_lon": 0.0, "fusion_lat": 0.0, "lat": 38.939614, "type": "electric_scooter", "lon": -77.03283083333334, "bike_id": "eb4e9bc40443ea4acbdaa339cd8ae8e4", "rental_uris": {"android": "https://dc.lft.to/lastmile_qr_scan", "ios": "https://dc.lft.to/lastmile_qr_scan"}, "name": "eb4e9bc40443ea4acbdaa339cd8ae8e4", "is_reserved": 0}, {"is_disabled": 0, "fusion_lon": 0.0, "fusion_lat": 0.0, "lat": 38.909619666666664, "type": "electric_scooter", "lon": -77.03840666666666, "bike_id": "0494a645552955740748b6911e757202", "rental_uris": {"android": "https://dc.lft.to/lastmile_qr_scan", "ios": "https://dc.lft.to/lastmile_qr_scan"}, "name": "0494a645552955740748b6911e757202", "is_reserved": 0}, {"is_disabled": 0, "fusion_lon": 0.0, "fusion_lat": 0.0, "lat": 38.955546166666664, "type": "electric_scooter", "lon": -77.06991266666667, "bike_id": "bd3940903f454efec9b45ad8f9f20a4b", "rental_uris": {"android": "https://dc.lft.to/lastmile_qr_scan", "ios": "https://dc.lft.to/lastmile_qr_scan"}, "name": "bd3940903f454efec9b45ad8f9f20a4b", "is_reserved": 0}, {"is_disabled": 0, "fusion_lon": 0.0, "fusion_lat": 0.0, "lat": 38.91270183333334, "type": "electric_scooter", "lon": -77.03909083333333, "bike_id": "b527eaa52ac768d3761238b31aa6b8d0", "rental_uris": {"android": "https://dc.lft.to/lastmile_qr_scan", "ios": "https://dc.lft.to/lastmile_qr_scan"}, "name": "b527eaa52ac768d3761238b31aa6b8d0", "is_reserved": 0}, {"is_disabled": 0, "fusion_lon": 0.0, "fusion_lat": 0.0, "lat": 38.912453, "type": "electric_scooter", "lon": -77.01226633333333, "bike_id": "be8be3c44ccac1d2721c6891a0b072c8", "rental_uris": {"android": "https://dc.lft.to/lastmile_qr_scan", "ios": "https://dc.lft.to/lastmile_qr_scan"}, "name": "be8be3c44ccac1d2721c6891a0b072c8", "is_reserved": 0}, {"is_disabled": 0, "fusion_lon": 0.0, "fusion_lat": 0.0, "lat": 38.9094685, "type": "electric_scooter", "lon": -77.03182083333333, "bike_id": "0aa38e6f681b5f2d9b426df57c9cc1ba", "rental_uris": {"android": "https://dc.lft.to/lastmile_qr_scan", "ios": "https://dc.lft.to/lastmile_qr_scan"}, "name": "0aa38e6f681b5f2d9b426df57c9cc1ba", "is_reserved": 0}, {"is_disabled": 0, "fusion_lon": 0.0, "fusion_lat": 0.0, "lat": 38.884294833333335, "type": "electric_scooter", "lon": -76.99805566666667, "bike_id": "96441f9ceaa620ed39cb16ab70ac6e78", "rental_uris": {"android": "https://dc.lft.to/lastmile_qr_scan", "ios": "https://dc.lft.to/lastmile_qr_scan"}, "name": "96441f9ceaa620ed39cb16ab70ac6e78", "is_reserved": 0}, {"is_disabled": 0, "fusion_lon": 0.0, "fusion_lat": 0.0, "lat": 38.876597, "type": "electric_scooter", "lon": -77.00906833333333, "bike_id": "47e738acb4f6896edeb3bc3b001b5932", "rental_uris": {"android": "https://dc.lft.to/lastmile_qr_scan", "ios": "https://dc.lft.to/lastmile_qr_scan"}, "name": "47e738acb4f6896edeb3bc3b001b5932", "is_reserved": 0}, {"is_disabled": 0, "fusion_lon": 0.0, "fusion_lat": 0.0, "lat": 38.892193166666665, "type": "electric_scooter", "lon": -77.04806666666667, "bike_id": "9afe1a23fb30b4d7a67b2d49125e0d18", "rental_uris": {"android": "https://dc.lft.to/lastmile_qr_scan", "ios": "https://dc.lft.to/lastmile_qr_scan"}, "name": "9afe1a23fb30b4d7a67b2d49125e0d18", "is_reserved": 0}, {"is_disabled": 0, "fusion_lon": 0.0, "fusion_lat": 0.0, "lat": 38.884062166666666, "type": "electric_scooter", "lon": -76.9541535, "bike_id": "137da797c5228752ecd280e131158919", "rental_uris": {"android": "https://dc.lft.to/lastmile_qr_scan", "ios": "https://dc.lft.to/lastmile_qr_scan"}, "name": "137da797c5228752ecd280e131158919", "is_reserved": 0}, {"is_disabled": 0, "fusion_lon": 0.0, "fusion_lat": 0.0, "lat": 38.906576, "type": "electric_scooter", "lon": -77.005892, "bike_id": "65604da89d5cb3d318ad691fea090a01", "rental_uris": {"android": "https://dc.lft.to/lastmile_qr_scan", "ios": "https://dc.lft.to/lastmile_qr_scan"}, "name": "65604da89d5cb3d318ad691fea090a01", "is_reserved": 0}, {"is_disabled": 0, "fusion_lon": 0.0, "fusion_lat": 0.0, "lat": 39.088453, "type": "electric_bike", "lon": -77.17804583333333, "bike_id": "9de1710afc03cf7730026bc612dfbcbc", "rental_uris": {"android": "https://dc.lft.to/lastmile_qr_scan", "ios": "https://dc.lft.to/lastmile_qr_scan"}, "name": "9de1710afc03cf7730026bc612dfbcbc", "is_reserved": 0}, {"is_disabled": 0, "fusion_lon": 0.0, "fusion_lat": 0.0, "lat": 38.877537333333336, "type": "electric_scooter", "lon": -77.00660983333333, "bike_id": "284714b5ee1722565de9c052a789f250", "rental_uris": {"android": "https://dc.lft.to/lastmile_qr_scan", "ios": "https://dc.lft.to/lastmile_qr_scan"}, "name": "284714b5ee1722565de9c052a789f250", "is_reserved": 0}, {"is_disabled": 0, "fusion_lon": 0.0, "fusion_lat": 0.0, "lat": 38.88203583333333, "type": "electric_scooter", "lon": -76.9270155, "bike_id": "6564dd58c665fe3768023b3a87a07b86", "rental_uris": {"android": "https://dc.lft.to/lastmile_qr_scan", "ios": "https://dc.lft.to/lastmile_qr_scan"}, "name": "6564dd58c665fe3768023b3a87a07b86", "is_reserved": 0}, {"is_disabled": 0, "fusion_lon": 0.0, "fusion_lat": 0.0, "lat": 38.903409833333335, "type": "electric_scooter", "lon": -76.97576383333333, "bike_id": "9d8b823c3f37c05c1de72d757ee541c1", "rental_uris": {"android": "https://dc.lft.to/lastmile_qr_scan", "ios": "https://dc.lft.to/lastmile_qr_scan"}, "name": "9d8b823c3f37c05c1de72d757ee541c1", "is_reserved": 0}, {"is_disabled": 0, "fusion_lon": 0.0, "fusion_lat": 0.0, "lat": 38.914034666666666, "type": "electric_scooter", "lon": -77.02176066666667, "bike_id": "1b7b6cb0ad703138d8071e013a53f931", "rental_uris": {"android": "https://dc.lft.to/lastmile_qr_scan", "ios": "https://dc.lft.to/lastmile_qr_scan"}, "name": "1b7b6cb0ad703138d8071e013a53f931", "is_reserved": 0}, {"is_disabled": 0, "fusion_lon": 0.0, "fusion_lat": 0.0, "lat": 38.9242615, "type": "electric_scooter", "lon": -77.04252416666667, "bike_id": "89d3600cb813bc72c6254bb85ce7c134", "rental_uris": {"android": "https://dc.lft.to/lastmile_qr_scan", "ios": "https://dc.lft.to/lastmile_qr_scan"}, "name": "89d3600cb813bc72c6254bb85ce7c134", "is_reserved": 0}, {"is_disabled": 0, "fusion_lon": 0.0, "fusion_lat": 0.0, "lat": 38.94318916666667, "type": "electric_scooter", "lon": -77.08581366666667, "bike_id": "c2be230d016b30132655b3a3407b86ad", "rental_uris": {"android": "https://dc.lft.to/lastmile_qr_scan", "ios": "https://dc.lft.to/lastmile_qr_scan"}, "name": "c2be230d016b30132655b3a3407b86ad", "is_reserved": 0}, {"is_disabled": 0, "fusion_lon": 0.0, "fusion_lat": 0.0, "lat": 38.87286233333333, "type": "electric_scooter", "lon": -77.00987266666667, "bike_id": "df1fdfe5e747fc7ee488e82739186818", "rental_uris": {"android": "https://dc.lft.to/lastmile_qr_scan", "ios": "https://dc.lft.to/lastmile_qr_scan"}, "name": "df1fdfe5e747fc7ee488e82739186818", "is_reserved": 0}, {"is_disabled": 0, "fusion_lon": 0.0, "fusion_lat": 0.0, "lat": 38.89274233333333, "type": "electric_scooter", "lon": -76.93723283333334, "bike_id": "dd5956a694faa9064cfa21af457cee35", "rental_uris": {"android": "https://dc.lft.to/lastmile_qr_scan", "ios": "https://dc.lft.to/lastmile_qr_scan"}, "name": "dd5956a694faa9064cfa21af457cee35", "is_reserved": 0}, {"is_disabled": 0, "fusion_lon": 0.0, "fusion_lat": 0.0, "lat": 38.89852283333333, "type": "electric_scooter", "lon": -77.03319733333333, "bike_id": "f1050cebe2cb7ea0f17a5967295a5ccf", "rental_uris": {"android": "https://dc.lft.to/lastmile_qr_scan", "ios": "https://dc.lft.to/lastmile_qr_scan"}, "name": "f1050cebe2cb7ea0f17a5967295a5ccf", "is_reserved": 0}, {"is_disabled": 0, "fusion_lon": 0.0, "fusion_lat": 0.0, "lat": 38.895621, "type": "electric_scooter", "lon": -77.008979, "bike_id": "5c560f985be596e859c13be827d64c38", "rental_uris": {"android": "https://dc.lft.to/lastmile_qr_scan", "ios": "https://dc.lft.to/lastmile_qr_scan"}, "name": "5c560f985be596e859c13be827d64c38", "is_reserved": 0}, {"is_disabled": 0, "fusion_lon": 0.0, "fusion_lat": 0.0, "lat": 38.9123805, "type": "electric_scooter", "lon": -77.04177833333334, "bike_id": "9d466fcd48310532a1ae0509a4b04c03", "rental_uris": {"android": "https://dc.lft.to/lastmile_qr_scan", "ios": "https://dc.lft.to/lastmile_qr_scan"}, "name": "9d466fcd48310532a1ae0509a4b04c03", "is_reserved": 0}, {"is_disabled": 0, "fusion_lon": 0.0, "fusion_lat": 0.0, "lat": 38.910874, "type": "electric_scooter", "lon": -77.023977, "bike_id": "107a689e2b73ff3ab6a198c49c023d73", "rental_uris": {"android": "https://dc.lft.to/lastmile_qr_scan", "ios": "https://dc.lft.to/lastmile_qr_scan"}, "name": "107a689e2b73ff3ab6a198c49c023d73", "is_reserved": 0}, {"is_disabled": 0, "fusion_lon": 0.0, "fusion_lat": 0.0, "lat": 38.916650833333335, "type": "electric_scooter", "lon": -77.02712283333334, "bike_id": "6f77dd748957346d8084bdb257489177", "rental_uris": {"android": "https://dc.lft.to/lastmile_qr_scan", "ios": "https://dc.lft.to/lastmile_qr_scan"}, "name": "6f77dd748957346d8084bdb257489177", "is_reserved": 0}, {"is_disabled": 0, "fusion_lon": 0.0, "fusion_lat": 0.0, "lat": 38.91002566666667, "type": "electric_scooter", "lon": -77.03746516666666, "bike_id": "1d818611f83721d6be716727a890204e", "rental_uris": {"android": "https://dc.lft.to/lastmile_qr_scan", "ios": "https://dc.lft.to/lastmile_qr_scan"}, "name": "1d818611f83721d6be716727a890204e", "is_reserved": 0}, {"is_disabled": 0, "fusion_lon": 0.0, "fusion_lat": 0.0, "lat": 38.92156416666667, "type": "electric_scooter", "lon": -77.03384716666666, "bike_id": "e05a5e238e32d5e22304ff21a236b202", "rental_uris": {"android": "https://dc.lft.to/lastmile_qr_scan", "ios": "https://dc.lft.to/lastmile_qr_scan"}, "name": "e05a5e238e32d5e22304ff21a236b202", "is_reserved": 0}, {"is_disabled": 0, "fusion_lon": 0.0, "fusion_lat": 0.0, "lat": 38.83432283333333, "type": "electric_bike", "lon": -77.1036235, "bike_id": "909ab519f6c84f893c709b1dce3e970e", "rental_uris": {"android": "https://dc.lft.to/lastmile_qr_scan", "ios": "https://dc.lft.to/lastmile_qr_scan"}, "name": "909ab519f6c84f893c709b1dce3e970e", "is_reserved": 0}, {"is_disabled": 0, "fusion_lon": 0.0, "fusion_lat": 0.0, "lat": 38.9078405, "type": "electric_scooter", "lon": -77.03445616666667, "bike_id": "e3dba51f365d0699d9f54c5e096685a1", "rental_uris": {"android": "https://dc.lft.to/lastmile_qr_scan", "ios": "https://dc.lft.to/lastmile_qr_scan"}, "name": "e3dba51f365d0699d9f54c5e096685a1", "is_reserved": 0}, {"is_disabled": 0, "fusion_lon": 0.0, "fusion_lat": 0.0, "lat": 38.91692233333333, "type": "electric_bike", "lon": -77.09165483333334, "bike_id": "6a522641215e97a18e308a41bd6adbc9", "rental_uris": {"android": "https://dc.lft.to/lastmile_qr_scan", "ios": "https://dc.lft.to/lastmile_qr_scan"}, "name": "6a522641215e97a18e308a41bd6adbc9", "is_reserved": 0}, {"is_disabled": 0, "fusion_lon": 0.0, "fusion_lat": 0.0, "lat": 38.918306333333334, "type": "electric_scooter", "lon": -77.0229755, "bike_id": "541b72c70d09ee29d07d1655604c7b1c", "rental_uris": {"android": "https://dc.lft.to/lastmile_qr_scan", "ios": "https://dc.lft.to/lastmile_qr_scan"}, "name": "541b72c70d09ee29d07d1655604c7b1c", "is_reserved": 0}, {"is_disabled": 0, "fusion_lon": 0.0, "fusion_lat": 0.0, "lat": 38.91110783333333, "type": "electric_scooter", "lon": -77.02307966666666, "bike_id": "d56082821cdb4661e4f60e3e8509e373", "rental_uris": {"android": "https://dc.lft.to/lastmile_qr_scan", "ios": "https://dc.lft.to/lastmile_qr_scan"}, "name": "d56082821cdb4661e4f60e3e8509e373", "is_reserved": 0}, {"is_disabled": 0, "fusion_lon": 0.0, "fusion_lat": 0.0, "lat": 38.90563066666667, "type": "electric_bike", "lon": -77.04553616666666, "bike_id": "8affe8d35d2d6da19f15748d144c5d89", "rental_uris": {"android": "https://dc.lft.to/lastmile_qr_scan", "ios": "https://dc.lft.to/lastmile_qr_scan"}, "name": "8affe8d35d2d6da19f15748d144c5d89", "is_reserved": 0}, {"is_disabled": 0, "fusion_lon": 0.0, "fusion_lat": 0.0, "lat": 38.91915183333333, "type": "electric_scooter", "lon": -77.036251, "bike_id": "1cea7ce44aa671b8432715a27b29ae6b", "rental_uris": {"android": "https://dc.lft.to/lastmile_qr_scan", "ios": "https://dc.lft.to/lastmile_qr_scan"}, "name": "1cea7ce44aa671b8432715a27b29ae6b", "is_reserved": 0}, {"is_disabled": 0, "fusion_lon": 0.0, "fusion_lat": 0.0, "lat": 38.879099333333336, "type": "electric_scooter", "lon": -77.00862066666667, "bike_id": "d68548244dc6b44b4afc8f4e49b5317c", "rental_uris": {"android": "https://dc.lft.to/lastmile_qr_scan", "ios": "https://dc.lft.to/lastmile_qr_scan"}, "name": "d68548244dc6b44b4afc8f4e49b5317c", "is_reserved": 0}, {"is_disabled": 0, "fusion_lon": 0.0, "fusion_lat": 0.0, "lat": 39.0078385, "type": "electric_bike", "lon": -76.99573816666667, "bike_id": "1f012780e0d3df92714e35a3719074e6", "rental_uris": {"android": "https://dc.lft.to/lastmile_qr_scan", "ios": "https://dc.lft.to/lastmile_qr_scan"}, "name": "1f012780e0d3df92714e35a3719074e6", "is_reserved": 0}, {"is_disabled": 0, "fusion_lon": 0.0, "fusion_lat": 0.0, "lat": 38.90075616666667, "type": "electric_scooter", "lon": -77.00213, "bike_id": "518166c6206207a8c32d1119308ca73e", "rental_uris": {"android": "https://dc.lft.to/lastmile_qr_scan", "ios": "https://dc.lft.to/lastmile_qr_scan"}, "name": "518166c6206207a8c32d1119308ca73e", "is_reserved": 0}, {"is_disabled": 0, "fusion_lon": 0.0, "fusion_lat": 0.0, "lat": 38.905147, "type": "electric_scooter", "lon": -76.982516, "bike_id": "ed3b56af67c7ff7f87d02a910d604560", "rental_uris": {"android": "https://dc.lft.to/lastmile_qr_scan", "ios": "https://dc.lft.to/lastmile_qr_scan"}, "name": "ed3b56af67c7ff7f87d02a910d604560", "is_reserved": 0}, {"is_disabled": 0, "fusion_lon": 0.0, "fusion_lat": 0.0, "lat": 38.94288866666667, "type": "electric_bike", "lon": -77.02804066666667, "bike_id": "7dac18dda08668b3b6c6a514ebb8d663", "rental_uris": {"android": "https://dc.lft.to/lastmile_qr_scan", "ios": "https://dc.lft.to/lastmile_qr_scan"}, "name": "7dac18dda08668b3b6c6a514ebb8d663", "is_reserved": 0}, {"is_disabled": 0, "fusion_lon": 0.0, "fusion_lat": 0.0, "lat": 38.919744666666666, "type": "electric_scooter", "lon": -77.0238195, "bike_id": "e985eb3d9886bae27665923f8883f264", "rental_uris": {"android": "https://dc.lft.to/lastmile_qr_scan", "ios": "https://dc.lft.to/lastmile_qr_scan"}, "name": "e985eb3d9886bae27665923f8883f264", "is_reserved": 0}, {"is_disabled": 0, "fusion_lon": 0.0, "fusion_lat": 0.0, "lat": 38.895191833333335, "type": "electric_scooter", "lon": -77.02289133333333, "bike_id": "f74d614d0ddfaf234f79871b1ba0f3b7", "rental_uris": {"android": "https://dc.lft.to/lastmile_qr_scan", "ios": "https://dc.lft.to/lastmile_qr_scan"}, "name": "f74d614d0ddfaf234f79871b1ba0f3b7", "is_reserved": 0}, {"is_disabled": 0, "fusion_lon": 0.0, "fusion_lat": 0.0, "lat": 38.86526216666667, "type": "electric_scooter", "lon": -76.98970116666666, "bike_id": "4b0b067bec18a8306a63c2f8a965165a", "rental_uris": {"android": "https://dc.lft.to/lastmile_qr_scan", "ios": "https://dc.lft.to/lastmile_qr_scan"}, "name": "4b0b067bec18a8306a63c2f8a965165a", "is_reserved": 0}, {"is_disabled": 0, "fusion_lon": 0.0, "fusion_lat": 0.0, "lat": 38.902126, "type": "electric_scooter", "lon": -77.04697533333334, "bike_id": "2883830429ef3ecb247f1e5f4a982683", "rental_uris": {"android": "https://dc.lft.to/lastmile_qr_scan", "ios": "https://dc.lft.to/lastmile_qr_scan"}, "name": "2883830429ef3ecb247f1e5f4a982683", "is_reserved": 0}, {"is_disabled": 0, "fusion_lon": 0.0, "fusion_lat": 0.0, "lat": 38.91189966666666, "type": "electric_scooter", "lon": -77.04158333333334, "bike_id": "ff291dd60a2af901effee7e216b63233", "rental_uris": {"android": "https://dc.lft.to/lastmile_qr_scan", "ios": "https://dc.lft.to/lastmile_qr_scan"}, "name": "ff291dd60a2af901effee7e216b63233", "is_reserved": 0}, {"is_disabled": 0, "fusion_lon": 0.0, "fusion_lat": 0.0, "lat": 38.896881, "type": "electric_scooter", "lon": -76.937081, "bike_id": "f1c496cead52c9b002a13df14b0be066", "rental_uris": {"android": "https://dc.lft.to/lastmile_qr_scan", "ios": "https://dc.lft.to/lastmile_qr_scan"}, "name": "f1c496cead52c9b002a13df14b0be066", "is_reserved": 0}, {"is_disabled": 0, "fusion_lon": 0.0, "fusion_lat": 0.0, "lat": 38.904246, "type": "electric_scooter", "lon": -77.05148916666667, "bike_id": "2734037dfdaf890010c38f5310c4979d", "rental_uris": {"android": "https://dc.lft.to/lastmile_qr_scan", "ios": "https://dc.lft.to/lastmile_qr_scan"}, "name": "2734037dfdaf890010c38f5310c4979d", "is_reserved": 0}, {"is_disabled": 0, "fusion_lon": 0.0, "fusion_lat": 0.0, "lat": 38.8964515, "type": "electric_bike", "lon": -77.03333616666667, "bike_id": "ca305b551cb7ce0c223bd0ccead83ecd", "rental_uris": {"android": "https://dc.lft.to/lastmile_qr_scan", "ios": "https://dc.lft.to/lastmile_qr_scan"}, "name": "ca305b551cb7ce0c223bd0ccead83ecd", "is_reserved": 0}, {"is_disabled": 0, "fusion_lon": 0.0, "fusion_lat": 0.0, "lat": 38.90010516666667, "type": "electric_scooter", "lon": -77.04476433333333, "bike_id": "a0e4f5c03f79995d1b7c4edff6b37885", "rental_uris": {"android": "https://dc.lft.to/lastmile_qr_scan", "ios": "https://dc.lft.to/lastmile_qr_scan"}, "name": "a0e4f5c03f79995d1b7c4edff6b37885", "is_reserved": 0}, {"is_disabled": 0, "fusion_lon": 0.0, "fusion_lat": 0.0, "lat": 38.8973985, "type": "electric_scooter", "lon": -77.00938583333334, "bike_id": "80243c71f6ec1d09db515101692d9604", "rental_uris": {"android": "https://dc.lft.to/lastmile_qr_scan", "ios": "https://dc.lft.to/lastmile_qr_scan"}, "name": "80243c71f6ec1d09db515101692d9604", "is_reserved": 0}, {"is_disabled": 0, "fusion_lon": 0.0, "fusion_lat": 0.0, "lat": 38.8849265, "type": "electric_scooter", "lon": -77.01584083333333, "bike_id": "df62f0fc59344d19c557c2702fc214a3", "rental_uris": {"android": "https://dc.lft.to/lastmile_qr_scan", "ios": "https://dc.lft.to/lastmile_qr_scan"}, "name": "df62f0fc59344d19c557c2702fc214a3", "is_reserved": 0}, {"is_disabled": 0, "fusion_lon": 0.0, "fusion_lat": 0.0, "lat": 38.9154485, "type": "electric_scooter", "lon": -77.01270933333333, "bike_id": "9180e3e6c62acc3268dcc57955cda3c8", "rental_uris": {"android": "https://dc.lft.to/lastmile_qr_scan", "ios": "https://dc.lft.to/lastmile_qr_scan"}, "name": "9180e3e6c62acc3268dcc57955cda3c8", "is_reserved": 0}, {"is_disabled": 0, "fusion_lon": 0.0, "fusion_lat": 0.0, "lat": 38.91405916666667, "type": "electric_scooter", "lon": -77.02981633333333, "bike_id": "d06370b1362811b5275f090281609032", "rental_uris": {"android": "https://dc.lft.to/lastmile_qr_scan", "ios": "https://dc.lft.to/lastmile_qr_scan"}, "name": "d06370b1362811b5275f090281609032", "is_reserved": 0}, {"is_disabled": 0, "fusion_lon": 0.0, "fusion_lat": 0.0, "lat": 38.89839966666667, "type": "electric_scooter", "lon": -76.94497866666667, "bike_id": "0e1c234bca2c810f6a7133e9543a545c", "rental_uris": {"android": "https://dc.lft.to/lastmile_qr_scan", "ios": "https://dc.lft.to/lastmile_qr_scan"}, "name": "0e1c234bca2c810f6a7133e9543a545c", "is_reserved": 0}, {"is_disabled": 0, "fusion_lon": 0.0, "fusion_lat": 0.0, "lat": 39.022966, "type": "electric_bike", "lon": -77.02111783333334, "bike_id": "00f1351a3f5ff64495bfb51121187c04", "rental_uris": {"android": "https://dc.lft.to/lastmile_qr_scan", "ios": "https://dc.lft.to/lastmile_qr_scan"}, "name": "00f1351a3f5ff64495bfb51121187c04", "is_reserved": 0}, {"is_disabled": 0, "fusion_lon": 0.0, "fusion_lat": 0.0, "lat": 38.93557, "type": "electric_scooter", "lon": -77.05905966666667, "bike_id": "b9e1e737136e4be46f6895b08776e841", "rental_uris": {"android": "https://dc.lft.to/lastmile_qr_scan", "ios": "https://dc.lft.to/lastmile_qr_scan"}, "name": "b9e1e737136e4be46f6895b08776e841", "is_reserved": 0}, {"is_disabled": 0, "fusion_lon": 0.0, "fusion_lat": 0.0, "lat": 38.906878666666664, "type": "electric_scooter", "lon": -77.05792466666666, "bike_id": "bae380e05f4062fa53a0d31e8a215ef8", "rental_uris": {"android": "https://dc.lft.to/lastmile_qr_scan", "ios": "https://dc.lft.to/lastmile_qr_scan"}, "name": "bae380e05f4062fa53a0d31e8a215ef8", "is_reserved": 0}, {"is_disabled": 0, "fusion_lon": 0.0, "fusion_lat": 0.0, "lat": 38.908439666666666, "type": "electric_scooter", "lon": -77.02949583333333, "bike_id": "a3079b0f4f5527bfce5e98168f095910", "rental_uris": {"android": "https://dc.lft.to/lastmile_qr_scan", "ios": "https://dc.lft.to/lastmile_qr_scan"}, "name": "a3079b0f4f5527bfce5e98168f095910", "is_reserved": 0}, {"is_disabled": 0, "fusion_lon": 0.0, "fusion_lat": 0.0, "lat": 38.932770166666664, "type": "electric_scooter", "lon": -77.03983666666667, "bike_id": "fd35ffcebc11a7cf481ace28f1719430", "rental_uris": {"android": "https://dc.lft.to/lastmile_qr_scan", "ios": "https://dc.lft.to/lastmile_qr_scan"}, "name": "fd35ffcebc11a7cf481ace28f1719430", "is_reserved": 0}, {"is_disabled": 0, "fusion_lon": 0.0, "fusion_lat": 0.0, "lat": 38.92653516666667, "type": "electric_scooter", "lon": -77.03721033333333, "bike_id": "f1905b69a6211b6e22d137a0b75e7e94", "rental_uris": {"android": "https://dc.lft.to/lastmile_qr_scan", "ios": "https://dc.lft.to/lastmile_qr_scan"}, "name": "f1905b69a6211b6e22d137a0b75e7e94", "is_reserved": 0}, {"is_disabled": 0, "fusion_lon": 0.0, "fusion_lat": 0.0, "lat": 38.941817666666665, "type": "electric_scooter", "lon": -77.03320383333333, "bike_id": "87233917436ba349d0bd03da940e2d7f", "rental_uris": {"android": "https://dc.lft.to/lastmile_qr_scan", "ios": "https://dc.lft.to/lastmile_qr_scan"}, "name": "87233917436ba349d0bd03da940e2d7f", "is_reserved": 0}, {"is_disabled": 0, "fusion_lon": 0.0, "fusion_lat": 0.0, "lat": 38.91277783333334, "type": "electric_scooter", "lon": -77.02243383333334, "bike_id": "f049dac66c0cdeca025c37bb06449a9e", "rental_uris": {"android": "https://dc.lft.to/lastmile_qr_scan", "ios": "https://dc.lft.to/lastmile_qr_scan"}, "name": "f049dac66c0cdeca025c37bb06449a9e", "is_reserved": 0}, {"is_disabled": 0, "fusion_lon": 0.0, "fusion_lat": 0.0, "lat": 38.907785833333335, "type": "electric_scooter", "lon": -77.03477216666667, "bike_id": "e9a5c81bac5c681de02e054b67543502", "rental_uris": {"android": "https://dc.lft.to/lastmile_qr_scan", "ios": "https://dc.lft.to/lastmile_qr_scan"}, "name": "e9a5c81bac5c681de02e054b67543502", "is_reserved": 0}, {"is_disabled": 0, "fusion_lon": 0.0, "fusion_lat": 0.0, "lat": 38.902632, "type": "electric_scooter", "lon": -77.021445, "bike_id": "6053efd836346959d1ad089397a322ec", "rental_uris": {"android": "https://dc.lft.to/lastmile_qr_scan", "ios": "https://dc.lft.to/lastmile_qr_scan"}, "name": "6053efd836346959d1ad089397a322ec", "is_reserved": 0}, {"is_disabled": 0, "fusion_lon": 0.0, "fusion_lat": 0.0, "lat": 38.955555333333336, "type": "electric_bike", "lon": -76.93544533333333, "bike_id": "3764576c7672e81515e9f4e183c78187", "rental_uris": {"android": "https://dc.lft.to/lastmile_qr_scan", "ios": "https://dc.lft.to/lastmile_qr_scan"}, "name": "3764576c7672e81515e9f4e183c78187", "is_reserved": 0}, {"is_disabled": 0, "fusion_lon": 0.0, "fusion_lat": 0.0, "lat": 38.909393, "type": "electric_scooter", "lon": -77.05366083333334, "bike_id": "640b11cb0b20663de41d39d3fd5f2d45", "rental_uris": {"android": "https://dc.lft.to/lastmile_qr_scan", "ios": "https://dc.lft.to/lastmile_qr_scan"}, "name": "640b11cb0b20663de41d39d3fd5f2d45", "is_reserved": 0}, {"is_disabled": 0, "fusion_lon": 0.0, "fusion_lat": 0.0, "lat": 38.935508666666664, "type": "electric_scooter", "lon": -77.02219516666666, "bike_id": "f7b1db92f67c414ee05d956da82ccd63", "rental_uris": {"android": "https://dc.lft.to/lastmile_qr_scan", "ios": "https://dc.lft.to/lastmile_qr_scan"}, "name": "f7b1db92f67c414ee05d956da82ccd63", "is_reserved": 0}, {"is_disabled": 0, "fusion_lon": 0.0, "fusion_lat": 0.0, "lat": 38.91088466666667, "type": "electric_scooter", "lon": -77.022033, "bike_id": "51764175ff15f47eeb8786d4fc0b72f8", "rental_uris": {"android": "https://dc.lft.to/lastmile_qr_scan", "ios": "https://dc.lft.to/lastmile_qr_scan"}, "name": "51764175ff15f47eeb8786d4fc0b72f8", "is_reserved": 0}, {"is_disabled": 0, "fusion_lon": 0.0, "fusion_lat": 0.0, "lat": 38.8286985, "type": "electric_bike", "lon": -77.112263, "bike_id": "456403c3e1d81a007704462bfc43345d", "rental_uris": {"android": "https://dc.lft.to/lastmile_qr_scan", "ios": "https://dc.lft.to/lastmile_qr_scan"}, "name": "456403c3e1d81a007704462bfc43345d", "is_reserved": 0}, {"is_disabled": 0, "fusion_lon": 0.0, "fusion_lat": 0.0, "lat": 38.898480666666664, "type": "electric_scooter", "lon": -76.99034466666667, "bike_id": "1305102303ba161e82f4fb37f121fccd", "rental_uris": {"android": "https://dc.lft.to/lastmile_qr_scan", "ios": "https://dc.lft.to/lastmile_qr_scan"}, "name": "1305102303ba161e82f4fb37f121fccd", "is_reserved": 0}, {"is_disabled": 0, "fusion_lon": 0.0, "fusion_lat": 0.0, "lat": 38.8867985, "type": "electric_scooter", "lon": -77.00176116666667, "bike_id": "c0f65e1110e0c6363fc07abe17cc9478", "rental_uris": {"android": "https://dc.lft.to/lastmile_qr_scan", "ios": "https://dc.lft.to/lastmile_qr_scan"}, "name": "c0f65e1110e0c6363fc07abe17cc9478", "is_reserved": 0}, {"is_disabled": 0, "fusion_lon": 0.0, "fusion_lat": 0.0, "lat": 38.907269666666664, "type": "electric_scooter", "lon": -77.04574866666667, "bike_id": "22d9b49fd601d8c00b64eb8392ac3538", "rental_uris": {"android": "https://dc.lft.to/lastmile_qr_scan", "ios": "https://dc.lft.to/lastmile_qr_scan"}, "name": "22d9b49fd601d8c00b64eb8392ac3538", "is_reserved": 0}, {"is_disabled": 0, "fusion_lon": 0.0, "fusion_lat": 0.0, "lat": 38.922815, "type": "electric_scooter", "lon": -77.07299283333333, "bike_id": "d054f35feb4d866eaf2a03cce9eb54c5", "rental_uris": {"android": "https://dc.lft.to/lastmile_qr_scan", "ios": "https://dc.lft.to/lastmile_qr_scan"}, "name": "d054f35feb4d866eaf2a03cce9eb54c5", "is_reserved": 0}, {"is_disabled": 0, "fusion_lon": 0.0, "fusion_lat": 0.0, "lat": 38.89014266666667, "type": "electric_scooter", "lon": -76.93738033333334, "bike_id": "060c3ffec8da8317d3652efaacb83cb4", "rental_uris": {"android": "https://dc.lft.to/lastmile_qr_scan", "ios": "https://dc.lft.to/lastmile_qr_scan"}, "name": "060c3ffec8da8317d3652efaacb83cb4", "is_reserved": 0}, {"is_disabled": 0, "fusion_lon": 0.0, "fusion_lat": 0.0, "lat": 38.918949833333336, "type": "electric_scooter", "lon": -77.0446705, "bike_id": "637d4b66e970ee5dc2d682c9834637fa", "rental_uris": {"android": "https://dc.lft.to/lastmile_qr_scan", "ios": "https://dc.lft.to/lastmile_qr_scan"}, "name": "637d4b66e970ee5dc2d682c9834637fa", "is_reserved": 0}, {"is_disabled": 0, "fusion_lon": 0.0, "fusion_lat": 0.0, "lat": 38.918789333333336, "type": "electric_scooter", "lon": -77.0431225, "bike_id": "ed8e4f3a80d2e103204b0d7666f48fb0", "rental_uris": {"android": "https://dc.lft.to/lastmile_qr_scan", "ios": "https://dc.lft.to/lastmile_qr_scan"}, "name": "ed8e4f3a80d2e103204b0d7666f48fb0", "is_reserved": 0}, {"is_disabled": 0, "fusion_lon": 0.0, "fusion_lat": 0.0, "lat": 38.874699666666665, "type": "electric_scooter", "lon": -77.01588733333334, "bike_id": "b90e8ff764827456aed91e1d46e25a5a", "rental_uris": {"android": "https://dc.lft.to/lastmile_qr_scan", "ios": "https://dc.lft.to/lastmile_qr_scan"}, "name": "b90e8ff764827456aed91e1d46e25a5a", "is_reserved": 0}, {"is_disabled": 0, "fusion_lon": 0.0, "fusion_lat": 0.0, "lat": 38.9192795, "type": "electric_scooter", "lon": -77.0315535, "bike_id": "4518211ab6470d980eb2c02c210be6ad", "rental_uris": {"android": "https://dc.lft.to/lastmile_qr_scan", "ios": "https://dc.lft.to/lastmile_qr_scan"}, "name": "4518211ab6470d980eb2c02c210be6ad", "is_reserved": 0}, {"is_disabled": 0, "fusion_lon": 0.0, "fusion_lat": 0.0, "lat": 38.926924166666666, "type": "electric_bike", "lon": -77.06123833333334, "bike_id": "5b8fb280fa8a5b29025f0b626f19e261", "rental_uris": {"android": "https://dc.lft.to/lastmile_qr_scan", "ios": "https://dc.lft.to/lastmile_qr_scan"}, "name": "5b8fb280fa8a5b29025f0b626f19e261", "is_reserved": 0}, {"is_disabled": 0, "fusion_lon": 0.0, "fusion_lat": 0.0, "lat": 38.944961166666666, "type": "electric_bike", "lon": -76.98662533333334, "bike_id": "c83cc77ea1a09402562957681d980bbf", "rental_uris": {"android": "https://dc.lft.to/lastmile_qr_scan", "ios": "https://dc.lft.to/lastmile_qr_scan"}, "name": "c83cc77ea1a09402562957681d980bbf", "is_reserved": 0}, {"is_disabled": 0, "fusion_lon": 0.0, "fusion_lat": 0.0, "lat": 38.8837045, "type": "electric_scooter", "lon": -76.92643683333333, "bike_id": "3e78fd93a216f3f979c54033fc0720b9", "rental_uris": {"android": "https://dc.lft.to/lastmile_qr_scan", "ios": "https://dc.lft.to/lastmile_qr_scan"}, "name": "3e78fd93a216f3f979c54033fc0720b9", "is_reserved": 0}, {"is_disabled": 0, "fusion_lon": 0.0, "fusion_lat": 0.0, "lat": 38.95295266666667, "type": "electric_scooter", "lon": -77.03627233333333, "bike_id": "965450b81efc4458cf62fba6390e1d29", "rental_uris": {"android": "https://dc.lft.to/lastmile_qr_scan", "ios": "https://dc.lft.to/lastmile_qr_scan"}, "name": "965450b81efc4458cf62fba6390e1d29", "is_reserved": 0}, {"is_disabled": 0, "fusion_lon": 0.0, "fusion_lat": 0.0, "lat": 38.950414333333335, "type": "electric_bike", "lon": -77.01259816666666, "bike_id": "8337e06377d933da959b17d5bbd84f62", "rental_uris": {"android": "https://dc.lft.to/lastmile_qr_scan", "ios": "https://dc.lft.to/lastmile_qr_scan"}, "name": "8337e06377d933da959b17d5bbd84f62", "is_reserved": 0}, {"is_disabled": 0, "fusion_lon": 0.0, "fusion_lat": 0.0, "lat": 38.921494, "type": "electric_scooter", "lon": -77.04291933333333, "bike_id": "d4c2d25b1cad0d1b73fceaeca42abacd", "rental_uris": {"android": "https://dc.lft.to/lastmile_qr_scan", "ios": "https://dc.lft.to/lastmile_qr_scan"}, "name": "d4c2d25b1cad0d1b73fceaeca42abacd", "is_reserved": 0}, {"is_disabled": 0, "fusion_lon": 0.0, "fusion_lat": 0.0, "lat": 38.915589, "type": "electric_scooter", "lon": -77.03880133333334, "bike_id": "3f90e04f7c945a35251b81965d7ce894", "rental_uris": {"android": "https://dc.lft.to/lastmile_qr_scan", "ios": "https://dc.lft.to/lastmile_qr_scan"}, "name": "3f90e04f7c945a35251b81965d7ce894", "is_reserved": 0}, {"is_disabled": 0, "fusion_lon": 0.0, "fusion_lat": 0.0, "lat": 38.89815433333333, "type": "electric_scooter", "lon": -77.02466116666666, "bike_id": "4d0572ff49b91df4c1cc7d3dbd43f7cf", "rental_uris": {"android": "https://dc.lft.to/lastmile_qr_scan", "ios": "https://dc.lft.to/lastmile_qr_scan"}, "name": "4d0572ff49b91df4c1cc7d3dbd43f7cf", "is_reserved": 0}, {"is_disabled": 0, "fusion_lon": 0.0, "fusion_lat": 0.0, "lat": 38.92247733333333, "type": "electric_scooter", "lon": -77.0427545, "bike_id": "bdd48ef07501104212fc7f87b89d7135", "rental_uris": {"android": "https://dc.lft.to/lastmile_qr_scan", "ios": "https://dc.lft.to/lastmile_qr_scan"}, "name": "bdd48ef07501104212fc7f87b89d7135", "is_reserved": 0}, {"is_disabled": 0, "fusion_lon": 0.0, "fusion_lat": 0.0, "lat": 38.91882183333333, "type": "electric_scooter", "lon": -77.01591216666667, "bike_id": "9385d53d496750c23ac9cdf5b3085dff", "rental_uris": {"android": "https://dc.lft.to/lastmile_qr_scan", "ios": "https://dc.lft.to/lastmile_qr_scan"}, "name": "9385d53d496750c23ac9cdf5b3085dff", "is_reserved": 0}, {"is_disabled": 0, "fusion_lon": 0.0, "fusion_lat": 0.0, "lat": 38.912691333333335, "type": "electric_scooter", "lon": -77.0416515, "bike_id": "422356d633c6a002b99b6109a2129fda", "rental_uris": {"android": "https://dc.lft.to/lastmile_qr_scan", "ios": "https://dc.lft.to/lastmile_qr_scan"}, "name": "422356d633c6a002b99b6109a2129fda", "is_reserved": 0}, {"is_disabled": 0, "fusion_lon": 0.0, "fusion_lat": 0.0, "lat": 38.90096366666667, "type": "electric_scooter", "lon": -77.049979, "bike_id": "1a205f5d02efddbae7c2175cfcae0f7f", "rental_uris": {"android": "https://dc.lft.to/lastmile_qr_scan", "ios": "https://dc.lft.to/lastmile_qr_scan"}, "name": "1a205f5d02efddbae7c2175cfcae0f7f", "is_reserved": 0}, {"is_disabled": 0, "fusion_lon": 0.0, "fusion_lat": 0.0, "lat": 38.890150166666665, "type": "electric_scooter", "lon": -76.9373275, "bike_id": "440493382e1ba3e8047420df1094e5f0", "rental_uris": {"android": "https://dc.lft.to/lastmile_qr_scan", "ios": "https://dc.lft.to/lastmile_qr_scan"}, "name": "440493382e1ba3e8047420df1094e5f0", "is_reserved": 0}, {"is_disabled": 0, "fusion_lon": 0.0, "fusion_lat": 0.0, "lat": 38.94174916666667, "type": "electric_scooter", "lon": -77.02540083333334, "bike_id": "8537c748c7827815bc140cc14b93fd7e", "rental_uris": {"android": "https://dc.lft.to/lastmile_qr_scan", "ios": "https://dc.lft.to/lastmile_qr_scan"}, "name": "8537c748c7827815bc140cc14b93fd7e", "is_reserved": 0}, {"is_disabled": 0, "fusion_lon": 0.0, "fusion_lat": 0.0, "lat": 38.9925105, "type": "electric_bike", "lon": -77.04996683333333, "bike_id": "fb24d8057739aaa1e31fdcc4f0f5127f", "rental_uris": {"android": "https://dc.lft.to/lastmile_qr_scan", "ios": "https://dc.lft.to/lastmile_qr_scan"}, "name": "fb24d8057739aaa1e31fdcc4f0f5127f", "is_reserved": 0}, {"is_disabled": 0, "fusion_lon": 0.0, "fusion_lat": 0.0, "lat": 38.931863166666666, "type": "electric_bike", "lon": -77.229408, "bike_id": "922f38479e2f1122f2dd2afbfe23b79d", "rental_uris": {"android": "https://dc.lft.to/lastmile_qr_scan", "ios": "https://dc.lft.to/lastmile_qr_scan"}, "name": "922f38479e2f1122f2dd2afbfe23b79d", "is_reserved": 0}, {"is_disabled": 0, "fusion_lon": 0.0, "fusion_lat": 0.0, "lat": 39.006569666666664, "type": "electric_bike", "lon": -76.90028649999999, "bike_id": "04f4eeecae471566cd704084c7b70881", "rental_uris": {"android": "https://dc.lft.to/lastmile_qr_scan", "ios": "https://dc.lft.to/lastmile_qr_scan"}, "name": "04f4eeecae471566cd704084c7b70881", "is_reserved": 0}, {"is_disabled": 0, "fusion_lon": 0.0, "fusion_lat": 0.0, "lat": 38.9227315, "type": "electric_scooter", "lon": -77.04128433333334, "bike_id": "7f9c09aa96bccdb376f6b48290457411", "rental_uris": {"android": "https://dc.lft.to/lastmile_qr_scan", "ios": "https://dc.lft.to/lastmile_qr_scan"}, "name": "7f9c09aa96bccdb376f6b48290457411", "is_reserved": 0}, {"is_disabled": 0, "fusion_lon": 0.0, "fusion_lat": 0.0, "lat": 38.962858833333335, "type": "electric_bike", "lon": -77.028725, "bike_id": "04808b7379f67e96be2b6203edb36223", "rental_uris": {"android": "https://dc.lft.to/lastmile_qr_scan", "ios": "https://dc.lft.to/lastmile_qr_scan"}, "name": "04808b7379f67e96be2b6203edb36223", "is_reserved": 0}, {"is_disabled": 0, "fusion_lon": 0.0, "fusion_lat": 0.0, "lat": 38.8478455, "type": "electric_scooter", "lon": -76.99935366666666, "bike_id": "9396f62471478c8f58d041a5a622d27f", "rental_uris": {"android": "https://dc.lft.to/lastmile_qr_scan", "ios": "https://dc.lft.to/lastmile_qr_scan"}, "name": "9396f62471478c8f58d041a5a622d27f", "is_reserved": 0}, {"is_disabled": 0, "fusion_lon": 0.0, "fusion_lat": 0.0, "lat": 38.93640833333333, "type": "electric_bike", "lon": -76.95454733333334, "bike_id": "f8f037eccfe801545a0efd9d22441e39", "rental_uris": {"android": "https://dc.lft.to/lastmile_qr_scan", "ios": "https://dc.lft.to/lastmile_qr_scan"}, "name": "f8f037eccfe801545a0efd9d22441e39", "is_reserved": 0}, {"is_disabled": 0, "fusion_lon": 0.0, "fusion_lat": 0.0, "lat": 38.910640666666666, "type": "electric_scooter", "lon": -77.054441, "bike_id": "8c385c5b68cd9bcbe17aa90ae13524d6", "rental_uris": {"android": "https://dc.lft.to/lastmile_qr_scan", "ios": "https://dc.lft.to/lastmile_qr_scan"}, "name": "8c385c5b68cd9bcbe17aa90ae13524d6", "is_reserved": 0}, {"is_disabled": 0, "fusion_lon": 0.0, "fusion_lat": 0.0, "lat": 38.876408, "type": "electric_scooter", "lon": -77.003837, "bike_id": "64c983cee605dd7543a303f249df157c", "rental_uris": {"android": "https://dc.lft.to/lastmile_qr_scan", "ios": "https://dc.lft.to/lastmile_qr_scan"}, "name": "64c983cee605dd7543a303f249df157c", "is_reserved": 0}, {"is_disabled": 0, "fusion_lon": 0.0, "fusion_lat": 0.0, "lat": 38.89900016666667, "type": "electric_scooter", "lon": -76.93195866666667, "bike_id": "13d80cbe200f5b82dcef9106404ddead", "rental_uris": {"android": "https://dc.lft.to/lastmile_qr_scan", "ios": "https://dc.lft.to/lastmile_qr_scan"}, "name": "13d80cbe200f5b82dcef9106404ddead", "is_reserved": 0}, {"is_disabled": 0, "fusion_lon": 0.0, "fusion_lat": 0.0, "lat": 38.934607666666665, "type": "electric_scooter", "lon": -77.03277433333334, "bike_id": "41ffcdf544b489362d4d5ed1a6f7646e", "rental_uris": {"android": "https://dc.lft.to/lastmile_qr_scan", "ios": "https://dc.lft.to/lastmile_qr_scan"}, "name": "41ffcdf544b489362d4d5ed1a6f7646e", "is_reserved": 0}, {"is_disabled": 0, "fusion_lon": 0.0, "fusion_lat": 0.0, "lat": 38.945569166666665, "type": "electric_bike", "lon": -76.98743166666667, "bike_id": "0eebfc81f96e0204191266d138024462", "rental_uris": {"android": "https://dc.lft.to/lastmile_qr_scan", "ios": "https://dc.lft.to/lastmile_qr_scan"}, "name": "0eebfc81f96e0204191266d138024462", "is_reserved": 0}, {"is_disabled": 0, "fusion_lon": 0.0, "fusion_lat": 0.0, "lat": 38.906265833333336, "type": "electric_scooter", "lon": -77.02186633333334, "bike_id": "61f68da3f4c0823e978a3d1ace5c6361", "rental_uris": {"android": "https://dc.lft.to/lastmile_qr_scan", "ios": "https://dc.lft.to/lastmile_qr_scan"}, "name": "61f68da3f4c0823e978a3d1ace5c6361", "is_reserved": 0}, {"is_disabled": 0, "fusion_lon": 0.0, "fusion_lat": 0.0, "lat": 38.9127075, "type": "electric_scooter", "lon": -77.05154866666666, "bike_id": "67890cde59416acb70ff291e582b17c8", "rental_uris": {"android": "https://dc.lft.to/lastmile_qr_scan", "ios": "https://dc.lft.to/lastmile_qr_scan"}, "name": "67890cde59416acb70ff291e582b17c8", "is_reserved": 0}, {"is_disabled": 0, "fusion_lon": 0.0, "fusion_lat": 0.0, "lat": 38.83290483333333, "type": "electric_scooter", "lon": -77.00825333333333, "bike_id": "0c722f34d23011232e9091e774db6ad5", "rental_uris": {"android": "https://dc.lft.to/lastmile_qr_scan", "ios": "https://dc.lft.to/lastmile_qr_scan"}, "name": "0c722f34d23011232e9091e774db6ad5", "is_reserved": 0}, {"is_disabled": 0, "fusion_lon": 0.0, "fusion_lat": 0.0, "lat": 38.90784566666667, "type": "electric_scooter", "lon": -77.0723255, "bike_id": "35698175d5203c19dfeaa129734be9be", "rental_uris": {"android": "https://dc.lft.to/lastmile_qr_scan", "ios": "https://dc.lft.to/lastmile_qr_scan"}, "name": "35698175d5203c19dfeaa129734be9be", "is_reserved": 0}, {"is_disabled": 0, "fusion_lon": 0.0, "fusion_lat": 0.0, "lat": 38.918955, "type": "electric_scooter", "lon": -77.04024283333334, "bike_id": "aa0c9c16f3ab6ebef8eda71a5df40e99", "rental_uris": {"android": "https://dc.lft.to/lastmile_qr_scan", "ios": "https://dc.lft.to/lastmile_qr_scan"}, "name": "aa0c9c16f3ab6ebef8eda71a5df40e99", "is_reserved": 0}, {"is_disabled": 0, "fusion_lon": 0.0, "fusion_lat": 0.0, "lat": 38.865755, "type": "electric_scooter", "lon": -76.98950983333333, "bike_id": "3d736b573533ce49f6cb88ff7989d5ed", "rental_uris": {"android": "https://dc.lft.to/lastmile_qr_scan", "ios": "https://dc.lft.to/lastmile_qr_scan"}, "name": "3d736b573533ce49f6cb88ff7989d5ed", "is_reserved": 0}, {"is_disabled": 0, "fusion_lon": 0.0, "fusion_lat": 0.0, "lat": 38.89880866666667, "type": "electric_scooter", "lon": -76.931583, "bike_id": "468143d4d4b5f4acd3054c48fdadee41", "rental_uris": {"android": "https://dc.lft.to/lastmile_qr_scan", "ios": "https://dc.lft.to/lastmile_qr_scan"}, "name": "468143d4d4b5f4acd3054c48fdadee41", "is_reserved": 0}, {"is_disabled": 0, "fusion_lon": 0.0, "fusion_lat": 0.0, "lat": 38.876271833333334, "type": "electric_scooter", "lon": -76.965366, "bike_id": "0181b436fc5f606449c8760be3a7e817", "rental_uris": {"android": "https://dc.lft.to/lastmile_qr_scan", "ios": "https://dc.lft.to/lastmile_qr_scan"}, "name": "0181b436fc5f606449c8760be3a7e817", "is_reserved": 0}, {"is_disabled": 0, "fusion_lon": 0.0, "fusion_lat": 0.0, "lat": 38.902872333333335, "type": "electric_scooter", "lon": -77.02425733333334, "bike_id": "e58be614ebf572c44495946f00e43f83", "rental_uris": {"android": "https://dc.lft.to/lastmile_qr_scan", "ios": "https://dc.lft.to/lastmile_qr_scan"}, "name": "e58be614ebf572c44495946f00e43f83", "is_reserved": 0}, {"is_disabled": 0, "fusion_lon": 0.0, "fusion_lat": 0.0, "lat": 38.841011, "type": "electric_bike", "lon": -77.08942866666666, "bike_id": "f0d2d91e10179cc8a318d267f3fe5549", "rental_uris": {"android": "https://dc.lft.to/lastmile_qr_scan", "ios": "https://dc.lft.to/lastmile_qr_scan"}, "name": "f0d2d91e10179cc8a318d267f3fe5549", "is_reserved": 0}, {"is_disabled": 0, "fusion_lon": 0.0, "fusion_lat": 0.0, "lat": 38.8520395, "type": "electric_bike", "lon": -77.101382, "bike_id": "bed335330e57ed19ea77e19e1983c25d", "rental_uris": {"android": "https://dc.lft.to/lastmile_qr_scan", "ios": "https://dc.lft.to/lastmile_qr_scan"}, "name": "bed335330e57ed19ea77e19e1983c25d", "is_reserved": 0}, {"is_disabled": 0, "fusion_lon": 0.0, "fusion_lat": 0.0, "lat": 38.914198999999996, "type": "electric_scooter", "lon": -77.0467645, "bike_id": "b6fc7b39ce99d8b131ccc643a408781a", "rental_uris": {"android": "https://dc.lft.to/lastmile_qr_scan", "ios": "https://dc.lft.to/lastmile_qr_scan"}, "name": "b6fc7b39ce99d8b131ccc643a408781a", "is_reserved": 0}, {"is_disabled": 0, "fusion_lon": 0.0, "fusion_lat": 0.0, "lat": 38.89563016666666, "type": "electric_scooter", "lon": -77.04188666666667, "bike_id": "b52eecf453ddf8816362f483cdd02dea", "rental_uris": {"android": "https://dc.lft.to/lastmile_qr_scan", "ios": "https://dc.lft.to/lastmile_qr_scan"}, "name": "b52eecf453ddf8816362f483cdd02dea", "is_reserved": 0}, {"is_disabled": 0, "fusion_lon": 0.0, "fusion_lat": 0.0, "lat": 38.91933183333333, "type": "electric_scooter", "lon": -77.0315295, "bike_id": "005a79f40f351bfb0d07ff1606b90fb8", "rental_uris": {"android": "https://dc.lft.to/lastmile_qr_scan", "ios": "https://dc.lft.to/lastmile_qr_scan"}, "name": "005a79f40f351bfb0d07ff1606b90fb8", "is_reserved": 0}, {"is_disabled": 0, "fusion_lon": 0.0, "fusion_lat": 0.0, "lat": 38.9320125, "type": "electric_bike", "lon": -77.03301483333334, "bike_id": "82a7e195d8dc8dbe50d820e82e642a20", "rental_uris": {"android": "https://dc.lft.to/lastmile_qr_scan", "ios": "https://dc.lft.to/lastmile_qr_scan"}, "name": "82a7e195d8dc8dbe50d820e82e642a20", "is_reserved": 0}, {"is_disabled": 0, "fusion_lon": 0.0, "fusion_lat": 0.0, "lat": 38.934761333333334, "type": "electric_scooter", "lon": -77.07271283333333, "bike_id": "08c58873efd1122087a76b4afc6258a4", "rental_uris": {"android": "https://dc.lft.to/lastmile_qr_scan", "ios": "https://dc.lft.to/lastmile_qr_scan"}, "name": "08c58873efd1122087a76b4afc6258a4", "is_reserved": 0}, {"is_disabled": 0, "fusion_lon": 0.0, "fusion_lat": 0.0, "lat": 38.927806333333336, "type": "electric_scooter", "lon": -77.03198033333334, "bike_id": "73fc9a0098d236fe95f6fed5e7691120", "rental_uris": {"android": "https://dc.lft.to/lastmile_qr_scan", "ios": "https://dc.lft.to/lastmile_qr_scan"}, "name": "73fc9a0098d236fe95f6fed5e7691120", "is_reserved": 0}, {"is_disabled": 0, "fusion_lon": 0.0, "fusion_lat": 0.0, "lat": 38.94155283333333, "type": "electric_bike", "lon": -77.00201583333333, "bike_id": "b592d0039f6cc5c4483dee70de589184", "rental_uris": {"android": "https://dc.lft.to/lastmile_qr_scan", "ios": "https://dc.lft.to/lastmile_qr_scan"}, "name": "b592d0039f6cc5c4483dee70de589184", "is_reserved": 0}, {"is_disabled": 0, "fusion_lon": 0.0, "fusion_lat": 0.0, "lat": 38.93532, "type": "electric_scooter", "lon": -77.02355983333334, "bike_id": "8b12f120c7a41775081e136c31dd725f", "rental_uris": {"android": "https://dc.lft.to/lastmile_qr_scan", "ios": "https://dc.lft.to/lastmile_qr_scan"}, "name": "8b12f120c7a41775081e136c31dd725f", "is_reserved": 0}, {"is_disabled": 0, "fusion_lon": 0.0, "fusion_lat": 0.0, "lat": 38.914747, "type": "electric_scooter", "lon": -76.98357, "bike_id": "cd55d751b9e6e6389c80f10c350ceff9", "rental_uris": {"android": "https://dc.lft.to/lastmile_qr_scan", "ios": "https://dc.lft.to/lastmile_qr_scan"}, "name": "cd55d751b9e6e6389c80f10c350ceff9", "is_reserved": 0}, {"is_disabled": 0, "fusion_lon": 0.0, "fusion_lat": 0.0, "lat": 38.92974133333333, "type": "electric_scooter", "lon": -77.03291416666667, "bike_id": "72e04d8c8b2d5730eb7aae852090f18b", "rental_uris": {"android": "https://dc.lft.to/lastmile_qr_scan", "ios": "https://dc.lft.to/lastmile_qr_scan"}, "name": "72e04d8c8b2d5730eb7aae852090f18b", "is_reserved": 0}, {"is_disabled": 0, "fusion_lon": 0.0, "fusion_lat": 0.0, "lat": 38.93379916666667, "type": "electric_scooter", "lon": -77.0247055, "bike_id": "d71c4c88dce1380bba9f85c71857b73c", "rental_uris": {"android": "https://dc.lft.to/lastmile_qr_scan", "ios": "https://dc.lft.to/lastmile_qr_scan"}, "name": "d71c4c88dce1380bba9f85c71857b73c", "is_reserved": 0}, {"is_disabled": 0, "fusion_lon": 0.0, "fusion_lat": 0.0, "lat": 38.919147333333335, "type": "electric_scooter", "lon": -77.0704435, "bike_id": "817afbabeb4726aebd37b429399d9a6e", "rental_uris": {"android": "https://dc.lft.to/lastmile_qr_scan", "ios": "https://dc.lft.to/lastmile_qr_scan"}, "name": "817afbabeb4726aebd37b429399d9a6e", "is_reserved": 0}, {"is_disabled": 0, "fusion_lon": 0.0, "fusion_lat": 0.0, "lat": 38.9219195, "type": "electric_scooter", "lon": -77.03805116666666, "bike_id": "2759d16f7f7df70441a0152d05bbe3e9", "rental_uris": {"android": "https://dc.lft.to/lastmile_qr_scan", "ios": "https://dc.lft.to/lastmile_qr_scan"}, "name": "2759d16f7f7df70441a0152d05bbe3e9", "is_reserved": 0}, {"is_disabled": 0, "fusion_lon": 0.0, "fusion_lat": 0.0, "lat": 38.905448, "type": "electric_bike", "lon": -77.04884333333334, "bike_id": "6ca20f7a8aa3c5fba007b8ef2ec3a309", "rental_uris": {"android": "https://dc.lft.to/lastmile_qr_scan", "ios": "https://dc.lft.to/lastmile_qr_scan"}, "name": "6ca20f7a8aa3c5fba007b8ef2ec3a309", "is_reserved": 0}, {"is_disabled": 0, "fusion_lon": 0.0, "fusion_lat": 0.0, "lat": 38.8776045, "type": "electric_bike", "lon": -76.9799755, "bike_id": "ea5cf60800d63170df0adc2420bc163f", "rental_uris": {"android": "https://dc.lft.to/lastmile_qr_scan", "ios": "https://dc.lft.to/lastmile_qr_scan"}, "name": "ea5cf60800d63170df0adc2420bc163f", "is_reserved": 0}, {"is_disabled": 0, "fusion_lon": 0.0, "fusion_lat": 0.0, "lat": 38.9172345, "type": "electric_scooter", "lon": -77.030553, "bike_id": "2eedb4170eb5195f4b88441c7fa8bdb4", "rental_uris": {"android": "https://dc.lft.to/lastmile_qr_scan", "ios": "https://dc.lft.to/lastmile_qr_scan"}, "name": "2eedb4170eb5195f4b88441c7fa8bdb4", "is_reserved": 0}, {"is_disabled": 0, "fusion_lon": 0.0, "fusion_lat": 0.0, "lat": 38.932039833333334, "type": "electric_bike", "lon": -77.03307583333333, "bike_id": "53aabcd2f9933c8bb0e06287762c0917", "rental_uris": {"android": "https://dc.lft.to/lastmile_qr_scan", "ios": "https://dc.lft.to/lastmile_qr_scan"}, "name": "53aabcd2f9933c8bb0e06287762c0917", "is_reserved": 0}, {"is_disabled": 0, "fusion_lon": 0.0, "fusion_lat": 0.0, "lat": 38.924467166666666, "type": "electric_scooter", "lon": -77.03970566666666, "bike_id": "d9bf0f5ad87c74894f2a336413703bce", "rental_uris": {"android": "https://dc.lft.to/lastmile_qr_scan", "ios": "https://dc.lft.to/lastmile_qr_scan"}, "name": "d9bf0f5ad87c74894f2a336413703bce", "is_reserved": 0}, {"is_disabled": 0, "fusion_lon": 0.0, "fusion_lat": 0.0, "lat": 38.892601, "type": "electric_scooter", "lon": -77.0317095, "bike_id": "ed866c00cae4a43244eeae7a5305fc8d", "rental_uris": {"android": "https://dc.lft.to/lastmile_qr_scan", "ios": "https://dc.lft.to/lastmile_qr_scan"}, "name": "ed866c00cae4a43244eeae7a5305fc8d", "is_reserved": 0}, {"is_disabled": 0, "fusion_lon": 0.0, "fusion_lat": 0.0, "lat": 38.91879816666667, "type": "electric_scooter", "lon": -77.059604, "bike_id": "4d51bfe03d140cec44c55b590de9cb6b", "rental_uris": {"android": "https://dc.lft.to/lastmile_qr_scan", "ios": "https://dc.lft.to/lastmile_qr_scan"}, "name": "4d51bfe03d140cec44c55b590de9cb6b", "is_reserved": 0}, {"is_disabled": 0, "fusion_lon": 0.0, "fusion_lat": 0.0, "lat": 38.931726, "type": "electric_scooter", "lon": -77.07259866666666, "bike_id": "faf6f4ea706cc7442ca1bc62f4013bb1", "rental_uris": {"android": "https://dc.lft.to/lastmile_qr_scan", "ios": "https://dc.lft.to/lastmile_qr_scan"}, "name": "faf6f4ea706cc7442ca1bc62f4013bb1", "is_reserved": 0}, {"is_disabled": 0, "fusion_lon": 0.0, "fusion_lat": 0.0, "lat": 38.9234875, "type": "electric_scooter", "lon": -77.04375766666666, "bike_id": "b20f78e8c2c63a90d31f6d99f01feec0", "rental_uris": {"android": "https://dc.lft.to/lastmile_qr_scan", "ios": "https://dc.lft.to/lastmile_qr_scan"}, "name": "b20f78e8c2c63a90d31f6d99f01feec0", "is_reserved": 0}, {"is_disabled": 0, "fusion_lon": 0.0, "fusion_lat": 0.0, "lat": 38.911918166666666, "type": "electric_scooter", "lon": -77.04158333333334, "bike_id": "2c1d2156e402f7ae70d93f13fd1afc5d", "rental_uris": {"android": "https://dc.lft.to/lastmile_qr_scan", "ios": "https://dc.lft.to/lastmile_qr_scan"}, "name": "2c1d2156e402f7ae70d93f13fd1afc5d", "is_reserved": 0}, {"is_disabled": 0, "fusion_lon": 0.0, "fusion_lat": 0.0, "lat": 38.926130666666666, "type": "electric_scooter", "lon": -77.021627, "bike_id": "a0d0443bb387ec192373bf7e35cb145b", "rental_uris": {"android": "https://dc.lft.to/lastmile_qr_scan", "ios": "https://dc.lft.to/lastmile_qr_scan"}, "name": "a0d0443bb387ec192373bf7e35cb145b", "is_reserved": 0}, {"is_disabled": 0, "fusion_lon": 0.0, "fusion_lat": 0.0, "lat": 38.9396045, "type": "electric_bike", "lon": -77.36099233333333, "bike_id": "15610e69cd897888403eb1ea2d120f74", "rental_uris": {"android": "https://dc.lft.to/lastmile_qr_scan", "ios": "https://dc.lft.to/lastmile_qr_scan"}, "name": "15610e69cd897888403eb1ea2d120f74", "is_reserved": 0}, {"is_disabled": 0, "fusion_lon": 0.0, "fusion_lat": 0.0, "lat": 38.934802166666664, "type": "electric_scooter", "lon": -77.07273183333334, "bike_id": "59643f66dd0eac7266ee2ffd85dbe7f5", "rental_uris": {"android": "https://dc.lft.to/lastmile_qr_scan", "ios": "https://dc.lft.to/lastmile_qr_scan"}, "name": "59643f66dd0eac7266ee2ffd85dbe7f5", "is_reserved": 0}, {"is_disabled": 0, "fusion_lon": 0.0, "fusion_lat": 0.0, "lat": 38.922721833333334, "type": "electric_scooter", "lon": -77.04470333333333, "bike_id": "da6df6a9f6ef0514343c1f5ca58c61c0", "rental_uris": {"android": "https://dc.lft.to/lastmile_qr_scan", "ios": "https://dc.lft.to/lastmile_qr_scan"}, "name": "da6df6a9f6ef0514343c1f5ca58c61c0", "is_reserved": 0}, {"is_disabled": 0, "fusion_lon": 0.0, "fusion_lat": 0.0, "lat": 38.875801833333334, "type": "electric_scooter", "lon": -77.004195, "bike_id": "d96bc271dd2254521e098de3a5c21591", "rental_uris": {"android": "https://dc.lft.to/lastmile_qr_scan", "ios": "https://dc.lft.to/lastmile_qr_scan"}, "name": "d96bc271dd2254521e098de3a5c21591", "is_reserved": 0}, {"is_disabled": 0, "fusion_lon": 0.0, "fusion_lat": 0.0, "lat": 38.89532, "type": "electric_scooter", "lon": -77.04846016666667, "bike_id": "2bcd3d4090f76241e17c1053942476f0", "rental_uris": {"android": "https://dc.lft.to/lastmile_qr_scan", "ios": "https://dc.lft.to/lastmile_qr_scan"}, "name": "2bcd3d4090f76241e17c1053942476f0", "is_reserved": 0}, {"is_disabled": 0, "fusion_lon": 0.0, "fusion_lat": 0.0, "lat": 38.908444333333335, "type": "electric_scooter", "lon": -77.04161466666666, "bike_id": "fdc6bbfe5fa0494129bd581696ebf121", "rental_uris": {"android": "https://dc.lft.to/lastmile_qr_scan", "ios": "https://dc.lft.to/lastmile_qr_scan"}, "name": "fdc6bbfe5fa0494129bd581696ebf121", "is_reserved": 0}, {"is_disabled": 0, "fusion_lon": 0.0, "fusion_lat": 0.0, "lat": 38.90582933333334, "type": "electric_scooter", "lon": -77.04385433333333, "bike_id": "8f92ed57ea3c19ca635ee3bf488a9031", "rental_uris": {"android": "https://dc.lft.to/lastmile_qr_scan", "ios": "https://dc.lft.to/lastmile_qr_scan"}, "name": "8f92ed57ea3c19ca635ee3bf488a9031", "is_reserved": 0}, {"is_disabled": 0, "fusion_lon": 0.0, "fusion_lat": 0.0, "lat": 38.9386425, "type": "electric_scooter", "lon": -77.0278545, "bike_id": "4c5a3704bf7893ee25a9d7f52d172443", "rental_uris": {"android": "https://dc.lft.to/lastmile_qr_scan", "ios": "https://dc.lft.to/lastmile_qr_scan"}, "name": "4c5a3704bf7893ee25a9d7f52d172443", "is_reserved": 0}, {"is_disabled": 0, "fusion_lon": 0.0, "fusion_lat": 0.0, "lat": 38.91799916666667, "type": "electric_scooter", "lon": -77.04155083333333, "bike_id": "ac042a9cbfbf5ee469a2a70ca811f342", "rental_uris": {"android": "https://dc.lft.to/lastmile_qr_scan", "ios": "https://dc.lft.to/lastmile_qr_scan"}, "name": "ac042a9cbfbf5ee469a2a70ca811f342", "is_reserved": 0}, {"is_disabled": 0, "fusion_lon": 0.0, "fusion_lat": 0.0, "lat": 38.879194166666665, "type": "electric_scooter", "lon": -76.944838, "bike_id": "871c471d8961d6d52946187e15c72ed7", "rental_uris": {"android": "https://dc.lft.to/lastmile_qr_scan", "ios": "https://dc.lft.to/lastmile_qr_scan"}, "name": "871c471d8961d6d52946187e15c72ed7", "is_reserved": 0}, {"is_disabled": 0, "fusion_lon": 0.0, "fusion_lat": 0.0, "lat": 38.97169233333334, "type": "electric_bike", "lon": -76.98026716666666, "bike_id": "9179b61886a4d6ded08eb83225899e4c", "rental_uris": {"android": "https://dc.lft.to/lastmile_qr_scan", "ios": "https://dc.lft.to/lastmile_qr_scan"}, "name": "9179b61886a4d6ded08eb83225899e4c", "is_reserved": 0}, {"is_disabled": 0, "fusion_lon": 0.0, "fusion_lat": 0.0, "lat": 38.895168166666664, "type": "electric_scooter", "lon": -77.011068, "bike_id": "515f7499a342e6af845ce47d6a8604b5", "rental_uris": {"android": "https://dc.lft.to/lastmile_qr_scan", "ios": "https://dc.lft.to/lastmile_qr_scan"}, "name": "515f7499a342e6af845ce47d6a8604b5", "is_reserved": 0}, {"is_disabled": 0, "fusion_lon": 0.0, "fusion_lat": 0.0, "lat": 38.95416983333333, "type": "electric_scooter", "lon": -77.02174166666667, "bike_id": "2bbd1038f4cdd11a7d721a2ab17356eb", "rental_uris": {"android": "https://dc.lft.to/lastmile_qr_scan", "ios": "https://dc.lft.to/lastmile_qr_scan"}, "name": "2bbd1038f4cdd11a7d721a2ab17356eb", "is_reserved": 0}, {"is_disabled": 0, "fusion_lon": 0.0, "fusion_lat": 0.0, "lat": 38.940851, "type": "electric_scooter", "lon": -77.03818116666666, "bike_id": "364fd1efaf78da9fd1832d35345daf0e", "rental_uris": {"android": "https://dc.lft.to/lastmile_qr_scan", "ios": "https://dc.lft.to/lastmile_qr_scan"}, "name": "364fd1efaf78da9fd1832d35345daf0e", "is_reserved": 0}, {"is_disabled": 0, "fusion_lon": 0.0, "fusion_lat": 0.0, "lat": 38.874222833333334, "type": "electric_scooter", "lon": -77.00918483333334, "bike_id": "2adf627f0fd1a092a55be3e6d66116fa", "rental_uris": {"android": "https://dc.lft.to/lastmile_qr_scan", "ios": "https://dc.lft.to/lastmile_qr_scan"}, "name": "2adf627f0fd1a092a55be3e6d66116fa", "is_reserved": 0}, {"is_disabled": 0, "fusion_lon": 0.0, "fusion_lat": 0.0, "lat": 38.88031466666666, "type": "electric_scooter", "lon": -76.99501833333333, "bike_id": "0c9c592b0c707b00895ded734a8d6778", "rental_uris": {"android": "https://dc.lft.to/lastmile_qr_scan", "ios": "https://dc.lft.to/lastmile_qr_scan"}, "name": "0c9c592b0c707b00895ded734a8d6778", "is_reserved": 0}, {"is_disabled": 0, "fusion_lon": 0.0, "fusion_lat": 0.0, "lat": 38.91108216666667, "type": "electric_scooter", "lon": -77.04260766666667, "bike_id": "7f87fd784f67706ceab4bc0fe839a46e", "rental_uris": {"android": "https://dc.lft.to/lastmile_qr_scan", "ios": "https://dc.lft.to/lastmile_qr_scan"}, "name": "7f87fd784f67706ceab4bc0fe839a46e", "is_reserved": 0}, {"is_disabled": 0, "fusion_lon": 0.0, "fusion_lat": 0.0, "lat": 38.92326, "type": "electric_scooter", "lon": -77.03952366666667, "bike_id": "6f2855e55609e138f7e4e0fa5e06c237", "rental_uris": {"android": "https://dc.lft.to/lastmile_qr_scan", "ios": "https://dc.lft.to/lastmile_qr_scan"}, "name": "6f2855e55609e138f7e4e0fa5e06c237", "is_reserved": 0}, {"is_disabled": 0, "fusion_lon": 0.0, "fusion_lat": 0.0, "lat": 38.91636283333333, "type": "electric_scooter", "lon": -77.026982, "bike_id": "2063ee94e4c6ad03cac1c9fad111ebf5", "rental_uris": {"android": "https://dc.lft.to/lastmile_qr_scan", "ios": "https://dc.lft.to/lastmile_qr_scan"}, "name": "2063ee94e4c6ad03cac1c9fad111ebf5", "is_reserved": 0}, {"is_disabled": 0, "fusion_lon": 0.0, "fusion_lat": 0.0, "lat": 38.96809733333333, "type": "electric_scooter", "lon": -77.02121083333333, "bike_id": "c78c320745bf7944f6cbb810fe784e25", "rental_uris": {"android": "https://dc.lft.to/lastmile_qr_scan", "ios": "https://dc.lft.to/lastmile_qr_scan"}, "name": "c78c320745bf7944f6cbb810fe784e25", "is_reserved": 0}, {"is_disabled": 0, "fusion_lon": 0.0, "fusion_lat": 0.0, "lat": 38.892985333333336, "type": "electric_scooter", "lon": -76.9891845, "bike_id": "8a5f3edfa936ce4de69ff639203be60f", "rental_uris": {"android": "https://dc.lft.to/lastmile_qr_scan", "ios": "https://dc.lft.to/lastmile_qr_scan"}, "name": "8a5f3edfa936ce4de69ff639203be60f", "is_reserved": 0}, {"is_disabled": 0, "fusion_lon": 0.0, "fusion_lat": 0.0, "lat": 38.942244333333335, "type": "electric_scooter", "lon": -77.02500016666667, "bike_id": "ee9ecbe8f665e648d6ce002d8f26a1ab", "rental_uris": {"android": "https://dc.lft.to/lastmile_qr_scan", "ios": "https://dc.lft.to/lastmile_qr_scan"}, "name": "ee9ecbe8f665e648d6ce002d8f26a1ab", "is_reserved": 0}, {"is_disabled": 0, "fusion_lon": 0.0, "fusion_lat": 0.0, "lat": 38.91461, "type": "electric_scooter", "lon": -77.021949, "bike_id": "fbd2c2e6a4dc7214a5b000ed1c0a7227", "rental_uris": {"android": "https://dc.lft.to/lastmile_qr_scan", "ios": "https://dc.lft.to/lastmile_qr_scan"}, "name": "fbd2c2e6a4dc7214a5b000ed1c0a7227", "is_reserved": 0}, {"is_disabled": 0, "fusion_lon": 0.0, "fusion_lat": 0.0, "lat": 38.92820366666667, "type": "electric_scooter", "lon": -77.02149616666667, "bike_id": "af19bad8c3062d3b9ffae5c2e3a574a9", "rental_uris": {"android": "https://dc.lft.to/lastmile_qr_scan", "ios": "https://dc.lft.to/lastmile_qr_scan"}, "name": "af19bad8c3062d3b9ffae5c2e3a574a9", "is_reserved": 0}, {"is_disabled": 0, "fusion_lon": 0.0, "fusion_lat": 0.0, "lat": 38.897436, "type": "electric_scooter", "lon": -77.04682133333333, "bike_id": "f5cdf10a95dc54a519f03755f1531e9b", "rental_uris": {"android": "https://dc.lft.to/lastmile_qr_scan", "ios": "https://dc.lft.to/lastmile_qr_scan"}, "name": "f5cdf10a95dc54a519f03755f1531e9b", "is_reserved": 0}, {"is_disabled": 0, "fusion_lon": 0.0, "fusion_lat": 0.0, "lat": 38.900237833333335, "type": "electric_scooter", "lon": -77.0559495, "bike_id": "ff20a653b23eff9f4985fb7870771039", "rental_uris": {"android": "https://dc.lft.to/lastmile_qr_scan", "ios": "https://dc.lft.to/lastmile_qr_scan"}, "name": "ff20a653b23eff9f4985fb7870771039", "is_reserved": 0}, {"is_disabled": 0, "fusion_lon": 0.0, "fusion_lat": 0.0, "lat": 38.90496983333333, "type": "electric_scooter", "lon": -77.01989466666667, "bike_id": "852d86e457fde18661debca0f320a6b0", "rental_uris": {"android": "https://dc.lft.to/lastmile_qr_scan", "ios": "https://dc.lft.to/lastmile_qr_scan"}, "name": "852d86e457fde18661debca0f320a6b0", "is_reserved": 0}, {"is_disabled": 0, "fusion_lon": 0.0, "fusion_lat": 0.0, "lat": 38.918338, "type": "electric_scooter", "lon": -77.03458216666667, "bike_id": "ec5cb23591a142d3061c87ec8a37b4f9", "rental_uris": {"android": "https://dc.lft.to/lastmile_qr_scan", "ios": "https://dc.lft.to/lastmile_qr_scan"}, "name": "ec5cb23591a142d3061c87ec8a37b4f9", "is_reserved": 0}, {"is_disabled": 0, "fusion_lon": 0.0, "fusion_lat": 0.0, "lat": 38.97051066666667, "type": "electric_bike", "lon": -77.03080983333334, "bike_id": "eeb0caed24f656c955601ffc49789d23", "rental_uris": {"android": "https://dc.lft.to/lastmile_qr_scan", "ios": "https://dc.lft.to/lastmile_qr_scan"}, "name": "eeb0caed24f656c955601ffc49789d23", "is_reserved": 0}, {"is_disabled": 0, "fusion_lon": 0.0, "fusion_lat": 0.0, "lat": 38.9078535, "type": "electric_scooter", "lon": -77.03190016666667, "bike_id": "e8c0bddeaef0dcb3d32708f76f737463", "rental_uris": {"android": "https://dc.lft.to/lastmile_qr_scan", "ios": "https://dc.lft.to/lastmile_qr_scan"}, "name": "e8c0bddeaef0dcb3d32708f76f737463", "is_reserved": 0}, {"is_disabled": 0, "fusion_lon": 0.0, "fusion_lat": 0.0, "lat": 38.928702, "type": "electric_scooter", "lon": -77.0342695, "bike_id": "164a41dbcb544ff84a5790aa66d7b195", "rental_uris": {"android": "https://dc.lft.to/lastmile_qr_scan", "ios": "https://dc.lft.to/lastmile_qr_scan"}, "name": "164a41dbcb544ff84a5790aa66d7b195", "is_reserved": 0}, {"is_disabled": 0, "fusion_lon": 0.0, "fusion_lat": 0.0, "lat": 38.916641166666665, "type": "electric_scooter", "lon": -77.027108, "bike_id": "fee542a4dacb4c41bcb337bdd5f3bf9e", "rental_uris": {"android": "https://dc.lft.to/lastmile_qr_scan", "ios": "https://dc.lft.to/lastmile_qr_scan"}, "name": "fee542a4dacb4c41bcb337bdd5f3bf9e", "is_reserved": 0}, {"is_disabled": 0, "fusion_lon": 0.0, "fusion_lat": 0.0, "lat": 38.912616666666665, "type": "electric_scooter", "lon": -77.01138616666667, "bike_id": "d326e3d74604a99bb75189bf70a85e94", "rental_uris": {"android": "https://dc.lft.to/lastmile_qr_scan", "ios": "https://dc.lft.to/lastmile_qr_scan"}, "name": "d326e3d74604a99bb75189bf70a85e94", "is_reserved": 0}, {"is_disabled": 0, "fusion_lon": 0.0, "fusion_lat": 0.0, "lat": 38.916414, "type": "electric_scooter", "lon": -77.0478155, "bike_id": "c3b7bf982ccd6e9fa9573c58b47b7bcf", "rental_uris": {"android": "https://dc.lft.to/lastmile_qr_scan", "ios": "https://dc.lft.to/lastmile_qr_scan"}, "name": "c3b7bf982ccd6e9fa9573c58b47b7bcf", "is_reserved": 0}, {"is_disabled": 0, "fusion_lon": 0.0, "fusion_lat": 0.0, "lat": 38.913039166666664, "type": "electric_scooter", "lon": -77.03213166666667, "bike_id": "25d2625df6eb9f41370b34777987035e", "rental_uris": {"android": "https://dc.lft.to/lastmile_qr_scan", "ios": "https://dc.lft.to/lastmile_qr_scan"}, "name": "25d2625df6eb9f41370b34777987035e", "is_reserved": 0}, {"is_disabled": 0, "fusion_lon": 0.0, "fusion_lat": 0.0, "lat": 38.9066835, "type": "electric_scooter", "lon": -77.027088, "bike_id": "8f11e266e336324aa9b2d631580ff1f3", "rental_uris": {"android": "https://dc.lft.to/lastmile_qr_scan", "ios": "https://dc.lft.to/lastmile_qr_scan"}, "name": "8f11e266e336324aa9b2d631580ff1f3", "is_reserved": 0}, {"is_disabled": 0, "fusion_lon": 0.0, "fusion_lat": 0.0, "lat": 38.86168333333333, "type": "electric_scooter", "lon": -76.968078, "bike_id": "78fef06e2046f47491301867839277ea", "rental_uris": {"android": "https://dc.lft.to/lastmile_qr_scan", "ios": "https://dc.lft.to/lastmile_qr_scan"}, "name": "78fef06e2046f47491301867839277ea", "is_reserved": 0}, {"is_disabled": 0, "fusion_lon": 0.0, "fusion_lat": 0.0, "lat": 38.914296, "type": "electric_scooter", "lon": -77.0295635, "bike_id": "562b92fe32d1c4a3fa14ae3be70b7bdd", "rental_uris": {"android": "https://dc.lft.to/lastmile_qr_scan", "ios": "https://dc.lft.to/lastmile_qr_scan"}, "name": "562b92fe32d1c4a3fa14ae3be70b7bdd", "is_reserved": 0}, {"is_disabled": 0, "fusion_lon": 0.0, "fusion_lat": 0.0, "lat": 38.85041316666667, "type": "electric_bike", "lon": -77.1011105, "bike_id": "f0f67f8827d315c65b70cedf3bc2f6fc", "rental_uris": {"android": "https://dc.lft.to/lastmile_qr_scan", "ios": "https://dc.lft.to/lastmile_qr_scan"}, "name": "f0f67f8827d315c65b70cedf3bc2f6fc", "is_reserved": 0}, {"is_disabled": 0, "fusion_lon": 0.0, "fusion_lat": 0.0, "lat": 38.90245316666667, "type": "electric_bike", "lon": -76.97016516666666, "bike_id": "0c2baa618ac86d7dc77336f542871c81", "rental_uris": {"android": "https://dc.lft.to/lastmile_qr_scan", "ios": "https://dc.lft.to/lastmile_qr_scan"}, "name": "0c2baa618ac86d7dc77336f542871c81", "is_reserved": 0}, {"is_disabled": 0, "fusion_lon": 0.0, "fusion_lat": 0.0, "lat": 38.87623116666666, "type": "electric_scooter", "lon": -76.96535016666667, "bike_id": "5c7fa1c8f0f11a5b9e50837bdd25cb95", "rental_uris": {"android": "https://dc.lft.to/lastmile_qr_scan", "ios": "https://dc.lft.to/lastmile_qr_scan"}, "name": "5c7fa1c8f0f11a5b9e50837bdd25cb95", "is_reserved": 0},