{"data": {"bikes": [{"lon": -77.04191433333334, "bike_id": "d3a622d0357d3d681c901e9c94e3d01e", "lat": 38.911249, "fusion_lon": 0.0, "fusion_lat": 0.0, "type": "electric_scooter", "name": "d3a622d0357d3d681c901e9c94e3d01e", "is_disabled": 0, "rental_uris": {"ios": "https://dc.lft.to/lastmile_qr_scan", "android": "https://dc.lft.to/lastmile_qr_scan"}, "is_reserved": 0}, {"lon": -77.05868, "bike_id": "3bde1bf7b21a400fb1c25d6c43be5ef1", "lat": 38.93608183333333, "fusion_lon": 0.0, "fusion_lat": 0.0, "type": "electric_scooter", "name": "3bde1bf7b21a400fb1c25d6c43be5ef1", "is_disabled": 0, "rental_uris": {"ios": "https://dc.lft.to/lastmile_qr_scan", "android": "https://dc.lft.to/lastmile_qr_scan"}, "is_reserved": 0}, {"lon": -77.03659816666666, "bike_id": "497701b43f8ae42afcc002187a4adc1f", "lat": 38.917100833333336, "fusion_lon": 0.0, "fusion_lat": 0.0, "type": "electric_scooter", "name": "497701b43f8ae42afcc002187a4adc1f", "is_disabled": 0, "rental_uris": {"ios": "https://dc.lft.to/lastmile_qr_scan", "android": "https://dc.lft.to/lastmile_qr_scan"}, "is_reserved": 0}, {"lon": -77.0229365, "bike_id": "c773e6f2dbcfbb9bdc9dcc01cdfda2b6", "lat": 38.916673, "fusion_lon": 0.0, "fusion_lat": 0.0, "type": "electric_scooter", "name": "c773e6f2dbcfbb9bdc9dcc01cdfda2b6", "is_disabled": 0, "rental_uris": {"ios": "https://dc.lft.to/lastmile_qr_scan", "android": "https://dc.lft.to/lastmile_qr_scan"}, "is_reserved": 0}, {"lon": -76.91598916666666, "bike_id": "f31f8495d24e71d523f5f7bdcb5f7ba6", "lat": 38.879805833333336, "fusion_lon": 0.0, "fusion_lat": 0.0, "type": "electric_bike", "name": "f31f8495d24e71d523f5f7bdcb5f7ba6", "is_disabled": 0, "rental_uris": {"ios": "https://dc.lft.to/lastmile_qr_scan", "android": "https://dc.lft.to/lastmile_qr_scan"}, "is_reserved": 0}, {"lon": -77.029587, "bike_id": "70f69293670f441578f723203c71fa5b", "lat": 38.90494783333333, "fusion_lon": 0.0, "fusion_lat": 0.0, "type": "electric_scooter", "name": "70f69293670f441578f723203c71fa5b", "is_disabled": 0, "rental_uris": {"ios": "https://dc.lft.to/lastmile_qr_scan", "android": "https://dc.lft.to/lastmile_qr_scan"}, "is_reserved": 0}, {"lon": -77.02816583333333, "bike_id": "1e049bf9a6f15ba7f4a24cf9b0fdbf33", "lat": 38.93171133333333, "fusion_lon": 0.0, "fusion_lat": 0.0, "type": "electric_scooter", "name": "1e049bf9a6f15ba7f4a24cf9b0fdbf33", "is_disabled": 0, "rental_uris": {"ios": "https://dc.lft.to/lastmile_qr_scan", "android": "https://dc.lft.to/lastmile_qr_scan"}, "is_reserved": 0}, {"lon": -77.04485833333334, "bike_id": "5a2aff162c91669076672c0083683791", "lat": 38.905371833333334, "fusion_lon": 0.0, "fusion_lat": 0.0, "type": "electric_scooter", "name": "5a2aff162c91669076672c0083683791", "is_disabled": 0, "rental_uris": {"ios": "https://dc.lft.to/lastmile_qr_scan", "android": "https://dc.lft.to/lastmile_qr_scan"}, "is_reserved": 0}, {"lon": -76.97327483333333, "bike_id": "0a831703d544719df423e2db76ba1a3b", "lat": 38.904781166666666, "fusion_lon": 0.0, "fusion_lat": 0.0, "type": "electric_bike", "name": "0a831703d544719df423e2db76ba1a3b", "is_disabled": 0, "rental_uris": {"ios": "https://dc.lft.to/lastmile_qr_scan", "android": "https://dc.lft.to/lastmile_qr_scan"}, "is_reserved": 0}, {"lon": -77.02226566666667, "bike_id": "6ce4cfe6c81ea1bbc906b2ca6bd3fe0b", "lat": 38.8931875, "fusion_lon": 0.0, "fusion_lat": 0.0, "type": "electric_scooter", "name": "6ce4cfe6c81ea1bbc906b2ca6bd3fe0b", "is_disabled": 0, "rental_uris": {"ios": "https://dc.lft.to/lastmile_qr_scan", "android": "https://dc.lft.to/lastmile_qr_scan"}, "is_reserved": 0}, {"lon": -77.03286133333333, "bike_id": "fd6209c46951ec3e3cd13db60d486fac", "lat": 38.934872, "fusion_lon": 0.0, "fusion_lat": 0.0, "type": "electric_scooter", "name": "fd6209c46951ec3e3cd13db60d486fac", "is_disabled": 0, "rental_uris": {"ios": "https://dc.lft.to/lastmile_qr_scan", "android": "https://dc.lft.to/lastmile_qr_scan"}, "is_reserved": 0}, {"lon": -77.02306333333334, "bike_id": "ec9f0f146d3d7e1882f3a39a963cfd06", "lat": 38.932810333333336, "fusion_lon": 0.0, "fusion_lat": 0.0, "type": "electric_scooter", "name": "ec9f0f146d3d7e1882f3a39a963cfd06", "is_disabled": 0, "rental_uris": {"ios": "https://dc.lft.to/lastmile_qr_scan", "android": "https://dc.lft.to/lastmile_qr_scan"}, "is_reserved": 0}, {"lon": -76.9302865, "bike_id": "65108e7f1d63af5589f3611c03a23cfb", "lat": 38.900120666666666, "fusion_lon": 0.0, "fusion_lat": 0.0, "type": "electric_scooter", "name": "65108e7f1d63af5589f3611c03a23cfb", "is_disabled": 0, "rental_uris": {"ios": "https://dc.lft.to/lastmile_qr_scan", "android": "https://dc.lft.to/lastmile_qr_scan"}, "is_reserved": 0}, {"lon": -77.018956, "bike_id": "3ab7949eacb6c20ae0b7535826e00918", "lat": 38.904492166666664, "fusion_lon": 0.0, "fusion_lat": 0.0, "type": "electric_scooter", "name": "3ab7949eacb6c20ae0b7535826e00918", "is_disabled": 0, "rental_uris": {"ios": "https://dc.lft.to/lastmile_qr_scan", "android": "https://dc.lft.to/lastmile_qr_scan"}, "is_reserved": 0}, {"lon": -77.027781, "bike_id": "0969e0bd798871033bde6b74f7eeae6c", "lat": 38.89215983333333, "fusion_lon": 0.0, "fusion_lat": 0.0, "type": "electric_scooter", "name": "0969e0bd798871033bde6b74f7eeae6c", "is_disabled": 0, "rental_uris": {"ios": "https://dc.lft.to/lastmile_qr_scan", "android": "https://dc.lft.to/lastmile_qr_scan"}, "is_reserved": 0}, {"lon": -77.0363815, "bike_id": "38c1e67b604c8123c1f53e030693bb39", "lat": 38.92305433333333, "fusion_lon": 0.0, "fusion_lat": 0.0, "type": "electric_scooter", "name": "38c1e67b604c8123c1f53e030693bb39", "is_disabled": 0, "rental_uris": {"ios": "https://dc.lft.to/lastmile_qr_scan", "android": "https://dc.lft.to/lastmile_qr_scan"}, "is_reserved": 0}, {"lon": -77.02695033333333, "bike_id": "b30fb16cb6346bad89447e41032e3f30", "lat": 38.906252, "fusion_lon": 0.0, "fusion_lat": 0.0, "type": "electric_scooter", "name": "b30fb16cb6346bad89447e41032e3f30", "is_disabled": 0, "rental_uris": {"ios": "https://dc.lft.to/lastmile_qr_scan", "android": "https://dc.lft.to/lastmile_qr_scan"}, "is_reserved": 0}, {"lon": -77.03859066666666, "bike_id": "16408d853d4304df13b4d933e83f86a8", "lat": 38.906585, "fusion_lon": 0.0, "fusion_lat": 0.0, "type": "electric_scooter", "name": "16408d853d4304df13b4d933e83f86a8", "is_disabled": 0, "rental_uris": {"ios": "https://dc.lft.to/lastmile_qr_scan", "android": "https://dc.lft.to/lastmile_qr_scan"}, "is_reserved": 0}, {"lon": -77.06746466666667, "bike_id": "06ab70f07dfae6e76ce409a8566a0c66", "lat": 38.903357666666665, "fusion_lon": 0.0, "fusion_lat": 0.0, "type": "electric_scooter", "name": "06ab70f07dfae6e76ce409a8566a0c66", "is_disabled": 0, "rental_uris": {"ios": "https://dc.lft.to/lastmile_qr_scan", "android": "https://dc.lft.to/lastmile_qr_scan"}, "is_reserved": 0}, {"lon": -76.9857835, "bike_id": "6c88bfc58fd352dd6e43f63f487cd2f4", "lat": 38.900419666666664, "fusion_lon": 0.0, "fusion_lat": 0.0, "type": "electric_scooter", "name": "6c88bfc58fd352dd6e43f63f487cd2f4", "is_disabled": 0, "rental_uris": {"ios": "https://dc.lft.to/lastmile_qr_scan", "android": "https://dc.lft.to/lastmile_qr_scan"}, "is_reserved": 0}, {"lon": -77.08595466666667, "bike_id": "22f233180e121c7d79d46959ff1718ed", "lat": 38.90866116666667, "fusion_lon": 0.0, "fusion_lat": 0.0, "type": "electric_scooter", "name": "22f233180e121c7d79d46959ff1718ed", "is_disabled": 0, "rental_uris": {"ios": "https://dc.lft.to/lastmile_qr_scan", "android": "https://dc.lft.to/lastmile_qr_scan"}, "is_reserved": 0}, {"lon": -77.02589716666667, "bike_id": "4de6cb91b1d769038fb2cd07934518fe", "lat": 38.94201183333333, "fusion_lon": 0.0, "fusion_lat": 0.0, "type": "electric_scooter", "name": "4de6cb91b1d769038fb2cd07934518fe", "is_disabled": 0, "rental_uris": {"ios": "https://dc.lft.to/lastmile_qr_scan", "android": "https://dc.lft.to/lastmile_qr_scan"}, "is_reserved": 0}, {"lon": -77.03950516666667, "bike_id": "e56fd20882585a2fe4007310dace4dc4", "lat": 38.930624333333334, "fusion_lon": 0.0, "fusion_lat": 0.0, "type": "electric_scooter", "name": "e56fd20882585a2fe4007310dace4dc4", "is_disabled": 0, "rental_uris": {"ios": "https://dc.lft.to/lastmile_qr_scan", "android": "https://dc.lft.to/lastmile_qr_scan"}, "is_reserved": 0}, {"lon": -76.9977705, "bike_id": "d43b23d3e1fc42f4f085d2705ecd869d", "lat": 38.8442505, "fusion_lon": 0.0, "fusion_lat": 0.0, "type": "electric_scooter", "name": "d43b23d3e1fc42f4f085d2705ecd869d", "is_disabled": 0, "rental_uris": {"ios": "https://dc.lft.to/lastmile_qr_scan", "android": "https://dc.lft.to/lastmile_qr_scan"}, "is_reserved": 0}, {"lon": -77.02966083333334, "bike_id": "62b5304b0a49a93e0eb0ad5947098e0c", "lat": 38.930608, "fusion_lon": 0.0, "fusion_lat": 0.0, "type": "electric_scooter", "name": "62b5304b0a49a93e0eb0ad5947098e0c", "is_disabled": 0, "rental_uris": {"ios": "https://dc.lft.to/lastmile_qr_scan", "android": "https://dc.lft.to/lastmile_qr_scan"}, "is_reserved": 0}, {"lon": -77.0344355, "bike_id": "1193333d5636a78690daac6ecae6121f", "lat": 38.90732033333333, "fusion_lon": 0.0, "fusion_lat": 0.0, "type": "electric_scooter", "name": "1193333d5636a78690daac6ecae6121f", "is_disabled": 0, "rental_uris": {"ios": "https://dc.lft.to/lastmile_qr_scan", "android": "https://dc.lft.to/lastmile_qr_scan"}, "is_reserved": 0}, {"lon": -77.04061933333334, "bike_id": "93e72b5f3e156642cb10501d1956b24c", "lat": 38.917695, "fusion_lon": 0.0, "fusion_lat": 0.0, "type": "electric_scooter", "name": "93e72b5f3e156642cb10501d1956b24c", "is_disabled": 0, "rental_uris": {"ios": "https://dc.lft.to/lastmile_qr_scan", "android": "https://dc.lft.to/lastmile_qr_scan"}, "is_reserved": 0}, {"lon": -77.0010725, "bike_id": "614e64a0c28657090565d767735c6a4c", "lat": 38.9076085, "fusion_lon": 0.0, "fusion_lat": 0.0, "type": "electric_scooter", "name": "614e64a0c28657090565d767735c6a4c", "is_disabled": 0, "rental_uris": {"ios": "https://dc.lft.to/lastmile_qr_scan", "android": "https://dc.lft.to/lastmile_qr_scan"}, "is_reserved": 0}, {"lon": -77.02183283333333, "bike_id": "ec3d433c9b75f2e5ea1fa02a9f650645", "lat": 38.903808166666664, "fusion_lon": 0.0, "fusion_lat": 0.0, "type": "electric_scooter", "name": "ec3d433c9b75f2e5ea1fa02a9f650645", "is_disabled": 0, "rental_uris": {"ios": "https://dc.lft.to/lastmile_qr_scan", "android": "https://dc.lft.to/lastmile_qr_scan"}, "is_reserved": 0}, {"lon": -77.043402, "bike_id": "9e827dbe0336f872c3bbac751d275c58", "lat": 38.9221645, "fusion_lon": 0.0, "fusion_lat": 0.0, "type": "electric_scooter", "name": "9e827dbe0336f872c3bbac751d275c58", "is_disabled": 0, "rental_uris": {"ios": "https://dc.lft.to/lastmile_qr_scan", "android": "https://dc.lft.to/lastmile_qr_scan"}, "is_reserved": 0}, {"lon": -77.0399855, "bike_id": "7df28959b28282f94d6d4192492a1741", "lat": 38.9140065, "fusion_lon": 0.0, "fusion_lat": 0.0, "type": "electric_scooter", "name": "7df28959b28282f94d6d4192492a1741", "is_disabled": 0, "rental_uris": {"ios": "https://dc.lft.to/lastmile_qr_scan", "android": "https://dc.lft.to/lastmile_qr_scan"}, "is_reserved": 0}, {"lon": -77.02471066666666, "bike_id": "9b65cf7fbc9c49685f602b674c382626", "lat": 38.91820633333333, "fusion_lon": 0.0, "fusion_lat": 0.0, "type": "electric_scooter", "name": "9b65cf7fbc9c49685f602b674c382626", "is_disabled": 0, "rental_uris": {"ios": "https://dc.lft.to/lastmile_qr_scan", "android": "https://dc.lft.to/lastmile_qr_scan"}, "is_reserved": 0}, {"lon": -77.04272583333334, "bike_id": "8058a64cea30daf20bb4efa3699f39d7", "lat": 38.90723166666667, "fusion_lon": 0.0, "fusion_lat": 0.0, "type": "electric_scooter", "name": "8058a64cea30daf20bb4efa3699f39d7", "is_disabled": 0, "rental_uris": {"ios": "https://dc.lft.to/lastmile_qr_scan", "android": "https://dc.lft.to/lastmile_qr_scan"}, "is_reserved": 0}, {"lon": -77.012076, "bike_id": "31ab66b8c8fcd04d4ece12947182cf4d", "lat": 38.92120466666667, "fusion_lon": 0.0, "fusion_lat": 0.0, "type": "electric_scooter", "name": "31ab66b8c8fcd04d4ece12947182cf4d", "is_disabled": 0, "rental_uris": {"ios": "https://dc.lft.to/lastmile_qr_scan", "android": "https://dc.lft.to/lastmile_qr_scan"}, "is_reserved": 0}, {"lon": -77.02298366666666, "bike_id": "601091b829defe9fd8ed6846046d5736", "lat": 38.91700483333334, "fusion_lon": 0.0, "fusion_lat": 0.0, "type": "electric_scooter", "name": "601091b829defe9fd8ed6846046d5736", "is_disabled": 0, "rental_uris": {"ios": "https://dc.lft.to/lastmile_qr_scan", "android": "https://dc.lft.to/lastmile_qr_scan"}, "is_reserved": 0}, {"lon": -77.04179983333333, "bike_id": "dc71a7e05d88dedd1206331f9a856424", "lat": 38.89224883333333, "fusion_lon": 0.0, "fusion_lat": 0.0, "type": "electric_scooter", "name": "dc71a7e05d88dedd1206331f9a856424", "is_disabled": 0, "rental_uris": {"ios": "https://dc.lft.to/lastmile_qr_scan", "android": "https://dc.lft.to/lastmile_qr_scan"}, "is_reserved": 0}, {"lon": -76.98221433333333, "bike_id": "194b0ae48240f86a941ebf0debeda3a9", "lat": 38.866484666666665, "fusion_lon": 0.0, "fusion_lat": 0.0, "type": "electric_scooter", "name": "194b0ae48240f86a941ebf0debeda3a9", "is_disabled": 0, "rental_uris": {"ios": "https://dc.lft.to/lastmile_qr_scan", "android": "https://dc.lft.to/lastmile_qr_scan"}, "is_reserved": 0}, {"lon": -77.05159883333333, "bike_id": "dc75217bf37ec601df0d8f7fc62368bc", "lat": 39.04305466666667, "fusion_lon": 0.0, "fusion_lat": 0.0, "type": "electric_bike", "name": "dc75217bf37ec601df0d8f7fc62368bc", "is_disabled": 0, "rental_uris": {"ios": "https://dc.lft.to/lastmile_qr_scan", "android": "https://dc.lft.to/lastmile_qr_scan"}, "is_reserved": 0}, {"lon": -77.04350083333334, "bike_id": "eaf816efb95ed26f21202624c86e7e9a", "lat": 38.9013785, "fusion_lon": 0.0, "fusion_lat": 0.0, "type": "electric_scooter", "name": "eaf816efb95ed26f21202624c86e7e9a", "is_disabled": 0, "rental_uris": {"ios": "https://dc.lft.to/lastmile_qr_scan", "android": "https://dc.lft.to/lastmile_qr_scan"}, "is_reserved": 0}, {"lon": -77.03827933333334, "bike_id": "19bdf4a5f852e040cd8cecfa751b9cce", "lat": 38.91114666666667, "fusion_lon": 0.0, "fusion_lat": 0.0, "type": "electric_scooter", "name": "19bdf4a5f852e040cd8cecfa751b9cce", "is_disabled": 0, "rental_uris": {"ios": "https://dc.lft.to/lastmile_qr_scan", "android": "https://dc.lft.to/lastmile_qr_scan"}, "is_reserved": 0}, {"lon": -76.92996866666667, "bike_id": "8dcdbcafc8940796b0f2b67894e08529", "lat": 38.89189983333333, "fusion_lon": 0.0, "fusion_lat": 0.0, "type": "electric_scooter", "name": "8dcdbcafc8940796b0f2b67894e08529", "is_disabled": 0, "rental_uris": {"ios": "https://dc.lft.to/lastmile_qr_scan", "android": "https://dc.lft.to/lastmile_qr_scan"}, "is_reserved": 0}, {"lon": -77.00060566666667, "bike_id": "e1d44d524cdd111a6a146522ff73784f", "lat": 38.89491916666667, "fusion_lon": 0.0, "fusion_lat": 0.0, "type": "electric_scooter", "name": "e1d44d524cdd111a6a146522ff73784f", "is_disabled": 0, "rental_uris": {"ios": "https://dc.lft.to/lastmile_qr_scan", "android": "https://dc.lft.to/lastmile_qr_scan"}, "is_reserved": 0}, {"lon": -77.05724783333334, "bike_id": "3743bcc99fce958119b50c8e6e0d24d7", "lat": 38.933682, "fusion_lon": 0.0, "fusion_lat": 0.0, "type": "electric_scooter", "name": "3743bcc99fce958119b50c8e6e0d24d7", "is_disabled": 0, "rental_uris": {"ios": "https://dc.lft.to/lastmile_qr_scan", "android": "https://dc.lft.to/lastmile_qr_scan"}, "is_reserved": 0}, {"lon": -77.0415875, "bike_id": "4d4718b363a369e5320aa22c58fc8fdb", "lat": 38.91419766666667, "fusion_lon": 0.0, "fusion_lat": 0.0, "type": "electric_scooter", "name": "4d4718b363a369e5320aa22c58fc8fdb", "is_disabled": 0, "rental_uris": {"ios": "https://dc.lft.to/lastmile_qr_scan", "android": "https://dc.lft.to/lastmile_qr_scan"}, "is_reserved": 0}, {"lon": -77.05695033333333, "bike_id": "c400db15fe2b09d5603a34c8403d13b2", "lat": 38.93716716666667, "fusion_lon": 0.0, "fusion_lat": 0.0, "type": "electric_scooter", "name": "c400db15fe2b09d5603a34c8403d13b2", "is_disabled": 0, "rental_uris": {"ios": "https://dc.lft.to/lastmile_qr_scan", "android": "https://dc.lft.to/lastmile_qr_scan"}, "is_reserved": 0}, {"lon": -77.02779266666667, "bike_id": "55ba5b885ee1d272d8abb25408c14809", "lat": 38.89219766666667, "fusion_lon": 0.0, "fusion_lat": 0.0, "type": "electric_scooter", "name": "55ba5b885ee1d272d8abb25408c14809", "is_disabled": 0, "rental_uris": {"ios": "https://dc.lft.to/lastmile_qr_scan", "android": "https://dc.lft.to/lastmile_qr_scan"}, "is_reserved": 0}, {"lon": -77.1114695, "bike_id": "c31353c11fc581e8ae612cac58b778a6", "lat": 38.85512633333333, "fusion_lon": 0.0, "fusion_lat": 0.0, "type": "electric_bike", "name": "c31353c11fc581e8ae612cac58b778a6", "is_disabled": 0, "rental_uris": {"ios": "https://dc.lft.to/lastmile_qr_scan", "android": "https://dc.lft.to/lastmile_qr_scan"}, "is_reserved": 0}, {"lon": -77.02775683333333, "bike_id": "c81c7f0c4f41b00addc5e97d2c2aa30b", "lat": 38.892181, "fusion_lon": 0.0, "fusion_lat": 0.0, "type": "electric_scooter", "name": "c81c7f0c4f41b00addc5e97d2c2aa30b", "is_disabled": 0, "rental_uris": {"ios": "https://dc.lft.to/lastmile_qr_scan", "android": "https://dc.lft.to/lastmile_qr_scan"}, "is_reserved": 0}, {"lon": -77.104878, "bike_id": "0742cd42d1c1783f1145d4760cf85a2f", "lat": 38.85600016666667, "fusion_lon": 0.0, "fusion_lat": 0.0, "type": "electric_bike", "name": "0742cd42d1c1783f1145d4760cf85a2f", "is_disabled": 0, "rental_uris": {"ios": "https://dc.lft.to/lastmile_qr_scan", "android": "https://dc.lft.to/lastmile_qr_scan"}, "is_reserved": 0}, {"lon": -76.9822725, "bike_id": "8fd4534fdee59192d7ee237822b657ed", "lat": 38.88646983333334, "fusion_lon": 0.0, "fusion_lat": 0.0, "type": "electric_scooter", "name": "8fd4534fdee59192d7ee237822b657ed", "is_disabled": 0, "rental_uris": {"ios": "https://dc.lft.to/lastmile_qr_scan", "android": "https://dc.lft.to/lastmile_qr_scan"}, "is_reserved": 0}, {"lon": -77.02712266666667, "bike_id": "5014bc0b5e18061f9b3b8d30cc487f83", "lat": 38.949940833333336, "fusion_lon": 0.0, "fusion_lat": 0.0, "type": "electric_scooter", "name": "5014bc0b5e18061f9b3b8d30cc487f83", "is_disabled": 0, "rental_uris": {"ios": "https://dc.lft.to/lastmile_qr_scan", "android": "https://dc.lft.to/lastmile_qr_scan"}, "is_reserved": 0}, {"lon": -77.036913, "bike_id": "c9851bf91d49e02b9a2ba85f16b11acc", "lat": 38.936466, "fusion_lon": 0.0, "fusion_lat": 0.0, "type": "electric_bike", "name": "c9851bf91d49e02b9a2ba85f16b11acc", "is_disabled": 0, "rental_uris": {"ios": "https://dc.lft.to/lastmile_qr_scan", "android": "https://dc.lft.to/lastmile_qr_scan"}, "is_reserved": 0}, {"lon": -77.0237475, "bike_id": "fa175dd71df31e625adbbd5c91b6e306", "lat": 38.92054616666667, "fusion_lon": 0.0, "fusion_lat": 0.0, "type": "electric_scooter", "name": "fa175dd71df31e625adbbd5c91b6e306", "is_disabled": 0, "rental_uris": {"ios": "https://dc.lft.to/lastmile_qr_scan", "android": "https://dc.lft.to/lastmile_qr_scan"}, "is_reserved": 0}, {"lon": -77.0415685, "bike_id": "90cb97ecdd4e05dd265ef6e8ee02550c", "lat": 38.9181535, "fusion_lon": 0.0, "fusion_lat": 0.0, "type": "electric_scooter", "name": "90cb97ecdd4e05dd265ef6e8ee02550c", "is_disabled": 0, "rental_uris": {"ios": "https://dc.lft.to/lastmile_qr_scan", "android": "https://dc.lft.to/lastmile_qr_scan"}, "is_reserved": 0}, {"lon": -77.0327595, "bike_id": "cf39c569de1f51c828002b2f48285844", "lat": 38.940906166666664, "fusion_lon": 0.0, "fusion_lat": 0.0, "type": "electric_bike", "name": "cf39c569de1f51c828002b2f48285844", "is_disabled": 0, "rental_uris": {"ios": "https://dc.lft.to/lastmile_qr_scan", "android": "https://dc.lft.to/lastmile_qr_scan"}, "is_reserved": 0}, {"lon": -77.01910333333333, "bike_id": "9c08cbb4b9b8acbd72a17b3f3e783fe6", "lat": 38.9023555, "fusion_lon": 0.0, "fusion_lat": 0.0, "type": "electric_scooter", "name": "9c08cbb4b9b8acbd72a17b3f3e783fe6", "is_disabled": 0, "rental_uris": {"ios": "https://dc.lft.to/lastmile_qr_scan", "android": "https://dc.lft.to/lastmile_qr_scan"}, "is_reserved": 0}, {"lon": -77.02985183333334, "bike_id": "db3a5eb1adaefb37e997a063e024aa1d", "lat": 38.907089, "fusion_lon": 0.0, "fusion_lat": 0.0, "type": "electric_scooter", "name": "db3a5eb1adaefb37e997a063e024aa1d", "is_disabled": 0, "rental_uris": {"ios": "https://dc.lft.to/lastmile_qr_scan", "android": "https://dc.lft.to/lastmile_qr_scan"}, "is_reserved": 0}, {"lon": -77.03380916666667, "bike_id": "47252cfa2db6ef0a67cbfea52ad66331", "lat": 38.921472666666666, "fusion_lon": 0.0, "fusion_lat": 0.0, "type": "electric_scooter", "name": "47252cfa2db6ef0a67cbfea52ad66331", "is_disabled": 0, "rental_uris": {"ios": "https://dc.lft.to/lastmile_qr_scan", "android": "https://dc.lft.to/lastmile_qr_scan"}, "is_reserved": 0}, {"lon": -77.03471, "bike_id": "0f8bcf4b6cdf7b80c6d6c15d56e578da", "lat": 38.90727666666667, "fusion_lon": 0.0, "fusion_lat": 0.0, "type": "electric_scooter", "name": "0f8bcf4b6cdf7b80c6d6c15d56e578da", "is_disabled": 0, "rental_uris": {"ios": "https://dc.lft.to/lastmile_qr_scan", "android": "https://dc.lft.to/lastmile_qr_scan"}, "is_reserved": 0}, {"lon": -77.034106, "bike_id": "872d651093d6bfc1c9dae20ea1301f85", "lat": 38.93412266666667, "fusion_lon": 0.0, "fusion_lat": 0.0, "type": "electric_scooter", "name": "872d651093d6bfc1c9dae20ea1301f85", "is_disabled": 0, "rental_uris": {"ios": "https://dc.lft.to/lastmile_qr_scan", "android": "https://dc.lft.to/lastmile_qr_scan"}, "is_reserved": 0}, {"lon": -77.03189533333334, "bike_id": "effb4e9f88fa1e5e659028243f0e4c1c", "lat": 38.912742, "fusion_lon": 0.0, "fusion_lat": 0.0, "type": "electric_scooter", "name": "effb4e9f88fa1e5e659028243f0e4c1c", "is_disabled": 0, "rental_uris": {"ios": "https://dc.lft.to/lastmile_qr_scan", "android": "https://dc.lft.to/lastmile_qr_scan"}, "is_reserved": 0}, {"lon": -77.04484116666667, "bike_id": "a296dab320a756837f05ba75b837fb21", "lat": 38.9006295, "fusion_lon": 0.0, "fusion_lat": 0.0, "type": "electric_scooter", "name": "a296dab320a756837f05ba75b837fb21", "is_disabled": 0, "rental_uris": {"ios": "https://dc.lft.to/lastmile_qr_scan", "android": "https://dc.lft.to/lastmile_qr_scan"}, "is_reserved": 0}, {"lon": -77.036661, "bike_id": "c2b7b3a4b873cdbd42d4ee9098a01546", "lat": 38.904666166666665, "fusion_lon": 0.0, "fusion_lat": 0.0, "type": "electric_scooter", "name": "c2b7b3a4b873cdbd42d4ee9098a01546", "is_disabled": 0, "rental_uris": {"ios": "https://dc.lft.to/lastmile_qr_scan", "android": "https://dc.lft.to/lastmile_qr_scan"}, "is_reserved": 0}, {"lon": -77.046537, "bike_id": "1f251c04a322e7c3a820bd90822b43cc", "lat": 38.92118633333333, "fusion_lon": 0.0, "fusion_lat": 0.0, "type": "electric_scooter", "name": "1f251c04a322e7c3a820bd90822b43cc", "is_disabled": 0, "rental_uris": {"ios": "https://dc.lft.to/lastmile_qr_scan", "android": "https://dc.lft.to/lastmile_qr_scan"}, "is_reserved": 0}, {"lon": -77.02717266666667, "bike_id": "931aedf26657ce730011ad44954e2a3c", "lat": 38.91138933333333, "fusion_lon": 0.0, "fusion_lat": 0.0, "type": "electric_scooter", "name": "931aedf26657ce730011ad44954e2a3c", "is_disabled": 0, "rental_uris": {"ios": "https://dc.lft.to/lastmile_qr_scan", "android": "https://dc.lft.to/lastmile_qr_scan"}, "is_reserved": 0}, {"lon": -77.04035033333334, "bike_id": "42634ad736d660b37b64a0c04994626d", "lat": 38.925677, "fusion_lon": 0.0, "fusion_lat": 0.0, "type": "electric_scooter", "name": "42634ad736d660b37b64a0c04994626d", "is_disabled": 0, "rental_uris": {"ios": "https://dc.lft.to/lastmile_qr_scan", "android": "https://dc.lft.to/lastmile_qr_scan"}, "is_reserved": 0}, {"lon": -76.9488275, "bike_id": "fa3d51f3c582dd9140936f3d62711ff7", "lat": 38.89511266666667, "fusion_lon": 0.0, "fusion_lat": 0.0, "type": "electric_scooter", "name": "fa3d51f3c582dd9140936f3d62711ff7", "is_disabled": 0, "rental_uris": {"ios": "https://dc.lft.to/lastmile_qr_scan", "android": "https://dc.lft.to/lastmile_qr_scan"}, "is_reserved": 0}, {"lon": -77.07766683333334, "bike_id": "83eccd0ae91080f76d73228e18e1ba71", "lat": 38.93039666666667, "fusion_lon": 0.0, "fusion_lat": 0.0, "type": "electric_scooter", "name": "83eccd0ae91080f76d73228e18e1ba71", "is_disabled": 0, "rental_uris": {"ios": "https://dc.lft.to/lastmile_qr_scan", "android": "https://dc.lft.to/lastmile_qr_scan"}, "is_reserved": 0}, {"lon": -77.0241975, "bike_id": "27450be74336f1705f2ee47add9b7ef0", "lat": 38.93522433333333, "fusion_lon": 0.0, "fusion_lat": 0.0, "type": "electric_scooter", "name": "27450be74336f1705f2ee47add9b7ef0", "is_disabled": 0, "rental_uris": {"ios": "https://dc.lft.to/lastmile_qr_scan", "android": "https://dc.lft.to/lastmile_qr_scan"}, "is_reserved": 0}, {"lon": -77.06101483333333, "bike_id": "791f84a015a79a93757d2b2548e7773b", "lat": 38.937055, "fusion_lon": 0.0, "fusion_lat": 0.0, "type": "electric_scooter", "name": "791f84a015a79a93757d2b2548e7773b", "is_disabled": 0, "rental_uris": {"ios": "https://dc.lft.to/lastmile_qr_scan", "android": "https://dc.lft.to/lastmile_qr_scan"}, "is_reserved": 0}, {"lon": -77.0106055, "bike_id": "f6b3f418b0224e11e67e2147b01ac93f", "lat": 38.963495, "fusion_lon": 0.0, "fusion_lat": 0.0, "type": "electric_scooter", "name": "f6b3f418b0224e11e67e2147b01ac93f", "is_disabled": 0, "rental_uris": {"ios": "https://dc.lft.to/lastmile_qr_scan", "android": "https://dc.lft.to/lastmile_qr_scan"}, "is_reserved": 0}, {"lon": -77.00207883333333, "bike_id": "9e745b0fe21ff39648c54dcb695dc2a3", "lat": 38.900217, "fusion_lon": 0.0, "fusion_lat": 0.0, "type": "electric_scooter", "name": "9e745b0fe21ff39648c54dcb695dc2a3", "is_disabled": 0, "rental_uris": {"ios": "https://dc.lft.to/lastmile_qr_scan", "android": "https://dc.lft.to/lastmile_qr_scan"}, "is_reserved": 0}, {"lon": -77.05043133333334, "bike_id": "8beb7108c3baecb2cdc2570df69c00c2", "lat": 38.924079, "fusion_lon": 0.0, "fusion_lat": 0.0, "type": "electric_bike", "name": "8beb7108c3baecb2cdc2570df69c00c2", "is_disabled": 0, "rental_uris": {"ios": "https://dc.lft.to/lastmile_qr_scan", "android": "https://dc.lft.to/lastmile_qr_scan"}, "is_reserved": 0}, {"lon": -77.03173516666666, "bike_id": "f9b055884891d7e1ac2ab22ea41eeff9", "lat": 38.905145166666664, "fusion_lon": 0.0, "fusion_lat": 0.0, "type": "electric_scooter", "name": "f9b055884891d7e1ac2ab22ea41eeff9", "is_disabled": 0, "rental_uris": {"ios": "https://dc.lft.to/lastmile_qr_scan", "android": "https://dc.lft.to/lastmile_qr_scan"}, "is_reserved": 0}, {"lon": -77.10331116666667, "bike_id": "0e223f05b00447f8c9cac342f4cf7410", "lat": 38.88552816666667, "fusion_lon": 0.0, "fusion_lat": 0.0, "type": "electric_bike", "name": "0e223f05b00447f8c9cac342f4cf7410", "is_disabled": 0, "rental_uris": {"ios": "https://dc.lft.to/lastmile_qr_scan", "android": "https://dc.lft.to/lastmile_qr_scan"}, "is_reserved": 0}, {"lon": -77.01669533333333, "bike_id": "d23557b92cfbb5e07e3f81fce54ae943", "lat": 38.881023166666665, "fusion_lon": 0.0, "fusion_lat": 0.0, "type": "electric_bike", "name": "d23557b92cfbb5e07e3f81fce54ae943", "is_disabled": 0, "rental_uris": {"ios": "https://dc.lft.to/lastmile_qr_scan", "android": "https://dc.lft.to/lastmile_qr_scan"}, "is_reserved": 0}, {"lon": -77.04488116666667, "bike_id": "31ce22a5374b71fa5d9252ff6f5be4e0", "lat": 38.90729316666667, "fusion_lon": 0.0, "fusion_lat": 0.0, "type": "electric_scooter", "name": "31ce22a5374b71fa5d9252ff6f5be4e0", "is_disabled": 0, "rental_uris": {"ios": "https://dc.lft.to/lastmile_qr_scan", "android": "https://dc.lft.to/lastmile_qr_scan"}, "is_reserved": 0}, {"lon": -77.02837533333333, "bike_id": "0da2742e9099a36c7b30af63b3ef81d5", "lat": 38.929623, "fusion_lon": 0.0, "fusion_lat": 0.0, "type": "electric_scooter", "name": "0da2742e9099a36c7b30af63b3ef81d5", "is_disabled": 0, "rental_uris": {"ios": "https://dc.lft.to/lastmile_qr_scan", "android": "https://dc.lft.to/lastmile_qr_scan"}, "is_reserved": 0}, {"lon": -77.00983816666667, "bike_id": "6c53c44e5e944afb09e57b927a283b23", "lat": 38.90367883333333, "fusion_lon": 0.0, "fusion_lat": 0.0, "type": "electric_scooter", "name": "6c53c44e5e944afb09e57b927a283b23", "is_disabled": 0, "rental_uris": {"ios": "https://dc.lft.to/lastmile_qr_scan", "android": "https://dc.lft.to/lastmile_qr_scan"}, "is_reserved": 0}, {"lon": -77.03578533333334, "bike_id": "819cda9fa1682af98c168792c404f071", "lat": 38.9177695, "fusion_lon": 0.0, "fusion_lat": 0.0, "type": "electric_scooter", "name": "819cda9fa1682af98c168792c404f071", "is_disabled": 0, "rental_uris": {"ios": "https://dc.lft.to/lastmile_qr_scan", "android": "https://dc.lft.to/lastmile_qr_scan"}, "is_reserved": 0}, {"lon": -77.03990083333333, "bike_id": "d8b16d4d18f4a0864e79e042d708ed94", "lat": 38.916328666666665, "fusion_lon": 0.0, "fusion_lat": 0.0, "type": "electric_scooter", "name": "d8b16d4d18f4a0864e79e042d708ed94", "is_disabled": 0, "rental_uris": {"ios": "https://dc.lft.to/lastmile_qr_scan", "android": "https://dc.lft.to/lastmile_qr_scan"}, "is_reserved": 0}, {"lon": -77.04874616666666, "bike_id": "f81670c5ee8783cbc9eb48e1818d18e8", "lat": 38.904732833333334, "fusion_lon": 0.0, "fusion_lat": 0.0, "type": "electric_scooter", "name": "f81670c5ee8783cbc9eb48e1818d18e8", "is_disabled": 0, "rental_uris": {"ios": "https://dc.lft.to/lastmile_qr_scan", "android": "https://dc.lft.to/lastmile_qr_scan"}, "is_reserved": 0}, {"lon": -77.07730083333334, "bike_id": "340eb38bed13667afbd9b50b905900bb", "lat": 38.922625, "fusion_lon": 0.0, "fusion_lat": 0.0, "type": "electric_bike", "name": "340eb38bed13667afbd9b50b905900bb", "is_disabled": 0, "rental_uris": {"ios": "https://dc.lft.to/lastmile_qr_scan", "android": "https://dc.lft.to/lastmile_qr_scan"}, "is_reserved": 0}, {"lon": -77.03589466666666, "bike_id": "526b657ed5496fee478b06abb0958a40", "lat": 38.909720666666665, "fusion_lon": 0.0, "fusion_lat": 0.0, "type": "electric_scooter", "name": "526b657ed5496fee478b06abb0958a40", "is_disabled": 0, "rental_uris": {"ios": "https://dc.lft.to/lastmile_qr_scan", "android": "https://dc.lft.to/lastmile_qr_scan"}, "is_reserved": 0}, {"lon": -77.0498655, "bike_id": "661e93c662a0e6fe6d645c9cfb65089c", "lat": 38.900625, "fusion_lon": 0.0, "fusion_lat": 0.0, "type": "electric_scooter", "name": "661e93c662a0e6fe6d645c9cfb65089c", "is_disabled": 0, "rental_uris": {"ios": "https://dc.lft.to/lastmile_qr_scan", "android": "https://dc.lft.to/lastmile_qr_scan"}, "is_reserved": 0}, {"lon": -77.0499245, "bike_id": "36a488ff26bcc1afe1d951541481fc80", "lat": 38.899999333333334, "fusion_lon": 0.0, "fusion_lat": 0.0, "type": "electric_scooter", "name": "36a488ff26bcc1afe1d951541481fc80", "is_disabled": 0, "rental_uris": {"ios": "https://dc.lft.to/lastmile_qr_scan", "android": "https://dc.lft.to/lastmile_qr_scan"}, "is_reserved": 0}, {"lon": -76.97648616666666, "bike_id": "b65229760bc1e9a610259a5aa312ef23", "lat": 38.8986935, "fusion_lon": 0.0, "fusion_lat": 0.0, "type": "electric_bike", "name": "b65229760bc1e9a610259a5aa312ef23", "is_disabled": 0, "rental_uris": {"ios": "https://dc.lft.to/lastmile_qr_scan", "android": "https://dc.lft.to/lastmile_qr_scan"}, "is_reserved": 0}, {"lon": -77.0612645, "bike_id": "df0ce60da11fc0431e32972f7214bcf9", "lat": 38.94360316666667, "fusion_lon": 0.0, "fusion_lat": 0.0, "type": "electric_scooter", "name": "df0ce60da11fc0431e32972f7214bcf9", "is_disabled": 0, "rental_uris": {"ios": "https://dc.lft.to/lastmile_qr_scan", "android": "https://dc.lft.to/lastmile_qr_scan"}, "is_reserved": 0}, {"lon": -77.025123, "bike_id": "af4346d6534b783bb2ed730dd14667d2", "lat": 38.92082933333333, "fusion_lon": 0.0, "fusion_lat": 0.0, "type": "electric_scooter", "name": "af4346d6534b783bb2ed730dd14667d2", "is_disabled": 0, "rental_uris": {"ios": "https://dc.lft.to/lastmile_qr_scan", "android": "https://dc.lft.to/lastmile_qr_scan"}, "is_reserved": 0}, {"lon": -77.0242745, "bike_id": "c2fc808d2768a5bf3c4683ede2396ca4", "lat": 38.922887333333335, "fusion_lon": 0.0, "fusion_lat": 0.0, "type": "electric_scooter", "name": "c2fc808d2768a5bf3c4683ede2396ca4", "is_disabled": 0, "rental_uris": {"ios": "https://dc.lft.to/lastmile_qr_scan", "android": "https://dc.lft.to/lastmile_qr_scan"}, "is_reserved": 0}, {"lon": -77.02712516666666, "bike_id": "175585136167e94b2c7bb49b1cbf6a30", "lat": 38.902487666666666, "fusion_lon": 0.0, "fusion_lat": 0.0, "type": "electric_scooter", "name": "175585136167e94b2c7bb49b1cbf6a30", "is_disabled": 0, "rental_uris": {"ios": "https://dc.lft.to/lastmile_qr_scan", "android": "https://dc.lft.to/lastmile_qr_scan"}, "is_reserved": 0}, {"lon": -77.0318, "bike_id": "84a1adfe217a949a2129ae08e39fe901", "lat": 38.91911233333333, "fusion_lon": 0.0, "fusion_lat": 0.0, "type": "electric_scooter", "name": "84a1adfe217a949a2129ae08e39fe901", "is_disabled": 0, "rental_uris": {"ios": "https://dc.lft.to/lastmile_qr_scan", "android": "https://dc.lft.to/lastmile_qr_scan"}, "is_reserved": 0}, {"lon": -77.03000333333334, "bike_id": "11089d7d7af52360b61a767336753aff", "lat": 39.04194866666667, "fusion_lon": 0.0, "fusion_lat": 0.0, "type": "electric_bike", "name": "11089d7d7af52360b61a767336753aff", "is_disabled": 0, "rental_uris": {"ios": "https://dc.lft.to/lastmile_qr_scan", "android": "https://dc.lft.to/lastmile_qr_scan"}, "is_reserved": 0}, {"lon": -77.077918, "bike_id": "2b7148845b2b8c756beb2c6c38cf4941", "lat": 38.9960565, "fusion_lon": 0.0, "fusion_lat": 0.0, "type": "electric_bike", "name": "2b7148845b2b8c756beb2c6c38cf4941", "is_disabled": 0, "rental_uris": {"ios": "https://dc.lft.to/lastmile_qr_scan", "android": "https://dc.lft.to/lastmile_qr_scan"}, "is_reserved": 0}, {"lon": -77.02809966666666, "bike_id": "71e2fcd23f966eae3b3201300b9fb237", "lat": 38.911292333333336, "fusion_lon": 0.0, "fusion_lat": 0.0, "type": "electric_scooter", "name": "71e2fcd23f966eae3b3201300b9fb237", "is_disabled": 0, "rental_uris": {"ios": "https://dc.lft.to/lastmile_qr_scan", "android": "https://dc.lft.to/lastmile_qr_scan"}, "is_reserved": 0}, {"lon": -77.00190066666667, "bike_id": "8e8b90df2758305849e7e2b98241c4e4", "lat": 38.890974, "fusion_lon": 0.0, "fusion_lat": 0.0, "type": "electric_scooter", "name": "8e8b90df2758305849e7e2b98241c4e4", "is_disabled": 0, "rental_uris": {"ios": "https://dc.lft.to/lastmile_qr_scan", "android": "https://dc.lft.to/lastmile_qr_scan"}, "is_reserved": 0}, {"lon": -77.02450266666666, "bike_id": "44ed5290ff0eb42dcaa0a161be4ff1c1", "lat": 38.9381835, "fusion_lon": 0.0, "fusion_lat": 0.0, "type": "electric_scooter", "name": "44ed5290ff0eb42dcaa0a161be4ff1c1", "is_disabled": 0, "rental_uris": {"ios": "https://dc.lft.to/lastmile_qr_scan", "android": "https://dc.lft.to/lastmile_qr_scan"}, "is_reserved": 0}, {"lon": -77.01995316666667, "bike_id": "6329a030befd2cb7be34fcf7abdeafa9", "lat": 38.885995666666666, "fusion_lon": 0.0, "fusion_lat": 0.0, "type": "electric_scooter", "name": "6329a030befd2cb7be34fcf7abdeafa9", "is_disabled": 0, "rental_uris": {"ios": "https://dc.lft.to/lastmile_qr_scan", "android": "https://dc.lft.to/lastmile_qr_scan"}, "is_reserved": 0}, {"lon": -77.032386, "bike_id": "185c3ee30782a248d1e60bfa50ad9a57", "lat": 38.92988016666666, "fusion_lon": 0.0, "fusion_lat": 0.0, "type": "electric_scooter", "name": "185c3ee30782a248d1e60bfa50ad9a57", "is_disabled": 0, "rental_uris": {"ios": "https://dc.lft.to/lastmile_qr_scan", "android": "https://dc.lft.to/lastmile_qr_scan"}, "is_reserved": 0}, {"lon": -76.99923116666666, "bike_id": "8669a586036862e8ac96ab1a548bed07", "lat": 38.88975166666667, "fusion_lon": 0.0, "fusion_lat": 0.0, "type": "electric_scooter", "name": "8669a586036862e8ac96ab1a548bed07", "is_disabled": 0, "rental_uris": {"ios": "https://dc.lft.to/lastmile_qr_scan", "android": "https://dc.lft.to/lastmile_qr_scan"}, "is_reserved": 0}, {"lon": -77.04843533333333, "bike_id": "be93a6a5c5870ca7cd27dd9b3da41d31", "lat": 38.889658833333336, "fusion_lon": 0.0, "fusion_lat": 0.0, "type": "electric_scooter", "name": "be93a6a5c5870ca7cd27dd9b3da41d31", "is_disabled": 0, "rental_uris": {"ios": "https://dc.lft.to/lastmile_qr_scan", "android": "https://dc.lft.to/lastmile_qr_scan"}, "is_reserved": 0}, {"lon": -77.03130316666666, "bike_id": "0d679907db92bfbab686a77998aadc23", "lat": 38.89733966666667, "fusion_lon": 0.0, "fusion_lat": 0.0, "type": "electric_scooter", "name": "0d679907db92bfbab686a77998aadc23", "is_disabled": 0, "rental_uris": {"ios": "https://dc.lft.to/lastmile_qr_scan", "android": "https://dc.lft.to/lastmile_qr_scan"}, "is_reserved": 0}, {"lon": -77.02280833333333, "bike_id": "eaceae4e4348c3a33b77b48c474045b7", "lat": 38.918474833333335, "fusion_lon": 0.0, "fusion_lat": 0.0, "type": "electric_scooter", "name": "eaceae4e4348c3a33b77b48c474045b7", "is_disabled": 0, "rental_uris": {"ios": "https://dc.lft.to/lastmile_qr_scan", "android": "https://dc.lft.to/lastmile_qr_scan"}, "is_reserved": 0}, {"lon": -77.03320183333334, "bike_id": "ca7ee22b4fb87c9cbb38366f8d4cf26c", "lat": 38.92651, "fusion_lon": 0.0, "fusion_lat": 0.0, "type": "electric_scooter", "name": "ca7ee22b4fb87c9cbb38366f8d4cf26c", "is_disabled": 0, "rental_uris": {"ios": "https://dc.lft.to/lastmile_qr_scan", "android": "https://dc.lft.to/lastmile_qr_scan"}, "is_reserved": 0}, {"lon": -77.03857716666667, "bike_id": "a661d64eaff8c0c6a9395e9f0fbd799d", "lat": 38.91715966666667, "fusion_lon": 0.0, "fusion_lat": 0.0, "type": "electric_scooter", "name": "a661d64eaff8c0c6a9395e9f0fbd799d", "is_disabled": 0, "rental_uris": {"ios": "https://dc.lft.to/lastmile_qr_scan", "android": "https://dc.lft.to/lastmile_qr_scan"}, "is_reserved": 0}, {"lon": -76.98107333333333, "bike_id": "76909b4b4b7610de7a7419165f071ded", "lat": 38.87729683333333, "fusion_lon": 0.0, "fusion_lat": 0.0, "type": "electric_bike", "name": "76909b4b4b7610de7a7419165f071ded", "is_disabled": 0, "rental_uris": {"ios": "https://dc.lft.to/lastmile_qr_scan", "android": "https://dc.lft.to/lastmile_qr_scan"}, "is_reserved": 0}, {"lon": -77.033006, "bike_id": "2b6dc550bf676e0ba56549e232f47834", "lat": 38.93038583333333, "fusion_lon": 0.0, "fusion_lat": 0.0, "type": "electric_scooter", "name": "2b6dc550bf676e0ba56549e232f47834", "is_disabled": 0, "rental_uris": {"ios": "https://dc.lft.to/lastmile_qr_scan", "android": "https://dc.lft.to/lastmile_qr_scan"}, "is_reserved": 0}, {"lon": -77.00075883333334, "bike_id": "d91357597a098cecb49ad3b6398479d2", "lat": 38.886796833333335, "fusion_lon": 0.0, "fusion_lat": 0.0, "type": "electric_scooter", "name": "d91357597a098cecb49ad3b6398479d2", "is_disabled": 0, "rental_uris": {"ios": "https://dc.lft.to/lastmile_qr_scan", "android": "https://dc.lft.to/lastmile_qr_scan"}, "is_reserved": 0}, {"lon": -77.05001766666666, "bike_id": "5afeb193c68829e4158c0cd40908a2af", "lat": 38.89193233333334, "fusion_lon": 0.0, "fusion_lat": 0.0, "type": "electric_scooter", "name": "5afeb193c68829e4158c0cd40908a2af", "is_disabled": 0, "rental_uris": {"ios": "https://dc.lft.to/lastmile_qr_scan", "android": "https://dc.lft.to/lastmile_qr_scan"}, "is_reserved": 0}, {"lon": -76.98245883333334, "bike_id": "abbc963a6d370e45f4268ef5a0136d95", "lat": 38.864560166666664, "fusion_lon": 0.0, "fusion_lat": 0.0, "type": "electric_scooter", "name": "abbc963a6d370e45f4268ef5a0136d95", "is_disabled": 0, "rental_uris": {"ios": "https://dc.lft.to/lastmile_qr_scan", "android": "https://dc.lft.to/lastmile_qr_scan"}, "is_reserved": 0}, {"lon": -77.05004083333333, "bike_id": "0467e7136a757f2ef7b33f732d1629c4", "lat": 38.891959666666665, "fusion_lon": 0.0, "fusion_lat": 0.0, "type": "electric_scooter", "name": "0467e7136a757f2ef7b33f732d1629c4", "is_disabled": 0, "rental_uris": {"ios": "https://dc.lft.to/lastmile_qr_scan", "android": "https://dc.lft.to/lastmile_qr_scan"}, "is_reserved": 0}, {"lon": -77.020919, "bike_id": "86dfa9a87a7423ef2359ed255cb0d0f7", "lat": 38.9113045, "fusion_lon": 0.0, "fusion_lat": 0.0, "type": "electric_scooter", "name": "86dfa9a87a7423ef2359ed255cb0d0f7", "is_disabled": 0, "rental_uris": {"ios": "https://dc.lft.to/lastmile_qr_scan", "android": "https://dc.lft.to/lastmile_qr_scan"}, "is_reserved": 0}, {"lon": -77.03664416666666, "bike_id": "15a718e0b2ae690da265c823be14e6d6", "lat": 38.93341933333333, "fusion_lon": 0.0, "fusion_lat": 0.0, "type": "electric_scooter", "name": "15a718e0b2ae690da265c823be14e6d6", "is_disabled": 0, "rental_uris": {"ios": "https://dc.lft.to/lastmile_qr_scan", "android": "https://dc.lft.to/lastmile_qr_scan"}, "is_reserved": 0}, {"lon": -77.009578, "bike_id": "44724a3b166ca536794ec6c16420bede", "lat": 38.921366, "fusion_lon": 0.0, "fusion_lat": 0.0, "type": "electric_scooter", "name": "44724a3b166ca536794ec6c16420bede", "is_disabled": 0, "rental_uris": {"ios": "https://dc.lft.to/lastmile_qr_scan", "android": "https://dc.lft.to/lastmile_qr_scan"}, "is_reserved": 0}, {"lon": -77.02552833333333, "bike_id": "171ae0d144d99ec76651fb3afcb837ae", "lat": 38.94168466666667, "fusion_lon": 0.0, "fusion_lat": 0.0, "type": "electric_scooter", "name": "171ae0d144d99ec76651fb3afcb837ae", "is_disabled": 0, "rental_uris": {"ios": "https://dc.lft.to/lastmile_qr_scan", "android": "https://dc.lft.to/lastmile_qr_scan"}, "is_reserved": 0}, {"lon": -77.0426145, "bike_id": "dc76c6c183230624351a21a53590fb16", "lat": 38.9228415, "fusion_lon": 0.0, "fusion_lat": 0.0, "type": "electric_scooter", "name": "dc76c6c183230624351a21a53590fb16", "is_disabled": 0, "rental_uris": {"ios": "https://dc.lft.to/lastmile_qr_scan", "android": "https://dc.lft.to/lastmile_qr_scan"}, "is_reserved": 0}, {"lon": -77.02568733333334, "bike_id": "f2de7b174a2afe72b3415b7ad6897a80", "lat": 38.9147965, "fusion_lon": 0.0, "fusion_lat": 0.0, "type": "electric_scooter", "name": "f2de7b174a2afe72b3415b7ad6897a80", "is_disabled": 0, "rental_uris": {"ios": "https://dc.lft.to/lastmile_qr_scan", "android": "https://dc.lft.to/lastmile_qr_scan"}, "is_reserved": 0}, {"lon": -76.9988965, "bike_id": "575ced36c81d79f0452e8963ef6441fc", "lat": 38.9072315, "fusion_lon": 0.0, "fusion_lat": 0.0, "type": "electric_scooter", "name": "575ced36c81d79f0452e8963ef6441fc", "is_disabled": 0, "rental_uris": {"ios": "https://dc.lft.to/lastmile_qr_scan", "android": "https://dc.lft.to/lastmile_qr_scan"}, "is_reserved": 0}, {"lon": -77.00679533333333, "bike_id": "cf033f4e0a6245cb8e3f51c2249c1800", "lat": 38.944946333333334, "fusion_lon": 0.0, "fusion_lat": 0.0, "type": "electric_bike", "name": "cf033f4e0a6245cb8e3f51c2249c1800", "is_disabled": 0, "rental_uris": {"ios": "https://dc.lft.to/lastmile_qr_scan", "android": "https://dc.lft.to/lastmile_qr_scan"}, "is_reserved": 0}, {"lon": -77.00598233333334, "bike_id": "05f34f449ba66894a6a52d2bb8b7e34a", "lat": 38.87187566666667, "fusion_lon": 0.0, "fusion_lat": 0.0, "type": "electric_scooter", "name": "05f34f449ba66894a6a52d2bb8b7e34a", "is_disabled": 0, "rental_uris": {"ios": "https://dc.lft.to/lastmile_qr_scan", "android": "https://dc.lft.to/lastmile_qr_scan"}, "is_reserved": 0}, {"lon": -77.03801216666666, "bike_id": "a162c549fc79a8646fedcdf966927a16", "lat": 38.93017666666667, "fusion_lon": 0.0, "fusion_lat": 0.0, "type": "electric_scooter", "name": "a162c549fc79a8646fedcdf966927a16", "is_disabled": 0, "rental_uris": {"ios": "https://dc.lft.to/lastmile_qr_scan", "android": "https://dc.lft.to/lastmile_qr_scan"}, "is_reserved": 0}, {"lon": -77.04013133333333, "bike_id": "61868a378c1e0f06456cae8e8ba5b1a1", "lat": 38.905825166666666, "fusion_lon": 0.0, "fusion_lat": 0.0, "type": "electric_scooter", "name": "61868a378c1e0f06456cae8e8ba5b1a1", "is_disabled": 0, "rental_uris": {"ios": "https://dc.lft.to/lastmile_qr_scan", "android": "https://dc.lft.to/lastmile_qr_scan"}, "is_reserved": 0}, {"lon": -77.02511166666666, "bike_id": "1f03da76a6e614cecd563761b34d0f7a", "lat": 38.926364666666665, "fusion_lon": 0.0, "fusion_lat": 0.0, "type": "electric_scooter", "name": "1f03da76a6e614cecd563761b34d0f7a", "is_disabled": 0, "rental_uris": {"ios": "https://dc.lft.to/lastmile_qr_scan", "android": "https://dc.lft.to/lastmile_qr_scan"}, "is_reserved": 0}, {"lon": -77.03275516666666, "bike_id": "909f1f6ad7956ef88b21ce5257cb8e6f", "lat": 38.90141, "fusion_lon": 0.0, "fusion_lat": 0.0, "type": "electric_scooter", "name": "909f1f6ad7956ef88b21ce5257cb8e6f", "is_disabled": 0, "rental_uris": {"ios": "https://dc.lft.to/lastmile_qr_scan", "android": "https://dc.lft.to/lastmile_qr_scan"}, "is_reserved": 0}, {"lon": -77.031311, "bike_id": "925060edeb4a9b20eef05462ff0279e3", "lat": 38.923731333333336, "fusion_lon": 0.0, "fusion_lat": 0.0, "type": "electric_scooter", "name": "925060edeb4a9b20eef05462ff0279e3", "is_disabled": 0, "rental_uris": {"ios": "https://dc.lft.to/lastmile_qr_scan", "android": "https://dc.lft.to/lastmile_qr_scan"}, "is_reserved": 0}, {"lon": -77.04219033333334, "bike_id": "848a89ac862424658c1629c0090d2d0a", "lat": 38.92309016666667, "fusion_lon": 0.0, "fusion_lat": 0.0, "type": "electric_scooter", "name": "848a89ac862424658c1629c0090d2d0a", "is_disabled": 0, "rental_uris": {"ios": "https://dc.lft.to/lastmile_qr_scan", "android": "https://dc.lft.to/lastmile_qr_scan"}, "is_reserved": 0}, {"lon": -76.97814016666666, "bike_id": "082e6e8527c1432a9dfe4d757ed94497", "lat": 38.90667, "fusion_lon": 0.0, "fusion_lat": 0.0, "type": "electric_scooter", "name": "082e6e8527c1432a9dfe4d757ed94497", "is_disabled": 0, "rental_uris": {"ios": "https://dc.lft.to/lastmile_qr_scan", "android": "https://dc.lft.to/lastmile_qr_scan"}, "is_reserved": 0}, {"lon": -77.07115716666667, "bike_id": "2b01748fac1e76422ca7d1ea7023a6c9", "lat": 38.9198115, "fusion_lon": 0.0, "fusion_lat": 0.0, "type": "electric_scooter", "name": "2b01748fac1e76422ca7d1ea7023a6c9", "is_disabled": 0, "rental_uris": {"ios": "https://dc.lft.to/lastmile_qr_scan", "android": "https://dc.lft.to/lastmile_qr_scan"}, "is_reserved": 0}, {"lon": -77.03188833333333, "bike_id": "af5f1d7c3da7268178f9d00b277772fc", "lat": 38.91745683333333, "fusion_lon": 0.0, "fusion_lat": 0.0, "type": "electric_scooter", "name": "af5f1d7c3da7268178f9d00b277772fc", "is_disabled": 0, "rental_uris": {"ios": "https://dc.lft.to/lastmile_qr_scan", "android": "https://dc.lft.to/lastmile_qr_scan"}, "is_reserved": 0}, {"lon": -77.04220633333334, "bike_id": "e526ff6d1a7a952697b5dfac9e19c3e5", "lat": 38.91407366666667, "fusion_lon": 0.0, "fusion_lat": 0.0, "type": "electric_scooter", "name": "e526ff6d1a7a952697b5dfac9e19c3e5", "is_disabled": 0, "rental_uris": {"ios": "https://dc.lft.to/lastmile_qr_scan", "android": "https://dc.lft.to/lastmile_qr_scan"}, "is_reserved": 0}, {"lon": -77.03848216666667, "bike_id": "105e9cd05c8f93372a1f54a91f79f4b2", "lat": 38.91014216666667, "fusion_lon": 0.0, "fusion_lat": 0.0, "type": "electric_scooter", "name": "105e9cd05c8f93372a1f54a91f79f4b2", "is_disabled": 0, "rental_uris": {"ios": "https://dc.lft.to/lastmile_qr_scan", "android": "https://dc.lft.to/lastmile_qr_scan"}, "is_reserved": 0}, {"lon": -77.031694, "bike_id": "5cb8348aec121cd84b3cb10ca6208fb3", "lat": 38.91827166666667, "fusion_lon": 0.0, "fusion_lat": 0.0, "type": "electric_scooter", "name": "5cb8348aec121cd84b3cb10ca6208fb3", "is_disabled": 0, "rental_uris": {"ios": "https://dc.lft.to/lastmile_qr_scan", "android": "https://dc.lft.to/lastmile_qr_scan"}, "is_reserved": 0}, {"lon": -77.04391933333333, "bike_id": "421758a09752b4a2ebc2c2bbf4c6eefe", "lat": 38.92110266666667, "fusion_lon": 0.0, "fusion_lat": 0.0, "type": "electric_scooter", "name": "421758a09752b4a2ebc2c2bbf4c6eefe", "is_disabled": 0, "rental_uris": {"ios": "https://dc.lft.to/lastmile_qr_scan", "android": "https://dc.lft.to/lastmile_qr_scan"}, "is_reserved": 0}, {"lon": -76.89535016666666, "bike_id": "a715d63682f59234ef128c5f1fd64f04", "lat": 38.94551533333333, "fusion_lon": 0.0, "fusion_lat": 0.0, "type": "electric_bike", "name": "a715d63682f59234ef128c5f1fd64f04", "is_disabled": 0, "rental_uris": {"ios": "https://dc.lft.to/lastmile_qr_scan", "android": "https://dc.lft.to/lastmile_qr_scan"}, "is_reserved": 0}, {"lon": -77.046723, "bike_id": "1805ec73637ce8f632a35db6b12280e5", "lat": 38.892298833333335, "fusion_lon": 0.0, "fusion_lat": 0.0, "type": "electric_scooter", "name": "1805ec73637ce8f632a35db6b12280e5", "is_disabled": 0, "rental_uris": {"ios": "https://dc.lft.to/lastmile_qr_scan", "android": "https://dc.lft.to/lastmile_qr_scan"}, "is_reserved": 0}, {"lon": -77.02375366666666, "bike_id": "cb528df44b02b17a5bdf780c92b309a8", "lat": 38.909576333333334, "fusion_lon": 0.0, "fusion_lat": 0.0, "type": "electric_scooter", "name": "cb528df44b02b17a5bdf780c92b309a8", "is_disabled": 0, "rental_uris": {"ios": "https://dc.lft.to/lastmile_qr_scan", "android": "https://dc.lft.to/lastmile_qr_scan"}, "is_reserved": 0}, {"lon": -77.021709, "bike_id": "1ac15a4323dc6171d51466a75776326e", "lat": 38.88719233333333, "fusion_lon": 0.0, "fusion_lat": 0.0, "type": "electric_scooter", "name": "1ac15a4323dc6171d51466a75776326e", "is_disabled": 0, "rental_uris": {"ios": "https://dc.lft.to/lastmile_qr_scan", "android": "https://dc.lft.to/lastmile_qr_scan"}, "is_reserved": 0}, {"lon": -77.02170683333334, "bike_id": "df44e64756bdede63aa46c7f892101ff", "lat": 38.91478433333333, "fusion_lon": 0.0, "fusion_lat": 0.0, "type": "electric_scooter", "name": "df44e64756bdede63aa46c7f892101ff", "is_disabled": 0, "rental_uris": {"ios": "https://dc.lft.to/lastmile_qr_scan", "android": "https://dc.lft.to/lastmile_qr_scan"}, "is_reserved": 0}, {"lon": -77.0400645, "bike_id": "988ff5e885e6369486ed0991399557ad", "lat": 38.91820716666667, "fusion_lon": 0.0, "fusion_lat": 0.0, "type": "electric_scooter", "name": "988ff5e885e6369486ed0991399557ad", "is_disabled": 0, "rental_uris": {"ios": "https://dc.lft.to/lastmile_qr_scan", "android": "https://dc.lft.to/lastmile_qr_scan"}, "is_reserved": 0}, {"lon": -77.05662366666667, "bike_id": "976a8e0f01e1c10c72d9c02923f38845", "lat": 38.89548083333333, "fusion_lon": 0.0, "fusion_lat": 0.0, "type": "electric_scooter", "name": "976a8e0f01e1c10c72d9c02923f38845", "is_disabled": 0, "rental_uris": {"ios": "https://dc.lft.to/lastmile_qr_scan", "android": "https://dc.lft.to/lastmile_qr_scan"}, "is_reserved": 0}, {"lon": -77.0175295, "bike_id": "220b80aa4ca6c8e517e5987876565c45", "lat": 38.883988, "fusion_lon": 0.0, "fusion_lat": 0.0, "type": "electric_scooter", "name": "220b80aa4ca6c8e517e5987876565c45", "is_disabled": 0, "rental_uris": {"ios": "https://dc.lft.to/lastmile_qr_scan", "android": "https://dc.lft.to/lastmile_qr_scan"}, "is_reserved": 0}, {"lon": -77.04874516666666, "bike_id": "97a8748579ab7906599f83dd699cfc48", "lat": 38.8923405, "fusion_lon": 0.0, "fusion_lat": 0.0, "type": "electric_scooter", "name": "97a8748579ab7906599f83dd699cfc48", "is_disabled": 0, "rental_uris": {"ios": "https://dc.lft.to/lastmile_qr_scan", "android": "https://dc.lft.to/lastmile_qr_scan"}, "is_reserved": 0}, {"lon": -77.021892, "bike_id": "7a1890d29856bd6153e2076087f4c3ed", "lat": 38.93303683333333, "fusion_lon": 0.0, "fusion_lat": 0.0, "type": "electric_scooter", "name": "7a1890d29856bd6153e2076087f4c3ed", "is_disabled": 0, "rental_uris": {"ios": "https://dc.lft.to/lastmile_qr_scan", "android": "https://dc.lft.to/lastmile_qr_scan"}, "is_reserved": 0}, {"lon": -76.93356883333334, "bike_id": "0616a4553ecd49e89cc66cad41527383", "lat": 38.88801133333333, "fusion_lon": 0.0, "fusion_lat": 0.0, "type": "electric_scooter", "name": "0616a4553ecd49e89cc66cad41527383", "is_disabled": 0, "rental_uris": {"ios": "https://dc.lft.to/lastmile_qr_scan", "android": "https://dc.lft.to/lastmile_qr_scan"}, "is_reserved": 0}, {"lon": -76.93176016666666, "bike_id": "442ff7848d6e15b7fcc595fb2b366b65", "lat": 38.903644166666666, "fusion_lon": 0.0, "fusion_lat": 0.0, "type": "electric_scooter", "name": "442ff7848d6e15b7fcc595fb2b366b65", "is_disabled": 0, "rental_uris": {"ios": "https://dc.lft.to/lastmile_qr_scan", "android": "https://dc.lft.to/lastmile_qr_scan"}, "is_reserved": 0}, {"lon": -77.02973933333334, "bike_id": "009d82d6932fc3e4e47cd40470570d3e", "lat": 38.916790666666664, "fusion_lon": 0.0, "fusion_lat": 0.0, "type": "electric_scooter", "name": "009d82d6932fc3e4e47cd40470570d3e", "is_disabled": 0, "rental_uris": {"ios": "https://dc.lft.to/lastmile_qr_scan", "android": "https://dc.lft.to/lastmile_qr_scan"}, "is_reserved": 0}, {"lon": -77.0434515, "bike_id": "57b85e33e2e890e52d0f8a57ef4410bb", "lat": 38.90804966666666, "fusion_lon": 0.0, "fusion_lat": 0.0, "type": "electric_scooter", "name": "57b85e33e2e890e52d0f8a57ef4410bb", "is_disabled": 0, "rental_uris": {"ios": "https://dc.lft.to/lastmile_qr_scan", "android": "https://dc.lft.to/lastmile_qr_scan"}, "is_reserved": 0}, {"lon": -77.02956916666666, "bike_id": "fcff351666daa39126ffcc32d181e636", "lat": 38.916716, "fusion_lon": 0.0, "fusion_lat": 0.0, "type": "electric_scooter", "name": "fcff351666daa39126ffcc32d181e636", "is_disabled": 0, "rental_uris": {"ios": "https://dc.lft.to/lastmile_qr_scan", "android": "https://dc.lft.to/lastmile_qr_scan"}, "is_reserved": 0}, {"lon": -77.0465145, "bike_id": "327965422b951b39a59ef3fc6b7c498e", "lat": 38.905455333333336, "fusion_lon": 0.0, "fusion_lat": 0.0, "type": "electric_scooter", "name": "327965422b951b39a59ef3fc6b7c498e", "is_disabled": 0, "rental_uris": {"ios": "https://dc.lft.to/lastmile_qr_scan", "android": "https://dc.lft.to/lastmile_qr_scan"}, "is_reserved": 0}, {"lon": -77.0200665, "bike_id": "db9ede54b7406e7de1d1a4c8e01264d7", "lat": 38.9026845, "fusion_lon": 0.0, "fusion_lat": 0.0, "type": "electric_scooter", "name": "db9ede54b7406e7de1d1a4c8e01264d7", "is_disabled": 0, "rental_uris": {"ios": "https://dc.lft.to/lastmile_qr_scan", "android": "https://dc.lft.to/lastmile_qr_scan"}, "is_reserved": 0}, {"lon": -77.03347333333333, "bike_id": "52f5dc2296296f18628a0ae023940077", "lat": 38.90147616666667, "fusion_lon": 0.0, "fusion_lat": 0.0, "type": "electric_scooter", "name": "52f5dc2296296f18628a0ae023940077", "is_disabled": 0, "rental_uris": {"ios": "https://dc.lft.to/lastmile_qr_scan", "android": "https://dc.lft.to/lastmile_qr_scan"}, "is_reserved": 0}, {"lon": -77.042666, "bike_id": "2b43728eaa4529a333faa937cc49b75c", "lat": 38.92233916666667, "fusion_lon": 0.0, "fusion_lat": 0.0, "type": "electric_scooter", "name": "2b43728eaa4529a333faa937cc49b75c", "is_disabled": 0, "rental_uris": {"ios": "https://dc.lft.to/lastmile_qr_scan", "android": "https://dc.lft.to/lastmile_qr_scan"}, "is_reserved": 0}, {"lon": -77.02721366666667, "bike_id": "7a81430d30028730fb45cfde754e2c33", "lat": 38.8978, "fusion_lon": 0.0, "fusion_lat": 0.0, "type": "electric_scooter", "name": "7a81430d30028730fb45cfde754e2c33", "is_disabled": 0, "rental_uris": {"ios": "https://dc.lft.to/lastmile_qr_scan", "android": "https://dc.lft.to/lastmile_qr_scan"}, "is_reserved": 0}, {"lon": -77.0500335, "bike_id": "5436babec611013f8a3978b8c9dc56ca", "lat": 38.89194716666667, "fusion_lon": 0.0, "fusion_lat": 0.0, "type": "electric_scooter", "name": "5436babec611013f8a3978b8c9dc56ca", "is_disabled": 0, "rental_uris": {"ios": "https://dc.lft.to/lastmile_qr_scan", "android": "https://dc.lft.to/lastmile_qr_scan"}, "is_reserved": 0}, {"lon": -77.03137266666667, "bike_id": "8ea616c1f534c67b1cffc1468de5c034", "lat": 38.92963983333333, "fusion_lon": 0.0, "fusion_lat": 0.0, "type": "electric_scooter", "name": "8ea616c1f534c67b1cffc1468de5c034", "is_disabled": 0, "rental_uris": {"ios": "https://dc.lft.to/lastmile_qr_scan", "android": "https://dc.lft.to/lastmile_qr_scan"}, "is_reserved": 0}, {"lon": -77.0433915, "bike_id": "c64de83c4e4a911afbfa36ab2a148463", "lat": 38.933357666666666, "fusion_lon": 0.0, "fusion_lat": 0.0, "type": "electric_scooter", "name": "c64de83c4e4a911afbfa36ab2a148463", "is_disabled": 0, "rental_uris": {"ios": "https://dc.lft.to/lastmile_qr_scan", "android": "https://dc.lft.to/lastmile_qr_scan"}, "is_reserved": 0}, {"lon": -77.02731583333333, "bike_id": "83398a3f2569b720369c0aed583c25c1", "lat": 38.9437895, "fusion_lon": 0.0, "fusion_lat": 0.0, "type": "electric_scooter", "name": "83398a3f2569b720369c0aed583c25c1", "is_disabled": 0, "rental_uris": {"ios": "https://dc.lft.to/lastmile_qr_scan", "android": "https://dc.lft.to/lastmile_qr_scan"}, "is_reserved": 0}, {"lon": -77.0414835, "bike_id": "a8a262ca379973fbbab5272f825a1bde", "lat": 38.8993015, "fusion_lon": 0.0, "fusion_lat": 0.0, "type": "electric_scooter", "name": "a8a262ca379973fbbab5272f825a1bde", "is_disabled": 0, "rental_uris": {"ios": "https://dc.lft.to/lastmile_qr_scan", "android": "https://dc.lft.to/lastmile_qr_scan"}, "is_reserved": 0}, {"lon": -77.03076833333333, "bike_id": "2f2887d45a2191917a26ca82f0248c06", "lat": 38.88035, "fusion_lon": 0.0, "fusion_lat": 0.0, "type": "electric_scooter", "name": "2f2887d45a2191917a26ca82f0248c06", "is_disabled": 0, "rental_uris": {"ios": "https://dc.lft.to/lastmile_qr_scan", "android": "https://dc.lft.to/lastmile_qr_scan"}, "is_reserved": 0}, {"lon": -77.00028633333334, "bike_id": "57b6ea5d2f9a3f59c4df44e356f2f00a", "lat": 38.908074166666665, "fusion_lon": 0.0, "fusion_lat": 0.0, "type": "electric_scooter", "name": "57b6ea5d2f9a3f59c4df44e356f2f00a", "is_disabled": 0, "rental_uris": {"ios": "https://dc.lft.to/lastmile_qr_scan", "android": "https://dc.lft.to/lastmile_qr_scan"}, "is_reserved": 0}, {"lon": -77.017935, "bike_id": "a1519b7168dd1064eaa07ca9f43d6d5a", "lat": 38.920446, "fusion_lon": 0.0, "fusion_lat": 0.0, "type": "electric_scooter", "name": "a1519b7168dd1064eaa07ca9f43d6d5a", "is_disabled": 0, "rental_uris": {"ios": "https://dc.lft.to/lastmile_qr_scan", "android": "https://dc.lft.to/lastmile_qr_scan"}, "is_reserved": 0}, {"lon": -77.01584216666667, "bike_id": "362ce69b7e4f5f4222df7ee3ec46f383", "lat": 38.87638316666666, "fusion_lon": 0.0, "fusion_lat": 0.0, "type": "electric_scooter", "name": "362ce69b7e4f5f4222df7ee3ec46f383", "is_disabled": 0, "rental_uris": {"ios": "https://dc.lft.to/lastmile_qr_scan", "android": "https://dc.lft.to/lastmile_qr_scan"}, "is_reserved": 0}, {"lon": -77.02690433333333, "bike_id": "8f1eccca6226519aa014d0ebdb67d072", "lat": 38.91226133333333, "fusion_lon": 0.0, "fusion_lat": 0.0, "type": "electric_scooter", "name": "8f1eccca6226519aa014d0ebdb67d072", "is_disabled": 0, "rental_uris": {"ios": "https://dc.lft.to/lastmile_qr_scan", "android": "https://dc.lft.to/lastmile_qr_scan"}, "is_reserved": 0}, {"lon": -77.0384995, "bike_id": "18b39fe3558e232c1eed87c62118063a", "lat": 38.908772166666665, "fusion_lon": 0.0, "fusion_lat": 0.0, "type": "electric_scooter", "name": "18b39fe3558e232c1eed87c62118063a", "is_disabled": 0, "rental_uris": {"ios": "https://dc.lft.to/lastmile_qr_scan", "android": "https://dc.lft.to/lastmile_qr_scan"}, "is_reserved": 0}, {"lon": -77.0115105, "bike_id": "6cc58c6d5db2ce0989554db2a53482c0", "lat": 38.89994433333333, "fusion_lon": 0.0, "fusion_lat": 0.0, "type": "electric_scooter", "name": "6cc58c6d5db2ce0989554db2a53482c0", "is_disabled": 0, "rental_uris": {"ios": "https://dc.lft.to/lastmile_qr_scan", "android": "https://dc.lft.to/lastmile_qr_scan"}, "is_reserved": 0}, {"lon": -77.01205283333333, "bike_id": "19d728ba3f30cb23293a3b280850c605", "lat": 38.885540666666664, "fusion_lon": 0.0, "fusion_lat": 0.0, "type": "electric_scooter", "name": "19d728ba3f30cb23293a3b280850c605", "is_disabled": 0, "rental_uris": {"ios": "https://dc.lft.to/lastmile_qr_scan", "android": "https://dc.lft.to/lastmile_qr_scan"}, "is_reserved": 0}, {"lon": -77.0327665, "bike_id": "964502d0589bc9859853a775dd9134a8", "lat": 38.901383833333334, "fusion_lon": 0.0, "fusion_lat": 0.0, "type": "electric_scooter", "name": "964502d0589bc9859853a775dd9134a8", "is_disabled": 0, "rental_uris": {"ios": "https://dc.lft.to/lastmile_qr_scan", "android": "https://dc.lft.to/lastmile_qr_scan"}, "is_reserved": 0}, {"lon": -77.031017, "bike_id": "425a3fec459a3c80c1b92d4f399727ba", "lat": 38.91917633333333, "fusion_lon": 0.0, "fusion_lat": 0.0, "type": "electric_scooter", "name": "425a3fec459a3c80c1b92d4f399727ba", "is_disabled": 0, "rental_uris": {"ios": "https://dc.lft.to/lastmile_qr_scan", "android": "https://dc.lft.to/lastmile_qr_scan"}, "is_reserved": 0}, {"lon": -76.989336, "bike_id": "473f9d325f037931e2ec35c81fbd2029", "lat": 38.865559, "fusion_lon": 0.0, "fusion_lat": 0.0, "type": "electric_scooter", "name": "473f9d325f037931e2ec35c81fbd2029", "is_disabled": 0, "rental_uris": {"ios": "https://dc.lft.to/lastmile_qr_scan", "android": "https://dc.lft.to/lastmile_qr_scan"}, "is_reserved": 0}, {"lon": -77.04482716666666, "bike_id": "83a0b7c2bfc3f4122b86f5b84c89e55c", "lat": 38.908668666666664, "fusion_lon": 0.0, "fusion_lat": 0.0, "type": "electric_scooter", "name": "83a0b7c2bfc3f4122b86f5b84c89e55c", "is_disabled": 0, "rental_uris": {"ios": "https://dc.lft.to/lastmile_qr_scan", "android": "https://dc.lft.to/lastmile_qr_scan"}, "is_reserved": 0}, {"lon": -77.031084, "bike_id": "2924022c6373cf10457a840962ef8dcc", "lat": 38.88746733333333, "fusion_lon": 0.0, "fusion_lat": 0.0, "type": "electric_scooter", "name": "2924022c6373cf10457a840962ef8dcc", "is_disabled": 0, "rental_uris": {"ios": "https://dc.lft.to/lastmile_qr_scan", "android": "https://dc.lft.to/lastmile_qr_scan"}, "is_reserved": 0}, {"lon": -76.97530966666666, "bike_id": "8668523b99da12a6b788aeba06b4c928", "lat": 38.92231566666667, "fusion_lon": 0.0, "fusion_lat": 0.0, "type": "electric_scooter", "name": "8668523b99da12a6b788aeba06b4c928", "is_disabled": 0, "rental_uris": {"ios": "https://dc.lft.to/lastmile_qr_scan", "android": "https://dc.lft.to/lastmile_qr_scan"}, "is_reserved": 0}, {"lon": -77.05016933333333, "bike_id": "9c6776781ee7638783bcebe3f67db882", "lat": 38.90523966666667, "fusion_lon": 0.0, "fusion_lat": 0.0, "type": "electric_scooter", "name": "9c6776781ee7638783bcebe3f67db882", "is_disabled": 0, "rental_uris": {"ios": "https://dc.lft.to/lastmile_qr_scan", "android": "https://dc.lft.to/lastmile_qr_scan"}, "is_reserved": 0}, {"lon": -77.00272266666667, "bike_id": "ef38cfbf42dba19a1beeedef1573162c", "lat": 38.911634, "fusion_lon": 0.0, "fusion_lat": 0.0, "type": "electric_bike", "name": "ef38cfbf42dba19a1beeedef1573162c", "is_disabled": 0, "rental_uris": {"ios": "https://dc.lft.to/lastmile_qr_scan", "android": "https://dc.lft.to/lastmile_qr_scan"}, "is_reserved": 0}, {"lon": -77.03272333333334, "bike_id": "e9f03cdbb57e16687894f5f834fb4327", "lat": 38.9200095, "fusion_lon": 0.0, "fusion_lat": 0.0, "type": "electric_scooter", "name": "e9f03cdbb57e16687894f5f834fb4327", "is_disabled": 0, "rental_uris": {"ios": "https://dc.lft.to/lastmile_qr_scan", "android": "https://dc.lft.to/lastmile_qr_scan"}, "is_reserved": 0}, {"lon": -76.98844616666666, "bike_id": "1696bf7e2f70573e92ae16881d4e778e", "lat": 38.89662633333333, "fusion_lon": 0.0, "fusion_lat": 0.0, "type": "electric_scooter", "name": "1696bf7e2f70573e92ae16881d4e778e", "is_disabled": 0, "rental_uris": {"ios": "https://dc.lft.to/lastmile_qr_scan", "android": "https://dc.lft.to/lastmile_qr_scan"}, "is_reserved": 0}, {"lon": -77.077649, "bike_id": "c0c762c549f5f18bf0a030181d1b0a2a", "lat": 38.95773916666667, "fusion_lon": 0.0, "fusion_lat": 0.0, "type": "electric_scooter", "name": "c0c762c549f5f18bf0a030181d1b0a2a", "is_disabled": 0, "rental_uris": {"ios": "https://dc.lft.to/lastmile_qr_scan", "android": "https://dc.lft.to/lastmile_qr_scan"}, "is_reserved": 0}, {"lon": -77.022098, "bike_id": "df3d92592f91f31ecaed95f9b9eaa9ff", "lat": 38.8935245, "fusion_lon": 0.0, "fusion_lat": 0.0, "type": "electric_scooter", "name": "df3d92592f91f31ecaed95f9b9eaa9ff", "is_disabled": 0, "rental_uris": {"ios": "https://dc.lft.to/lastmile_qr_scan", "android": "https://dc.lft.to/lastmile_qr_scan"}, "is_reserved": 0}, {"lon": -76.9720375, "bike_id": "b07edae96b61dbddc07341e1c10b5ccf", "lat": 38.89286833333333, "fusion_lon": 0.0, "fusion_lat": 0.0, "type": "electric_bike", "name": "b07edae96b61dbddc07341e1c10b5ccf", "is_disabled": 0, "rental_uris": {"ios": "https://dc.lft.to/lastmile_qr_scan", "android": "https://dc.lft.to/lastmile_qr_scan"}, "is_reserved": 0}, {"lon": -77.03817116666667, "bike_id": "5bcfe36e698898b8de7d0a8c14516f42", "lat": 38.93097783333333, "fusion_lon": 0.0, "fusion_lat": 0.0, "type": "electric_scooter", "name": "5bcfe36e698898b8de7d0a8c14516f42", "is_disabled": 0, "rental_uris": {"ios": "https://dc.lft.to/lastmile_qr_scan", "android": "https://dc.lft.to/lastmile_qr_scan"}, "is_reserved": 0}, {"lon": -77.00878216666666, "bike_id": "cd9902925700144e0cd9bb62d5ef1382", "lat": 38.82529683333333, "fusion_lon": 0.0, "fusion_lat": 0.0, "type": "electric_scooter", "name": "cd9902925700144e0cd9bb62d5ef1382", "is_disabled": 0, "rental_uris": {"ios": "https://dc.lft.to/lastmile_qr_scan", "android": "https://dc.lft.to/lastmile_qr_scan"}, "is_reserved": 0}, {"lon": -76.97706133333334, "bike_id": "3a99b8cd723f6f4d6429b876041b4a94", "lat": 38.88523266666667, "fusion_lon": 0.0, "fusion_lat": 0.0, "type": "electric_scooter", "name": "3a99b8cd723f6f4d6429b876041b4a94", "is_disabled": 0, "rental_uris": {"ios": "https://dc.lft.to/lastmile_qr_scan", "android": "https://dc.lft.to/lastmile_qr_scan"}, "is_reserved": 0}, {"lon": -77.05571216666667, "bike_id": "c6cee11cdaf8e073777f57e43dab8d5c", "lat": 38.93057233333333, "fusion_lon": 0.0, "fusion_lat": 0.0, "type": "electric_scooter", "name": "c6cee11cdaf8e073777f57e43dab8d5c", "is_disabled": 0, "rental_uris": {"ios": "https://dc.lft.to/lastmile_qr_scan", "android": "https://dc.lft.to/lastmile_qr_scan"}, "is_reserved": 0}, {"lon": -77.13927666666666, "bike_id": "1d37f724597216451aa6034d3ef05cd9", "lat": 38.872976333333334, "fusion_lon": 0.0, "fusion_lat": 0.0, "type": "electric_bike", "name": "1d37f724597216451aa6034d3ef05cd9", "is_disabled": 0, "rental_uris": {"ios": "https://dc.lft.to/lastmile_qr_scan", "android": "https://dc.lft.to/lastmile_qr_scan"}, "is_reserved": 0}, {"lon": -77.04176133333333, "bike_id": "928d8cc2b747d8efc4bdd43696fca380", "lat": 38.915511, "fusion_lon": 0.0, "fusion_lat": 0.0, "type": "electric_scooter", "name": "928d8cc2b747d8efc4bdd43696fca380", "is_disabled": 0, "rental_uris": {"ios": "https://dc.lft.to/lastmile_qr_scan", "android": "https://dc.lft.to/lastmile_qr_scan"}, "is_reserved": 0}, {"lon": -76.99271533333334, "bike_id": "cc66e6391e41dbfb4b4dbb6a69b20fc9", "lat": 38.860232, "fusion_lon": 0.0, "fusion_lat": 0.0, "type": "electric_scooter", "name": "cc66e6391e41dbfb4b4dbb6a69b20fc9", "is_disabled": 0, "rental_uris": {"ios": "https://dc.lft.to/lastmile_qr_scan", "android": "https://dc.lft.to/lastmile_qr_scan"}, "is_reserved": 0}, {"lon": -77.02701983333333, "bike_id": "0cfafc710b2f48ecb7996728c0b3b2b0", "lat": 38.949896333333335, "fusion_lon": 0.0, "fusion_lat": 0.0, "type": "electric_scooter", "name": "0cfafc710b2f48ecb7996728c0b3b2b0", "is_disabled": 0, "rental_uris": {"ios": "https://dc.lft.to/lastmile_qr_scan", "android": "https://dc.lft.to/lastmile_qr_scan"}, "is_reserved": 0}, {"lon": -77.02961916666666, "bike_id": "58606ea871f507b7ceb7078a822255cc", "lat": 38.904954333333336, "fusion_lon": 0.0, "fusion_lat": 0.0, "type": "electric_scooter", "name": "58606ea871f507b7ceb7078a822255cc", "is_disabled": 0, "rental_uris": {"ios": "https://dc.lft.to/lastmile_qr_scan", "android": "https://dc.lft.to/lastmile_qr_scan"}, "is_reserved": 0}, {"lon": -77.0320635, "bike_id": "09ccb03ce0a1e55bea47b2a7f30b6466", "lat": 38.9149825, "fusion_lon": 0.0, "fusion_lat": 0.0, "type": "electric_scooter", "name": "09ccb03ce0a1e55bea47b2a7f30b6466", "is_disabled": 0, "rental_uris": {"ios": "https://dc.lft.to/lastmile_qr_scan", "android": "https://dc.lft.to/lastmile_qr_scan"}, "is_reserved": 0}, {"lon": -77.124317, "bike_id": "81249c42ea1215d310873b231dda145f", "lat": 38.853708, "fusion_lon": 0.0, "fusion_lat": 0.0, "type": "electric_bike", "name": "81249c42ea1215d310873b231dda145f", "is_disabled": 0, "rental_uris": {"ios": "https://dc.lft.to/lastmile_qr_scan", "android": "https://dc.lft.to/lastmile_qr_scan"}, "is_reserved": 0}, {"lon": -77.04490566666666, "bike_id": "26b28df8bf7e762d495ad2c5bec5298e", "lat": 38.9132955, "fusion_lon": 0.0, "fusion_lat": 0.0, "type": "electric_scooter", "name": "26b28df8bf7e762d495ad2c5bec5298e", "is_disabled": 0, "rental_uris": {"ios": "https://dc.lft.to/lastmile_qr_scan", "android": "https://dc.lft.to/lastmile_qr_scan"}, "is_reserved": 0}, {"lon": -77.016104, "bike_id": "c93bfc1367113d405aaaab4463a30393", "lat": 38.899679, "fusion_lon": 0.0, "fusion_lat": 0.0, "type": "electric_scooter", "name": "c93bfc1367113d405aaaab4463a30393", "is_disabled": 0, "rental_uris": {"ios": "https://dc.lft.to/lastmile_qr_scan", "android": "https://dc.lft.to/lastmile_qr_scan"}, "is_reserved": 0}, {"lon": -77.03988466666667, "bike_id": "3ad9c657ef1cbc27dfc1594b94f090db", "lat": 38.93341183333333, "fusion_lon": 0.0, "fusion_lat": 0.0, "type": "electric_scooter", "name": "3ad9c657ef1cbc27dfc1594b94f090db", "is_disabled": 0, "rental_uris": {"ios": "https://dc.lft.to/lastmile_qr_scan", "android": "https://dc.lft.to/lastmile_qr_scan"}, "is_reserved": 0}, {"lon": -76.99791466666667, "bike_id": "df343c0f8c3a9d768a770b68e63c6d53", "lat": 38.956411833333334, "fusion_lon": 0.0, "fusion_lat": 0.0, "type": "electric_bike", "name": "df343c0f8c3a9d768a770b68e63c6d53", "is_disabled": 0, "rental_uris": {"ios": "https://dc.lft.to/lastmile_qr_scan", "android": "https://dc.lft.to/lastmile_qr_scan"}, "is_reserved": 0}, {"lon": -77.01998983333333, "bike_id": "ce1c9166f7c3253f56bf99c09434bd40", "lat": 38.91531283333333, "fusion_lon": 0.0, "fusion_lat": 0.0, "type": "electric_scooter", "name": "ce1c9166f7c3253f56bf99c09434bd40", "is_disabled": 0, "rental_uris": {"ios": "https://dc.lft.to/lastmile_qr_scan", "android": "https://dc.lft.to/lastmile_qr_scan"}, "is_reserved": 0}, {"lon": -77.0586445, "bike_id": "06a3d5e918a3d94e5b05827dc8e368cc", "lat": 38.93542083333333, "fusion_lon": 0.0, "fusion_lat": 0.0, "type": "electric_scooter", "name": "06a3d5e918a3d94e5b05827dc8e368cc", "is_disabled": 0, "rental_uris": {"ios": "https://dc.lft.to/lastmile_qr_scan", "android": "https://dc.lft.to/lastmile_qr_scan"}, "is_reserved": 0}, {"lon": -77.04192766666667, "bike_id": "e9ef05a8ca221bd4b0470bcefd5c83ac", "lat": 38.89981983333333, "fusion_lon": 0.0, "fusion_lat": 0.0, "type": "electric_scooter", "name": "e9ef05a8ca221bd4b0470bcefd5c83ac", "is_disabled": 0, "rental_uris": {"ios": "https://dc.lft.to/lastmile_qr_scan", "android": "https://dc.lft.to/lastmile_qr_scan"}, "is_reserved": 0}, {"lon": -77.04845766666666, "bike_id": "752294942ea570283c9431e15bb4819c", "lat": 38.915188666666666, "fusion_lon": 0.0, "fusion_lat": 0.0, "type": "electric_scooter", "name": "752294942ea570283c9431e15bb4819c", "is_disabled": 0, "rental_uris": {"ios": "https://dc.lft.to/lastmile_qr_scan", "android": "https://dc.lft.to/lastmile_qr_scan"}, "is_reserved": 0}, {"lon": -77.02211416666667, "bike_id": "7180199ae508325161b3d51c7a4cab04", "lat": 38.88736133333333, "fusion_lon": 0.0, "fusion_lat": 0.0, "type": "electric_scooter", "name": "7180199ae508325161b3d51c7a4cab04", "is_disabled": 0, "rental_uris": {"ios": "https://dc.lft.to/lastmile_qr_scan", "android": "https://dc.lft.to/lastmile_qr_scan"}, "is_reserved": 0}, {"lon": -77.041763, "bike_id": "94ceedf5e598971241dd9b860ab1e9db", "lat": 38.91974166666667, "fusion_lon": 0.0, "fusion_lat": 0.0, "type": "electric_scooter", "name": "94ceedf5e598971241dd9b860ab1e9db", "is_disabled": 0, "rental_uris": {"ios": "https://dc.lft.to/lastmile_qr_scan", "android": "https://dc.lft.to/lastmile_qr_scan"}, "is_reserved": 0}, {"lon": -76.97325583333334, "bike_id": "b47fc07bf0780b4a5f41af58beec8b48", "lat": 38.90478783333333, "fusion_lon": 0.0, "fusion_lat": 0.0, "type": "electric_bike", "name": "b47fc07bf0780b4a5f41af58beec8b48", "is_disabled": 0, "rental_uris": {"ios": "https://dc.lft.to/lastmile_qr_scan", "android": "https://dc.lft.to/lastmile_qr_scan"}, "is_reserved": 0}, {"lon": -77.03834916666666, "bike_id": "92031239c8c3364dface310bade7ff27", "lat": 38.910373166666666, "fusion_lon": 0.0, "fusion_lat": 0.0, "type": "electric_scooter", "name": "92031239c8c3364dface310bade7ff27", "is_disabled": 0, "rental_uris": {"ios": "https://dc.lft.to/lastmile_qr_scan", "android": "https://dc.lft.to/lastmile_qr_scan"}, "is_reserved": 0}, {"lon": -77.02566, "bike_id": "547670d06f0996ed4f7af8c2ed7c1fa0", "lat": 38.8828965, "fusion_lon": 0.0, "fusion_lat": 0.0, "type": "electric_scooter", "name": "547670d06f0996ed4f7af8c2ed7c1fa0", "is_disabled": 0, "rental_uris": {"ios": "https://dc.lft.to/lastmile_qr_scan", "android": "https://dc.lft.to/lastmile_qr_scan"}, "is_reserved": 0}, {"lon": -77.0239425, "bike_id": "c093d20a60e98d289c0cc89271a12224", "lat": 38.88134566666667, "fusion_lon": 0.0, "fusion_lat": 0.0, "type": "electric_scooter", "name": "c093d20a60e98d289c0cc89271a12224", "is_disabled": 0, "rental_uris": {"ios": "https://dc.lft.to/lastmile_qr_scan", "android": "https://dc.lft.to/lastmile_qr_scan"}, "is_reserved": 0}, {"lon": -77.03288166666667, "bike_id": "b6d6bd2cf004a63979d482401e603e4c", "lat": 38.95648533333333, "fusion_lon": 0.0, "fusion_lat": 0.0, "type": "electric_scooter", "name": "b6d6bd2cf004a63979d482401e603e4c", "is_disabled": 0, "rental_uris": {"ios": "https://dc.lft.to/lastmile_qr_scan", "android": "https://dc.lft.to/lastmile_qr_scan"}, "is_reserved": 0}, {"lon": -77.03933566666667, "bike_id": "9cd29b480355a544ba94499c8142bf4e", "lat": 38.9171, "fusion_lon": 0.0, "fusion_lat": 0.0, "type": "electric_scooter", "name": "9cd29b480355a544ba94499c8142bf4e", "is_disabled": 0, "rental_uris": {"ios": "https://dc.lft.to/lastmile_qr_scan", "android": "https://dc.lft.to/lastmile_qr_scan"}, "is_reserved": 0}, {"lon": -77.0459445, "bike_id": "afebf3769688c3907a2b8f8542a0a4e4", "lat": 38.915964333333335, "fusion_lon": 0.0, "fusion_lat": 0.0, "type": "electric_scooter", "name": "afebf3769688c3907a2b8f8542a0a4e4", "is_disabled": 0, "rental_uris": {"ios": "https://dc.lft.to/lastmile_qr_scan", "android": "https://dc.lft.to/lastmile_qr_scan"}, "is_reserved": 0}, {"lon": -77.03332466666667, "bike_id": "bd70316bc6d0f4c5c9dfb9055036aed1", "lat": 38.90127616666667, "fusion_lon": 0.0, "fusion_lat": 0.0, "type": "electric_scooter", "name": "bd70316bc6d0f4c5c9dfb9055036aed1", "is_disabled": 0, "rental_uris": {"ios": "https://dc.lft.to/lastmile_qr_scan", "android": "https://dc.lft.to/lastmile_qr_scan"}, "is_reserved": 0}, {"lon": -77.03643083333333, "bike_id": "98ef1fc7ba0fd32bf91638e605ef8b70", "lat": 38.913045, "fusion_lon": 0.0, "fusion_lat": 0.0, "type": "electric_scooter", "name": "98ef1fc7ba0fd32bf91638e605ef8b70", "is_disabled": 0, "rental_uris": {"ios": "https://dc.lft.to/lastmile_qr_scan", "android": "https://dc.lft.to/lastmile_qr_scan"}, "is_reserved": 0}, {"lon": -76.96912116666667, "bike_id": "3d5adef9df5bb6c69b9bb0de4b11a75e", "lat": 38.846151166666665, "fusion_lon": 0.0, "fusion_lat": 0.0, "type": "electric_bike", "name": "3d5adef9df5bb6c69b9bb0de4b11a75e", "is_disabled": 0, "rental_uris": {"ios": "https://dc.lft.to/lastmile_qr_scan", "android": "https://dc.lft.to/lastmile_qr_scan"}, "is_reserved": 0}, {"lon": -76.96152733333334, "bike_id": "43e718aee487540ecd01e7245acec2fc", "lat": 38.88356816666667, "fusion_lon": 0.0, "fusion_lat": 0.0, "type": "electric_scooter", "name": "43e718aee487540ecd01e7245acec2fc", "is_disabled": 0, "rental_uris": {"ios": "https://dc.lft.to/lastmile_qr_scan", "android": "https://dc.lft.to/lastmile_qr_scan"}, "is_reserved": 0}, {"lon": -76.98338683333333, "bike_id": "a49591d374f17318b582fffd83d97d1d", "lat": 38.895451, "fusion_lon": 0.0, "fusion_lat": 0.0, "type": "electric_scooter", "name": "a49591d374f17318b582fffd83d97d1d", "is_disabled": 0, "rental_uris": {"ios": "https://dc.lft.to/lastmile_qr_scan", "android": "https://dc.lft.to/lastmile_qr_scan"}, "is_reserved": 0}, {"lon": -77.06765383333334, "bike_id": "317195c6c95046d7a18cb6fcf400a06e", "lat": 38.903548666666666, "fusion_lon": 0.0, "fusion_lat": 0.0, "type": "electric_scooter", "name": "317195c6c95046d7a18cb6fcf400a06e", "is_disabled": 0, "rental_uris": {"ios": "https://dc.lft.to/lastmile_qr_scan", "android": "https://dc.lft.to/lastmile_qr_scan"}, "is_reserved": 0}, {"lon": -77.04675766666666, "bike_id": "4e270bca9f82abe31493563739c331b3", "lat": 38.896738666666664, "fusion_lon": 0.0, "fusion_lat": 0.0, "type": "electric_scooter", "name": "4e270bca9f82abe31493563739c331b3", "is_disabled": 0, "rental_uris": {"ios": "https://dc.lft.to/lastmile_qr_scan", "android": "https://dc.lft.to/lastmile_qr_scan"}, "is_reserved": 0}, {"lon": -76.96771166666667, "bike_id": "ef2731086b040af128b7372bdbb72609", "lat": 38.86844, "fusion_lon": 0.0, "fusion_lat": 0.0, "type": "electric_scooter", "name": "ef2731086b040af128b7372bdbb72609", "is_disabled": 0, "rental_uris": {"ios": "https://dc.lft.to/lastmile_qr_scan", "android": "https://dc.lft.to/lastmile_qr_scan"}, "is_reserved": 0}, {"lon": -77.02148066666666, "bike_id": "1050e85bec14bc9bed9ca1a652ee0346", "lat": 38.89739983333333, "fusion_lon": 0.0, "fusion_lat": 0.0, "type": "electric_scooter", "name": "1050e85bec14bc9bed9ca1a652ee0346", "is_disabled": 0, "rental_uris": {"ios": "https://dc.lft.to/lastmile_qr_scan", "android": "https://dc.lft.to/lastmile_qr_scan"}, "is_reserved": 0}, {"lon": -77.02711033333334, "bike_id": "eb6466a2f7c00589aae4ca66ff33106e", "lat": 38.897135166666665, "fusion_lon": 0.0, "fusion_lat": 0.0, "type": "electric_scooter", "name": "eb6466a2f7c00589aae4ca66ff33106e", "is_disabled": 0, "rental_uris": {"ios": "https://dc.lft.to/lastmile_qr_scan", "android": "https://dc.lft.to/lastmile_qr_scan"}, "is_reserved": 0}, {"lon": -77.02823, "bike_id": "f19c0717d98b75ff80f7d0e99f48d9bb", "lat": 38.887341666666664, "fusion_lon": 0.0, "fusion_lat": 0.0, "type": "electric_scooter", "name": "f19c0717d98b75ff80f7d0e99f48d9bb", "is_disabled": 0, "rental_uris": {"ios": "https://dc.lft.to/lastmile_qr_scan", "android": "https://dc.lft.to/lastmile_qr_scan"}, "is_reserved": 0}, {"lon": -77.084603, "bike_id": "0ac2de2267f25ff4d85d0e28b3ea1619", "lat": 38.8482025, "fusion_lon": 0.0, "fusion_lat": 0.0, "type": "electric_bike", "name": "0ac2de2267f25ff4d85d0e28b3ea1619", "is_disabled": 0, "rental_uris": {"ios": "https://dc.lft.to/lastmile_qr_scan", "android": "https://dc.lft.to/lastmile_qr_scan"}, "is_reserved": 0}, {"lon": -76.97547133333333, "bike_id": "b24456da9caa09d95569d6b1686fb83e", "lat": 38.90322916666667, "fusion_lon": 0.0, "fusion_lat": 0.0, "type": "electric_scooter", "name": "b24456da9caa09d95569d6b1686fb83e", "is_disabled": 0, "rental_uris": {"ios": "https://dc.lft.to/lastmile_qr_scan", "android": "https://dc.lft.to/lastmile_qr_scan"}, "is_reserved": 0}, {"lon": -77.03503966666666, "bike_id": "7c2a7686f89750f4dfee3d5842d72b27", "lat": 38.912550833333334, "fusion_lon": 0.0, "fusion_lat": 0.0, "type": "electric_scooter", "name": "7c2a7686f89750f4dfee3d5842d72b27", "is_disabled": 0, "rental_uris": {"ios": "https://dc.lft.to/lastmile_qr_scan", "android": "https://dc.lft.to/lastmile_qr_scan"}, "is_reserved": 0}, {"lon": -77.03500166666667, "bike_id": "c010d926c379407b0710e58deaec29c1", "lat": 38.91896583333333, "fusion_lon": 0.0, "fusion_lat": 0.0, "type": "electric_bike", "name": "c010d926c379407b0710e58deaec29c1", "is_disabled": 0, "rental_uris": {"ios": "https://dc.lft.to/lastmile_qr_scan", "android": "https://dc.lft.to/lastmile_qr_scan"}, "is_reserved": 0}, {"lon": -77.035011, "bike_id": "bd7d83d48584fd9cd207e4855ee90978", "lat": 38.93753016666667, "fusion_lon": 0.0, "fusion_lat": 0.0, "type": "electric_scooter", "name": "bd7d83d48584fd9cd207e4855ee90978", "is_disabled": 0, "rental_uris": {"ios": "https://dc.lft.to/lastmile_qr_scan", "android": "https://dc.lft.to/lastmile_qr_scan"}, "is_reserved": 0}, {"lon": -76.97390166666666, "bike_id": "6b9aff840f2e366577ac34b280112fc1", "lat": 38.90555283333333, "fusion_lon": 0.0, "fusion_lat": 0.0, "type": "electric_scooter", "name": "6b9aff840f2e366577ac34b280112fc1", "is_disabled": 0, "rental_uris": {"ios": "https://dc.lft.to/lastmile_qr_scan", "android": "https://dc.lft.to/lastmile_qr_scan"}, "is_reserved": 0}, {"lon": -76.98351283333334, "bike_id": "96ed181d419f23ae30507799132c04fd", "lat": 38.88771033333333, "fusion_lon": 0.0, "fusion_lat": 0.0, "type": "electric_scooter", "name": "96ed181d419f23ae30507799132c04fd", "is_disabled": 0, "rental_uris": {"ios": "https://dc.lft.to/lastmile_qr_scan", "android": "https://dc.lft.to/lastmile_qr_scan"}, "is_reserved": 0}, {"lon": -77.03413383333333, "bike_id": "c38e3d48ad6ab9220f8c1c36a5e6a696", "lat": 38.9224105, "fusion_lon": 0.0, "fusion_lat": 0.0, "type": "electric_scooter", "name": "c38e3d48ad6ab9220f8c1c36a5e6a696", "is_disabled": 0, "rental_uris": {"ios": "https://dc.lft.to/lastmile_qr_scan", "android": "https://dc.lft.to/lastmile_qr_scan"}, "is_reserved": 0}, {"lon": -77.03854183333333, "bike_id": "dd6898e778a25a233e4b88568dd43249", "lat": 38.9166155, "fusion_lon": 0.0, "fusion_lat": 0.0, "type": "electric_scooter", "name": "dd6898e778a25a233e4b88568dd43249", "is_disabled": 0, "rental_uris": {"ios": "https://dc.lft.to/lastmile_qr_scan", "android": "https://dc.lft.to/lastmile_qr_scan"}, "is_reserved": 0}, {"lon": -77.02303533333334, "bike_id": "7fe082ecefe60442e48751f4d2d8c171", "lat": 38.94093683333333, "fusion_lon": 0.0, "fusion_lat": 0.0, "type": "electric_scooter", "name": "7fe082ecefe60442e48751f4d2d8c171", "is_disabled": 0, "rental_uris": {"ios": "https://dc.lft.to/lastmile_qr_scan", "android": "https://dc.lft.to/lastmile_qr_scan"}, "is_reserved": 0}, {"lon": -77.023931, "bike_id": "35d6074b627f9134dee458d9132a830f", "lat": 38.9275515, "fusion_lon": 0.0, "fusion_lat": 0.0, "type": "electric_scooter", "name": "35d6074b627f9134dee458d9132a830f", "is_disabled": 0, "rental_uris": {"ios": "https://dc.lft.to/lastmile_qr_scan", "android": "https://dc.lft.to/lastmile_qr_scan"}, "is_reserved": 0}, {"lon": -77.06340783333333, "bike_id": "db06960d31216e4cab108e7f4a7f709f", "lat": 38.90681466666667, "fusion_lon": 0.0, "fusion_lat": 0.0, "type": "electric_scooter", "name": "db06960d31216e4cab108e7f4a7f709f", "is_disabled": 0, "rental_uris": {"ios": "https://dc.lft.to/lastmile_qr_scan", "android": "https://dc.lft.to/lastmile_qr_scan"}, "is_reserved": 0}, {"lon": -76.94636016666666, "bike_id": "76f27df54e7f6a918bb993e2c62cb4e0", "lat": 38.898313, "fusion_lon": 0.0, "fusion_lat": 0.0, "type": "electric_scooter", "name": "76f27df54e7f6a918bb993e2c62cb4e0", "is_disabled": 0, "rental_uris": {"ios": "https://dc.lft.to/lastmile_qr_scan", "android": "https://dc.lft.to/lastmile_qr_scan"}, "is_reserved": 0}, {"lon": -76.989449, "bike_id": "40d9fd5af9f12c921109c570444ba72c", "lat": 38.90396833333333, "fusion_lon": 0.0, "fusion_lat": 0.0, "type": "electric_scooter", "name": "40d9fd5af9f12c921109c570444ba72c", "is_disabled": 0, "rental_uris": {"ios": "https://dc.lft.to/lastmile_qr_scan", "android": "https://dc.lft.to/lastmile_qr_scan"}, "is_reserved": 0}, {"lon": -77.05861033333333, "bike_id": "9154b546f6ba6f7846faed8b285cdbd1", "lat": 38.936077166666664, "fusion_lon": 0.0, "fusion_lat": 0.0, "type": "electric_scooter", "name": "9154b546f6ba6f7846faed8b285cdbd1", "is_disabled": 0, "rental_uris": {"ios": "https://dc.lft.to/lastmile_qr_scan", "android": "https://dc.lft.to/lastmile_qr_scan"}, "is_reserved": 0}, {"lon": -77.06404116666667, "bike_id": "b66760861327f111425fac520cf05f9b", "lat": 38.907758666666666, "fusion_lon": 0.0, "fusion_lat": 0.0, "type": "electric_scooter", "name": "b66760861327f111425fac520cf05f9b", "is_disabled": 0, "rental_uris": {"ios": "https://dc.lft.to/lastmile_qr_scan", "android": "https://dc.lft.to/lastmile_qr_scan"}, "is_reserved": 0}, {"lon": -77.00973516666667, "bike_id": "898a435f29708bf84c49ae3d8098016d", "lat": 38.894841166666666, "fusion_lon": 0.0, "fusion_lat": 0.0, "type": "electric_scooter", "name": "898a435f29708bf84c49ae3d8098016d", "is_disabled": 0, "rental_uris": {"ios": "https://dc.lft.to/lastmile_qr_scan", "android": "https://dc.lft.to/lastmile_qr_scan"}, "is_reserved": 0}, {"lon": -77.04757166666667, "bike_id": "382262f9d30c36cbf58e0dbcf09565dd", "lat": 38.909738, "fusion_lon": 0.0, "fusion_lat": 0.0, "type": "electric_scooter", "name": "382262f9d30c36cbf58e0dbcf09565dd", "is_disabled": 0, "rental_uris": {"ios": "https://dc.lft.to/lastmile_qr_scan", "android": "https://dc.lft.to/lastmile_qr_scan"}, "is_reserved": 0}, {"lon": -77.07433466666667, "bike_id": "37f12983a29f2da26569ff5d501610f5", "lat": 38.99940633333333, "fusion_lon": 0.0, "fusion_lat": 0.0, "type": "electric_bike", "name": "37f12983a29f2da26569ff5d501610f5", "is_disabled": 0, "rental_uris": {"ios": "https://dc.lft.to/lastmile_qr_scan", "android": "https://dc.lft.to/lastmile_qr_scan"}, "is_reserved": 0}, {"lon": -76.987128, "bike_id": "52796e7bca817911503ac70f7b664d01", "lat": 38.866228666666665, "fusion_lon": 0.0, "fusion_lat": 0.0, "type": "electric_scooter", "name": "52796e7bca817911503ac70f7b664d01", "is_disabled": 0, "rental_uris": {"ios": "https://dc.lft.to/lastmile_qr_scan", "android": "https://dc.lft.to/lastmile_qr_scan"}, "is_reserved": 0}, {"lon": -77.02425533333333, "bike_id": "bc0874a121d02bbddb501044d4cda38d", "lat": 38.92051816666667, "fusion_lon": 0.0, "fusion_lat": 0.0, "type": "electric_scooter", "name": "bc0874a121d02bbddb501044d4cda38d", "is_disabled": 0, "rental_uris": {"ios": "https://dc.lft.to/lastmile_qr_scan", "android": "https://dc.lft.to/lastmile_qr_scan"}, "is_reserved": 0}, {"lon": -77.05214816666667, "bike_id": "10248ffa802c8ad104281d2ff4e45e6b", "lat": 38.92483133333333, "fusion_lon": 0.0, "fusion_lat": 0.0, "type": "electric_scooter", "name": "10248ffa802c8ad104281d2ff4e45e6b", "is_disabled": 0, "rental_uris": {"ios": "https://dc.lft.to/lastmile_qr_scan", "android": "https://dc.lft.to/lastmile_qr_scan"}, "is_reserved": 0}, {"lon": -77.05806883333334, "bike_id": "b2bc9c71cc34239229567908010eae12", "lat": 38.8239355, "fusion_lon": 0.0, "fusion_lat": 0.0, "type": "electric_bike", "name": "b2bc9c71cc34239229567908010eae12", "is_disabled": 0, "rental_uris": {"ios": "https://dc.lft.to/lastmile_qr_scan", "android": "https://dc.lft.to/lastmile_qr_scan"}, "is_reserved": 0}, {"lon": -77.01087916666667, "bike_id": "121047c3fe8c7c70b7cee9d1a1da0947", "lat": 38.90661683333333, "fusion_lon": 0.0, "fusion_lat": 0.0, "type": "electric_bike", "name": "121047c3fe8c7c70b7cee9d1a1da0947", "is_disabled": 0, "rental_uris": {"ios": "https://dc.lft.to/lastmile_qr_scan", "android": "https://dc.lft.to/lastmile_qr_scan"}, "is_reserved": 0}, {"lon": -77.041286, "bike_id": "baf6da672820de88b170a843e171aff3", "lat": 38.926488, "fusion_lon": 0.0, "fusion_lat": 0.0, "type": "electric_scooter", "name": "baf6da672820de88b170a843e171aff3", "is_disabled": 0, "rental_uris": {"ios": "https://dc.lft.to/lastmile_qr_scan", "android": "https://dc.lft.to/lastmile_qr_scan"}, "is_reserved": 0}, {"lon": -76.94919733333333, "bike_id": "e4558335aa1ef7051c922d2d5842edc8", "lat": 38.89354016666667, "fusion_lon": 0.0, "fusion_lat": 0.0, "type": "electric_scooter", "name": "e4558335aa1ef7051c922d2d5842edc8", "is_disabled": 0, "rental_uris": {"ios": "https://dc.lft.to/lastmile_qr_scan", "android": "https://dc.lft.to/lastmile_qr_scan"}, "is_reserved": 0}, {"lon": -77.03329266666667, "bike_id": "e455ee5ffb8f242679241c977526f0d4", "lat": 38.90312733333333, "fusion_lon": 0.0, "fusion_lat": 0.0, "type": "electric_scooter", "name": "e455ee5ffb8f242679241c977526f0d4", "is_disabled": 0, "rental_uris": {"ios": "https://dc.lft.to/lastmile_qr_scan", "android": "https://dc.lft.to/lastmile_qr_scan"}, "is_reserved": 0}, {"lon": -77.07821766666666, "bike_id": "439c68f87796d10f74729c9c14d4b109", "lat": 38.923732666666666, "fusion_lon": 0.0, "fusion_lat": 0.0, "type": "electric_scooter", "name": "439c68f87796d10f74729c9c14d4b109", "is_disabled": 0, "rental_uris": {"ios": "https://dc.lft.to/lastmile_qr_scan", "android": "https://dc.lft.to/lastmile_qr_scan"}, "is_reserved": 0}, {"lon": -77.03210016666667, "bike_id": "54d76dd65c854120ed5cf3a181b5c023", "lat": 38.911997666666664, "fusion_lon": 0.0, "fusion_lat": 0.0, "type": "electric_scooter", "name": "54d76dd65c854120ed5cf3a181b5c023", "is_disabled": 0, "rental_uris": {"ios": "https://dc.lft.to/lastmile_qr_scan", "android": "https://dc.lft.to/lastmile_qr_scan"}, "is_reserved": 0}, {"lon": -76.98797333333333, "bike_id": "4aa7de34fcc6b4b75eb612661d7c6692", "lat": 38.892407166666665, "fusion_lon": 0.0, "fusion_lat": 0.0, "type": "electric_scooter", "name": "4aa7de34fcc6b4b75eb612661d7c6692", "is_disabled": 0, "rental_uris": {"ios": "https://dc.lft.to/lastmile_qr_scan", "android": "https://dc.lft.to/lastmile_qr_scan"}, "is_reserved": 0}, {"lon": -77.041076, "bike_id": "6ced677a7ba80e95e5d02c349e27f144", "lat": 38.9155415, "fusion_lon": 0.0, "fusion_lat": 0.0, "type": "electric_scooter", "name": "6ced677a7ba80e95e5d02c349e27f144", "is_disabled": 0, "rental_uris": {"ios": "https://dc.lft.to/lastmile_qr_scan", "android": "https://dc.lft.to/lastmile_qr_scan"}, "is_reserved": 0}, {"lon": -77.00574216666666, "bike_id": "7e494e0bb9be974a6b6a5d4659019706", "lat": 38.82998666666667, "fusion_lon": 0.0, "fusion_lat": 0.0, "type": "electric_scooter", "name": "7e494e0bb9be974a6b6a5d4659019706", "is_disabled": 0, "rental_uris": {"ios": "https://dc.lft.to/lastmile_qr_scan", "android": "https://dc.lft.to/lastmile_qr_scan"}, "is_reserved": 0}, {"lon": -77.036675, "bike_id": "185778c7d55da30d45186a82e9574ae3", "lat": 38.91816433333334, "fusion_lon": 0.0, "fusion_lat": 0.0, "type": "electric_scooter", "name": "185778c7d55da30d45186a82e9574ae3", "is_disabled": 0, "rental_uris": {"ios": "https://dc.lft.to/lastmile_qr_scan", "android": "https://dc.lft.to/lastmile_qr_scan"}, "is_reserved": 0}, {"lon": -77.0269045, "bike_id": "4cec4eacf6fd63822c41f962672da1f6", "lat": 38.9181845, "fusion_lon": 0.0, "fusion_lat": 0.0, "type": "electric_scooter", "name": "4cec4eacf6fd63822c41f962672da1f6", "is_disabled": 0, "rental_uris": {"ios": "https://dc.lft.to/lastmile_qr_scan", "android": "https://dc.lft.to/lastmile_qr_scan"}, "is_reserved": 0}, {"lon": -77.03235566666666, "bike_id": "904552ba300c89d3009ce65f90203264", "lat": 38.92987133333333, "fusion_lon": 0.0, "fusion_lat": 0.0, "type": "electric_scooter", "name": "904552ba300c89d3009ce65f90203264", "is_disabled": 0, "rental_uris": {"ios": "https://dc.lft.to/lastmile_qr_scan", "android": "https://dc.lft.to/lastmile_qr_scan"}, "is_reserved": 0}, {"lon": -77.09462533333334, "bike_id": "c32b1776f1e39b028d446d6aff88598e", "lat": 38.869408166666666, "fusion_lon": 0.0, "fusion_lat": 0.0, "type": "electric_bike", "name": "c32b1776f1e39b028d446d6aff88598e", "is_disabled": 0, "rental_uris": {"ios": "https://dc.lft.to/lastmile_qr_scan", "android": "https://dc.lft.to/lastmile_qr_scan"}, "is_reserved": 0}, {"lon": -77.02225433333334, "bike_id": "a4e658a5a77106de8bb82bda58e5183b", "lat": 38.93551866666667, "fusion_lon": 0.0, "fusion_lat": 0.0, "type": "electric_scooter", "name": "a4e658a5a77106de8bb82bda58e5183b", "is_disabled": 0, "rental_uris": {"ios": "https://dc.lft.to/lastmile_qr_scan", "android": "https://dc.lft.to/lastmile_qr_scan"}, "is_reserved": 0}, {"lon": -77.02507733333333, "bike_id": "797e59ce42721d4a012d1f2f0d48fd69", "lat": 38.92050833333333, "fusion_lon": 0.0, "fusion_lat": 0.0, "type": "electric_scooter", "name": "797e59ce42721d4a012d1f2f0d48fd69", "is_disabled": 0, "rental_uris": {"ios": "https://dc.lft.to/lastmile_qr_scan", "android": "https://dc.lft.to/lastmile_qr_scan"}, "is_reserved": 0}, {"lon": -76.98146783333334, "bike_id": "063ffe45963fcb6442d98563dba390d1", "lat": 38.90565316666667, "fusion_lon": 0.0, "fusion_lat": 0.0, "type": "electric_scooter", "name": "063ffe45963fcb6442d98563dba390d1", "is_disabled": 0, "rental_uris": {"ios": "https://dc.lft.to/lastmile_qr_scan", "android": "https://dc.lft.to/lastmile_qr_scan"}, "is_reserved": 0}, {"lon": -77.023882, "bike_id": "a3b00b6afb0d6020876ebfb6ae9ce342", "lat": 38.9114525, "fusion_lon": 0.0, "fusion_lat": 0.0, "type": "electric_scooter", "name": "a3b00b6afb0d6020876ebfb6ae9ce342", "is_disabled": 0, "rental_uris": {"ios": "https://dc.lft.to/lastmile_qr_scan", "android": "https://dc.lft.to/lastmile_qr_scan"}, "is_reserved": 0}, {"lon": -77.0435035, "bike_id": "a85881d136a33d682adad7b6cc873eac", "lat": 38.912203166666664, "fusion_lon": 0.0, "fusion_lat": 0.0, "type": "electric_scooter", "name": "a85881d136a33d682adad7b6cc873eac", "is_disabled": 0, "rental_uris": {"ios": "https://dc.lft.to/lastmile_qr_scan", "android": "https://dc.lft.to/lastmile_qr_scan"}, "is_reserved": 0}, {"lon": -77.02949283333334, "bike_id": "8972a6af80a913ddb094f94332090801", "lat": 38.9084285, "fusion_lon": 0.0, "fusion_lat": 0.0, "type": "electric_bike", "name": "8972a6af80a913ddb094f94332090801", "is_disabled": 0, "rental_uris": {"ios": "https://dc.lft.to/lastmile_qr_scan", "android": "https://dc.lft.to/lastmile_qr_scan"}, "is_reserved": 0}, {"lon": -77.0556255, "bike_id": "0eac20b54047bec163d7ef886ee1be42", "lat": 38.930377666666665, "fusion_lon": 0.0, "fusion_lat": 0.0, "type": "electric_scooter", "name": "0eac20b54047bec163d7ef886ee1be42", "is_disabled": 0, "rental_uris": {"ios": "https://dc.lft.to/lastmile_qr_scan", "android": "https://dc.lft.to/lastmile_qr_scan"}, "is_reserved": 0}, {"lon": -77.1052395, "bike_id": "2e2c150e0b9e268cd26af09300107b69", "lat": 38.873718, "fusion_lon": 0.0, "fusion_lat": 0.0, "type": "electric_bike", "name": "2e2c150e0b9e268cd26af09300107b69", "is_disabled": 0, "rental_uris": {"ios": "https://dc.lft.to/lastmile_qr_scan", "android": "https://dc.lft.to/lastmile_qr_scan"}, "is_reserved": 0}, {"lon": -77.0425995, "bike_id": "01dedc81fed7cc8f53c693be3f68e655", "lat": 38.90014733333334, "fusion_lon": 0.0, "fusion_lat": 0.0, "type": "electric_scooter", "name": "01dedc81fed7cc8f53c693be3f68e655", "is_disabled": 0, "rental_uris": {"ios": "https://dc.lft.to/lastmile_qr_scan", "android": "https://dc.lft.to/lastmile_qr_scan"}, "is_reserved": 0}, {"lon": -77.05601183333333, "bike_id": "6b95e1b14efeea07ec07db1a268b56f7", "lat": 38.9370095, "fusion_lon": 0.0, "fusion_lat": 0.0, "type": "electric_scooter", "name": "6b95e1b14efeea07ec07db1a268b56f7", "is_disabled": 0, "rental_uris": {"ios": "https://dc.lft.to/lastmile_qr_scan", "android": "https://dc.lft.to/lastmile_qr_scan"}, "is_reserved": 0}, {"lon": -77.03201716666666, "bike_id": "f3fc1e368dc161e6e196061d9f94c40b", "lat": 38.927814, "fusion_lon": 0.0, "fusion_lat": 0.0, "type": "electric_scooter", "name": "f3fc1e368dc161e6e196061d9f94c40b", "is_disabled": 0, "rental_uris": {"ios": "https://dc.lft.to/lastmile_qr_scan", "android": "https://dc.lft.to/lastmile_qr_scan"}, "is_reserved": 0}, {"lon": -77.03628666666667, "bike_id": "95a25994844555600b0fce1607c32c48", "lat": 38.915526, "fusion_lon": 0.0, "fusion_lat": 0.0, "type": "electric_scooter", "name": "95a25994844555600b0fce1607c32c48", "is_disabled": 0, "rental_uris": {"ios": "https://dc.lft.to/lastmile_qr_scan", "android": "https://dc.lft.to/lastmile_qr_scan"}, "is_reserved": 0}, {"lon": -77.06117433333333, "bike_id": "29b1503df1adeabc04d2675c2a48ec5d", "lat": 38.90528316666666, "fusion_lon": 0.0, "fusion_lat": 0.0, "type": "electric_scooter", "name": "29b1503df1adeabc04d2675c2a48ec5d", "is_disabled": 0, "rental_uris": {"ios": "https://dc.lft.to/lastmile_qr_scan", "android": "https://dc.lft.to/lastmile_qr_scan"}, "is_reserved": 0}, {"lon": -76.946192, "bike_id": "e8800920597b68331f6c5391199f6fea", "lat": 38.832288, "fusion_lon": 0.0, "fusion_lat": 0.0, "type": "electric_bike", "name": "e8800920597b68331f6c5391199f6fea", "is_disabled": 0, "rental_uris": {"ios": "https://dc.lft.to/lastmile_qr_scan", "android": "https://dc.lft.to/lastmile_qr_scan"}, "is_reserved": 0}, {"lon": -77.03499483333333, "bike_id": "0d54c95b10c7cd59274a558a206076b1", "lat": 38.911827333333335, "fusion_lon": 0.0, "fusion_lat": 0.0, "type": "electric_scooter", "name": "0d54c95b10c7cd59274a558a206076b1", "is_disabled": 0, "rental_uris": {"ios": "https://dc.lft.to/lastmile_qr_scan", "android": "https://dc.lft.to/lastmile_qr_scan"}, "is_reserved": 0}, {"lon": -77.020025, "bike_id": "04c72c34718a941ee6f0c5aa1a8483e7", "lat": 38.911543, "fusion_lon": 0.0, "fusion_lat": 0.0, "type": "electric_scooter", "name": "04c72c34718a941ee6f0c5aa1a8483e7", "is_disabled": 0, "rental_uris": {"ios": "https://dc.lft.to/lastmile_qr_scan", "android": "https://dc.lft.to/lastmile_qr_scan"}, "is_reserved": 0}, {"lon": -77.00120866666667, "bike_id": "c5750419f05cd6b80e908bbcfdafdc7d", "lat": 38.878207333333336, "fusion_lon": 0.0, "fusion_lat": 0.0, "type": "electric_scooter", "name": "c5750419f05cd6b80e908bbcfdafdc7d", "is_disabled": 0, "rental_uris": {"ios": "https://dc.lft.to/lastmile_qr_scan", "android": "https://dc.lft.to/lastmile_qr_scan"}, "is_reserved": 0}, {"lon": -77.01787283333333, "bike_id": "5e88a7c7f290e091a43ffcd840e1f6be", "lat": 38.92047633333333, "fusion_lon": 0.0, "fusion_lat": 0.0, "type": "electric_scooter", "name": "5e88a7c7f290e091a43ffcd840e1f6be", "is_disabled": 0, "rental_uris": {"ios": "https://dc.lft.to/lastmile_qr_scan", "android": "https://dc.lft.to/lastmile_qr_scan"}, "is_reserved": 0}, {"lon": -77.03197283333333, "bike_id": "80f92f3cb6fa832cd2e41ba0ea488ae9", "lat": 38.91576533333333, "fusion_lon": 0.0, "fusion_lat": 0.0, "type": "electric_scooter", "name": "80f92f3cb6fa832cd2e41ba0ea488ae9", "is_disabled": 0, "rental_uris": {"ios": "https://dc.lft.to/lastmile_qr_scan", "android": "https://dc.lft.to/lastmile_qr_scan"}, "is_reserved": 0}, {"lon": -77.02396366666666, "bike_id": "195d69792397f4eeac51c05144d9ddc7", "lat": 38.916867, "fusion_lon": 0.0, "fusion_lat": 0.0, "type": "electric_scooter", "name": "195d69792397f4eeac51c05144d9ddc7", "is_disabled": 0, "rental_uris": {"ios": "https://dc.lft.to/lastmile_qr_scan", "android": "https://dc.lft.to/lastmile_qr_scan"}, "is_reserved": 0}, {"lon": -76.9327675, "bike_id": "af36d27ef853548373b64c91a3072e3c", "lat": 38.95422133333334, "fusion_lon": 0.0, "fusion_lat": 0.0, "type": "electric_bike", "name": "af36d27ef853548373b64c91a3072e3c", "is_disabled": 0, "rental_uris": {"ios": "https://dc.lft.to/lastmile_qr_scan", "android": "https://dc.lft.to/lastmile_qr_scan"}, "is_reserved": 0}, {"lon": -77.01755833333333, "bike_id": "16b8a9f3b3648548bb3f34f64363d9be", "lat": 38.876699, "fusion_lon": 0.0, "fusion_lat": 0.0, "type": "electric_scooter", "name": "16b8a9f3b3648548bb3f34f64363d9be", "is_disabled": 0, "rental_uris": {"ios": "https://dc.lft.to/lastmile_qr_scan", "android": "https://dc.lft.to/lastmile_qr_scan"}, "is_reserved": 0}, {"lon": -77.02943216666667, "bike_id": "8195126371e231d731055ff6ad8b8362", "lat": 38.8964515, "fusion_lon": 0.0, "fusion_lat": 0.0, "type": "electric_scooter", "name": "8195126371e231d731055ff6ad8b8362", "is_disabled": 0, "rental_uris": {"ios": "https://dc.lft.to/lastmile_qr_scan", "android": "https://dc.lft.to/lastmile_qr_scan"}, "is_reserved": 0}, {"lon": -77.02569966666667, "bike_id": "9fc92770cf4b2b33ca988cb2d6f461fa", "lat": 38.89761416666666, "fusion_lon": 0.0, "fusion_lat": 0.0, "type": "electric_scooter", "name": "9fc92770cf4b2b33ca988cb2d6f461fa", "is_disabled": 0, "rental_uris": {"ios": "https://dc.lft.to/lastmile_qr_scan", "android": "https://dc.lft.to/lastmile_qr_scan"}, "is_reserved": 0}, {"lon": -77.03925, "bike_id": "dd404f936b9f3aee3cc2dc81eab24573", "lat": 38.926261833333335, "fusion_lon": 0.0, "fusion_lat": 0.0, "type": "electric_scooter", "name": "dd404f936b9f3aee3cc2dc81eab24573", "is_disabled": 0, "rental_uris": {"ios": "https://dc.lft.to/lastmile_qr_scan", "android": "https://dc.lft.to/lastmile_qr_scan"}, "is_reserved": 0}, {"lon": -76.99001433333333, "bike_id": "2a8808e3c44ebfd3555359985ef1a09b", "lat": 38.865048333333334, "fusion_lon": 0.0, "fusion_lat": 0.0, "type": "electric_scooter", "name": "2a8808e3c44ebfd3555359985ef1a09b", "is_disabled": 0, "rental_uris": {"ios": "https://dc.lft.to/lastmile_qr_scan", "android": "https://dc.lft.to/lastmile_qr_scan"}, "is_reserved": 0}, {"lon": -77.02485266666666, "bike_id": "ed051c99b905fc734f7615bd6a52e451", "lat": 38.88009733333333, "fusion_lon": 0.0, "fusion_lat": 0.0, "type": "electric_scooter", "name": "ed051c99b905fc734f7615bd6a52e451", "is_disabled": 0, "rental_uris": {"ios": "https://dc.lft.to/lastmile_qr_scan", "android": "https://dc.lft.to/lastmile_qr_scan"}, "is_reserved": 0}, {"lon": -77.032899, "bike_id": "1e62fc31c8700795fd64de30267475d1", "lat": 38.90361683333333, "fusion_lon": 0.0, "fusion_lat": 0.0, "type": "electric_scooter", "name": "1e62fc31c8700795fd64de30267475d1", "is_disabled": 0, "rental_uris": {"ios": "https://dc.lft.to/lastmile_qr_scan", "android": "https://dc.lft.to/lastmile_qr_scan"}, "is_reserved": 0},