{"data": {"bikes": [{"name": "a05a95880cfda088de26baa400b4a64b", "lon": -76.9807815, "lat": 38.90171, "type": "electric_scooter", "fusion_lon": 0.0, "is_reserved": 0, "bike_id": "a05a95880cfda088de26baa400b4a64b", "fusion_lat": 0.0, "is_disabled": 0, "rental_uris": {"ios": "https://dc.lft.to/lastmile_qr_scan", "android": "https://dc.lft.to/lastmile_qr_scan"}}, {"name": "52e8a45ec073873bd2783d02bc7aa5bb", "lon": -77.052896, "lat": 38.92788633333333, "type": "electric_scooter", "fusion_lon": 0.0, "is_reserved": 0, "bike_id": "52e8a45ec073873bd2783d02bc7aa5bb", "fusion_lat": 0.0, "is_disabled": 0, "rental_uris": {"ios": "https://dc.lft.to/lastmile_qr_scan", "android": "https://dc.lft.to/lastmile_qr_scan"}}, {"name": "685587deb469fd953aec439b7f263828", "lon": -77.00978366666666, "lat": 38.9141355, "type": "electric_scooter", "fusion_lon": 0.0, "is_reserved": 0, "bike_id": "685587deb469fd953aec439b7f263828", "fusion_lat": 0.0, "is_disabled": 0, "rental_uris": {"ios": "https://dc.lft.to/lastmile_qr_scan", "android": "https://dc.lft.to/lastmile_qr_scan"}}, {"name": "2ef936f4bca5159ba4be310f31f69d3a", "lon": -77.03467716666667, "lat": 38.922540833333336, "type": "electric_scooter", "fusion_lon": 0.0, "is_reserved": 0, "bike_id": "2ef936f4bca5159ba4be310f31f69d3a", "fusion_lat": 0.0, "is_disabled": 0, "rental_uris": {"ios": "https://dc.lft.to/lastmile_qr_scan", "android": "https://dc.lft.to/lastmile_qr_scan"}}, {"name": "03e806b8ad32e99411f118c236238053", "lon": -76.93749933333334, "lat": 38.890435, "type": "electric_scooter", "fusion_lon": 0.0, "is_reserved": 0, "bike_id": "03e806b8ad32e99411f118c236238053", "fusion_lat": 0.0, "is_disabled": 0, "rental_uris": {"ios": "https://dc.lft.to/lastmile_qr_scan", "android": "https://dc.lft.to/lastmile_qr_scan"}}, {"name": "458286d083b5a8b16b4652b55339bdd1", "lon": -77.02847983333334, "lat": 38.934136, "type": "electric_scooter", "fusion_lon": 0.0, "is_reserved": 0, "bike_id": "458286d083b5a8b16b4652b55339bdd1", "fusion_lat": 0.0, "is_disabled": 0, "rental_uris": {"ios": "https://dc.lft.to/lastmile_qr_scan", "android": "https://dc.lft.to/lastmile_qr_scan"}}, {"name": "58f267ed83730749d466adf7c096dbdf", "lon": -77.017512, "lat": 38.921062166666665, "type": "electric_scooter", "fusion_lon": 0.0, "is_reserved": 0, "bike_id": "58f267ed83730749d466adf7c096dbdf", "fusion_lat": 0.0, "is_disabled": 0, "rental_uris": {"ios": "https://dc.lft.to/lastmile_qr_scan", "android": "https://dc.lft.to/lastmile_qr_scan"}}, {"name": "ba40eb5a4033fc9bc200cb421a9712cb", "lon": -76.98237916666666, "lat": 38.90889033333333, "type": "electric_scooter", "fusion_lon": 0.0, "is_reserved": 0, "bike_id": "ba40eb5a4033fc9bc200cb421a9712cb", "fusion_lat": 0.0, "is_disabled": 0, "rental_uris": {"ios": "https://dc.lft.to/lastmile_qr_scan", "android": "https://dc.lft.to/lastmile_qr_scan"}}, {"name": "abf9984433288d5d10172f5297af0787", "lon": -77.02969716666666, "lat": 38.90517833333333, "type": "electric_scooter", "fusion_lon": 0.0, "is_reserved": 0, "bike_id": "abf9984433288d5d10172f5297af0787", "fusion_lat": 0.0, "is_disabled": 0, "rental_uris": {"ios": "https://dc.lft.to/lastmile_qr_scan", "android": "https://dc.lft.to/lastmile_qr_scan"}}, {"name": "d9974fb311c76e9b8a872c7707f3ab9d", "lon": -77.02709133333333, "lat": 38.9181415, "type": "electric_scooter", "fusion_lon": 0.0, "is_reserved": 0, "bike_id": "d9974fb311c76e9b8a872c7707f3ab9d", "fusion_lat": 0.0, "is_disabled": 0, "rental_uris": {"ios": "https://dc.lft.to/lastmile_qr_scan", "android": "https://dc.lft.to/lastmile_qr_scan"}}, {"name": "06ad916b7105ddeb865c72e404056552", "lon": -77.0280775, "lat": 38.89832533333333, "type": "electric_scooter", "fusion_lon": 0.0, "is_reserved": 0, "bike_id": "06ad916b7105ddeb865c72e404056552", "fusion_lat": 0.0, "is_disabled": 0, "rental_uris": {"ios": "https://dc.lft.to/lastmile_qr_scan", "android": "https://dc.lft.to/lastmile_qr_scan"}}, {"name": "d7a35203d2ba94472df14ded082bfb59", "lon": -77.0021085, "lat": 38.90021383333333, "type": "electric_scooter", "fusion_lon": 0.0, "is_reserved": 0, "bike_id": "d7a35203d2ba94472df14ded082bfb59", "fusion_lat": 0.0, "is_disabled": 0, "rental_uris": {"ios": "https://dc.lft.to/lastmile_qr_scan", "android": "https://dc.lft.to/lastmile_qr_scan"}}, {"name": "405d7eb2d84eaddd9471d0efad55d3ff", "lon": -76.99349233333334, "lat": 38.845051166666664, "type": "electric_scooter", "fusion_lon": 0.0, "is_reserved": 0, "bike_id": "405d7eb2d84eaddd9471d0efad55d3ff", "fusion_lat": 0.0, "is_disabled": 0, "rental_uris": {"ios": "https://dc.lft.to/lastmile_qr_scan", "android": "https://dc.lft.to/lastmile_qr_scan"}}, {"name": "aad385340605be2bd88fb01bf61d424f", "lon": -76.911387, "lat": 38.894308333333335, "type": "electric_scooter", "fusion_lon": 0.0, "is_reserved": 0, "bike_id": "aad385340605be2bd88fb01bf61d424f", "fusion_lat": 0.0, "is_disabled": 0, "rental_uris": {"ios": "https://dc.lft.to/lastmile_qr_scan", "android": "https://dc.lft.to/lastmile_qr_scan"}}, {"name": "715ebb5529be20fe1654c30b0caa9fdd", "lon": -77.022958, "lat": 38.9280435, "type": "electric_scooter", "fusion_lon": 0.0, "is_reserved": 0, "bike_id": "715ebb5529be20fe1654c30b0caa9fdd", "fusion_lat": 0.0, "is_disabled": 0, "rental_uris": {"ios": "https://dc.lft.to/lastmile_qr_scan", "android": "https://dc.lft.to/lastmile_qr_scan"}}, {"name": "0eb058985cabb02b397a6298842eeca9", "lon": -77.05416166666667, "lat": 38.90244933333334, "type": "electric_scooter", "fusion_lon": 0.0, "is_reserved": 0, "bike_id": "0eb058985cabb02b397a6298842eeca9", "fusion_lat": 0.0, "is_disabled": 0, "rental_uris": {"ios": "https://dc.lft.to/lastmile_qr_scan", "android": "https://dc.lft.to/lastmile_qr_scan"}}, {"name": "d92d55703ac329ff01fff13b5a5a35d2", "lon": -76.99847016666666, "lat": 38.88740283333333, "type": "electric_scooter", "fusion_lon": 0.0, "is_reserved": 0, "bike_id": "d92d55703ac329ff01fff13b5a5a35d2", "fusion_lat": 0.0, "is_disabled": 0, "rental_uris": {"ios": "https://dc.lft.to/lastmile_qr_scan", "android": "https://dc.lft.to/lastmile_qr_scan"}}, {"name": "93a376d3ec9f0e223ec4c255a461d3ac", "lon": -76.98346116666667, "lat": 38.91496466666667, "type": "electric_scooter", "fusion_lon": 0.0, "is_reserved": 0, "bike_id": "93a376d3ec9f0e223ec4c255a461d3ac", "fusion_lat": 0.0, "is_disabled": 0, "rental_uris": {"ios": "https://dc.lft.to/lastmile_qr_scan", "android": "https://dc.lft.to/lastmile_qr_scan"}}, {"name": "8c464f5a968312f8d4d6ce8367c900ad", "lon": -77.04191633333333, "lat": 38.926291166666665, "type": "electric_scooter", "fusion_lon": 0.0, "is_reserved": 0, "bike_id": "8c464f5a968312f8d4d6ce8367c900ad", "fusion_lat": 0.0, "is_disabled": 0, "rental_uris": {"ios": "https://dc.lft.to/lastmile_qr_scan", "android": "https://dc.lft.to/lastmile_qr_scan"}}, {"name": "5aad18e91ae807351cbdf635521f5fef", "lon": -77.03511433333334, "lat": 38.9272635, "type": "electric_scooter", "fusion_lon": 0.0, "is_reserved": 0, "bike_id": "5aad18e91ae807351cbdf635521f5fef", "fusion_lat": 0.0, "is_disabled": 0, "rental_uris": {"ios": "https://dc.lft.to/lastmile_qr_scan", "android": "https://dc.lft.to/lastmile_qr_scan"}}, {"name": "98293b260b07e98adee521d109389c03", "lon": -77.0562525, "lat": 38.9241105, "type": "electric_scooter", "fusion_lon": 0.0, "is_reserved": 0, "bike_id": "98293b260b07e98adee521d109389c03", "fusion_lat": 0.0, "is_disabled": 0, "rental_uris": {"ios": "https://dc.lft.to/lastmile_qr_scan", "android": "https://dc.lft.to/lastmile_qr_scan"}}, {"name": "baa2f481da6eadd01ec122849f0a095e", "lon": -76.946335, "lat": 38.89841, "type": "electric_scooter", "fusion_lon": 0.0, "is_reserved": 0, "bike_id": "baa2f481da6eadd01ec122849f0a095e", "fusion_lat": 0.0, "is_disabled": 0, "rental_uris": {"ios": "https://dc.lft.to/lastmile_qr_scan", "android": "https://dc.lft.to/lastmile_qr_scan"}}, {"name": "e43c7565e2bd0f0bddc1cb9729651890", "lon": -77.00212933333333, "lat": 38.900262166666664, "type": "electric_scooter", "fusion_lon": 0.0, "is_reserved": 0, "bike_id": "e43c7565e2bd0f0bddc1cb9729651890", "fusion_lat": 0.0, "is_disabled": 0, "rental_uris": {"ios": "https://dc.lft.to/lastmile_qr_scan", "android": "https://dc.lft.to/lastmile_qr_scan"}}, {"name": "61db582bdb498a850ce3979edec67cf9", "lon": -76.98087133333334, "lat": 38.881303333333335, "type": "electric_bike", "fusion_lon": 0.0, "is_reserved": 0, "bike_id": "61db582bdb498a850ce3979edec67cf9", "fusion_lat": 0.0, "is_disabled": 0, "rental_uris": {"ios": "https://dc.lft.to/lastmile_qr_scan", "android": "https://dc.lft.to/lastmile_qr_scan"}}, {"name": "15355f85dc46a89ca1d055d6a1bb87c3", "lon": -77.02277733333334, "lat": 38.9095655, "type": "electric_scooter", "fusion_lon": 0.0, "is_reserved": 0, "bike_id": "15355f85dc46a89ca1d055d6a1bb87c3", "fusion_lat": 0.0, "is_disabled": 0, "rental_uris": {"ios": "https://dc.lft.to/lastmile_qr_scan", "android": "https://dc.lft.to/lastmile_qr_scan"}}, {"name": "92431bf9e82f7a3859a1ae3531f63cab", "lon": -77.05860433333334, "lat": 38.9360615, "type": "electric_scooter", "fusion_lon": 0.0, "is_reserved": 0, "bike_id": "92431bf9e82f7a3859a1ae3531f63cab", "fusion_lat": 0.0, "is_disabled": 0, "rental_uris": {"ios": "https://dc.lft.to/lastmile_qr_scan", "android": "https://dc.lft.to/lastmile_qr_scan"}}, {"name": "34d284ed621b585b64e9701dd743bb84", "lon": -77.00204416666666, "lat": 38.8954025, "type": "electric_scooter", "fusion_lon": 0.0, "is_reserved": 0, "bike_id": "34d284ed621b585b64e9701dd743bb84", "fusion_lat": 0.0, "is_disabled": 0, "rental_uris": {"ios": "https://dc.lft.to/lastmile_qr_scan", "android": "https://dc.lft.to/lastmile_qr_scan"}}, {"name": "302e637351c57a29c45ee46ae1027916", "lon": -77.02980966666667, "lat": 38.936942, "type": "electric_bike", "fusion_lon": 0.0, "is_reserved": 0, "bike_id": "302e637351c57a29c45ee46ae1027916", "fusion_lat": 0.0, "is_disabled": 0, "rental_uris": {"ios": "https://dc.lft.to/lastmile_qr_scan", "android": "https://dc.lft.to/lastmile_qr_scan"}}, {"name": "e753b71b57be11ea9409e1710bfcea32", "lon": -77.02984866666667, "lat": 38.921968666666665, "type": "electric_scooter", "fusion_lon": 0.0, "is_reserved": 0, "bike_id": "e753b71b57be11ea9409e1710bfcea32", "fusion_lat": 0.0, "is_disabled": 0, "rental_uris": {"ios": "https://dc.lft.to/lastmile_qr_scan", "android": "https://dc.lft.to/lastmile_qr_scan"}}, {"name": "3a5d78c1a497dab7e7096ab24f89495e", "lon": -76.99365, "lat": 38.92840316666667, "type": "electric_scooter", "fusion_lon": 0.0, "is_reserved": 0, "bike_id": "3a5d78c1a497dab7e7096ab24f89495e", "fusion_lat": 0.0, "is_disabled": 0, "rental_uris": {"ios": "https://dc.lft.to/lastmile_qr_scan", "android": "https://dc.lft.to/lastmile_qr_scan"}}, {"name": "e2f8f898f521faa8ab12447321cd2d03", "lon": -77.034469, "lat": 38.921499, "type": "electric_scooter", "fusion_lon": 0.0, "is_reserved": 0, "bike_id": "e2f8f898f521faa8ab12447321cd2d03", "fusion_lat": 0.0, "is_disabled": 0, "rental_uris": {"ios": "https://dc.lft.to/lastmile_qr_scan", "android": "https://dc.lft.to/lastmile_qr_scan"}}, {"name": "fb32e750e71a5fc094c91435039185f5", "lon": -77.0432825, "lat": 38.89222766666666, "type": "electric_scooter", "fusion_lon": 0.0, "is_reserved": 0, "bike_id": "fb32e750e71a5fc094c91435039185f5", "fusion_lat": 0.0, "is_disabled": 0, "rental_uris": {"ios": "https://dc.lft.to/lastmile_qr_scan", "android": "https://dc.lft.to/lastmile_qr_scan"}}, {"name": "e5e86527741d3daf7227795d7c3c0a17", "lon": -77.0383485, "lat": 38.907189833333334, "type": "electric_scooter", "fusion_lon": 0.0, "is_reserved": 0, "bike_id": "e5e86527741d3daf7227795d7c3c0a17", "fusion_lat": 0.0, "is_disabled": 0, "rental_uris": {"ios": "https://dc.lft.to/lastmile_qr_scan", "android": "https://dc.lft.to/lastmile_qr_scan"}}, {"name": "0922d35a31a8aaa7a8c50bfbd001d7a7", "lon": -77.03325633333333, "lat": 38.92164433333333, "type": "electric_scooter", "fusion_lon": 0.0, "is_reserved": 0, "bike_id": "0922d35a31a8aaa7a8c50bfbd001d7a7", "fusion_lat": 0.0, "is_disabled": 0, "rental_uris": {"ios": "https://dc.lft.to/lastmile_qr_scan", "android": "https://dc.lft.to/lastmile_qr_scan"}}, {"name": "4551f05689e48bc7c7f93d6fc4ec70ee", "lon": -76.98696816666667, "lat": 38.86251216666667, "type": "electric_scooter", "fusion_lon": 0.0, "is_reserved": 0, "bike_id": "4551f05689e48bc7c7f93d6fc4ec70ee", "fusion_lat": 0.0, "is_disabled": 0, "rental_uris": {"ios": "https://dc.lft.to/lastmile_qr_scan", "android": "https://dc.lft.to/lastmile_qr_scan"}}, {"name": "d93fd72035e1f9dae315e15224574cb7", "lon": -77.00266, "lat": 38.9116795, "type": "electric_bike", "fusion_lon": 0.0, "is_reserved": 0, "bike_id": "d93fd72035e1f9dae315e15224574cb7", "fusion_lat": 0.0, "is_disabled": 0, "rental_uris": {"ios": "https://dc.lft.to/lastmile_qr_scan", "android": "https://dc.lft.to/lastmile_qr_scan"}}, {"name": "334b7225a80c3bf233ce5c3da8cdec67", "lon": -77.00747333333334, "lat": 38.89852316666666, "type": "electric_scooter", "fusion_lon": 0.0, "is_reserved": 0, "bike_id": "334b7225a80c3bf233ce5c3da8cdec67", "fusion_lat": 0.0, "is_disabled": 0, "rental_uris": {"ios": "https://dc.lft.to/lastmile_qr_scan", "android": "https://dc.lft.to/lastmile_qr_scan"}}, {"name": "df1962b3de2f0e3dc917c998823664c3", "lon": -77.04559316666666, "lat": 38.91333633333333, "type": "electric_scooter", "fusion_lon": 0.0, "is_reserved": 0, "bike_id": "df1962b3de2f0e3dc917c998823664c3", "fusion_lat": 0.0, "is_disabled": 0, "rental_uris": {"ios": "https://dc.lft.to/lastmile_qr_scan", "android": "https://dc.lft.to/lastmile_qr_scan"}}, {"name": "61725592bfb7a875b98b6048d2b3d6f5", "lon": -77.04183466666667, "lat": 38.91984866666667, "type": "electric_scooter", "fusion_lon": 0.0, "is_reserved": 0, "bike_id": "61725592bfb7a875b98b6048d2b3d6f5", "fusion_lat": 0.0, "is_disabled": 0, "rental_uris": {"ios": "https://dc.lft.to/lastmile_qr_scan", "android": "https://dc.lft.to/lastmile_qr_scan"}}, {"name": "4c0ddfb0ed7ac32549f21b06191a7815", "lon": -77.03626366666667, "lat": 38.92857883333333, "type": "electric_scooter", "fusion_lon": 0.0, "is_reserved": 0, "bike_id": "4c0ddfb0ed7ac32549f21b06191a7815", "fusion_lat": 0.0, "is_disabled": 0, "rental_uris": {"ios": "https://dc.lft.to/lastmile_qr_scan", "android": "https://dc.lft.to/lastmile_qr_scan"}}, {"name": "95842562459a8681d232d5f227921599", "lon": -77.00758566666667, "lat": 38.910239833333335, "type": "electric_scooter", "fusion_lon": 0.0, "is_reserved": 0, "bike_id": "95842562459a8681d232d5f227921599", "fusion_lat": 0.0, "is_disabled": 0, "rental_uris": {"ios": "https://dc.lft.to/lastmile_qr_scan", "android": "https://dc.lft.to/lastmile_qr_scan"}}, {"name": "8f5fbe1d0cbff2e3234b6e5a2bf4a211", "lon": -77.05863, "lat": 38.93605483333333, "type": "electric_scooter", "fusion_lon": 0.0, "is_reserved": 0, "bike_id": "8f5fbe1d0cbff2e3234b6e5a2bf4a211", "fusion_lat": 0.0, "is_disabled": 0, "rental_uris": {"ios": "https://dc.lft.to/lastmile_qr_scan", "android": "https://dc.lft.to/lastmile_qr_scan"}}, {"name": "bef79598a713234b79b7a0cf9ca4ff06", "lon": -77.0434785, "lat": 38.913501833333335, "type": "electric_scooter", "fusion_lon": 0.0, "is_reserved": 0, "bike_id": "bef79598a713234b79b7a0cf9ca4ff06", "fusion_lat": 0.0, "is_disabled": 0, "rental_uris": {"ios": "https://dc.lft.to/lastmile_qr_scan", "android": "https://dc.lft.to/lastmile_qr_scan"}}, {"name": "06cdf3fc3bd0b26f73c243579e0d71dd", "lon": -77.0239345, "lat": 38.917406166666666, "type": "electric_scooter", "fusion_lon": 0.0, "is_reserved": 0, "bike_id": "06cdf3fc3bd0b26f73c243579e0d71dd", "fusion_lat": 0.0, "is_disabled": 0, "rental_uris": {"ios": "https://dc.lft.to/lastmile_qr_scan", "android": "https://dc.lft.to/lastmile_qr_scan"}}, {"name": "770e957a7c3335dd300612ba7940f4b0", "lon": -77.000849, "lat": 38.907567666666665, "type": "electric_scooter", "fusion_lon": 0.0, "is_reserved": 0, "bike_id": "770e957a7c3335dd300612ba7940f4b0", "fusion_lat": 0.0, "is_disabled": 0, "rental_uris": {"ios": "https://dc.lft.to/lastmile_qr_scan", "android": "https://dc.lft.to/lastmile_qr_scan"}}, {"name": "7fd7c3489c36a1e10d73afdfbfe03fbc", "lon": -77.04545633333333, "lat": 38.934055666666666, "type": "electric_scooter", "fusion_lon": 0.0, "is_reserved": 0, "bike_id": "7fd7c3489c36a1e10d73afdfbfe03fbc", "fusion_lat": 0.0, "is_disabled": 0, "rental_uris": {"ios": "https://dc.lft.to/lastmile_qr_scan", "android": "https://dc.lft.to/lastmile_qr_scan"}}, {"name": "5cb3aed35e3b42ac51248a0175a9906e", "lon": -77.00608533333333, "lat": 38.875457833333336, "type": "electric_scooter", "fusion_lon": 0.0, "is_reserved": 0, "bike_id": "5cb3aed35e3b42ac51248a0175a9906e", "fusion_lat": 0.0, "is_disabled": 0, "rental_uris": {"ios": "https://dc.lft.to/lastmile_qr_scan", "android": "https://dc.lft.to/lastmile_qr_scan"}}, {"name": "ae0cb122e9680e4779c995102e90cce8", "lon": -77.0320945, "lat": 38.9167225, "type": "electric_scooter", "fusion_lon": 0.0, "is_reserved": 0, "bike_id": "ae0cb122e9680e4779c995102e90cce8", "fusion_lat": 0.0, "is_disabled": 0, "rental_uris": {"ios": "https://dc.lft.to/lastmile_qr_scan", "android": "https://dc.lft.to/lastmile_qr_scan"}}, {"name": "ecf668a6284764b8bad0a7cf7c1bdc34", "lon": -77.03515383333334, "lat": 38.962041166666666, "type": "electric_bike", "fusion_lon": 0.0, "is_reserved": 0, "bike_id": "ecf668a6284764b8bad0a7cf7c1bdc34", "fusion_lat": 0.0, "is_disabled": 0, "rental_uris": {"ios": "https://dc.lft.to/lastmile_qr_scan", "android": "https://dc.lft.to/lastmile_qr_scan"}}, {"name": "db338de0e46a85a6819606f4a6d784ee", "lon": -77.0413925, "lat": 38.92288166666667, "type": "electric_scooter", "fusion_lon": 0.0, "is_reserved": 0, "bike_id": "db338de0e46a85a6819606f4a6d784ee", "fusion_lat": 0.0, "is_disabled": 0, "rental_uris": {"ios": "https://dc.lft.to/lastmile_qr_scan", "android": "https://dc.lft.to/lastmile_qr_scan"}}, {"name": "525c895c4dbd7c405889c6a625b988eb", "lon": -77.018173, "lat": 38.923656666666666, "type": "electric_scooter", "fusion_lon": 0.0, "is_reserved": 0, "bike_id": "525c895c4dbd7c405889c6a625b988eb", "fusion_lat": 0.0, "is_disabled": 0, "rental_uris": {"ios": "https://dc.lft.to/lastmile_qr_scan", "android": "https://dc.lft.to/lastmile_qr_scan"}}, {"name": "1766254aeb7fbac097715b8107852cac", "lon": -77.04741083333333, "lat": 38.91660683333333, "type": "electric_scooter", "fusion_lon": 0.0, "is_reserved": 0, "bike_id": "1766254aeb7fbac097715b8107852cac", "fusion_lat": 0.0, "is_disabled": 0, "rental_uris": {"ios": "https://dc.lft.to/lastmile_qr_scan", "android": "https://dc.lft.to/lastmile_qr_scan"}}, {"name": "fe5d8d45611cc6ef956eb7b405c4220d", "lon": -77.03525333333333, "lat": 38.90047716666667, "type": "electric_scooter", "fusion_lon": 0.0, "is_reserved": 0, "bike_id": "fe5d8d45611cc6ef956eb7b405c4220d", "fusion_lat": 0.0, "is_disabled": 0, "rental_uris": {"ios": "https://dc.lft.to/lastmile_qr_scan", "android": "https://dc.lft.to/lastmile_qr_scan"}}, {"name": "b91062d5d6a268eac181ae5c5f24f0fe", "lon": -76.99037316666667, "lat": 38.898512333333336, "type": "electric_scooter", "fusion_lon": 0.0, "is_reserved": 0, "bike_id": "b91062d5d6a268eac181ae5c5f24f0fe", "fusion_lat": 0.0, "is_disabled": 0, "rental_uris": {"ios": "https://dc.lft.to/lastmile_qr_scan", "android": "https://dc.lft.to/lastmile_qr_scan"}}, {"name": "1aa1e7f1d80192ed0b41b8380e3f3804", "lon": -77.0244325, "lat": 38.909693, "type": "electric_scooter", "fusion_lon": 0.0, "is_reserved": 0, "bike_id": "1aa1e7f1d80192ed0b41b8380e3f3804", "fusion_lat": 0.0, "is_disabled": 0, "rental_uris": {"ios": "https://dc.lft.to/lastmile_qr_scan", "android": "https://dc.lft.to/lastmile_qr_scan"}}, {"name": "1e0121016b5e21dc004b4569bc14976f", "lon": -77.03851916666666, "lat": 38.903689666666665, "type": "electric_scooter", "fusion_lon": 0.0, "is_reserved": 0, "bike_id": "1e0121016b5e21dc004b4569bc14976f", "fusion_lat": 0.0, "is_disabled": 0, "rental_uris": {"ios": "https://dc.lft.to/lastmile_qr_scan", "android": "https://dc.lft.to/lastmile_qr_scan"}}, {"name": "f9071935a2b7c884112ec8165a4babbc", "lon": -76.9877225, "lat": 38.86593116666667, "type": "electric_bike", "fusion_lon": 0.0, "is_reserved": 0, "bike_id": "f9071935a2b7c884112ec8165a4babbc", "fusion_lat": 0.0, "is_disabled": 0, "rental_uris": {"ios": "https://dc.lft.to/lastmile_qr_scan", "android": "https://dc.lft.to/lastmile_qr_scan"}}, {"name": "f6ac15388b25a6e3b04a321e94ebc8b8", "lon": -77.00263283333334, "lat": 38.92237766666667, "type": "electric_scooter", "fusion_lon": 0.0, "is_reserved": 0, "bike_id": "f6ac15388b25a6e3b04a321e94ebc8b8", "fusion_lat": 0.0, "is_disabled": 0, "rental_uris": {"ios": "https://dc.lft.to/lastmile_qr_scan", "android": "https://dc.lft.to/lastmile_qr_scan"}}, {"name": "b6759aaef6be9022d7e3b425bd570fc7", "lon": -77.04028666666666, "lat": 38.923533666666664, "type": "electric_scooter", "fusion_lon": 0.0, "is_reserved": 0, "bike_id": "b6759aaef6be9022d7e3b425bd570fc7", "fusion_lat": 0.0, "is_disabled": 0, "rental_uris": {"ios": "https://dc.lft.to/lastmile_qr_scan", "android": "https://dc.lft.to/lastmile_qr_scan"}}, {"name": "fbea73eb2b28e087360b4fa7edf8adba", "lon": -77.00892933333333, "lat": 38.9248515, "type": "electric_scooter", "fusion_lon": 0.0, "is_reserved": 0, "bike_id": "fbea73eb2b28e087360b4fa7edf8adba", "fusion_lat": 0.0, "is_disabled": 0, "rental_uris": {"ios": "https://dc.lft.to/lastmile_qr_scan", "android": "https://dc.lft.to/lastmile_qr_scan"}}, {"name": "1751ea0894263fe4c31b6e8e7afabe93", "lon": -77.07155916666666, "lat": 38.92035883333333, "type": "electric_scooter", "fusion_lon": 0.0, "is_reserved": 0, "bike_id": "1751ea0894263fe4c31b6e8e7afabe93", "fusion_lat": 0.0, "is_disabled": 0, "rental_uris": {"ios": "https://dc.lft.to/lastmile_qr_scan", "android": "https://dc.lft.to/lastmile_qr_scan"}}, {"name": "7398eea61082f27282a5d8ed5c7ea4aa", "lon": -77.02976033333333, "lat": 38.916812166666666, "type": "electric_scooter", "fusion_lon": 0.0, "is_reserved": 0, "bike_id": "7398eea61082f27282a5d8ed5c7ea4aa", "fusion_lat": 0.0, "is_disabled": 0, "rental_uris": {"ios": "https://dc.lft.to/lastmile_qr_scan", "android": "https://dc.lft.to/lastmile_qr_scan"}}, {"name": "0c2a9293071b870e94d9b454f007a1bc", "lon": -76.99083666666667, "lat": 38.86238633333333, "type": "electric_bike", "fusion_lon": 0.0, "is_reserved": 0, "bike_id": "0c2a9293071b870e94d9b454f007a1bc", "fusion_lat": 0.0, "is_disabled": 0, "rental_uris": {"ios": "https://dc.lft.to/lastmile_qr_scan", "android": "https://dc.lft.to/lastmile_qr_scan"}}, {"name": "9359f4b48b8df031a704a7be0208fc67", "lon": -77.02759933333333, "lat": 38.9542745, "type": "electric_scooter", "fusion_lon": 0.0, "is_reserved": 0, "bike_id": "9359f4b48b8df031a704a7be0208fc67", "fusion_lat": 0.0, "is_disabled": 0, "rental_uris": {"ios": "https://dc.lft.to/lastmile_qr_scan", "android": "https://dc.lft.to/lastmile_qr_scan"}}, {"name": "57dc22431477918f21261aa329cca9ec", "lon": -77.0282865, "lat": 38.887307166666666, "type": "electric_scooter", "fusion_lon": 0.0, "is_reserved": 0, "bike_id": "57dc22431477918f21261aa329cca9ec", "fusion_lat": 0.0, "is_disabled": 0, "rental_uris": {"ios": "https://dc.lft.to/lastmile_qr_scan", "android": "https://dc.lft.to/lastmile_qr_scan"}}, {"name": "f71720d3bb8c93532e938f5eca9559c6", "lon": -77.0463345, "lat": 38.90277283333333, "type": "electric_scooter", "fusion_lon": 0.0, "is_reserved": 0, "bike_id": "f71720d3bb8c93532e938f5eca9559c6", "fusion_lat": 0.0, "is_disabled": 0, "rental_uris": {"ios": "https://dc.lft.to/lastmile_qr_scan", "android": "https://dc.lft.to/lastmile_qr_scan"}}, {"name": "1348d0d3b0008028e979b5af4a7290a3", "lon": -77.047658, "lat": 38.91766283333333, "type": "electric_scooter", "fusion_lon": 0.0, "is_reserved": 0, "bike_id": "1348d0d3b0008028e979b5af4a7290a3", "fusion_lat": 0.0, "is_disabled": 0, "rental_uris": {"ios": "https://dc.lft.to/lastmile_qr_scan", "android": "https://dc.lft.to/lastmile_qr_scan"}}, {"name": "c34c23e2a60d1c2bd43543f7b92f84b2", "lon": -77.05861366666667, "lat": 38.936037666666664, "type": "electric_scooter", "fusion_lon": 0.0, "is_reserved": 0, "bike_id": "c34c23e2a60d1c2bd43543f7b92f84b2", "fusion_lat": 0.0, "is_disabled": 0, "rental_uris": {"ios": "https://dc.lft.to/lastmile_qr_scan", "android": "https://dc.lft.to/lastmile_qr_scan"}}, {"name": "51593a5b097aed1c70bb6adc459c93c8", "lon": -76.92536383333334, "lat": 38.959274, "type": "electric_bike", "fusion_lon": 0.0, "is_reserved": 0, "bike_id": "51593a5b097aed1c70bb6adc459c93c8", "fusion_lat": 0.0, "is_disabled": 0, "rental_uris": {"ios": "https://dc.lft.to/lastmile_qr_scan", "android": "https://dc.lft.to/lastmile_qr_scan"}}, {"name": "f832f8a4d3e3f6c89cfb5e0934bcf27a", "lon": -77.02952816666667, "lat": 38.90525916666667, "type": "electric_scooter", "fusion_lon": 0.0, "is_reserved": 0, "bike_id": "f832f8a4d3e3f6c89cfb5e0934bcf27a", "fusion_lat": 0.0, "is_disabled": 0, "rental_uris": {"ios": "https://dc.lft.to/lastmile_qr_scan", "android": "https://dc.lft.to/lastmile_qr_scan"}}, {"name": "5ea66fceb2e9c0d8ffadd3efe6c5ad6d", "lon": -76.98990133333334, "lat": 38.86388316666667, "type": "electric_bike", "fusion_lon": 0.0, "is_reserved": 0, "bike_id": "5ea66fceb2e9c0d8ffadd3efe6c5ad6d", "fusion_lat": 0.0, "is_disabled": 0, "rental_uris": {"ios": "https://dc.lft.to/lastmile_qr_scan", "android": "https://dc.lft.to/lastmile_qr_scan"}}, {"name": "ea1917c7503985b2b917f530df7f20bd", "lon": -77.033045, "lat": 38.95634016666666, "type": "electric_scooter", "fusion_lon": 0.0, "is_reserved": 0, "bike_id": "ea1917c7503985b2b917f530df7f20bd", "fusion_lat": 0.0, "is_disabled": 0, "rental_uris": {"ios": "https://dc.lft.to/lastmile_qr_scan", "android": "https://dc.lft.to/lastmile_qr_scan"}}, {"name": "3d5714be9c3dce0ffad053b4abe80457", "lon": -77.05740466666667, "lat": 38.9243075, "type": "electric_scooter", "fusion_lon": 0.0, "is_reserved": 0, "bike_id": "3d5714be9c3dce0ffad053b4abe80457", "fusion_lat": 0.0, "is_disabled": 0, "rental_uris": {"ios": "https://dc.lft.to/lastmile_qr_scan", "android": "https://dc.lft.to/lastmile_qr_scan"}}, {"name": "3256f56e3b952e8e498639f9c9cdce1c", "lon": -77.03043966666667, "lat": 38.884132666666666, "type": "electric_scooter", "fusion_lon": 0.0, "is_reserved": 0, "bike_id": "3256f56e3b952e8e498639f9c9cdce1c", "fusion_lat": 0.0, "is_disabled": 0, "rental_uris": {"ios": "https://dc.lft.to/lastmile_qr_scan", "android": "https://dc.lft.to/lastmile_qr_scan"}}, {"name": "f65d38e2234b53206a9f9c37a32418f9", "lon": -77.0136675, "lat": 38.8870225, "type": "electric_scooter", "fusion_lon": 0.0, "is_reserved": 0, "bike_id": "f65d38e2234b53206a9f9c37a32418f9", "fusion_lat": 0.0, "is_disabled": 0, "rental_uris": {"ios": "https://dc.lft.to/lastmile_qr_scan", "android": "https://dc.lft.to/lastmile_qr_scan"}}, {"name": "426986c273af8fe39c229029a7fe0da7", "lon": -77.03444083333333, "lat": 38.908924666666664, "type": "electric_scooter", "fusion_lon": 0.0, "is_reserved": 0, "bike_id": "426986c273af8fe39c229029a7fe0da7", "fusion_lat": 0.0, "is_disabled": 0, "rental_uris": {"ios": "https://dc.lft.to/lastmile_qr_scan", "android": "https://dc.lft.to/lastmile_qr_scan"}}, {"name": "e239f1150ea3e8e7da023c0ef5785b65", "lon": -77.03205333333334, "lat": 38.908955666666664, "type": "electric_scooter", "fusion_lon": 0.0, "is_reserved": 0, "bike_id": "e239f1150ea3e8e7da023c0ef5785b65", "fusion_lat": 0.0, "is_disabled": 0, "rental_uris": {"ios": "https://dc.lft.to/lastmile_qr_scan", "android": "https://dc.lft.to/lastmile_qr_scan"}}, {"name": "0b5ed4f71d7d508e1aafd76692dec0d4", "lon": -77.03481283333333, "lat": 38.9253605, "type": "electric_scooter", "fusion_lon": 0.0, "is_reserved": 0, "bike_id": "0b5ed4f71d7d508e1aafd76692dec0d4", "fusion_lat": 0.0, "is_disabled": 0, "rental_uris": {"ios": "https://dc.lft.to/lastmile_qr_scan", "android": "https://dc.lft.to/lastmile_qr_scan"}}, {"name": "23ace12e440b2a93c231c814b3df9eff", "lon": -77.02533516666666, "lat": 38.924033666666666, "type": "electric_scooter", "fusion_lon": 0.0, "is_reserved": 0, "bike_id": "23ace12e440b2a93c231c814b3df9eff", "fusion_lat": 0.0, "is_disabled": 0, "rental_uris": {"ios": "https://dc.lft.to/lastmile_qr_scan", "android": "https://dc.lft.to/lastmile_qr_scan"}}, {"name": "fd9c597ab7b6487856204f5238cf2eb8", "lon": -77.0698505, "lat": 38.953004166666666, "type": "electric_scooter", "fusion_lon": 0.0, "is_reserved": 0, "bike_id": "fd9c597ab7b6487856204f5238cf2eb8", "fusion_lat": 0.0, "is_disabled": 0, "rental_uris": {"ios": "https://dc.lft.to/lastmile_qr_scan", "android": "https://dc.lft.to/lastmile_qr_scan"}}, {"name": "df8714c6212950e80ed5fb45f50654d7", "lon": -77.01362566666667, "lat": 38.8637235, "type": "electric_bike", "fusion_lon": 0.0, "is_reserved": 0, "bike_id": "df8714c6212950e80ed5fb45f50654d7", "fusion_lat": 0.0, "is_disabled": 0, "rental_uris": {"ios": "https://dc.lft.to/lastmile_qr_scan", "android": "https://dc.lft.to/lastmile_qr_scan"}}, {"name": "15f0ffcdf2ac668806b8453e55295d52", "lon": -76.93259133333333, "lat": 38.898879666666666, "type": "electric_scooter", "fusion_lon": 0.0, "is_reserved": 0, "bike_id": "15f0ffcdf2ac668806b8453e55295d52", "fusion_lat": 0.0, "is_disabled": 0, "rental_uris": {"ios": "https://dc.lft.to/lastmile_qr_scan", "android": "https://dc.lft.to/lastmile_qr_scan"}}, {"name": "198b2ade3aaf9954a85489da7bd4cdbb", "lon": -77.04798383333333, "lat": 38.918660333333335, "type": "electric_scooter", "fusion_lon": 0.0, "is_reserved": 0, "bike_id": "198b2ade3aaf9954a85489da7bd4cdbb", "fusion_lat": 0.0, "is_disabled": 0, "rental_uris": {"ios": "https://dc.lft.to/lastmile_qr_scan", "android": "https://dc.lft.to/lastmile_qr_scan"}}, {"name": "1b62e8f1cdcc9b702f9d577d4c2da4d1", "lon": -77.029523, "lat": 38.8962905, "type": "electric_scooter", "fusion_lon": 0.0, "is_reserved": 0, "bike_id": "1b62e8f1cdcc9b702f9d577d4c2da4d1", "fusion_lat": 0.0, "is_disabled": 0, "rental_uris": {"ios": "https://dc.lft.to/lastmile_qr_scan", "android": "https://dc.lft.to/lastmile_qr_scan"}}, {"name": "d6da98eb18046b4731b88072e91a2eb5", "lon": -77.02304133333334, "lat": 38.92061783333333, "type": "electric_scooter", "fusion_lon": 0.0, "is_reserved": 0, "bike_id": "d6da98eb18046b4731b88072e91a2eb5", "fusion_lat": 0.0, "is_disabled": 0, "rental_uris": {"ios": "https://dc.lft.to/lastmile_qr_scan", "android": "https://dc.lft.to/lastmile_qr_scan"}}, {"name": "9f308aa48393891b141424168b8984c5", "lon": -77.00651566666667, "lat": 38.911591666666666, "type": "electric_scooter", "fusion_lon": 0.0, "is_reserved": 0, "bike_id": "9f308aa48393891b141424168b8984c5", "fusion_lat": 0.0, "is_disabled": 0, "rental_uris": {"ios": "https://dc.lft.to/lastmile_qr_scan", "android": "https://dc.lft.to/lastmile_qr_scan"}}, {"name": "0d42794572bdfee1a54a061c47b4715f", "lon": -77.0633135, "lat": 38.94424133333333, "type": "electric_scooter", "fusion_lon": 0.0, "is_reserved": 0, "bike_id": "0d42794572bdfee1a54a061c47b4715f", "fusion_lat": 0.0, "is_disabled": 0, "rental_uris": {"ios": "https://dc.lft.to/lastmile_qr_scan", "android": "https://dc.lft.to/lastmile_qr_scan"}}, {"name": "95d22627711a36fcb3577e6e00a863d3", "lon": -77.018209, "lat": 38.92211133333333, "type": "electric_scooter", "fusion_lon": 0.0, "is_reserved": 0, "bike_id": "95d22627711a36fcb3577e6e00a863d3", "fusion_lat": 0.0, "is_disabled": 0, "rental_uris": {"ios": "https://dc.lft.to/lastmile_qr_scan", "android": "https://dc.lft.to/lastmile_qr_scan"}}, {"name": "2d0254c31351b670d6ecd21d55254ceb", "lon": -77.0386955, "lat": 38.91547416666667, "type": "electric_scooter", "fusion_lon": 0.0, "is_reserved": 0, "bike_id": "2d0254c31351b670d6ecd21d55254ceb", "fusion_lat": 0.0, "is_disabled": 0, "rental_uris": {"ios": "https://dc.lft.to/lastmile_qr_scan", "android": "https://dc.lft.to/lastmile_qr_scan"}}, {"name": "6e27473df6168fa260fdabb72797ca03", "lon": -76.9902985, "lat": 38.902919833333335, "type": "electric_scooter", "fusion_lon": 0.0, "is_reserved": 0, "bike_id": "6e27473df6168fa260fdabb72797ca03", "fusion_lat": 0.0, "is_disabled": 0, "rental_uris": {"ios": "https://dc.lft.to/lastmile_qr_scan", "android": "https://dc.lft.to/lastmile_qr_scan"}}, {"name": "33bf5aeec9b71fe6ea85f38ce6b5fd93", "lon": -77.12074783333334, "lat": 38.85412933333333, "type": "electric_bike", "fusion_lon": 0.0, "is_reserved": 0, "bike_id": "33bf5aeec9b71fe6ea85f38ce6b5fd93", "fusion_lat": 0.0, "is_disabled": 0, "rental_uris": {"ios": "https://dc.lft.to/lastmile_qr_scan", "android": "https://dc.lft.to/lastmile_qr_scan"}}, {"name": "6e8ed13592322209e61be4a1f2e5c388", "lon": -77.0270305, "lat": 38.89633166666667, "type": "electric_scooter", "fusion_lon": 0.0, "is_reserved": 0, "bike_id": "6e8ed13592322209e61be4a1f2e5c388", "fusion_lat": 0.0, "is_disabled": 0, "rental_uris": {"ios": "https://dc.lft.to/lastmile_qr_scan", "android": "https://dc.lft.to/lastmile_qr_scan"}}, {"name": "9c2c1bde96e6921673da009d3313760d", "lon": -77.025254, "lat": 38.91496766666667, "type": "electric_scooter", "fusion_lon": 0.0, "is_reserved": 0, "bike_id": "9c2c1bde96e6921673da009d3313760d", "fusion_lat": 0.0, "is_disabled": 0, "rental_uris": {"ios": "https://dc.lft.to/lastmile_qr_scan", "android": "https://dc.lft.to/lastmile_qr_scan"}}, {"name": "bf32db172032a9d3eb1905504b935107", "lon": -77.02826733333333, "lat": 38.886208833333335, "type": "electric_scooter", "fusion_lon": 0.0, "is_reserved": 0, "bike_id": "bf32db172032a9d3eb1905504b935107", "fusion_lat": 0.0, "is_disabled": 0, "rental_uris": {"ios": "https://dc.lft.to/lastmile_qr_scan", "android": "https://dc.lft.to/lastmile_qr_scan"}}, {"name": "8128489cabe25b3d748fc787d02f8ca4", "lon": -76.982553, "lat": 38.90452583333333, "type": "electric_scooter", "fusion_lon": 0.0, "is_reserved": 0, "bike_id": "8128489cabe25b3d748fc787d02f8ca4", "fusion_lat": 0.0, "is_disabled": 0, "rental_uris": {"ios": "https://dc.lft.to/lastmile_qr_scan", "android": "https://dc.lft.to/lastmile_qr_scan"}}, {"name": "321fc9b330feaa25879b447f693560ce", "lon": -77.07260566666666, "lat": 38.935132333333335, "type": "electric_scooter", "fusion_lon": 0.0, "is_reserved": 0, "bike_id": "321fc9b330feaa25879b447f693560ce", "fusion_lat": 0.0, "is_disabled": 0, "rental_uris": {"ios": "https://dc.lft.to/lastmile_qr_scan", "android": "https://dc.lft.to/lastmile_qr_scan"}}, {"name": "eb3b576f07e2fba2e4ecb0ed87ee7a4a", "lon": -77.01144433333333, "lat": 38.906412, "type": "electric_scooter", "fusion_lon": 0.0, "is_reserved": 0, "bike_id": "eb3b576f07e2fba2e4ecb0ed87ee7a4a", "fusion_lat": 0.0, "is_disabled": 0, "rental_uris": {"ios": "https://dc.lft.to/lastmile_qr_scan", "android": "https://dc.lft.to/lastmile_qr_scan"}}, {"name": "a3d1d7b63a36ea1fb352d7a8c74b479a", "lon": -77.02434416666667, "lat": 38.909642833333336, "type": "electric_scooter", "fusion_lon": 0.0, "is_reserved": 0, "bike_id": "a3d1d7b63a36ea1fb352d7a8c74b479a", "fusion_lat": 0.0, "is_disabled": 0, "rental_uris": {"ios": "https://dc.lft.to/lastmile_qr_scan", "android": "https://dc.lft.to/lastmile_qr_scan"}}, {"name": "51ee9b370963dc8ced57e4df61b5a1c1", "lon": -77.00226033333334, "lat": 38.925071333333335, "type": "electric_scooter", "fusion_lon": 0.0, "is_reserved": 0, "bike_id": "51ee9b370963dc8ced57e4df61b5a1c1", "fusion_lat": 0.0, "is_disabled": 0, "rental_uris": {"ios": "https://dc.lft.to/lastmile_qr_scan", "android": "https://dc.lft.to/lastmile_qr_scan"}}, {"name": "3bcd8e6ce04181a8d553a79112919705", "lon": -76.990164, "lat": 38.9050415, "type": "electric_scooter", "fusion_lon": 0.0, "is_reserved": 0, "bike_id": "3bcd8e6ce04181a8d553a79112919705", "fusion_lat": 0.0, "is_disabled": 0, "rental_uris": {"ios": "https://dc.lft.to/lastmile_qr_scan", "android": "https://dc.lft.to/lastmile_qr_scan"}}, {"name": "739198983dea061a1c53df268ca23765", "lon": -76.98094616666667, "lat": 38.95352, "type": "electric_bike", "fusion_lon": 0.0, "is_reserved": 0, "bike_id": "739198983dea061a1c53df268ca23765", "fusion_lat": 0.0, "is_disabled": 0, "rental_uris": {"ios": "https://dc.lft.to/lastmile_qr_scan", "android": "https://dc.lft.to/lastmile_qr_scan"}}, {"name": "02a1bdb1f2206acd344a6152f664514c", "lon": -77.01533566666667, "lat": 38.887384833333336, "type": "electric_scooter", "fusion_lon": 0.0, "is_reserved": 0, "bike_id": "02a1bdb1f2206acd344a6152f664514c", "fusion_lat": 0.0, "is_disabled": 0, "rental_uris": {"ios": "https://dc.lft.to/lastmile_qr_scan", "android": "https://dc.lft.to/lastmile_qr_scan"}}, {"name": "109e570ad8fcfdc4801eb7a61581d944", "lon": -77.04476, "lat": 38.918864166666665, "type": "electric_scooter", "fusion_lon": 0.0, "is_reserved": 0, "bike_id": "109e570ad8fcfdc4801eb7a61581d944", "fusion_lat": 0.0, "is_disabled": 0, "rental_uris": {"ios": "https://dc.lft.to/lastmile_qr_scan", "android": "https://dc.lft.to/lastmile_qr_scan"}}, {"name": "9636dd45c3bb10f1d4e43e8fdd344095", "lon": -77.00199283333333, "lat": 38.90025033333333, "type": "electric_scooter", "fusion_lon": 0.0, "is_reserved": 0, "bike_id": "9636dd45c3bb10f1d4e43e8fdd344095", "fusion_lat": 0.0, "is_disabled": 0, "rental_uris": {"ios": "https://dc.lft.to/lastmile_qr_scan", "android": "https://dc.lft.to/lastmile_qr_scan"}}, {"name": "49c782d347f8018135df4e0c1ae2dadb", "lon": -77.05911633333334, "lat": 38.90105233333333, "type": "electric_scooter", "fusion_lon": 0.0, "is_reserved": 0, "bike_id": "49c782d347f8018135df4e0c1ae2dadb", "fusion_lat": 0.0, "is_disabled": 0, "rental_uris": {"ios": "https://dc.lft.to/lastmile_qr_scan", "android": "https://dc.lft.to/lastmile_qr_scan"}}, {"name": "bcea80435e4245d8790d86cae0d9b5aa", "lon": -76.966075, "lat": 38.87380016666667, "type": "electric_scooter", "fusion_lon": 0.0, "is_reserved": 0, "bike_id": "bcea80435e4245d8790d86cae0d9b5aa", "fusion_lat": 0.0, "is_disabled": 0, "rental_uris": {"ios": "https://dc.lft.to/lastmile_qr_scan", "android": "https://dc.lft.to/lastmile_qr_scan"}}, {"name": "6c5ec5703b554b25f350003eea9450f6", "lon": -77.0471825, "lat": 38.89741266666667, "type": "electric_scooter", "fusion_lon": 0.0, "is_reserved": 0, "bike_id": "6c5ec5703b554b25f350003eea9450f6", "fusion_lat": 0.0, "is_disabled": 0, "rental_uris": {"ios": "https://dc.lft.to/lastmile_qr_scan", "android": "https://dc.lft.to/lastmile_qr_scan"}}, {"name": "04130d937ff2a570f676eb583ba81c0c", "lon": -77.0344335, "lat": 38.905687, "type": "electric_scooter", "fusion_lon": 0.0, "is_reserved": 0, "bike_id": "04130d937ff2a570f676eb583ba81c0c", "fusion_lat": 0.0, "is_disabled": 0, "rental_uris": {"ios": "https://dc.lft.to/lastmile_qr_scan", "android": "https://dc.lft.to/lastmile_qr_scan"}}, {"name": "edc0902f1962cf720f474550328a03c9", "lon": -77.01749183333334, "lat": 38.887396333333335, "type": "electric_scooter", "fusion_lon": 0.0, "is_reserved": 0, "bike_id": "edc0902f1962cf720f474550328a03c9", "fusion_lat": 0.0, "is_disabled": 0, "rental_uris": {"ios": "https://dc.lft.to/lastmile_qr_scan", "android": "https://dc.lft.to/lastmile_qr_scan"}}, {"name": "011bd5aea5f6ed8e2610326cc5c939c6", "lon": -77.01191216666666, "lat": 38.917093333333334, "type": "electric_scooter", "fusion_lon": 0.0, "is_reserved": 0, "bike_id": "011bd5aea5f6ed8e2610326cc5c939c6", "fusion_lat": 0.0, "is_disabled": 0, "rental_uris": {"ios": "https://dc.lft.to/lastmile_qr_scan", "android": "https://dc.lft.to/lastmile_qr_scan"}}, {"name": "08807c819183b711d0f95d98f2707390", "lon": -77.0469165, "lat": 38.92171, "type": "electric_scooter", "fusion_lon": 0.0, "is_reserved": 0, "bike_id": "08807c819183b711d0f95d98f2707390", "fusion_lat": 0.0, "is_disabled": 0, "rental_uris": {"ios": "https://dc.lft.to/lastmile_qr_scan", "android": "https://dc.lft.to/lastmile_qr_scan"}}, {"name": "0d6f722eed3a1665a72658bc867da92e", "lon": -77.051436, "lat": 38.90427433333333, "type": "electric_scooter", "fusion_lon": 0.0, "is_reserved": 0, "bike_id": "0d6f722eed3a1665a72658bc867da92e", "fusion_lat": 0.0, "is_disabled": 0, "rental_uris": {"ios": "https://dc.lft.to/lastmile_qr_scan", "android": "https://dc.lft.to/lastmile_qr_scan"}}, {"name": "0d148ab5d93083a93de865632da260d6", "lon": -76.93647483333334, "lat": 38.87150416666667, "type": "electric_bike", "fusion_lon": 0.0, "is_reserved": 0, "bike_id": "0d148ab5d93083a93de865632da260d6", "fusion_lat": 0.0, "is_disabled": 0, "rental_uris": {"ios": "https://dc.lft.to/lastmile_qr_scan", "android": "https://dc.lft.to/lastmile_qr_scan"}}, {"name": "028a61cab2ce025cd21c65e2fee193b4", "lon": -77.026832, "lat": 38.9277765, "type": "electric_scooter", "fusion_lon": 0.0, "is_reserved": 0, "bike_id": "028a61cab2ce025cd21c65e2fee193b4", "fusion_lat": 0.0, "is_disabled": 0, "rental_uris": {"ios": "https://dc.lft.to/lastmile_qr_scan", "android": "https://dc.lft.to/lastmile_qr_scan"}}, {"name": "8b00cd771b722c9b04d75c15a6ae5645", "lon": -76.98534633333334, "lat": 38.880798166666665, "type": "electric_bike", "fusion_lon": 0.0, "is_reserved": 0, "bike_id": "8b00cd771b722c9b04d75c15a6ae5645", "fusion_lat": 0.0, "is_disabled": 0, "rental_uris": {"ios": "https://dc.lft.to/lastmile_qr_scan", "android": "https://dc.lft.to/lastmile_qr_scan"}}, {"name": "e2e56ed0f971eda55e298ee3ea3865f3", "lon": -76.96866216666666, "lat": 38.87088833333333, "type": "electric_scooter", "fusion_lon": 0.0, "is_reserved": 0, "bike_id": "e2e56ed0f971eda55e298ee3ea3865f3", "fusion_lat": 0.0, "is_disabled": 0, "rental_uris": {"ios": "https://dc.lft.to/lastmile_qr_scan", "android": "https://dc.lft.to/lastmile_qr_scan"}}, {"name": "b7bd1431c43d66fb4d1ef65e37625908", "lon": -77.03448083333333, "lat": 38.909998333333334, "type": "electric_scooter", "fusion_lon": 0.0, "is_reserved": 0, "bike_id": "b7bd1431c43d66fb4d1ef65e37625908", "fusion_lat": 0.0, "is_disabled": 0, "rental_uris": {"ios": "https://dc.lft.to/lastmile_qr_scan", "android": "https://dc.lft.to/lastmile_qr_scan"}}, {"name": "4972056cf75a2179afa82d6e627908ee", "lon": -77.0385315, "lat": 38.92170216666667, "type": "electric_scooter", "fusion_lon": 0.0, "is_reserved": 0, "bike_id": "4972056cf75a2179afa82d6e627908ee", "fusion_lat": 0.0, "is_disabled": 0, "rental_uris": {"ios": "https://dc.lft.to/lastmile_qr_scan", "android": "https://dc.lft.to/lastmile_qr_scan"}}, {"name": "4697076d83430c9dc6b3f3322fcd378e", "lon": -77.0311335, "lat": 38.9170365, "type": "electric_scooter", "fusion_lon": 0.0, "is_reserved": 0, "bike_id": "4697076d83430c9dc6b3f3322fcd378e", "fusion_lat": 0.0, "is_disabled": 0, "rental_uris": {"ios": "https://dc.lft.to/lastmile_qr_scan", "android": "https://dc.lft.to/lastmile_qr_scan"}}, {"name": "184047de9f1114d1654ab9e284adce8f", "lon": -77.0230035, "lat": 38.91794633333333, "type": "electric_scooter", "fusion_lon": 0.0, "is_reserved": 0, "bike_id": "184047de9f1114d1654ab9e284adce8f", "fusion_lat": 0.0, "is_disabled": 0, "rental_uris": {"ios": "https://dc.lft.to/lastmile_qr_scan", "android": "https://dc.lft.to/lastmile_qr_scan"}}, {"name": "0bb21c25ba29a3e49ee502c737cf5362", "lon": -76.96012133333333, "lat": 38.89643216666666, "type": "electric_scooter", "fusion_lon": 0.0, "is_reserved": 0, "bike_id": "0bb21c25ba29a3e49ee502c737cf5362", "fusion_lat": 0.0, "is_disabled": 0, "rental_uris": {"ios": "https://dc.lft.to/lastmile_qr_scan", "android": "https://dc.lft.to/lastmile_qr_scan"}}, {"name": "ba163e830043af233c5cdc2367c4b95a", "lon": -77.0234105, "lat": 38.878782666666666, "type": "electric_scooter", "fusion_lon": 0.0, "is_reserved": 0, "bike_id": "ba163e830043af233c5cdc2367c4b95a", "fusion_lat": 0.0, "is_disabled": 0, "rental_uris": {"ios": "https://dc.lft.to/lastmile_qr_scan", "android": "https://dc.lft.to/lastmile_qr_scan"}}, {"name": "8d87421592258f35d1aa3b321ebee150", "lon": -76.982322, "lat": 38.864721, "type": "electric_scooter", "fusion_lon": 0.0, "is_reserved": 0, "bike_id": "8d87421592258f35d1aa3b321ebee150", "fusion_lat": 0.0, "is_disabled": 0, "rental_uris": {"ios": "https://dc.lft.to/lastmile_qr_scan", "android": "https://dc.lft.to/lastmile_qr_scan"}}, {"name": "e167816e5c352638004b1b3469cdbd8c", "lon": -77.04944466666667, "lat": 38.90523966666667, "type": "electric_scooter", "fusion_lon": 0.0, "is_reserved": 0, "bike_id": "e167816e5c352638004b1b3469cdbd8c", "fusion_lat": 0.0, "is_disabled": 0, "rental_uris": {"ios": "https://dc.lft.to/lastmile_qr_scan", "android": "https://dc.lft.to/lastmile_qr_scan"}}, {"name": "d4b41a6eee59f8a480bd01a9a77bf433", "lon": -77.02195433333333, "lat": 38.9129905, "type": "electric_scooter", "fusion_lon": 0.0, "is_reserved": 0, "bike_id": "d4b41a6eee59f8a480bd01a9a77bf433", "fusion_lat": 0.0, "is_disabled": 0, "rental_uris": {"ios": "https://dc.lft.to/lastmile_qr_scan", "android": "https://dc.lft.to/lastmile_qr_scan"}}, {"name": "aa1c423b32b639dee88aee2755b54248", "lon": -77.06111066666666, "lat": 38.93992033333333, "type": "electric_scooter", "fusion_lon": 0.0, "is_reserved": 0, "bike_id": "aa1c423b32b639dee88aee2755b54248", "fusion_lat": 0.0, "is_disabled": 0, "rental_uris": {"ios": "https://dc.lft.to/lastmile_qr_scan", "android": "https://dc.lft.to/lastmile_qr_scan"}}, {"name": "77a56da3703b3505562ea6c00224c4c7", "lon": -77.0297665, "lat": 38.916809666666666, "type": "electric_scooter", "fusion_lon": 0.0, "is_reserved": 0, "bike_id": "77a56da3703b3505562ea6c00224c4c7", "fusion_lat": 0.0, "is_disabled": 0, "rental_uris": {"ios": "https://dc.lft.to/lastmile_qr_scan", "android": "https://dc.lft.to/lastmile_qr_scan"}}, {"name": "619edd57586a90293dd0990b9ff8af19", "lon": -77.0253235, "lat": 38.94256933333333, "type": "electric_scooter", "fusion_lon": 0.0, "is_reserved": 0, "bike_id": "619edd57586a90293dd0990b9ff8af19", "fusion_lat": 0.0, "is_disabled": 0, "rental_uris": {"ios": "https://dc.lft.to/lastmile_qr_scan", "android": "https://dc.lft.to/lastmile_qr_scan"}}, {"name": "4bf64c05d993ec105117f09de5ca9ae7", "lon": -77.02588533333333, "lat": 38.920933833333336, "type": "electric_scooter", "fusion_lon": 0.0, "is_reserved": 0, "bike_id": "4bf64c05d993ec105117f09de5ca9ae7", "fusion_lat": 0.0, "is_disabled": 0, "rental_uris": {"ios": "https://dc.lft.to/lastmile_qr_scan", "android": "https://dc.lft.to/lastmile_qr_scan"}}, {"name": "c11c3759503a3a904d652b980bacd38b", "lon": -77.03269183333333, "lat": 38.92745883333333, "type": "electric_scooter", "fusion_lon": 0.0, "is_reserved": 0, "bike_id": "c11c3759503a3a904d652b980bacd38b", "fusion_lat": 0.0, "is_disabled": 0, "rental_uris": {"ios": "https://dc.lft.to/lastmile_qr_scan", "android": "https://dc.lft.to/lastmile_qr_scan"}}, {"name": "ec1dbe8f4d68ce3942bbc235f809d6be", "lon": -77.0317945, "lat": 38.915755, "type": "electric_scooter", "fusion_lon": 0.0, "is_reserved": 0, "bike_id": "ec1dbe8f4d68ce3942bbc235f809d6be", "fusion_lat": 0.0, "is_disabled": 0, "rental_uris": {"ios": "https://dc.lft.to/lastmile_qr_scan", "android": "https://dc.lft.to/lastmile_qr_scan"}}, {"name": "461c348a3dc4d045ed93a09a61a6764a", "lon": -77.01512666666666, "lat": 38.88658916666667, "type": "electric_scooter", "fusion_lon": 0.0, "is_reserved": 0, "bike_id": "461c348a3dc4d045ed93a09a61a6764a", "fusion_lat": 0.0, "is_disabled": 0, "rental_uris": {"ios": "https://dc.lft.to/lastmile_qr_scan", "android": "https://dc.lft.to/lastmile_qr_scan"}}, {"name": "32bda9c75d18bb053942681de1f7baaa", "lon": -76.986566, "lat": 38.9002245, "type": "electric_scooter", "fusion_lon": 0.0, "is_reserved": 0, "bike_id": "32bda9c75d18bb053942681de1f7baaa", "fusion_lat": 0.0, "is_disabled": 0, "rental_uris": {"ios": "https://dc.lft.to/lastmile_qr_scan", "android": "https://dc.lft.to/lastmile_qr_scan"}}, {"name": "c28fd0531746c45f67bc8239a0ed5be4", "lon": -77.0344115, "lat": 38.908081333333335, "type": "electric_scooter", "fusion_lon": 0.0, "is_reserved": 0, "bike_id": "c28fd0531746c45f67bc8239a0ed5be4", "fusion_lat": 0.0, "is_disabled": 0, "rental_uris": {"ios": "https://dc.lft.to/lastmile_qr_scan", "android": "https://dc.lft.to/lastmile_qr_scan"}}, {"name": "0907a40c25e61b7e57c562d80d268385", "lon": -77.034193, "lat": 38.91926333333333, "type": "electric_scooter", "fusion_lon": 0.0, "is_reserved": 0, "bike_id": "0907a40c25e61b7e57c562d80d268385", "fusion_lat": 0.0, "is_disabled": 0, "rental_uris": {"ios": "https://dc.lft.to/lastmile_qr_scan", "android": "https://dc.lft.to/lastmile_qr_scan"}}, {"name": "efa842665041bdc592ac3c30c01467ac", "lon": -76.9917815, "lat": 38.9097705, "type": "electric_scooter", "fusion_lon": 0.0, "is_reserved": 0, "bike_id": "efa842665041bdc592ac3c30c01467ac", "fusion_lat": 0.0, "is_disabled": 0, "rental_uris": {"ios": "https://dc.lft.to/lastmile_qr_scan", "android": "https://dc.lft.to/lastmile_qr_scan"}}, {"name": "34caf19287ded06408aee97079c0fc53", "lon": -77.04389333333333, "lat": 38.914109833333335, "type": "electric_scooter", "fusion_lon": 0.0, "is_reserved": 0, "bike_id": "34caf19287ded06408aee97079c0fc53", "fusion_lat": 0.0, "is_disabled": 0, "rental_uris": {"ios": "https://dc.lft.to/lastmile_qr_scan", "android": "https://dc.lft.to/lastmile_qr_scan"}}, {"name": "42aff71d5faabf8d2a109ff5e05c834d", "lon": -77.02205283333333, "lat": 38.905821333333336, "type": "electric_scooter", "fusion_lon": 0.0, "is_reserved": 0, "bike_id": "42aff71d5faabf8d2a109ff5e05c834d", "fusion_lat": 0.0, "is_disabled": 0, "rental_uris": {"ios": "https://dc.lft.to/lastmile_qr_scan", "android": "https://dc.lft.to/lastmile_qr_scan"}}, {"name": "1c489d6090542a680be8fa0dc1ef892a", "lon": -77.023067, "lat": 38.92081783333333, "type": "electric_scooter", "fusion_lon": 0.0, "is_reserved": 0, "bike_id": "1c489d6090542a680be8fa0dc1ef892a", "fusion_lat": 0.0, "is_disabled": 0, "rental_uris": {"ios": "https://dc.lft.to/lastmile_qr_scan", "android": "https://dc.lft.to/lastmile_qr_scan"}}, {"name": "bd7b27089b6543fdc40cf11c4f5c2c71", "lon": -77.04332733333334, "lat": 38.90551633333333, "type": "electric_scooter", "fusion_lon": 0.0, "is_reserved": 0, "bike_id": "bd7b27089b6543fdc40cf11c4f5c2c71", "fusion_lat": 0.0, "is_disabled": 0, "rental_uris": {"ios": "https://dc.lft.to/lastmile_qr_scan", "android": "https://dc.lft.to/lastmile_qr_scan"}}, {"name": "b514bf44c19a69ea5d6103407dbf2d77", "lon": -77.04490383333334, "lat": 38.9131945, "type": "electric_scooter", "fusion_lon": 0.0, "is_reserved": 0, "bike_id": "b514bf44c19a69ea5d6103407dbf2d77", "fusion_lat": 0.0, "is_disabled": 0, "rental_uris": {"ios": "https://dc.lft.to/lastmile_qr_scan", "android": "https://dc.lft.to/lastmile_qr_scan"}}, {"name": "ec92c8e7d6330459b2d3b5830ce9c8e0", "lon": -77.04923616666666, "lat": 38.81343, "type": "electric_bike", "fusion_lon": 0.0, "is_reserved": 0, "bike_id": "ec92c8e7d6330459b2d3b5830ce9c8e0", "fusion_lat": 0.0, "is_disabled": 0, "rental_uris": {"ios": "https://dc.lft.to/lastmile_qr_scan", "android": "https://dc.lft.to/lastmile_qr_scan"}}, {"name": "50208213a524425ff5a4364c219a78b5", "lon": -77.017436, "lat": 38.87265466666667, "type": "electric_scooter", "fusion_lon": 0.0, "is_reserved": 0, "bike_id": "50208213a524425ff5a4364c219a78b5", "fusion_lat": 0.0, "is_disabled": 0, "rental_uris": {"ios": "https://dc.lft.to/lastmile_qr_scan", "android": "https://dc.lft.to/lastmile_qr_scan"}}, {"name": "59c95a221cf9cbbecab1a3496e205bf6", "lon": -77.05121233333334, "lat": 38.923609666666664, "type": "electric_scooter", "fusion_lon": 0.0, "is_reserved": 0, "bike_id": "59c95a221cf9cbbecab1a3496e205bf6", "fusion_lat": 0.0, "is_disabled": 0, "rental_uris": {"ios": "https://dc.lft.to/lastmile_qr_scan", "android": "https://dc.lft.to/lastmile_qr_scan"}}, {"name": "9f2a6b752124c450ece36c9ec2a7b935", "lon": -77.01758383333333, "lat": 38.87718616666667, "type": "electric_scooter", "fusion_lon": 0.0, "is_reserved": 0, "bike_id": "9f2a6b752124c450ece36c9ec2a7b935", "fusion_lat": 0.0, "is_disabled": 0, "rental_uris": {"ios": "https://dc.lft.to/lastmile_qr_scan", "android": "https://dc.lft.to/lastmile_qr_scan"}}, {"name": "17d858343401d72ed8be92ef9e15b22e", "lon": -77.02452016666666, "lat": 38.9180705, "type": "electric_scooter", "fusion_lon": 0.0, "is_reserved": 0, "bike_id": "17d858343401d72ed8be92ef9e15b22e", "fusion_lat": 0.0, "is_disabled": 0, "rental_uris": {"ios": "https://dc.lft.to/lastmile_qr_scan", "android": "https://dc.lft.to/lastmile_qr_scan"}}, {"name": "543077d4ec860e9a010a76108813210f", "lon": -77.08817716666667, "lat": 38.909704833333336, "type": "electric_bike", "fusion_lon": 0.0, "is_reserved": 0, "bike_id": "543077d4ec860e9a010a76108813210f", "fusion_lat": 0.0, "is_disabled": 0, "rental_uris": {"ios": "https://dc.lft.to/lastmile_qr_scan", "android": "https://dc.lft.to/lastmile_qr_scan"}}, {"name": "2aa698c6e07d2260ecdb8fb9926cd062", "lon": -77.00195916666667, "lat": 38.902426, "type": "electric_scooter", "fusion_lon": 0.0, "is_reserved": 0, "bike_id": "2aa698c6e07d2260ecdb8fb9926cd062", "fusion_lat": 0.0, "is_disabled": 0, "rental_uris": {"ios": "https://dc.lft.to/lastmile_qr_scan", "android": "https://dc.lft.to/lastmile_qr_scan"}}, {"name": "8f6d7764e46fe944a638297ff1f43ce2", "lon": -77.06415083333333, "lat": 38.94558966666666, "type": "electric_scooter", "fusion_lon": 0.0, "is_reserved": 0, "bike_id": "8f6d7764e46fe944a638297ff1f43ce2", "fusion_lat": 0.0, "is_disabled": 0, "rental_uris": {"ios": "https://dc.lft.to/lastmile_qr_scan", "android": "https://dc.lft.to/lastmile_qr_scan"}}, {"name": "38f86f9f5bc72c4ecdcd87ad4d16c162", "lon": -77.01748766666667, "lat": 38.87495116666667, "type": "electric_scooter", "fusion_lon": 0.0, "is_reserved": 0, "bike_id": "38f86f9f5bc72c4ecdcd87ad4d16c162", "fusion_lat": 0.0, "is_disabled": 0, "rental_uris": {"ios": "https://dc.lft.to/lastmile_qr_scan", "android": "https://dc.lft.to/lastmile_qr_scan"}}, {"name": "d60217e4150a54cf64b75f95eea6cd16", "lon": -77.018561, "lat": 38.90384183333333, "type": "electric_scooter", "fusion_lon": 0.0, "is_reserved": 0, "bike_id": "d60217e4150a54cf64b75f95eea6cd16", "fusion_lat": 0.0, "is_disabled": 0, "rental_uris": {"ios": "https://dc.lft.to/lastmile_qr_scan", "android": "https://dc.lft.to/lastmile_qr_scan"}}, {"name": "0fd219aa317ec8e15ec98e9fc2c121b9", "lon": -77.036395, "lat": 38.9234235, "type": "electric_scooter", "fusion_lon": 0.0, "is_reserved": 0, "bike_id": "0fd219aa317ec8e15ec98e9fc2c121b9", "fusion_lat": 0.0, "is_disabled": 0, "rental_uris": {"ios": "https://dc.lft.to/lastmile_qr_scan", "android": "https://dc.lft.to/lastmile_qr_scan"}}, {"name": "d76249aba3a24a31ae33ee4a049fdf34", "lon": -77.02401566666667, "lat": 38.896100833333335, "type": "electric_scooter", "fusion_lon": 0.0, "is_reserved": 0, "bike_id": "d76249aba3a24a31ae33ee4a049fdf34", "fusion_lat": 0.0, "is_disabled": 0, "rental_uris": {"ios": "https://dc.lft.to/lastmile_qr_scan", "android": "https://dc.lft.to/lastmile_qr_scan"}}, {"name": "c7f2b0d7cecf4af7859f985c2ae5e17a", "lon": -77.02986216666666, "lat": 38.93448266666667, "type": "electric_scooter", "fusion_lon": 0.0, "is_reserved": 0, "bike_id": "c7f2b0d7cecf4af7859f985c2ae5e17a", "fusion_lat": 0.0, "is_disabled": 0, "rental_uris": {"ios": "https://dc.lft.to/lastmile_qr_scan", "android": "https://dc.lft.to/lastmile_qr_scan"}}, {"name": "332f8aa1168b132c99d26bd39292977a", "lon": -77.03448083333333, "lat": 38.930855333333334, "type": "electric_scooter", "fusion_lon": 0.0, "is_reserved": 0, "bike_id": "332f8aa1168b132c99d26bd39292977a", "fusion_lat": 0.0, "is_disabled": 0, "rental_uris": {"ios": "https://dc.lft.to/lastmile_qr_scan", "android": "https://dc.lft.to/lastmile_qr_scan"}}, {"name": "141ed05cf9ee1515e2f3f22af7b2ae6a", "lon": -77.04787116666667, "lat": 38.893682166666665, "type": "electric_scooter", "fusion_lon": 0.0, "is_reserved": 0, "bike_id": "141ed05cf9ee1515e2f3f22af7b2ae6a", "fusion_lat": 0.0, "is_disabled": 0, "rental_uris": {"ios": "https://dc.lft.to/lastmile_qr_scan", "android": "https://dc.lft.to/lastmile_qr_scan"}}, {"name": "98d957c75a7a73546d44d7b5184c0154", "lon": -77.07139566666666, "lat": 38.9455555, "type": "electric_scooter", "fusion_lon": 0.0, "is_reserved": 0, "bike_id": "98d957c75a7a73546d44d7b5184c0154", "fusion_lat": 0.0, "is_disabled": 0, "rental_uris": {"ios": "https://dc.lft.to/lastmile_qr_scan", "android": "https://dc.lft.to/lastmile_qr_scan"}}, {"name": "880545ccc31a671013fd6e0f1452e410", "lon": -76.979671, "lat": 38.95370966666667, "type": "electric_bike", "fusion_lon": 0.0, "is_reserved": 0, "bike_id": "880545ccc31a671013fd6e0f1452e410", "fusion_lat": 0.0, "is_disabled": 0, "rental_uris": {"ios": "https://dc.lft.to/lastmile_qr_scan", "android": "https://dc.lft.to/lastmile_qr_scan"}}, {"name": "ad813de312c403ce57bc90dee6815248", "lon": -77.0262395, "lat": 38.96229783333333, "type": "electric_bike", "fusion_lon": 0.0, "is_reserved": 0, "bike_id": "ad813de312c403ce57bc90dee6815248", "fusion_lat": 0.0, "is_disabled": 0, "rental_uris": {"ios": "https://dc.lft.to/lastmile_qr_scan", "android": "https://dc.lft.to/lastmile_qr_scan"}}, {"name": "2ec904de9039b140c99c4891b019a6be", "lon": -77.02170266666667, "lat": 38.942890166666665, "type": "electric_scooter", "fusion_lon": 0.0, "is_reserved": 0, "bike_id": "2ec904de9039b140c99c4891b019a6be", "fusion_lat": 0.0, "is_disabled": 0, "rental_uris": {"ios": "https://dc.lft.to/lastmile_qr_scan", "android": "https://dc.lft.to/lastmile_qr_scan"}}, {"name": "1fd4d50ff9ab4f583b71670c967a28be", "lon": -77.034391, "lat": 38.91806533333333, "type": "electric_scooter", "fusion_lon": 0.0, "is_reserved": 0, "bike_id": "1fd4d50ff9ab4f583b71670c967a28be", "fusion_lat": 0.0, "is_disabled": 0, "rental_uris": {"ios": "https://dc.lft.to/lastmile_qr_scan", "android": "https://dc.lft.to/lastmile_qr_scan"}}, {"name": "5ddd4bcbe6a1ed9b47b3eef8aafd6a75", "lon": -77.016104, "lat": 38.8996395, "type": "electric_scooter", "fusion_lon": 0.0, "is_reserved": 0, "bike_id": "5ddd4bcbe6a1ed9b47b3eef8aafd6a75", "fusion_lat": 0.0, "is_disabled": 0, "rental_uris": {"ios": "https://dc.lft.to/lastmile_qr_scan", "android": "https://dc.lft.to/lastmile_qr_scan"}}, {"name": "3bc44826e61b84432e62e69d8e18f7b3", "lon": -77.07730916666667, "lat": 38.92260566666667, "type": "electric_bike", "fusion_lon": 0.0, "is_reserved": 0, "bike_id": "3bc44826e61b84432e62e69d8e18f7b3", "fusion_lat": 0.0, "is_disabled": 0, "rental_uris": {"ios": "https://dc.lft.to/lastmile_qr_scan", "android": "https://dc.lft.to/lastmile_qr_scan"}}, {"name": "9ff23e00d7a4b34ef344021b02818f59", "lon": -77.04389666666667, "lat": 38.91416733333333, "type": "electric_scooter", "fusion_lon": 0.0, "is_reserved": 0, "bike_id": "9ff23e00d7a4b34ef344021b02818f59", "fusion_lat": 0.0, "is_disabled": 0, "rental_uris": {"ios": "https://dc.lft.to/lastmile_qr_scan", "android": "https://dc.lft.to/lastmile_qr_scan"}}, {"name": "849929abd6af184c38d59c63ce5fd326", "lon": -77.01746383333334, "lat": 38.90270016666667, "type": "electric_scooter", "fusion_lon": 0.0, "is_reserved": 0, "bike_id": "849929abd6af184c38d59c63ce5fd326", "fusion_lat": 0.0, "is_disabled": 0, "rental_uris": {"ios": "https://dc.lft.to/lastmile_qr_scan", "android": "https://dc.lft.to/lastmile_qr_scan"}}, {"name": "853da4bfdc1ddfc9122b83944b9bd602", "lon": -77.02760583333334, "lat": 38.9542635, "type": "electric_scooter", "fusion_lon": 0.0, "is_reserved": 0, "bike_id": "853da4bfdc1ddfc9122b83944b9bd602", "fusion_lat": 0.0, "is_disabled": 0, "rental_uris": {"ios": "https://dc.lft.to/lastmile_qr_scan", "android": "https://dc.lft.to/lastmile_qr_scan"}}, {"name": "b29c43aae2fd80e76a1612f2f41948b1", "lon": -76.9653225, "lat": 38.876285, "type": "electric_scooter", "fusion_lon": 0.0, "is_reserved": 0, "bike_id": "b29c43aae2fd80e76a1612f2f41948b1", "fusion_lat": 0.0, "is_disabled": 0, "rental_uris": {"ios": "https://dc.lft.to/lastmile_qr_scan", "android": "https://dc.lft.to/lastmile_qr_scan"}}, {"name": "22d05bb66187e37484f7cef8b98642a7", "lon": -77.02691066666667, "lat": 38.9041095, "type": "electric_scooter", "fusion_lon": 0.0, "is_reserved": 0, "bike_id": "22d05bb66187e37484f7cef8b98642a7", "fusion_lat": 0.0, "is_disabled": 0, "rental_uris": {"ios": "https://dc.lft.to/lastmile_qr_scan", "android": "https://dc.lft.to/lastmile_qr_scan"}}, {"name": "6341129c355c778a724af5da415ec702", "lon": -77.03272166666666, "lat": 38.9274745, "type": "electric_scooter", "fusion_lon": 0.0, "is_reserved": 0, "bike_id": "6341129c355c778a724af5da415ec702", "fusion_lat": 0.0, "is_disabled": 0, "rental_uris": {"ios": "https://dc.lft.to/lastmile_qr_scan", "android": "https://dc.lft.to/lastmile_qr_scan"}}, {"name": "922ded89066aa7a4a743a9da00df759c", "lon": -76.93143283333333, "lat": 38.893352166666666, "type": "electric_scooter", "fusion_lon": 0.0, "is_reserved": 0, "bike_id": "922ded89066aa7a4a743a9da00df759c", "fusion_lat": 0.0, "is_disabled": 0, "rental_uris": {"ios": "https://dc.lft.to/lastmile_qr_scan", "android": "https://dc.lft.to/lastmile_qr_scan"}}, {"name": "57fdf8cc51cf980a0e6d94fa58662a61", "lon": -77.028182, "lat": 38.89934266666667, "type": "electric_scooter", "fusion_lon": 0.0, "is_reserved": 0, "bike_id": "57fdf8cc51cf980a0e6d94fa58662a61", "fusion_lat": 0.0, "is_disabled": 0, "rental_uris": {"ios": "https://dc.lft.to/lastmile_qr_scan", "android": "https://dc.lft.to/lastmile_qr_scan"}}, {"name": "1f14e084f5ce37316f11196bcf9e272d", "lon": -77.06329983333333, "lat": 38.94422683333333, "type": "electric_scooter", "fusion_lon": 0.0, "is_reserved": 0, "bike_id": "1f14e084f5ce37316f11196bcf9e272d", "fusion_lat": 0.0, "is_disabled": 0, "rental_uris": {"ios": "https://dc.lft.to/lastmile_qr_scan", "android": "https://dc.lft.to/lastmile_qr_scan"}}, {"name": "41f7b6112150bc75052c9cc65982365a", "lon": -77.02173066666667, "lat": 38.9056235, "type": "electric_scooter", "fusion_lon": 0.0, "is_reserved": 0, "bike_id": "41f7b6112150bc75052c9cc65982365a", "fusion_lat": 0.0, "is_disabled": 0, "rental_uris": {"ios": "https://dc.lft.to/lastmile_qr_scan", "android": "https://dc.lft.to/lastmile_qr_scan"}}, {"name": "2f90ed4c1e247c11d88c74bff3a19b12", "lon": -77.02729433333333, "lat": 38.940879833333334, "type": "electric_scooter", "fusion_lon": 0.0, "is_reserved": 0, "bike_id": "2f90ed4c1e247c11d88c74bff3a19b12", "fusion_lat": 0.0, "is_disabled": 0, "rental_uris": {"ios": "https://dc.lft.to/lastmile_qr_scan", "android": "https://dc.lft.to/lastmile_qr_scan"}}, {"name": "bc8b55172d737cd14d16b2573820ba5f", "lon": -77.04145, "lat": 38.893472, "type": "electric_scooter", "fusion_lon": 0.0, "is_reserved": 0, "bike_id": "bc8b55172d737cd14d16b2573820ba5f", "fusion_lat": 0.0, "is_disabled": 0, "rental_uris": {"ios": "https://dc.lft.to/lastmile_qr_scan", "android": "https://dc.lft.to/lastmile_qr_scan"}}, {"name": "6924c77b0ce4a349ea225d4202bf509a", "lon": -77.0635145, "lat": 38.94447483333333, "type": "electric_scooter", "fusion_lon": 0.0, "is_reserved": 0, "bike_id": "6924c77b0ce4a349ea225d4202bf509a", "fusion_lat": 0.0, "is_disabled": 0, "rental_uris": {"ios": "https://dc.lft.to/lastmile_qr_scan", "android": "https://dc.lft.to/lastmile_qr_scan"}}, {"name": "95515403b9e209e54ddf233be10e7692", "lon": -76.98249966666667, "lat": 38.864555333333335, "type": "electric_scooter", "fusion_lon": 0.0, "is_reserved": 0, "bike_id": "95515403b9e209e54ddf233be10e7692", "fusion_lat": 0.0, "is_disabled": 0, "rental_uris": {"ios": "https://dc.lft.to/lastmile_qr_scan", "android": "https://dc.lft.to/lastmile_qr_scan"}}, {"name": "08b2c6b31427a3178d71faf920cc4029", "lon": -77.0166305, "lat": 38.881044333333335, "type": "electric_scooter", "fusion_lon": 0.0, "is_reserved": 0, "bike_id": "08b2c6b31427a3178d71faf920cc4029", "fusion_lat": 0.0, "is_disabled": 0, "rental_uris": {"ios": "https://dc.lft.to/lastmile_qr_scan", "android": "https://dc.lft.to/lastmile_qr_scan"}}, {"name": "01dfe000a2f775978f906a544fc3e849", "lon": -77.03173916666667, "lat": 38.91420683333333, "type": "electric_scooter", "fusion_lon": 0.0, "is_reserved": 0, "bike_id": "01dfe000a2f775978f906a544fc3e849", "fusion_lat": 0.0, "is_disabled": 0, "rental_uris": {"ios": "https://dc.lft.to/lastmile_qr_scan", "android": "https://dc.lft.to/lastmile_qr_scan"}}, {"name": "28b84808c8c7a1d6751f7fe5abbe1d64", "lon": -76.99542183333334, "lat": 38.8793315, "type": "electric_scooter", "fusion_lon": 0.0, "is_reserved": 0, "bike_id": "28b84808c8c7a1d6751f7fe5abbe1d64", "fusion_lat": 0.0, "is_disabled": 0, "rental_uris": {"ios": "https://dc.lft.to/lastmile_qr_scan", "android": "https://dc.lft.to/lastmile_qr_scan"}}, {"name": "2e4b17d72d6575cccb38d1ee81dcb2d2", "lon": -77.03260516666667, "lat": 38.939647, "type": "electric_scooter", "fusion_lon": 0.0, "is_reserved": 0, "bike_id": "2e4b17d72d6575cccb38d1ee81dcb2d2", "fusion_lat": 0.0, "is_disabled": 0, "rental_uris": {"ios": "https://dc.lft.to/lastmile_qr_scan", "android": "https://dc.lft.to/lastmile_qr_scan"}}, {"name": "00efc5c5cf4092c398e4c79523302135", "lon": -77.0281615, "lat": 38.923585, "type": "electric_scooter", "fusion_lon": 0.0, "is_reserved": 0, "bike_id": "00efc5c5cf4092c398e4c79523302135", "fusion_lat": 0.0, "is_disabled": 0, "rental_uris": {"ios": "https://dc.lft.to/lastmile_qr_scan", "android": "https://dc.lft.to/lastmile_qr_scan"}}, {"name": "8b87487bd6816a58f20c1e5f1247c736", "lon": -77.033362, "lat": 38.8982585, "type": "electric_scooter", "fusion_lon": 0.0, "is_reserved": 0, "bike_id": "8b87487bd6816a58f20c1e5f1247c736", "fusion_lat": 0.0, "is_disabled": 0, "rental_uris": {"ios": "https://dc.lft.to/lastmile_qr_scan", "android": "https://dc.lft.to/lastmile_qr_scan"}}, {"name": "82a9b55f467493132a5d47459eb2cacb", "lon": -77.02397783333333, "lat": 38.91622316666667, "type": "electric_scooter", "fusion_lon": 0.0, "is_reserved": 0, "bike_id": "82a9b55f467493132a5d47459eb2cacb", "fusion_lat": 0.0, "is_disabled": 0, "rental_uris": {"ios": "https://dc.lft.to/lastmile_qr_scan", "android": "https://dc.lft.to/lastmile_qr_scan"}}, {"name": "5bf1aedde98586960845aaa660cb9ab8", "lon": -77.01755416666667, "lat": 38.87715716666666, "type": "electric_scooter", "fusion_lon": 0.0, "is_reserved": 0, "bike_id": "5bf1aedde98586960845aaa660cb9ab8", "fusion_lat": 0.0, "is_disabled": 0, "rental_uris": {"ios": "https://dc.lft.to/lastmile_qr_scan", "android": "https://dc.lft.to/lastmile_qr_scan"}}, {"name": "ee9a95dd16f156dd3cad09d45c5295c2", "lon": -76.99264366666667, "lat": 38.86256566666667, "type": "electric_scooter", "fusion_lon": 0.0, "is_reserved": 0, "bike_id": "ee9a95dd16f156dd3cad09d45c5295c2", "fusion_lat": 0.0, "is_disabled": 0, "rental_uris": {"ios": "https://dc.lft.to/lastmile_qr_scan", "android": "https://dc.lft.to/lastmile_qr_scan"}}, {"name": "03ac3d3e584fbca12207ae1ccf8cbcaf", "lon": -77.094555, "lat": 38.80753633333333, "type": "electric_bike", "fusion_lon": 0.0, "is_reserved": 0, "bike_id": "03ac3d3e584fbca12207ae1ccf8cbcaf", "fusion_lat": 0.0, "is_disabled": 0, "rental_uris": {"ios": "https://dc.lft.to/lastmile_qr_scan", "android": "https://dc.lft.to/lastmile_qr_scan"}}, {"name": "4dc13bc0ee429438f1454f63a7aeebd3", "lon": -77.0335785, "lat": 38.8990625, "type": "electric_scooter", "fusion_lon": 0.0, "is_reserved": 0, "bike_id": "4dc13bc0ee429438f1454f63a7aeebd3", "fusion_lat": 0.0, "is_disabled": 0, "rental_uris": {"ios": "https://dc.lft.to/lastmile_qr_scan", "android": "https://dc.lft.to/lastmile_qr_scan"}}, {"name": "621e3da971d34a4977697e4ef2778b32", "lon": -77.0462965, "lat": 38.919379666666664, "type": "electric_scooter", "fusion_lon": 0.0, "is_reserved": 0, "bike_id": "621e3da971d34a4977697e4ef2778b32", "fusion_lat": 0.0, "is_disabled": 0, "rental_uris": {"ios": "https://dc.lft.to/lastmile_qr_scan", "android": "https://dc.lft.to/lastmile_qr_scan"}}, {"name": "aa7a5dd45c8d9b81cf747734a95b27be", "lon": -77.0448, "lat": 38.92422116666667, "type": "electric_scooter", "fusion_lon": 0.0, "is_reserved": 0, "bike_id": "aa7a5dd45c8d9b81cf747734a95b27be", "fusion_lat": 0.0, "is_disabled": 0, "rental_uris": {"ios": "https://dc.lft.to/lastmile_qr_scan", "android": "https://dc.lft.to/lastmile_qr_scan"}}, {"name": "0adb2b4ef6e3ad0c2e4db0341b44522a", "lon": -77.04528633333334, "lat": 38.902781166666664, "type": "electric_scooter", "fusion_lon": 0.0, "is_reserved": 0, "bike_id": "0adb2b4ef6e3ad0c2e4db0341b44522a", "fusion_lat": 0.0, "is_disabled": 0, "rental_uris": {"ios": "https://dc.lft.to/lastmile_qr_scan", "android": "https://dc.lft.to/lastmile_qr_scan"}}, {"name": "b3c4c537614c1c927b98844638a861c2", "lon": -77.04314633333334, "lat": 38.928888, "type": "electric_bike", "fusion_lon": 0.0, "is_reserved": 0, "bike_id": "b3c4c537614c1c927b98844638a861c2", "fusion_lat": 0.0, "is_disabled": 0, "rental_uris": {"ios": "https://dc.lft.to/lastmile_qr_scan", "android": "https://dc.lft.to/lastmile_qr_scan"}}, {"name": "b5adcd6c65acad44e07333e9d05c0174", "lon": -76.89538233333333, "lat": 38.94552183333333, "type": "electric_bike", "fusion_lon": 0.0, "is_reserved": 0, "bike_id": "b5adcd6c65acad44e07333e9d05c0174", "fusion_lat": 0.0, "is_disabled": 0, "rental_uris": {"ios": "https://dc.lft.to/lastmile_qr_scan", "android": "https://dc.lft.to/lastmile_qr_scan"}}, {"name": "8ee9c6e62b628d1441b080d4b5b0d9a6", "lon": -77.01608916666666, "lat": 38.899586166666666, "type": "electric_scooter", "fusion_lon": 0.0, "is_reserved": 0, "bike_id": "8ee9c6e62b628d1441b080d4b5b0d9a6", "fusion_lat": 0.0, "is_disabled": 0, "rental_uris": {"ios": "https://dc.lft.to/lastmile_qr_scan", "android": "https://dc.lft.to/lastmile_qr_scan"}}, {"name": "f05cada57e512c33b5a962c3404ee605", "lon": -77.13110566666667, "lat": 39.02428733333333, "type": "electric_bike", "fusion_lon": 0.0, "is_reserved": 0, "bike_id": "f05cada57e512c33b5a962c3404ee605", "fusion_lat": 0.0, "is_disabled": 0, "rental_uris": {"ios": "https://dc.lft.to/lastmile_qr_scan", "android": "https://dc.lft.to/lastmile_qr_scan"}}, {"name": "283efaddc9a3d3b017c053a6772d5160", "lon": -77.0947725, "lat": 39.03042333333333, "type": "electric_bike", "fusion_lon": 0.0, "is_reserved": 0, "bike_id": "283efaddc9a3d3b017c053a6772d5160", "fusion_lat": 0.0, "is_disabled": 0, "rental_uris": {"ios": "https://dc.lft.to/lastmile_qr_scan", "android": "https://dc.lft.to/lastmile_qr_scan"}}, {"name": "2eb6f456bc31041bb335ae9d77f24bbe", "lon": -77.01178633333333, "lat": 38.90025933333333, "type": "electric_scooter", "fusion_lon": 0.0, "is_reserved": 0, "bike_id": "2eb6f456bc31041bb335ae9d77f24bbe", "fusion_lat": 0.0, "is_disabled": 0, "rental_uris": {"ios": "https://dc.lft.to/lastmile_qr_scan", "android": "https://dc.lft.to/lastmile_qr_scan"}}, {"name": "d2312f90e1c17bbc87490167e2835db6", "lon": -77.02752983333333, "lat": 38.95164616666667, "type": "electric_scooter", "fusion_lon": 0.0, "is_reserved": 0, "bike_id": "d2312f90e1c17bbc87490167e2835db6", "fusion_lat": 0.0, "is_disabled": 0, "rental_uris": {"ios": "https://dc.lft.to/lastmile_qr_scan", "android": "https://dc.lft.to/lastmile_qr_scan"}}, {"name": "7fdac17b26cce6d3df9155c6752fb462", "lon": -77.03709966666666, "lat": 38.920295833333334, "type": "electric_bike", "fusion_lon": 0.0, "is_reserved": 0, "bike_id": "7fdac17b26cce6d3df9155c6752fb462", "fusion_lat": 0.0, "is_disabled": 0, "rental_uris": {"ios": "https://dc.lft.to/lastmile_qr_scan", "android": "https://dc.lft.to/lastmile_qr_scan"}}, {"name": "150ad8da9b82c18e2d65e157eb6ed99f", "lon": -77.0344775, "lat": 38.91011366666667, "type": "electric_scooter", "fusion_lon": 0.0, "is_reserved": 0, "bike_id": "150ad8da9b82c18e2d65e157eb6ed99f", "fusion_lat": 0.0, "is_disabled": 0, "rental_uris": {"ios": "https://dc.lft.to/lastmile_qr_scan", "android": "https://dc.lft.to/lastmile_qr_scan"}}, {"name": "20f67135c1dc618cf30ad4079136dff5", "lon": -77.02393916666666, "lat": 38.916498, "type": "electric_scooter", "fusion_lon": 0.0, "is_reserved": 0, "bike_id": "20f67135c1dc618cf30ad4079136dff5", "fusion_lat": 0.0, "is_disabled": 0, "rental_uris": {"ios": "https://dc.lft.to/lastmile_qr_scan", "android": "https://dc.lft.to/lastmile_qr_scan"}}, {"name": "955c5bbb6281b98f57c2bb2655f10b92", "lon": -77.06073216666667, "lat": 38.885811833333335, "type": "electric_bike", "fusion_lon": 0.0, "is_reserved": 0, "bike_id": "955c5bbb6281b98f57c2bb2655f10b92", "fusion_lat": 0.0, "is_disabled": 0, "rental_uris": {"ios": "https://dc.lft.to/lastmile_qr_scan", "android": "https://dc.lft.to/lastmile_qr_scan"}}, {"name": "f9117f31f4f963aac6f8839bf51d9647", "lon": -77.02957383333333, "lat": 38.939854, "type": "electric_scooter", "fusion_lon": 0.0, "is_reserved": 0, "bike_id": "f9117f31f4f963aac6f8839bf51d9647", "fusion_lat": 0.0, "is_disabled": 0, "rental_uris": {"ios": "https://dc.lft.to/lastmile_qr_scan", "android": "https://dc.lft.to/lastmile_qr_scan"}}, {"name": "f2c48c71a6dd7b4ef213ae707322b3c8", "lon": -77.0007115, "lat": 38.9013965, "type": "electric_scooter", "fusion_lon": 0.0, "is_reserved": 0, "bike_id": "f2c48c71a6dd7b4ef213ae707322b3c8", "fusion_lat": 0.0, "is_disabled": 0, "rental_uris": {"ios": "https://dc.lft.to/lastmile_qr_scan", "android": "https://dc.lft.to/lastmile_qr_scan"}}, {"name": "ce242ca6237153ecd3bea8732e15a0cc", "lon": -77.02597, "lat": 38.96391033333333, "type": "electric_scooter", "fusion_lon": 0.0, "is_reserved": 0, "bike_id": "ce242ca6237153ecd3bea8732e15a0cc", "fusion_lat": 0.0, "is_disabled": 0, "rental_uris": {"ios": "https://dc.lft.to/lastmile_qr_scan", "android": "https://dc.lft.to/lastmile_qr_scan"}}, {"name": "b14936d1d787a390a4c9f9a23a6669f4", "lon": -77.03394233333333, "lat": 38.91919016666667, "type": "electric_scooter", "fusion_lon": 0.0, "is_reserved": 0, "bike_id": "b14936d1d787a390a4c9f9a23a6669f4", "fusion_lat": 0.0, "is_disabled": 0, "rental_uris": {"ios": "https://dc.lft.to/lastmile_qr_scan", "android": "https://dc.lft.to/lastmile_qr_scan"}}, {"name": "2faaf7cb53241846563cacb74fe3d6b3", "lon": -77.0384185, "lat": 38.9121275, "type": "electric_scooter", "fusion_lon": 0.0, "is_reserved": 0, "bike_id": "2faaf7cb53241846563cacb74fe3d6b3", "fusion_lat": 0.0, "is_disabled": 0, "rental_uris": {"ios": "https://dc.lft.to/lastmile_qr_scan", "android": "https://dc.lft.to/lastmile_qr_scan"}}, {"name": "fa4322db89d63112d1ef2feae9ced721", "lon": -77.038641, "lat": 38.910448, "type": "electric_scooter", "fusion_lon": 0.0, "is_reserved": 0, "bike_id": "fa4322db89d63112d1ef2feae9ced721", "fusion_lat": 0.0, "is_disabled": 0, "rental_uris": {"ios": "https://dc.lft.to/lastmile_qr_scan", "android": "https://dc.lft.to/lastmile_qr_scan"}}, {"name": "49e3e8e0f5c52bb51a093180fd8063ef", "lon": -77.06928766666667, "lat": 38.907811833333334, "type": "electric_scooter", "fusion_lon": 0.0, "is_reserved": 0, "bike_id": "49e3e8e0f5c52bb51a093180fd8063ef", "fusion_lat": 0.0, "is_disabled": 0, "rental_uris": {"ios": "https://dc.lft.to/lastmile_qr_scan", "android": "https://dc.lft.to/lastmile_qr_scan"}}, {"name": "3734132fb1bd2fe1b3668d29fd8ad69a", "lon": -77.0503735, "lat": 38.923597666666666, "type": "electric_scooter", "fusion_lon": 0.0, "is_reserved": 0, "bike_id": "3734132fb1bd2fe1b3668d29fd8ad69a", "fusion_lat": 0.0, "is_disabled": 0, "rental_uris": {"ios": "https://dc.lft.to/lastmile_qr_scan", "android": "https://dc.lft.to/lastmile_qr_scan"}}, {"name": "bd9c384dfee2be0bae1e97f41c3c17c6", "lon": -77.01758066666666, "lat": 38.91715266666667, "type": "electric_scooter", "fusion_lon": 0.0, "is_reserved": 0, "bike_id": "bd9c384dfee2be0bae1e97f41c3c17c6", "fusion_lat": 0.0, "is_disabled": 0, "rental_uris": {"ios": "https://dc.lft.to/lastmile_qr_scan", "android": "https://dc.lft.to/lastmile_qr_scan"}}, {"name": "31cc766252f0267d9d34253b94980dcd", "lon": -76.9827955, "lat": 38.899753, "type": "electric_scooter", "fusion_lon": 0.0, "is_reserved": 0, "bike_id": "31cc766252f0267d9d34253b94980dcd", "fusion_lat": 0.0, "is_disabled": 0, "rental_uris": {"ios": "https://dc.lft.to/lastmile_qr_scan", "android": "https://dc.lft.to/lastmile_qr_scan"}}, {"name": "66a18708f560910659512e895a7c8c42", "lon": -77.02486533333334, "lat": 38.903921833333335, "type": "electric_scooter", "fusion_lon": 0.0, "is_reserved": 0, "bike_id": "66a18708f560910659512e895a7c8c42", "fusion_lat": 0.0, "is_disabled": 0, "rental_uris": {"ios": "https://dc.lft.to/lastmile_qr_scan", "android": "https://dc.lft.to/lastmile_qr_scan"}}, {"name": "dc9672d262947dd1c034db0407a922f8", "lon": -77.02500866666666, "lat": 38.920636, "type": "electric_scooter", "fusion_lon": 0.0, "is_reserved": 0, "bike_id": "dc9672d262947dd1c034db0407a922f8", "fusion_lat": 0.0, "is_disabled": 0, "rental_uris": {"ios": "https://dc.lft.to/lastmile_qr_scan", "android": "https://dc.lft.to/lastmile_qr_scan"}}, {"name": "1ef73de698ebd7880bdbd921a5e73678", "lon": -76.99880733333333, "lat": 38.90131566666667, "type": "electric_scooter", "fusion_lon": 0.0, "is_reserved": 0, "bike_id": "1ef73de698ebd7880bdbd921a5e73678", "fusion_lat": 0.0, "is_disabled": 0, "rental_uris": {"ios": "https://dc.lft.to/lastmile_qr_scan", "android": "https://dc.lft.to/lastmile_qr_scan"}}, {"name": "0d27afca2654990f9747cad37f997d71", "lon": -77.05234816666666, "lat": 38.9246365, "type": "electric_scooter", "fusion_lon": 0.0, "is_reserved": 0, "bike_id": "0d27afca2654990f9747cad37f997d71", "fusion_lat": 0.0, "is_disabled": 0, "rental_uris": {"ios": "https://dc.lft.to/lastmile_qr_scan", "android": "https://dc.lft.to/lastmile_qr_scan"}}, {"name": "637f8032779070c0445bd0f78889ac8e", "lon": -76.92998116666666, "lat": 38.90188533333333, "type": "electric_scooter", "fusion_lon": 0.0, "is_reserved": 0, "bike_id": "637f8032779070c0445bd0f78889ac8e", "fusion_lat": 0.0, "is_disabled": 0, "rental_uris": {"ios": "https://dc.lft.to/lastmile_qr_scan", "android": "https://dc.lft.to/lastmile_qr_scan"}}, {"name": "e3764c546b465ab1d1f80caef2836e44", "lon": -77.10920516666667, "lat": 39.051966666666665, "type": "electric_bike", "fusion_lon": 0.0, "is_reserved": 0, "bike_id": "e3764c546b465ab1d1f80caef2836e44", "fusion_lat": 0.0, "is_disabled": 0, "rental_uris": {"ios": "https://dc.lft.to/lastmile_qr_scan", "android": "https://dc.lft.to/lastmile_qr_scan"}}, {"name": "81d42caf54f07fa1daaf2f90684f5321", "lon": -77.03536466666667, "lat": 38.92322583333333, "type": "electric_scooter", "fusion_lon": 0.0, "is_reserved": 0, "bike_id": "81d42caf54f07fa1daaf2f90684f5321", "fusion_lat": 0.0, "is_disabled": 0, "rental_uris": {"ios": "https://dc.lft.to/lastmile_qr_scan", "android": "https://dc.lft.to/lastmile_qr_scan"}}, {"name": "5dbd95f7208c13094c28578c12c42585", "lon": -77.046245, "lat": 38.90668816666667, "type": "electric_scooter", "fusion_lon": 0.0, "is_reserved": 0, "bike_id": "5dbd95f7208c13094c28578c12c42585", "fusion_lat": 0.0, "is_disabled": 0, "rental_uris": {"ios": "https://dc.lft.to/lastmile_qr_scan", "android": "https://dc.lft.to/lastmile_qr_scan"}}, {"name": "f02d14c21027661a0312ddb9fdd374e8", "lon": -77.032054, "lat": 38.914283, "type": "electric_scooter", "fusion_lon": 0.0, "is_reserved": 0, "bike_id": "f02d14c21027661a0312ddb9fdd374e8", "fusion_lat": 0.0, "is_disabled": 0, "rental_uris": {"ios": "https://dc.lft.to/lastmile_qr_scan", "android": "https://dc.lft.to/lastmile_qr_scan"}}, {"name": "4e34db31154cb5d90885e60d931a73c1", "lon": -76.97297383333333, "lat": 38.9032065, "type": "electric_scooter", "fusion_lon": 0.0, "is_reserved": 0, "bike_id": "4e34db31154cb5d90885e60d931a73c1", "fusion_lat": 0.0, "is_disabled": 0, "rental_uris": {"ios": "https://dc.lft.to/lastmile_qr_scan", "android": "https://dc.lft.to/lastmile_qr_scan"}}, {"name": "1b40bf8f2dd8266b9388236742d71800", "lon": -77.025005, "lat": 38.919086, "type": "electric_bike", "fusion_lon": 0.0, "is_reserved": 0, "bike_id": "1b40bf8f2dd8266b9388236742d71800", "fusion_lat": 0.0, "is_disabled": 0, "rental_uris": {"ios": "https://dc.lft.to/lastmile_qr_scan", "android": "https://dc.lft.to/lastmile_qr_scan"}}, {"name": "befd3a1f31b1adb0bfcbf1b3acb2b465", "lon": -77.04282433333333, "lat": 38.91418216666667, "type": "electric_scooter", "fusion_lon": 0.0, "is_reserved": 0, "bike_id": "befd3a1f31b1adb0bfcbf1b3acb2b465", "fusion_lat": 0.0, "is_disabled": 0, "rental_uris": {"ios": "https://dc.lft.to/lastmile_qr_scan", "android": "https://dc.lft.to/lastmile_qr_scan"}}, {"name": "be7d5a37d4a73dd274b493c75946e7da", "lon": -77.024778, "lat": 38.91867416666667, "type": "electric_bike", "fusion_lon": 0.0, "is_reserved": 0, "bike_id": "be7d5a37d4a73dd274b493c75946e7da", "fusion_lat": 0.0, "is_disabled": 0, "rental_uris": {"ios": "https://dc.lft.to/lastmile_qr_scan", "android": "https://dc.lft.to/lastmile_qr_scan"}}, {"name": "8b6d8579b3334e37ff5b5afa3739dc3e", "lon": -77.04862116666666, "lat": 38.90953366666667, "type": "electric_scooter", "fusion_lon": 0.0, "is_reserved": 0, "bike_id": "8b6d8579b3334e37ff5b5afa3739dc3e", "fusion_lat": 0.0, "is_disabled": 0, "rental_uris": {"ios": "https://dc.lft.to/lastmile_qr_scan", "android": "https://dc.lft.to/lastmile_qr_scan"}}, {"name": "64329989f49e893fa9425c58a93dd6b6", "lon": -77.0238515, "lat": 38.9094915, "type": "electric_scooter", "fusion_lon": 0.0, "is_reserved": 0, "bike_id": "64329989f49e893fa9425c58a93dd6b6", "fusion_lat": 0.0, "is_disabled": 0, "rental_uris": {"ios": "https://dc.lft.to/lastmile_qr_scan", "android": "https://dc.lft.to/lastmile_qr_scan"}}, {"name": "569cd26371dde6bf445a8641aed972b7", "lon": -77.01781333333334, "lat": 38.919911666666664, "type": "electric_scooter", "fusion_lon": 0.0, "is_reserved": 0, "bike_id": "569cd26371dde6bf445a8641aed972b7", "fusion_lat": 0.0, "is_disabled": 0, "rental_uris": {"ios": "https://dc.lft.to/lastmile_qr_scan", "android": "https://dc.lft.to/lastmile_qr_scan"}}, {"name": "2e0e2ad910a75139b342a3eeb6a3d2c4", "lon": -77.034798, "lat": 38.90592266666667, "type": "electric_scooter", "fusion_lon": 0.0, "is_reserved": 0, "bike_id": "2e0e2ad910a75139b342a3eeb6a3d2c4", "fusion_lat": 0.0, "is_disabled": 0, "rental_uris": {"ios": "https://dc.lft.to/lastmile_qr_scan", "android": "https://dc.lft.to/lastmile_qr_scan"}}, {"name": "5620511bcfad59c823659c265e1eb1d8", "lon": -77.03288733333333, "lat": 38.956348166666665, "type": "electric_scooter", "fusion_lon": 0.0, "is_reserved": 0, "bike_id": "5620511bcfad59c823659c265e1eb1d8", "fusion_lat": 0.0, "is_disabled": 0, "rental_uris": {"ios": "https://dc.lft.to/lastmile_qr_scan", "android": "https://dc.lft.to/lastmile_qr_scan"}}, {"name": "43ab2a97c2fdc55eeb18f545bcc3b9c2", "lon": -77.0383295, "lat": 38.93128133333333, "type": "electric_scooter", "fusion_lon": 0.0, "is_reserved": 0, "bike_id": "43ab2a97c2fdc55eeb18f545bcc3b9c2", "fusion_lat": 0.0, "is_disabled": 0, "rental_uris": {"ios": "https://dc.lft.to/lastmile_qr_scan", "android": "https://dc.lft.to/lastmile_qr_scan"}}, {"name": "896f771566fde5cae9367c225d9f9ea6", "lon": -76.965293, "lat": 38.87629183333333, "type": "electric_scooter", "fusion_lon": 0.0, "is_reserved": 0, "bike_id": "896f771566fde5cae9367c225d9f9ea6", "fusion_lat": 0.0, "is_disabled": 0, "rental_uris": {"ios": "https://dc.lft.to/lastmile_qr_scan", "android": "https://dc.lft.to/lastmile_qr_scan"}}, {"name": "b19577c73338c8ffc4ffc9044ba5e84d", "lon": -77.03214333333334, "lat": 38.917767166666664, "type": "electric_scooter", "fusion_lon": 0.0, "is_reserved": 0, "bike_id": "b19577c73338c8ffc4ffc9044ba5e84d", "fusion_lat": 0.0, "is_disabled": 0, "rental_uris": {"ios": "https://dc.lft.to/lastmile_qr_scan", "android": "https://dc.lft.to/lastmile_qr_scan"}}, {"name": "81a8f5f2f963a2263b7004e048c1d80c", "lon": -77.00603116666667, "lat": 38.905551833333334, "type": "electric_scooter", "fusion_lon": 0.0, "is_reserved": 0, "bike_id": "81a8f5f2f963a2263b7004e048c1d80c", "fusion_lat": 0.0, "is_disabled": 0, "rental_uris": {"ios": "https://dc.lft.to/lastmile_qr_scan", "android": "https://dc.lft.to/lastmile_qr_scan"}}, {"name": "80ad1eb11e2f82a542277a4ff31f616d", "lon": -77.00210666666666, "lat": 38.900695, "type": "electric_scooter", "fusion_lon": 0.0, "is_reserved": 0, "bike_id": "80ad1eb11e2f82a542277a4ff31f616d", "fusion_lat": 0.0, "is_disabled": 0, "rental_uris": {"ios": "https://dc.lft.to/lastmile_qr_scan", "android": "https://dc.lft.to/lastmile_qr_scan"}}, {"name": "02566748b9285344c76eff79b87e516c", "lon": -77.00442, "lat": 38.912389833333336, "type": "electric_scooter", "fusion_lon": 0.0, "is_reserved": 0, "bike_id": "02566748b9285344c76eff79b87e516c", "fusion_lat": 0.0, "is_disabled": 0, "rental_uris": {"ios": "https://dc.lft.to/lastmile_qr_scan", "android": "https://dc.lft.to/lastmile_qr_scan"}}, {"name": "1a8dd979eb653af198f33619a2ed33e5", "lon": -77.03870516666667, "lat": 38.934183166666664, "type": "electric_scooter", "fusion_lon": 0.0, "is_reserved": 0, "bike_id": "1a8dd979eb653af198f33619a2ed33e5", "fusion_lat": 0.0, "is_disabled": 0, "rental_uris": {"ios": "https://dc.lft.to/lastmile_qr_scan", "android": "https://dc.lft.to/lastmile_qr_scan"}}, {"name": "19ff8b2f9618a4a2ff2489de69c04506", "lon": -77.01072916666666, "lat": 38.90723783333333, "type": "electric_scooter", "fusion_lon": 0.0, "is_reserved": 0, "bike_id": "19ff8b2f9618a4a2ff2489de69c04506", "fusion_lat": 0.0, "is_disabled": 0, "rental_uris": {"ios": "https://dc.lft.to/lastmile_qr_scan", "android": "https://dc.lft.to/lastmile_qr_scan"}}, {"name": "b60fcb20359024e79f09f0e24f45caf3", "lon": -77.03940533333333, "lat": 38.91753933333333, "type": "electric_scooter", "fusion_lon": 0.0, "is_reserved": 0, "bike_id": "b60fcb20359024e79f09f0e24f45caf3", "fusion_lat": 0.0, "is_disabled": 0, "rental_uris": {"ios": "https://dc.lft.to/lastmile_qr_scan", "android": "https://dc.lft.to/lastmile_qr_scan"}}, {"name": "73f1083532e9824b86716c3dbf50f43a", "lon": -77.024627, "lat": 38.938856333333334, "type": "electric_bike", "fusion_lon": 0.0, "is_reserved": 0, "bike_id": "73f1083532e9824b86716c3dbf50f43a", "fusion_lat": 0.0, "is_disabled": 0, "rental_uris": {"ios": "https://dc.lft.to/lastmile_qr_scan", "android": "https://dc.lft.to/lastmile_qr_scan"}}, {"name": "11da094daea1d5ba612f7407401fef68", "lon": -77.04343883333334, "lat": 38.910357833333336, "type": "electric_scooter", "fusion_lon": 0.0, "is_reserved": 0, "bike_id": "11da094daea1d5ba612f7407401fef68", "fusion_lat": 0.0, "is_disabled": 0, "rental_uris": {"ios": "https://dc.lft.to/lastmile_qr_scan", "android": "https://dc.lft.to/lastmile_qr_scan"}}, {"name": "ec9026a8c73e39c19e482de5cf7cd8c5", "lon": -77.029527, "lat": 38.9285415, "type": "electric_scooter", "fusion_lon": 0.0, "is_reserved": 0, "bike_id": "ec9026a8c73e39c19e482de5cf7cd8c5", "fusion_lat": 0.0, "is_disabled": 0, "rental_uris": {"ios": "https://dc.lft.to/lastmile_qr_scan", "android": "https://dc.lft.to/lastmile_qr_scan"}}, {"name": "1d79593a1d693aaf43eca603c88314bb", "lon": -77.0390195, "lat": 38.91825766666667, "type": "electric_scooter", "fusion_lon": 0.0, "is_reserved": 0, "bike_id": "1d79593a1d693aaf43eca603c88314bb", "fusion_lat": 0.0, "is_disabled": 0, "rental_uris": {"ios": "https://dc.lft.to/lastmile_qr_scan", "android": "https://dc.lft.to/lastmile_qr_scan"}}, {"name": "f6ab76cae07ebde33bae95e4ace1ee70", "lon": -77.06162366666666, "lat": 38.9129995, "type": "electric_scooter", "fusion_lon": 0.0, "is_reserved": 0, "bike_id": "f6ab76cae07ebde33bae95e4ace1ee70", "fusion_lat": 0.0, "is_disabled": 0, "rental_uris": {"ios": "https://dc.lft.to/lastmile_qr_scan", "android": "https://dc.lft.to/lastmile_qr_scan"}}, {"name": "b17bbe26c73e1aef9eae35dbf207e955", "lon": -77.03550433333334, "lat": 38.916992666666665, "type": "electric_scooter", "fusion_lon": 0.0, "is_reserved": 0, "bike_id": "b17bbe26c73e1aef9eae35dbf207e955", "fusion_lat": 0.0, "is_disabled": 0, "rental_uris": {"ios": "https://dc.lft.to/lastmile_qr_scan", "android": "https://dc.lft.to/lastmile_qr_scan"}}, {"name": "70d40edb827c1939dff595c07ecd60c6", "lon": -76.9273745, "lat": 38.889629666666664, "type": "electric_scooter", "fusion_lon": 0.0, "is_reserved": 0, "bike_id": "70d40edb827c1939dff595c07ecd60c6", "fusion_lat": 0.0, "is_disabled": 0, "rental_uris": {"ios": "https://dc.lft.to/lastmile_qr_scan", "android": "https://dc.lft.to/lastmile_qr_scan"}}, {"name": "9529c6c2c27ceaaa83e2ec61f1d54d1c", "lon": -76.98799116666666, "lat": 38.92212083333333, "type": "electric_bike", "fusion_lon": 0.0, "is_reserved": 0, "bike_id": "9529c6c2c27ceaaa83e2ec61f1d54d1c", "fusion_lat": 0.0, "is_disabled": 0, "rental_uris": {"ios": "https://dc.lft.to/lastmile_qr_scan", "android": "https://dc.lft.to/lastmile_qr_scan"}}, {"name": "412185d0b93fe023689541dfcc7090c0", "lon": -77.00246783333333, "lat": 38.90259733333333, "type": "electric_scooter", "fusion_lon": 0.0, "is_reserved": 0, "bike_id": "412185d0b93fe023689541dfcc7090c0", "fusion_lat": 0.0, "is_disabled": 0, "rental_uris": {"ios": "https://dc.lft.to/lastmile_qr_scan", "android": "https://dc.lft.to/lastmile_qr_scan"}}, {"name": "053e2dac9f6bfbb9033d3ae83f574b78", "lon": -77.0372565, "lat": 38.91062483333333, "type": "electric_scooter", "fusion_lon": 0.0, "is_reserved": 0, "bike_id": "053e2dac9f6bfbb9033d3ae83f574b78", "fusion_lat": 0.0, "is_disabled": 0, "rental_uris": {"ios": "https://dc.lft.to/lastmile_qr_scan", "android": "https://dc.lft.to/lastmile_qr_scan"}}, {"name": "e8df01e228e3ff86942eb4519edff97f", "lon": -76.93158916666667, "lat": 38.898729333333335, "type": "electric_scooter", "fusion_lon": 0.0, "is_reserved": 0, "bike_id": "e8df01e228e3ff86942eb4519edff97f", "fusion_lat": 0.0, "is_disabled": 0, "rental_uris": {"ios": "https://dc.lft.to/lastmile_qr_scan", "android": "https://dc.lft.to/lastmile_qr_scan"}}, {"name": "3abbbf7f446d99a74226b2893ddc6005", "lon": -77.008913, "lat": 38.9066565, "type": "electric_scooter", "fusion_lon": 0.0, "is_reserved": 0, "bike_id": "3abbbf7f446d99a74226b2893ddc6005", "fusion_lat": 0.0, "is_disabled": 0, "rental_uris": {"ios": "https://dc.lft.to/lastmile_qr_scan", "android": "https://dc.lft.to/lastmile_qr_scan"}}, {"name": "9ab8f40698144c3d545224a614c5690e", "lon": -77.0382805, "lat": 38.925299333333335, "type": "electric_scooter", "fusion_lon": 0.0, "is_reserved": 0, "bike_id": "9ab8f40698144c3d545224a614c5690e", "fusion_lat": 0.0, "is_disabled": 0, "rental_uris": {"ios": "https://dc.lft.to/lastmile_qr_scan", "android": "https://dc.lft.to/lastmile_qr_scan"}}, {"name": "464e704033520aecbe8cca80924bc47e", "lon": -77.039304, "lat": 38.90250916666667, "type": "electric_scooter", "fusion_lon": 0.0, "is_reserved": 0, "bike_id": "464e704033520aecbe8cca80924bc47e", "fusion_lat": 0.0, "is_disabled": 0, "rental_uris": {"ios": "https://dc.lft.to/lastmile_qr_scan", "android": "https://dc.lft.to/lastmile_qr_scan"}}, {"name": "cde8b1b2deaa82decb6713155b224374", "lon": -77.02925633333334, "lat": 38.9048075, "type": "electric_scooter", "fusion_lon": 0.0, "is_reserved": 0, "bike_id": "cde8b1b2deaa82decb6713155b224374", "fusion_lat": 0.0, "is_disabled": 0, "rental_uris": {"ios": "https://dc.lft.to/lastmile_qr_scan", "android": "https://dc.lft.to/lastmile_qr_scan"}}, {"name": "2c8bea3910bd68e3032d78d9d1353c45", "lon": -77.02333566666667, "lat": 38.9288795, "type": "electric_scooter", "fusion_lon": 0.0, "is_reserved": 0, "bike_id": "2c8bea3910bd68e3032d78d9d1353c45", "fusion_lat": 0.0, "is_disabled": 0, "rental_uris": {"ios": "https://dc.lft.to/lastmile_qr_scan", "android": "https://dc.lft.to/lastmile_qr_scan"}}, {"name": "99c723bd9c8b82b68887069f2aadc474", "lon": -77.0566535, "lat": 38.9053215, "type": "electric_scooter", "fusion_lon": 0.0, "is_reserved": 0, "bike_id": "99c723bd9c8b82b68887069f2aadc474", "fusion_lat": 0.0, "is_disabled": 0, "rental_uris": {"ios": "https://dc.lft.to/lastmile_qr_scan", "android": "https://dc.lft.to/lastmile_qr_scan"}}, {"name": "4121d3acb48186edbc7ee297e723edea", "lon": -76.98522433333333, "lat": 38.86661266666667, "type": "electric_scooter", "fusion_lon": 0.0, "is_reserved": 0, "bike_id": "4121d3acb48186edbc7ee297e723edea", "fusion_lat": 0.0, "is_disabled": 0, "rental_uris": {"ios": "https://dc.lft.to/lastmile_qr_scan", "android": "https://dc.lft.to/lastmile_qr_scan"}}, {"name": "62bf917bff484581bf282a13171d6ba9", "lon": -77.01766983333333, "lat": 38.89079533333334, "type": "electric_scooter", "fusion_lon": 0.0, "is_reserved": 0, "bike_id": "62bf917bff484581bf282a13171d6ba9", "fusion_lat": 0.0, "is_disabled": 0, "rental_uris": {"ios": "https://dc.lft.to/lastmile_qr_scan", "android": "https://dc.lft.to/lastmile_qr_scan"}}, {"name": "71da6d8e185403546f4cf9e383919e16", "lon": -77.06865283333333, "lat": 38.805745333333334, "type": "electric_bike", "fusion_lon": 0.0, "is_reserved": 0, "bike_id": "71da6d8e185403546f4cf9e383919e16", "fusion_lat": 0.0, "is_disabled": 0, "rental_uris": {"ios": "https://dc.lft.to/lastmile_qr_scan", "android": "https://dc.lft.to/lastmile_qr_scan"}}, {"name": "ae09c28f5df4fe7c07b94717653d4d1d", "lon": -77.07367366666666, "lat": 38.933521999999996, "type": "electric_scooter", "fusion_lon": 0.0, "is_reserved": 0, "bike_id": "ae09c28f5df4fe7c07b94717653d4d1d", "fusion_lat": 0.0, "is_disabled": 0, "rental_uris": {"ios": "https://dc.lft.to/lastmile_qr_scan", "android": "https://dc.lft.to/lastmile_qr_scan"}}, {"name": "61767f6d18364776c83241db5fb97347", "lon": -77.0194175, "lat": 38.94700316666667, "type": "electric_scooter", "fusion_lon": 0.0, "is_reserved": 0, "bike_id": "61767f6d18364776c83241db5fb97347", "fusion_lat": 0.0, "is_disabled": 0, "rental_uris": {"ios": "https://dc.lft.to/lastmile_qr_scan", "android": "https://dc.lft.to/lastmile_qr_scan"}}, {"name": "a9d3026459a2f84ee7282be3368284f0", "lon": -77.04268716666667, "lat": 38.908661, "type": "electric_scooter", "fusion_lon": 0.0, "is_reserved": 0, "bike_id": "a9d3026459a2f84ee7282be3368284f0", "fusion_lat": 0.0, "is_disabled": 0, "rental_uris": {"ios": "https://dc.lft.to/lastmile_qr_scan", "android": "https://dc.lft.to/lastmile_qr_scan"}}, {"name": "9203f504ffde953ed15b4ad2aa2ed5e3", "lon": -76.99123666666667, "lat": 38.8620555, "type": "electric_scooter", "fusion_lon": 0.0, "is_reserved": 0, "bike_id": "9203f504ffde953ed15b4ad2aa2ed5e3", "fusion_lat": 0.0, "is_disabled": 0, "rental_uris": {"ios": "https://dc.lft.to/lastmile_qr_scan", "android": "https://dc.lft.to/lastmile_qr_scan"}}, {"name": "89278b1abde98567d29035098023a8d8", "lon": -77.04186233333333, "lat": 38.8928745, "type": "electric_scooter", "fusion_lon": 0.0, "is_reserved": 0, "bike_id": "89278b1abde98567d29035098023a8d8", "fusion_lat": 0.0, "is_disabled": 0, "rental_uris": {"ios": "https://dc.lft.to/lastmile_qr_scan", "android": "https://dc.lft.to/lastmile_qr_scan"}}, {"name": "331b889cce3979a39849db2483d567e7", "lon": -77.02296333333334, "lat": 38.928087833333336, "type": "electric_scooter", "fusion_lon": 0.0, "is_reserved": 0, "bike_id": "331b889cce3979a39849db2483d567e7", "fusion_lat": 0.0, "is_disabled": 0, "rental_uris": {"ios": "https://dc.lft.to/lastmile_qr_scan", "android": "https://dc.lft.to/lastmile_qr_scan"}}, {"name": "ac9fe382d5dd0defd3085fcda036f555", "lon": -77.05667783333334, "lat": 38.92862433333333, "type": "electric_bike", "fusion_lon": 0.0, "is_reserved": 0, "bike_id": "ac9fe382d5dd0defd3085fcda036f555", "fusion_lat": 0.0, "is_disabled": 0, "rental_uris": {"ios": "https://dc.lft.to/lastmile_qr_scan", "android": "https://dc.lft.to/lastmile_qr_scan"}}, {"name": "4cb1ce03eaced69c857732f62f3d9f86", "lon": -77.02722933333334, "lat": 38.894985166666665, "type": "electric_scooter", "fusion_lon": 0.0, "is_reserved": 0, "bike_id": "4cb1ce03eaced69c857732f62f3d9f86", "fusion_lat": 0.0, "is_disabled": 0, "rental_uris": {"ios": "https://dc.lft.to/lastmile_qr_scan", "android": "https://dc.lft.to/lastmile_qr_scan"}}, {"name": "42a25813afb13daecd17aa184dc30631", "lon": -77.04717083333334, "lat": 38.90945833333333, "type": "electric_scooter", "fusion_lon": 0.0, "is_reserved": 0, "bike_id": "42a25813afb13daecd17aa184dc30631", "fusion_lat": 0.0, "is_disabled": 0, "rental_uris": {"ios": "https://dc.lft.to/lastmile_qr_scan", "android": "https://dc.lft.to/lastmile_qr_scan"}}, {"name": "bef10d57c2fbaacf98a2d5be3c46710c", "lon": -77.03439616666667, "lat": 38.909731666666666, "type": "electric_scooter", "fusion_lon": 0.0, "is_reserved": 0, "bike_id": "bef10d57c2fbaacf98a2d5be3c46710c", "fusion_lat": 0.0, "is_disabled": 0, "rental_uris": {"ios": "https://dc.lft.to/lastmile_qr_scan", "android": "https://dc.lft.to/lastmile_qr_scan"}}, {"name": "2435876756f2b9f360d1ad0b2ca6a96f", "lon": -77.0464375, "lat": 38.905551333333335, "type": "electric_scooter", "fusion_lon": 0.0, "is_reserved": 0, "bike_id": "2435876756f2b9f360d1ad0b2ca6a96f", "fusion_lat": 0.0, "is_disabled": 0, "rental_uris": {"ios": "https://dc.lft.to/lastmile_qr_scan", "android": "https://dc.lft.to/lastmile_qr_scan"}}, {"name": "1a83cff098e592f747c8c848bc12a3b1", "lon": -77.010281, "lat": 38.917015, "type": "electric_scooter", "fusion_lon": 0.0, "is_reserved": 0, "bike_id": "1a83cff098e592f747c8c848bc12a3b1", "fusion_lat": 0.0, "is_disabled": 0, "rental_uris": {"ios": "https://dc.lft.to/lastmile_qr_scan", "android": "https://dc.lft.to/lastmile_qr_scan"}}, {"name": "e47081453310a62637ba5f7e5e37b6da", "lon": -77.03997833333334, "lat": 38.917618166666664, "type": "electric_scooter", "fusion_lon": 0.0, "is_reserved": 0, "bike_id": "e47081453310a62637ba5f7e5e37b6da", "fusion_lat": 0.0, "is_disabled": 0, "rental_uris": {"ios": "https://dc.lft.to/lastmile_qr_scan", "android": "https://dc.lft.to/lastmile_qr_scan"}}, {"name": "402655e61a6ce3e94307761cfbfabb4e", "lon": -77.03174383333334, "lat": 38.92110783333333, "type": "electric_scooter", "fusion_lon": 0.0, "is_reserved": 0, "bike_id": "402655e61a6ce3e94307761cfbfabb4e", "fusion_lat": 0.0, "is_disabled": 0, "rental_uris": {"ios": "https://dc.lft.to/lastmile_qr_scan", "android": "https://dc.lft.to/lastmile_qr_scan"}}, {"name": "b7f19856e3eefb492814436ce7684946", "lon": -77.02208866666666, "lat": 38.9100135, "type": "electric_scooter", "fusion_lon": 0.0, "is_reserved": 0, "bike_id": "b7f19856e3eefb492814436ce7684946", "fusion_lat": 0.0, "is_disabled": 0, "rental_uris": {"ios": "https://dc.lft.to/lastmile_qr_scan", "android": "https://dc.lft.to/lastmile_qr_scan"}}, {"name": "4c05a056306705588e6f5650ddd10e53", "lon": -77.0234675, "lat": 38.9461255, "type": "electric_scooter", "fusion_lon": 0.0, "is_reserved": 0, "bike_id": "4c05a056306705588e6f5650ddd10e53", "fusion_lat": 0.0, "is_disabled": 0, "rental_uris": {"ios": "https://dc.lft.to/lastmile_qr_scan", "android": "https://dc.lft.to/lastmile_qr_scan"}}, {"name": "d8d83df8d6b8224569146f9347729749", "lon": -76.96711666666667, "lat": 38.84791666666667, "type": "electric_scooter", "fusion_lon": 0.0, "is_reserved": 0, "bike_id": "d8d83df8d6b8224569146f9347729749", "fusion_lat": 0.0, "is_disabled": 0, "rental_uris": {"ios": "https://dc.lft.to/lastmile_qr_scan", "android": "https://dc.lft.to/lastmile_qr_scan"}}, {"name": "e483a6a1be0c60a0fc676bf2b6cbad12", "lon": -77.02805066666667, "lat": 38.932996333333335, "type": "electric_scooter", "fusion_lon": 0.0, "is_reserved": 0, "bike_id": "e483a6a1be0c60a0fc676bf2b6cbad12", "fusion_lat": 0.0, "is_disabled": 0, "rental_uris": {"ios": "https://dc.lft.to/lastmile_qr_scan", "android": "https://dc.lft.to/lastmile_qr_scan"}}, {"name": "f57b0c276130df5c486959762c754db5", "lon": -77.00272066666666, "lat": 38.88711, "type": "electric_scooter", "fusion_lon": 0.0, "is_reserved": 0, "bike_id": "f57b0c276130df5c486959762c754db5", "fusion_lat": 0.0, "is_disabled": 0, "rental_uris": {"ios": "https://dc.lft.to/lastmile_qr_scan", "android": "https://dc.lft.to/lastmile_qr_scan"}}, {"name": "af2f35c50d01f11ef7bd5ce86ff658c6", "lon": -77.04247116666667, "lat": 38.91345183333333, "type": "electric_scooter", "fusion_lon": 0.0, "is_reserved": 0, "bike_id": "af2f35c50d01f11ef7bd5ce86ff658c6", "fusion_lat": 0.0, "is_disabled": 0, "rental_uris": {"ios": "https://dc.lft.to/lastmile_qr_scan", "android": "https://dc.lft.to/lastmile_qr_scan"}}, {"name": "4d74b19367e5db0d6c161812cd5d4f40", "lon": -77.0519265, "lat": 38.903874333333334, "type": "electric_scooter", "fusion_lon": 0.0, "is_reserved": 0, "bike_id": "4d74b19367e5db0d6c161812cd5d4f40", "fusion_lat": 0.0, "is_disabled": 0, "rental_uris": {"ios": "https://dc.lft.to/lastmile_qr_scan", "android": "https://dc.lft.to/lastmile_qr_scan"}}, {"name": "8fb7ea0ae930c0836e44c2cdc1f5f85f", "lon": -76.94420166666667, "lat": 38.9661785, "type": "electric_bike", "fusion_lon": 0.0, "is_reserved": 0, "bike_id": "8fb7ea0ae930c0836e44c2cdc1f5f85f", "fusion_lat": 0.0, "is_disabled": 0, "rental_uris": {"ios": "https://dc.lft.to/lastmile_qr_scan", "android": "https://dc.lft.to/lastmile_qr_scan"}}, {"name": "e8f6a24a1e26dd21a258a84af0baea4f", "lon": -77.02873716666667, "lat": 38.904349, "type": "electric_scooter", "fusion_lon": 0.0, "is_reserved": 0, "bike_id": "e8f6a24a1e26dd21a258a84af0baea4f", "fusion_lat": 0.0, "is_disabled": 0, "rental_uris": {"ios": "https://dc.lft.to/lastmile_qr_scan", "android": "https://dc.lft.to/lastmile_qr_scan"}},