{"data": {"bikes": [{"lon": -77.03584316666667, "bike_id": "19e8f088a35fcd3d1934dc0c089d3556", "lat": 38.99225716666667, "fusion_lon": 0.0, "fusion_lat": 0.0, "type": "electric_scooter", "name": "19e8f088a35fcd3d1934dc0c089d3556", "is_disabled": 0, "rental_uris": {"ios": "https://dc.lft.to/lastmile_qr_scan", "android": "https://dc.lft.to/lastmile_qr_scan"}, "is_reserved": 0}, {"lon": -77.083315, "bike_id": "486a5efe8d5543ed906d49bbb1b29334", "lat": 38.854389, "fusion_lon": 0.0, "fusion_lat": 0.0, "type": "electric_bike", "name": "486a5efe8d5543ed906d49bbb1b29334", "is_disabled": 0, "rental_uris": {"ios": "https://dc.lft.to/lastmile_qr_scan", "android": "https://dc.lft.to/lastmile_qr_scan"}, "is_reserved": 0}, {"lon": -77.02296033333333, "bike_id": "675305fd00730dd948b918fad9ef8139", "lat": 38.9088915, "fusion_lon": 0.0, "fusion_lat": 0.0, "type": "electric_scooter", "name": "675305fd00730dd948b918fad9ef8139", "is_disabled": 0, "rental_uris": {"ios": "https://dc.lft.to/lastmile_qr_scan", "android": "https://dc.lft.to/lastmile_qr_scan"}, "is_reserved": 0}, {"lon": -77.035271, "bike_id": "e37aae55bb2c7a70182476edbf561aa7", "lat": 38.927294333333336, "fusion_lon": 0.0, "fusion_lat": 0.0, "type": "electric_scooter", "name": "e37aae55bb2c7a70182476edbf561aa7", "is_disabled": 0, "rental_uris": {"ios": "https://dc.lft.to/lastmile_qr_scan", "android": "https://dc.lft.to/lastmile_qr_scan"}, "is_reserved": 0}, {"lon": -77.03136333333333, "bike_id": "b77f4988b0df7c083166cb2bdc2e2818", "lat": 38.91760466666667, "fusion_lon": 0.0, "fusion_lat": 0.0, "type": "electric_scooter", "name": "b77f4988b0df7c083166cb2bdc2e2818", "is_disabled": 0, "rental_uris": {"ios": "https://dc.lft.to/lastmile_qr_scan", "android": "https://dc.lft.to/lastmile_qr_scan"}, "is_reserved": 0}, {"lon": -77.02603683333334, "bike_id": "e09fb0f8f8c9863ba9bf1488ddcb0c09", "lat": 38.925860166666666, "fusion_lon": 0.0, "fusion_lat": 0.0, "type": "electric_scooter", "name": "e09fb0f8f8c9863ba9bf1488ddcb0c09", "is_disabled": 0, "rental_uris": {"ios": "https://dc.lft.to/lastmile_qr_scan", "android": "https://dc.lft.to/lastmile_qr_scan"}, "is_reserved": 0}, {"lon": -77.02982366666667, "bike_id": "0c8e2fe0a5b42d3cdd5db41b42e7e2b7", "lat": 38.9290345, "fusion_lon": 0.0, "fusion_lat": 0.0, "type": "electric_scooter", "name": "0c8e2fe0a5b42d3cdd5db41b42e7e2b7", "is_disabled": 0, "rental_uris": {"ios": "https://dc.lft.to/lastmile_qr_scan", "android": "https://dc.lft.to/lastmile_qr_scan"}, "is_reserved": 0}, {"lon": -77.01725, "bike_id": "9afb49bffc68f6882f3f9ada48b3688d", "lat": 38.90564, "fusion_lon": 0.0, "fusion_lat": 0.0, "type": "electric_scooter", "name": "9afb49bffc68f6882f3f9ada48b3688d", "is_disabled": 0, "rental_uris": {"ios": "https://dc.lft.to/lastmile_qr_scan", "android": "https://dc.lft.to/lastmile_qr_scan"}, "is_reserved": 0}, {"lon": -77.03473583333333, "bike_id": "fb4e48977f519dcb2e2d8744fbd6d495", "lat": 38.907464, "fusion_lon": 0.0, "fusion_lat": 0.0, "type": "electric_scooter", "name": "fb4e48977f519dcb2e2d8744fbd6d495", "is_disabled": 0, "rental_uris": {"ios": "https://dc.lft.to/lastmile_qr_scan", "android": "https://dc.lft.to/lastmile_qr_scan"}, "is_reserved": 0}, {"lon": -77.0118415, "bike_id": "11c5eb538bd7ac3aaffc83d725a67487", "lat": 38.900310166666664, "fusion_lon": 0.0, "fusion_lat": 0.0, "type": "electric_scooter", "name": "11c5eb538bd7ac3aaffc83d725a67487", "is_disabled": 0, "rental_uris": {"ios": "https://dc.lft.to/lastmile_qr_scan", "android": "https://dc.lft.to/lastmile_qr_scan"}, "is_reserved": 0}, {"lon": -77.01808883333334, "bike_id": "4545f76d0fad5f10df54b242639c611c", "lat": 38.900952, "fusion_lon": 0.0, "fusion_lat": 0.0, "type": "electric_scooter", "name": "4545f76d0fad5f10df54b242639c611c", "is_disabled": 0, "rental_uris": {"ios": "https://dc.lft.to/lastmile_qr_scan", "android": "https://dc.lft.to/lastmile_qr_scan"}, "is_reserved": 0}, {"lon": -76.978261, "bike_id": "21536f3e69c4d0697c67e5ebf645b110", "lat": 38.843727666666666, "fusion_lon": 0.0, "fusion_lat": 0.0, "type": "electric_bike", "name": "21536f3e69c4d0697c67e5ebf645b110", "is_disabled": 0, "rental_uris": {"ios": "https://dc.lft.to/lastmile_qr_scan", "android": "https://dc.lft.to/lastmile_qr_scan"}, "is_reserved": 0}, {"lon": -77.002715, "bike_id": "e2960ea8ca1c2d08da85fc6e28424f0a", "lat": 38.911081, "fusion_lon": 0.0, "fusion_lat": 0.0, "type": "electric_scooter", "name": "e2960ea8ca1c2d08da85fc6e28424f0a", "is_disabled": 0, "rental_uris": {"ios": "https://dc.lft.to/lastmile_qr_scan", "android": "https://dc.lft.to/lastmile_qr_scan"}, "is_reserved": 0}, {"lon": -77.02102666666667, "bike_id": "17297edc59332f8d62b362cdd0869f76", "lat": 38.899424333333336, "fusion_lon": 0.0, "fusion_lat": 0.0, "type": "electric_scooter", "name": "17297edc59332f8d62b362cdd0869f76", "is_disabled": 0, "rental_uris": {"ios": "https://dc.lft.to/lastmile_qr_scan", "android": "https://dc.lft.to/lastmile_qr_scan"}, "is_reserved": 0}, {"lon": -77.05575766666666, "bike_id": "aa11f063d5e8a2d8607682eed619faab", "lat": 38.916028, "fusion_lon": 0.0, "fusion_lat": 0.0, "type": "electric_scooter", "name": "aa11f063d5e8a2d8607682eed619faab", "is_disabled": 0, "rental_uris": {"ios": "https://dc.lft.to/lastmile_qr_scan", "android": "https://dc.lft.to/lastmile_qr_scan"}, "is_reserved": 0}, {"lon": -77.05133116666667, "bike_id": "88b8b0df36272f5af6d4ede8371fb17d", "lat": 38.9236395, "fusion_lon": 0.0, "fusion_lat": 0.0, "type": "electric_scooter", "name": "88b8b0df36272f5af6d4ede8371fb17d", "is_disabled": 0, "rental_uris": {"ios": "https://dc.lft.to/lastmile_qr_scan", "android": "https://dc.lft.to/lastmile_qr_scan"}, "is_reserved": 0}, {"lon": -77.02663133333333, "bike_id": "f536cef804da48272ca1ee23f51aa941", "lat": 38.90054216666667, "fusion_lon": 0.0, "fusion_lat": 0.0, "type": "electric_scooter", "name": "f536cef804da48272ca1ee23f51aa941", "is_disabled": 0, "rental_uris": {"ios": "https://dc.lft.to/lastmile_qr_scan", "android": "https://dc.lft.to/lastmile_qr_scan"}, "is_reserved": 0}, {"lon": -76.91598016666667, "bike_id": "c92b355f625fd7caadb397fa91f866fe", "lat": 38.87984766666667, "fusion_lon": 0.0, "fusion_lat": 0.0, "type": "electric_bike", "name": "c92b355f625fd7caadb397fa91f866fe", "is_disabled": 0, "rental_uris": {"ios": "https://dc.lft.to/lastmile_qr_scan", "android": "https://dc.lft.to/lastmile_qr_scan"}, "is_reserved": 0}, {"lon": -77.0586435, "bike_id": "891bdb75f99fc92a4818134e7784fa8e", "lat": 38.9361085, "fusion_lon": 0.0, "fusion_lat": 0.0, "type": "electric_scooter", "name": "891bdb75f99fc92a4818134e7784fa8e", "is_disabled": 0, "rental_uris": {"ios": "https://dc.lft.to/lastmile_qr_scan", "android": "https://dc.lft.to/lastmile_qr_scan"}, "is_reserved": 0}, {"lon": -77.02165916666667, "bike_id": "3657a5df8eeec7fcf3f31230ce976824", "lat": 38.8975235, "fusion_lon": 0.0, "fusion_lat": 0.0, "type": "electric_scooter", "name": "3657a5df8eeec7fcf3f31230ce976824", "is_disabled": 0, "rental_uris": {"ios": "https://dc.lft.to/lastmile_qr_scan", "android": "https://dc.lft.to/lastmile_qr_scan"}, "is_reserved": 0}, {"lon": -77.07351016666667, "bike_id": "8969cb39485ca47130a679460b83805d", "lat": 38.911099166666666, "fusion_lon": 0.0, "fusion_lat": 0.0, "type": "electric_scooter", "name": "8969cb39485ca47130a679460b83805d", "is_disabled": 0, "rental_uris": {"ios": "https://dc.lft.to/lastmile_qr_scan", "android": "https://dc.lft.to/lastmile_qr_scan"}, "is_reserved": 0}, {"lon": -76.98214683333333, "bike_id": "bb274af054d9cd3878e7249659e02774", "lat": 38.866142833333335, "fusion_lon": 0.0, "fusion_lat": 0.0, "type": "electric_scooter", "name": "bb274af054d9cd3878e7249659e02774", "is_disabled": 0, "rental_uris": {"ios": "https://dc.lft.to/lastmile_qr_scan", "android": "https://dc.lft.to/lastmile_qr_scan"}, "is_reserved": 0}, {"lon": -76.99045933333333, "bike_id": "a135666c40dd0610a253fd5d97a98d56", "lat": 38.884165833333334, "fusion_lon": 0.0, "fusion_lat": 0.0, "type": "electric_scooter", "name": "a135666c40dd0610a253fd5d97a98d56", "is_disabled": 0, "rental_uris": {"ios": "https://dc.lft.to/lastmile_qr_scan", "android": "https://dc.lft.to/lastmile_qr_scan"}, "is_reserved": 0}, {"lon": -77.041775, "bike_id": "6518cae2317034a4c64107d7b97ca171", "lat": 38.919179, "fusion_lon": 0.0, "fusion_lat": 0.0, "type": "electric_scooter", "name": "6518cae2317034a4c64107d7b97ca171", "is_disabled": 0, "rental_uris": {"ios": "https://dc.lft.to/lastmile_qr_scan", "android": "https://dc.lft.to/lastmile_qr_scan"}, "is_reserved": 0}, {"lon": -76.97327466666667, "bike_id": "b27ab40e0225729b22a2b69aa7cc0d56", "lat": 38.90480083333333, "fusion_lon": 0.0, "fusion_lat": 0.0, "type": "electric_bike", "name": "b27ab40e0225729b22a2b69aa7cc0d56", "is_disabled": 0, "rental_uris": {"ios": "https://dc.lft.to/lastmile_qr_scan", "android": "https://dc.lft.to/lastmile_qr_scan"}, "is_reserved": 0}, {"lon": -77.0332385, "bike_id": "11d3913280e1f11a531a21a2f85679aa", "lat": 38.91561566666667, "fusion_lon": 0.0, "fusion_lat": 0.0, "type": "electric_scooter", "name": "11d3913280e1f11a531a21a2f85679aa", "is_disabled": 0, "rental_uris": {"ios": "https://dc.lft.to/lastmile_qr_scan", "android": "https://dc.lft.to/lastmile_qr_scan"}, "is_reserved": 0}, {"lon": -76.990048, "bike_id": "bf34289335e85276f992b53a38d38bf0", "lat": 38.865075166666664, "fusion_lon": 0.0, "fusion_lat": 0.0, "type": "electric_scooter", "name": "bf34289335e85276f992b53a38d38bf0", "is_disabled": 0, "rental_uris": {"ios": "https://dc.lft.to/lastmile_qr_scan", "android": "https://dc.lft.to/lastmile_qr_scan"}, "is_reserved": 0}, {"lon": -77.00323516666667, "bike_id": "759b907127fb88d1ba01a7adf21896ac", "lat": 38.897341833333336, "fusion_lon": 0.0, "fusion_lat": 0.0, "type": "electric_scooter", "name": "759b907127fb88d1ba01a7adf21896ac", "is_disabled": 0, "rental_uris": {"ios": "https://dc.lft.to/lastmile_qr_scan", "android": "https://dc.lft.to/lastmile_qr_scan"}, "is_reserved": 0}, {"lon": -77.02807316666667, "bike_id": "514de18ec7f8e3fcd775bdb9332efc05", "lat": 38.930827666666666, "fusion_lon": 0.0, "fusion_lat": 0.0, "type": "electric_scooter", "name": "514de18ec7f8e3fcd775bdb9332efc05", "is_disabled": 0, "rental_uris": {"ios": "https://dc.lft.to/lastmile_qr_scan", "android": "https://dc.lft.to/lastmile_qr_scan"}, "is_reserved": 0}, {"lon": -77.00528066666666, "bike_id": "39c53bceac3df43f94ce9c37e1e0d87f", "lat": 38.875489, "fusion_lon": 0.0, "fusion_lat": 0.0, "type": "electric_scooter", "name": "39c53bceac3df43f94ce9c37e1e0d87f", "is_disabled": 0, "rental_uris": {"ios": "https://dc.lft.to/lastmile_qr_scan", "android": "https://dc.lft.to/lastmile_qr_scan"}, "is_reserved": 0}, {"lon": -77.02765016666666, "bike_id": "2c6ec31ea4f047ce5d312e61786f99ac", "lat": 38.954270666666666, "fusion_lon": 0.0, "fusion_lat": 0.0, "type": "electric_scooter", "name": "2c6ec31ea4f047ce5d312e61786f99ac", "is_disabled": 0, "rental_uris": {"ios": "https://dc.lft.to/lastmile_qr_scan", "android": "https://dc.lft.to/lastmile_qr_scan"}, "is_reserved": 0}, {"lon": -77.05236866666667, "bike_id": "49c16ab1655c7185fce190b7e8a25d9b", "lat": 38.9234315, "fusion_lon": 0.0, "fusion_lat": 0.0, "type": "electric_scooter", "name": "49c16ab1655c7185fce190b7e8a25d9b", "is_disabled": 0, "rental_uris": {"ios": "https://dc.lft.to/lastmile_qr_scan", "android": "https://dc.lft.to/lastmile_qr_scan"}, "is_reserved": 0}, {"lon": -76.980814, "bike_id": "5c69f8044419d155255ddbe664ba169b", "lat": 38.907087, "fusion_lon": 0.0, "fusion_lat": 0.0, "type": "electric_scooter", "name": "5c69f8044419d155255ddbe664ba169b", "is_disabled": 0, "rental_uris": {"ios": "https://dc.lft.to/lastmile_qr_scan", "android": "https://dc.lft.to/lastmile_qr_scan"}, "is_reserved": 0}, {"lon": -77.06832766666666, "bike_id": "4641a66922374a8c4c599614f9f6c04b", "lat": 38.80568866666667, "fusion_lon": 0.0, "fusion_lat": 0.0, "type": "electric_bike", "name": "4641a66922374a8c4c599614f9f6c04b", "is_disabled": 0, "rental_uris": {"ios": "https://dc.lft.to/lastmile_qr_scan", "android": "https://dc.lft.to/lastmile_qr_scan"}, "is_reserved": 0}, {"lon": -77.03263716666666, "bike_id": "877aadf95786bba2197cf2c1b843e764", "lat": 38.937216666666664, "fusion_lon": 0.0, "fusion_lat": 0.0, "type": "electric_scooter", "name": "877aadf95786bba2197cf2c1b843e764", "is_disabled": 0, "rental_uris": {"ios": "https://dc.lft.to/lastmile_qr_scan", "android": "https://dc.lft.to/lastmile_qr_scan"}, "is_reserved": 0}, {"lon": -76.99637933333334, "bike_id": "0f8f955c515b69ad831ae8f1d374002e", "lat": 38.9002195, "fusion_lon": 0.0, "fusion_lat": 0.0, "type": "electric_scooter", "name": "0f8f955c515b69ad831ae8f1d374002e", "is_disabled": 0, "rental_uris": {"ios": "https://dc.lft.to/lastmile_qr_scan", "android": "https://dc.lft.to/lastmile_qr_scan"}, "is_reserved": 0}, {"lon": -77.03052716666667, "bike_id": "5c45ce6fbf176e41996965e585a3db2b", "lat": 38.884115666666666, "fusion_lon": 0.0, "fusion_lat": 0.0, "type": "electric_scooter", "name": "5c45ce6fbf176e41996965e585a3db2b", "is_disabled": 0, "rental_uris": {"ios": "https://dc.lft.to/lastmile_qr_scan", "android": "https://dc.lft.to/lastmile_qr_scan"}, "is_reserved": 0}, {"lon": -77.05203416666667, "bike_id": "2498fae3d7554a870208d9b35c333f5d", "lat": 38.899543, "fusion_lon": 0.0, "fusion_lat": 0.0, "type": "electric_scooter", "name": "2498fae3d7554a870208d9b35c333f5d", "is_disabled": 0, "rental_uris": {"ios": "https://dc.lft.to/lastmile_qr_scan", "android": "https://dc.lft.to/lastmile_qr_scan"}, "is_reserved": 0}, {"lon": -77.04481716666666, "bike_id": "1bbf82eb8c95d410ead1e76a1d073450", "lat": 38.92425016666667, "fusion_lon": 0.0, "fusion_lat": 0.0, "type": "electric_scooter", "name": "1bbf82eb8c95d410ead1e76a1d073450", "is_disabled": 0, "rental_uris": {"ios": "https://dc.lft.to/lastmile_qr_scan", "android": "https://dc.lft.to/lastmile_qr_scan"}, "is_reserved": 0}, {"lon": -77.0352355, "bike_id": "7e7ba5fc1a0f779f8fe2d3ba6ea357b6", "lat": 38.921987666666666, "fusion_lon": 0.0, "fusion_lat": 0.0, "type": "electric_scooter", "name": "7e7ba5fc1a0f779f8fe2d3ba6ea357b6", "is_disabled": 0, "rental_uris": {"ios": "https://dc.lft.to/lastmile_qr_scan", "android": "https://dc.lft.to/lastmile_qr_scan"}, "is_reserved": 0}, {"lon": -77.02747116666667, "bike_id": "0a8978d3af1a25d71a102c1397617a63", "lat": 38.941857666666664, "fusion_lon": 0.0, "fusion_lat": 0.0, "type": "electric_scooter", "name": "0a8978d3af1a25d71a102c1397617a63", "is_disabled": 0, "rental_uris": {"ios": "https://dc.lft.to/lastmile_qr_scan", "android": "https://dc.lft.to/lastmile_qr_scan"}, "is_reserved": 0}, {"lon": -77.04025166666666, "bike_id": "7ac51b2eff42451eb1a15e5fbf40fd8d", "lat": 38.924525333333335, "fusion_lon": 0.0, "fusion_lat": 0.0, "type": "electric_scooter", "name": "7ac51b2eff42451eb1a15e5fbf40fd8d", "is_disabled": 0, "rental_uris": {"ios": "https://dc.lft.to/lastmile_qr_scan", "android": "https://dc.lft.to/lastmile_qr_scan"}, "is_reserved": 0}, {"lon": -76.98710533333333, "bike_id": "2be2f94e6de5a4b863d47aa9d313de8e", "lat": 38.867029, "fusion_lon": 0.0, "fusion_lat": 0.0, "type": "electric_scooter", "name": "2be2f94e6de5a4b863d47aa9d313de8e", "is_disabled": 0, "rental_uris": {"ios": "https://dc.lft.to/lastmile_qr_scan", "android": "https://dc.lft.to/lastmile_qr_scan"}, "is_reserved": 0}, {"lon": -76.97861566666667, "bike_id": "d9a733f41145c49efc27331eba2119ac", "lat": 38.870760833333335, "fusion_lon": 0.0, "fusion_lat": 0.0, "type": "electric_scooter", "name": "d9a733f41145c49efc27331eba2119ac", "is_disabled": 0, "rental_uris": {"ios": "https://dc.lft.to/lastmile_qr_scan", "android": "https://dc.lft.to/lastmile_qr_scan"}, "is_reserved": 0}, {"lon": -77.03034383333333, "bike_id": "e004509ea6d23f3e4535f7b5b518a64c", "lat": 38.91682316666667, "fusion_lon": 0.0, "fusion_lat": 0.0, "type": "electric_scooter", "name": "e004509ea6d23f3e4535f7b5b518a64c", "is_disabled": 0, "rental_uris": {"ios": "https://dc.lft.to/lastmile_qr_scan", "android": "https://dc.lft.to/lastmile_qr_scan"}, "is_reserved": 0}, {"lon": -77.04514183333333, "bike_id": "f269950b27b794728153dad69392624d", "lat": 38.93529866666667, "fusion_lon": 0.0, "fusion_lat": 0.0, "type": "electric_scooter", "name": "f269950b27b794728153dad69392624d", "is_disabled": 0, "rental_uris": {"ios": "https://dc.lft.to/lastmile_qr_scan", "android": "https://dc.lft.to/lastmile_qr_scan"}, "is_reserved": 0}, {"lon": -77.0282345, "bike_id": "94a8f3c4b245dce1a6d07744e834788f", "lat": 38.917699166666665, "fusion_lon": 0.0, "fusion_lat": 0.0, "type": "electric_scooter", "name": "94a8f3c4b245dce1a6d07744e834788f", "is_disabled": 0, "rental_uris": {"ios": "https://dc.lft.to/lastmile_qr_scan", "android": "https://dc.lft.to/lastmile_qr_scan"}, "is_reserved": 0}, {"lon": -77.01205683333333, "bike_id": "f9703b76c207548874b45b9c316c5de4", "lat": 38.9159175, "fusion_lon": 0.0, "fusion_lat": 0.0, "type": "electric_scooter", "name": "f9703b76c207548874b45b9c316c5de4", "is_disabled": 0, "rental_uris": {"ios": "https://dc.lft.to/lastmile_qr_scan", "android": "https://dc.lft.to/lastmile_qr_scan"}, "is_reserved": 0}, {"lon": -76.9888235, "bike_id": "9363b22adca819ac75339815adc13895", "lat": 38.8666055, "fusion_lon": 0.0, "fusion_lat": 0.0, "type": "electric_scooter", "name": "9363b22adca819ac75339815adc13895", "is_disabled": 0, "rental_uris": {"ios": "https://dc.lft.to/lastmile_qr_scan", "android": "https://dc.lft.to/lastmile_qr_scan"}, "is_reserved": 0}, {"lon": -77.02122533333333, "bike_id": "7704b8be23a99b734c0551021e5c8759", "lat": 38.93580016666667, "fusion_lon": 0.0, "fusion_lat": 0.0, "type": "electric_bike", "name": "7704b8be23a99b734c0551021e5c8759", "is_disabled": 0, "rental_uris": {"ios": "https://dc.lft.to/lastmile_qr_scan", "android": "https://dc.lft.to/lastmile_qr_scan"}, "is_reserved": 0}, {"lon": -77.0173685, "bike_id": "53c36e127db17d00008a6863462c09d2", "lat": 38.902508166666664, "fusion_lon": 0.0, "fusion_lat": 0.0, "type": "electric_scooter", "name": "53c36e127db17d00008a6863462c09d2", "is_disabled": 0, "rental_uris": {"ios": "https://dc.lft.to/lastmile_qr_scan", "android": "https://dc.lft.to/lastmile_qr_scan"}, "is_reserved": 0}, {"lon": -77.0351975, "bike_id": "8cfa12c0d488bcb33a2b60b9a52a0688", "lat": 38.92336133333333, "fusion_lon": 0.0, "fusion_lat": 0.0, "type": "electric_scooter", "name": "8cfa12c0d488bcb33a2b60b9a52a0688", "is_disabled": 0, "rental_uris": {"ios": "https://dc.lft.to/lastmile_qr_scan", "android": "https://dc.lft.to/lastmile_qr_scan"}, "is_reserved": 0}, {"lon": -77.03199816666667, "bike_id": "7e483c99547fed37d161e06687655b81", "lat": 38.90693783333333, "fusion_lon": 0.0, "fusion_lat": 0.0, "type": "electric_scooter", "name": "7e483c99547fed37d161e06687655b81", "is_disabled": 0, "rental_uris": {"ios": "https://dc.lft.to/lastmile_qr_scan", "android": "https://dc.lft.to/lastmile_qr_scan"}, "is_reserved": 0}, {"lon": -77.027136, "bike_id": "6ca0f756cf2ff67b7432deeb265a7e41", "lat": 38.910706, "fusion_lon": 0.0, "fusion_lat": 0.0, "type": "electric_scooter", "name": "6ca0f756cf2ff67b7432deeb265a7e41", "is_disabled": 0, "rental_uris": {"ios": "https://dc.lft.to/lastmile_qr_scan", "android": "https://dc.lft.to/lastmile_qr_scan"}, "is_reserved": 0}, {"lon": -77.02087066666667, "bike_id": "abe9a594e56b9e0a42917b03186b645f", "lat": 38.95753716666667, "fusion_lon": 0.0, "fusion_lat": 0.0, "type": "electric_scooter", "name": "abe9a594e56b9e0a42917b03186b645f", "is_disabled": 0, "rental_uris": {"ios": "https://dc.lft.to/lastmile_qr_scan", "android": "https://dc.lft.to/lastmile_qr_scan"}, "is_reserved": 0}, {"lon": -77.02399083333333, "bike_id": "60f2646c026cd929fa789afa295fd8c9", "lat": 38.899692, "fusion_lon": 0.0, "fusion_lat": 0.0, "type": "electric_scooter", "name": "60f2646c026cd929fa789afa295fd8c9", "is_disabled": 0, "rental_uris": {"ios": "https://dc.lft.to/lastmile_qr_scan", "android": "https://dc.lft.to/lastmile_qr_scan"}, "is_reserved": 0}, {"lon": -76.98092833333334, "bike_id": "9ef74084449c830ca34514b855334115", "lat": 38.953581, "fusion_lon": 0.0, "fusion_lat": 0.0, "type": "electric_bike", "name": "9ef74084449c830ca34514b855334115", "is_disabled": 0, "rental_uris": {"ios": "https://dc.lft.to/lastmile_qr_scan", "android": "https://dc.lft.to/lastmile_qr_scan"}, "is_reserved": 0}, {"lon": -77.0557405, "bike_id": "da78305ebbd8841840c074e7ab6a5ab8", "lat": 38.91601716666667, "fusion_lon": 0.0, "fusion_lat": 0.0, "type": "electric_scooter", "name": "da78305ebbd8841840c074e7ab6a5ab8", "is_disabled": 0, "rental_uris": {"ios": "https://dc.lft.to/lastmile_qr_scan", "android": "https://dc.lft.to/lastmile_qr_scan"}, "is_reserved": 0}, {"lon": -76.99002716666666, "bike_id": "7cf38745de7a5ae35dad4535661e8d3b", "lat": 38.865066166666665, "fusion_lon": 0.0, "fusion_lat": 0.0, "type": "electric_scooter", "name": "7cf38745de7a5ae35dad4535661e8d3b", "is_disabled": 0, "rental_uris": {"ios": "https://dc.lft.to/lastmile_qr_scan", "android": "https://dc.lft.to/lastmile_qr_scan"}, "is_reserved": 0}, {"lon": -77.026325, "bike_id": "c7924afacebb2300cc3ccc5cbadf04a6", "lat": 38.897292, "fusion_lon": 0.0, "fusion_lat": 0.0, "type": "electric_scooter", "name": "c7924afacebb2300cc3ccc5cbadf04a6", "is_disabled": 0, "rental_uris": {"ios": "https://dc.lft.to/lastmile_qr_scan", "android": "https://dc.lft.to/lastmile_qr_scan"}, "is_reserved": 0}, {"lon": -77.023297, "bike_id": "0fe0d84b50431cc06d71d8272ab802bd", "lat": 38.92222833333334, "fusion_lon": 0.0, "fusion_lat": 0.0, "type": "electric_scooter", "name": "0fe0d84b50431cc06d71d8272ab802bd", "is_disabled": 0, "rental_uris": {"ios": "https://dc.lft.to/lastmile_qr_scan", "android": "https://dc.lft.to/lastmile_qr_scan"}, "is_reserved": 0}, {"lon": -77.04423916666667, "bike_id": "2023f0cbbe47017452e78bce0e965030", "lat": 38.908966166666666, "fusion_lon": 0.0, "fusion_lat": 0.0, "type": "electric_scooter", "name": "2023f0cbbe47017452e78bce0e965030", "is_disabled": 0, "rental_uris": {"ios": "https://dc.lft.to/lastmile_qr_scan", "android": "https://dc.lft.to/lastmile_qr_scan"}, "is_reserved": 0}, {"lon": -77.033309, "bike_id": "cb3a58f2bbf09ff8a74aeddd01b00a27", "lat": 38.93645866666667, "fusion_lon": 0.0, "fusion_lat": 0.0, "type": "electric_scooter", "name": "cb3a58f2bbf09ff8a74aeddd01b00a27", "is_disabled": 0, "rental_uris": {"ios": "https://dc.lft.to/lastmile_qr_scan", "android": "https://dc.lft.to/lastmile_qr_scan"}, "is_reserved": 0}, {"lon": -76.987228, "bike_id": "23ed5d9bf66df0677894349f3199cd63", "lat": 38.86717216666667, "fusion_lon": 0.0, "fusion_lat": 0.0, "type": "electric_scooter", "name": "23ed5d9bf66df0677894349f3199cd63", "is_disabled": 0, "rental_uris": {"ios": "https://dc.lft.to/lastmile_qr_scan", "android": "https://dc.lft.to/lastmile_qr_scan"}, "is_reserved": 0}, {"lon": -77.033148, "bike_id": "caf59ef453aba1a666c212c6945ccc3c", "lat": 38.903690833333336, "fusion_lon": 0.0, "fusion_lat": 0.0, "type": "electric_scooter", "name": "caf59ef453aba1a666c212c6945ccc3c", "is_disabled": 0, "rental_uris": {"ios": "https://dc.lft.to/lastmile_qr_scan", "android": "https://dc.lft.to/lastmile_qr_scan"}, "is_reserved": 0}, {"lon": -76.98704383333333, "bike_id": "27f5a00745587ec01f1caad0cd6ef2ab", "lat": 38.8654085, "fusion_lon": 0.0, "fusion_lat": 0.0, "type": "electric_scooter", "name": "27f5a00745587ec01f1caad0cd6ef2ab", "is_disabled": 0, "rental_uris": {"ios": "https://dc.lft.to/lastmile_qr_scan", "android": "https://dc.lft.to/lastmile_qr_scan"}, "is_reserved": 0}, {"lon": -76.99335083333334, "bike_id": "9be88367aff846e6453ac28478206072", "lat": 38.871407, "fusion_lon": 0.0, "fusion_lat": 0.0, "type": "electric_scooter", "name": "9be88367aff846e6453ac28478206072", "is_disabled": 0, "rental_uris": {"ios": "https://dc.lft.to/lastmile_qr_scan", "android": "https://dc.lft.to/lastmile_qr_scan"}, "is_reserved": 0}, {"lon": -76.94887233333333, "bike_id": "f07351ea02d640b220987eba9447b450", "lat": 38.89510933333333, "fusion_lon": 0.0, "fusion_lat": 0.0, "type": "electric_scooter", "name": "f07351ea02d640b220987eba9447b450", "is_disabled": 0, "rental_uris": {"ios": "https://dc.lft.to/lastmile_qr_scan", "android": "https://dc.lft.to/lastmile_qr_scan"}, "is_reserved": 0}, {"lon": -77.01663616666667, "bike_id": "591bc41b1a30061adac82d8d196f7e6c", "lat": 38.8812045, "fusion_lon": 0.0, "fusion_lat": 0.0, "type": "electric_scooter", "name": "591bc41b1a30061adac82d8d196f7e6c", "is_disabled": 0, "rental_uris": {"ios": "https://dc.lft.to/lastmile_qr_scan", "android": "https://dc.lft.to/lastmile_qr_scan"}, "is_reserved": 0}, {"lon": -77.05763716666667, "bike_id": "e5496416ea19fe649a05472a67a56658", "lat": 38.93620083333333, "fusion_lon": 0.0, "fusion_lat": 0.0, "type": "electric_scooter", "name": "e5496416ea19fe649a05472a67a56658", "is_disabled": 0, "rental_uris": {"ios": "https://dc.lft.to/lastmile_qr_scan", "android": "https://dc.lft.to/lastmile_qr_scan"}, "is_reserved": 0}, {"lon": -77.02386416666667, "bike_id": "c7dbd11fb3d43bf45cd0caa502e7d1e2", "lat": 38.934076, "fusion_lon": 0.0, "fusion_lat": 0.0, "type": "electric_scooter", "name": "c7dbd11fb3d43bf45cd0caa502e7d1e2", "is_disabled": 0, "rental_uris": {"ios": "https://dc.lft.to/lastmile_qr_scan", "android": "https://dc.lft.to/lastmile_qr_scan"}, "is_reserved": 0}, {"lon": -77.12485033333333, "bike_id": "4d8805c2a82d88071627d3e7c939f0fe", "lat": 38.827908666666666, "fusion_lon": 0.0, "fusion_lat": 0.0, "type": "electric_bike", "name": "4d8805c2a82d88071627d3e7c939f0fe", "is_disabled": 0, "rental_uris": {"ios": "https://dc.lft.to/lastmile_qr_scan", "android": "https://dc.lft.to/lastmile_qr_scan"}, "is_reserved": 0}, {"lon": -76.99519183333334, "bike_id": "64dfb1b2c891d7a4ce1ae24cbe7109e8", "lat": 38.9002085, "fusion_lon": 0.0, "fusion_lat": 0.0, "type": "electric_scooter", "name": "64dfb1b2c891d7a4ce1ae24cbe7109e8", "is_disabled": 0, "rental_uris": {"ios": "https://dc.lft.to/lastmile_qr_scan", "android": "https://dc.lft.to/lastmile_qr_scan"}, "is_reserved": 0}, {"lon": -77.05177483333334, "bike_id": "e1b31a85bb893cbc1ac38b1417fdc8d4", "lat": 38.924261333333334, "fusion_lon": 0.0, "fusion_lat": 0.0, "type": "electric_scooter", "name": "e1b31a85bb893cbc1ac38b1417fdc8d4", "is_disabled": 0, "rental_uris": {"ios": "https://dc.lft.to/lastmile_qr_scan", "android": "https://dc.lft.to/lastmile_qr_scan"}, "is_reserved": 0}, {"lon": -77.03424616666666, "bike_id": "af04065a73c701be6a8e0e3f08cfbb98", "lat": 38.927446, "fusion_lon": 0.0, "fusion_lat": 0.0, "type": "electric_scooter", "name": "af04065a73c701be6a8e0e3f08cfbb98", "is_disabled": 0, "rental_uris": {"ios": "https://dc.lft.to/lastmile_qr_scan", "android": "https://dc.lft.to/lastmile_qr_scan"}, "is_reserved": 0}, {"lon": -77.03404566666667, "bike_id": "a6ffdbba5b693a51771a39c053431bf0", "lat": 38.960285999999996, "fusion_lon": 0.0, "fusion_lat": 0.0, "type": "electric_bike", "name": "a6ffdbba5b693a51771a39c053431bf0", "is_disabled": 0, "rental_uris": {"ios": "https://dc.lft.to/lastmile_qr_scan", "android": "https://dc.lft.to/lastmile_qr_scan"}, "is_reserved": 0}, {"lon": -77.03283533333334, "bike_id": "c86f92f97a2ea7cf4cf7b25fb76cf1f2", "lat": 38.93853283333333, "fusion_lon": 0.0, "fusion_lat": 0.0, "type": "electric_scooter", "name": "c86f92f97a2ea7cf4cf7b25fb76cf1f2", "is_disabled": 0, "rental_uris": {"ios": "https://dc.lft.to/lastmile_qr_scan", "android": "https://dc.lft.to/lastmile_qr_scan"}, "is_reserved": 0}, {"lon": -77.00280783333334, "bike_id": "cac23d870d8f636b60efc845b0cf09a6", "lat": 38.957111166666664, "fusion_lon": 0.0, "fusion_lat": 0.0, "type": "electric_bike", "name": "cac23d870d8f636b60efc845b0cf09a6", "is_disabled": 0, "rental_uris": {"ios": "https://dc.lft.to/lastmile_qr_scan", "android": "https://dc.lft.to/lastmile_qr_scan"}, "is_reserved": 0}, {"lon": -77.02708883333334, "bike_id": "cfb4bbc90ccf8c41d3dc79192d673286", "lat": 38.934749, "fusion_lon": 0.0, "fusion_lat": 0.0, "type": "electric_scooter", "name": "cfb4bbc90ccf8c41d3dc79192d673286", "is_disabled": 0, "rental_uris": {"ios": "https://dc.lft.to/lastmile_qr_scan", "android": "https://dc.lft.to/lastmile_qr_scan"}, "is_reserved": 0}, {"lon": -76.965808, "bike_id": "a8f0cd3749ae99db3e561a1b63cb152b", "lat": 38.871388333333336, "fusion_lon": 0.0, "fusion_lat": 0.0, "type": "electric_scooter", "name": "a8f0cd3749ae99db3e561a1b63cb152b", "is_disabled": 0, "rental_uris": {"ios": "https://dc.lft.to/lastmile_qr_scan", "android": "https://dc.lft.to/lastmile_qr_scan"}, "is_reserved": 0}, {"lon": -77.02849566666667, "bike_id": "0f3c76fdbfdf87c08465a0b167e4a005", "lat": 38.927693, "fusion_lon": 0.0, "fusion_lat": 0.0, "type": "electric_scooter", "name": "0f3c76fdbfdf87c08465a0b167e4a005", "is_disabled": 0, "rental_uris": {"ios": "https://dc.lft.to/lastmile_qr_scan", "android": "https://dc.lft.to/lastmile_qr_scan"}, "is_reserved": 0}, {"lon": -76.996097, "bike_id": "4e3ed57963df8c2b10c3e9c6eb4b664a", "lat": 38.88714616666667, "fusion_lon": 0.0, "fusion_lat": 0.0, "type": "electric_scooter", "name": "4e3ed57963df8c2b10c3e9c6eb4b664a", "is_disabled": 0, "rental_uris": {"ios": "https://dc.lft.to/lastmile_qr_scan", "android": "https://dc.lft.to/lastmile_qr_scan"}, "is_reserved": 0}, {"lon": -77.04314516666666, "bike_id": "f101519a0f05c0fa3856fb0a7a8429e2", "lat": 38.91881033333333, "fusion_lon": 0.0, "fusion_lat": 0.0, "type": "electric_scooter", "name": "f101519a0f05c0fa3856fb0a7a8429e2", "is_disabled": 0, "rental_uris": {"ios": "https://dc.lft.to/lastmile_qr_scan", "android": "https://dc.lft.to/lastmile_qr_scan"}, "is_reserved": 0}, {"lon": -77.06418666666667, "bike_id": "401c0a2f694eb1421f7bb71847f70775", "lat": 38.908880833333335, "fusion_lon": 0.0, "fusion_lat": 0.0, "type": "electric_scooter", "name": "401c0a2f694eb1421f7bb71847f70775", "is_disabled": 0, "rental_uris": {"ios": "https://dc.lft.to/lastmile_qr_scan", "android": "https://dc.lft.to/lastmile_qr_scan"}, "is_reserved": 0}, {"lon": -76.99850283333333, "bike_id": "d0d48aba48fbaff4cef45e04b4d267a5", "lat": 38.84161533333334, "fusion_lon": 0.0, "fusion_lat": 0.0, "type": "electric_scooter", "name": "d0d48aba48fbaff4cef45e04b4d267a5", "is_disabled": 0, "rental_uris": {"ios": "https://dc.lft.to/lastmile_qr_scan", "android": "https://dc.lft.to/lastmile_qr_scan"}, "is_reserved": 0}, {"lon": -77.02254366666666, "bike_id": "c2274924fbbfacbb457257da6ca59fdc", "lat": 38.9282605, "fusion_lon": 0.0, "fusion_lat": 0.0, "type": "electric_scooter", "name": "c2274924fbbfacbb457257da6ca59fdc", "is_disabled": 0, "rental_uris": {"ios": "https://dc.lft.to/lastmile_qr_scan", "android": "https://dc.lft.to/lastmile_qr_scan"}, "is_reserved": 0}, {"lon": -76.93352833333333, "bike_id": "d6aaadb73fe3fbfa2e4c95f0a444c221", "lat": 38.88795733333333, "fusion_lon": 0.0, "fusion_lat": 0.0, "type": "electric_scooter", "name": "d6aaadb73fe3fbfa2e4c95f0a444c221", "is_disabled": 0, "rental_uris": {"ios": "https://dc.lft.to/lastmile_qr_scan", "android": "https://dc.lft.to/lastmile_qr_scan"}, "is_reserved": 0}, {"lon": -77.03286866666667, "bike_id": "40ae1efd4331295dce82d6521436b63a", "lat": 38.9325495, "fusion_lon": 0.0, "fusion_lat": 0.0, "type": "electric_scooter", "name": "40ae1efd4331295dce82d6521436b63a", "is_disabled": 0, "rental_uris": {"ios": "https://dc.lft.to/lastmile_qr_scan", "android": "https://dc.lft.to/lastmile_qr_scan"}, "is_reserved": 0}, {"lon": -77.01000016666667, "bike_id": "215accfef642601de5ea9f432d1568b5", "lat": 38.91925416666667, "fusion_lon": 0.0, "fusion_lat": 0.0, "type": "electric_scooter", "name": "215accfef642601de5ea9f432d1568b5", "is_disabled": 0, "rental_uris": {"ios": "https://dc.lft.to/lastmile_qr_scan", "android": "https://dc.lft.to/lastmile_qr_scan"}, "is_reserved": 0}, {"lon": -77.0424365, "bike_id": "3e6e233f7044c1bfe2aa96f44ac58a6b", "lat": 38.907137166666665, "fusion_lon": 0.0, "fusion_lat": 0.0, "type": "electric_scooter", "name": "3e6e233f7044c1bfe2aa96f44ac58a6b", "is_disabled": 0, "rental_uris": {"ios": "https://dc.lft.to/lastmile_qr_scan", "android": "https://dc.lft.to/lastmile_qr_scan"}, "is_reserved": 0}, {"lon": -77.02508216666666, "bike_id": "18949736f62cdcf2763933310833b404", "lat": 38.930948, "fusion_lon": 0.0, "fusion_lat": 0.0, "type": "electric_scooter", "name": "18949736f62cdcf2763933310833b404", "is_disabled": 0, "rental_uris": {"ios": "https://dc.lft.to/lastmile_qr_scan", "android": "https://dc.lft.to/lastmile_qr_scan"}, "is_reserved": 0}, {"lon": -76.94880016666667, "bike_id": "8dfe7a3f78dd810a7ba6e470c47aea6e", "lat": 38.89552033333333, "fusion_lon": 0.0, "fusion_lat": 0.0, "type": "electric_scooter", "name": "8dfe7a3f78dd810a7ba6e470c47aea6e", "is_disabled": 0, "rental_uris": {"ios": "https://dc.lft.to/lastmile_qr_scan", "android": "https://dc.lft.to/lastmile_qr_scan"}, "is_reserved": 0}, {"lon": -77.02948316666667, "bike_id": "c174842a5e75308f57213460997960e7", "lat": 38.9237525, "fusion_lon": 0.0, "fusion_lat": 0.0, "type": "electric_scooter", "name": "c174842a5e75308f57213460997960e7", "is_disabled": 0, "rental_uris": {"ios": "https://dc.lft.to/lastmile_qr_scan", "android": "https://dc.lft.to/lastmile_qr_scan"}, "is_reserved": 0}, {"lon": -77.0479, "bike_id": "c715bdeecf40e89731e62c67f1b45fe9", "lat": 38.9095795, "fusion_lon": 0.0, "fusion_lat": 0.0, "type": "electric_scooter", "name": "c715bdeecf40e89731e62c67f1b45fe9", "is_disabled": 0, "rental_uris": {"ios": "https://dc.lft.to/lastmile_qr_scan", "android": "https://dc.lft.to/lastmile_qr_scan"}, "is_reserved": 0}, {"lon": -77.02797916666667, "bike_id": "b0a7cfeffb0704b667ca84df9e5bd30c", "lat": 38.929711833333336, "fusion_lon": 0.0, "fusion_lat": 0.0, "type": "electric_scooter", "name": "b0a7cfeffb0704b667ca84df9e5bd30c", "is_disabled": 0, "rental_uris": {"ios": "https://dc.lft.to/lastmile_qr_scan", "android": "https://dc.lft.to/lastmile_qr_scan"}, "is_reserved": 0}, {"lon": -77.02408883333334, "bike_id": "c021f76c461a99bd1031d17370a4d82b", "lat": 38.9166055, "fusion_lon": 0.0, "fusion_lat": 0.0, "type": "electric_scooter", "name": "c021f76c461a99bd1031d17370a4d82b", "is_disabled": 0, "rental_uris": {"ios": "https://dc.lft.to/lastmile_qr_scan", "android": "https://dc.lft.to/lastmile_qr_scan"}, "is_reserved": 0}, {"lon": -77.009247, "bike_id": "49b65baed2b77e342bc3cb28948af1f2", "lat": 38.91101233333333, "fusion_lon": 0.0, "fusion_lat": 0.0, "type": "electric_scooter", "name": "49b65baed2b77e342bc3cb28948af1f2", "is_disabled": 0, "rental_uris": {"ios": "https://dc.lft.to/lastmile_qr_scan", "android": "https://dc.lft.to/lastmile_qr_scan"}, "is_reserved": 0}, {"lon": -76.98960516666666, "bike_id": "d89e6413f0025f9d1fc3830d6b5c5720", "lat": 38.90130583333333, "fusion_lon": 0.0, "fusion_lat": 0.0, "type": "electric_scooter", "name": "d89e6413f0025f9d1fc3830d6b5c5720", "is_disabled": 0, "rental_uris": {"ios": "https://dc.lft.to/lastmile_qr_scan", "android": "https://dc.lft.to/lastmile_qr_scan"}, "is_reserved": 0}, {"lon": -77.013739, "bike_id": "29f39e780e44b305b43f4fd7182643f7", "lat": 38.90620466666667, "fusion_lon": 0.0, "fusion_lat": 0.0, "type": "electric_scooter", "name": "29f39e780e44b305b43f4fd7182643f7", "is_disabled": 0, "rental_uris": {"ios": "https://dc.lft.to/lastmile_qr_scan", "android": "https://dc.lft.to/lastmile_qr_scan"}, "is_reserved": 0}, {"lon": -77.04651066666666, "bike_id": "ef11669560b7eee2ff2eb5f18ae775e5", "lat": 38.905494833333336, "fusion_lon": 0.0, "fusion_lat": 0.0, "type": "electric_scooter", "name": "ef11669560b7eee2ff2eb5f18ae775e5", "is_disabled": 0, "rental_uris": {"ios": "https://dc.lft.to/lastmile_qr_scan", "android": "https://dc.lft.to/lastmile_qr_scan"}, "is_reserved": 0}, {"lon": -76.9938995, "bike_id": "fa7358642b64644fa9d9ac46caeee40d", "lat": 38.923960666666666, "fusion_lon": 0.0, "fusion_lat": 0.0, "type": "electric_scooter", "name": "fa7358642b64644fa9d9ac46caeee40d", "is_disabled": 0, "rental_uris": {"ios": "https://dc.lft.to/lastmile_qr_scan", "android": "https://dc.lft.to/lastmile_qr_scan"}, "is_reserved": 0}, {"lon": -77.03569466666667, "bike_id": "e7f8f3bbbddbb4843518cd498ae8254c", "lat": 38.90470116666667, "fusion_lon": 0.0, "fusion_lat": 0.0, "type": "electric_scooter", "name": "e7f8f3bbbddbb4843518cd498ae8254c", "is_disabled": 0, "rental_uris": {"ios": "https://dc.lft.to/lastmile_qr_scan", "android": "https://dc.lft.to/lastmile_qr_scan"}, "is_reserved": 0}, {"lon": -76.98170933333333, "bike_id": "b9bc5c43777fd2b886b348bd1d38af26", "lat": 38.9167075, "fusion_lon": 0.0, "fusion_lat": 0.0, "type": "electric_scooter", "name": "b9bc5c43777fd2b886b348bd1d38af26", "is_disabled": 0, "rental_uris": {"ios": "https://dc.lft.to/lastmile_qr_scan", "android": "https://dc.lft.to/lastmile_qr_scan"}, "is_reserved": 0}, {"lon": -77.01745733333334, "bike_id": "4e252d5291405aa680ebf7d929173e17", "lat": 38.881215833333336, "fusion_lon": 0.0, "fusion_lat": 0.0, "type": "electric_scooter", "name": "4e252d5291405aa680ebf7d929173e17", "is_disabled": 0, "rental_uris": {"ios": "https://dc.lft.to/lastmile_qr_scan", "android": "https://dc.lft.to/lastmile_qr_scan"}, "is_reserved": 0}, {"lon": -77.057221, "bike_id": "17d4ca566efbbd910e15569aa49274bb", "lat": 38.9336685, "fusion_lon": 0.0, "fusion_lat": 0.0, "type": "electric_scooter", "name": "17d4ca566efbbd910e15569aa49274bb", "is_disabled": 0, "rental_uris": {"ios": "https://dc.lft.to/lastmile_qr_scan", "android": "https://dc.lft.to/lastmile_qr_scan"}, "is_reserved": 0}, {"lon": -77.06520416666666, "bike_id": "3f3df235a3fd4542ad0e1eda7a176560", "lat": 38.90879416666667, "fusion_lon": 0.0, "fusion_lat": 0.0, "type": "electric_scooter", "name": "3f3df235a3fd4542ad0e1eda7a176560", "is_disabled": 0, "rental_uris": {"ios": "https://dc.lft.to/lastmile_qr_scan", "android": "https://dc.lft.to/lastmile_qr_scan"}, "is_reserved": 0}, {"lon": -76.97905816666666, "bike_id": "4480e2ecabe8f523bcebe3566432de81", "lat": 38.92462916666667, "fusion_lon": 0.0, "fusion_lat": 0.0, "type": "electric_bike", "name": "4480e2ecabe8f523bcebe3566432de81", "is_disabled": 0, "rental_uris": {"ios": "https://dc.lft.to/lastmile_qr_scan", "android": "https://dc.lft.to/lastmile_qr_scan"}, "is_reserved": 0}, {"lon": -76.97329716666667, "bike_id": "538914b0e449f534f6b59f35c57bcb0d", "lat": 38.90480016666667, "fusion_lon": 0.0, "fusion_lat": 0.0, "type": "electric_bike", "name": "538914b0e449f534f6b59f35c57bcb0d", "is_disabled": 0, "rental_uris": {"ios": "https://dc.lft.to/lastmile_qr_scan", "android": "https://dc.lft.to/lastmile_qr_scan"}, "is_reserved": 0}, {"lon": -76.9979445, "bike_id": "dab204a565327197012400c8848f175b", "lat": 38.9564385, "fusion_lon": 0.0, "fusion_lat": 0.0, "type": "electric_bike", "name": "dab204a565327197012400c8848f175b", "is_disabled": 0, "rental_uris": {"ios": "https://dc.lft.to/lastmile_qr_scan", "android": "https://dc.lft.to/lastmile_qr_scan"}, "is_reserved": 0}, {"lon": -77.01785266666667, "bike_id": "bba6d7127f9a91de69164eebee408f4f", "lat": 38.900811166666664, "fusion_lon": 0.0, "fusion_lat": 0.0, "type": "electric_scooter", "name": "bba6d7127f9a91de69164eebee408f4f", "is_disabled": 0, "rental_uris": {"ios": "https://dc.lft.to/lastmile_qr_scan", "android": "https://dc.lft.to/lastmile_qr_scan"}, "is_reserved": 0}, {"lon": -77.0003825, "bike_id": "61b1126e620edf6ee2cba1d830ffd36b", "lat": 38.87435966666666, "fusion_lon": 0.0, "fusion_lat": 0.0, "type": "electric_scooter", "name": "61b1126e620edf6ee2cba1d830ffd36b", "is_disabled": 0, "rental_uris": {"ios": "https://dc.lft.to/lastmile_qr_scan", "android": "https://dc.lft.to/lastmile_qr_scan"}, "is_reserved": 0}, {"lon": -77.02394883333334, "bike_id": "29363da9464c337258e5b91fde00dde3", "lat": 38.88136033333333, "fusion_lon": 0.0, "fusion_lat": 0.0, "type": "electric_scooter", "name": "29363da9464c337258e5b91fde00dde3", "is_disabled": 0, "rental_uris": {"ios": "https://dc.lft.to/lastmile_qr_scan", "android": "https://dc.lft.to/lastmile_qr_scan"}, "is_reserved": 0}, {"lon": -76.92578483333334, "bike_id": "40433366eeb2e1afec6e11730ed65403", "lat": 38.897802, "fusion_lon": 0.0, "fusion_lat": 0.0, "type": "electric_scooter", "name": "40433366eeb2e1afec6e11730ed65403", "is_disabled": 0, "rental_uris": {"ios": "https://dc.lft.to/lastmile_qr_scan", "android": "https://dc.lft.to/lastmile_qr_scan"}, "is_reserved": 0}, {"lon": -77.0449025, "bike_id": "7c5f48de69836ab735a8ea9ff5b2def5", "lat": 38.91286866666667, "fusion_lon": 0.0, "fusion_lat": 0.0, "type": "electric_scooter", "name": "7c5f48de69836ab735a8ea9ff5b2def5", "is_disabled": 0, "rental_uris": {"ios": "https://dc.lft.to/lastmile_qr_scan", "android": "https://dc.lft.to/lastmile_qr_scan"}, "is_reserved": 0}, {"lon": -76.99268783333333, "bike_id": "9943ae9e7f69e7d118dbc912e22ec69e", "lat": 38.896140333333335, "fusion_lon": 0.0, "fusion_lat": 0.0, "type": "electric_scooter", "name": "9943ae9e7f69e7d118dbc912e22ec69e", "is_disabled": 0, "rental_uris": {"ios": "https://dc.lft.to/lastmile_qr_scan", "android": "https://dc.lft.to/lastmile_qr_scan"}, "is_reserved": 0}, {"lon": -77.04723783333333, "bike_id": "e85cbb36651d55db52d7f7569ff67e49", "lat": 38.899539, "fusion_lon": 0.0, "fusion_lat": 0.0, "type": "electric_scooter", "name": "e85cbb36651d55db52d7f7569ff67e49", "is_disabled": 0, "rental_uris": {"ios": "https://dc.lft.to/lastmile_qr_scan", "android": "https://dc.lft.to/lastmile_qr_scan"}, "is_reserved": 0}, {"lon": -77.031835, "bike_id": "42693b9d6b4debdb64c5d9f5a85a1543", "lat": 38.8921795, "fusion_lon": 0.0, "fusion_lat": 0.0, "type": "electric_scooter", "name": "42693b9d6b4debdb64c5d9f5a85a1543", "is_disabled": 0, "rental_uris": {"ios": "https://dc.lft.to/lastmile_qr_scan", "android": "https://dc.lft.to/lastmile_qr_scan"}, "is_reserved": 0}, {"lon": -77.03630433333333, "bike_id": "2e9127a175fd469facd251ab8bcf6fd3", "lat": 38.9377, "fusion_lon": 0.0, "fusion_lat": 0.0, "type": "electric_bike", "name": "2e9127a175fd469facd251ab8bcf6fd3", "is_disabled": 0, "rental_uris": {"ios": "https://dc.lft.to/lastmile_qr_scan", "android": "https://dc.lft.to/lastmile_qr_scan"}, "is_reserved": 0}, {"lon": -77.00570333333333, "bike_id": "2a4118c183cb6685d98309018ad34f6c", "lat": 38.90552683333333, "fusion_lon": 0.0, "fusion_lat": 0.0, "type": "electric_scooter", "name": "2a4118c183cb6685d98309018ad34f6c", "is_disabled": 0, "rental_uris": {"ios": "https://dc.lft.to/lastmile_qr_scan", "android": "https://dc.lft.to/lastmile_qr_scan"}, "is_reserved": 0}, {"lon": -77.02749366666667, "bike_id": "644eaa54bcaa7a2a2e9496f9c45f5774", "lat": 38.928897, "fusion_lon": 0.0, "fusion_lat": 0.0, "type": "electric_scooter", "name": "644eaa54bcaa7a2a2e9496f9c45f5774", "is_disabled": 0, "rental_uris": {"ios": "https://dc.lft.to/lastmile_qr_scan", "android": "https://dc.lft.to/lastmile_qr_scan"}, "is_reserved": 0}, {"lon": -77.100274, "bike_id": "f10121666627c4b65664f7650d8ec696", "lat": 38.87136983333333, "fusion_lon": 0.0, "fusion_lat": 0.0, "type": "electric_bike", "name": "f10121666627c4b65664f7650d8ec696", "is_disabled": 0, "rental_uris": {"ios": "https://dc.lft.to/lastmile_qr_scan", "android": "https://dc.lft.to/lastmile_qr_scan"}, "is_reserved": 0}, {"lon": -77.01343333333334, "bike_id": "b8f5267602d17b87208e50c59f97bae3", "lat": 38.87816183333333, "fusion_lon": 0.0, "fusion_lat": 0.0, "type": "electric_scooter", "name": "b8f5267602d17b87208e50c59f97bae3", "is_disabled": 0, "rental_uris": {"ios": "https://dc.lft.to/lastmile_qr_scan", "android": "https://dc.lft.to/lastmile_qr_scan"}, "is_reserved": 0}, {"lon": -77.0287825, "bike_id": "23b9908a4d519de9cf3457e4fea9dc91", "lat": 38.91701, "fusion_lon": 0.0, "fusion_lat": 0.0, "type": "electric_scooter", "name": "23b9908a4d519de9cf3457e4fea9dc91", "is_disabled": 0, "rental_uris": {"ios": "https://dc.lft.to/lastmile_qr_scan", "android": "https://dc.lft.to/lastmile_qr_scan"}, "is_reserved": 0}, {"lon": -77.0252585, "bike_id": "4804a11c947530a06c7ab8398dba8d4e", "lat": 38.92895566666667, "fusion_lon": 0.0, "fusion_lat": 0.0, "type": "electric_scooter", "name": "4804a11c947530a06c7ab8398dba8d4e", "is_disabled": 0, "rental_uris": {"ios": "https://dc.lft.to/lastmile_qr_scan", "android": "https://dc.lft.to/lastmile_qr_scan"}, "is_reserved": 0}, {"lon": -76.96524183333334, "bike_id": "2af2f5625f6175cfbd6c2481d40df813", "lat": 38.87630883333333, "fusion_lon": 0.0, "fusion_lat": 0.0, "type": "electric_scooter", "name": "2af2f5625f6175cfbd6c2481d40df813", "is_disabled": 0, "rental_uris": {"ios": "https://dc.lft.to/lastmile_qr_scan", "android": "https://dc.lft.to/lastmile_qr_scan"}, "is_reserved": 0}, {"lon": -77.03756116666666, "bike_id": "05d437023ce84f9e8ceb26591d3765c5", "lat": 38.907740833333335, "fusion_lon": 0.0, "fusion_lat": 0.0, "type": "electric_scooter", "name": "05d437023ce84f9e8ceb26591d3765c5", "is_disabled": 0, "rental_uris": {"ios": "https://dc.lft.to/lastmile_qr_scan", "android": "https://dc.lft.to/lastmile_qr_scan"}, "is_reserved": 0}, {"lon": -77.12653916666666, "bike_id": "9848ae52b48881f94b769495627ab250", "lat": 38.815192, "fusion_lon": 0.0, "fusion_lat": 0.0, "type": "electric_bike", "name": "9848ae52b48881f94b769495627ab250", "is_disabled": 0, "rental_uris": {"ios": "https://dc.lft.to/lastmile_qr_scan", "android": "https://dc.lft.to/lastmile_qr_scan"}, "is_reserved": 0}, {"lon": -76.92734966666667, "bike_id": "80d0df5edfa25fe9ff1245eb8ad81df2", "lat": 38.889670333333335, "fusion_lon": 0.0, "fusion_lat": 0.0, "type": "electric_scooter", "name": "80d0df5edfa25fe9ff1245eb8ad81df2", "is_disabled": 0, "rental_uris": {"ios": "https://dc.lft.to/lastmile_qr_scan", "android": "https://dc.lft.to/lastmile_qr_scan"}, "is_reserved": 0}, {"lon": -77.05351233333333, "bike_id": "28d6a7881314ca8855001017f97faff1", "lat": 38.92702766666667, "fusion_lon": 0.0, "fusion_lat": 0.0, "type": "electric_scooter", "name": "28d6a7881314ca8855001017f97faff1", "is_disabled": 0, "rental_uris": {"ios": "https://dc.lft.to/lastmile_qr_scan", "android": "https://dc.lft.to/lastmile_qr_scan"}, "is_reserved": 0}, {"lon": -77.0225545, "bike_id": "490e654ae7067d44c9a25b8bcae19f3b", "lat": 38.928267, "fusion_lon": 0.0, "fusion_lat": 0.0, "type": "electric_scooter", "name": "490e654ae7067d44c9a25b8bcae19f3b", "is_disabled": 0, "rental_uris": {"ios": "https://dc.lft.to/lastmile_qr_scan", "android": "https://dc.lft.to/lastmile_qr_scan"}, "is_reserved": 0}, {"lon": -77.02361833333333, "bike_id": "116d4ed42e15330cf2c387140d538b57", "lat": 38.92058983333333, "fusion_lon": 0.0, "fusion_lat": 0.0, "type": "electric_scooter", "name": "116d4ed42e15330cf2c387140d538b57", "is_disabled": 0, "rental_uris": {"ios": "https://dc.lft.to/lastmile_qr_scan", "android": "https://dc.lft.to/lastmile_qr_scan"}, "is_reserved": 0}, {"lon": -76.9855955, "bike_id": "2f4108c7a3c53ae7b4d54c28036d0579", "lat": 38.89957, "fusion_lon": 0.0, "fusion_lat": 0.0, "type": "electric_scooter", "name": "2f4108c7a3c53ae7b4d54c28036d0579", "is_disabled": 0, "rental_uris": {"ios": "https://dc.lft.to/lastmile_qr_scan", "android": "https://dc.lft.to/lastmile_qr_scan"}, "is_reserved": 0}, {"lon": -76.99103083333333, "bike_id": "96f13a92944fa70604fdb928820fe93b", "lat": 38.90320916666667, "fusion_lon": 0.0, "fusion_lat": 0.0, "type": "electric_scooter", "name": "96f13a92944fa70604fdb928820fe93b", "is_disabled": 0, "rental_uris": {"ios": "https://dc.lft.to/lastmile_qr_scan", "android": "https://dc.lft.to/lastmile_qr_scan"}, "is_reserved": 0}, {"lon": -76.982865, "bike_id": "62058981263292e1be2b78cf95e062f5", "lat": 38.90048733333333, "fusion_lon": 0.0, "fusion_lat": 0.0, "type": "electric_scooter", "name": "62058981263292e1be2b78cf95e062f5", "is_disabled": 0, "rental_uris": {"ios": "https://dc.lft.to/lastmile_qr_scan", "android": "https://dc.lft.to/lastmile_qr_scan"}, "is_reserved": 0}, {"lon": -76.98191, "bike_id": "53524f0601bac0d8cf3e5d69962f036b", "lat": 38.9260095, "fusion_lon": 0.0, "fusion_lat": 0.0, "type": "electric_scooter", "name": "53524f0601bac0d8cf3e5d69962f036b", "is_disabled": 0, "rental_uris": {"ios": "https://dc.lft.to/lastmile_qr_scan", "android": "https://dc.lft.to/lastmile_qr_scan"}, "is_reserved": 0}, {"lon": -77.04493333333333, "bike_id": "e0670f51b0f1a673de01360246777b90", "lat": 38.91603116666667, "fusion_lon": 0.0, "fusion_lat": 0.0, "type": "electric_scooter", "name": "e0670f51b0f1a673de01360246777b90", "is_disabled": 0, "rental_uris": {"ios": "https://dc.lft.to/lastmile_qr_scan", "android": "https://dc.lft.to/lastmile_qr_scan"}, "is_reserved": 0}, {"lon": -77.00208783333333, "bike_id": "639184a16c7057ad0429e39336d9bdbb", "lat": 38.881318666666665, "fusion_lon": 0.0, "fusion_lat": 0.0, "type": "electric_scooter", "name": "639184a16c7057ad0429e39336d9bdbb", "is_disabled": 0, "rental_uris": {"ios": "https://dc.lft.to/lastmile_qr_scan", "android": "https://dc.lft.to/lastmile_qr_scan"}, "is_reserved": 0}, {"lon": -77.0444495, "bike_id": "71be3079ac74dcbbb1931e56bdc26e34", "lat": 38.91879683333333, "fusion_lon": 0.0, "fusion_lat": 0.0, "type": "electric_scooter", "name": "71be3079ac74dcbbb1931e56bdc26e34", "is_disabled": 0, "rental_uris": {"ios": "https://dc.lft.to/lastmile_qr_scan", "android": "https://dc.lft.to/lastmile_qr_scan"}, "is_reserved": 0}, {"lon": -77.02717033333333, "bike_id": "51c7f9402d4db23424f80c3dd9fc527e", "lat": 38.9277295, "fusion_lon": 0.0, "fusion_lat": 0.0, "type": "electric_scooter", "name": "51c7f9402d4db23424f80c3dd9fc527e", "is_disabled": 0, "rental_uris": {"ios": "https://dc.lft.to/lastmile_qr_scan", "android": "https://dc.lft.to/lastmile_qr_scan"}, "is_reserved": 0}, {"lon": -77.08337616666667, "bike_id": "7c37ab866eb0db5e85c90e6029d26fd1", "lat": 38.9298065, "fusion_lon": 0.0, "fusion_lat": 0.0, "type": "electric_scooter", "name": "7c37ab866eb0db5e85c90e6029d26fd1", "is_disabled": 0, "rental_uris": {"ios": "https://dc.lft.to/lastmile_qr_scan", "android": "https://dc.lft.to/lastmile_qr_scan"}, "is_reserved": 0}, {"lon": -77.04627716666667, "bike_id": "2b8380365d2c735e0277c7dc01ffdd87", "lat": 38.91913183333333, "fusion_lon": 0.0, "fusion_lat": 0.0, "type": "electric_scooter", "name": "2b8380365d2c735e0277c7dc01ffdd87", "is_disabled": 0, "rental_uris": {"ios": "https://dc.lft.to/lastmile_qr_scan", "android": "https://dc.lft.to/lastmile_qr_scan"}, "is_reserved": 0}, {"lon": -76.9335245, "bike_id": "beb2124a9c507c5984587bbe49ec0361", "lat": 38.8989475, "fusion_lon": 0.0, "fusion_lat": 0.0, "type": "electric_scooter", "name": "beb2124a9c507c5984587bbe49ec0361", "is_disabled": 0, "rental_uris": {"ios": "https://dc.lft.to/lastmile_qr_scan", "android": "https://dc.lft.to/lastmile_qr_scan"}, "is_reserved": 0}, {"lon": -77.04792833333333, "bike_id": "46817a79b4ae5d3593b93b870870f8c8", "lat": 38.90961033333333, "fusion_lon": 0.0, "fusion_lat": 0.0, "type": "electric_scooter", "name": "46817a79b4ae5d3593b93b870870f8c8", "is_disabled": 0, "rental_uris": {"ios": "https://dc.lft.to/lastmile_qr_scan", "android": "https://dc.lft.to/lastmile_qr_scan"}, "is_reserved": 0}, {"lon": -77.025823, "bike_id": "6fd0d0a3b368a746e0d3035d581b5cef", "lat": 38.88738683333333, "fusion_lon": 0.0, "fusion_lat": 0.0, "type": "electric_scooter", "name": "6fd0d0a3b368a746e0d3035d581b5cef", "is_disabled": 0, "rental_uris": {"ios": "https://dc.lft.to/lastmile_qr_scan", "android": "https://dc.lft.to/lastmile_qr_scan"}, "is_reserved": 0}, {"lon": -77.03596933333333, "bike_id": "65e47a1926650ed674f5b21d48eed194", "lat": 38.93674516666667, "fusion_lon": 0.0, "fusion_lat": 0.0, "type": "electric_scooter", "name": "65e47a1926650ed674f5b21d48eed194", "is_disabled": 0, "rental_uris": {"ios": "https://dc.lft.to/lastmile_qr_scan", "android": "https://dc.lft.to/lastmile_qr_scan"}, "is_reserved": 0}, {"lon": -77.02946783333333, "bike_id": "a3b8151c5a08fc123bae57e10de0178b", "lat": 38.9049615, "fusion_lon": 0.0, "fusion_lat": 0.0, "type": "electric_scooter", "name": "a3b8151c5a08fc123bae57e10de0178b", "is_disabled": 0, "rental_uris": {"ios": "https://dc.lft.to/lastmile_qr_scan", "android": "https://dc.lft.to/lastmile_qr_scan"}, "is_reserved": 0}, {"lon": -77.02100266666666, "bike_id": "edcfc5a0f22005ed8fb4d464b1823993", "lat": 38.949985, "fusion_lon": 0.0, "fusion_lat": 0.0, "type": "electric_scooter", "name": "edcfc5a0f22005ed8fb4d464b1823993", "is_disabled": 0, "rental_uris": {"ios": "https://dc.lft.to/lastmile_qr_scan", "android": "https://dc.lft.to/lastmile_qr_scan"}, "is_reserved": 0}, {"lon": -77.00555783333333, "bike_id": "30e9ca5c1e4bb80a8fc475e8329a168b", "lat": 38.90572316666667, "fusion_lon": 0.0, "fusion_lat": 0.0, "type": "electric_scooter", "name": "30e9ca5c1e4bb80a8fc475e8329a168b", "is_disabled": 0, "rental_uris": {"ios": "https://dc.lft.to/lastmile_qr_scan", "android": "https://dc.lft.to/lastmile_qr_scan"}, "is_reserved": 0}, {"lon": -77.03202966666667, "bike_id": "e81dff5a4d051ef0f31db97c76b7e0b9", "lat": 38.921222666666665, "fusion_lon": 0.0, "fusion_lat": 0.0, "type": "electric_scooter", "name": "e81dff5a4d051ef0f31db97c76b7e0b9", "is_disabled": 0, "rental_uris": {"ios": "https://dc.lft.to/lastmile_qr_scan", "android": "https://dc.lft.to/lastmile_qr_scan"}, "is_reserved": 0}, {"lon": -77.04274533333333, "bike_id": "a51bc79d5b62a69d90136eca9080ef64", "lat": 38.93419683333333, "fusion_lon": 0.0, "fusion_lat": 0.0, "type": "electric_scooter", "name": "a51bc79d5b62a69d90136eca9080ef64", "is_disabled": 0, "rental_uris": {"ios": "https://dc.lft.to/lastmile_qr_scan", "android": "https://dc.lft.to/lastmile_qr_scan"}, "is_reserved": 0}, {"lon": -77.03470116666666, "bike_id": "6fef3b75e679b6ba177bb6316e9b7f1b", "lat": 38.926429666666664, "fusion_lon": 0.0, "fusion_lat": 0.0, "type": "electric_scooter", "name": "6fef3b75e679b6ba177bb6316e9b7f1b", "is_disabled": 0, "rental_uris": {"ios": "https://dc.lft.to/lastmile_qr_scan", "android": "https://dc.lft.to/lastmile_qr_scan"}, "is_reserved": 0}, {"lon": -77.02735833333334, "bike_id": "2380d10006381230747d38756a015935", "lat": 38.897713333333336, "fusion_lon": 0.0, "fusion_lat": 0.0, "type": "electric_scooter", "name": "2380d10006381230747d38756a015935", "is_disabled": 0, "rental_uris": {"ios": "https://dc.lft.to/lastmile_qr_scan", "android": "https://dc.lft.to/lastmile_qr_scan"}, "is_reserved": 0}, {"lon": -77.02348633333334, "bike_id": "2e54c153c3d74eee60222d8c8f5e5f9b", "lat": 38.896160333333334, "fusion_lon": 0.0, "fusion_lat": 0.0, "type": "electric_scooter", "name": "2e54c153c3d74eee60222d8c8f5e5f9b", "is_disabled": 0, "rental_uris": {"ios": "https://dc.lft.to/lastmile_qr_scan", "android": "https://dc.lft.to/lastmile_qr_scan"}, "is_reserved": 0}, {"lon": -76.99469583333334, "bike_id": "c7dc94c04403a456c82b9bde4a25b9fe", "lat": 38.94072, "fusion_lon": 0.0, "fusion_lat": 0.0, "type": "electric_bike", "name": "c7dc94c04403a456c82b9bde4a25b9fe", "is_disabled": 0, "rental_uris": {"ios": "https://dc.lft.to/lastmile_qr_scan", "android": "https://dc.lft.to/lastmile_qr_scan"}, "is_reserved": 0}, {"lon": -77.0307415, "bike_id": "abc528e0f634ff8a96b7b65faf6968d6", "lat": 38.880376166666665, "fusion_lon": 0.0, "fusion_lat": 0.0, "type": "electric_scooter", "name": "abc528e0f634ff8a96b7b65faf6968d6", "is_disabled": 0, "rental_uris": {"ios": "https://dc.lft.to/lastmile_qr_scan", "android": "https://dc.lft.to/lastmile_qr_scan"}, "is_reserved": 0}, {"lon": -77.02216216666666, "bike_id": "b45bb5ebc1e05a5592654f5de1c96523", "lat": 38.94094716666667, "fusion_lon": 0.0, "fusion_lat": 0.0, "type": "electric_scooter", "name": "b45bb5ebc1e05a5592654f5de1c96523", "is_disabled": 0, "rental_uris": {"ios": "https://dc.lft.to/lastmile_qr_scan", "android": "https://dc.lft.to/lastmile_qr_scan"}, "is_reserved": 0}, {"lon": -77.02081966666667, "bike_id": "8f39e8e42390e97a3856505e322c3964", "lat": 38.899885833333336, "fusion_lon": 0.0, "fusion_lat": 0.0, "type": "electric_scooter", "name": "8f39e8e42390e97a3856505e322c3964", "is_disabled": 0, "rental_uris": {"ios": "https://dc.lft.to/lastmile_qr_scan", "android": "https://dc.lft.to/lastmile_qr_scan"}, "is_reserved": 0}, {"lon": -76.98877633333333, "bike_id": "963110baf80e2fe9498fdd9d6d637ad5", "lat": 38.86663083333333, "fusion_lon": 0.0, "fusion_lat": 0.0, "type": "electric_scooter", "name": "963110baf80e2fe9498fdd9d6d637ad5", "is_disabled": 0, "rental_uris": {"ios": "https://dc.lft.to/lastmile_qr_scan", "android": "https://dc.lft.to/lastmile_qr_scan"}, "is_reserved": 0}, {"lon": -76.98712666666667, "bike_id": "3714a7086449b069f3e7cc112626adde", "lat": 38.86628116666667, "fusion_lon": 0.0, "fusion_lat": 0.0, "type": "electric_scooter", "name": "3714a7086449b069f3e7cc112626adde", "is_disabled": 0, "rental_uris": {"ios": "https://dc.lft.to/lastmile_qr_scan", "android": "https://dc.lft.to/lastmile_qr_scan"}, "is_reserved": 0}, {"lon": -77.07332616666666, "bike_id": "5963740bbbf1156e40051dff9eb6afe5", "lat": 38.92400416666667, "fusion_lon": 0.0, "fusion_lat": 0.0, "type": "electric_scooter", "name": "5963740bbbf1156e40051dff9eb6afe5", "is_disabled": 0, "rental_uris": {"ios": "https://dc.lft.to/lastmile_qr_scan", "android": "https://dc.lft.to/lastmile_qr_scan"}, "is_reserved": 0}, {"lon": -77.013711, "bike_id": "754320356c29dd205b363cb4174ccb37", "lat": 38.886751833333335, "fusion_lon": 0.0, "fusion_lat": 0.0, "type": "electric_scooter", "name": "754320356c29dd205b363cb4174ccb37", "is_disabled": 0, "rental_uris": {"ios": "https://dc.lft.to/lastmile_qr_scan", "android": "https://dc.lft.to/lastmile_qr_scan"}, "is_reserved": 0}, {"lon": -77.0097225, "bike_id": "a525fb2d7fc6881ccbd6ecf44419cfef", "lat": 38.894841666666665, "fusion_lon": 0.0, "fusion_lat": 0.0, "type": "electric_scooter", "name": "a525fb2d7fc6881ccbd6ecf44419cfef", "is_disabled": 0, "rental_uris": {"ios": "https://dc.lft.to/lastmile_qr_scan", "android": "https://dc.lft.to/lastmile_qr_scan"}, "is_reserved": 0}, {"lon": -77.0743225, "bike_id": "e95992aa21cecf51f71f09ef3d097e6c", "lat": 38.99946766666667, "fusion_lon": 0.0, "fusion_lat": 0.0, "type": "electric_bike", "name": "e95992aa21cecf51f71f09ef3d097e6c", "is_disabled": 0, "rental_uris": {"ios": "https://dc.lft.to/lastmile_qr_scan", "android": "https://dc.lft.to/lastmile_qr_scan"}, "is_reserved": 0}, {"lon": -77.03320233333334, "bike_id": "80a26e19ed7bd9692c5d922d06245f57", "lat": 38.91976233333333, "fusion_lon": 0.0, "fusion_lat": 0.0, "type": "electric_scooter", "name": "80a26e19ed7bd9692c5d922d06245f57", "is_disabled": 0, "rental_uris": {"ios": "https://dc.lft.to/lastmile_qr_scan", "android": "https://dc.lft.to/lastmile_qr_scan"}, "is_reserved": 0}, {"lon": -77.0402195, "bike_id": "8d781772ffd85eec547f313666cfae43", "lat": 38.923947, "fusion_lon": 0.0, "fusion_lat": 0.0, "type": "electric_scooter", "name": "8d781772ffd85eec547f313666cfae43", "is_disabled": 0, "rental_uris": {"ios": "https://dc.lft.to/lastmile_qr_scan", "android": "https://dc.lft.to/lastmile_qr_scan"}, "is_reserved": 0}, {"lon": -76.983438, "bike_id": "2aa04e9d8814918f1fb065641094e239", "lat": 38.90451016666667, "fusion_lon": 0.0, "fusion_lat": 0.0, "type": "electric_scooter", "name": "2aa04e9d8814918f1fb065641094e239", "is_disabled": 0, "rental_uris": {"ios": "https://dc.lft.to/lastmile_qr_scan", "android": "https://dc.lft.to/lastmile_qr_scan"}, "is_reserved": 0}, {"lon": -77.02186566666667, "bike_id": "d97ae208a9e6cc7a340c6e7733507309", "lat": 38.907041666666665, "fusion_lon": 0.0, "fusion_lat": 0.0, "type": "electric_bike", "name": "d97ae208a9e6cc7a340c6e7733507309", "is_disabled": 0, "rental_uris": {"ios": "https://dc.lft.to/lastmile_qr_scan", "android": "https://dc.lft.to/lastmile_qr_scan"}, "is_reserved": 0}, {"lon": -77.058664, "bike_id": "2162594640de5fa5280d2baf7ae67555", "lat": 38.93607983333333, "fusion_lon": 0.0, "fusion_lat": 0.0, "type": "electric_scooter", "name": "2162594640de5fa5280d2baf7ae67555", "is_disabled": 0, "rental_uris": {"ios": "https://dc.lft.to/lastmile_qr_scan", "android": "https://dc.lft.to/lastmile_qr_scan"}, "is_reserved": 0}, {"lon": -76.9492265, "bike_id": "a2ea24bf07f6b81da60b5c5ce37c1f41", "lat": 38.8935455, "fusion_lon": 0.0, "fusion_lat": 0.0, "type": "electric_scooter", "name": "a2ea24bf07f6b81da60b5c5ce37c1f41", "is_disabled": 0, "rental_uris": {"ios": "https://dc.lft.to/lastmile_qr_scan", "android": "https://dc.lft.to/lastmile_qr_scan"}, "is_reserved": 0}, {"lon": -77.00014783333333, "bike_id": "55c8491bbebdb804405e1d3412307e73", "lat": 38.91978666666667, "fusion_lon": 0.0, "fusion_lat": 0.0, "type": "electric_scooter", "name": "55c8491bbebdb804405e1d3412307e73", "is_disabled": 0, "rental_uris": {"ios": "https://dc.lft.to/lastmile_qr_scan", "android": "https://dc.lft.to/lastmile_qr_scan"}, "is_reserved": 0}, {"lon": -77.0202965, "bike_id": "139a4553c19d73608250f87959ba6b52", "lat": 38.92439916666667, "fusion_lon": 0.0, "fusion_lat": 0.0, "type": "electric_scooter", "name": "139a4553c19d73608250f87959ba6b52", "is_disabled": 0, "rental_uris": {"ios": "https://dc.lft.to/lastmile_qr_scan", "android": "https://dc.lft.to/lastmile_qr_scan"}, "is_reserved": 0}, {"lon": -77.02186933333333, "bike_id": "3426c816a665a42835e55a2e12203c54", "lat": 38.90031283333333, "fusion_lon": 0.0, "fusion_lat": 0.0, "type": "electric_scooter", "name": "3426c816a665a42835e55a2e12203c54", "is_disabled": 0, "rental_uris": {"ios": "https://dc.lft.to/lastmile_qr_scan", "android": "https://dc.lft.to/lastmile_qr_scan"}, "is_reserved": 0}, {"lon": -77.02009183333334, "bike_id": "ea3b7190ab711571fd691edc09e020b1", "lat": 38.924111333333336, "fusion_lon": 0.0, "fusion_lat": 0.0, "type": "electric_scooter", "name": "ea3b7190ab711571fd691edc09e020b1", "is_disabled": 0, "rental_uris": {"ios": "https://dc.lft.to/lastmile_qr_scan", "android": "https://dc.lft.to/lastmile_qr_scan"}, "is_reserved": 0}, {"lon": -76.98946866666667, "bike_id": "f3d3682f99ad1ceaaaeaae9aa1b3684d", "lat": 38.9018305, "fusion_lon": 0.0, "fusion_lat": 0.0, "type": "electric_scooter", "name": "f3d3682f99ad1ceaaaeaae9aa1b3684d", "is_disabled": 0, "rental_uris": {"ios": "https://dc.lft.to/lastmile_qr_scan", "android": "https://dc.lft.to/lastmile_qr_scan"}, "is_reserved": 0}, {"lon": -77.02684433333333, "bike_id": "53a7ed0b4d3d7f86f459d840bd9d8352", "lat": 38.897644, "fusion_lon": 0.0, "fusion_lat": 0.0, "type": "electric_scooter", "name": "53a7ed0b4d3d7f86f459d840bd9d8352", "is_disabled": 0, "rental_uris": {"ios": "https://dc.lft.to/lastmile_qr_scan", "android": "https://dc.lft.to/lastmile_qr_scan"}, "is_reserved": 0}, {"lon": -76.93731466666667, "bike_id": "0afcd607356154f96ef85d9a73b8e200", "lat": 38.890130166666665, "fusion_lon": 0.0, "fusion_lat": 0.0, "type": "electric_scooter", "name": "0afcd607356154f96ef85d9a73b8e200", "is_disabled": 0, "rental_uris": {"ios": "https://dc.lft.to/lastmile_qr_scan", "android": "https://dc.lft.to/lastmile_qr_scan"}, "is_reserved": 0}, {"lon": -77.021582, "bike_id": "900934263b6783fe2811528184f45a8d", "lat": 38.897116833333335, "fusion_lon": 0.0, "fusion_lat": 0.0, "type": "electric_scooter", "name": "900934263b6783fe2811528184f45a8d", "is_disabled": 0, "rental_uris": {"ios": "https://dc.lft.to/lastmile_qr_scan", "android": "https://dc.lft.to/lastmile_qr_scan"}, "is_reserved": 0}, {"lon": -77.02578433333333, "bike_id": "045f695d5329e9c01055564f5df88eb3", "lat": 38.905736833333336, "fusion_lon": 0.0, "fusion_lat": 0.0, "type": "electric_scooter", "name": "045f695d5329e9c01055564f5df88eb3", "is_disabled": 0, "rental_uris": {"ios": "https://dc.lft.to/lastmile_qr_scan", "android": "https://dc.lft.to/lastmile_qr_scan"}, "is_reserved": 0}, {"lon": -77.02209133333334, "bike_id": "ae06bb66af0cc14de7ac6dc60bb8af7e", "lat": 38.893552166666666, "fusion_lon": 0.0, "fusion_lat": 0.0, "type": "electric_scooter", "name": "ae06bb66af0cc14de7ac6dc60bb8af7e", "is_disabled": 0, "rental_uris": {"ios": "https://dc.lft.to/lastmile_qr_scan", "android": "https://dc.lft.to/lastmile_qr_scan"}, "is_reserved": 0}, {"lon": -77.05025183333333, "bike_id": "c6d591a9b93d85f4ba8cb767904569ac", "lat": 38.901552, "fusion_lon": 0.0, "fusion_lat": 0.0, "type": "electric_scooter", "name": "c6d591a9b93d85f4ba8cb767904569ac", "is_disabled": 0, "rental_uris": {"ios": "https://dc.lft.to/lastmile_qr_scan", "android": "https://dc.lft.to/lastmile_qr_scan"}, "is_reserved": 0}, {"lon": -76.95750916666667, "bike_id": "993938f897a01e55fc01c2dbc446223c", "lat": 38.884259666666665, "fusion_lon": 0.0, "fusion_lat": 0.0, "type": "electric_scooter", "name": "993938f897a01e55fc01c2dbc446223c", "is_disabled": 0, "rental_uris": {"ios": "https://dc.lft.to/lastmile_qr_scan", "android": "https://dc.lft.to/lastmile_qr_scan"}, "is_reserved": 0}, {"lon": -77.01977133333334, "bike_id": "db04f84a1be4b94ee5049d3544e6a562", "lat": 38.935881333333334, "fusion_lon": 0.0, "fusion_lat": 0.0, "type": "electric_scooter", "name": "db04f84a1be4b94ee5049d3544e6a562", "is_disabled": 0, "rental_uris": {"ios": "https://dc.lft.to/lastmile_qr_scan", "android": "https://dc.lft.to/lastmile_qr_scan"}, "is_reserved": 0}, {"lon": -77.04283716666667, "bike_id": "701121eafb383d3906495e4b6bc159e5", "lat": 38.91569283333333, "fusion_lon": 0.0, "fusion_lat": 0.0, "type": "electric_scooter", "name": "701121eafb383d3906495e4b6bc159e5", "is_disabled": 0, "rental_uris": {"ios": "https://dc.lft.to/lastmile_qr_scan", "android": "https://dc.lft.to/lastmile_qr_scan"}, "is_reserved": 0}, {"lon": -76.98552016666666, "bike_id": "c63900a3fed0b37404f68de42f574b04", "lat": 38.89620633333333, "fusion_lon": 0.0, "fusion_lat": 0.0, "type": "electric_scooter", "name": "c63900a3fed0b37404f68de42f574b04", "is_disabled": 0, "rental_uris": {"ios": "https://dc.lft.to/lastmile_qr_scan", "android": "https://dc.lft.to/lastmile_qr_scan"}, "is_reserved": 0}, {"lon": -77.02085483333333, "bike_id": "be07f1840485abdfdea3ea6347d44315", "lat": 38.9269395, "fusion_lon": 0.0, "fusion_lat": 0.0, "type": "electric_scooter", "name": "be07f1840485abdfdea3ea6347d44315", "is_disabled": 0, "rental_uris": {"ios": "https://dc.lft.to/lastmile_qr_scan", "android": "https://dc.lft.to/lastmile_qr_scan"}, "is_reserved": 0}, {"lon": -77.03040083333333, "bike_id": "4474161a856b44ecae12b9a205896167", "lat": 38.878353, "fusion_lon": 0.0, "fusion_lat": 0.0, "type": "electric_scooter", "name": "4474161a856b44ecae12b9a205896167", "is_disabled": 0, "rental_uris": {"ios": "https://dc.lft.to/lastmile_qr_scan", "android": "https://dc.lft.to/lastmile_qr_scan"}, "is_reserved": 0}, {"lon": -76.9900015, "bike_id": "46914d1babaaa29a6210c488727f42d5", "lat": 38.8650505, "fusion_lon": 0.0, "fusion_lat": 0.0, "type": "electric_scooter", "name": "46914d1babaaa29a6210c488727f42d5", "is_disabled": 0, "rental_uris": {"ios": "https://dc.lft.to/lastmile_qr_scan", "android": "https://dc.lft.to/lastmile_qr_scan"}, "is_reserved": 0}, {"lon": -77.0258035, "bike_id": "ce5761274125e233af6acc0c8bc3f9c3", "lat": 38.88736816666667, "fusion_lon": 0.0, "fusion_lat": 0.0, "type": "electric_scooter", "name": "ce5761274125e233af6acc0c8bc3f9c3", "is_disabled": 0, "rental_uris": {"ios": "https://dc.lft.to/lastmile_qr_scan", "android": "https://dc.lft.to/lastmile_qr_scan"}, "is_reserved": 0}, {"lon": -76.9901815, "bike_id": "e51c6437770492c98b45a0da43a396ff", "lat": 38.88160083333333, "fusion_lon": 0.0, "fusion_lat": 0.0, "type": "electric_scooter", "name": "e51c6437770492c98b45a0da43a396ff", "is_disabled": 0, "rental_uris": {"ios": "https://dc.lft.to/lastmile_qr_scan", "android": "https://dc.lft.to/lastmile_qr_scan"}, "is_reserved": 0}, {"lon": -77.0385665, "bike_id": "28077ee83e86e682ff8c3719a4a28b07", "lat": 38.91784233333333, "fusion_lon": 0.0, "fusion_lat": 0.0, "type": "electric_scooter", "name": "28077ee83e86e682ff8c3719a4a28b07", "is_disabled": 0, "rental_uris": {"ios": "https://dc.lft.to/lastmile_qr_scan", "android": "https://dc.lft.to/lastmile_qr_scan"}, "is_reserved": 0}, {"lon": -77.0544885, "bike_id": "0fd4f34513355dd443cbdb7d51a3f9df", "lat": 38.94359766666667, "fusion_lon": 0.0, "fusion_lat": 0.0, "type": "electric_bike", "name": "0fd4f34513355dd443cbdb7d51a3f9df", "is_disabled": 0, "rental_uris": {"ios": "https://dc.lft.to/lastmile_qr_scan", "android": "https://dc.lft.to/lastmile_qr_scan"}, "is_reserved": 0}, {"lon": -77.019393, "bike_id": "9b444ee4f443d19b6808239320f6837f", "lat": 38.93686133333333, "fusion_lon": 0.0, "fusion_lat": 0.0, "type": "electric_scooter", "name": "9b444ee4f443d19b6808239320f6837f", "is_disabled": 0, "rental_uris": {"ios": "https://dc.lft.to/lastmile_qr_scan", "android": "https://dc.lft.to/lastmile_qr_scan"}, "is_reserved": 0}, {"lon": -76.99534716666666, "bike_id": "13c8d2ac50b1e809b02900214c17f5ba", "lat": 38.8836585, "fusion_lon": 0.0, "fusion_lat": 0.0, "type": "electric_scooter", "name": "13c8d2ac50b1e809b02900214c17f5ba", "is_disabled": 0, "rental_uris": {"ios": "https://dc.lft.to/lastmile_qr_scan", "android": "https://dc.lft.to/lastmile_qr_scan"}, "is_reserved": 0}, {"lon": -76.9318805, "bike_id": "37dbe4158e84a616df69201ef363209c", "lat": 38.89877083333333, "fusion_lon": 0.0, "fusion_lat": 0.0, "type": "electric_scooter", "name": "37dbe4158e84a616df69201ef363209c", "is_disabled": 0, "rental_uris": {"ios": "https://dc.lft.to/lastmile_qr_scan", "android": "https://dc.lft.to/lastmile_qr_scan"}, "is_reserved": 0}, {"lon": -77.04694016666667, "bike_id": "750a6adb270dbb6d9db9847f32d91145", "lat": 38.920627333333336, "fusion_lon": 0.0, "fusion_lat": 0.0, "type": "electric_scooter", "name": "750a6adb270dbb6d9db9847f32d91145", "is_disabled": 0, "rental_uris": {"ios": "https://dc.lft.to/lastmile_qr_scan", "android": "https://dc.lft.to/lastmile_qr_scan"}, "is_reserved": 0}, {"lon": -76.9854055, "bike_id": "6600d591c2bbdd0abd9c57a71c66a9de", "lat": 38.89659416666667, "fusion_lon": 0.0, "fusion_lat": 0.0, "type": "electric_scooter", "name": "6600d591c2bbdd0abd9c57a71c66a9de", "is_disabled": 0, "rental_uris": {"ios": "https://dc.lft.to/lastmile_qr_scan", "android": "https://dc.lft.to/lastmile_qr_scan"}, "is_reserved": 0}, {"lon": -77.02309033333333, "bike_id": "a2ccc5126c9a6c3ccd504256d80314c6", "lat": 38.927451166666664, "fusion_lon": 0.0, "fusion_lat": 0.0, "type": "electric_scooter", "name": "a2ccc5126c9a6c3ccd504256d80314c6", "is_disabled": 0, "rental_uris": {"ios": "https://dc.lft.to/lastmile_qr_scan", "android": "https://dc.lft.to/lastmile_qr_scan"}, "is_reserved": 0}, {"lon": -77.05268166666667, "bike_id": "53564abe16e55059d76c06b4b702ca80", "lat": 38.899728, "fusion_lon": 0.0, "fusion_lat": 0.0, "type": "electric_scooter", "name": "53564abe16e55059d76c06b4b702ca80", "is_disabled": 0, "rental_uris": {"ios": "https://dc.lft.to/lastmile_qr_scan", "android": "https://dc.lft.to/lastmile_qr_scan"}, "is_reserved": 0}, {"lon": -77.03658, "bike_id": "62d9fe8f91934fcfb6b514cfb07d1eb5", "lat": 38.9182025, "fusion_lon": 0.0, "fusion_lat": 0.0, "type": "electric_scooter", "name": "62d9fe8f91934fcfb6b514cfb07d1eb5", "is_disabled": 0, "rental_uris": {"ios": "https://dc.lft.to/lastmile_qr_scan", "android": "https://dc.lft.to/lastmile_qr_scan"}, "is_reserved": 0}, {"lon": -77.05359466666667, "bike_id": "47ac382b6db5d9b3f2184579e39d838f", "lat": 38.92730433333333, "fusion_lon": 0.0, "fusion_lat": 0.0, "type": "electric_scooter", "name": "47ac382b6db5d9b3f2184579e39d838f", "is_disabled": 0, "rental_uris": {"ios": "https://dc.lft.to/lastmile_qr_scan", "android": "https://dc.lft.to/lastmile_qr_scan"}, "is_reserved": 0}, {"lon": -77.03176266666667, "bike_id": "e8295652f3153108860c423798022f7e", "lat": 38.892243, "fusion_lon": 0.0, "fusion_lat": 0.0, "type": "electric_scooter", "name": "e8295652f3153108860c423798022f7e", "is_disabled": 0, "rental_uris": {"ios": "https://dc.lft.to/lastmile_qr_scan", "android": "https://dc.lft.to/lastmile_qr_scan"}, "is_reserved": 0}, {"lon": -77.05724233333333, "bike_id": "2bb52d924af765d0260d507493ded816", "lat": 38.933687666666664, "fusion_lon": 0.0, "fusion_lat": 0.0, "type": "electric_scooter", "name": "2bb52d924af765d0260d507493ded816", "is_disabled": 0, "rental_uris": {"ios": "https://dc.lft.to/lastmile_qr_scan", "android": "https://dc.lft.to/lastmile_qr_scan"}, "is_reserved": 0}, {"lon": -77.04006716666666, "bike_id": "2f4a8119b3028226343649b8705dafb7", "lat": 38.91003083333333, "fusion_lon": 0.0, "fusion_lat": 0.0, "type": "electric_scooter", "name": "2f4a8119b3028226343649b8705dafb7", "is_disabled": 0, "rental_uris": {"ios": "https://dc.lft.to/lastmile_qr_scan", "android": "https://dc.lft.to/lastmile_qr_scan"}, "is_reserved": 0}, {"lon": -76.99834483333333, "bike_id": "8ed0f0ff3ec5272c2d45a5a28ef99060", "lat": 38.90007283333333, "fusion_lon": 0.0, "fusion_lat": 0.0, "type": "electric_scooter", "name": "8ed0f0ff3ec5272c2d45a5a28ef99060", "is_disabled": 0, "rental_uris": {"ios": "https://dc.lft.to/lastmile_qr_scan", "android": "https://dc.lft.to/lastmile_qr_scan"}, "is_reserved": 0}, {"lon": -77.04813566666667, "bike_id": "d51c1068a7f7a015f1e5adcc312990be", "lat": 38.897405666666664, "fusion_lon": 0.0, "fusion_lat": 0.0, "type": "electric_scooter", "name": "d51c1068a7f7a015f1e5adcc312990be", "is_disabled": 0, "rental_uris": {"ios": "https://dc.lft.to/lastmile_qr_scan", "android": "https://dc.lft.to/lastmile_qr_scan"}, "is_reserved": 0}, {"lon": -76.98841133333333, "bike_id": "7353491bae30a4d3cceaa39835c52e67", "lat": 38.8428165, "fusion_lon": 0.0, "fusion_lat": 0.0, "type": "electric_bike", "name": "7353491bae30a4d3cceaa39835c52e67", "is_disabled": 0, "rental_uris": {"ios": "https://dc.lft.to/lastmile_qr_scan", "android": "https://dc.lft.to/lastmile_qr_scan"}, "is_reserved": 0}, {"lon": -77.02165333333333, "bike_id": "8c54c0a7858e7935988d3b2a551ae8a3", "lat": 38.930847666666665, "fusion_lon": 0.0, "fusion_lat": 0.0, "type": "electric_scooter", "name": "8c54c0a7858e7935988d3b2a551ae8a3", "is_disabled": 0, "rental_uris": {"ios": "https://dc.lft.to/lastmile_qr_scan", "android": "https://dc.lft.to/lastmile_qr_scan"}, "is_reserved": 0}, {"lon": -77.01268933333333, "bike_id": "fe5ef3a4b8da7b74c31eb87aa012f487", "lat": 38.86455766666667, "fusion_lon": 0.0, "fusion_lat": 0.0, "type": "electric_scooter", "name": "fe5ef3a4b8da7b74c31eb87aa012f487", "is_disabled": 0, "rental_uris": {"ios": "https://dc.lft.to/lastmile_qr_scan", "android": "https://dc.lft.to/lastmile_qr_scan"}, "is_reserved": 0}, {"lon": -77.0384105, "bike_id": "495c53ec016b33df20ad52c71980a3c1", "lat": 38.914680833333335, "fusion_lon": 0.0, "fusion_lat": 0.0, "type": "electric_scooter", "name": "495c53ec016b33df20ad52c71980a3c1", "is_disabled": 0, "rental_uris": {"ios": "https://dc.lft.to/lastmile_qr_scan", "android": "https://dc.lft.to/lastmile_qr_scan"}, "is_reserved": 0}, {"lon": -77.03264533333333, "bike_id": "ec74492f6b7cb36a90b86814d9ba0f53", "lat": 38.91996983333333, "fusion_lon": 0.0, "fusion_lat": 0.0, "type": "electric_scooter", "name": "ec74492f6b7cb36a90b86814d9ba0f53", "is_disabled": 0, "rental_uris": {"ios": "https://dc.lft.to/lastmile_qr_scan", "android": "https://dc.lft.to/lastmile_qr_scan"}, "is_reserved": 0}, {"lon": -76.97237466666667, "bike_id": "7095716784e00a0465f727a9f3acf02e", "lat": 38.90345466666667, "fusion_lon": 0.0, "fusion_lat": 0.0, "type": "electric_scooter", "name": "7095716784e00a0465f727a9f3acf02e", "is_disabled": 0, "rental_uris": {"ios": "https://dc.lft.to/lastmile_qr_scan", "android": "https://dc.lft.to/lastmile_qr_scan"}, "is_reserved": 0}, {"lon": -77.07240466666667, "bike_id": "efdb69d727bc5905ef76679ef206c866", "lat": 38.898846666666664, "fusion_lon": 0.0, "fusion_lat": 0.0, "type": "electric_scooter", "name": "efdb69d727bc5905ef76679ef206c866", "is_disabled": 0, "rental_uris": {"ios": "https://dc.lft.to/lastmile_qr_scan", "android": "https://dc.lft.to/lastmile_qr_scan"}, "is_reserved": 0}, {"lon": -77.04917833333333, "bike_id": "2a1b9cc16277225fb81953f15440a19c", "lat": 38.90857966666667, "fusion_lon": 0.0, "fusion_lat": 0.0, "type": "electric_scooter", "name": "2a1b9cc16277225fb81953f15440a19c", "is_disabled": 0, "rental_uris": {"ios": "https://dc.lft.to/lastmile_qr_scan", "android": "https://dc.lft.to/lastmile_qr_scan"}, "is_reserved": 0}, {"lon": -77.04600783333333, "bike_id": "fecf00044bab5adc75ceb2a58c094fb7", "lat": 38.85307666666667, "fusion_lon": 0.0, "fusion_lat": 0.0, "type": "electric_bike", "name": "fecf00044bab5adc75ceb2a58c094fb7", "is_disabled": 0, "rental_uris": {"ios": "https://dc.lft.to/lastmile_qr_scan", "android": "https://dc.lft.to/lastmile_qr_scan"}, "is_reserved": 0}, {"lon": -77.02307933333333, "bike_id": "c05d906386e7f96a08cf9c0cde96ad9b", "lat": 38.942068, "fusion_lon": 0.0, "fusion_lat": 0.0, "type": "electric_scooter", "name": "c05d906386e7f96a08cf9c0cde96ad9b", "is_disabled": 0, "rental_uris": {"ios": "https://dc.lft.to/lastmile_qr_scan", "android": "https://dc.lft.to/lastmile_qr_scan"}, "is_reserved": 0}, {"lon": -77.00048233333334, "bike_id": "49526152c2efaf3279a8a11d06d95fdf", "lat": 38.923986166666666, "fusion_lon": 0.0, "fusion_lat": 0.0, "type": "electric_scooter", "name": "49526152c2efaf3279a8a11d06d95fdf", "is_disabled": 0, "rental_uris": {"ios": "https://dc.lft.to/lastmile_qr_scan", "android": "https://dc.lft.to/lastmile_qr_scan"}, "is_reserved": 0}, {"lon": -77.0218435, "bike_id": "bc685b0d7e2ba80c1bf3accc984d9d7f", "lat": 38.90953716666667, "fusion_lon": 0.0, "fusion_lat": 0.0, "type": "electric_scooter", "name": "bc685b0d7e2ba80c1bf3accc984d9d7f", "is_disabled": 0, "rental_uris": {"ios": "https://dc.lft.to/lastmile_qr_scan", "android": "https://dc.lft.to/lastmile_qr_scan"}, "is_reserved": 0}, {"lon": -77.03345283333333, "bike_id": "81560e11991a070854ddc46e0ac374ed", "lat": 38.9351315, "fusion_lon": 0.0, "fusion_lat": 0.0, "type": "electric_scooter", "name": "81560e11991a070854ddc46e0ac374ed", "is_disabled": 0, "rental_uris": {"ios": "https://dc.lft.to/lastmile_qr_scan", "android": "https://dc.lft.to/lastmile_qr_scan"}, "is_reserved": 0}, {"lon": -76.98242666666667, "bike_id": "5a406c8420e7c384f86bdb7d0a241bf6", "lat": 38.8646235, "fusion_lon": 0.0, "fusion_lat": 0.0, "type": "electric_scooter", "name": "5a406c8420e7c384f86bdb7d0a241bf6", "is_disabled": 0, "rental_uris": {"ios": "https://dc.lft.to/lastmile_qr_scan", "android": "https://dc.lft.to/lastmile_qr_scan"}, "is_reserved": 0}, {"lon": -76.99918716666667, "bike_id": "b5c65dd7f0269f619364a507d82da271", "lat": 38.889723000000004, "fusion_lon": 0.0, "fusion_lat": 0.0, "type": "electric_scooter", "name": "b5c65dd7f0269f619364a507d82da271", "is_disabled": 0, "rental_uris": {"ios": "https://dc.lft.to/lastmile_qr_scan", "android": "https://dc.lft.to/lastmile_qr_scan"}, "is_reserved": 0}, {"lon": -77.04699833333333, "bike_id": "91ed228ffb2d0ddd3bca096cb00799af", "lat": 38.919053166666664, "fusion_lon": 0.0, "fusion_lat": 0.0, "type": "electric_scooter", "name": "91ed228ffb2d0ddd3bca096cb00799af", "is_disabled": 0, "rental_uris": {"ios": "https://dc.lft.to/lastmile_qr_scan", "android": "https://dc.lft.to/lastmile_qr_scan"}, "is_reserved": 0}, {"lon": -77.04700533333333, "bike_id": "fde64fa87e3b739b7a0fa81e1e64ced2", "lat": 38.92058633333333, "fusion_lon": 0.0, "fusion_lat": 0.0, "type": "electric_scooter", "name": "fde64fa87e3b739b7a0fa81e1e64ced2", "is_disabled": 0, "rental_uris": {"ios": "https://dc.lft.to/lastmile_qr_scan", "android": "https://dc.lft.to/lastmile_qr_scan"}, "is_reserved": 0}, {"lon": -77.03668566666667, "bike_id": "ee6d2892873030a77317052cb958d33d", "lat": 38.933407, "fusion_lon": 0.0, "fusion_lat": 0.0, "type": "electric_scooter", "name": "ee6d2892873030a77317052cb958d33d", "is_disabled": 0, "rental_uris": {"ios": "https://dc.lft.to/lastmile_qr_scan", "android": "https://dc.lft.to/lastmile_qr_scan"}, "is_reserved": 0}, {"lon": -76.94936383333334, "bike_id": "25e8b94aae302a2e22cd6675bbb27ba3", "lat": 38.903751166666666, "fusion_lon": 0.0, "fusion_lat": 0.0, "type": "electric_scooter", "name": "25e8b94aae302a2e22cd6675bbb27ba3", "is_disabled": 0, "rental_uris": {"ios": "https://dc.lft.to/lastmile_qr_scan", "android": "https://dc.lft.to/lastmile_qr_scan"}, "is_reserved": 0}, {"lon": -76.98107183333333, "bike_id": "d6132c4449d4b7791e4df1e01275c104", "lat": 38.8773305, "fusion_lon": 0.0, "fusion_lat": 0.0, "type": "electric_bike", "name": "d6132c4449d4b7791e4df1e01275c104", "is_disabled": 0, "rental_uris": {"ios": "https://dc.lft.to/lastmile_qr_scan", "android": "https://dc.lft.to/lastmile_qr_scan"}, "is_reserved": 0}, {"lon": -77.03263233333334, "bike_id": "51ad8dd9c6701c352000033beb456fc9", "lat": 38.9323355, "fusion_lon": 0.0, "fusion_lat": 0.0, "type": "electric_scooter", "name": "51ad8dd9c6701c352000033beb456fc9", "is_disabled": 0, "rental_uris": {"ios": "https://dc.lft.to/lastmile_qr_scan", "android": "https://dc.lft.to/lastmile_qr_scan"}, "is_reserved": 0}, {"lon": -77.00188083333333, "bike_id": "bdc0e925c1920d06e6348e0401f65d6a", "lat": 38.894788, "fusion_lon": 0.0, "fusion_lat": 0.0, "type": "electric_scooter", "name": "bdc0e925c1920d06e6348e0401f65d6a", "is_disabled": 0, "rental_uris": {"ios": "https://dc.lft.to/lastmile_qr_scan", "android": "https://dc.lft.to/lastmile_qr_scan"}, "is_reserved": 0}, {"lon": -76.99786766666666, "bike_id": "8c57410c355ef67876059a91d516e33d", "lat": 38.890973, "fusion_lon": 0.0, "fusion_lat": 0.0, "type": "electric_scooter", "name": "8c57410c355ef67876059a91d516e33d", "is_disabled": 0, "rental_uris": {"ios": "https://dc.lft.to/lastmile_qr_scan", "android": "https://dc.lft.to/lastmile_qr_scan"}, "is_reserved": 0}, {"lon": -77.02689833333334, "bike_id": "f6fa677f51a426f6a292b6b5a6dbf91e", "lat": 38.904011, "fusion_lon": 0.0, "fusion_lat": 0.0, "type": "electric_scooter", "name": "f6fa677f51a426f6a292b6b5a6dbf91e", "is_disabled": 0, "rental_uris": {"ios": "https://dc.lft.to/lastmile_qr_scan", "android": "https://dc.lft.to/lastmile_qr_scan"}, "is_reserved": 0}, {"lon": -76.998762, "bike_id": "fd08809ecb0c389027e4a8c16201ae1c", "lat": 38.900220833333336, "fusion_lon": 0.0, "fusion_lat": 0.0, "type": "electric_scooter", "name": "fd08809ecb0c389027e4a8c16201ae1c", "is_disabled": 0, "rental_uris": {"ios": "https://dc.lft.to/lastmile_qr_scan", "android": "https://dc.lft.to/lastmile_qr_scan"}, "is_reserved": 0}, {"lon": -77.00240833333334, "bike_id": "dcac056b6972016e06fc123a47b07a84", "lat": 38.885106666666665, "fusion_lon": 0.0, "fusion_lat": 0.0, "type": "electric_scooter", "name": "dcac056b6972016e06fc123a47b07a84", "is_disabled": 0, "rental_uris": {"ios": "https://dc.lft.to/lastmile_qr_scan", "android": "https://dc.lft.to/lastmile_qr_scan"}, "is_reserved": 0}, {"lon": -77.0365435, "bike_id": "d8ada3eb1514e8ea9e29d4ed6c144fb7", "lat": 38.933277833333335, "fusion_lon": 0.0, "fusion_lat": 0.0, "type": "electric_scooter", "name": "d8ada3eb1514e8ea9e29d4ed6c144fb7", "is_disabled": 0, "rental_uris": {"ios": "https://dc.lft.to/lastmile_qr_scan", "android": "https://dc.lft.to/lastmile_qr_scan"}, "is_reserved": 0}, {"lon": -77.00956783333334, "bike_id": "f3caf5c393b99a85fed57f4fbd4da10a", "lat": 38.921394166666666, "fusion_lon": 0.0, "fusion_lat": 0.0, "type": "electric_scooter", "name": "f3caf5c393b99a85fed57f4fbd4da10a", "is_disabled": 0, "rental_uris": {"ios": "https://dc.lft.to/lastmile_qr_scan", "android": "https://dc.lft.to/lastmile_qr_scan"}, "is_reserved": 0}, {"lon": -77.02712633333333, "bike_id": "6827633490d9a23c5a60c746058126d5", "lat": 38.89768816666667, "fusion_lon": 0.0, "fusion_lat": 0.0, "type": "electric_scooter", "name": "6827633490d9a23c5a60c746058126d5", "is_disabled": 0, "rental_uris": {"ios": "https://dc.lft.to/lastmile_qr_scan", "android": "https://dc.lft.to/lastmile_qr_scan"}, "is_reserved": 0}, {"lon": -77.04156266666666, "bike_id": "c8d05c96c5407d83229b697455e22b05", "lat": 38.90755466666667, "fusion_lon": 0.0, "fusion_lat": 0.0, "type": "electric_scooter", "name": "c8d05c96c5407d83229b697455e22b05", "is_disabled": 0, "rental_uris": {"ios": "https://dc.lft.to/lastmile_qr_scan", "android": "https://dc.lft.to/lastmile_qr_scan"}, "is_reserved": 0}, {"lon": -77.04275183333333, "bike_id": "0db6dc2b05efc8cf432c4e1b391fc51c", "lat": 38.9074575, "fusion_lon": 0.0, "fusion_lat": 0.0, "type": "electric_scooter", "name": "0db6dc2b05efc8cf432c4e1b391fc51c", "is_disabled": 0, "rental_uris": {"ios": "https://dc.lft.to/lastmile_qr_scan", "android": "https://dc.lft.to/lastmile_qr_scan"}, "is_reserved": 0}, {"lon": -77.05312783333333, "bike_id": "ac90cf0437636e53c5ff3b211b7261cf", "lat": 38.900787666666666, "fusion_lon": 0.0, "fusion_lat": 0.0, "type": "electric_scooter", "name": "ac90cf0437636e53c5ff3b211b7261cf", "is_disabled": 0, "rental_uris": {"ios": "https://dc.lft.to/lastmile_qr_scan", "android": "https://dc.lft.to/lastmile_qr_scan"}, "is_reserved": 0}, {"lon": -77.04785283333334, "bike_id": "174b66093269e4edb20b4326904c5fd3", "lat": 38.82942116666667, "fusion_lon": 0.0, "fusion_lat": 0.0, "type": "electric_bike", "name": "174b66093269e4edb20b4326904c5fd3", "is_disabled": 0, "rental_uris": {"ios": "https://dc.lft.to/lastmile_qr_scan", "android": "https://dc.lft.to/lastmile_qr_scan"}, "is_reserved": 0}, {"lon": -77.023742, "bike_id": "e5c8d8a11d111e78d2ff81419515a316", "lat": 38.89219333333333, "fusion_lon": 0.0, "fusion_lat": 0.0, "type": "electric_scooter", "name": "e5c8d8a11d111e78d2ff81419515a316", "is_disabled": 0, "rental_uris": {"ios": "https://dc.lft.to/lastmile_qr_scan", "android": "https://dc.lft.to/lastmile_qr_scan"}, "is_reserved": 0}, {"lon": -76.9964745, "bike_id": "c04e9213f8ad66620c967b756bad8792", "lat": 38.98831716666667, "fusion_lon": 0.0, "fusion_lat": 0.0, "type": "electric_bike", "name": "c04e9213f8ad66620c967b756bad8792", "is_disabled": 0, "rental_uris": {"ios": "https://dc.lft.to/lastmile_qr_scan", "android": "https://dc.lft.to/lastmile_qr_scan"}, "is_reserved": 0}, {"lon": -76.9967525, "bike_id": "5d0f56a1c44b42e98ebac50a5ed43435", "lat": 38.860204, "fusion_lon": 0.0, "fusion_lat": 0.0, "type": "electric_scooter", "name": "5d0f56a1c44b42e98ebac50a5ed43435", "is_disabled": 0, "rental_uris": {"ios": "https://dc.lft.to/lastmile_qr_scan", "android": "https://dc.lft.to/lastmile_qr_scan"}, "is_reserved": 0}, {"lon": -77.0506225, "bike_id": "a57f51578160abd3a2dba905cfc244c4", "lat": 38.90719033333333, "fusion_lon": 0.0, "fusion_lat": 0.0, "type": "electric_scooter", "name": "a57f51578160abd3a2dba905cfc244c4", "is_disabled": 0, "rental_uris": {"ios": "https://dc.lft.to/lastmile_qr_scan", "android": "https://dc.lft.to/lastmile_qr_scan"}, "is_reserved": 0}, {"lon": -76.97517466666666, "bike_id": "de83f347a4ea1d5683a8ae23271ffe9c", "lat": 38.966967333333336, "fusion_lon": 0.0, "fusion_lat": 0.0, "type": "electric_bike", "name": "de83f347a4ea1d5683a8ae23271ffe9c", "is_disabled": 0, "rental_uris": {"ios": "https://dc.lft.to/lastmile_qr_scan", "android": "https://dc.lft.to/lastmile_qr_scan"}, "is_reserved": 0}, {"lon": -77.07101133333333, "bike_id": "74f06e91d8c1332e67f4eff9b725796b", "lat": 38.919725166666666, "fusion_lon": 0.0, "fusion_lat": 0.0, "type": "electric_scooter", "name": "74f06e91d8c1332e67f4eff9b725796b", "is_disabled": 0, "rental_uris": {"ios": "https://dc.lft.to/lastmile_qr_scan", "android": "https://dc.lft.to/lastmile_qr_scan"}, "is_reserved": 0}, {"lon": -77.0489055, "bike_id": "7d62ec12616633f4cb7c17266d6de2dd", "lat": 38.904052666666665, "fusion_lon": 0.0, "fusion_lat": 0.0, "type": "electric_scooter", "name": "7d62ec12616633f4cb7c17266d6de2dd", "is_disabled": 0, "rental_uris": {"ios": "https://dc.lft.to/lastmile_qr_scan", "android": "https://dc.lft.to/lastmile_qr_scan"}, "is_reserved": 0}, {"lon": -77.02082366666667, "bike_id": "52061ab6c215ac4730082fa94d2d9d74", "lat": 38.957482666666664, "fusion_lon": 0.0, "fusion_lat": 0.0, "type": "electric_scooter", "name": "52061ab6c215ac4730082fa94d2d9d74", "is_disabled": 0, "rental_uris": {"ios": "https://dc.lft.to/lastmile_qr_scan", "android": "https://dc.lft.to/lastmile_qr_scan"}, "is_reserved": 0}, {"lon": -76.98876966666667, "bike_id": "27f161509344089b616043f5f10e36e7", "lat": 38.86657, "fusion_lon": 0.0, "fusion_lat": 0.0, "type": "electric_scooter", "name": "27f161509344089b616043f5f10e36e7", "is_disabled": 0, "rental_uris": {"ios": "https://dc.lft.to/lastmile_qr_scan", "android": "https://dc.lft.to/lastmile_qr_scan"}, "is_reserved": 0}, {"lon": -76.99448233333334, "bike_id": "c4fe8178c241abf974db56d3cf8a4bfa", "lat": 38.86280216666667, "fusion_lon": 0.0, "fusion_lat": 0.0, "type": "electric_scooter", "name": "c4fe8178c241abf974db56d3cf8a4bfa", "is_disabled": 0, "rental_uris": {"ios": "https://dc.lft.to/lastmile_qr_scan", "android": "https://dc.lft.to/lastmile_qr_scan"}, "is_reserved": 0}, {"lon": -77.04050483333333, "bike_id": "817c282de4d56b7467fc642d28d5381d", "lat": 38.90858016666667, "fusion_lon": 0.0, "fusion_lat": 0.0, "type": "electric_bike", "name": "817c282de4d56b7467fc642d28d5381d", "is_disabled": 0, "rental_uris": {"ios": "https://dc.lft.to/lastmile_qr_scan", "android": "https://dc.lft.to/lastmile_qr_scan"}, "is_reserved": 0}, {"lon": -77.2332955, "bike_id": "b1280d2396741fd7e7eada96a3edd8fb", "lat": 38.872759333333335, "fusion_lon": 0.0, "fusion_lat": 0.0, "type": "electric_bike", "name": "b1280d2396741fd7e7eada96a3edd8fb", "is_disabled": 0, "rental_uris": {"ios": "https://dc.lft.to/lastmile_qr_scan", "android": "https://dc.lft.to/lastmile_qr_scan"}, "is_reserved": 0}, {"lon": -77.03073683333334, "bike_id": "3880931181adaa0ee53629a840e8ed37", "lat": 38.884047333333335, "fusion_lon": 0.0, "fusion_lat": 0.0, "type": "electric_scooter", "name": "3880931181adaa0ee53629a840e8ed37", "is_disabled": 0, "rental_uris": {"ios": "https://dc.lft.to/lastmile_qr_scan", "android": "https://dc.lft.to/lastmile_qr_scan"}, "is_reserved": 0}, {"lon": -77.00887483333334, "bike_id": "853c8072b859fee0dc15b296e417bcb5", "lat": 38.92276483333333, "fusion_lon": 0.0, "fusion_lat": 0.0, "type": "electric_scooter", "name": "853c8072b859fee0dc15b296e417bcb5", "is_disabled": 0, "rental_uris": {"ios": "https://dc.lft.to/lastmile_qr_scan", "android": "https://dc.lft.to/lastmile_qr_scan"}, "is_reserved": 0}, {"lon": -76.96540766666666, "bike_id": "58b2b5adb88b0145484ded9e4ac4d62e", "lat": 38.9184375, "fusion_lon": 0.0, "fusion_lat": 0.0, "type": "electric_scooter", "name": "58b2b5adb88b0145484ded9e4ac4d62e", "is_disabled": 0, "rental_uris": {"ios": "https://dc.lft.to/lastmile_qr_scan", "android": "https://dc.lft.to/lastmile_qr_scan"}, "is_reserved": 0}, {"lon": -77.0588025, "bike_id": "e3261314e96955d586a28dba7b7a61f9", "lat": 38.93606616666667, "fusion_lon": 0.0, "fusion_lat": 0.0, "type": "electric_scooter", "name": "e3261314e96955d586a28dba7b7a61f9", "is_disabled": 0, "rental_uris": {"ios": "https://dc.lft.to/lastmile_qr_scan", "android": "https://dc.lft.to/lastmile_qr_scan"}, "is_reserved": 0}, {"lon": -76.98233816666666, "bike_id": "49eba0f917a9c7be7db8ee9923ff0e03", "lat": 38.91661366666666, "fusion_lon": 0.0, "fusion_lat": 0.0, "type": "electric_scooter", "name": "49eba0f917a9c7be7db8ee9923ff0e03", "is_disabled": 0, "rental_uris": {"ios": "https://dc.lft.to/lastmile_qr_scan", "android": "https://dc.lft.to/lastmile_qr_scan"}, "is_reserved": 0}, {"lon": -77.035138, "bike_id": "a497347d6f5c8a81b965b26c971f2717", "lat": 38.90693316666667, "fusion_lon": 0.0, "fusion_lat": 0.0, "type": "electric_scooter", "name": "a497347d6f5c8a81b965b26c971f2717", "is_disabled": 0, "rental_uris": {"ios": "https://dc.lft.to/lastmile_qr_scan", "android": "https://dc.lft.to/lastmile_qr_scan"}, "is_reserved": 0}, {"lon": -76.97302466666666, "bike_id": "4950316eaa18982417f6d698d2e6b6ea", "lat": 38.916476333333335, "fusion_lon": 0.0, "fusion_lat": 0.0, "type": "electric_bike", "name": "4950316eaa18982417f6d698d2e6b6ea", "is_disabled": 0, "rental_uris": {"ios": "https://dc.lft.to/lastmile_qr_scan", "android": "https://dc.lft.to/lastmile_qr_scan"}, "is_reserved": 0}, {"lon": -77.03979333333334, "bike_id": "e8b9c88c5ba49cadec78dfff3a540e85", "lat": 38.928047, "fusion_lon": 0.0, "fusion_lat": 0.0, "type": "electric_scooter", "name": "e8b9c88c5ba49cadec78dfff3a540e85", "is_disabled": 0, "rental_uris": {"ios": "https://dc.lft.to/lastmile_qr_scan", "android": "https://dc.lft.to/lastmile_qr_scan"}, "is_reserved": 0}, {"lon": -77.2332235, "bike_id": "3e53fd6c502fdf23b3d275ac64485cd2", "lat": 38.87282066666667, "fusion_lon": 0.0, "fusion_lat": 0.0, "type": "electric_bike", "name": "3e53fd6c502fdf23b3d275ac64485cd2", "is_disabled": 0, "rental_uris": {"ios": "https://dc.lft.to/lastmile_qr_scan", "android": "https://dc.lft.to/lastmile_qr_scan"}, "is_reserved": 0}, {"lon": -77.02799433333334, "bike_id": "6284d18684eea861cd81b2fb1c27aadd", "lat": 38.9296445, "fusion_lon": 0.0, "fusion_lat": 0.0, "type": "electric_scooter", "name": "6284d18684eea861cd81b2fb1c27aadd", "is_disabled": 0, "rental_uris": {"ios": "https://dc.lft.to/lastmile_qr_scan", "android": "https://dc.lft.to/lastmile_qr_scan"}, "is_reserved": 0}, {"lon": -77.00100633333334, "bike_id": "8656fd8cca26903f05d18b521b6f3dce", "lat": 38.912440333333336, "fusion_lon": 0.0, "fusion_lat": 0.0, "type": "electric_scooter", "name": "8656fd8cca26903f05d18b521b6f3dce", "is_disabled": 0, "rental_uris": {"ios": "https://dc.lft.to/lastmile_qr_scan", "android": "https://dc.lft.to/lastmile_qr_scan"}, "is_reserved": 0}, {"lon": -77.03171216666667, "bike_id": "37bbdc8730274213fab8c8b06a1591a3", "lat": 38.90345133333334, "fusion_lon": 0.0, "fusion_lat": 0.0, "type": "electric_scooter", "name": "37bbdc8730274213fab8c8b06a1591a3", "is_disabled": 0, "rental_uris": {"ios": "https://dc.lft.to/lastmile_qr_scan", "android": "https://dc.lft.to/lastmile_qr_scan"}, "is_reserved": 0}, {"lon": -76.950007, "bike_id": "47e1819ba28e20c16055906dc45f800b", "lat": 38.89380283333333, "fusion_lon": 0.0, "fusion_lat": 0.0, "type": "electric_scooter", "name": "47e1819ba28e20c16055906dc45f800b", "is_disabled": 0, "rental_uris": {"ios": "https://dc.lft.to/lastmile_qr_scan", "android": "https://dc.lft.to/lastmile_qr_scan"}, "is_reserved": 0}, {"lon": -76.9852105, "bike_id": "5c0dc015420aabd722cf4510053b5288", "lat": 38.866814, "fusion_lon": 0.0, "fusion_lat": 0.0, "type": "electric_scooter", "name": "5c0dc015420aabd722cf4510053b5288", "is_disabled": 0, "rental_uris": {"ios": "https://dc.lft.to/lastmile_qr_scan", "android": "https://dc.lft.to/lastmile_qr_scan"}, "is_reserved": 0}, {"lon": -77.01128633333333, "bike_id": "690a30d826aee4d2254da0142d5f7a35", "lat": 38.89468183333334, "fusion_lon": 0.0, "fusion_lat": 0.0, "type": "electric_scooter", "name": "690a30d826aee4d2254da0142d5f7a35", "is_disabled": 0, "rental_uris": {"ios": "https://dc.lft.to/lastmile_qr_scan", "android": "https://dc.lft.to/lastmile_qr_scan"}, "is_reserved": 0}, {"lon": -76.9775805, "bike_id": "59b65506aacb6724b4412921ff98d1dd", "lat": 38.864521833333335, "fusion_lon": 0.0, "fusion_lat": 0.0, "type": "electric_scooter", "name": "59b65506aacb6724b4412921ff98d1dd", "is_disabled": 0, "rental_uris": {"ios": "https://dc.lft.to/lastmile_qr_scan", "android": "https://dc.lft.to/lastmile_qr_scan"}, "is_reserved": 0}, {"lon": -76.98845566666667, "bike_id": "5f6412bfc8c8dd66266862179de44724", "lat": 38.90130716666667, "fusion_lon": 0.0, "fusion_lat": 0.0, "type": "electric_scooter", "name": "5f6412bfc8c8dd66266862179de44724", "is_disabled": 0, "rental_uris": {"ios": "https://dc.lft.to/lastmile_qr_scan", "android": "https://dc.lft.to/lastmile_qr_scan"}, "is_reserved": 0}, {"lon": -77.01161416666666, "bike_id": "df83d9c5ebcafa1aee80ea3135c94626", "lat": 38.8957755, "fusion_lon": 0.0, "fusion_lat": 0.0, "type": "electric_scooter", "name": "df83d9c5ebcafa1aee80ea3135c94626", "is_disabled": 0, "rental_uris": {"ios": "https://dc.lft.to/lastmile_qr_scan", "android": "https://dc.lft.to/lastmile_qr_scan"}, "is_reserved": 0}, {"lon": -77.01458116666667, "bike_id": "836d8f28ea599688656eafaf50e7f986", "lat": 38.90513516666667, "fusion_lon": 0.0, "fusion_lat": 0.0, "type": "electric_scooter", "name": "836d8f28ea599688656eafaf50e7f986", "is_disabled": 0, "rental_uris": {"ios": "https://dc.lft.to/lastmile_qr_scan", "android": "https://dc.lft.to/lastmile_qr_scan"}, "is_reserved": 0}, {"lon": -77.0321585, "bike_id": "134ef1fe5806b80ed3f9afa50ebd6617", "lat": 38.89220816666667, "fusion_lon": 0.0, "fusion_lat": 0.0, "type": "electric_scooter", "name": "134ef1fe5806b80ed3f9afa50ebd6617", "is_disabled": 0, "rental_uris": {"ios": "https://dc.lft.to/lastmile_qr_scan", "android": "https://dc.lft.to/lastmile_qr_scan"}, "is_reserved": 0}, {"lon": -77.03518266666667, "bike_id": "2150a3d4a814946775c8a2491ca4c52d", "lat": 38.90055483333333, "fusion_lon": 0.0, "fusion_lat": 0.0, "type": "electric_scooter", "name": "2150a3d4a814946775c8a2491ca4c52d", "is_disabled": 0, "rental_uris": {"ios": "https://dc.lft.to/lastmile_qr_scan", "android": "https://dc.lft.to/lastmile_qr_scan"}, "is_reserved": 0}, {"lon": -77.01539483333333, "bike_id": "267ead1127e5b61a0c9d3fbc41b5c310", "lat": 38.9097245, "fusion_lon": 0.0, "fusion_lat": 0.0, "type": "electric_bike", "name": "267ead1127e5b61a0c9d3fbc41b5c310", "is_disabled": 0, "rental_uris": {"ios": "https://dc.lft.to/lastmile_qr_scan", "android": "https://dc.lft.to/lastmile_qr_scan"}, "is_reserved": 0}, {"lon": -77.035168, "bike_id": "87d4383a12e8d7943ceb84ba9b2f3307", "lat": 38.923329333333335, "fusion_lon": 0.0, "fusion_lat": 0.0, "type": "electric_scooter", "name": "87d4383a12e8d7943ceb84ba9b2f3307", "is_disabled": 0, "rental_uris": {"ios": "https://dc.lft.to/lastmile_qr_scan", "android": "https://dc.lft.to/lastmile_qr_scan"}, "is_reserved": 0}, {"lon": -77.04071666666667, "bike_id": "d96a3dd66a6f7beea9b9d1eb61bfcbab", "lat": 38.91483916666667, "fusion_lon": 0.0, "fusion_lat": 0.0, "type": "electric_scooter", "name": "d96a3dd66a6f7beea9b9d1eb61bfcbab", "is_disabled": 0, "rental_uris": {"ios": "https://dc.lft.to/lastmile_qr_scan", "android": "https://dc.lft.to/lastmile_qr_scan"}, "is_reserved": 0}, {"lon": -77.122254, "bike_id": "3f0930f85d45d66f07696590c15dc5b9", "lat": 38.853012666666665, "fusion_lon": 0.0, "fusion_lat": 0.0, "type": "electric_bike", "name": "3f0930f85d45d66f07696590c15dc5b9", "is_disabled": 0, "rental_uris": {"ios": "https://dc.lft.to/lastmile_qr_scan", "android": "https://dc.lft.to/lastmile_qr_scan"}, "is_reserved": 0}, {"lon": -77.005835, "bike_id": "71c2083dd45a7230dd0ae589065fbcbf", "lat": 38.87481483333333, "fusion_lon": 0.0, "fusion_lat": 0.0, "type": "electric_scooter", "name": "71c2083dd45a7230dd0ae589065fbcbf", "is_disabled": 0, "rental_uris": {"ios": "https://dc.lft.to/lastmile_qr_scan", "android": "https://dc.lft.to/lastmile_qr_scan"}, "is_reserved": 0}, {"lon": -77.04006633333333, "bike_id": "b30f3129610d0c73bfbb45afb33479f8", "lat": 38.933066833333335, "fusion_lon": 0.0, "fusion_lat": 0.0, "type": "electric_scooter", "name": "b30f3129610d0c73bfbb45afb33479f8", "is_disabled": 0, "rental_uris": {"ios": "https://dc.lft.to/lastmile_qr_scan", "android": "https://dc.lft.to/lastmile_qr_scan"}, "is_reserved": 0}, {"lon": -77.01652216666666, "bike_id": "68f69a41a23dcb4de12b837af3948c3a", "lat": 38.8810505, "fusion_lon": 0.0, "fusion_lat": 0.0, "type": "electric_scooter", "name": "68f69a41a23dcb4de12b837af3948c3a", "is_disabled": 0, "rental_uris": {"ios": "https://dc.lft.to/lastmile_qr_scan", "android": "https://dc.lft.to/lastmile_qr_scan"}, "is_reserved": 0}, {"lon": -77.03323166666667, "bike_id": "de354658f052e2f76c62347b1f736eb8", "lat": 38.91555483333333, "fusion_lon": 0.0, "fusion_lat": 0.0, "type": "electric_scooter", "name": "de354658f052e2f76c62347b1f736eb8", "is_disabled": 0, "rental_uris": {"ios": "https://dc.lft.to/lastmile_qr_scan", "android": "https://dc.lft.to/lastmile_qr_scan"}, "is_reserved": 0}, {"lon": -77.022632, "bike_id": "cd3eb05fd753e8b32b6faa591e2c4d9a", "lat": 38.912769, "fusion_lon": 0.0, "fusion_lat": 0.0, "type": "electric_scooter", "name": "cd3eb05fd753e8b32b6faa591e2c4d9a", "is_disabled": 0, "rental_uris": {"ios": "https://dc.lft.to/lastmile_qr_scan", "android": "https://dc.lft.to/lastmile_qr_scan"}, "is_reserved": 0}, {"lon": -76.98557566666666, "bike_id": "99381546665977d4847644bc3998f402", "lat": 38.910356166666666, "fusion_lon": 0.0, "fusion_lat": 0.0, "type": "electric_scooter", "name": "99381546665977d4847644bc3998f402", "is_disabled": 0, "rental_uris": {"ios": "https://dc.lft.to/lastmile_qr_scan", "android": "https://dc.lft.to/lastmile_qr_scan"}, "is_reserved": 0}, {"lon": -77.0820325, "bike_id": "e70f3a3ceccde00cf72276005d723800", "lat": 38.92208083333333, "fusion_lon": 0.0, "fusion_lat": 0.0, "type": "electric_bike", "name": "e70f3a3ceccde00cf72276005d723800", "is_disabled": 0, "rental_uris": {"ios": "https://dc.lft.to/lastmile_qr_scan", "android": "https://dc.lft.to/lastmile_qr_scan"}, "is_reserved": 0},