{"data": {"bikes": [{"rental_uris": {"ios": "https://dc.lft.to/lastmile_qr_scan", "android": "https://dc.lft.to/lastmile_qr_scan"}, "lon": -76.99505916666666, "type": "electric_scooter", "fusion_lat": 0.0, "lat": 38.88032483333333, "name": "115de64d7ad65d33be54eff5b2185415", "fusion_lon": 0.0, "bike_id": "115de64d7ad65d33be54eff5b2185415", "is_disabled": 0, "is_reserved": 0}, {"rental_uris": {"ios": "https://dc.lft.to/lastmile_qr_scan", "android": "https://dc.lft.to/lastmile_qr_scan"}, "lon": -76.99605266666667, "type": "electric_scooter", "fusion_lat": 0.0, "lat": 38.89748133333333, "name": "a33fda56986b6c0ae1b75f700cc4961a", "fusion_lon": 0.0, "bike_id": "a33fda56986b6c0ae1b75f700cc4961a", "is_disabled": 0, "is_reserved": 0}, {"rental_uris": {"ios": "https://dc.lft.to/lastmile_qr_scan", "android": "https://dc.lft.to/lastmile_qr_scan"}, "lon": -77.05343883333333, "type": "electric_scooter", "fusion_lat": 0.0, "lat": 38.902299166666666, "name": "77a86b13556734f460323445dc546892", "fusion_lon": 0.0, "bike_id": "77a86b13556734f460323445dc546892", "is_disabled": 0, "is_reserved": 0}, {"rental_uris": {"ios": "https://dc.lft.to/lastmile_qr_scan", "android": "https://dc.lft.to/lastmile_qr_scan"}, "lon": -77.07088916666666, "type": "electric_scooter", "fusion_lat": 0.0, "lat": 38.93365633333333, "name": "c68db9acfee7984d5695e9785612cd0c", "fusion_lon": 0.0, "bike_id": "c68db9acfee7984d5695e9785612cd0c", "is_disabled": 0, "is_reserved": 0}, {"rental_uris": {"ios": "https://dc.lft.to/lastmile_qr_scan", "android": "https://dc.lft.to/lastmile_qr_scan"}, "lon": -77.0236145, "type": "electric_scooter", "fusion_lat": 0.0, "lat": 38.935475833333335, "name": "11d9aaa2aa1eb7f08a2540027e449f53", "fusion_lon": 0.0, "bike_id": "11d9aaa2aa1eb7f08a2540027e449f53", "is_disabled": 0, "is_reserved": 0}, {"rental_uris": {"ios": "https://dc.lft.to/lastmile_qr_scan", "android": "https://dc.lft.to/lastmile_qr_scan"}, "lon": -77.08569783333333, "type": "electric_bike", "fusion_lat": 0.0, "lat": 38.909743666666664, "name": "0564beda9f86bd3464e235b94479f2b4", "fusion_lon": 0.0, "bike_id": "0564beda9f86bd3464e235b94479f2b4", "is_disabled": 0, "is_reserved": 0}, {"rental_uris": {"ios": "https://dc.lft.to/lastmile_qr_scan", "android": "https://dc.lft.to/lastmile_qr_scan"}, "lon": -77.04479933333333, "type": "electric_scooter", "fusion_lat": 0.0, "lat": 38.922438, "name": "7d1f561391bbe6d0c0869e9341426174", "fusion_lon": 0.0, "bike_id": "7d1f561391bbe6d0c0869e9341426174", "is_disabled": 0, "is_reserved": 0}, {"rental_uris": {"ios": "https://dc.lft.to/lastmile_qr_scan", "android": "https://dc.lft.to/lastmile_qr_scan"}, "lon": -77.04189816666667, "type": "electric_scooter", "fusion_lat": 0.0, "lat": 38.922026, "name": "62afec83f698357e5d29df56e715b343", "fusion_lon": 0.0, "bike_id": "62afec83f698357e5d29df56e715b343", "is_disabled": 0, "is_reserved": 0}, {"rental_uris": {"ios": "https://dc.lft.to/lastmile_qr_scan", "android": "https://dc.lft.to/lastmile_qr_scan"}, "lon": -77.04184933333333, "type": "electric_scooter", "fusion_lat": 0.0, "lat": 38.920214333333334, "name": "a9430db4a081926e3bb1621e0eb33a0e", "fusion_lon": 0.0, "bike_id": "a9430db4a081926e3bb1621e0eb33a0e", "is_disabled": 0, "is_reserved": 0}, {"rental_uris": {"ios": "https://dc.lft.to/lastmile_qr_scan", "android": "https://dc.lft.to/lastmile_qr_scan"}, "lon": -77.0403355, "type": "electric_bike", "fusion_lat": 0.0, "lat": 38.9008845, "name": "f4572d572aa2271cfe797d7685cd7cc5", "fusion_lon": 0.0, "bike_id": "f4572d572aa2271cfe797d7685cd7cc5", "is_disabled": 0, "is_reserved": 0}, {"rental_uris": {"ios": "https://dc.lft.to/lastmile_qr_scan", "android": "https://dc.lft.to/lastmile_qr_scan"}, "lon": -77.05059333333334, "type": "electric_scooter", "fusion_lat": 0.0, "lat": 38.900661, "name": "7373821cddc21e8d3432bcde9d9e6c00", "fusion_lon": 0.0, "bike_id": "7373821cddc21e8d3432bcde9d9e6c00", "is_disabled": 0, "is_reserved": 0}, {"rental_uris": {"ios": "https://dc.lft.to/lastmile_qr_scan", "android": "https://dc.lft.to/lastmile_qr_scan"}, "lon": -77.062851, "type": "electric_scooter", "fusion_lat": 0.0, "lat": 38.91247033333333, "name": "7a66be499a914eb46d377116263ddfb5", "fusion_lon": 0.0, "bike_id": "7a66be499a914eb46d377116263ddfb5", "is_disabled": 0, "is_reserved": 0}, {"rental_uris": {"ios": "https://dc.lft.to/lastmile_qr_scan", "android": "https://dc.lft.to/lastmile_qr_scan"}, "lon": -76.99776433333334, "type": "electric_scooter", "fusion_lat": 0.0, "lat": 38.844266, "name": "5cd6d43a365e449f22208bdb5733989d", "fusion_lon": 0.0, "bike_id": "5cd6d43a365e449f22208bdb5733989d", "is_disabled": 0, "is_reserved": 0}, {"rental_uris": {"ios": "https://dc.lft.to/lastmile_qr_scan", "android": "https://dc.lft.to/lastmile_qr_scan"}, "lon": -77.02184033333333, "type": "electric_scooter", "fusion_lat": 0.0, "lat": 38.910010166666666, "name": "547b705e4a3804ecdd9b8323bbbf7cab", "fusion_lon": 0.0, "bike_id": "547b705e4a3804ecdd9b8323bbbf7cab", "is_disabled": 0, "is_reserved": 0}, {"rental_uris": {"ios": "https://dc.lft.to/lastmile_qr_scan", "android": "https://dc.lft.to/lastmile_qr_scan"}, "lon": -77.029565, "type": "electric_scooter", "fusion_lat": 0.0, "lat": 38.9062545, "name": "8aebebe2f89cf5e4391bf7860b90d8d9", "fusion_lon": 0.0, "bike_id": "8aebebe2f89cf5e4391bf7860b90d8d9", "is_disabled": 0, "is_reserved": 0}, {"rental_uris": {"ios": "https://dc.lft.to/lastmile_qr_scan", "android": "https://dc.lft.to/lastmile_qr_scan"}, "lon": -77.01786433333334, "type": "electric_scooter", "fusion_lat": 0.0, "lat": 38.9013545, "name": "d706a4656fcc4ae4a4190d3ce568b321", "fusion_lon": 0.0, "bike_id": "d706a4656fcc4ae4a4190d3ce568b321", "is_disabled": 0, "is_reserved": 0}, {"rental_uris": {"ios": "https://dc.lft.to/lastmile_qr_scan", "android": "https://dc.lft.to/lastmile_qr_scan"}, "lon": -76.94982566666667, "type": "electric_scooter", "fusion_lat": 0.0, "lat": 38.893610833333334, "name": "ab149c33b57044f0a6ed23619d054899", "fusion_lon": 0.0, "bike_id": "ab149c33b57044f0a6ed23619d054899", "is_disabled": 0, "is_reserved": 0}, {"rental_uris": {"ios": "https://dc.lft.to/lastmile_qr_scan", "android": "https://dc.lft.to/lastmile_qr_scan"}, "lon": -77.03584866666667, "type": "electric_scooter", "fusion_lat": 0.0, "lat": 38.93238083333333, "name": "a2e2f32062efed1a879d32de60f3cd75", "fusion_lon": 0.0, "bike_id": "a2e2f32062efed1a879d32de60f3cd75", "is_disabled": 0, "is_reserved": 0}, {"rental_uris": {"ios": "https://dc.lft.to/lastmile_qr_scan", "android": "https://dc.lft.to/lastmile_qr_scan"}, "lon": -77.02962016666666, "type": "electric_scooter", "fusion_lat": 0.0, "lat": 38.90055783333333, "name": "1300d2cfc7353389267ab2cfac3f9e18", "fusion_lon": 0.0, "bike_id": "1300d2cfc7353389267ab2cfac3f9e18", "is_disabled": 0, "is_reserved": 0}, {"rental_uris": {"ios": "https://dc.lft.to/lastmile_qr_scan", "android": "https://dc.lft.to/lastmile_qr_scan"}, "lon": -77.01586016666667, "type": "electric_scooter", "fusion_lat": 0.0, "lat": 38.916455, "name": "61fbf79a7ca2d7f1bfb6067cb182335e", "fusion_lon": 0.0, "bike_id": "61fbf79a7ca2d7f1bfb6067cb182335e", "is_disabled": 0, "is_reserved": 0}, {"rental_uris": {"ios": "https://dc.lft.to/lastmile_qr_scan", "android": "https://dc.lft.to/lastmile_qr_scan"}, "lon": -76.93096216666666, "type": "electric_scooter", "fusion_lat": 0.0, "lat": 38.90143666666667, "name": "ee71ac2840889fecd8dd6a9ed7c517fb", "fusion_lon": 0.0, "bike_id": "ee71ac2840889fecd8dd6a9ed7c517fb", "is_disabled": 0, "is_reserved": 0}, {"rental_uris": {"ios": "https://dc.lft.to/lastmile_qr_scan", "android": "https://dc.lft.to/lastmile_qr_scan"}, "lon": -77.01414283333334, "type": "electric_scooter", "fusion_lat": 0.0, "lat": 38.915605666666664, "name": "6c572591bc236b24a0665b109f41fa02", "fusion_lon": 0.0, "bike_id": "6c572591bc236b24a0665b109f41fa02", "is_disabled": 0, "is_reserved": 0}, {"rental_uris": {"ios": "https://dc.lft.to/lastmile_qr_scan", "android": "https://dc.lft.to/lastmile_qr_scan"}, "lon": -76.9800315, "type": "electric_bike", "fusion_lat": 0.0, "lat": 38.862866, "name": "e3601296a5b27d3651745bcd5783f8f0", "fusion_lon": 0.0, "bike_id": "e3601296a5b27d3651745bcd5783f8f0", "is_disabled": 0, "is_reserved": 0}, {"rental_uris": {"ios": "https://dc.lft.to/lastmile_qr_scan", "android": "https://dc.lft.to/lastmile_qr_scan"}, "lon": -77.02374033333334, "type": "electric_scooter", "fusion_lat": 0.0, "lat": 38.89508416666666, "name": "df905c34ee873a76c18557691d5ad384", "fusion_lon": 0.0, "bike_id": "df905c34ee873a76c18557691d5ad384", "is_disabled": 0, "is_reserved": 0}, {"rental_uris": {"ios": "https://dc.lft.to/lastmile_qr_scan", "android": "https://dc.lft.to/lastmile_qr_scan"}, "lon": -77.00917783333334, "type": "electric_scooter", "fusion_lat": 0.0, "lat": 38.91097216666667, "name": "a47467a0b3954ad1bb0712f45ec6c9ad", "fusion_lon": 0.0, "bike_id": "a47467a0b3954ad1bb0712f45ec6c9ad", "is_disabled": 0, "is_reserved": 0}, {"rental_uris": {"ios": "https://dc.lft.to/lastmile_qr_scan", "android": "https://dc.lft.to/lastmile_qr_scan"}, "lon": -77.05347616666667, "type": "electric_scooter", "fusion_lat": 0.0, "lat": 38.902626, "name": "177b4c6d18ebd9a0b72a7b707bed7dd0", "fusion_lon": 0.0, "bike_id": "177b4c6d18ebd9a0b72a7b707bed7dd0", "is_disabled": 0, "is_reserved": 0}, {"rental_uris": {"ios": "https://dc.lft.to/lastmile_qr_scan", "android": "https://dc.lft.to/lastmile_qr_scan"}, "lon": -76.99804516666667, "type": "electric_bike", "fusion_lat": 0.0, "lat": 38.9085225, "name": "25b30c3c9b5c85652353b25fee26c1d4", "fusion_lon": 0.0, "bike_id": "25b30c3c9b5c85652353b25fee26c1d4", "is_disabled": 0, "is_reserved": 0}, {"rental_uris": {"ios": "https://dc.lft.to/lastmile_qr_scan", "android": "https://dc.lft.to/lastmile_qr_scan"}, "lon": -77.04995866666667, "type": "electric_scooter", "fusion_lat": 0.0, "lat": 38.901904, "name": "38fdd2eafa570ac68d42e4744ece1305", "fusion_lon": 0.0, "bike_id": "38fdd2eafa570ac68d42e4744ece1305", "is_disabled": 0, "is_reserved": 0}, {"rental_uris": {"ios": "https://dc.lft.to/lastmile_qr_scan", "android": "https://dc.lft.to/lastmile_qr_scan"}, "lon": -77.02711783333334, "type": "electric_scooter", "fusion_lat": 0.0, "lat": 38.91817116666667, "name": "fe74b1a85136345718299ba9099ab839", "fusion_lon": 0.0, "bike_id": "fe74b1a85136345718299ba9099ab839", "is_disabled": 0, "is_reserved": 0}, {"rental_uris": {"ios": "https://dc.lft.to/lastmile_qr_scan", "android": "https://dc.lft.to/lastmile_qr_scan"}, "lon": -77.02693316666667, "type": "electric_scooter", "fusion_lat": 0.0, "lat": 38.925969, "name": "704872a511126970ddc83683047d5ed8", "fusion_lon": 0.0, "bike_id": "704872a511126970ddc83683047d5ed8", "is_disabled": 0, "is_reserved": 0}, {"rental_uris": {"ios": "https://dc.lft.to/lastmile_qr_scan", "android": "https://dc.lft.to/lastmile_qr_scan"}, "lon": -77.0481725, "type": "electric_scooter", "fusion_lat": 0.0, "lat": 38.91333733333333, "name": "5d8fb34c185645fc57146532be277828", "fusion_lon": 0.0, "bike_id": "5d8fb34c185645fc57146532be277828", "is_disabled": 0, "is_reserved": 0}, {"rental_uris": {"ios": "https://dc.lft.to/lastmile_qr_scan", "android": "https://dc.lft.to/lastmile_qr_scan"}, "lon": -77.08193683333333, "type": "electric_scooter", "fusion_lat": 0.0, "lat": 38.949291, "name": "af2b1322c51996bc900d39668aaff0d2", "fusion_lon": 0.0, "bike_id": "af2b1322c51996bc900d39668aaff0d2", "is_disabled": 0, "is_reserved": 0}, {"rental_uris": {"ios": "https://dc.lft.to/lastmile_qr_scan", "android": "https://dc.lft.to/lastmile_qr_scan"}, "lon": -77.03858983333333, "type": "electric_scooter", "fusion_lat": 0.0, "lat": 38.93258483333334, "name": "86ec0681cc5f0a5d03eb6db92cfa6151", "fusion_lon": 0.0, "bike_id": "86ec0681cc5f0a5d03eb6db92cfa6151", "is_disabled": 0, "is_reserved": 0}, {"rental_uris": {"ios": "https://dc.lft.to/lastmile_qr_scan", "android": "https://dc.lft.to/lastmile_qr_scan"}, "lon": -77.01099066666667, "type": "electric_bike", "fusion_lat": 0.0, "lat": 38.87303133333333, "name": "c9647289e746abd1682e9f9a74fed76b", "fusion_lon": 0.0, "bike_id": "c9647289e746abd1682e9f9a74fed76b", "is_disabled": 0, "is_reserved": 0}, {"rental_uris": {"ios": "https://dc.lft.to/lastmile_qr_scan", "android": "https://dc.lft.to/lastmile_qr_scan"}, "lon": -77.01143783333333, "type": "electric_scooter", "fusion_lat": 0.0, "lat": 38.89531066666667, "name": "0a74a7d35036201848949cfa5dc4014c", "fusion_lon": 0.0, "bike_id": "0a74a7d35036201848949cfa5dc4014c", "is_disabled": 0, "is_reserved": 0}, {"rental_uris": {"ios": "https://dc.lft.to/lastmile_qr_scan", "android": "https://dc.lft.to/lastmile_qr_scan"}, "lon": -77.041438, "type": "electric_scooter", "fusion_lat": 0.0, "lat": 38.922988, "name": "363ef3dab4f66c2fc00a8251bc77592b", "fusion_lon": 0.0, "bike_id": "363ef3dab4f66c2fc00a8251bc77592b", "is_disabled": 0, "is_reserved": 0}, {"rental_uris": {"ios": "https://dc.lft.to/lastmile_qr_scan", "android": "https://dc.lft.to/lastmile_qr_scan"}, "lon": -77.00755816666667, "type": "electric_scooter", "fusion_lat": 0.0, "lat": 38.898368, "name": "c435771d926fe841f73fb7f47fa9d240", "fusion_lon": 0.0, "bike_id": "c435771d926fe841f73fb7f47fa9d240", "is_disabled": 0, "is_reserved": 0}, {"rental_uris": {"ios": "https://dc.lft.to/lastmile_qr_scan", "android": "https://dc.lft.to/lastmile_qr_scan"}, "lon": -77.0418115, "type": "electric_scooter", "fusion_lat": 0.0, "lat": 38.919676333333335, "name": "283032a715507e05bb36050bb000aad7", "fusion_lon": 0.0, "bike_id": "283032a715507e05bb36050bb000aad7", "is_disabled": 0, "is_reserved": 0}, {"rental_uris": {"ios": "https://dc.lft.to/lastmile_qr_scan", "android": "https://dc.lft.to/lastmile_qr_scan"}, "lon": -76.908142, "type": "electric_bike", "fusion_lat": 0.0, "lat": 38.9945545, "name": "a672778305b841fe77cff18b6fb9f05e", "fusion_lon": 0.0, "bike_id": "a672778305b841fe77cff18b6fb9f05e", "is_disabled": 0, "is_reserved": 0}, {"rental_uris": {"ios": "https://dc.lft.to/lastmile_qr_scan", "android": "https://dc.lft.to/lastmile_qr_scan"}, "lon": -77.0324855, "type": "electric_scooter", "fusion_lat": 0.0, "lat": 38.907369, "name": "ef84a126bfdfa41ce42522aabd50676c", "fusion_lon": 0.0, "bike_id": "ef84a126bfdfa41ce42522aabd50676c", "is_disabled": 0, "is_reserved": 0}, {"rental_uris": {"ios": "https://dc.lft.to/lastmile_qr_scan", "android": "https://dc.lft.to/lastmile_qr_scan"}, "lon": -77.05043416666666, "type": "electric_scooter", "fusion_lat": 0.0, "lat": 38.92365783333333, "name": "a8c20de4ee4cad9a99408be726fa6b36", "fusion_lon": 0.0, "bike_id": "a8c20de4ee4cad9a99408be726fa6b36", "is_disabled": 0, "is_reserved": 0}, {"rental_uris": {"ios": "https://dc.lft.to/lastmile_qr_scan", "android": "https://dc.lft.to/lastmile_qr_scan"}, "lon": -77.0260305, "type": "electric_scooter", "fusion_lat": 0.0, "lat": 38.90516433333333, "name": "30edfaf5b6264595e654392e8300c8f1", "fusion_lon": 0.0, "bike_id": "30edfaf5b6264595e654392e8300c8f1", "is_disabled": 0, "is_reserved": 0}, {"rental_uris": {"ios": "https://dc.lft.to/lastmile_qr_scan", "android": "https://dc.lft.to/lastmile_qr_scan"}, "lon": -77.01065566666666, "type": "electric_scooter", "fusion_lat": 0.0, "lat": 38.87478433333333, "name": "4940d42a063a23ce30468fb79fed132f", "fusion_lon": 0.0, "bike_id": "4940d42a063a23ce30468fb79fed132f", "is_disabled": 0, "is_reserved": 0}, {"rental_uris": {"ios": "https://dc.lft.to/lastmile_qr_scan", "android": "https://dc.lft.to/lastmile_qr_scan"}, "lon": -77.00757666666667, "type": "electric_bike", "fusion_lat": 0.0, "lat": 38.897888333333334, "name": "15742ae9d59975a242b5d1209edddbe4", "fusion_lon": 0.0, "bike_id": "15742ae9d59975a242b5d1209edddbe4", "is_disabled": 0, "is_reserved": 0}, {"rental_uris": {"ios": "https://dc.lft.to/lastmile_qr_scan", "android": "https://dc.lft.to/lastmile_qr_scan"}, "lon": -77.02789583333333, "type": "electric_scooter", "fusion_lat": 0.0, "lat": 38.887395833333336, "name": "3d627494c026df45b34b9f6ceef2208f", "fusion_lon": 0.0, "bike_id": "3d627494c026df45b34b9f6ceef2208f", "is_disabled": 0, "is_reserved": 0}, {"rental_uris": {"ios": "https://dc.lft.to/lastmile_qr_scan", "android": "https://dc.lft.to/lastmile_qr_scan"}, "lon": -76.99002666666667, "type": "electric_scooter", "fusion_lat": 0.0, "lat": 38.903923666666664, "name": "c197c13d69ddf8f2014376e6b1ddd649", "fusion_lon": 0.0, "bike_id": "c197c13d69ddf8f2014376e6b1ddd649", "is_disabled": 0, "is_reserved": 0}, {"rental_uris": {"ios": "https://dc.lft.to/lastmile_qr_scan", "android": "https://dc.lft.to/lastmile_qr_scan"}, "lon": -77.00974266666667, "type": "electric_scooter", "fusion_lat": 0.0, "lat": 38.91416366666667, "name": "960f2ee5b43b395510c5883eed1726c1", "fusion_lon": 0.0, "bike_id": "960f2ee5b43b395510c5883eed1726c1", "is_disabled": 0, "is_reserved": 0}, {"rental_uris": {"ios": "https://dc.lft.to/lastmile_qr_scan", "android": "https://dc.lft.to/lastmile_qr_scan"}, "lon": -77.039823, "type": "electric_scooter", "fusion_lat": 0.0, "lat": 38.8922245, "name": "f39221c8963ce3e3579fe85f6fe2745d", "fusion_lon": 0.0, "bike_id": "f39221c8963ce3e3579fe85f6fe2745d", "is_disabled": 0, "is_reserved": 0}, {"rental_uris": {"ios": "https://dc.lft.to/lastmile_qr_scan", "android": "https://dc.lft.to/lastmile_qr_scan"}, "lon": -77.162247, "type": "electric_bike", "fusion_lat": 0.0, "lat": 38.88654433333333, "name": "065b229506f61381c5be7e6ac26e05e4", "fusion_lon": 0.0, "bike_id": "065b229506f61381c5be7e6ac26e05e4", "is_disabled": 0, "is_reserved": 0}, {"rental_uris": {"ios": "https://dc.lft.to/lastmile_qr_scan", "android": "https://dc.lft.to/lastmile_qr_scan"}, "lon": -76.916623, "type": "electric_bike", "fusion_lat": 0.0, "lat": 38.86872016666667, "name": "06208ae6e85e0c0be5ab7718e4e0ee87", "fusion_lon": 0.0, "bike_id": "06208ae6e85e0c0be5ab7718e4e0ee87", "is_disabled": 0, "is_reserved": 0}, {"rental_uris": {"ios": "https://dc.lft.to/lastmile_qr_scan", "android": "https://dc.lft.to/lastmile_qr_scan"}, "lon": -76.94852116666667, "type": "electric_scooter", "fusion_lat": 0.0, "lat": 38.895905, "name": "cab8f1326336f746f95712d72bd94d3f", "fusion_lon": 0.0, "bike_id": "cab8f1326336f746f95712d72bd94d3f", "is_disabled": 0, "is_reserved": 0}, {"rental_uris": {"ios": "https://dc.lft.to/lastmile_qr_scan", "android": "https://dc.lft.to/lastmile_qr_scan"}, "lon": -77.01618766666667, "type": "electric_scooter", "fusion_lat": 0.0, "lat": 38.89970683333333, "name": "013f5efb27dd8e91e34969c3091b9922", "fusion_lon": 0.0, "bike_id": "013f5efb27dd8e91e34969c3091b9922", "is_disabled": 0, "is_reserved": 0}, {"rental_uris": {"ios": "https://dc.lft.to/lastmile_qr_scan", "android": "https://dc.lft.to/lastmile_qr_scan"}, "lon": -76.94998783333334, "type": "electric_scooter", "fusion_lat": 0.0, "lat": 38.89374816666667, "name": "1180a0047e392e2876e230b34acc6a23", "fusion_lon": 0.0, "bike_id": "1180a0047e392e2876e230b34acc6a23", "is_disabled": 0, "is_reserved": 0}, {"rental_uris": {"ios": "https://dc.lft.to/lastmile_qr_scan", "android": "https://dc.lft.to/lastmile_qr_scan"}, "lon": -77.18291783333333, "type": "electric_bike", "fusion_lat": 0.0, "lat": 38.883493, "name": "9da5ef6bf4472d54b6d16e1e9d98d2c4", "fusion_lon": 0.0, "bike_id": "9da5ef6bf4472d54b6d16e1e9d98d2c4", "is_disabled": 0, "is_reserved": 0}, {"rental_uris": {"ios": "https://dc.lft.to/lastmile_qr_scan", "android": "https://dc.lft.to/lastmile_qr_scan"}, "lon": -77.07136433333334, "type": "electric_scooter", "fusion_lat": 0.0, "lat": 38.9272615, "name": "8ba44b832b7a51d4fe76b8306e1b70bc", "fusion_lon": 0.0, "bike_id": "8ba44b832b7a51d4fe76b8306e1b70bc", "is_disabled": 0, "is_reserved": 0}, {"rental_uris": {"ios": "https://dc.lft.to/lastmile_qr_scan", "android": "https://dc.lft.to/lastmile_qr_scan"}, "lon": -77.0818795, "type": "electric_scooter", "fusion_lat": 0.0, "lat": 38.92017383333334, "name": "d3939e9abcb05605bbdee2ee3d6437e1", "fusion_lon": 0.0, "bike_id": "d3939e9abcb05605bbdee2ee3d6437e1", "is_disabled": 0, "is_reserved": 0}, {"rental_uris": {"ios": "https://dc.lft.to/lastmile_qr_scan", "android": "https://dc.lft.to/lastmile_qr_scan"}, "lon": -77.03320683333334, "type": "electric_scooter", "fusion_lat": 0.0, "lat": 38.90146566666667, "name": "c5bbfccbd3aaf4ae3f9d1269da56bbbf", "fusion_lon": 0.0, "bike_id": "c5bbfccbd3aaf4ae3f9d1269da56bbbf", "is_disabled": 0, "is_reserved": 0}, {"rental_uris": {"ios": "https://dc.lft.to/lastmile_qr_scan", "android": "https://dc.lft.to/lastmile_qr_scan"}, "lon": -76.9782575, "type": "electric_scooter", "fusion_lat": 0.0, "lat": 38.895190666666664, "name": "7df0f769a7fb79103fe30e266ac1c4ac", "fusion_lon": 0.0, "bike_id": "7df0f769a7fb79103fe30e266ac1c4ac", "is_disabled": 0, "is_reserved": 0}, {"rental_uris": {"ios": "https://dc.lft.to/lastmile_qr_scan", "android": "https://dc.lft.to/lastmile_qr_scan"}, "lon": -77.0228105, "type": "electric_scooter", "fusion_lat": 0.0, "lat": 38.909644, "name": "d1007e468bf7b49f26c8c8e46528d95f", "fusion_lon": 0.0, "bike_id": "d1007e468bf7b49f26c8c8e46528d95f", "is_disabled": 0, "is_reserved": 0}, {"rental_uris": {"ios": "https://dc.lft.to/lastmile_qr_scan", "android": "https://dc.lft.to/lastmile_qr_scan"}, "lon": -76.97425816666667, "type": "electric_bike", "fusion_lat": 0.0, "lat": 38.932095833333335, "name": "4206e6bc380d072cfc08016c37f2ad5a", "fusion_lon": 0.0, "bike_id": "4206e6bc380d072cfc08016c37f2ad5a", "is_disabled": 0, "is_reserved": 0}, {"rental_uris": {"ios": "https://dc.lft.to/lastmile_qr_scan", "android": "https://dc.lft.to/lastmile_qr_scan"}, "lon": -77.042364, "type": "electric_scooter", "fusion_lat": 0.0, "lat": 38.92213016666667, "name": "1303e1e526c5dbc8d2f3bf15c1e288a9", "fusion_lon": 0.0, "bike_id": "1303e1e526c5dbc8d2f3bf15c1e288a9", "is_disabled": 0, "is_reserved": 0}, {"rental_uris": {"ios": "https://dc.lft.to/lastmile_qr_scan", "android": "https://dc.lft.to/lastmile_qr_scan"}, "lon": -77.02507966666667, "type": "electric_scooter", "fusion_lat": 0.0, "lat": 38.9072715, "name": "90e8afcf54620f6fb7023367b6293baf", "fusion_lon": 0.0, "bike_id": "90e8afcf54620f6fb7023367b6293baf", "is_disabled": 0, "is_reserved": 0}, {"rental_uris": {"ios": "https://dc.lft.to/lastmile_qr_scan", "android": "https://dc.lft.to/lastmile_qr_scan"}, "lon": -77.01672216666667, "type": "electric_scooter", "fusion_lat": 0.0, "lat": 38.90481333333334, "name": "922f4f7672f5bb3dee151e91d6cd67b2", "fusion_lon": 0.0, "bike_id": "922f4f7672f5bb3dee151e91d6cd67b2", "is_disabled": 0, "is_reserved": 0}, {"rental_uris": {"ios": "https://dc.lft.to/lastmile_qr_scan", "android": "https://dc.lft.to/lastmile_qr_scan"}, "lon": -77.004193, "type": "electric_scooter", "fusion_lat": 0.0, "lat": 38.9055315, "name": "29797fcde4cf9158eef7d243637688a9", "fusion_lon": 0.0, "bike_id": "29797fcde4cf9158eef7d243637688a9", "is_disabled": 0, "is_reserved": 0}, {"rental_uris": {"ios": "https://dc.lft.to/lastmile_qr_scan", "android": "https://dc.lft.to/lastmile_qr_scan"}, "lon": -77.051406, "type": "electric_scooter", "fusion_lat": 0.0, "lat": 38.901207166666666, "name": "354c3a4fe4281ca0303c2c719761b56e", "fusion_lon": 0.0, "bike_id": "354c3a4fe4281ca0303c2c719761b56e", "is_disabled": 0, "is_reserved": 0}, {"rental_uris": {"ios": "https://dc.lft.to/lastmile_qr_scan", "android": "https://dc.lft.to/lastmile_qr_scan"}, "lon": -76.96525483333333, "type": "electric_scooter", "fusion_lat": 0.0, "lat": 38.878694333333335, "name": "4fb8cb5074d29386d2ac89dd46e4e9c2", "fusion_lon": 0.0, "bike_id": "4fb8cb5074d29386d2ac89dd46e4e9c2", "is_disabled": 0, "is_reserved": 0}, {"rental_uris": {"ios": "https://dc.lft.to/lastmile_qr_scan", "android": "https://dc.lft.to/lastmile_qr_scan"}, "lon": -76.99975283333333, "type": "electric_scooter", "fusion_lat": 0.0, "lat": 38.83837783333333, "name": "da251fb809b0734c9fcaada32a71acb9", "fusion_lon": 0.0, "bike_id": "da251fb809b0734c9fcaada32a71acb9", "is_disabled": 0, "is_reserved": 0}, {"rental_uris": {"ios": "https://dc.lft.to/lastmile_qr_scan", "android": "https://dc.lft.to/lastmile_qr_scan"}, "lon": -77.06984516666667, "type": "electric_scooter", "fusion_lat": 0.0, "lat": 38.954870666666665, "name": "9d430b3afc9ff299ff975f9357d0c05f", "fusion_lon": 0.0, "bike_id": "9d430b3afc9ff299ff975f9357d0c05f", "is_disabled": 0, "is_reserved": 0}, {"rental_uris": {"ios": "https://dc.lft.to/lastmile_qr_scan", "android": "https://dc.lft.to/lastmile_qr_scan"}, "lon": -77.001927, "type": "electric_scooter", "fusion_lat": 0.0, "lat": 38.90034433333334, "name": "e84203ae76ffd5e010b43926dc21eb12", "fusion_lon": 0.0, "bike_id": "e84203ae76ffd5e010b43926dc21eb12", "is_disabled": 0, "is_reserved": 0}, {"rental_uris": {"ios": "https://dc.lft.to/lastmile_qr_scan", "android": "https://dc.lft.to/lastmile_qr_scan"}, "lon": -77.03963916666666, "type": "electric_scooter", "fusion_lat": 0.0, "lat": 38.89534733333333, "name": "32032ec57f0c9760c48a2ffb47e1c023", "fusion_lon": 0.0, "bike_id": "32032ec57f0c9760c48a2ffb47e1c023", "is_disabled": 0, "is_reserved": 0}, {"rental_uris": {"ios": "https://dc.lft.to/lastmile_qr_scan", "android": "https://dc.lft.to/lastmile_qr_scan"}, "lon": -76.99498183333333, "type": "electric_bike", "fusion_lat": 0.0, "lat": 39.00002583333333, "name": "ebc67af17f90b152c278c75cd6e748b6", "fusion_lon": 0.0, "bike_id": "ebc67af17f90b152c278c75cd6e748b6", "is_disabled": 0, "is_reserved": 0}, {"rental_uris": {"ios": "https://dc.lft.to/lastmile_qr_scan", "android": "https://dc.lft.to/lastmile_qr_scan"}, "lon": -77.024151, "type": "electric_scooter", "fusion_lat": 0.0, "lat": 38.892195, "name": "253ecbc0d5af36939d8957f129deee73", "fusion_lon": 0.0, "bike_id": "253ecbc0d5af36939d8957f129deee73", "is_disabled": 0, "is_reserved": 0}, {"rental_uris": {"ios": "https://dc.lft.to/lastmile_qr_scan", "android": "https://dc.lft.to/lastmile_qr_scan"}, "lon": -77.04870633333333, "type": "electric_scooter", "fusion_lat": 0.0, "lat": 38.90074333333333, "name": "0e1b4feb540fa9249520394c6d359899", "fusion_lon": 0.0, "bike_id": "0e1b4feb540fa9249520394c6d359899", "is_disabled": 0, "is_reserved": 0}, {"rental_uris": {"ios": "https://dc.lft.to/lastmile_qr_scan", "android": "https://dc.lft.to/lastmile_qr_scan"}, "lon": -77.036311, "type": "electric_scooter", "fusion_lat": 0.0, "lat": 38.9264955, "name": "ee4359c46e7489031aeffb481d12645a", "fusion_lon": 0.0, "bike_id": "ee4359c46e7489031aeffb481d12645a", "is_disabled": 0, "is_reserved": 0}, {"rental_uris": {"ios": "https://dc.lft.to/lastmile_qr_scan", "android": "https://dc.lft.to/lastmile_qr_scan"}, "lon": -77.00431266666666, "type": "electric_scooter", "fusion_lat": 0.0, "lat": 38.90396, "name": "5a226b8f82af3e51a791a74cc4abd3bb", "fusion_lon": 0.0, "bike_id": "5a226b8f82af3e51a791a74cc4abd3bb", "is_disabled": 0, "is_reserved": 0}, {"rental_uris": {"ios": "https://dc.lft.to/lastmile_qr_scan", "android": "https://dc.lft.to/lastmile_qr_scan"}, "lon": -77.02448616666666, "type": "electric_scooter", "fusion_lat": 0.0, "lat": 38.93706016666667, "name": "bf2563d33616f08c8ebcb6dfe6debdd7", "fusion_lon": 0.0, "bike_id": "bf2563d33616f08c8ebcb6dfe6debdd7", "is_disabled": 0, "is_reserved": 0}, {"rental_uris": {"ios": "https://dc.lft.to/lastmile_qr_scan", "android": "https://dc.lft.to/lastmile_qr_scan"}, "lon": -77.05582633333333, "type": "electric_scooter", "fusion_lat": 0.0, "lat": 38.905143833333334, "name": "a4095ec59b55b028ae13873fcf875cb9", "fusion_lon": 0.0, "bike_id": "a4095ec59b55b028ae13873fcf875cb9", "is_disabled": 0, "is_reserved": 0}, {"rental_uris": {"ios": "https://dc.lft.to/lastmile_qr_scan", "android": "https://dc.lft.to/lastmile_qr_scan"}, "lon": -76.96504166666666, "type": "electric_scooter", "fusion_lat": 0.0, "lat": 38.87646566666667, "name": "bd6da01eaf7697215c9bba05a9512640", "fusion_lon": 0.0, "bike_id": "bd6da01eaf7697215c9bba05a9512640", "is_disabled": 0, "is_reserved": 0}, {"rental_uris": {"ios": "https://dc.lft.to/lastmile_qr_scan", "android": "https://dc.lft.to/lastmile_qr_scan"}, "lon": -77.026128, "type": "electric_scooter", "fusion_lat": 0.0, "lat": 38.89688733333333, "name": "910592167040c61103be2987f07cd685", "fusion_lon": 0.0, "bike_id": "910592167040c61103be2987f07cd685", "is_disabled": 0, "is_reserved": 0}, {"rental_uris": {"ios": "https://dc.lft.to/lastmile_qr_scan", "android": "https://dc.lft.to/lastmile_qr_scan"}, "lon": -77.02024866666666, "type": "electric_scooter", "fusion_lat": 0.0, "lat": 38.915549, "name": "6ff1f84a17f011b82b826f0b4344f2af", "fusion_lon": 0.0, "bike_id": "6ff1f84a17f011b82b826f0b4344f2af", "is_disabled": 0, "is_reserved": 0}, {"rental_uris": {"ios": "https://dc.lft.to/lastmile_qr_scan", "android": "https://dc.lft.to/lastmile_qr_scan"}, "lon": -77.04344483333334, "type": "electric_scooter", "fusion_lat": 0.0, "lat": 38.910471666666666, "name": "b23360d241051f754bf61632cd142350", "fusion_lon": 0.0, "bike_id": "b23360d241051f754bf61632cd142350", "is_disabled": 0, "is_reserved": 0}, {"rental_uris": {"ios": "https://dc.lft.to/lastmile_qr_scan", "android": "https://dc.lft.to/lastmile_qr_scan"}, "lon": -77.0418555, "type": "electric_scooter", "fusion_lat": 0.0, "lat": 38.92051883333333, "name": "767eddbcd6d13cbaad7f3fe40ba3673f", "fusion_lon": 0.0, "bike_id": "767eddbcd6d13cbaad7f3fe40ba3673f", "is_disabled": 0, "is_reserved": 0}, {"rental_uris": {"ios": "https://dc.lft.to/lastmile_qr_scan", "android": "https://dc.lft.to/lastmile_qr_scan"}, "lon": -77.0414525, "type": "electric_scooter", "fusion_lat": 0.0, "lat": 38.90007283333333, "name": "2225631422ba900907b8a8e4fdc85e3d", "fusion_lon": 0.0, "bike_id": "2225631422ba900907b8a8e4fdc85e3d", "is_disabled": 0, "is_reserved": 0}, {"rental_uris": {"ios": "https://dc.lft.to/lastmile_qr_scan", "android": "https://dc.lft.to/lastmile_qr_scan"}, "lon": -76.957541, "type": "electric_scooter", "fusion_lat": 0.0, "lat": 38.8843265, "name": "766b329347859641125d03c3638d15ad", "fusion_lon": 0.0, "bike_id": "766b329347859641125d03c3638d15ad", "is_disabled": 0, "is_reserved": 0}, {"rental_uris": {"ios": "https://dc.lft.to/lastmile_qr_scan", "android": "https://dc.lft.to/lastmile_qr_scan"}, "lon": -77.05489433333334, "type": "electric_scooter", "fusion_lat": 0.0, "lat": 38.9296555, "name": "ee35dfd447ca6ca9dae7a9ebf5512c66", "fusion_lon": 0.0, "bike_id": "ee35dfd447ca6ca9dae7a9ebf5512c66", "is_disabled": 0, "is_reserved": 0}, {"rental_uris": {"ios": "https://dc.lft.to/lastmile_qr_scan", "android": "https://dc.lft.to/lastmile_qr_scan"}, "lon": -77.03405666666667, "type": "electric_scooter", "fusion_lat": 0.0, "lat": 38.922671, "name": "d79bba90999f86fae6401b301e05c5e1", "fusion_lon": 0.0, "bike_id": "d79bba90999f86fae6401b301e05c5e1", "is_disabled": 0, "is_reserved": 0}, {"rental_uris": {"ios": "https://dc.lft.to/lastmile_qr_scan", "android": "https://dc.lft.to/lastmile_qr_scan"}, "lon": -77.12504066666666, "type": "electric_bike", "fusion_lat": 0.0, "lat": 39.0242365, "name": "11d5a7632d9d79cbe1eac5bed25b2660", "fusion_lon": 0.0, "bike_id": "11d5a7632d9d79cbe1eac5bed25b2660", "is_disabled": 0, "is_reserved": 0}, {"rental_uris": {"ios": "https://dc.lft.to/lastmile_qr_scan", "android": "https://dc.lft.to/lastmile_qr_scan"}, "lon": -77.052033, "type": "electric_scooter", "fusion_lat": 0.0, "lat": 38.92587016666667, "name": "5d826debfd418a6efcbbd66feb983346", "fusion_lon": 0.0, "bike_id": "5d826debfd418a6efcbbd66feb983346", "is_disabled": 0, "is_reserved": 0}, {"rental_uris": {"ios": "https://dc.lft.to/lastmile_qr_scan", "android": "https://dc.lft.to/lastmile_qr_scan"}, "lon": -77.05622466666667, "type": "electric_scooter", "fusion_lat": 0.0, "lat": 38.906152, "name": "40d4720b47bd2a813dbe5a0e95c6d79f", "fusion_lon": 0.0, "bike_id": "40d4720b47bd2a813dbe5a0e95c6d79f", "is_disabled": 0, "is_reserved": 0}, {"rental_uris": {"ios": "https://dc.lft.to/lastmile_qr_scan", "android": "https://dc.lft.to/lastmile_qr_scan"}, "lon": -77.03045333333333, "type": "electric_scooter", "fusion_lat": 0.0, "lat": 38.897375333333336, "name": "c66cf57ca59350699ec9b4be9186da6b", "fusion_lon": 0.0, "bike_id": "c66cf57ca59350699ec9b4be9186da6b", "is_disabled": 0, "is_reserved": 0}, {"rental_uris": {"ios": "https://dc.lft.to/lastmile_qr_scan", "android": "https://dc.lft.to/lastmile_qr_scan"}, "lon": -77.027235, "type": "electric_scooter", "fusion_lat": 0.0, "lat": 38.933993, "name": "170af370766f5223227e2f8bbf6130bd", "fusion_lon": 0.0, "bike_id": "170af370766f5223227e2f8bbf6130bd", "is_disabled": 0, "is_reserved": 0}, {"rental_uris": {"ios": "https://dc.lft.to/lastmile_qr_scan", "android": "https://dc.lft.to/lastmile_qr_scan"}, "lon": -77.00137633333334, "type": "electric_scooter", "fusion_lat": 0.0, "lat": 38.9041025, "name": "e2c3d1852327119cb82bfab3b2a2f49d", "fusion_lon": 0.0, "bike_id": "e2c3d1852327119cb82bfab3b2a2f49d", "is_disabled": 0, "is_reserved": 0}, {"rental_uris": {"ios": "https://dc.lft.to/lastmile_qr_scan", "android": "https://dc.lft.to/lastmile_qr_scan"}, "lon": -76.92722833333333, "type": "electric_scooter", "fusion_lat": 0.0, "lat": 38.8803975, "name": "401997c1ccffb6f78650060cd863f048", "fusion_lon": 0.0, "bike_id": "401997c1ccffb6f78650060cd863f048", "is_disabled": 0, "is_reserved": 0}, {"rental_uris": {"ios": "https://dc.lft.to/lastmile_qr_scan", "android": "https://dc.lft.to/lastmile_qr_scan"}, "lon": -77.0221515, "type": "electric_scooter", "fusion_lat": 0.0, "lat": 38.905692, "name": "009a3a2ff61f1dc5626a22da03bc5a39", "fusion_lon": 0.0, "bike_id": "009a3a2ff61f1dc5626a22da03bc5a39", "is_disabled": 0, "is_reserved": 0}, {"rental_uris": {"ios": "https://dc.lft.to/lastmile_qr_scan", "android": "https://dc.lft.to/lastmile_qr_scan"}, "lon": -77.02715383333333, "type": "electric_scooter", "fusion_lat": 0.0, "lat": 38.8814465, "name": "598d862b27f68c58862dead6f1f0ae88", "fusion_lon": 0.0, "bike_id": "598d862b27f68c58862dead6f1f0ae88", "is_disabled": 0, "is_reserved": 0}, {"rental_uris": {"ios": "https://dc.lft.to/lastmile_qr_scan", "android": "https://dc.lft.to/lastmile_qr_scan"}, "lon": -77.029753, "type": "electric_scooter", "fusion_lat": 0.0, "lat": 38.962309, "name": "894e7463fc15fd34cb798bbb752b24dc", "fusion_lon": 0.0, "bike_id": "894e7463fc15fd34cb798bbb752b24dc", "is_disabled": 0, "is_reserved": 0}, {"rental_uris": {"ios": "https://dc.lft.to/lastmile_qr_scan", "android": "https://dc.lft.to/lastmile_qr_scan"}, "lon": -77.10337433333333, "type": "electric_bike", "fusion_lat": 0.0, "lat": 38.85229966666667, "name": "7b6f64ceaa64d46084e58888ea967b4b", "fusion_lon": 0.0, "bike_id": "7b6f64ceaa64d46084e58888ea967b4b", "is_disabled": 0, "is_reserved": 0}, {"rental_uris": {"ios": "https://dc.lft.to/lastmile_qr_scan", "android": "https://dc.lft.to/lastmile_qr_scan"}, "lon": -76.9258405, "type": "electric_scooter", "fusion_lat": 0.0, "lat": 38.897315666666664, "name": "5f1822ab291c88794622673f0e9857f2", "fusion_lon": 0.0, "bike_id": "5f1822ab291c88794622673f0e9857f2", "is_disabled": 0, "is_reserved": 0}, {"rental_uris": {"ios": "https://dc.lft.to/lastmile_qr_scan", "android": "https://dc.lft.to/lastmile_qr_scan"}, "lon": -77.01277216666666, "type": "electric_bike", "fusion_lat": 0.0, "lat": 38.881274, "name": "0bf2a3987f5ba55324b2422040359824", "fusion_lon": 0.0, "bike_id": "0bf2a3987f5ba55324b2422040359824", "is_disabled": 0, "is_reserved": 0}, {"rental_uris": {"ios": "https://dc.lft.to/lastmile_qr_scan", "android": "https://dc.lft.to/lastmile_qr_scan"}, "lon": -77.00710033333333, "type": "electric_scooter", "fusion_lat": 0.0, "lat": 38.88492183333334, "name": "097f64ba1fd3cf49af843e5ff7680f4d", "fusion_lon": 0.0, "bike_id": "097f64ba1fd3cf49af843e5ff7680f4d", "is_disabled": 0, "is_reserved": 0}, {"rental_uris": {"ios": "https://dc.lft.to/lastmile_qr_scan", "android": "https://dc.lft.to/lastmile_qr_scan"}, "lon": -77.02955616666667, "type": "electric_scooter", "fusion_lat": 0.0, "lat": 38.92297833333333, "name": "aa13d2a15b4f45d1013027edf7c3d98b", "fusion_lon": 0.0, "bike_id": "aa13d2a15b4f45d1013027edf7c3d98b", "is_disabled": 0, "is_reserved": 0}, {"rental_uris": {"ios": "https://dc.lft.to/lastmile_qr_scan", "android": "https://dc.lft.to/lastmile_qr_scan"}, "lon": -77.02868483333333, "type": "electric_scooter", "fusion_lat": 0.0, "lat": 38.88276283333333, "name": "64daf7d3e57fec62fe3d8b322bd4b1ca", "fusion_lon": 0.0, "bike_id": "64daf7d3e57fec62fe3d8b322bd4b1ca", "is_disabled": 0, "is_reserved": 0}, {"rental_uris": {"ios": "https://dc.lft.to/lastmile_qr_scan", "android": "https://dc.lft.to/lastmile_qr_scan"}, "lon": -77.05138283333334, "type": "electric_scooter", "fusion_lat": 0.0, "lat": 38.90611, "name": "c9625baeff8b5ef3a0d2006d8c54279a", "fusion_lon": 0.0, "bike_id": "c9625baeff8b5ef3a0d2006d8c54279a", "is_disabled": 0, "is_reserved": 0}, {"rental_uris": {"ios": "https://dc.lft.to/lastmile_qr_scan", "android": "https://dc.lft.to/lastmile_qr_scan"}, "lon": -76.9766915, "type": "electric_bike", "fusion_lat": 0.0, "lat": 38.966254166666666, "name": "932b64dc3b59437685b920aeab626915", "fusion_lon": 0.0, "bike_id": "932b64dc3b59437685b920aeab626915", "is_disabled": 0, "is_reserved": 0}, {"rental_uris": {"ios": "https://dc.lft.to/lastmile_qr_scan", "android": "https://dc.lft.to/lastmile_qr_scan"}, "lon": -77.0257765, "type": "electric_scooter", "fusion_lat": 0.0, "lat": 38.89223366666667, "name": "d64fdc2249ea020993181768ad1bcf5f", "fusion_lon": 0.0, "bike_id": "d64fdc2249ea020993181768ad1bcf5f", "is_disabled": 0, "is_reserved": 0}, {"rental_uris": {"ios": "https://dc.lft.to/lastmile_qr_scan", "android": "https://dc.lft.to/lastmile_qr_scan"}, "lon": -77.02075433333333, "type": "electric_scooter", "fusion_lat": 0.0, "lat": 38.899822666666665, "name": "0f44c624a20f24365276af9a4aa3c1eb", "fusion_lon": 0.0, "bike_id": "0f44c624a20f24365276af9a4aa3c1eb", "is_disabled": 0, "is_reserved": 0}, {"rental_uris": {"ios": "https://dc.lft.to/lastmile_qr_scan", "android": "https://dc.lft.to/lastmile_qr_scan"}, "lon": -77.02983666666667, "type": "electric_scooter", "fusion_lat": 0.0, "lat": 38.90051966666667, "name": "c71dd528e8d42b10158dd540ed58f749", "fusion_lon": 0.0, "bike_id": "c71dd528e8d42b10158dd540ed58f749", "is_disabled": 0, "is_reserved": 0}, {"rental_uris": {"ios": "https://dc.lft.to/lastmile_qr_scan", "android": "https://dc.lft.to/lastmile_qr_scan"}, "lon": -77.01410966666667, "type": "electric_scooter", "fusion_lat": 0.0, "lat": 38.920205833333334, "name": "8a50a80c598463d81072d5efaaae85a5", "fusion_lon": 0.0, "bike_id": "8a50a80c598463d81072d5efaaae85a5", "is_disabled": 0, "is_reserved": 0}, {"rental_uris": {"ios": "https://dc.lft.to/lastmile_qr_scan", "android": "https://dc.lft.to/lastmile_qr_scan"}, "lon": -77.02732433333334, "type": "electric_scooter", "fusion_lat": 0.0, "lat": 38.899412166666664, "name": "3f94c20b50ccab175b8b4acec28f4c0b", "fusion_lon": 0.0, "bike_id": "3f94c20b50ccab175b8b4acec28f4c0b", "is_disabled": 0, "is_reserved": 0}, {"rental_uris": {"ios": "https://dc.lft.to/lastmile_qr_scan", "android": "https://dc.lft.to/lastmile_qr_scan"}, "lon": -76.94654016666667, "type": "electric_scooter", "fusion_lat": 0.0, "lat": 38.8982765, "name": "64bbcc4bf1adfb9d9ee73ea365a8ca06", "fusion_lon": 0.0, "bike_id": "64bbcc4bf1adfb9d9ee73ea365a8ca06", "is_disabled": 0, "is_reserved": 0}, {"rental_uris": {"ios": "https://dc.lft.to/lastmile_qr_scan", "android": "https://dc.lft.to/lastmile_qr_scan"}, "lon": -77.01115383333334, "type": "electric_scooter", "fusion_lat": 0.0, "lat": 38.89987633333333, "name": "405c393c45d9a25b8f6de50c7acb4d0a", "fusion_lon": 0.0, "bike_id": "405c393c45d9a25b8f6de50c7acb4d0a", "is_disabled": 0, "is_reserved": 0}, {"rental_uris": {"ios": "https://dc.lft.to/lastmile_qr_scan", "android": "https://dc.lft.to/lastmile_qr_scan"}, "lon": -77.02201466666666, "type": "electric_scooter", "fusion_lat": 0.0, "lat": 38.9053785, "name": "3c6bd472d19735f0ff5dd8a4acbce0e2", "fusion_lon": 0.0, "bike_id": "3c6bd472d19735f0ff5dd8a4acbce0e2", "is_disabled": 0, "is_reserved": 0}, {"rental_uris": {"ios": "https://dc.lft.to/lastmile_qr_scan", "android": "https://dc.lft.to/lastmile_qr_scan"}, "lon": -76.982651, "type": "electric_scooter", "fusion_lat": 0.0, "lat": 38.863507166666665, "name": "cb8a681fe4a3b001807831471885a08e", "fusion_lon": 0.0, "bike_id": "cb8a681fe4a3b001807831471885a08e", "is_disabled": 0, "is_reserved": 0}, {"rental_uris": {"ios": "https://dc.lft.to/lastmile_qr_scan", "android": "https://dc.lft.to/lastmile_qr_scan"}, "lon": -77.032491, "type": "electric_bike", "fusion_lat": 0.0, "lat": 38.888572833333335, "name": "9fd4a3c46c0bdc086d39ceef29ef25bc", "fusion_lon": 0.0, "bike_id": "9fd4a3c46c0bdc086d39ceef29ef25bc", "is_disabled": 0, "is_reserved": 0}, {"rental_uris": {"ios": "https://dc.lft.to/lastmile_qr_scan", "android": "https://dc.lft.to/lastmile_qr_scan"}, "lon": -77.044129, "type": "electric_scooter", "fusion_lat": 0.0, "lat": 38.905755666666664, "name": "7264fca8e4a4d78cc29739412e2355fa", "fusion_lon": 0.0, "bike_id": "7264fca8e4a4d78cc29739412e2355fa", "is_disabled": 0, "is_reserved": 0}, {"rental_uris": {"ios": "https://dc.lft.to/lastmile_qr_scan", "android": "https://dc.lft.to/lastmile_qr_scan"}, "lon": -77.0321205, "type": "electric_scooter", "fusion_lat": 0.0, "lat": 38.91710583333333, "name": "307dfafc71c1eaa6f79368cba1400d1d", "fusion_lon": 0.0, "bike_id": "307dfafc71c1eaa6f79368cba1400d1d", "is_disabled": 0, "is_reserved": 0}, {"rental_uris": {"ios": "https://dc.lft.to/lastmile_qr_scan", "android": "https://dc.lft.to/lastmile_qr_scan"}, "lon": -77.0501095, "type": "electric_scooter", "fusion_lat": 0.0, "lat": 38.90732333333333, "name": "787d8ee1fbddcb8273618a168e45a456", "fusion_lon": 0.0, "bike_id": "787d8ee1fbddcb8273618a168e45a456", "is_disabled": 0, "is_reserved": 0}, {"rental_uris": {"ios": "https://dc.lft.to/lastmile_qr_scan", "android": "https://dc.lft.to/lastmile_qr_scan"}, "lon": -77.0400555, "type": "electric_scooter", "fusion_lat": 0.0, "lat": 38.932499666666665, "name": "c0d55e0911acb5d7da374e6b80b7e4cd", "fusion_lon": 0.0, "bike_id": "c0d55e0911acb5d7da374e6b80b7e4cd", "is_disabled": 0, "is_reserved": 0}, {"rental_uris": {"ios": "https://dc.lft.to/lastmile_qr_scan", "android": "https://dc.lft.to/lastmile_qr_scan"}, "lon": -76.99703716666667, "type": "electric_scooter", "fusion_lat": 0.0, "lat": 38.89997283333334, "name": "4dfe47d5a100f2c0d211cc0d5e531dde", "fusion_lon": 0.0, "bike_id": "4dfe47d5a100f2c0d211cc0d5e531dde", "is_disabled": 0, "is_reserved": 0}, {"rental_uris": {"ios": "https://dc.lft.to/lastmile_qr_scan", "android": "https://dc.lft.to/lastmile_qr_scan"}, "lon": -77.050581, "type": "electric_scooter", "fusion_lat": 0.0, "lat": 38.90087466666667, "name": "4bfca925e2ae62b75cc9765f541f3613", "fusion_lon": 0.0, "bike_id": "4bfca925e2ae62b75cc9765f541f3613", "is_disabled": 0, "is_reserved": 0}, {"rental_uris": {"ios": "https://dc.lft.to/lastmile_qr_scan", "android": "https://dc.lft.to/lastmile_qr_scan"}, "lon": -77.0201975, "type": "electric_scooter", "fusion_lat": 0.0, "lat": 38.916493, "name": "42338175271acd5d9edafa558d197db9", "fusion_lon": 0.0, "bike_id": "42338175271acd5d9edafa558d197db9", "is_disabled": 0, "is_reserved": 0}, {"rental_uris": {"ios": "https://dc.lft.to/lastmile_qr_scan", "android": "https://dc.lft.to/lastmile_qr_scan"}, "lon": -77.03471516666667, "type": "electric_scooter", "fusion_lat": 0.0, "lat": 38.919898833333335, "name": "5e1d30ef6c02bac52459ddf263f6f463", "fusion_lon": 0.0, "bike_id": "5e1d30ef6c02bac52459ddf263f6f463", "is_disabled": 0, "is_reserved": 0}, {"rental_uris": {"ios": "https://dc.lft.to/lastmile_qr_scan", "android": "https://dc.lft.to/lastmile_qr_scan"}, "lon": -76.96756383333333, "type": "electric_bike", "fusion_lat": 0.0, "lat": 38.875549, "name": "cdefdfb93667f2629a73227c7aee8da7", "fusion_lon": 0.0, "bike_id": "cdefdfb93667f2629a73227c7aee8da7", "is_disabled": 0, "is_reserved": 0}, {"rental_uris": {"ios": "https://dc.lft.to/lastmile_qr_scan", "android": "https://dc.lft.to/lastmile_qr_scan"}, "lon": -77.02099216666667, "type": "electric_scooter", "fusion_lat": 0.0, "lat": 38.914175166666666, "name": "918ad49d86ef385faacacf776e514ef7", "fusion_lon": 0.0, "bike_id": "918ad49d86ef385faacacf776e514ef7", "is_disabled": 0, "is_reserved": 0}, {"rental_uris": {"ios": "https://dc.lft.to/lastmile_qr_scan", "android": "https://dc.lft.to/lastmile_qr_scan"}, "lon": -77.05474583333333, "type": "electric_scooter", "fusion_lat": 0.0, "lat": 38.921, "name": "68eda44384e9484b368b8c97b8cb1c25", "fusion_lon": 0.0, "bike_id": "68eda44384e9484b368b8c97b8cb1c25", "is_disabled": 0, "is_reserved": 0}, {"rental_uris": {"ios": "https://dc.lft.to/lastmile_qr_scan", "android": "https://dc.lft.to/lastmile_qr_scan"}, "lon": -76.99501116666667, "type": "electric_scooter", "fusion_lat": 0.0, "lat": 38.880104, "name": "4484bdf148ce201d74de5657a3f867a6", "fusion_lon": 0.0, "bike_id": "4484bdf148ce201d74de5657a3f867a6", "is_disabled": 0, "is_reserved": 0}, {"rental_uris": {"ios": "https://dc.lft.to/lastmile_qr_scan", "android": "https://dc.lft.to/lastmile_qr_scan"}, "lon": -77.04640966666666, "type": "electric_scooter", "fusion_lat": 0.0, "lat": 38.906650166666665, "name": "af40886acf162c07d405e8b3033fcd09", "fusion_lon": 0.0, "bike_id": "af40886acf162c07d405e8b3033fcd09", "is_disabled": 0, "is_reserved": 0}, {"rental_uris": {"ios": "https://dc.lft.to/lastmile_qr_scan", "android": "https://dc.lft.to/lastmile_qr_scan"}, "lon": -76.98712383333333, "type": "electric_scooter", "fusion_lat": 0.0, "lat": 38.862566666666666, "name": "523d10d04c9d6e485433ca5c8f563ea3", "fusion_lon": 0.0, "bike_id": "523d10d04c9d6e485433ca5c8f563ea3", "is_disabled": 0, "is_reserved": 0}, {"rental_uris": {"ios": "https://dc.lft.to/lastmile_qr_scan", "android": "https://dc.lft.to/lastmile_qr_scan"}, "lon": -76.941792, "type": "electric_scooter", "fusion_lat": 0.0, "lat": 38.88221433333333, "name": "a460ff0bf24c1be58105e4654d2ed056", "fusion_lon": 0.0, "bike_id": "a460ff0bf24c1be58105e4654d2ed056", "is_disabled": 0, "is_reserved": 0}, {"rental_uris": {"ios": "https://dc.lft.to/lastmile_qr_scan", "android": "https://dc.lft.to/lastmile_qr_scan"}, "lon": -77.03615083333334, "type": "electric_scooter", "fusion_lat": 0.0, "lat": 38.9325635, "name": "abe7cac18c3a3a3b370b631fa333f030", "fusion_lon": 0.0, "bike_id": "abe7cac18c3a3a3b370b631fa333f030", "is_disabled": 0, "is_reserved": 0}, {"rental_uris": {"ios": "https://dc.lft.to/lastmile_qr_scan", "android": "https://dc.lft.to/lastmile_qr_scan"}, "lon": -77.04488216666667, "type": "electric_scooter", "fusion_lat": 0.0, "lat": 38.910538833333334, "name": "39a3edc983e3ecf651e7097447dda2dd", "fusion_lon": 0.0, "bike_id": "39a3edc983e3ecf651e7097447dda2dd", "is_disabled": 0, "is_reserved": 0}, {"rental_uris": {"ios": "https://dc.lft.to/lastmile_qr_scan", "android": "https://dc.lft.to/lastmile_qr_scan"}, "lon": -77.04265366666667, "type": "electric_scooter", "fusion_lat": 0.0, "lat": 38.92208133333333, "name": "7b361f29d3cc2c30effd96f8b76ba131", "fusion_lon": 0.0, "bike_id": "7b361f29d3cc2c30effd96f8b76ba131", "is_disabled": 0, "is_reserved": 0}, {"rental_uris": {"ios": "https://dc.lft.to/lastmile_qr_scan", "android": "https://dc.lft.to/lastmile_qr_scan"}, "lon": -76.99146566666667, "type": "electric_scooter", "fusion_lat": 0.0, "lat": 38.9003845, "name": "d3ab070677e27e65bb8967f9cd5233c1", "fusion_lon": 0.0, "bike_id": "d3ab070677e27e65bb8967f9cd5233c1", "is_disabled": 0, "is_reserved": 0}, {"rental_uris": {"ios": "https://dc.lft.to/lastmile_qr_scan", "android": "https://dc.lft.to/lastmile_qr_scan"}, "lon": -76.95410066666666, "type": "electric_scooter", "fusion_lat": 0.0, "lat": 38.889953, "name": "aa1a49cbd080b921b5349ebaa674daa2", "fusion_lon": 0.0, "bike_id": "aa1a49cbd080b921b5349ebaa674daa2", "is_disabled": 0, "is_reserved": 0}, {"rental_uris": {"ios": "https://dc.lft.to/lastmile_qr_scan", "android": "https://dc.lft.to/lastmile_qr_scan"}, "lon": -77.03864083333333, "type": "electric_scooter", "fusion_lat": 0.0, "lat": 38.915569, "name": "46e3189af2fff81aab5a6e3b930eeb62", "fusion_lon": 0.0, "bike_id": "46e3189af2fff81aab5a6e3b930eeb62", "is_disabled": 0, "is_reserved": 0}, {"rental_uris": {"ios": "https://dc.lft.to/lastmile_qr_scan", "android": "https://dc.lft.to/lastmile_qr_scan"}, "lon": -76.94420333333333, "type": "electric_scooter", "fusion_lat": 0.0, "lat": 38.89795266666667, "name": "dacfedd327052af3a8ad84b01624c385", "fusion_lon": 0.0, "bike_id": "dacfedd327052af3a8ad84b01624c385", "is_disabled": 0, "is_reserved": 0}, {"rental_uris": {"ios": "https://dc.lft.to/lastmile_qr_scan", "android": "https://dc.lft.to/lastmile_qr_scan"}, "lon": -76.98340433333334, "type": "electric_scooter", "fusion_lat": 0.0, "lat": 38.915386833333336, "name": "71d295a7a1fc4bbf2cd1d197cf610a98", "fusion_lon": 0.0, "bike_id": "71d295a7a1fc4bbf2cd1d197cf610a98", "is_disabled": 0, "is_reserved": 0}, {"rental_uris": {"ios": "https://dc.lft.to/lastmile_qr_scan", "android": "https://dc.lft.to/lastmile_qr_scan"}, "lon": -77.03222766666667, "type": "electric_scooter", "fusion_lat": 0.0, "lat": 38.92674183333333, "name": "07e2072dc0f4a32a6614d8c0b0238bbc", "fusion_lon": 0.0, "bike_id": "07e2072dc0f4a32a6614d8c0b0238bbc", "is_disabled": 0, "is_reserved": 0}, {"rental_uris": {"ios": "https://dc.lft.to/lastmile_qr_scan", "android": "https://dc.lft.to/lastmile_qr_scan"}, "lon": -77.042204, "type": "electric_scooter", "fusion_lat": 0.0, "lat": 38.92111716666667, "name": "d32db61ca0a81ccaff5fd87efa00fad5", "fusion_lon": 0.0, "bike_id": "d32db61ca0a81ccaff5fd87efa00fad5", "is_disabled": 0, "is_reserved": 0}, {"rental_uris": {"ios": "https://dc.lft.to/lastmile_qr_scan", "android": "https://dc.lft.to/lastmile_qr_scan"}, "lon": -77.064926, "type": "electric_bike", "fusion_lat": 0.0, "lat": 38.964974166666664, "name": "16f626d2b582f084976d090a547e78da", "fusion_lon": 0.0, "bike_id": "16f626d2b582f084976d090a547e78da", "is_disabled": 0, "is_reserved": 0}, {"rental_uris": {"ios": "https://dc.lft.to/lastmile_qr_scan", "android": "https://dc.lft.to/lastmile_qr_scan"}, "lon": -77.01615016666666, "type": "electric_scooter", "fusion_lat": 0.0, "lat": 38.9060065, "name": "a884cefe43fc60c51d0b0f5f4f2c6fed", "fusion_lon": 0.0, "bike_id": "a884cefe43fc60c51d0b0f5f4f2c6fed", "is_disabled": 0, "is_reserved": 0}, {"rental_uris": {"ios": "https://dc.lft.to/lastmile_qr_scan", "android": "https://dc.lft.to/lastmile_qr_scan"}, "lon": -77.00284866666667, "type": "electric_scooter", "fusion_lat": 0.0, "lat": 38.905552, "name": "56f259b213d8384860de6c644fd2d087", "fusion_lon": 0.0, "bike_id": "56f259b213d8384860de6c644fd2d087", "is_disabled": 0, "is_reserved": 0}, {"rental_uris": {"ios": "https://dc.lft.to/lastmile_qr_scan", "android": "https://dc.lft.to/lastmile_qr_scan"}, "lon": -77.0486335, "type": "electric_scooter", "fusion_lat": 0.0, "lat": 38.90850866666667, "name": "833349cf324cdc8178be3947f5f7340c", "fusion_lon": 0.0, "bike_id": "833349cf324cdc8178be3947f5f7340c", "is_disabled": 0, "is_reserved": 0}, {"rental_uris": {"ios": "https://dc.lft.to/lastmile_qr_scan", "android": "https://dc.lft.to/lastmile_qr_scan"}, "lon": -77.05020966666666, "type": "electric_scooter", "fusion_lat": 0.0, "lat": 38.917954333333334, "name": "e2676ab23c78b2a05e57c2acb80ac0e4", "fusion_lon": 0.0, "bike_id": "e2676ab23c78b2a05e57c2acb80ac0e4", "is_disabled": 0, "is_reserved": 0}, {"rental_uris": {"ios": "https://dc.lft.to/lastmile_qr_scan", "android": "https://dc.lft.to/lastmile_qr_scan"}, "lon": -77.02713016666667, "type": "electric_scooter", "fusion_lat": 0.0, "lat": 38.92486916666667, "name": "99a0c48da2b6bf0eb1a8781ae6a50374", "fusion_lon": 0.0, "bike_id": "99a0c48da2b6bf0eb1a8781ae6a50374", "is_disabled": 0, "is_reserved": 0}, {"rental_uris": {"ios": "https://dc.lft.to/lastmile_qr_scan", "android": "https://dc.lft.to/lastmile_qr_scan"}, "lon": -77.04156816666666, "type": "electric_scooter", "fusion_lat": 0.0, "lat": 38.910291, "name": "0f53ef2bca1b81c9b38f3d81418966b2", "fusion_lon": 0.0, "bike_id": "0f53ef2bca1b81c9b38f3d81418966b2", "is_disabled": 0, "is_reserved": 0}, {"rental_uris": {"ios": "https://dc.lft.to/lastmile_qr_scan", "android": "https://dc.lft.to/lastmile_qr_scan"}, "lon": -77.06932166666667, "type": "electric_scooter", "fusion_lat": 0.0, "lat": 38.90513816666667, "name": "3a8b8f04be0dc3a44c8ae2fed2b34861", "fusion_lon": 0.0, "bike_id": "3a8b8f04be0dc3a44c8ae2fed2b34861", "is_disabled": 0, "is_reserved": 0}, {"rental_uris": {"ios": "https://dc.lft.to/lastmile_qr_scan", "android": "https://dc.lft.to/lastmile_qr_scan"}, "lon": -76.9969585, "type": "electric_scooter", "fusion_lat": 0.0, "lat": 38.907977, "name": "5e434773ab302ae8e187eb16e4ba5fcf", "fusion_lon": 0.0, "bike_id": "5e434773ab302ae8e187eb16e4ba5fcf", "is_disabled": 0, "is_reserved": 0}, {"rental_uris": {"ios": "https://dc.lft.to/lastmile_qr_scan", "android": "https://dc.lft.to/lastmile_qr_scan"}, "lon": -77.02168466666667, "type": "electric_bike", "fusion_lat": 0.0, "lat": 38.892538333333334, "name": "fc4feadfbe89d4eb251c0a7d521d66e9", "fusion_lon": 0.0, "bike_id": "fc4feadfbe89d4eb251c0a7d521d66e9", "is_disabled": 0, "is_reserved": 0}, {"rental_uris": {"ios": "https://dc.lft.to/lastmile_qr_scan", "android": "https://dc.lft.to/lastmile_qr_scan"}, "lon": -77.04627366666666, "type": "electric_scooter", "fusion_lat": 0.0, "lat": 38.91519366666667, "name": "0b9176eb77d66446bfa0e8c0936f7e25", "fusion_lon": 0.0, "bike_id": "0b9176eb77d66446bfa0e8c0936f7e25", "is_disabled": 0, "is_reserved": 0}, {"rental_uris": {"ios": "https://dc.lft.to/lastmile_qr_scan", "android": "https://dc.lft.to/lastmile_qr_scan"}, "lon": -77.01640616666667, "type": "electric_scooter", "fusion_lat": 0.0, "lat": 38.929422, "name": "c7d89f10e6f99311bc080ccf627ec071", "fusion_lon": 0.0, "bike_id": "c7d89f10e6f99311bc080ccf627ec071", "is_disabled": 0, "is_reserved": 0}, {"rental_uris": {"ios": "https://dc.lft.to/lastmile_qr_scan", "android": "https://dc.lft.to/lastmile_qr_scan"}, "lon": -77.0376375, "type": "electric_scooter", "fusion_lat": 0.0, "lat": 38.93614016666667, "name": "c84d743a4c4f7fbcb4940d5d430c2dba", "fusion_lon": 0.0, "bike_id": "c84d743a4c4f7fbcb4940d5d430c2dba", "is_disabled": 0, "is_reserved": 0}, {"rental_uris": {"ios": "https://dc.lft.to/lastmile_qr_scan", "android": "https://dc.lft.to/lastmile_qr_scan"}, "lon": -77.03837433333334, "type": "electric_scooter", "fusion_lat": 0.0, "lat": 38.931130333333336, "name": "f7492adbe1fa5377efc5f19d52f3cc6d", "fusion_lon": 0.0, "bike_id": "f7492adbe1fa5377efc5f19d52f3cc6d", "is_disabled": 0, "is_reserved": 0}, {"rental_uris": {"ios": "https://dc.lft.to/lastmile_qr_scan", "android": "https://dc.lft.to/lastmile_qr_scan"}, "lon": -77.06365966666667, "type": "electric_scooter", "fusion_lat": 0.0, "lat": 38.909344833333336, "name": "618144bf481119ef12dbd408338a0386", "fusion_lon": 0.0, "bike_id": "618144bf481119ef12dbd408338a0386", "is_disabled": 0, "is_reserved": 0}, {"rental_uris": {"ios": "https://dc.lft.to/lastmile_qr_scan", "android": "https://dc.lft.to/lastmile_qr_scan"}, "lon": -77.01339383333334, "type": "electric_scooter", "fusion_lat": 0.0, "lat": 38.919419500000004, "name": "3150e428f233d4182ace58b2397e307d", "fusion_lon": 0.0, "bike_id": "3150e428f233d4182ace58b2397e307d", "is_disabled": 0, "is_reserved": 0}, {"rental_uris": {"ios": "https://dc.lft.to/lastmile_qr_scan", "android": "https://dc.lft.to/lastmile_qr_scan"}, "lon": -76.99494416666667, "type": "electric_scooter", "fusion_lat": 0.0, "lat": 38.86243483333333, "name": "28a453161fc037068a7d7435848379cb", "fusion_lon": 0.0, "bike_id": "28a453161fc037068a7d7435848379cb", "is_disabled": 0, "is_reserved": 0}, {"rental_uris": {"ios": "https://dc.lft.to/lastmile_qr_scan", "android": "https://dc.lft.to/lastmile_qr_scan"}, "lon": -77.03974433333333, "type": "electric_scooter", "fusion_lat": 0.0, "lat": 38.898983, "name": "9a84382ffda97ed606689452d2d94e17", "fusion_lon": 0.0, "bike_id": "9a84382ffda97ed606689452d2d94e17", "is_disabled": 0, "is_reserved": 0}, {"rental_uris": {"ios": "https://dc.lft.to/lastmile_qr_scan", "android": "https://dc.lft.to/lastmile_qr_scan"}, "lon": -77.03612116666666, "type": "electric_scooter", "fusion_lat": 0.0, "lat": 38.928557833333336, "name": "9d5e552257e96f22057ae1f26ec19fd9", "fusion_lon": 0.0, "bike_id": "9d5e552257e96f22057ae1f26ec19fd9", "is_disabled": 0, "is_reserved": 0}, {"rental_uris": {"ios": "https://dc.lft.to/lastmile_qr_scan", "android": "https://dc.lft.to/lastmile_qr_scan"}, "lon": -76.93173233333333, "type": "electric_scooter", "fusion_lat": 0.0, "lat": 38.89888533333333, "name": "313286c3d1863770bf0cd7c6eefad2f6", "fusion_lon": 0.0, "bike_id": "313286c3d1863770bf0cd7c6eefad2f6", "is_disabled": 0, "is_reserved": 0}, {"rental_uris": {"ios": "https://dc.lft.to/lastmile_qr_scan", "android": "https://dc.lft.to/lastmile_qr_scan"}, "lon": -77.1128005, "type": "electric_bike", "fusion_lat": 0.0, "lat": 38.85630916666667, "name": "cfe5feb24f746fb613c4707b9a00eb47", "fusion_lon": 0.0, "bike_id": "cfe5feb24f746fb613c4707b9a00eb47", "is_disabled": 0, "is_reserved": 0}, {"rental_uris": {"ios": "https://dc.lft.to/lastmile_qr_scan", "android": "https://dc.lft.to/lastmile_qr_scan"}, "lon": -77.02977666666666, "type": "electric_scooter", "fusion_lat": 0.0, "lat": 38.94603383333333, "name": "8445c9bc227516c82d9ed2e34958a1b1", "fusion_lon": 0.0, "bike_id": "8445c9bc227516c82d9ed2e34958a1b1", "is_disabled": 0, "is_reserved": 0}, {"rental_uris": {"ios": "https://dc.lft.to/lastmile_qr_scan", "android": "https://dc.lft.to/lastmile_qr_scan"}, "lon": -77.00201666666666, "type": "electric_scooter", "fusion_lat": 0.0, "lat": 38.900378333333336, "name": "8c34463648c5d55b43244841a4883bdb", "fusion_lon": 0.0, "bike_id": "8c34463648c5d55b43244841a4883bdb", "is_disabled": 0, "is_reserved": 0}, {"rental_uris": {"ios": "https://dc.lft.to/lastmile_qr_scan", "android": "https://dc.lft.to/lastmile_qr_scan"}, "lon": -77.0421955, "type": "electric_scooter", "fusion_lat": 0.0, "lat": 38.920988666666666, "name": "6f20ab318f152ba25961deb7a3f4275d", "fusion_lon": 0.0, "bike_id": "6f20ab318f152ba25961deb7a3f4275d", "is_disabled": 0, "is_reserved": 0}, {"rental_uris": {"ios": "https://dc.lft.to/lastmile_qr_scan", "android": "https://dc.lft.to/lastmile_qr_scan"}, "lon": -77.03213283333334, "type": "electric_scooter", "fusion_lat": 0.0, "lat": 38.89227783333333, "name": "060c7dde8bd337c744d0ae5ab1c94ac3", "fusion_lon": 0.0, "bike_id": "060c7dde8bd337c744d0ae5ab1c94ac3", "is_disabled": 0, "is_reserved": 0}, {"rental_uris": {"ios": "https://dc.lft.to/lastmile_qr_scan", "android": "https://dc.lft.to/lastmile_qr_scan"}, "lon": -77.04816833333334, "type": "electric_scooter", "fusion_lat": 0.0, "lat": 38.916394833333335, "name": "8146225b3e95f0ae753fdb9ee40ffa5a", "fusion_lon": 0.0, "bike_id": "8146225b3e95f0ae753fdb9ee40ffa5a", "is_disabled": 0, "is_reserved": 0}, {"rental_uris": {"ios": "https://dc.lft.to/lastmile_qr_scan", "android": "https://dc.lft.to/lastmile_qr_scan"}, "lon": -77.00559316666667, "type": "electric_scooter", "fusion_lat": 0.0, "lat": 38.880213, "name": "ad4f594b58b190867565e93faf1b0f14", "fusion_lon": 0.0, "bike_id": "ad4f594b58b190867565e93faf1b0f14", "is_disabled": 0, "is_reserved": 0}, {"rental_uris": {"ios": "https://dc.lft.to/lastmile_qr_scan", "android": "https://dc.lft.to/lastmile_qr_scan"}, "lon": -77.19902766666667, "type": "electric_bike", "fusion_lat": 0.0, "lat": 38.87527866666667, "name": "544cedef492cd5b728c0eb391e937718", "fusion_lon": 0.0, "bike_id": "544cedef492cd5b728c0eb391e937718", "is_disabled": 0, "is_reserved": 0}, {"rental_uris": {"ios": "https://dc.lft.to/lastmile_qr_scan", "android": "https://dc.lft.to/lastmile_qr_scan"}, "lon": -76.9335915, "type": "electric_scooter", "fusion_lat": 0.0, "lat": 38.89919916666667, "name": "b45cc2a0a59fe96ff63087e969eac679", "fusion_lon": 0.0, "bike_id": "b45cc2a0a59fe96ff63087e969eac679", "is_disabled": 0, "is_reserved": 0}, {"rental_uris": {"ios": "https://dc.lft.to/lastmile_qr_scan", "android": "https://dc.lft.to/lastmile_qr_scan"}, "lon": -77.0292785, "type": "electric_scooter", "fusion_lat": 0.0, "lat": 38.895399833333336, "name": "88797d5c937fa8d24e17725afd91727e", "fusion_lon": 0.0, "bike_id": "88797d5c937fa8d24e17725afd91727e", "is_disabled": 0, "is_reserved": 0}, {"rental_uris": {"ios": "https://dc.lft.to/lastmile_qr_scan", "android": "https://dc.lft.to/lastmile_qr_scan"}, "lon": -76.985113, "type": "electric_scooter", "fusion_lat": 0.0, "lat": 38.900872, "name": "9ee9ef9c9b6c15d42679985c1e11c9a4", "fusion_lon": 0.0, "bike_id": "9ee9ef9c9b6c15d42679985c1e11c9a4", "is_disabled": 0, "is_reserved": 0}, {"rental_uris": {"ios": "https://dc.lft.to/lastmile_qr_scan", "android": "https://dc.lft.to/lastmile_qr_scan"}, "lon": -77.04200016666667, "type": "electric_scooter", "fusion_lat": 0.0, "lat": 38.911036333333335, "name": "adf04a8c28dbcfec4f01fc7b3cd8508a", "fusion_lon": 0.0, "bike_id": "adf04a8c28dbcfec4f01fc7b3cd8508a", "is_disabled": 0, "is_reserved": 0}, {"rental_uris": {"ios": "https://dc.lft.to/lastmile_qr_scan", "android": "https://dc.lft.to/lastmile_qr_scan"}, "lon": -77.0405495, "type": "electric_scooter", "fusion_lat": 0.0, "lat": 38.910169833333335, "name": "6311f57867c659af881cd8585cfd0b6a", "fusion_lon": 0.0, "bike_id": "6311f57867c659af881cd8585cfd0b6a", "is_disabled": 0, "is_reserved": 0}, {"rental_uris": {"ios": "https://dc.lft.to/lastmile_qr_scan", "android": "https://dc.lft.to/lastmile_qr_scan"}, "lon": -77.03656483333333, "type": "electric_scooter", "fusion_lat": 0.0, "lat": 38.954954, "name": "91752f086083f32f8ef4a2a1a12ded31", "fusion_lon": 0.0, "bike_id": "91752f086083f32f8ef4a2a1a12ded31", "is_disabled": 0, "is_reserved": 0}, {"rental_uris": {"ios": "https://dc.lft.to/lastmile_qr_scan", "android": "https://dc.lft.to/lastmile_qr_scan"}, "lon": -77.04706166666666, "type": "electric_scooter", "fusion_lat": 0.0, "lat": 38.897366833333336, "name": "269e0ab3b509457835e619b0616bcf2f", "fusion_lon": 0.0, "bike_id": "269e0ab3b509457835e619b0616bcf2f", "is_disabled": 0, "is_reserved": 0}, {"rental_uris": {"ios": "https://dc.lft.to/lastmile_qr_scan", "android": "https://dc.lft.to/lastmile_qr_scan"}, "lon": -77.02307416666666, "type": "electric_scooter", "fusion_lat": 0.0, "lat": 38.916918333333335, "name": "d99cbac16bdf8c8f1c9365264c31f821", "fusion_lon": 0.0, "bike_id": "d99cbac16bdf8c8f1c9365264c31f821", "is_disabled": 0, "is_reserved": 0}, {"rental_uris": {"ios": "https://dc.lft.to/lastmile_qr_scan", "android": "https://dc.lft.to/lastmile_qr_scan"}, "lon": -77.041698, "type": "electric_scooter", "fusion_lat": 0.0, "lat": 38.91208433333333, "name": "b47ee9d8027abba23052e39fd3e32ec0", "fusion_lon": 0.0, "bike_id": "b47ee9d8027abba23052e39fd3e32ec0", "is_disabled": 0, "is_reserved": 0}, {"rental_uris": {"ios": "https://dc.lft.to/lastmile_qr_scan", "android": "https://dc.lft.to/lastmile_qr_scan"}, "lon": -77.02711416666666, "type": "electric_scooter", "fusion_lat": 0.0, "lat": 38.9066775, "name": "589f137d033e6a0c4e0fa23a411b3afe", "fusion_lon": 0.0, "bike_id": "589f137d033e6a0c4e0fa23a411b3afe", "is_disabled": 0, "is_reserved": 0}, {"rental_uris": {"ios": "https://dc.lft.to/lastmile_qr_scan", "android": "https://dc.lft.to/lastmile_qr_scan"}, "lon": -77.09158216666667, "type": "electric_bike", "fusion_lat": 0.0, "lat": 38.96760583333333, "name": "3d847d30f02d905757cd2a3d038c87f9", "fusion_lon": 0.0, "bike_id": "3d847d30f02d905757cd2a3d038c87f9", "is_disabled": 0, "is_reserved": 0}, {"rental_uris": {"ios": "https://dc.lft.to/lastmile_qr_scan", "android": "https://dc.lft.to/lastmile_qr_scan"}, "lon": -77.05413266666666, "type": "electric_scooter", "fusion_lat": 0.0, "lat": 38.903959, "name": "69140462b63af6fcb5b7efa23d7398bf", "fusion_lon": 0.0, "bike_id": "69140462b63af6fcb5b7efa23d7398bf", "is_disabled": 0, "is_reserved": 0}, {"rental_uris": {"ios": "https://dc.lft.to/lastmile_qr_scan", "android": "https://dc.lft.to/lastmile_qr_scan"}, "lon": -77.022184, "type": "electric_scooter", "fusion_lat": 0.0, "lat": 38.905692333333334, "name": "75ebe7465b1e083c95ecbe78e19a277c", "fusion_lon": 0.0, "bike_id": "75ebe7465b1e083c95ecbe78e19a277c", "is_disabled": 0, "is_reserved": 0}, {"rental_uris": {"ios": "https://dc.lft.to/lastmile_qr_scan", "android": "https://dc.lft.to/lastmile_qr_scan"}, "lon": -77.02945466666667, "type": "electric_scooter", "fusion_lat": 0.0, "lat": 38.90508466666667, "name": "3d8ca8f86cc4919996654ed9900d9fd1", "fusion_lon": 0.0, "bike_id": "3d8ca8f86cc4919996654ed9900d9fd1", "is_disabled": 0, "is_reserved": 0}, {"rental_uris": {"ios": "https://dc.lft.to/lastmile_qr_scan", "android": "https://dc.lft.to/lastmile_qr_scan"}, "lon": -77.02462116666666, "type": "electric_scooter", "fusion_lat": 0.0, "lat": 38.91707, "name": "26e72626ed626c372bcca040ae079201", "fusion_lon": 0.0, "bike_id": "26e72626ed626c372bcca040ae079201", "is_disabled": 0, "is_reserved": 0}, {"rental_uris": {"ios": "https://dc.lft.to/lastmile_qr_scan", "android": "https://dc.lft.to/lastmile_qr_scan"}, "lon": -77.031865, "type": "electric_scooter", "fusion_lat": 0.0, "lat": 38.91715466666667, "name": "562157886a658c379b8cb71d83fc5c94", "fusion_lon": 0.0, "bike_id": "562157886a658c379b8cb71d83fc5c94", "is_disabled": 0, "is_reserved": 0}, {"rental_uris": {"ios": "https://dc.lft.to/lastmile_qr_scan", "android": "https://dc.lft.to/lastmile_qr_scan"}, "lon": -77.02300966666667, "type": "electric_scooter", "fusion_lat": 0.0, "lat": 38.88334583333334, "name": "6cae6b0ed8ea27dde63477375de3d7c1", "fusion_lon": 0.0, "bike_id": "6cae6b0ed8ea27dde63477375de3d7c1", "is_disabled": 0, "is_reserved": 0}, {"rental_uris": {"ios": "https://dc.lft.to/lastmile_qr_scan", "android": "https://dc.lft.to/lastmile_qr_scan"}, "lon": -77.13093816666667, "type": "electric_bike", "fusion_lat": 0.0, "lat": 38.8616315, "name": "05c7018c5199abe2e1225909e5c3f11e", "fusion_lon": 0.0, "bike_id": "05c7018c5199abe2e1225909e5c3f11e", "is_disabled": 0, "is_reserved": 0}, {"rental_uris": {"ios": "https://dc.lft.to/lastmile_qr_scan", "android": "https://dc.lft.to/lastmile_qr_scan"}, "lon": -76.998571, "type": "electric_scooter", "fusion_lat": 0.0, "lat": 38.90779916666666, "name": "0dcbc1e4435738d253e79b8d356aa35f", "fusion_lon": 0.0, "bike_id": "0dcbc1e4435738d253e79b8d356aa35f", "is_disabled": 0, "is_reserved": 0}, {"rental_uris": {"ios": "https://dc.lft.to/lastmile_qr_scan", "android": "https://dc.lft.to/lastmile_qr_scan"}, "lon": -76.91919266666666, "type": "electric_scooter", "fusion_lat": 0.0, "lat": 38.900430166666666, "name": "051f9d20389f14ccf9e7539df5f0009f", "fusion_lon": 0.0, "bike_id": "051f9d20389f14ccf9e7539df5f0009f", "is_disabled": 0, "is_reserved": 0}, {"rental_uris": {"ios": "https://dc.lft.to/lastmile_qr_scan", "android": "https://dc.lft.to/lastmile_qr_scan"}, "lon": -76.98712483333334, "type": "electric_scooter", "fusion_lat": 0.0, "lat": 38.866982, "name": "7c19c7fc73d255ab07f19e57cdae8a3a", "fusion_lon": 0.0, "bike_id": "7c19c7fc73d255ab07f19e57cdae8a3a", "is_disabled": 0, "is_reserved": 0}, {"rental_uris": {"ios": "https://dc.lft.to/lastmile_qr_scan", "android": "https://dc.lft.to/lastmile_qr_scan"}, "lon": -76.93172, "type": "electric_scooter", "fusion_lat": 0.0, "lat": 38.898846666666664, "name": "54203df9e23942b68e425ac0483c11a6", "fusion_lon": 0.0, "bike_id": "54203df9e23942b68e425ac0483c11a6", "is_disabled": 0, "is_reserved": 0}, {"rental_uris": {"ios": "https://dc.lft.to/lastmile_qr_scan", "android": "https://dc.lft.to/lastmile_qr_scan"}, "lon": -77.022097, "type": "electric_scooter", "fusion_lat": 0.0, "lat": 38.92231683333333, "name": "bf22bde7869687995f83a49a657466cd", "fusion_lon": 0.0, "bike_id": "bf22bde7869687995f83a49a657466cd", "is_disabled": 0, "is_reserved": 0}, {"rental_uris": {"ios": "https://dc.lft.to/lastmile_qr_scan", "android": "https://dc.lft.to/lastmile_qr_scan"}, "lon": -77.0329015, "type": "electric_scooter", "fusion_lat": 0.0, "lat": 38.909650166666665, "name": "268f246bfb71ec2d1d85aa0da643b6e9", "fusion_lon": 0.0, "bike_id": "268f246bfb71ec2d1d85aa0da643b6e9", "is_disabled": 0, "is_reserved": 0}, {"rental_uris": {"ios": "https://dc.lft.to/lastmile_qr_scan", "android": "https://dc.lft.to/lastmile_qr_scan"}, "lon": -77.05039516666666, "type": "electric_scooter", "fusion_lat": 0.0, "lat": 38.923604833333336, "name": "155c131a5787bb220e1f6328f7935508", "fusion_lon": 0.0, "bike_id": "155c131a5787bb220e1f6328f7935508", "is_disabled": 0, "is_reserved": 0}, {"rental_uris": {"ios": "https://dc.lft.to/lastmile_qr_scan", "android": "https://dc.lft.to/lastmile_qr_scan"}, "lon": -77.00785316666666, "type": "electric_bike", "fusion_lat": 0.0, "lat": 38.92697283333333, "name": "a1c3edbacd39d517e0ea2854f314685d", "fusion_lon": 0.0, "bike_id": "a1c3edbacd39d517e0ea2854f314685d", "is_disabled": 0, "is_reserved": 0}, {"rental_uris": {"ios": "https://dc.lft.to/lastmile_qr_scan", "android": "https://dc.lft.to/lastmile_qr_scan"}, "lon": -77.03170833333333, "type": "electric_scooter", "fusion_lat": 0.0, "lat": 38.887344166666665, "name": "760be7e23b6856c03a5100c7c7c088e8", "fusion_lon": 0.0, "bike_id": "760be7e23b6856c03a5100c7c7c088e8", "is_disabled": 0, "is_reserved": 0}, {"rental_uris": {"ios": "https://dc.lft.to/lastmile_qr_scan", "android": "https://dc.lft.to/lastmile_qr_scan"}, "lon": -77.05219166666667, "type": "electric_scooter", "fusion_lat": 0.0, "lat": 38.898142, "name": "8aa22ea8cd12d6b737239cfa53422b4e", "fusion_lon": 0.0, "bike_id": "8aa22ea8cd12d6b737239cfa53422b4e", "is_disabled": 0, "is_reserved": 0}, {"rental_uris": {"ios": "https://dc.lft.to/lastmile_qr_scan", "android": "https://dc.lft.to/lastmile_qr_scan"}, "lon": -77.36091733333333, "type": "electric_bike", "fusion_lat": 0.0, "lat": 38.939539333333336, "name": "971f19a915f4a47babcb1ec1c5f29b16", "fusion_lon": 0.0, "bike_id": "971f19a915f4a47babcb1ec1c5f29b16", "is_disabled": 0, "is_reserved": 0}, {"rental_uris": {"ios": "https://dc.lft.to/lastmile_qr_scan", "android": "https://dc.lft.to/lastmile_qr_scan"}, "lon": -77.053216, "type": "electric_scooter", "fusion_lat": 0.0, "lat": 38.90023333333333, "name": "0a4427d4fcb214a8983a678726ad4fc2", "fusion_lon": 0.0, "bike_id": "0a4427d4fcb214a8983a678726ad4fc2", "is_disabled": 0, "is_reserved": 0}, {"rental_uris": {"ios": "https://dc.lft.to/lastmile_qr_scan", "android": "https://dc.lft.to/lastmile_qr_scan"}, "lon": -76.98367733333333, "type": "electric_bike", "fusion_lat": 0.0, "lat": 38.902256333333334, "name": "8c478c59a8d7b6a1127f81b5322877b8", "fusion_lon": 0.0, "bike_id": "8c478c59a8d7b6a1127f81b5322877b8", "is_disabled": 0, "is_reserved": 0}, {"rental_uris": {"ios": "https://dc.lft.to/lastmile_qr_scan", "android": "https://dc.lft.to/lastmile_qr_scan"}, "lon": -77.02796866666667, "type": "electric_scooter", "fusion_lat": 0.0, "lat": 38.89235516666667, "name": "b7242b2f70e99f677b829e4fd2afe214", "fusion_lon": 0.0, "bike_id": "b7242b2f70e99f677b829e4fd2afe214", "is_disabled": 0, "is_reserved": 0}, {"rental_uris": {"ios": "https://dc.lft.to/lastmile_qr_scan", "android": "https://dc.lft.to/lastmile_qr_scan"}, "lon": -77.01971716666667, "type": "electric_scooter", "fusion_lat": 0.0, "lat": 38.88606583333333, "name": "e5432af60c1903a580ef17b947bcf69b", "fusion_lon": 0.0, "bike_id": "e5432af60c1903a580ef17b947bcf69b", "is_disabled": 0, "is_reserved": 0}, {"rental_uris": {"ios": "https://dc.lft.to/lastmile_qr_scan", "android": "https://dc.lft.to/lastmile_qr_scan"}, "lon": -76.9798325, "type": "electric_bike", "fusion_lat": 0.0, "lat": 38.877540333333336, "name": "6ee22e11a2ea1a4c1263154f317e1e3c", "fusion_lon": 0.0, "bike_id": "6ee22e11a2ea1a4c1263154f317e1e3c", "is_disabled": 0, "is_reserved": 0}, {"rental_uris": {"ios": "https://dc.lft.to/lastmile_qr_scan", "android": "https://dc.lft.to/lastmile_qr_scan"}, "lon": -77.0092535, "type": "electric_scooter", "fusion_lat": 0.0, "lat": 38.902460166666664, "name": "96eaf3cc97dbbf265ea8492c909a33eb", "fusion_lon": 0.0, "bike_id": "96eaf3cc97dbbf265ea8492c909a33eb", "is_disabled": 0, "is_reserved": 0}, {"rental_uris": {"ios": "https://dc.lft.to/lastmile_qr_scan", "android": "https://dc.lft.to/lastmile_qr_scan"}, "lon": -77.0406085, "type": "electric_scooter", "fusion_lat": 0.0, "lat": 38.917768, "name": "2ffce5de8269cad67bf7f06ef3fe0bd7", "fusion_lon": 0.0, "bike_id": "2ffce5de8269cad67bf7f06ef3fe0bd7", "is_disabled": 0, "is_reserved": 0}, {"rental_uris": {"ios": "https://dc.lft.to/lastmile_qr_scan", "android": "https://dc.lft.to/lastmile_qr_scan"}, "lon": -77.020693, "type": "electric_scooter", "fusion_lat": 0.0, "lat": 38.915577, "name": "beb05ff6a187a141c0922ba9df911986", "fusion_lon": 0.0, "bike_id": "beb05ff6a187a141c0922ba9df911986", "is_disabled": 0, "is_reserved": 0}, {"rental_uris": {"ios": "https://dc.lft.to/lastmile_qr_scan", "android": "https://dc.lft.to/lastmile_qr_scan"}, "lon": -77.04763783333334, "type": "electric_scooter", "fusion_lat": 0.0, "lat": 38.91250983333333, "name": "2afffc84ea8faa2760f6173644a4a8b6", "fusion_lon": 0.0, "bike_id": "2afffc84ea8faa2760f6173644a4a8b6", "is_disabled": 0, "is_reserved": 0}, {"rental_uris": {"ios": "https://dc.lft.to/lastmile_qr_scan", "android": "https://dc.lft.to/lastmile_qr_scan"}, "lon": -76.946633, "type": "electric_scooter", "fusion_lat": 0.0, "lat": 38.903404333333334, "name": "5021fce18b0bf1f540b4880f88326d34", "fusion_lon": 0.0, "bike_id": "5021fce18b0bf1f540b4880f88326d34", "is_disabled": 0, "is_reserved": 0}, {"rental_uris": {"ios": "https://dc.lft.to/lastmile_qr_scan", "android": "https://dc.lft.to/lastmile_qr_scan"}, "lon": -77.00288616666667, "type": "electric_bike", "fusion_lat": 0.0, "lat": 38.916144333333335, "name": "abcddabbcf2ae2db666c1643501a4429", "fusion_lon": 0.0, "bike_id": "abcddabbcf2ae2db666c1643501a4429", "is_disabled": 0, "is_reserved": 0}, {"rental_uris": {"ios": "https://dc.lft.to/lastmile_qr_scan", "android": "https://dc.lft.to/lastmile_qr_scan"}, "lon": -76.99516816666667, "type": "electric_scooter", "fusion_lat": 0.0, "lat": 38.8948415, "name": "44e80aedf3de48e18474c2f61fc006e3", "fusion_lon": 0.0, "bike_id": "44e80aedf3de48e18474c2f61fc006e3", "is_disabled": 0, "is_reserved": 0}, {"rental_uris": {"ios": "https://dc.lft.to/lastmile_qr_scan", "android": "https://dc.lft.to/lastmile_qr_scan"}, "lon": -76.99361216666667, "type": "electric_scooter", "fusion_lat": 0.0, "lat": 38.900398, "name": "f6ce7ea69274bbd52c9cc24589a48725", "fusion_lon": 0.0, "bike_id": "f6ce7ea69274bbd52c9cc24589a48725", "is_disabled": 0, "is_reserved": 0}, {"rental_uris": {"ios": "https://dc.lft.to/lastmile_qr_scan", "android": "https://dc.lft.to/lastmile_qr_scan"}, "lon": -77.02732433333334, "type": "electric_scooter", "fusion_lat": 0.0, "lat": 38.927651, "name": "7c6143398ad74f8d208b06412bd1161e", "fusion_lon": 0.0, "bike_id": "7c6143398ad74f8d208b06412bd1161e", "is_disabled": 0, "is_reserved": 0}, {"rental_uris": {"ios": "https://dc.lft.to/lastmile_qr_scan", "android": "https://dc.lft.to/lastmile_qr_scan"}, "lon": -76.87819816666666, "type": "electric_bike", "fusion_lat": 0.0, "lat": 38.9923205, "name": "c740c5edd866ff533c37a4d7b22a5ecb", "fusion_lon": 0.0, "bike_id": "c740c5edd866ff533c37a4d7b22a5ecb", "is_disabled": 0, "is_reserved": 0}, {"rental_uris": {"ios": "https://dc.lft.to/lastmile_qr_scan", "android": "https://dc.lft.to/lastmile_qr_scan"}, "lon": -76.95749216666667, "type": "electric_bike", "fusion_lat": 0.0, "lat": 38.88423783333333, "name": "bb199545c73c0d3416cad929c08940f1", "fusion_lon": 0.0, "bike_id": "bb199545c73c0d3416cad929c08940f1", "is_disabled": 0, "is_reserved": 0}, {"rental_uris": {"ios": "https://dc.lft.to/lastmile_qr_scan", "android": "https://dc.lft.to/lastmile_qr_scan"}, "lon": -77.07879666666666, "type": "electric_bike", "fusion_lat": 0.0, "lat": 38.912676833333336, "name": "a5d144537f7c94622cd757e993ff9161", "fusion_lon": 0.0, "bike_id": "a5d144537f7c94622cd757e993ff9161", "is_disabled": 0, "is_reserved": 0}, {"rental_uris": {"ios": "https://dc.lft.to/lastmile_qr_scan", "android": "https://dc.lft.to/lastmile_qr_scan"}, "lon": -77.02627816666667, "type": "electric_scooter", "fusion_lat": 0.0, "lat": 38.892235, "name": "a0c164d848876f2d6d13b2146c142122", "fusion_lon": 0.0, "bike_id": "a0c164d848876f2d6d13b2146c142122", "is_disabled": 0, "is_reserved": 0}, {"rental_uris": {"ios": "https://dc.lft.to/lastmile_qr_scan", "android": "https://dc.lft.to/lastmile_qr_scan"}, "lon": -77.05042966666667, "type": "electric_scooter", "fusion_lat": 0.0, "lat": 38.92363016666667, "name": "8d70b79fa9211d44b3639c6a3310c7c3", "fusion_lon": 0.0, "bike_id": "8d70b79fa9211d44b3639c6a3310c7c3", "is_disabled": 0, "is_reserved": 0}, {"rental_uris": {"ios": "https://dc.lft.to/lastmile_qr_scan", "android": "https://dc.lft.to/lastmile_qr_scan"}, "lon": -77.04956133333333, "type": "electric_scooter", "fusion_lat": 0.0, "lat": 38.915898, "name": "d20e8fd0dc85a8271981aa07a246bcaa", "fusion_lon": 0.0, "bike_id": "d20e8fd0dc85a8271981aa07a246bcaa", "is_disabled": 0, "is_reserved": 0}, {"rental_uris": {"ios": "https://dc.lft.to/lastmile_qr_scan", "android": "https://dc.lft.to/lastmile_qr_scan"}, "lon": -77.00818466666666, "type": "electric_scooter", "fusion_lat": 0.0, "lat": 38.87635016666667, "name": "46e04d0e95aaebc2296e0d017d8a5595", "fusion_lon": 0.0, "bike_id": "46e04d0e95aaebc2296e0d017d8a5595", "is_disabled": 0, "is_reserved": 0}, {"rental_uris": {"ios": "https://dc.lft.to/lastmile_qr_scan", "android": "https://dc.lft.to/lastmile_qr_scan"}, "lon": -77.0535335, "type": "electric_scooter", "fusion_lat": 0.0, "lat": 38.89082033333333, "name": "057cdab772dac1a1524b480933ec1a41", "fusion_lon": 0.0, "bike_id": "057cdab772dac1a1524b480933ec1a41", "is_disabled": 0, "is_reserved": 0}, {"rental_uris": {"ios": "https://dc.lft.to/lastmile_qr_scan", "android": "https://dc.lft.to/lastmile_qr_scan"}, "lon": -77.02153333333334, "type": "electric_scooter", "fusion_lat": 0.0, "lat": 38.926058833333336, "name": "8fb945d311ab45e237e68dc3f8ee1775", "fusion_lon": 0.0, "bike_id": "8fb945d311ab45e237e68dc3f8ee1775", "is_disabled": 0, "is_reserved": 0}, {"rental_uris": {"ios": "https://dc.lft.to/lastmile_qr_scan", "android": "https://dc.lft.to/lastmile_qr_scan"}, "lon": -77.0247855, "type": "electric_scooter", "fusion_lat": 0.0, "lat": 38.93817133333334, "name": "8079c5d397c2a3396c73e2cefafc0158", "fusion_lon": 0.0, "bike_id": "8079c5d397c2a3396c73e2cefafc0158", "is_disabled": 0, "is_reserved": 0}, {"rental_uris": {"ios": "https://dc.lft.to/lastmile_qr_scan", "android": "https://dc.lft.to/lastmile_qr_scan"}, "lon": -77.027358, "type": "electric_scooter", "fusion_lat": 0.0, "lat": 38.881633, "name": "f61cb24c4377fd28d60ec9d9359db81c", "fusion_lon": 0.0, "bike_id": "f61cb24c4377fd28d60ec9d9359db81c", "is_disabled": 0, "is_reserved": 0}, {"rental_uris": {"ios": "https://dc.lft.to/lastmile_qr_scan", "android": "https://dc.lft.to/lastmile_qr_scan"}, "lon": -76.87494166666667, "type": "electric_bike", "fusion_lat": 0.0, "lat": 38.990917833333334, "name": "c435d9a5be7a9e440bba1e5f0f00cbc4", "fusion_lon": 0.0, "bike_id": "c435d9a5be7a9e440bba1e5f0f00cbc4", "is_disabled": 0, "is_reserved": 0}, {"rental_uris": {"ios": "https://dc.lft.to/lastmile_qr_scan", "android": "https://dc.lft.to/lastmile_qr_scan"}, "lon": -77.03978783333334, "type": "electric_scooter", "fusion_lat": 0.0, "lat": 38.89894916666667, "name": "a1eceafa6f7243980e5a7af7f4ae3d40", "fusion_lon": 0.0, "bike_id": "a1eceafa6f7243980e5a7af7f4ae3d40", "is_disabled": 0, "is_reserved": 0}, {"rental_uris": {"ios": "https://dc.lft.to/lastmile_qr_scan", "android": "https://dc.lft.to/lastmile_qr_scan"}, "lon": -76.99182033333334, "type": "electric_scooter", "fusion_lat": 0.0, "lat": 38.9045755, "name": "f4883d4ce95561d6cf5626a03627c27b", "fusion_lon": 0.0, "bike_id": "f4883d4ce95561d6cf5626a03627c27b", "is_disabled": 0, "is_reserved": 0}, {"rental_uris": {"ios": "https://dc.lft.to/lastmile_qr_scan", "android": "https://dc.lft.to/lastmile_qr_scan"}, "lon": -77.11223466666667, "type": "electric_bike", "fusion_lat": 0.0, "lat": 38.82872, "name": "6fefbaa9e304712aae5c5f78b76a59e0", "fusion_lon": 0.0, "bike_id": "6fefbaa9e304712aae5c5f78b76a59e0", "is_disabled": 0, "is_reserved": 0}, {"rental_uris": {"ios": "https://dc.lft.to/lastmile_qr_scan", "android": "https://dc.lft.to/lastmile_qr_scan"}, "lon": -77.06449033333334, "type": "electric_scooter", "fusion_lat": 0.0, "lat": 38.90522516666667, "name": "3c7184db5cd9e6fbf00b9749f9365bd9", "fusion_lon": 0.0, "bike_id": "3c7184db5cd9e6fbf00b9749f9365bd9", "is_disabled": 0, "is_reserved": 0}, {"rental_uris": {"ios": "https://dc.lft.to/lastmile_qr_scan", "android": "https://dc.lft.to/lastmile_qr_scan"}, "lon": -77.07090716666667, "type": "electric_scooter", "fusion_lat": 0.0, "lat": 38.8991475, "name": "fe7750f76dbf079a93096984ae7a9aa3", "fusion_lon": 0.0, "bike_id": "fe7750f76dbf079a93096984ae7a9aa3", "is_disabled": 0, "is_reserved": 0}, {"rental_uris": {"ios": "https://dc.lft.to/lastmile_qr_scan", "android": "https://dc.lft.to/lastmile_qr_scan"}, "lon": -77.07585666666667, "type": "electric_scooter", "fusion_lat": 0.0, "lat": 38.91218333333333, "name": "e033f85ffd4bff5095fe187cc99fe428", "fusion_lon": 0.0, "bike_id": "e033f85ffd4bff5095fe187cc99fe428", "is_disabled": 0, "is_reserved": 0}, {"rental_uris": {"ios": "https://dc.lft.to/lastmile_qr_scan", "android": "https://dc.lft.to/lastmile_qr_scan"}, "lon": -77.0362775, "type": "electric_scooter", "fusion_lat": 0.0, "lat": 38.956013, "name": "5647c1b19b040b1f2d54f1596c527125", "fusion_lon": 0.0, "bike_id": "5647c1b19b040b1f2d54f1596c527125", "is_disabled": 0, "is_reserved": 0}, {"rental_uris": {"ios": "https://dc.lft.to/lastmile_qr_scan", "android": "https://dc.lft.to/lastmile_qr_scan"}, "lon": -77.033101, "type": "electric_scooter", "fusion_lat": 0.0, "lat": 38.9095835, "name": "c4e59ef223e4a8d281239f86a02a4e72", "fusion_lon": 0.0, "bike_id": "c4e59ef223e4a8d281239f86a02a4e72", "is_disabled": 0, "is_reserved": 0}, {"rental_uris": {"ios": "https://dc.lft.to/lastmile_qr_scan", "android": "https://dc.lft.to/lastmile_qr_scan"}, "lon": -77.04877333333333, "type": "electric_scooter", "fusion_lat": 0.0, "lat": 38.90079883333333, "name": "42ff12497556b14d2fec8c131d985b85", "fusion_lon": 0.0, "bike_id": "42ff12497556b14d2fec8c131d985b85", "is_disabled": 0, "is_reserved": 0}, {"rental_uris": {"ios": "https://dc.lft.to/lastmile_qr_scan", "android": "https://dc.lft.to/lastmile_qr_scan"}, "lon": -77.10703166666667, "type": "electric_bike", "fusion_lat": 0.0, "lat": 38.85562816666667, "name": "6ed21d9e0fd76a4571e214122be8614e", "fusion_lon": 0.0, "bike_id": "6ed21d9e0fd76a4571e214122be8614e", "is_disabled": 0, "is_reserved": 0}, {"rental_uris": {"ios": "https://dc.lft.to/lastmile_qr_scan", "android": "https://dc.lft.to/lastmile_qr_scan"}, "lon": -77.04151833333333, "type": "electric_scooter", "fusion_lat": 0.0, "lat": 38.90194533333333, "name": "3aa3aa247ca5ef1549251fd4b9ccdc0a", "fusion_lon": 0.0, "bike_id": "3aa3aa247ca5ef1549251fd4b9ccdc0a", "is_disabled": 0, "is_reserved": 0}, {"rental_uris": {"ios": "https://dc.lft.to/lastmile_qr_scan", "android": "https://dc.lft.to/lastmile_qr_scan"}, "lon": -77.02128033333334, "type": "electric_scooter", "fusion_lat": 0.0, "lat": 38.89742183333333, "name": "698604a75cc19c9e2eac9ea078bf8914", "fusion_lon": 0.0, "bike_id": "698604a75cc19c9e2eac9ea078bf8914", "is_disabled": 0, "is_reserved": 0}, {"rental_uris": {"ios": "https://dc.lft.to/lastmile_qr_scan", "android": "https://dc.lft.to/lastmile_qr_scan"}, "lon": -76.9541135, "type": "electric_scooter", "fusion_lat": 0.0, "lat": 38.889968333333336, "name": "528de0d22233420d0a2220003ab52765", "fusion_lon": 0.0, "bike_id": "528de0d22233420d0a2220003ab52765", "is_disabled": 0, "is_reserved": 0}, {"rental_uris": {"ios": "https://dc.lft.to/lastmile_qr_scan", "android": "https://dc.lft.to/lastmile_qr_scan"}, "lon": -77.02366933333333, "type": "electric_scooter", "fusion_lat": 0.0, "lat": 38.89540566666667, "name": "6fdb845848ed832b78f9befeaaf8012e", "fusion_lon": 0.0, "bike_id": "6fdb845848ed832b78f9befeaaf8012e", "is_disabled": 0, "is_reserved": 0}, {"rental_uris": {"ios": "https://dc.lft.to/lastmile_qr_scan", "android": "https://dc.lft.to/lastmile_qr_scan"}, "lon": -77.03282933333334, "type": "electric_scooter", "fusion_lat": 0.0, "lat": 38.938986, "name": "84fa372a112bb9422bc3d051d97f718c", "fusion_lon": 0.0, "bike_id": "84fa372a112bb9422bc3d051d97f718c", "is_disabled": 0, "is_reserved": 0}, {"rental_uris": {"ios": "https://dc.lft.to/lastmile_qr_scan", "android": "https://dc.lft.to/lastmile_qr_scan"}, "lon": -76.98159066666666, "type": "electric_scooter", "fusion_lat": 0.0, "lat": 38.93296683333333, "name": "c99887aae0559b8abd2292cb48b713cb", "fusion_lon": 0.0, "bike_id": "c99887aae0559b8abd2292cb48b713cb", "is_disabled": 0, "is_reserved": 0}, {"rental_uris": {"ios": "https://dc.lft.to/lastmile_qr_scan", "android": "https://dc.lft.to/lastmile_qr_scan"}, "lon": -77.0407225, "type": "electric_scooter", "fusion_lat": 0.0, "lat": 38.9265405, "name": "80af853f1e53a7ded6028b36b052f532", "fusion_lon": 0.0, "bike_id": "80af853f1e53a7ded6028b36b052f532", "is_disabled": 0, "is_reserved": 0}, {"rental_uris": {"ios": "https://dc.lft.to/lastmile_qr_scan", "android": "https://dc.lft.to/lastmile_qr_scan"}, "lon": -77.0399405, "type": "electric_scooter", "fusion_lat": 0.0, "lat": 38.91760216666667, "name": "ba0158c15289e64e3513ed99a0011d41", "fusion_lon": 0.0, "bike_id": "ba0158c15289e64e3513ed99a0011d41", "is_disabled": 0, "is_reserved": 0}, {"rental_uris": {"ios": "https://dc.lft.to/lastmile_qr_scan", "android": "https://dc.lft.to/lastmile_qr_scan"}, "lon": -77.04682033333333, "type": "electric_scooter", "fusion_lat": 0.0, "lat": 38.900681, "name": "ac584d2c50e6a88ac5c649aa5d709058", "fusion_lon": 0.0, "bike_id": "ac584d2c50e6a88ac5c649aa5d709058", "is_disabled": 0, "is_reserved": 0}, {"rental_uris": {"ios": "https://dc.lft.to/lastmile_qr_scan", "android": "https://dc.lft.to/lastmile_qr_scan"}, "lon": -77.04116866666666, "type": "electric_scooter", "fusion_lat": 0.0, "lat": 38.921173333333336, "name": "fe7abb098717097224015fd3c9c26420", "fusion_lon": 0.0, "bike_id": "fe7abb098717097224015fd3c9c26420", "is_disabled": 0, "is_reserved": 0}, {"rental_uris": {"ios": "https://dc.lft.to/lastmile_qr_scan", "android": "https://dc.lft.to/lastmile_qr_scan"}, "lon": -77.02968116666666, "type": "electric_scooter", "fusion_lat": 0.0, "lat": 38.897231166666664, "name": "a24bb2532c85ba051866049c36d59fe2", "fusion_lon": 0.0, "bike_id": "a24bb2532c85ba051866049c36d59fe2", "is_disabled": 0, "is_reserved": 0}, {"rental_uris": {"ios": "https://dc.lft.to/lastmile_qr_scan", "android": "https://dc.lft.to/lastmile_qr_scan"}, "lon": -76.90439266666667, "type": "electric_bike", "fusion_lat": 0.0, "lat": 38.89773733333333, "name": "bc45b3a4f1794cc6541e975cd9530ec4", "fusion_lon": 0.0, "bike_id": "bc45b3a4f1794cc6541e975cd9530ec4", "is_disabled": 0, "is_reserved": 0}, {"rental_uris": {"ios": "https://dc.lft.to/lastmile_qr_scan", "android": "https://dc.lft.to/lastmile_qr_scan"}, "lon": -77.04689916666666, "type": "electric_scooter", "fusion_lat": 0.0, "lat": 38.89225866666666, "name": "94197e68c28e2ade465a785890f849fc", "fusion_lon": 0.0, "bike_id": "94197e68c28e2ade465a785890f849fc", "is_disabled": 0, "is_reserved": 0}, {"rental_uris": {"ios": "https://dc.lft.to/lastmile_qr_scan", "android": "https://dc.lft.to/lastmile_qr_scan"}, "lon": -77.02202016666666, "type": "electric_scooter", "fusion_lat": 0.0, "lat": 38.93002633333333, "name": "1bc5258dab34aaf0f98d125db582e116", "fusion_lon": 0.0, "bike_id": "1bc5258dab34aaf0f98d125db582e116", "is_disabled": 0, "is_reserved": 0}, {"rental_uris": {"ios": "https://dc.lft.to/lastmile_qr_scan", "android": "https://dc.lft.to/lastmile_qr_scan"}, "lon": -77.048294, "type": "electric_scooter", "fusion_lat": 0.0, "lat": 38.920331, "name": "8c6ab6df6f1b3754063b654ec4fafbde", "fusion_lon": 0.0, "bike_id": "8c6ab6df6f1b3754063b654ec4fafbde", "is_disabled": 0, "is_reserved": 0}, {"rental_uris": {"ios": "https://dc.lft.to/lastmile_qr_scan", "android": "https://dc.lft.to/lastmile_qr_scan"}, "lon": -76.99787, "type": "electric_scooter", "fusion_lat": 0.0, "lat": 38.908613333333335, "name": "f8bd87665a9fbdfbacbf6911bb8ce835", "fusion_lon": 0.0, "bike_id": "f8bd87665a9fbdfbacbf6911bb8ce835", "is_disabled": 0, "is_reserved": 0}, {"rental_uris": {"ios": "https://dc.lft.to/lastmile_qr_scan", "android": "https://dc.lft.to/lastmile_qr_scan"}, "lon": -77.02704083333333, "type": "electric_scooter", "fusion_lat": 0.0, "lat": 38.903632333333334, "name": "79a903e1b5e71cbe20070be04ee199a1", "fusion_lon": 0.0, "bike_id": "79a903e1b5e71cbe20070be04ee199a1", "is_disabled": 0, "is_reserved": 0}, {"rental_uris": {"ios": "https://dc.lft.to/lastmile_qr_scan", "android": "https://dc.lft.to/lastmile_qr_scan"}, "lon": -77.01965816666667, "type": "electric_scooter", "fusion_lat": 0.0, "lat": 38.934161333333336, "name": "5dd02aba5dbdd702ae7aceebe82ca263", "fusion_lon": 0.0, "bike_id": "5dd02aba5dbdd702ae7aceebe82ca263", "is_disabled": 0, "is_reserved": 0}, {"rental_uris": {"ios": "https://dc.lft.to/lastmile_qr_scan", "android": "https://dc.lft.to/lastmile_qr_scan"}, "lon": -77.037704, "type": "electric_scooter", "fusion_lat": 0.0, "lat": 38.9169625, "name": "0c200fcb5d310f1413e892e46e3493bb", "fusion_lon": 0.0, "bike_id": "0c200fcb5d310f1413e892e46e3493bb", "is_disabled": 0, "is_reserved": 0}, {"rental_uris": {"ios": "https://dc.lft.to/lastmile_qr_scan", "android": "https://dc.lft.to/lastmile_qr_scan"}, "lon": -77.0478575, "type": "electric_scooter", "fusion_lat": 0.0, "lat": 38.89772033333333, "name": "ad2ca16407cf651ece12dea877bf21bb", "fusion_lon": 0.0, "bike_id": "ad2ca16407cf651ece12dea877bf21bb", "is_disabled": 0, "is_reserved": 0}, {"rental_uris": {"ios": "https://dc.lft.to/lastmile_qr_scan", "android": "https://dc.lft.to/lastmile_qr_scan"}, "lon": -77.05957283333333, "type": "electric_scooter", "fusion_lat": 0.0, "lat": 38.91187466666667, "name": "f3c491166d10a82e788020e3a70ac014", "fusion_lon": 0.0, "bike_id": "f3c491166d10a82e788020e3a70ac014", "is_disabled": 0, "is_reserved": 0}, {"rental_uris": {"ios": "https://dc.lft.to/lastmile_qr_scan", "android": "https://dc.lft.to/lastmile_qr_scan"}, "lon": -77.06608483333333, "type": "electric_scooter", "fusion_lat": 0.0, "lat": 38.9054545, "name": "cce8eb3e594f8573572626062b4c8a78", "fusion_lon": 0.0, "bike_id": "cce8eb3e594f8573572626062b4c8a78", "is_disabled": 0, "is_reserved": 0}, {"rental_uris": {"ios": "https://dc.lft.to/lastmile_qr_scan", "android": "https://dc.lft.to/lastmile_qr_scan"}, "lon": -77.04080283333333, "type": "electric_scooter", "fusion_lat": 0.0, "lat": 38.914846, "name": "25e6e620b9496e041a63aad3143083f0", "fusion_lon": 0.0, "bike_id": "25e6e620b9496e041a63aad3143083f0", "is_disabled": 0, "is_reserved": 0}, {"rental_uris": {"ios": "https://dc.lft.to/lastmile_qr_scan", "android": "https://dc.lft.to/lastmile_qr_scan"}, "lon": -77.02698666666667, "type": "electric_scooter", "fusion_lat": 0.0, "lat": 38.918305333333336, "name": "6a7af4e09325848e82237666bbb5de08", "fusion_lon": 0.0, "bike_id": "6a7af4e09325848e82237666bbb5de08", "is_disabled": 0, "is_reserved": 0}, {"rental_uris": {"ios": "https://dc.lft.to/lastmile_qr_scan", "android": "https://dc.lft.to/lastmile_qr_scan"}, "lon": -77.08823533333333, "type": "electric_bike", "fusion_lat": 0.0, "lat": 38.909763166666664, "name": "33f204ebfd724e61e901c57af265afe2", "fusion_lon": 0.0, "bike_id": "33f204ebfd724e61e901c57af265afe2", "is_disabled": 0, "is_reserved": 0}, {"rental_uris": {"ios": "https://dc.lft.to/lastmile_qr_scan", "android": "https://dc.lft.to/lastmile_qr_scan"}, "lon": -77.01973466666666, "type": "electric_scooter", "fusion_lat": 0.0, "lat": 38.897415333333335, "name": "0c0e6f027895163402f4dabd84df7aa8", "fusion_lon": 0.0, "bike_id": "0c0e6f027895163402f4dabd84df7aa8", "is_disabled": 0, "is_reserved": 0}, {"rental_uris": {"ios": "https://dc.lft.to/lastmile_qr_scan", "android": "https://dc.lft.to/lastmile_qr_scan"}, "lon": -76.96529216666667, "type": "electric_scooter", "fusion_lat": 0.0, "lat": 38.876282, "name": "d59fc051b2f1279ef2ec2115df629045", "fusion_lon": 0.0, "bike_id": "d59fc051b2f1279ef2ec2115df629045", "is_disabled": 0, "is_reserved": 0}, {"rental_uris": {"ios": "https://dc.lft.to/lastmile_qr_scan", "android": "https://dc.lft.to/lastmile_qr_scan"}, "lon": -77.03230216666667, "type": "electric_scooter", "fusion_lat": 0.0, "lat": 38.92002033333333, "name": "557da21d98105b8bd93098f3a937c33f", "fusion_lon": 0.0, "bike_id": "557da21d98105b8bd93098f3a937c33f", "is_disabled": 0, "is_reserved": 0}, {"rental_uris": {"ios": "https://dc.lft.to/lastmile_qr_scan", "android": "https://dc.lft.to/lastmile_qr_scan"}, "lon": -77.01950483333333, "type": "electric_scooter", "fusion_lat": 0.0, "lat": 38.885987666666665, "name": "87aa8e6ce52d6a5fe3bdfb682351623d", "fusion_lon": 0.0, "bike_id": "87aa8e6ce52d6a5fe3bdfb682351623d", "is_disabled": 0, "is_reserved": 0}, {"rental_uris": {"ios": "https://dc.lft.to/lastmile_qr_scan", "android": "https://dc.lft.to/lastmile_qr_scan"}, "lon": -77.01223233333333, "type": "electric_scooter", "fusion_lat": 0.0, "lat": 38.914275833333335, "name": "4704c912212e137126a6d4528ee57873", "fusion_lon": 0.0, "bike_id": "4704c912212e137126a6d4528ee57873", "is_disabled": 0, "is_reserved": 0}, {"rental_uris": {"ios": "https://dc.lft.to/lastmile_qr_scan", "android": "https://dc.lft.to/lastmile_qr_scan"}, "lon": -77.0488095, "type": "electric_scooter", "fusion_lat": 0.0, "lat": 38.896738166666665, "name": "dc97ca8b7b1fb425fe5f18f57c861e9f", "fusion_lon": 0.0, "bike_id": "dc97ca8b7b1fb425fe5f18f57c861e9f", "is_disabled": 0, "is_reserved": 0}, {"rental_uris": {"ios": "https://dc.lft.to/lastmile_qr_scan", "android": "https://dc.lft.to/lastmile_qr_scan"}, "lon": -77.02201066666667, "type": "electric_scooter", "fusion_lat": 0.0, "lat": 38.90029916666667, "name": "ec8378fc617192dbf20819d302fa66a8", "fusion_lon": 0.0, "bike_id": "ec8378fc617192dbf20819d302fa66a8", "is_disabled": 0, "is_reserved": 0}, {"rental_uris": {"ios": "https://dc.lft.to/lastmile_qr_scan", "android": "https://dc.lft.to/lastmile_qr_scan"}, "lon": -77.0238345, "type": "electric_scooter", "fusion_lat": 0.0, "lat": 38.92511183333333, "name": "ab9df803104fd85c8ac753dee5cb4651", "fusion_lon": 0.0, "bike_id": "ab9df803104fd85c8ac753dee5cb4651", "is_disabled": 0, "is_reserved": 0}, {"rental_uris": {"ios": "https://dc.lft.to/lastmile_qr_scan", "android": "https://dc.lft.to/lastmile_qr_scan"}, "lon": -77.03543483333333, "type": "electric_scooter", "fusion_lat": 0.0, "lat": 38.92628833333333, "name": "9141a8858019ac730663d3dad974cec6", "fusion_lon": 0.0, "bike_id": "9141a8858019ac730663d3dad974cec6", "is_disabled": 0, "is_reserved": 0}, {"rental_uris": {"ios": "https://dc.lft.to/lastmile_qr_scan", "android": "https://dc.lft.to/lastmile_qr_scan"}, "lon": -77.03557583333334, "type": "electric_scooter", "fusion_lat": 0.0, "lat": 38.9180675, "name": "c7efdab1de4feb9f3bd31939a3003510", "fusion_lon": 0.0, "bike_id": "c7efdab1de4feb9f3bd31939a3003510", "is_disabled": 0, "is_reserved": 0}, {"rental_uris": {"ios": "https://dc.lft.to/lastmile_qr_scan", "android": "https://dc.lft.to/lastmile_qr_scan"}, "lon": -77.03339783333334, "type": "electric_scooter", "fusion_lat": 0.0, "lat": 38.900088, "name": "2c747c4fef09f0e848032aadbaa75b34", "fusion_lon": 0.0, "bike_id": "2c747c4fef09f0e848032aadbaa75b34", "is_disabled": 0, "is_reserved": 0}, {"rental_uris": {"ios": "https://dc.lft.to/lastmile_qr_scan", "android": "https://dc.lft.to/lastmile_qr_scan"}, "lon": -77.016608, "type": "electric_scooter", "fusion_lat": 0.0, "lat": 38.90061433333333, "name": "c826d59edb156691b52c499405e045cf", "fusion_lon": 0.0, "bike_id": "c826d59edb156691b52c499405e045cf", "is_disabled": 0, "is_reserved": 0}, {"rental_uris": {"ios": "https://dc.lft.to/lastmile_qr_scan", "android": "https://dc.lft.to/lastmile_qr_scan"}, "lon": -76.9770455, "type": "electric_scooter", "fusion_lat": 0.0, "lat": 38.897095666666665, "name": "8cb60695fec66767c9453a7051e2a634", "fusion_lon": 0.0, "bike_id": "8cb60695fec66767c9453a7051e2a634", "is_disabled": 0, "is_reserved": 0}, {"rental_uris": {"ios": "https://dc.lft.to/lastmile_qr_scan", "android": "https://dc.lft.to/lastmile_qr_scan"}, "lon": -77.0294815, "type": "electric_scooter", "fusion_lat": 0.0, "lat": 38.892286166666665, "name": "ad00ac0321594aab04fe899218d56b97", "fusion_lon": 0.0, "bike_id": "ad00ac0321594aab04fe899218d56b97", "is_disabled": 0, "is_reserved": 0}, {"rental_uris": {"ios": "https://dc.lft.to/lastmile_qr_scan", "android": "https://dc.lft.to/lastmile_qr_scan"}, "lon": -77.04182716666666, "type": "electric_scooter", "fusion_lat": 0.0, "lat": 38.900247, "name": "60552cac8b25b457f359ee98b27c0ada", "fusion_lon": 0.0, "bike_id": "60552cac8b25b457f359ee98b27c0ada", "is_disabled": 0, "is_reserved": 0}, {"rental_uris": {"ios": "https://dc.lft.to/lastmile_qr_scan", "android": "https://dc.lft.to/lastmile_qr_scan"}, "lon": -77.03700933333333, "type": "electric_scooter", "fusion_lat": 0.0, "lat": 38.926433, "name": "7e3993d2ba30739ed5f345d38ad83bf7", "fusion_lon": 0.0, "bike_id": "7e3993d2ba30739ed5f345d38ad83bf7", "is_disabled": 0, "is_reserved": 0}, {"rental_uris": {"ios": "https://dc.lft.to/lastmile_qr_scan", "android": "https://dc.lft.to/lastmile_qr_scan"}, "lon": -77.03857483333333, "type": "electric_scooter", "fusion_lat": 0.0, "lat": 38.93255033333333, "name": "b3f9cba7462c6d7d07fcdc45da7240f2", "fusion_lon": 0.0, "bike_id": "b3f9cba7462c6d7d07fcdc45da7240f2", "is_disabled": 0, "is_reserved": 0}, {"rental_uris": {"ios": "https://dc.lft.to/lastmile_qr_scan", "android": "https://dc.lft.to/lastmile_qr_scan"}, "lon": -77.024023, "type": "electric_scooter", "fusion_lat": 0.0, "lat": 38.9097665, "name": "6bd066554f48ef305bc35bcf1a9f86f1", "fusion_lon": 0.0, "bike_id": "6bd066554f48ef305bc35bcf1a9f86f1", "is_disabled": 0, "is_reserved": 0}, {"rental_uris": {"ios": "https://dc.lft.to/lastmile_qr_scan", "android": "https://dc.lft.to/lastmile_qr_scan"}, "lon": -77.048627, "type": "electric_bike", "fusion_lat": 0.0, "lat": 38.900837333333335, "name": "585d96a25ebe6a5d2629a96944004093", "fusion_lon": 0.0, "bike_id": "585d96a25ebe6a5d2629a96944004093", "is_disabled": 0, "is_reserved": 0}, {"rental_uris": {"ios": "https://dc.lft.to/lastmile_qr_scan", "android": "https://dc.lft.to/lastmile_qr_scan"}, "lon": -76.98885616666666, "type": "electric_scooter", "fusion_lat": 0.0, "lat": 38.866588166666666, "name": "ef4b5d2f1d33756b229b4a55c900ef5f", "fusion_lon": 0.0, "bike_id": "ef4b5d2f1d33756b229b4a55c900ef5f", "is_disabled": 0, "is_reserved": 0}, {"rental_uris": {"ios": "https://dc.lft.to/lastmile_qr_scan", "android": "https://dc.lft.to/lastmile_qr_scan"}, "lon": -77.0417245, "type": "electric_scooter", "fusion_lat": 0.0, "lat": 38.91153883333333, "name": "2fa96293940e8d1817af2d947fc30438", "fusion_lon": 0.0, "bike_id": "2fa96293940e8d1817af2d947fc30438", "is_disabled": 0, "is_reserved": 0}, {"rental_uris": {"ios": "https://dc.lft.to/lastmile_qr_scan", "android": "https://dc.lft.to/lastmile_qr_scan"}, "lon": -77.02810933333333, "type": "electric_scooter", "fusion_lat": 0.0, "lat": 38.96149533333333, "name": "5991d34d624068a50a215f3219265f93", "fusion_lon": 0.0, "bike_id": "5991d34d624068a50a215f3219265f93", "is_disabled": 0, "is_reserved": 0}, {"rental_uris": {"ios": "https://dc.lft.to/lastmile_qr_scan", "android": "https://dc.lft.to/lastmile_qr_scan"}, "lon": -77.044158, "type": "electric_scooter", "fusion_lat": 0.0, "lat": 38.911311833333336, "name": "20a5711d24722a65bc9988be6a7ff0d8", "fusion_lon": 0.0, "bike_id": "20a5711d24722a65bc9988be6a7ff0d8", "is_disabled": 0, "is_reserved": 0}, {"rental_uris": {"ios": "https://dc.lft.to/lastmile_qr_scan", "android": "https://dc.lft.to/lastmile_qr_scan"}, "lon": -76.9315985, "type": "electric_bike", "fusion_lat": 0.0, "lat": 38.908620666666664, "name": "7b327dae833e1819ea8b9fd4b3b4d3bc", "fusion_lon": 0.0, "bike_id": "7b327dae833e1819ea8b9fd4b3b4d3bc", "is_disabled": 0, "is_reserved": 0}, {"rental_uris": {"ios": "https://dc.lft.to/lastmile_qr_scan", "android": "https://dc.lft.to/lastmile_qr_scan"}, "lon": -76.99059716666666, "type": "electric_scooter", "fusion_lat": 0.0, "lat": 38.86354166666667, "name": "613ea4cbc8a759ddec383f3753a473c3", "fusion_lon": 0.0, "bike_id": "613ea4cbc8a759ddec383f3753a473c3", "is_disabled": 0, "is_reserved": 0}, {"rental_uris": {"ios": "https://dc.lft.to/lastmile_qr_scan", "android": "https://dc.lft.to/lastmile_qr_scan"},