{"data": {"bikes": [{"lon": -76.92734583333333, "lat": 38.889665, "rental_uris": {"ios": "https://dc.lft.to/lastmile_qr_scan", "android": "https://dc.lft.to/lastmile_qr_scan"}, "bike_id": "47bf5e138f53eb934290bf85eff7d8aa", "type": "electric_scooter", "is_disabled": 0, "fusion_lat": 0.0, "fusion_lon": 0.0, "is_reserved": 0, "name": "47bf5e138f53eb934290bf85eff7d8aa"}, {"lon": -77.058559, "lat": 38.935879, "rental_uris": {"ios": "https://dc.lft.to/lastmile_qr_scan", "android": "https://dc.lft.to/lastmile_qr_scan"}, "bike_id": "278f029d6f04bef913edcd94f1fc2003", "type": "electric_scooter", "is_disabled": 0, "fusion_lat": 0.0, "fusion_lon": 0.0, "is_reserved": 0, "name": "278f029d6f04bef913edcd94f1fc2003"}, {"lon": -76.9828845, "lat": 38.900475, "rental_uris": {"ios": "https://dc.lft.to/lastmile_qr_scan", "android": "https://dc.lft.to/lastmile_qr_scan"}, "bike_id": "7333631192fe0dd9e818c4b311206c96", "type": "electric_scooter", "is_disabled": 0, "fusion_lat": 0.0, "fusion_lon": 0.0, "is_reserved": 0, "name": "7333631192fe0dd9e818c4b311206c96"}, {"lon": -76.933506, "lat": 38.89905566666667, "rental_uris": {"ios": "https://dc.lft.to/lastmile_qr_scan", "android": "https://dc.lft.to/lastmile_qr_scan"}, "bike_id": "d2377dc0b4cb7b1c859ee9cc895d1c96", "type": "electric_scooter", "is_disabled": 0, "fusion_lat": 0.0, "fusion_lon": 0.0, "is_reserved": 0, "name": "d2377dc0b4cb7b1c859ee9cc895d1c96"}, {"lon": -77.03954883333333, "lat": 38.892448333333334, "rental_uris": {"ios": "https://dc.lft.to/lastmile_qr_scan", "android": "https://dc.lft.to/lastmile_qr_scan"}, "bike_id": "0ef35516da22de6330d6706f873c2762", "type": "electric_scooter", "is_disabled": 0, "fusion_lat": 0.0, "fusion_lon": 0.0, "is_reserved": 0, "name": "0ef35516da22de6330d6706f873c2762"}, {"lon": -77.03637816666667, "lat": 38.922640333333334, "rental_uris": {"ios": "https://dc.lft.to/lastmile_qr_scan", "android": "https://dc.lft.to/lastmile_qr_scan"}, "bike_id": "5e8aa59043ea8ef9268694f34b95562c", "type": "electric_scooter", "is_disabled": 0, "fusion_lat": 0.0, "fusion_lon": 0.0, "is_reserved": 0, "name": "5e8aa59043ea8ef9268694f34b95562c"}, {"lon": -77.033022, "lat": 38.90961166666666, "rental_uris": {"ios": "https://dc.lft.to/lastmile_qr_scan", "android": "https://dc.lft.to/lastmile_qr_scan"}, "bike_id": "f67f035f4f5dc01d97e7fcd887f97d0c", "type": "electric_scooter", "is_disabled": 0, "fusion_lat": 0.0, "fusion_lon": 0.0, "is_reserved": 0, "name": "f67f035f4f5dc01d97e7fcd887f97d0c"}, {"lon": -77.04250783333333, "lat": 38.925392, "rental_uris": {"ios": "https://dc.lft.to/lastmile_qr_scan", "android": "https://dc.lft.to/lastmile_qr_scan"}, "bike_id": "63bfd1a494d4f471b6c8ea2fe9d54e6f", "type": "electric_scooter", "is_disabled": 0, "fusion_lat": 0.0, "fusion_lon": 0.0, "is_reserved": 0, "name": "63bfd1a494d4f471b6c8ea2fe9d54e6f"}, {"lon": -77.020926, "lat": 38.9271975, "rental_uris": {"ios": "https://dc.lft.to/lastmile_qr_scan", "android": "https://dc.lft.to/lastmile_qr_scan"}, "bike_id": "98421231f6f4c21ecc043fa59c74c5ab", "type": "electric_bike", "is_disabled": 0, "fusion_lat": 0.0, "fusion_lon": 0.0, "is_reserved": 0, "name": "98421231f6f4c21ecc043fa59c74c5ab"}, {"lon": -77.0720325, "lat": 38.92098033333333, "rental_uris": {"ios": "https://dc.lft.to/lastmile_qr_scan", "android": "https://dc.lft.to/lastmile_qr_scan"}, "bike_id": "5390702cb6800bea87b0ff6c24861f37", "type": "electric_scooter", "is_disabled": 0, "fusion_lat": 0.0, "fusion_lon": 0.0, "is_reserved": 0, "name": "5390702cb6800bea87b0ff6c24861f37"}, {"lon": -77.02955566666667, "lat": 38.899995833333335, "rental_uris": {"ios": "https://dc.lft.to/lastmile_qr_scan", "android": "https://dc.lft.to/lastmile_qr_scan"}, "bike_id": "1d101910d6fb60223aacb788176c777c", "type": "electric_scooter", "is_disabled": 0, "fusion_lat": 0.0, "fusion_lon": 0.0, "is_reserved": 0, "name": "1d101910d6fb60223aacb788176c777c"}, {"lon": -76.99532316666667, "lat": 38.88370233333333, "rental_uris": {"ios": "https://dc.lft.to/lastmile_qr_scan", "android": "https://dc.lft.to/lastmile_qr_scan"}, "bike_id": "b4fc22b8078839680f7ef2b2658cda9e", "type": "electric_scooter", "is_disabled": 0, "fusion_lat": 0.0, "fusion_lon": 0.0, "is_reserved": 0, "name": "b4fc22b8078839680f7ef2b2658cda9e"}, {"lon": -77.05152183333334, "lat": 38.89953833333333, "rental_uris": {"ios": "https://dc.lft.to/lastmile_qr_scan", "android": "https://dc.lft.to/lastmile_qr_scan"}, "bike_id": "ec92e6ab2862bfa1f9fbeb5ed507ae61", "type": "electric_scooter", "is_disabled": 0, "fusion_lat": 0.0, "fusion_lon": 0.0, "is_reserved": 0, "name": "ec92e6ab2862bfa1f9fbeb5ed507ae61"}, {"lon": -77.02212933333334, "lat": 38.914159, "rental_uris": {"ios": "https://dc.lft.to/lastmile_qr_scan", "android": "https://dc.lft.to/lastmile_qr_scan"}, "bike_id": "739c4008dc3aa418ac82caa78d9992f1", "type": "electric_scooter", "is_disabled": 0, "fusion_lat": 0.0, "fusion_lon": 0.0, "is_reserved": 0, "name": "739c4008dc3aa418ac82caa78d9992f1"}, {"lon": -77.06282433333334, "lat": 38.905831, "rental_uris": {"ios": "https://dc.lft.to/lastmile_qr_scan", "android": "https://dc.lft.to/lastmile_qr_scan"}, "bike_id": "33a94538eabc5a037324f0f9d4a1dbdd", "type": "electric_scooter", "is_disabled": 0, "fusion_lat": 0.0, "fusion_lon": 0.0, "is_reserved": 0, "name": "33a94538eabc5a037324f0f9d4a1dbdd"}, {"lon": -77.03189416666666, "lat": 38.90858733333334, "rental_uris": {"ios": "https://dc.lft.to/lastmile_qr_scan", "android": "https://dc.lft.to/lastmile_qr_scan"}, "bike_id": "cc1bbf8d86fb8dccd8cab6b689256816", "type": "electric_scooter", "is_disabled": 0, "fusion_lat": 0.0, "fusion_lon": 0.0, "is_reserved": 0, "name": "cc1bbf8d86fb8dccd8cab6b689256816"}, {"lon": -77.02549566666667, "lat": 38.941415666666664, "rental_uris": {"ios": "https://dc.lft.to/lastmile_qr_scan", "android": "https://dc.lft.to/lastmile_qr_scan"}, "bike_id": "f51135592d9987051084fcee17d64fb9", "type": "electric_scooter", "is_disabled": 0, "fusion_lat": 0.0, "fusion_lon": 0.0, "is_reserved": 0, "name": "f51135592d9987051084fcee17d64fb9"}, {"lon": -76.99934716666667, "lat": 38.843005166666664, "rental_uris": {"ios": "https://dc.lft.to/lastmile_qr_scan", "android": "https://dc.lft.to/lastmile_qr_scan"}, "bike_id": "623d97245127c08d9fbac865da3a49b2", "type": "electric_scooter", "is_disabled": 0, "fusion_lat": 0.0, "fusion_lon": 0.0, "is_reserved": 0, "name": "623d97245127c08d9fbac865da3a49b2"}, {"lon": -77.00340016666667, "lat": 38.8952555, "rental_uris": {"ios": "https://dc.lft.to/lastmile_qr_scan", "android": "https://dc.lft.to/lastmile_qr_scan"}, "bike_id": "5d459b727948b8d1d175c1dc3ec1d0a7", "type": "electric_scooter", "is_disabled": 0, "fusion_lat": 0.0, "fusion_lon": 0.0, "is_reserved": 0, "name": "5d459b727948b8d1d175c1dc3ec1d0a7"}, {"lon": -76.948781, "lat": 38.89552033333333, "rental_uris": {"ios": "https://dc.lft.to/lastmile_qr_scan", "android": "https://dc.lft.to/lastmile_qr_scan"}, "bike_id": "d747d6a180239664701cfbeba5f9059e", "type": "electric_scooter", "is_disabled": 0, "fusion_lat": 0.0, "fusion_lon": 0.0, "is_reserved": 0, "name": "d747d6a180239664701cfbeba5f9059e"}, {"lon": -76.99372633333333, "lat": 38.9718805, "rental_uris": {"ios": "https://dc.lft.to/lastmile_qr_scan", "android": "https://dc.lft.to/lastmile_qr_scan"}, "bike_id": "0cb5eb331dc76f2301862bbd3b73f13c", "type": "electric_bike", "is_disabled": 0, "fusion_lat": 0.0, "fusion_lon": 0.0, "is_reserved": 0, "name": "0cb5eb331dc76f2301862bbd3b73f13c"}, {"lon": -77.047579, "lat": 38.905537833333334, "rental_uris": {"ios": "https://dc.lft.to/lastmile_qr_scan", "android": "https://dc.lft.to/lastmile_qr_scan"}, "bike_id": "9f8064b52132607b3862977874749a1e", "type": "electric_scooter", "is_disabled": 0, "fusion_lat": 0.0, "fusion_lon": 0.0, "is_reserved": 0, "name": "9f8064b52132607b3862977874749a1e"}, {"lon": -77.04196166666667, "lat": 38.919764666666666, "rental_uris": {"ios": "https://dc.lft.to/lastmile_qr_scan", "android": "https://dc.lft.to/lastmile_qr_scan"}, "bike_id": "5f251205616dfca07ccd69b25e75ccbb", "type": "electric_scooter", "is_disabled": 0, "fusion_lat": 0.0, "fusion_lon": 0.0, "is_reserved": 0, "name": "5f251205616dfca07ccd69b25e75ccbb"}, {"lon": -76.99639016666667, "lat": 38.900244666666666, "rental_uris": {"ios": "https://dc.lft.to/lastmile_qr_scan", "android": "https://dc.lft.to/lastmile_qr_scan"}, "bike_id": "2a454e53991499a9ecc9673d9cfe133d", "type": "electric_scooter", "is_disabled": 0, "fusion_lat": 0.0, "fusion_lon": 0.0, "is_reserved": 0, "name": "2a454e53991499a9ecc9673d9cfe133d"}, {"lon": -77.057429, "lat": 38.93389166666667, "rental_uris": {"ios": "https://dc.lft.to/lastmile_qr_scan", "android": "https://dc.lft.to/lastmile_qr_scan"}, "bike_id": "ce1b6b2f4b624563682798a8b23ca848", "type": "electric_scooter", "is_disabled": 0, "fusion_lat": 0.0, "fusion_lon": 0.0, "is_reserved": 0, "name": "ce1b6b2f4b624563682798a8b23ca848"}, {"lon": -77.00198766666666, "lat": 38.8867735, "rental_uris": {"ios": "https://dc.lft.to/lastmile_qr_scan", "android": "https://dc.lft.to/lastmile_qr_scan"}, "bike_id": "29edda5023ef383c9626d077b4b5a82c", "type": "electric_scooter", "is_disabled": 0, "fusion_lat": 0.0, "fusion_lon": 0.0, "is_reserved": 0, "name": "29edda5023ef383c9626d077b4b5a82c"}, {"lon": -77.01079233333333, "lat": 38.9176785, "rental_uris": {"ios": "https://dc.lft.to/lastmile_qr_scan", "android": "https://dc.lft.to/lastmile_qr_scan"}, "bike_id": "8c59fda4d5a001208411c8687ab4cb9e", "type": "electric_scooter", "is_disabled": 0, "fusion_lat": 0.0, "fusion_lon": 0.0, "is_reserved": 0, "name": "8c59fda4d5a001208411c8687ab4cb9e"}, {"lon": -77.03160116666666, "lat": 38.93599416666667, "rental_uris": {"ios": "https://dc.lft.to/lastmile_qr_scan", "android": "https://dc.lft.to/lastmile_qr_scan"}, "bike_id": "47444a13329b9f561ed37710d163713c", "type": "electric_scooter", "is_disabled": 0, "fusion_lat": 0.0, "fusion_lon": 0.0, "is_reserved": 0, "name": "47444a13329b9f561ed37710d163713c"}, {"lon": -77.06331033333333, "lat": 38.920979333333335, "rental_uris": {"ios": "https://dc.lft.to/lastmile_qr_scan", "android": "https://dc.lft.to/lastmile_qr_scan"}, "bike_id": "6cd5ac534fcfe606d5bbcdaab8537ec2", "type": "electric_bike", "is_disabled": 0, "fusion_lat": 0.0, "fusion_lon": 0.0, "is_reserved": 0, "name": "6cd5ac534fcfe606d5bbcdaab8537ec2"}, {"lon": -77.050806, "lat": 38.8967215, "rental_uris": {"ios": "https://dc.lft.to/lastmile_qr_scan", "android": "https://dc.lft.to/lastmile_qr_scan"}, "bike_id": "34243e6e57028fb55a9315048e585841", "type": "electric_scooter", "is_disabled": 0, "fusion_lat": 0.0, "fusion_lon": 0.0, "is_reserved": 0, "name": "34243e6e57028fb55a9315048e585841"}, {"lon": -76.94632216666666, "lat": 38.898460666666665, "rental_uris": {"ios": "https://dc.lft.to/lastmile_qr_scan", "android": "https://dc.lft.to/lastmile_qr_scan"}, "bike_id": "33d7e097db83c22749b3221859f1628e", "type": "electric_scooter", "is_disabled": 0, "fusion_lat": 0.0, "fusion_lon": 0.0, "is_reserved": 0, "name": "33d7e097db83c22749b3221859f1628e"}, {"lon": -77.02245883333333, "lat": 38.922869, "rental_uris": {"ios": "https://dc.lft.to/lastmile_qr_scan", "android": "https://dc.lft.to/lastmile_qr_scan"}, "bike_id": "d561194ba9ac5c6d5066dd2be36794e9", "type": "electric_scooter", "is_disabled": 0, "fusion_lat": 0.0, "fusion_lon": 0.0, "is_reserved": 0, "name": "d561194ba9ac5c6d5066dd2be36794e9"}, {"lon": -77.00726816666666, "lat": 38.88490433333333, "rental_uris": {"ios": "https://dc.lft.to/lastmile_qr_scan", "android": "https://dc.lft.to/lastmile_qr_scan"}, "bike_id": "bdbff92f6fd3ec93aa0a400ccef60779", "type": "electric_scooter", "is_disabled": 0, "fusion_lat": 0.0, "fusion_lon": 0.0, "is_reserved": 0, "name": "bdbff92f6fd3ec93aa0a400ccef60779"}, {"lon": -77.04506933333333, "lat": 38.901532, "rental_uris": {"ios": "https://dc.lft.to/lastmile_qr_scan", "android": "https://dc.lft.to/lastmile_qr_scan"}, "bike_id": "edbad7ff9d1b583279e9e3992d9bcb33", "type": "electric_scooter", "is_disabled": 0, "fusion_lat": 0.0, "fusion_lon": 0.0, "is_reserved": 0, "name": "edbad7ff9d1b583279e9e3992d9bcb33"}, {"lon": -77.0243375, "lat": 38.89459983333333, "rental_uris": {"ios": "https://dc.lft.to/lastmile_qr_scan", "android": "https://dc.lft.to/lastmile_qr_scan"}, "bike_id": "05b10f2bd38a61505ab5c68d9051a7cc", "type": "electric_scooter", "is_disabled": 0, "fusion_lat": 0.0, "fusion_lon": 0.0, "is_reserved": 0, "name": "05b10f2bd38a61505ab5c68d9051a7cc"}, {"lon": -77.06121266666666, "lat": 38.90200216666667, "rental_uris": {"ios": "https://dc.lft.to/lastmile_qr_scan", "android": "https://dc.lft.to/lastmile_qr_scan"}, "bike_id": "fba39109d407d8bc6d47776771bdebad", "type": "electric_scooter", "is_disabled": 0, "fusion_lat": 0.0, "fusion_lon": 0.0, "is_reserved": 0, "name": "fba39109d407d8bc6d47776771bdebad"}, {"lon": -77.02598033333334, "lat": 38.91694616666667, "rental_uris": {"ios": "https://dc.lft.to/lastmile_qr_scan", "android": "https://dc.lft.to/lastmile_qr_scan"}, "bike_id": "bfd309131eaa5f9519be97b827fc0f35", "type": "electric_scooter", "is_disabled": 0, "fusion_lat": 0.0, "fusion_lon": 0.0, "is_reserved": 0, "name": "bfd309131eaa5f9519be97b827fc0f35"}, {"lon": -77.03694116666667, "lat": 38.9167555, "rental_uris": {"ios": "https://dc.lft.to/lastmile_qr_scan", "android": "https://dc.lft.to/lastmile_qr_scan"}, "bike_id": "fbace8f7387217db2abb2a7744d8b884", "type": "electric_scooter", "is_disabled": 0, "fusion_lat": 0.0, "fusion_lon": 0.0, "is_reserved": 0, "name": "fbace8f7387217db2abb2a7744d8b884"}, {"lon": -76.94878583333333, "lat": 38.895503833333336, "rental_uris": {"ios": "https://dc.lft.to/lastmile_qr_scan", "android": "https://dc.lft.to/lastmile_qr_scan"}, "bike_id": "2efee773ac04f79058f8f637f7b1aa6f", "type": "electric_scooter", "is_disabled": 0, "fusion_lat": 0.0, "fusion_lon": 0.0, "is_reserved": 0, "name": "2efee773ac04f79058f8f637f7b1aa6f"}, {"lon": -76.9824445, "lat": 38.90458183333333, "rental_uris": {"ios": "https://dc.lft.to/lastmile_qr_scan", "android": "https://dc.lft.to/lastmile_qr_scan"}, "bike_id": "6194fb107c66f45b9884b9f5e1e3a259", "type": "electric_scooter", "is_disabled": 0, "fusion_lat": 0.0, "fusion_lon": 0.0, "is_reserved": 0, "name": "6194fb107c66f45b9884b9f5e1e3a259"}, {"lon": -77.02705033333334, "lat": 38.89814166666667, "rental_uris": {"ios": "https://dc.lft.to/lastmile_qr_scan", "android": "https://dc.lft.to/lastmile_qr_scan"}, "bike_id": "a3ba77623eaccfab04ea6b35085aad32", "type": "electric_scooter", "is_disabled": 0, "fusion_lat": 0.0, "fusion_lon": 0.0, "is_reserved": 0, "name": "a3ba77623eaccfab04ea6b35085aad32"}, {"lon": -77.026949, "lat": 38.95405683333333, "rental_uris": {"ios": "https://dc.lft.to/lastmile_qr_scan", "android": "https://dc.lft.to/lastmile_qr_scan"}, "bike_id": "f75b7feeb958af738cb238dd1f27faac", "type": "electric_scooter", "is_disabled": 0, "fusion_lat": 0.0, "fusion_lon": 0.0, "is_reserved": 0, "name": "f75b7feeb958af738cb238dd1f27faac"}, {"lon": -77.028194, "lat": 38.932062333333334, "rental_uris": {"ios": "https://dc.lft.to/lastmile_qr_scan", "android": "https://dc.lft.to/lastmile_qr_scan"}, "bike_id": "20da7ca0bf12d2cb6ecbec5dc41a2d03", "type": "electric_scooter", "is_disabled": 0, "fusion_lat": 0.0, "fusion_lon": 0.0, "is_reserved": 0, "name": "20da7ca0bf12d2cb6ecbec5dc41a2d03"}, {"lon": -77.01701283333334, "lat": 38.905199333333336, "rental_uris": {"ios": "https://dc.lft.to/lastmile_qr_scan", "android": "https://dc.lft.to/lastmile_qr_scan"}, "bike_id": "8ed172d0823d1b7caececcd4bd8912ad", "type": "electric_scooter", "is_disabled": 0, "fusion_lat": 0.0, "fusion_lon": 0.0, "is_reserved": 0, "name": "8ed172d0823d1b7caececcd4bd8912ad"}, {"lon": -77.04386416666667, "lat": 38.92112516666667, "rental_uris": {"ios": "https://dc.lft.to/lastmile_qr_scan", "android": "https://dc.lft.to/lastmile_qr_scan"}, "bike_id": "8ffb44f6fc0e345a71d5fb256c0aed9d", "type": "electric_scooter", "is_disabled": 0, "fusion_lat": 0.0, "fusion_lon": 0.0, "is_reserved": 0, "name": "8ffb44f6fc0e345a71d5fb256c0aed9d"}, {"lon": -77.02249333333333, "lat": 38.922873833333334, "rental_uris": {"ios": "https://dc.lft.to/lastmile_qr_scan", "android": "https://dc.lft.to/lastmile_qr_scan"}, "bike_id": "79e5dd25d639eb58591f24285fa3b3cb", "type": "electric_scooter", "is_disabled": 0, "fusion_lat": 0.0, "fusion_lon": 0.0, "is_reserved": 0, "name": "79e5dd25d639eb58591f24285fa3b3cb"}, {"lon": -77.04353266666666, "lat": 38.91067, "rental_uris": {"ios": "https://dc.lft.to/lastmile_qr_scan", "android": "https://dc.lft.to/lastmile_qr_scan"}, "bike_id": "ee0a9220f19c11a5eb1a51966eea2e62", "type": "electric_scooter", "is_disabled": 0, "fusion_lat": 0.0, "fusion_lon": 0.0, "is_reserved": 0, "name": "ee0a9220f19c11a5eb1a51966eea2e62"}, {"lon": -77.065906, "lat": 38.903539333333335, "rental_uris": {"ios": "https://dc.lft.to/lastmile_qr_scan", "android": "https://dc.lft.to/lastmile_qr_scan"}, "bike_id": "7a5a73d6ee366cd7162b950518eee037", "type": "electric_scooter", "is_disabled": 0, "fusion_lat": 0.0, "fusion_lon": 0.0, "is_reserved": 0, "name": "7a5a73d6ee366cd7162b950518eee037"}, {"lon": -77.01511133333334, "lat": 38.89245183333333, "rental_uris": {"ios": "https://dc.lft.to/lastmile_qr_scan", "android": "https://dc.lft.to/lastmile_qr_scan"}, "bike_id": "1e22821dda008eacfa3c811ec4884346", "type": "electric_scooter", "is_disabled": 0, "fusion_lat": 0.0, "fusion_lon": 0.0, "is_reserved": 0, "name": "1e22821dda008eacfa3c811ec4884346"}, {"lon": -77.01762116666667, "lat": 38.885858, "rental_uris": {"ios": "https://dc.lft.to/lastmile_qr_scan", "android": "https://dc.lft.to/lastmile_qr_scan"}, "bike_id": "bfe099b50207b57945eb94fb7f7636ed", "type": "electric_scooter", "is_disabled": 0, "fusion_lat": 0.0, "fusion_lon": 0.0, "is_reserved": 0, "name": "bfe099b50207b57945eb94fb7f7636ed"}, {"lon": -77.005986, "lat": 38.885191, "rental_uris": {"ios": "https://dc.lft.to/lastmile_qr_scan", "android": "https://dc.lft.to/lastmile_qr_scan"}, "bike_id": "6d3b63d98e0b79484ed0bb5ec09ebd33", "type": "electric_scooter", "is_disabled": 0, "fusion_lat": 0.0, "fusion_lon": 0.0, "is_reserved": 0, "name": "6d3b63d98e0b79484ed0bb5ec09ebd33"}, {"lon": -77.04378533333333, "lat": 38.892237333333334, "rental_uris": {"ios": "https://dc.lft.to/lastmile_qr_scan", "android": "https://dc.lft.to/lastmile_qr_scan"}, "bike_id": "7427d929c60ff6c3d302b5cfec0bd62d", "type": "electric_scooter", "is_disabled": 0, "fusion_lat": 0.0, "fusion_lon": 0.0, "is_reserved": 0, "name": "7427d929c60ff6c3d302b5cfec0bd62d"}, {"lon": -76.99795833333333, "lat": 38.95091016666667, "rental_uris": {"ios": "https://dc.lft.to/lastmile_qr_scan", "android": "https://dc.lft.to/lastmile_qr_scan"}, "bike_id": "32f16027ee73f54bb78b63ec40abeec6", "type": "electric_bike", "is_disabled": 0, "fusion_lat": 0.0, "fusion_lon": 0.0, "is_reserved": 0, "name": "32f16027ee73f54bb78b63ec40abeec6"}, {"lon": -77.0790855, "lat": 38.94803, "rental_uris": {"ios": "https://dc.lft.to/lastmile_qr_scan", "android": "https://dc.lft.to/lastmile_qr_scan"}, "bike_id": "67c1670810e97aa79740e531580956ee", "type": "electric_scooter", "is_disabled": 0, "fusion_lat": 0.0, "fusion_lon": 0.0, "is_reserved": 0, "name": "67c1670810e97aa79740e531580956ee"}, {"lon": -77.04489966666667, "lat": 38.91099716666667, "rental_uris": {"ios": "https://dc.lft.to/lastmile_qr_scan", "android": "https://dc.lft.to/lastmile_qr_scan"}, "bike_id": "7ed755ca75fdc3b803a25ec1fbfbb6d9", "type": "electric_scooter", "is_disabled": 0, "fusion_lat": 0.0, "fusion_lon": 0.0, "is_reserved": 0, "name": "7ed755ca75fdc3b803a25ec1fbfbb6d9"}, {"lon": -77.0287015, "lat": 38.884954666666665, "rental_uris": {"ios": "https://dc.lft.to/lastmile_qr_scan", "android": "https://dc.lft.to/lastmile_qr_scan"}, "bike_id": "672b658067b31460be1b53db86a81454", "type": "electric_scooter", "is_disabled": 0, "fusion_lat": 0.0, "fusion_lon": 0.0, "is_reserved": 0, "name": "672b658067b31460be1b53db86a81454"}, {"lon": -76.9731785, "lat": 38.917762333333336, "rental_uris": {"ios": "https://dc.lft.to/lastmile_qr_scan", "android": "https://dc.lft.to/lastmile_qr_scan"}, "bike_id": "5205cb0f3384be1612518385124dc859", "type": "electric_scooter", "is_disabled": 0, "fusion_lat": 0.0, "fusion_lon": 0.0, "is_reserved": 0, "name": "5205cb0f3384be1612518385124dc859"}, {"lon": -77.08579333333333, "lat": 38.933595, "rental_uris": {"ios": "https://dc.lft.to/lastmile_qr_scan", "android": "https://dc.lft.to/lastmile_qr_scan"}, "bike_id": "2b470bb50864633dcb547bb010178d12", "type": "electric_scooter", "is_disabled": 0, "fusion_lat": 0.0, "fusion_lon": 0.0, "is_reserved": 0, "name": "2b470bb50864633dcb547bb010178d12"}, {"lon": -76.97240283333333, "lat": 38.9490545, "rental_uris": {"ios": "https://dc.lft.to/lastmile_qr_scan", "android": "https://dc.lft.to/lastmile_qr_scan"}, "bike_id": "de11fbe0a123de9e27f11874fc478b0f", "type": "electric_bike", "is_disabled": 0, "fusion_lat": 0.0, "fusion_lon": 0.0, "is_reserved": 0, "name": "de11fbe0a123de9e27f11874fc478b0f"}, {"lon": -77.03440016666667, "lat": 38.919411, "rental_uris": {"ios": "https://dc.lft.to/lastmile_qr_scan", "android": "https://dc.lft.to/lastmile_qr_scan"}, "bike_id": "7cc7f75c26083f8f94a99ec14a9b76cb", "type": "electric_scooter", "is_disabled": 0, "fusion_lat": 0.0, "fusion_lon": 0.0, "is_reserved": 0, "name": "7cc7f75c26083f8f94a99ec14a9b76cb"}, {"lon": -77.03482383333333, "lat": 38.9215515, "rental_uris": {"ios": "https://dc.lft.to/lastmile_qr_scan", "android": "https://dc.lft.to/lastmile_qr_scan"}, "bike_id": "6054a93b3c2e3f390a19da5815e0c668", "type": "electric_scooter", "is_disabled": 0, "fusion_lat": 0.0, "fusion_lon": 0.0, "is_reserved": 0, "name": "6054a93b3c2e3f390a19da5815e0c668"}, {"lon": -77.04268433333333, "lat": 38.922952, "rental_uris": {"ios": "https://dc.lft.to/lastmile_qr_scan", "android": "https://dc.lft.to/lastmile_qr_scan"}, "bike_id": "c3b88c4a488f042b9de23b3f743bc5af", "type": "electric_scooter", "is_disabled": 0, "fusion_lat": 0.0, "fusion_lon": 0.0, "is_reserved": 0, "name": "c3b88c4a488f042b9de23b3f743bc5af"}, {"lon": -77.00675783333334, "lat": 38.900123, "rental_uris": {"ios": "https://dc.lft.to/lastmile_qr_scan", "android": "https://dc.lft.to/lastmile_qr_scan"}, "bike_id": "ac10bf6748b409ccd69f21d3c07882d7", "type": "electric_scooter", "is_disabled": 0, "fusion_lat": 0.0, "fusion_lon": 0.0, "is_reserved": 0, "name": "ac10bf6748b409ccd69f21d3c07882d7"}, {"lon": -77.08588083333333, "lat": 38.84440766666667, "rental_uris": {"ios": "https://dc.lft.to/lastmile_qr_scan", "android": "https://dc.lft.to/lastmile_qr_scan"}, "bike_id": "695e688024c44a123a47a31faa15aef4", "type": "electric_bike", "is_disabled": 0, "fusion_lat": 0.0, "fusion_lon": 0.0, "is_reserved": 0, "name": "695e688024c44a123a47a31faa15aef4"}, {"lon": -77.0482725, "lat": 38.905211666666666, "rental_uris": {"ios": "https://dc.lft.to/lastmile_qr_scan", "android": "https://dc.lft.to/lastmile_qr_scan"}, "bike_id": "d71bbf43c25a9fce11b63d5452abff9c", "type": "electric_scooter", "is_disabled": 0, "fusion_lat": 0.0, "fusion_lon": 0.0, "is_reserved": 0, "name": "d71bbf43c25a9fce11b63d5452abff9c"}, {"lon": -77.04668433333333, "lat": 38.90367966666667, "rental_uris": {"ios": "https://dc.lft.to/lastmile_qr_scan", "android": "https://dc.lft.to/lastmile_qr_scan"}, "bike_id": "29b14f5f7c5383ef9117106cd8a9eb05", "type": "electric_scooter", "is_disabled": 0, "fusion_lat": 0.0, "fusion_lon": 0.0, "is_reserved": 0, "name": "29b14f5f7c5383ef9117106cd8a9eb05"}, {"lon": -77.1092105, "lat": 39.05200683333333, "rental_uris": {"ios": "https://dc.lft.to/lastmile_qr_scan", "android": "https://dc.lft.to/lastmile_qr_scan"}, "bike_id": "bf72484d137a49dc4ca9fe340bf0ec90", "type": "electric_bike", "is_disabled": 0, "fusion_lat": 0.0, "fusion_lon": 0.0, "is_reserved": 0, "name": "bf72484d137a49dc4ca9fe340bf0ec90"}, {"lon": -77.038286, "lat": 38.906750833333334, "rental_uris": {"ios": "https://dc.lft.to/lastmile_qr_scan", "android": "https://dc.lft.to/lastmile_qr_scan"}, "bike_id": "18e19419706cb515c1ac17beefacea74", "type": "electric_scooter", "is_disabled": 0, "fusion_lat": 0.0, "fusion_lon": 0.0, "is_reserved": 0, "name": "18e19419706cb515c1ac17beefacea74"}, {"lon": -77.04388916666667, "lat": 38.90896266666667, "rental_uris": {"ios": "https://dc.lft.to/lastmile_qr_scan", "android": "https://dc.lft.to/lastmile_qr_scan"}, "bike_id": "c3b8de50e4204f2dac84cdcad0ec085d", "type": "electric_scooter", "is_disabled": 0, "fusion_lat": 0.0, "fusion_lon": 0.0, "is_reserved": 0, "name": "c3b8de50e4204f2dac84cdcad0ec085d"}, {"lon": -77.014019, "lat": 38.92866883333333, "rental_uris": {"ios": "https://dc.lft.to/lastmile_qr_scan", "android": "https://dc.lft.to/lastmile_qr_scan"}, "bike_id": "65006ce325258df68c9818c56ebdd2b3", "type": "electric_scooter", "is_disabled": 0, "fusion_lat": 0.0, "fusion_lon": 0.0, "is_reserved": 0, "name": "65006ce325258df68c9818c56ebdd2b3"}, {"lon": -77.01118583333333, "lat": 38.88547233333333, "rental_uris": {"ios": "https://dc.lft.to/lastmile_qr_scan", "android": "https://dc.lft.to/lastmile_qr_scan"}, "bike_id": "99fb9af5de68907cb275715de7a2c7b3", "type": "electric_scooter", "is_disabled": 0, "fusion_lat": 0.0, "fusion_lon": 0.0, "is_reserved": 0, "name": "99fb9af5de68907cb275715de7a2c7b3"}, {"lon": -77.0283245, "lat": 38.9247285, "rental_uris": {"ios": "https://dc.lft.to/lastmile_qr_scan", "android": "https://dc.lft.to/lastmile_qr_scan"}, "bike_id": "554ca7ab710d02ebeb74a58ac40f517c", "type": "electric_scooter", "is_disabled": 0, "fusion_lat": 0.0, "fusion_lon": 0.0, "is_reserved": 0, "name": "554ca7ab710d02ebeb74a58ac40f517c"}, {"lon": -77.0248915, "lat": 38.93866116666667, "rental_uris": {"ios": "https://dc.lft.to/lastmile_qr_scan", "android": "https://dc.lft.to/lastmile_qr_scan"}, "bike_id": "df1295825b96bfb67ed4da83e1d6392c", "type": "electric_scooter", "is_disabled": 0, "fusion_lat": 0.0, "fusion_lon": 0.0, "is_reserved": 0, "name": "df1295825b96bfb67ed4da83e1d6392c"}, {"lon": -76.99714616666667, "lat": 38.91102516666667, "rental_uris": {"ios": "https://dc.lft.to/lastmile_qr_scan", "android": "https://dc.lft.to/lastmile_qr_scan"}, "bike_id": "53871248fc3ef61960812f6a7c2b940e", "type": "electric_scooter", "is_disabled": 0, "fusion_lat": 0.0, "fusion_lon": 0.0, "is_reserved": 0, "name": "53871248fc3ef61960812f6a7c2b940e"}, {"lon": -77.02778483333333, "lat": 38.92774166666667, "rental_uris": {"ios": "https://dc.lft.to/lastmile_qr_scan", "android": "https://dc.lft.to/lastmile_qr_scan"}, "bike_id": "b65c5c7037567bc2673aa4a1fbff74e0", "type": "electric_scooter", "is_disabled": 0, "fusion_lat": 0.0, "fusion_lon": 0.0, "is_reserved": 0, "name": "b65c5c7037567bc2673aa4a1fbff74e0"}, {"lon": -77.0219375, "lat": 38.9117995, "rental_uris": {"ios": "https://dc.lft.to/lastmile_qr_scan", "android": "https://dc.lft.to/lastmile_qr_scan"}, "bike_id": "5ce5bd4a421ccc9b1cbe29ad18aeb196", "type": "electric_scooter", "is_disabled": 0, "fusion_lat": 0.0, "fusion_lon": 0.0, "is_reserved": 0, "name": "5ce5bd4a421ccc9b1cbe29ad18aeb196"}, {"lon": -77.00832716666666, "lat": 38.913065833333334, "rental_uris": {"ios": "https://dc.lft.to/lastmile_qr_scan", "android": "https://dc.lft.to/lastmile_qr_scan"}, "bike_id": "5b592cad9468397b631e4eb91bd561e6", "type": "electric_scooter", "is_disabled": 0, "fusion_lat": 0.0, "fusion_lon": 0.0, "is_reserved": 0, "name": "5b592cad9468397b631e4eb91bd561e6"}, {"lon": -77.02698633333333, "lat": 38.898214, "rental_uris": {"ios": "https://dc.lft.to/lastmile_qr_scan", "android": "https://dc.lft.to/lastmile_qr_scan"}, "bike_id": "b6be35245ae7478fa7d33d2db72c98ac", "type": "electric_scooter", "is_disabled": 0, "fusion_lat": 0.0, "fusion_lon": 0.0, "is_reserved": 0, "name": "b6be35245ae7478fa7d33d2db72c98ac"}, {"lon": -76.929979, "lat": 38.9018705, "rental_uris": {"ios": "https://dc.lft.to/lastmile_qr_scan", "android": "https://dc.lft.to/lastmile_qr_scan"}, "bike_id": "b726ccdaa688398507869e2c07ff25f8", "type": "electric_scooter", "is_disabled": 0, "fusion_lat": 0.0, "fusion_lon": 0.0, "is_reserved": 0, "name": "b726ccdaa688398507869e2c07ff25f8"}, {"lon": -77.0456335, "lat": 38.92335583333333, "rental_uris": {"ios": "https://dc.lft.to/lastmile_qr_scan", "android": "https://dc.lft.to/lastmile_qr_scan"}, "bike_id": "ca9d11c1419b71ae438dab6b534717ed", "type": "electric_scooter", "is_disabled": 0, "fusion_lat": 0.0, "fusion_lon": 0.0, "is_reserved": 0, "name": "ca9d11c1419b71ae438dab6b534717ed"}, {"lon": -77.059544, "lat": 38.9052455, "rental_uris": {"ios": "https://dc.lft.to/lastmile_qr_scan", "android": "https://dc.lft.to/lastmile_qr_scan"}, "bike_id": "72736f9d91706774f21457d1275c6957", "type": "electric_scooter", "is_disabled": 0, "fusion_lat": 0.0, "fusion_lon": 0.0, "is_reserved": 0, "name": "72736f9d91706774f21457d1275c6957"}, {"lon": -77.0582615, "lat": 38.93508283333333, "rental_uris": {"ios": "https://dc.lft.to/lastmile_qr_scan", "android": "https://dc.lft.to/lastmile_qr_scan"}, "bike_id": "2496ab9a959a40ef864cb01a7e793726", "type": "electric_scooter", "is_disabled": 0, "fusion_lat": 0.0, "fusion_lon": 0.0, "is_reserved": 0, "name": "2496ab9a959a40ef864cb01a7e793726"}, {"lon": -76.99018016666666, "lat": 38.866416666666666, "rental_uris": {"ios": "https://dc.lft.to/lastmile_qr_scan", "android": "https://dc.lft.to/lastmile_qr_scan"}, "bike_id": "ca4f2aaa26789ba24893f0ec62118124", "type": "electric_scooter", "is_disabled": 0, "fusion_lat": 0.0, "fusion_lon": 0.0, "is_reserved": 0, "name": "ca4f2aaa26789ba24893f0ec62118124"}, {"lon": -77.02487716666667, "lat": 38.938656333333334, "rental_uris": {"ios": "https://dc.lft.to/lastmile_qr_scan", "android": "https://dc.lft.to/lastmile_qr_scan"}, "bike_id": "3aef915b27dfb22ea204658a6aa0b455", "type": "electric_scooter", "is_disabled": 0, "fusion_lat": 0.0, "fusion_lon": 0.0, "is_reserved": 0, "name": "3aef915b27dfb22ea204658a6aa0b455"}, {"lon": -77.0328165, "lat": 38.932076333333335, "rental_uris": {"ios": "https://dc.lft.to/lastmile_qr_scan", "android": "https://dc.lft.to/lastmile_qr_scan"}, "bike_id": "f824f21660fc22ef02af34ffd67c6c15", "type": "electric_scooter", "is_disabled": 0, "fusion_lat": 0.0, "fusion_lon": 0.0, "is_reserved": 0, "name": "f824f21660fc22ef02af34ffd67c6c15"}, {"lon": -77.04177116666666, "lat": 38.9065595, "rental_uris": {"ios": "https://dc.lft.to/lastmile_qr_scan", "android": "https://dc.lft.to/lastmile_qr_scan"}, "bike_id": "6623d0a24104dc53630d4ffeb8bf3716", "type": "electric_scooter", "is_disabled": 0, "fusion_lat": 0.0, "fusion_lon": 0.0, "is_reserved": 0, "name": "6623d0a24104dc53630d4ffeb8bf3716"}, {"lon": -77.0806675, "lat": 39.05283683333333, "rental_uris": {"ios": "https://dc.lft.to/lastmile_qr_scan", "android": "https://dc.lft.to/lastmile_qr_scan"}, "bike_id": "abc8efafb481585deed6f5ca37638b29", "type": "electric_bike", "is_disabled": 0, "fusion_lat": 0.0, "fusion_lon": 0.0, "is_reserved": 0, "name": "abc8efafb481585deed6f5ca37638b29"}, {"lon": -77.0487065, "lat": 38.9097275, "rental_uris": {"ios": "https://dc.lft.to/lastmile_qr_scan", "android": "https://dc.lft.to/lastmile_qr_scan"}, "bike_id": "09e3ed890e55dfdd67da05b1c30f3cb2", "type": "electric_scooter", "is_disabled": 0, "fusion_lat": 0.0, "fusion_lon": 0.0, "is_reserved": 0, "name": "09e3ed890e55dfdd67da05b1c30f3cb2"}, {"lon": -77.03960016666667, "lat": 38.902720333333335, "rental_uris": {"ios": "https://dc.lft.to/lastmile_qr_scan", "android": "https://dc.lft.to/lastmile_qr_scan"}, "bike_id": "460f9ac7b6e3e72b8f7f486ed652d216", "type": "electric_scooter", "is_disabled": 0, "fusion_lat": 0.0, "fusion_lon": 0.0, "is_reserved": 0, "name": "460f9ac7b6e3e72b8f7f486ed652d216"}, {"lon": -76.9876895, "lat": 38.85769483333333, "rental_uris": {"ios": "https://dc.lft.to/lastmile_qr_scan", "android": "https://dc.lft.to/lastmile_qr_scan"}, "bike_id": "0b17159c3a79e0b66e0eefba15bc515b", "type": "electric_bike", "is_disabled": 0, "fusion_lat": 0.0, "fusion_lon": 0.0, "is_reserved": 0, "name": "0b17159c3a79e0b66e0eefba15bc515b"}, {"lon": -76.97479833333334, "lat": 38.90350166666666, "rental_uris": {"ios": "https://dc.lft.to/lastmile_qr_scan", "android": "https://dc.lft.to/lastmile_qr_scan"}, "bike_id": "3dea59860030c96520ccddf8f4d46ace", "type": "electric_scooter", "is_disabled": 0, "fusion_lat": 0.0, "fusion_lon": 0.0, "is_reserved": 0, "name": "3dea59860030c96520ccddf8f4d46ace"}, {"lon": -77.0068115, "lat": 38.90012733333333, "rental_uris": {"ios": "https://dc.lft.to/lastmile_qr_scan", "android": "https://dc.lft.to/lastmile_qr_scan"}, "bike_id": "d958c16880b191007d87f77e322a5e3f", "type": "electric_scooter", "is_disabled": 0, "fusion_lat": 0.0, "fusion_lon": 0.0, "is_reserved": 0, "name": "d958c16880b191007d87f77e322a5e3f"}, {"lon": -77.0688475, "lat": 38.9183165, "rental_uris": {"ios": "https://dc.lft.to/lastmile_qr_scan", "android": "https://dc.lft.to/lastmile_qr_scan"}, "bike_id": "e004d58470a5442fb04fcbb37abe34b2", "type": "electric_scooter", "is_disabled": 0, "fusion_lat": 0.0, "fusion_lon": 0.0, "is_reserved": 0, "name": "e004d58470a5442fb04fcbb37abe34b2"}, {"lon": -77.02877, "lat": 39.037502333333336, "rental_uris": {"ios": "https://dc.lft.to/lastmile_qr_scan", "android": "https://dc.lft.to/lastmile_qr_scan"}, "bike_id": "7720ea94af9f6da958f86ccc0df9bd82", "type": "electric_scooter", "is_disabled": 0, "fusion_lat": 0.0, "fusion_lon": 0.0, "is_reserved": 0, "name": "7720ea94af9f6da958f86ccc0df9bd82"}, {"lon": -77.04042383333334, "lat": 38.91860616666666, "rental_uris": {"ios": "https://dc.lft.to/lastmile_qr_scan", "android": "https://dc.lft.to/lastmile_qr_scan"}, "bike_id": "8057b69ef0300944556ab0aba4101267", "type": "electric_scooter", "is_disabled": 0, "fusion_lat": 0.0, "fusion_lon": 0.0, "is_reserved": 0, "name": "8057b69ef0300944556ab0aba4101267"}, {"lon": -77.028289, "lat": 38.932035, "rental_uris": {"ios": "https://dc.lft.to/lastmile_qr_scan", "android": "https://dc.lft.to/lastmile_qr_scan"}, "bike_id": "7fa272114e183e1ee0a5942248bfaf60", "type": "electric_scooter", "is_disabled": 0, "fusion_lat": 0.0, "fusion_lon": 0.0, "is_reserved": 0, "name": "7fa272114e183e1ee0a5942248bfaf60"}, {"lon": -77.023345, "lat": 38.92479266666667, "rental_uris": {"ios": "https://dc.lft.to/lastmile_qr_scan", "android": "https://dc.lft.to/lastmile_qr_scan"}, "bike_id": "b7b74cf625662fd73559247a530614d1", "type": "electric_scooter", "is_disabled": 0, "fusion_lat": 0.0, "fusion_lon": 0.0, "is_reserved": 0, "name": "b7b74cf625662fd73559247a530614d1"}, {"lon": -77.027992, "lat": 38.89530966666667, "rental_uris": {"ios": "https://dc.lft.to/lastmile_qr_scan", "android": "https://dc.lft.to/lastmile_qr_scan"}, "bike_id": "f36a4eca33c5783b40c3adb9efc04a34", "type": "electric_scooter", "is_disabled": 0, "fusion_lat": 0.0, "fusion_lon": 0.0, "is_reserved": 0, "name": "f36a4eca33c5783b40c3adb9efc04a34"}, {"lon": -77.011308, "lat": 38.91591783333333, "rental_uris": {"ios": "https://dc.lft.to/lastmile_qr_scan", "android": "https://dc.lft.to/lastmile_qr_scan"}, "bike_id": "5b1294cc9fb9f75c7f587c67b367ab04", "type": "electric_scooter", "is_disabled": 0, "fusion_lat": 0.0, "fusion_lon": 0.0, "is_reserved": 0, "name": "5b1294cc9fb9f75c7f587c67b367ab04"}, {"lon": -77.00728116666667, "lat": 38.88497533333334, "rental_uris": {"ios": "https://dc.lft.to/lastmile_qr_scan", "android": "https://dc.lft.to/lastmile_qr_scan"}, "bike_id": "375e46d65122d896b3aa3b68004177ee", "type": "electric_scooter", "is_disabled": 0, "fusion_lat": 0.0, "fusion_lon": 0.0, "is_reserved": 0, "name": "375e46d65122d896b3aa3b68004177ee"}, {"lon": -76.99793516666666, "lat": 38.910574833333335, "rental_uris": {"ios": "https://dc.lft.to/lastmile_qr_scan", "android": "https://dc.lft.to/lastmile_qr_scan"}, "bike_id": "e52bd968ac38814bf30352ef541d6370", "type": "electric_scooter", "is_disabled": 0, "fusion_lat": 0.0, "fusion_lon": 0.0, "is_reserved": 0, "name": "e52bd968ac38814bf30352ef541d6370"}, {"lon": -77.03644716666666, "lat": 38.90373316666667, "rental_uris": {"ios": "https://dc.lft.to/lastmile_qr_scan", "android": "https://dc.lft.to/lastmile_qr_scan"}, "bike_id": "795b7da339a4da012f35f48534a21711", "type": "electric_scooter", "is_disabled": 0, "fusion_lat": 0.0, "fusion_lon": 0.0, "is_reserved": 0, "name": "795b7da339a4da012f35f48534a21711"}, {"lon": -76.93734133333334, "lat": 38.890147166666665, "rental_uris": {"ios": "https://dc.lft.to/lastmile_qr_scan", "android": "https://dc.lft.to/lastmile_qr_scan"}, "bike_id": "b904a0b17aeb477368cfd276041ac6cc", "type": "electric_scooter", "is_disabled": 0, "fusion_lat": 0.0, "fusion_lon": 0.0, "is_reserved": 0, "name": "b904a0b17aeb477368cfd276041ac6cc"}, {"lon": -77.077953, "lat": 38.9960325, "rental_uris": {"ios": "https://dc.lft.to/lastmile_qr_scan", "android": "https://dc.lft.to/lastmile_qr_scan"}, "bike_id": "bbb7101076d085b15f6e72781c50a874", "type": "electric_bike", "is_disabled": 0, "fusion_lat": 0.0, "fusion_lon": 0.0, "is_reserved": 0, "name": "bbb7101076d085b15f6e72781c50a874"}, {"lon": -77.0428055, "lat": 38.91038233333333, "rental_uris": {"ios": "https://dc.lft.to/lastmile_qr_scan", "android": "https://dc.lft.to/lastmile_qr_scan"}, "bike_id": "542f1e9d6641d1728d8d6e4860bfca21", "type": "electric_scooter", "is_disabled": 0, "fusion_lat": 0.0, "fusion_lon": 0.0, "is_reserved": 0, "name": "542f1e9d6641d1728d8d6e4860bfca21"}, {"lon": -77.01198633333334, "lat": 38.8931605, "rental_uris": {"ios": "https://dc.lft.to/lastmile_qr_scan", "android": "https://dc.lft.to/lastmile_qr_scan"}, "bike_id": "cfa2b910eeefbc4cebb6f76b6341c270", "type": "electric_scooter", "is_disabled": 0, "fusion_lat": 0.0, "fusion_lon": 0.0, "is_reserved": 0, "name": "cfa2b910eeefbc4cebb6f76b6341c270"}, {"lon": -77.0385785, "lat": 38.9320105, "rental_uris": {"ios": "https://dc.lft.to/lastmile_qr_scan", "android": "https://dc.lft.to/lastmile_qr_scan"}, "bike_id": "3453e73e31be974a51207a79609e5f92", "type": "electric_scooter", "is_disabled": 0, "fusion_lat": 0.0, "fusion_lon": 0.0, "is_reserved": 0, "name": "3453e73e31be974a51207a79609e5f92"}, {"lon": -76.995569, "lat": 38.862139666666664, "rental_uris": {"ios": "https://dc.lft.to/lastmile_qr_scan", "android": "https://dc.lft.to/lastmile_qr_scan"}, "bike_id": "b3ad7147291c51de83a931d8a8cf194e", "type": "electric_scooter", "is_disabled": 0, "fusion_lat": 0.0, "fusion_lon": 0.0, "is_reserved": 0, "name": "b3ad7147291c51de83a931d8a8cf194e"}, {"lon": -77.029261, "lat": 38.900026, "rental_uris": {"ios": "https://dc.lft.to/lastmile_qr_scan", "android": "https://dc.lft.to/lastmile_qr_scan"}, "bike_id": "4dae2f39fb35e4a01cf8502deb0b068f", "type": "electric_scooter", "is_disabled": 0, "fusion_lat": 0.0, "fusion_lon": 0.0, "is_reserved": 0, "name": "4dae2f39fb35e4a01cf8502deb0b068f"}, {"lon": -77.04442283333333, "lat": 38.921367000000004, "rental_uris": {"ios": "https://dc.lft.to/lastmile_qr_scan", "android": "https://dc.lft.to/lastmile_qr_scan"}, "bike_id": "72cc6dca6538c57e2b8c8a42c56de4f3", "type": "electric_scooter", "is_disabled": 0, "fusion_lat": 0.0, "fusion_lon": 0.0, "is_reserved": 0, "name": "72cc6dca6538c57e2b8c8a42c56de4f3"}, {"lon": -77.04101933333334, "lat": 38.91778516666667, "rental_uris": {"ios": "https://dc.lft.to/lastmile_qr_scan", "android": "https://dc.lft.to/lastmile_qr_scan"}, "bike_id": "228f065fb14801242b70104d81f61780", "type": "electric_scooter", "is_disabled": 0, "fusion_lat": 0.0, "fusion_lon": 0.0, "is_reserved": 0, "name": "228f065fb14801242b70104d81f61780"}, {"lon": -77.03125783333333, "lat": 38.914936833333336, "rental_uris": {"ios": "https://dc.lft.to/lastmile_qr_scan", "android": "https://dc.lft.to/lastmile_qr_scan"}, "bike_id": "32f5767b0a9e411ccfe7270b05aa46df", "type": "electric_scooter", "is_disabled": 0, "fusion_lat": 0.0, "fusion_lon": 0.0, "is_reserved": 0, "name": "32f5767b0a9e411ccfe7270b05aa46df"}, {"lon": -77.06460983333334, "lat": 38.91042866666667, "rental_uris": {"ios": "https://dc.lft.to/lastmile_qr_scan", "android": "https://dc.lft.to/lastmile_qr_scan"}, "bike_id": "540c08e05ee7f18e5ae81be2a62078c3", "type": "electric_scooter", "is_disabled": 0, "fusion_lat": 0.0, "fusion_lon": 0.0, "is_reserved": 0, "name": "540c08e05ee7f18e5ae81be2a62078c3"}, {"lon": -77.0296995, "lat": 38.91682733333333, "rental_uris": {"ios": "https://dc.lft.to/lastmile_qr_scan", "android": "https://dc.lft.to/lastmile_qr_scan"}, "bike_id": "930824763a500d61a47bffeca60eb058", "type": "electric_scooter", "is_disabled": 0, "fusion_lat": 0.0, "fusion_lon": 0.0, "is_reserved": 0, "name": "930824763a500d61a47bffeca60eb058"}, {"lon": -77.05013066666666, "lat": 38.902873666666665, "rental_uris": {"ios": "https://dc.lft.to/lastmile_qr_scan", "android": "https://dc.lft.to/lastmile_qr_scan"}, "bike_id": "1a96e6ffdc6ed9fc2c59434e8cf1771a", "type": "electric_scooter", "is_disabled": 0, "fusion_lat": 0.0, "fusion_lon": 0.0, "is_reserved": 0, "name": "1a96e6ffdc6ed9fc2c59434e8cf1771a"}, {"lon": -77.0073675, "lat": 38.92540966666667, "rental_uris": {"ios": "https://dc.lft.to/lastmile_qr_scan", "android": "https://dc.lft.to/lastmile_qr_scan"}, "bike_id": "cfdbc4a3b16511996a609da4cd21aa86", "type": "electric_scooter", "is_disabled": 0, "fusion_lat": 0.0, "fusion_lon": 0.0, "is_reserved": 0, "name": "cfdbc4a3b16511996a609da4cd21aa86"}, {"lon": -76.94958766666667, "lat": 38.9049645, "rental_uris": {"ios": "https://dc.lft.to/lastmile_qr_scan", "android": "https://dc.lft.to/lastmile_qr_scan"}, "bike_id": "b2c3c9ed5a2ea707071f9a33d588a664", "type": "electric_scooter", "is_disabled": 0, "fusion_lat": 0.0, "fusion_lon": 0.0, "is_reserved": 0, "name": "b2c3c9ed5a2ea707071f9a33d588a664"}, {"lon": -77.05172416666667, "lat": 38.923447, "rental_uris": {"ios": "https://dc.lft.to/lastmile_qr_scan", "android": "https://dc.lft.to/lastmile_qr_scan"}, "bike_id": "649a0af7e24819deafc5d3fe80f1a3ee", "type": "electric_scooter", "is_disabled": 0, "fusion_lat": 0.0, "fusion_lon": 0.0, "is_reserved": 0, "name": "649a0af7e24819deafc5d3fe80f1a3ee"}, {"lon": -77.03641616666667, "lat": 38.92267983333333, "rental_uris": {"ios": "https://dc.lft.to/lastmile_qr_scan", "android": "https://dc.lft.to/lastmile_qr_scan"}, "bike_id": "168ce8a3ea9a7821d57943a507c4e086", "type": "electric_scooter", "is_disabled": 0, "fusion_lat": 0.0, "fusion_lon": 0.0, "is_reserved": 0, "name": "168ce8a3ea9a7821d57943a507c4e086"}, {"lon": -77.04994766666667, "lat": 38.89226683333333, "rental_uris": {"ios": "https://dc.lft.to/lastmile_qr_scan", "android": "https://dc.lft.to/lastmile_qr_scan"}, "bike_id": "2f20776ef676658cb0f5a04a701803e8", "type": "electric_scooter", "is_disabled": 0, "fusion_lat": 0.0, "fusion_lon": 0.0, "is_reserved": 0, "name": "2f20776ef676658cb0f5a04a701803e8"}, {"lon": -76.95760516666667, "lat": 38.88432233333333, "rental_uris": {"ios": "https://dc.lft.to/lastmile_qr_scan", "android": "https://dc.lft.to/lastmile_qr_scan"}, "bike_id": "66cb4f259ee656c4e4d7163a4f1dee98", "type": "electric_scooter", "is_disabled": 0, "fusion_lat": 0.0, "fusion_lon": 0.0, "is_reserved": 0, "name": "66cb4f259ee656c4e4d7163a4f1dee98"}, {"lon": -77.02425766666667, "lat": 38.921531, "rental_uris": {"ios": "https://dc.lft.to/lastmile_qr_scan", "android": "https://dc.lft.to/lastmile_qr_scan"}, "bike_id": "c015f2721050958d4c6222ff513c3e35", "type": "electric_scooter", "is_disabled": 0, "fusion_lat": 0.0, "fusion_lon": 0.0, "is_reserved": 0, "name": "c015f2721050958d4c6222ff513c3e35"}, {"lon": -77.00189766666666, "lat": 38.90379466666667, "rental_uris": {"ios": "https://dc.lft.to/lastmile_qr_scan", "android": "https://dc.lft.to/lastmile_qr_scan"}, "bike_id": "5d50f2649d9388f3791329804fb57ad6", "type": "electric_scooter", "is_disabled": 0, "fusion_lat": 0.0, "fusion_lon": 0.0, "is_reserved": 0, "name": "5d50f2649d9388f3791329804fb57ad6"}, {"lon": -77.0092725, "lat": 38.89603983333333, "rental_uris": {"ios": "https://dc.lft.to/lastmile_qr_scan", "android": "https://dc.lft.to/lastmile_qr_scan"}, "bike_id": "ea95eccca4e9165d54f1c333bfb36df1", "type": "electric_scooter", "is_disabled": 0, "fusion_lat": 0.0, "fusion_lon": 0.0, "is_reserved": 0, "name": "ea95eccca4e9165d54f1c333bfb36df1"}, {"lon": -77.02283433333334, "lat": 38.90221833333333, "rental_uris": {"ios": "https://dc.lft.to/lastmile_qr_scan", "android": "https://dc.lft.to/lastmile_qr_scan"}, "bike_id": "87826aeff9cc9b27a4ff2724612bd43d", "type": "electric_scooter", "is_disabled": 0, "fusion_lat": 0.0, "fusion_lon": 0.0, "is_reserved": 0, "name": "87826aeff9cc9b27a4ff2724612bd43d"}, {"lon": -77.01066116666667, "lat": 38.912685, "rental_uris": {"ios": "https://dc.lft.to/lastmile_qr_scan", "android": "https://dc.lft.to/lastmile_qr_scan"}, "bike_id": "0e8731de115b8784aa6f249a88504528", "type": "electric_scooter", "is_disabled": 0, "fusion_lat": 0.0, "fusion_lon": 0.0, "is_reserved": 0, "name": "0e8731de115b8784aa6f249a88504528"}, {"lon": -77.0454325, "lat": 38.896086333333336, "rental_uris": {"ios": "https://dc.lft.to/lastmile_qr_scan", "android": "https://dc.lft.to/lastmile_qr_scan"}, "bike_id": "093914c579379a5a24d7c7b7c5395cd1", "type": "electric_scooter", "is_disabled": 0, "fusion_lat": 0.0, "fusion_lon": 0.0, "is_reserved": 0, "name": "093914c579379a5a24d7c7b7c5395cd1"}, {"lon": -77.02491683333334, "lat": 38.941849500000004, "rental_uris": {"ios": "https://dc.lft.to/lastmile_qr_scan", "android": "https://dc.lft.to/lastmile_qr_scan"}, "bike_id": "e73c932478b4ef4a1b8fb3477ae51d48", "type": "electric_scooter", "is_disabled": 0, "fusion_lat": 0.0, "fusion_lon": 0.0, "is_reserved": 0, "name": "e73c932478b4ef4a1b8fb3477ae51d48"}, {"lon": -76.99456033333334, "lat": 38.862167666666664, "rental_uris": {"ios": "https://dc.lft.to/lastmile_qr_scan", "android": "https://dc.lft.to/lastmile_qr_scan"}, "bike_id": "33c6eb7e2f4f8bac96b6c920da601f84", "type": "electric_scooter", "is_disabled": 0, "fusion_lat": 0.0, "fusion_lon": 0.0, "is_reserved": 0, "name": "33c6eb7e2f4f8bac96b6c920da601f84"}, {"lon": -77.00780733333333, "lat": 38.98385066666667, "rental_uris": {"ios": "https://dc.lft.to/lastmile_qr_scan", "android": "https://dc.lft.to/lastmile_qr_scan"}, "bike_id": "cd8137902a734bd23930a9d244a857c1", "type": "electric_bike", "is_disabled": 0, "fusion_lat": 0.0, "fusion_lon": 0.0, "is_reserved": 0, "name": "cd8137902a734bd23930a9d244a857c1"}, {"lon": -77.0287775, "lat": 38.928193, "rental_uris": {"ios": "https://dc.lft.to/lastmile_qr_scan", "android": "https://dc.lft.to/lastmile_qr_scan"}, "bike_id": "91b0e919a941bb9575435e20884547c1", "type": "electric_scooter", "is_disabled": 0, "fusion_lat": 0.0, "fusion_lon": 0.0, "is_reserved": 0, "name": "91b0e919a941bb9575435e20884547c1"}, {"lon": -77.02816366666667, "lat": 38.91694183333333, "rental_uris": {"ios": "https://dc.lft.to/lastmile_qr_scan", "android": "https://dc.lft.to/lastmile_qr_scan"}, "bike_id": "915210b9d94025ee9cf713b1d913354d", "type": "electric_scooter", "is_disabled": 0, "fusion_lat": 0.0, "fusion_lon": 0.0, "is_reserved": 0, "name": "915210b9d94025ee9cf713b1d913354d"}, {"lon": -77.03551833333333, "lat": 38.9036085, "rental_uris": {"ios": "https://dc.lft.to/lastmile_qr_scan", "android": "https://dc.lft.to/lastmile_qr_scan"}, "bike_id": "8a2527b98fc7f8bab975e9cd1edffc9e", "type": "electric_scooter", "is_disabled": 0, "fusion_lat": 0.0, "fusion_lon": 0.0, "is_reserved": 0, "name": "8a2527b98fc7f8bab975e9cd1edffc9e"}, {"lon": -77.02959783333333, "lat": 38.897778833333334, "rental_uris": {"ios": "https://dc.lft.to/lastmile_qr_scan", "android": "https://dc.lft.to/lastmile_qr_scan"}, "bike_id": "9ada5feb26a6cb1a84dfc9378a21893d", "type": "electric_scooter", "is_disabled": 0, "fusion_lat": 0.0, "fusion_lon": 0.0, "is_reserved": 0, "name": "9ada5feb26a6cb1a84dfc9378a21893d"}, {"lon": -77.0270085, "lat": 38.926696, "rental_uris": {"ios": "https://dc.lft.to/lastmile_qr_scan", "android": "https://dc.lft.to/lastmile_qr_scan"}, "bike_id": "40a7e6411c379c544207d5ab5b6c17b5", "type": "electric_scooter", "is_disabled": 0, "fusion_lat": 0.0, "fusion_lon": 0.0, "is_reserved": 0, "name": "40a7e6411c379c544207d5ab5b6c17b5"}, {"lon": -77.05321533333333, "lat": 38.915510833333336, "rental_uris": {"ios": "https://dc.lft.to/lastmile_qr_scan", "android": "https://dc.lft.to/lastmile_qr_scan"}, "bike_id": "04cf0ee58c01e517ad35f6061d133632", "type": "electric_scooter", "is_disabled": 0, "fusion_lat": 0.0, "fusion_lon": 0.0, "is_reserved": 0, "name": "04cf0ee58c01e517ad35f6061d133632"}, {"lon": -77.04329433333334, "lat": 38.8922465, "rental_uris": {"ios": "https://dc.lft.to/lastmile_qr_scan", "android": "https://dc.lft.to/lastmile_qr_scan"}, "bike_id": "e9cd71f38a22b66c7f7a6bfa783ce381", "type": "electric_scooter", "is_disabled": 0, "fusion_lat": 0.0, "fusion_lon": 0.0, "is_reserved": 0, "name": "e9cd71f38a22b66c7f7a6bfa783ce381"}, {"lon": -77.077019, "lat": 38.8409475, "rental_uris": {"ios": "https://dc.lft.to/lastmile_qr_scan", "android": "https://dc.lft.to/lastmile_qr_scan"}, "bike_id": "9ab4de141840de2125b352bc6d4b7b9a", "type": "electric_bike", "is_disabled": 0, "fusion_lat": 0.0, "fusion_lon": 0.0, "is_reserved": 0, "name": "9ab4de141840de2125b352bc6d4b7b9a"}, {"lon": -77.04004466666666, "lat": 38.918146, "rental_uris": {"ios": "https://dc.lft.to/lastmile_qr_scan", "android": "https://dc.lft.to/lastmile_qr_scan"}, "bike_id": "d5818b66cce1981577be8243db886c1b", "type": "electric_scooter", "is_disabled": 0, "fusion_lat": 0.0, "fusion_lon": 0.0, "is_reserved": 0, "name": "d5818b66cce1981577be8243db886c1b"}, {"lon": -77.0271505, "lat": 38.91693583333333, "rental_uris": {"ios": "https://dc.lft.to/lastmile_qr_scan", "android": "https://dc.lft.to/lastmile_qr_scan"}, "bike_id": "f7d5748cc0eb0c51fa6a4263bef673a4", "type": "electric_scooter", "is_disabled": 0, "fusion_lat": 0.0, "fusion_lon": 0.0, "is_reserved": 0, "name": "f7d5748cc0eb0c51fa6a4263bef673a4"}, {"lon": -76.9575645, "lat": 38.884354, "rental_uris": {"ios": "https://dc.lft.to/lastmile_qr_scan", "android": "https://dc.lft.to/lastmile_qr_scan"}, "bike_id": "97cf517bea1f92d24084416a0a6750c5", "type": "electric_scooter", "is_disabled": 0, "fusion_lat": 0.0, "fusion_lon": 0.0, "is_reserved": 0, "name": "97cf517bea1f92d24084416a0a6750c5"}, {"lon": -76.97643233333334, "lat": 38.864619166666664, "rental_uris": {"ios": "https://dc.lft.to/lastmile_qr_scan", "android": "https://dc.lft.to/lastmile_qr_scan"}, "bike_id": "d30e76f190e56a72fb20ec88b4664ad2", "type": "electric_scooter", "is_disabled": 0, "fusion_lat": 0.0, "fusion_lon": 0.0, "is_reserved": 0, "name": "d30e76f190e56a72fb20ec88b4664ad2"}, {"lon": -77.00925183333334, "lat": 38.896075833333335, "rental_uris": {"ios": "https://dc.lft.to/lastmile_qr_scan", "android": "https://dc.lft.to/lastmile_qr_scan"}, "bike_id": "57990924832dc415a4e65097cac6984d", "type": "electric_scooter", "is_disabled": 0, "fusion_lat": 0.0, "fusion_lon": 0.0, "is_reserved": 0, "name": "57990924832dc415a4e65097cac6984d"}, {"lon": -76.99927766666667, "lat": 38.90774116666667, "rental_uris": {"ios": "https://dc.lft.to/lastmile_qr_scan", "android": "https://dc.lft.to/lastmile_qr_scan"}, "bike_id": "758a94e45345dbd99a710d51085018a0", "type": "electric_scooter", "is_disabled": 0, "fusion_lat": 0.0, "fusion_lon": 0.0, "is_reserved": 0, "name": "758a94e45345dbd99a710d51085018a0"}, {"lon": -77.04864133333334, "lat": 38.89222616666667, "rental_uris": {"ios": "https://dc.lft.to/lastmile_qr_scan", "android": "https://dc.lft.to/lastmile_qr_scan"}, "bike_id": "c4d231eff05c462c343470715e1a6007", "type": "electric_scooter", "is_disabled": 0, "fusion_lat": 0.0, "fusion_lon": 0.0, "is_reserved": 0, "name": "c4d231eff05c462c343470715e1a6007"}, {"lon": -77.03003283333334, "lat": 38.9204235, "rental_uris": {"ios": "https://dc.lft.to/lastmile_qr_scan", "android": "https://dc.lft.to/lastmile_qr_scan"}, "bike_id": "dfc6ad8daaad035840bfb56317a9fd91", "type": "electric_scooter", "is_disabled": 0, "fusion_lat": 0.0, "fusion_lon": 0.0, "is_reserved": 0, "name": "dfc6ad8daaad035840bfb56317a9fd91"}, {"lon": -77.04334133333333, "lat": 38.907626666666665, "rental_uris": {"ios": "https://dc.lft.to/lastmile_qr_scan", "android": "https://dc.lft.to/lastmile_qr_scan"}, "bike_id": "0e1ab3294708d220c5ef125b32616ef0", "type": "electric_scooter", "is_disabled": 0, "fusion_lat": 0.0, "fusion_lon": 0.0, "is_reserved": 0, "name": "0e1ab3294708d220c5ef125b32616ef0"}, {"lon": -77.04341666666667, "lat": 38.903446833333334, "rental_uris": {"ios": "https://dc.lft.to/lastmile_qr_scan", "android": "https://dc.lft.to/lastmile_qr_scan"}, "bike_id": "d6feed968b1f9aad6b5f5633c77db2e5", "type": "electric_scooter", "is_disabled": 0, "fusion_lat": 0.0, "fusion_lon": 0.0, "is_reserved": 0, "name": "d6feed968b1f9aad6b5f5633c77db2e5"}, {"lon": -77.02119516666667, "lat": 38.922409, "rental_uris": {"ios": "https://dc.lft.to/lastmile_qr_scan", "android": "https://dc.lft.to/lastmile_qr_scan"}, "bike_id": "0e893afa51e28978e113ff5b8afd43d2", "type": "electric_scooter", "is_disabled": 0, "fusion_lat": 0.0, "fusion_lon": 0.0, "is_reserved": 0, "name": "0e893afa51e28978e113ff5b8afd43d2"}, {"lon": -77.03179066666667, "lat": 38.91805733333333, "rental_uris": {"ios": "https://dc.lft.to/lastmile_qr_scan", "android": "https://dc.lft.to/lastmile_qr_scan"}, "bike_id": "7f803d9902e97dcb89bb10cbbc34a0a3", "type": "electric_scooter", "is_disabled": 0, "fusion_lat": 0.0, "fusion_lon": 0.0, "is_reserved": 0, "name": "7f803d9902e97dcb89bb10cbbc34a0a3"}, {"lon": -76.99502433333333, "lat": 38.8783725, "rental_uris": {"ios": "https://dc.lft.to/lastmile_qr_scan", "android": "https://dc.lft.to/lastmile_qr_scan"}, "bike_id": "46b8614875582a1844e72f633cedb885", "type": "electric_scooter", "is_disabled": 0, "fusion_lat": 0.0, "fusion_lon": 0.0, "is_reserved": 0, "name": "46b8614875582a1844e72f633cedb885"}, {"lon": -76.99603566666667, "lat": 38.89226683333333, "rental_uris": {"ios": "https://dc.lft.to/lastmile_qr_scan", "android": "https://dc.lft.to/lastmile_qr_scan"}, "bike_id": "ab2f2e3061d38dd5b7c56bbf3d5f9ec8", "type": "electric_scooter", "is_disabled": 0, "fusion_lat": 0.0, "fusion_lon": 0.0, "is_reserved": 0, "name": "ab2f2e3061d38dd5b7c56bbf3d5f9ec8"}, {"lon": -77.0230045, "lat": 38.9271715, "rental_uris": {"ios": "https://dc.lft.to/lastmile_qr_scan", "android": "https://dc.lft.to/lastmile_qr_scan"}, "bike_id": "7c8e0e65da2429cf24cc79d3fb033fa4", "type": "electric_scooter", "is_disabled": 0, "fusion_lat": 0.0, "fusion_lon": 0.0, "is_reserved": 0, "name": "7c8e0e65da2429cf24cc79d3fb033fa4"}, {"lon": -77.042291, "lat": 38.92178833333333, "rental_uris": {"ios": "https://dc.lft.to/lastmile_qr_scan", "android": "https://dc.lft.to/lastmile_qr_scan"}, "bike_id": "b75c95f2bca1757d0e31430906f9584e", "type": "electric_scooter", "is_disabled": 0, "fusion_lat": 0.0, "fusion_lon": 0.0, "is_reserved": 0, "name": "b75c95f2bca1757d0e31430906f9584e"}, {"lon": -77.03368633333334, "lat": 38.93225666666667, "rental_uris": {"ios": "https://dc.lft.to/lastmile_qr_scan", "android": "https://dc.lft.to/lastmile_qr_scan"}, "bike_id": "babf1e518874c213dc17e8471d4e5853", "type": "electric_scooter", "is_disabled": 0, "fusion_lat": 0.0, "fusion_lon": 0.0, "is_reserved": 0, "name": "babf1e518874c213dc17e8471d4e5853"}, {"lon": -76.99506666666667, "lat": 38.909800833333335, "rental_uris": {"ios": "https://dc.lft.to/lastmile_qr_scan", "android": "https://dc.lft.to/lastmile_qr_scan"}, "bike_id": "aab110aa37acb7eb4324ecc7b00fcffd", "type": "electric_scooter", "is_disabled": 0, "fusion_lat": 0.0, "fusion_lon": 0.0, "is_reserved": 0, "name": "aab110aa37acb7eb4324ecc7b00fcffd"}, {"lon": -77.04312516666667, "lat": 38.9057585, "rental_uris": {"ios": "https://dc.lft.to/lastmile_qr_scan", "android": "https://dc.lft.to/lastmile_qr_scan"}, "bike_id": "120fac29c644ae465d70427f7988bbeb", "type": "electric_scooter", "is_disabled": 0, "fusion_lat": 0.0, "fusion_lon": 0.0, "is_reserved": 0, "name": "120fac29c644ae465d70427f7988bbeb"}, {"lon": -77.03418166666667, "lat": 38.90794966666667, "rental_uris": {"ios": "https://dc.lft.to/lastmile_qr_scan", "android": "https://dc.lft.to/lastmile_qr_scan"}, "bike_id": "8afda0384ca3ece15d409c50bf2a5daa", "type": "electric_scooter", "is_disabled": 0, "fusion_lat": 0.0, "fusion_lon": 0.0, "is_reserved": 0, "name": "8afda0384ca3ece15d409c50bf2a5daa"}, {"lon": -77.043648, "lat": 38.91121866666667, "rental_uris": {"ios": "https://dc.lft.to/lastmile_qr_scan", "android": "https://dc.lft.to/lastmile_qr_scan"}, "bike_id": "2ad0da639f0991b78da5938f3f740bc2", "type": "electric_scooter", "is_disabled": 0, "fusion_lat": 0.0, "fusion_lon": 0.0, "is_reserved": 0, "name": "2ad0da639f0991b78da5938f3f740bc2"}, {"lon": -77.08939566666666, "lat": 38.841088666666664, "rental_uris": {"ios": "https://dc.lft.to/lastmile_qr_scan", "android": "https://dc.lft.to/lastmile_qr_scan"}, "bike_id": "626aa88340f733f8be7274d870a6d3f0", "type": "electric_bike", "is_disabled": 0, "fusion_lat": 0.0, "fusion_lon": 0.0, "is_reserved": 0, "name": "626aa88340f733f8be7274d870a6d3f0"}, {"lon": -76.98363766666667, "lat": 38.91495833333333, "rental_uris": {"ios": "https://dc.lft.to/lastmile_qr_scan", "android": "https://dc.lft.to/lastmile_qr_scan"}, "bike_id": "8eec6c9cab7a9da72d369251bd38cf98", "type": "electric_scooter", "is_disabled": 0, "fusion_lat": 0.0, "fusion_lon": 0.0, "is_reserved": 0, "name": "8eec6c9cab7a9da72d369251bd38cf98"}, {"lon": -77.026947, "lat": 38.9093655, "rental_uris": {"ios": "https://dc.lft.to/lastmile_qr_scan", "android": "https://dc.lft.to/lastmile_qr_scan"}, "bike_id": "6dc0115a22607b32f9c0d0607e1297cb", "type": "electric_scooter", "is_disabled": 0, "fusion_lat": 0.0, "fusion_lon": 0.0, "is_reserved": 0, "name": "6dc0115a22607b32f9c0d0607e1297cb"}, {"lon": -77.02555983333333, "lat": 38.924744, "rental_uris": {"ios": "https://dc.lft.to/lastmile_qr_scan", "android": "https://dc.lft.to/lastmile_qr_scan"}, "bike_id": "d194a0e026ac1f19fab4b448c4fea922", "type": "electric_scooter", "is_disabled": 0, "fusion_lat": 0.0, "fusion_lon": 0.0, "is_reserved": 0, "name": "d194a0e026ac1f19fab4b448c4fea922"}, {"lon": -76.93365466666667, "lat": 38.899119166666665, "rental_uris": {"ios": "https://dc.lft.to/lastmile_qr_scan", "android": "https://dc.lft.to/lastmile_qr_scan"}, "bike_id": "82249ed6f1c2b6f6ed2648d313986361", "type": "electric_scooter", "is_disabled": 0, "fusion_lat": 0.0, "fusion_lon": 0.0, "is_reserved": 0, "name": "82249ed6f1c2b6f6ed2648d313986361"}, {"lon": -77.02160233333333, "lat": 38.926144, "rental_uris": {"ios": "https://dc.lft.to/lastmile_qr_scan", "android": "https://dc.lft.to/lastmile_qr_scan"}, "bike_id": "d8c73ac632f4b60042182d41969d96d3", "type": "electric_scooter", "is_disabled": 0, "fusion_lat": 0.0, "fusion_lon": 0.0, "is_reserved": 0, "name": "d8c73ac632f4b60042182d41969d96d3"}, {"lon": -76.96922316666667, "lat": 38.95196683333333, "rental_uris": {"ios": "https://dc.lft.to/lastmile_qr_scan", "android": "https://dc.lft.to/lastmile_qr_scan"}, "bike_id": "a4848ecc74bf1b7c2d130819748b363b", "type": "electric_bike", "is_disabled": 0, "fusion_lat": 0.0, "fusion_lon": 0.0, "is_reserved": 0, "name": "a4848ecc74bf1b7c2d130819748b363b"}, {"lon": -77.03423116666667, "lat": 38.91692066666667, "rental_uris": {"ios": "https://dc.lft.to/lastmile_qr_scan", "android": "https://dc.lft.to/lastmile_qr_scan"}, "bike_id": "15897b237036ddd31cba5c06584f8121", "type": "electric_scooter", "is_disabled": 0, "fusion_lat": 0.0, "fusion_lon": 0.0, "is_reserved": 0, "name": "15897b237036ddd31cba5c06584f8121"}, {"lon": -77.01877766666667, "lat": 38.9141335, "rental_uris": {"ios": "https://dc.lft.to/lastmile_qr_scan", "android": "https://dc.lft.to/lastmile_qr_scan"}, "bike_id": "7d09ee746294e2078a753e6b8088d2f0", "type": "electric_scooter", "is_disabled": 0, "fusion_lat": 0.0, "fusion_lon": 0.0, "is_reserved": 0, "name": "7d09ee746294e2078a753e6b8088d2f0"}, {"lon": -77.03357616666666, "lat": 38.900094, "rental_uris": {"ios": "https://dc.lft.to/lastmile_qr_scan", "android": "https://dc.lft.to/lastmile_qr_scan"}, "bike_id": "7c93ea5b179a0f55e1f17eb257d4895d", "type": "electric_scooter", "is_disabled": 0, "fusion_lat": 0.0, "fusion_lon": 0.0, "is_reserved": 0, "name": "7c93ea5b179a0f55e1f17eb257d4895d"}, {"lon": -77.035052, "lat": 38.92150483333333, "rental_uris": {"ios": "https://dc.lft.to/lastmile_qr_scan", "android": "https://dc.lft.to/lastmile_qr_scan"}, "bike_id": "27feb88de3a710dcf2e16d0799452314", "type": "electric_scooter", "is_disabled": 0, "fusion_lat": 0.0, "fusion_lon": 0.0, "is_reserved": 0, "name": "27feb88de3a710dcf2e16d0799452314"}, {"lon": -77.02978683333333, "lat": 38.93448133333333, "rental_uris": {"ios": "https://dc.lft.to/lastmile_qr_scan", "android": "https://dc.lft.to/lastmile_qr_scan"}, "bike_id": "72cf35090e9008366d8a700bf3171453", "type": "electric_scooter", "is_disabled": 0, "fusion_lat": 0.0, "fusion_lon": 0.0, "is_reserved": 0, "name": "72cf35090e9008366d8a700bf3171453"}, {"lon": -77.03210333333334, "lat": 38.908952666666664, "rental_uris": {"ios": "https://dc.lft.to/lastmile_qr_scan", "android": "https://dc.lft.to/lastmile_qr_scan"}, "bike_id": "49d53f2ffbf5e7ba9fd7e5603b9b881d", "type": "electric_scooter", "is_disabled": 0, "fusion_lat": 0.0, "fusion_lon": 0.0, "is_reserved": 0, "name": "49d53f2ffbf5e7ba9fd7e5603b9b881d"}, {"lon": -77.02013316666667, "lat": 38.90152833333333, "rental_uris": {"ios": "https://dc.lft.to/lastmile_qr_scan", "android": "https://dc.lft.to/lastmile_qr_scan"}, "bike_id": "c52a761c0edde0102c2e10807ecbbfae", "type": "electric_scooter", "is_disabled": 0, "fusion_lat": 0.0, "fusion_lon": 0.0, "is_reserved": 0, "name": "c52a761c0edde0102c2e10807ecbbfae"}, {"lon": -77.00235566666667, "lat": 38.95720683333333, "rental_uris": {"ios": "https://dc.lft.to/lastmile_qr_scan", "android": "https://dc.lft.to/lastmile_qr_scan"}, "bike_id": "76a122e69772b0614c05d78999b4db2a", "type": "electric_scooter", "is_disabled": 0, "fusion_lat": 0.0, "fusion_lon": 0.0, "is_reserved": 0, "name": "76a122e69772b0614c05d78999b4db2a"}, {"lon": -77.02598766666667, "lat": 38.98274416666667, "rental_uris": {"ios": "https://dc.lft.to/lastmile_qr_scan", "android": "https://dc.lft.to/lastmile_qr_scan"}, "bike_id": "2f5f9a9b18d00ac7a2bddfed128001dd", "type": "electric_scooter", "is_disabled": 0, "fusion_lat": 0.0, "fusion_lon": 0.0, "is_reserved": 0, "name": "2f5f9a9b18d00ac7a2bddfed128001dd"}, {"lon": -76.96061133333333, "lat": 38.884043166666665, "rental_uris": {"ios": "https://dc.lft.to/lastmile_qr_scan", "android": "https://dc.lft.to/lastmile_qr_scan"}, "bike_id": "cf7cd7b807ee303a2e0dfbba6da2075b", "type": "electric_bike", "is_disabled": 0, "fusion_lat": 0.0, "fusion_lon": 0.0, "is_reserved": 0, "name": "cf7cd7b807ee303a2e0dfbba6da2075b"}, {"lon": -77.02154683333333, "lat": 38.9260565, "rental_uris": {"ios": "https://dc.lft.to/lastmile_qr_scan", "android": "https://dc.lft.to/lastmile_qr_scan"}, "bike_id": "c7291aebb8800359c570ae4562abb770", "type": "electric_scooter", "is_disabled": 0, "fusion_lat": 0.0, "fusion_lon": 0.0, "is_reserved": 0, "name": "c7291aebb8800359c570ae4562abb770"}, {"lon": -77.01782766666666, "lat": 38.904151, "rental_uris": {"ios": "https://dc.lft.to/lastmile_qr_scan", "android": "https://dc.lft.to/lastmile_qr_scan"}, "bike_id": "f46fb08caed4c8482d592b96a1d76771", "type": "electric_scooter", "is_disabled": 0, "fusion_lat": 0.0, "fusion_lon": 0.0, "is_reserved": 0, "name": "f46fb08caed4c8482d592b96a1d76771"}, {"lon": -76.988225, "lat": 38.890764833333336, "rental_uris": {"ios": "https://dc.lft.to/lastmile_qr_scan", "android": "https://dc.lft.to/lastmile_qr_scan"}, "bike_id": "45a3235072ae6f7089517c2980d9f8e6", "type": "electric_scooter", "is_disabled": 0, "fusion_lat": 0.0, "fusion_lon": 0.0, "is_reserved": 0, "name": "45a3235072ae6f7089517c2980d9f8e6"}, {"lon": -77.0270095, "lat": 38.8980985, "rental_uris": {"ios": "https://dc.lft.to/lastmile_qr_scan", "android": "https://dc.lft.to/lastmile_qr_scan"}, "bike_id": "7cb34f91d1962dc434f3967f4166044c", "type": "electric_scooter", "is_disabled": 0, "fusion_lat": 0.0, "fusion_lon": 0.0, "is_reserved": 0, "name": "7cb34f91d1962dc434f3967f4166044c"}, {"lon": -77.03212516666666, "lat": 38.9179655, "rental_uris": {"ios": "https://dc.lft.to/lastmile_qr_scan", "android": "https://dc.lft.to/lastmile_qr_scan"}, "bike_id": "3c3f2e69bbd269630d42be310091acd0", "type": "electric_scooter", "is_disabled": 0, "fusion_lat": 0.0, "fusion_lon": 0.0, "is_reserved": 0, "name": "3c3f2e69bbd269630d42be310091acd0"}, {"lon": -76.99542883333334, "lat": 38.86260583333333, "rental_uris": {"ios": "https://dc.lft.to/lastmile_qr_scan", "android": "https://dc.lft.to/lastmile_qr_scan"}, "bike_id": "3dea135b9696e4965eedae4ba97c0785", "type": "electric_scooter", "is_disabled": 0, "fusion_lat": 0.0, "fusion_lon": 0.0, "is_reserved": 0, "name": "3dea135b9696e4965eedae4ba97c0785"}, {"lon": -77.02182366666666, "lat": 38.911205833333334, "rental_uris": {"ios": "https://dc.lft.to/lastmile_qr_scan", "android": "https://dc.lft.to/lastmile_qr_scan"}, "bike_id": "b008fc4715c6fd9bd315fcf74f0d6b84", "type": "electric_scooter", "is_disabled": 0, "fusion_lat": 0.0, "fusion_lon": 0.0, "is_reserved": 0, "name": "b008fc4715c6fd9bd315fcf74f0d6b84"}, {"lon": -76.99031183333334, "lat": 38.8985595, "rental_uris": {"ios": "https://dc.lft.to/lastmile_qr_scan", "android": "https://dc.lft.to/lastmile_qr_scan"}, "bike_id": "96be9401e806ddaa91bb27f163a0bea2", "type": "electric_scooter", "is_disabled": 0, "fusion_lat": 0.0, "fusion_lon": 0.0, "is_reserved": 0, "name": "96be9401e806ddaa91bb27f163a0bea2"}, {"lon": -77.02975716666667, "lat": 38.92195516666666, "rental_uris": {"ios": "https://dc.lft.to/lastmile_qr_scan", "android": "https://dc.lft.to/lastmile_qr_scan"}, "bike_id": "209d4971dc4de97441face3032e9624a", "type": "electric_scooter", "is_disabled": 0, "fusion_lat": 0.0, "fusion_lon": 0.0, "is_reserved": 0, "name": "209d4971dc4de97441face3032e9624a"}, {"lon": -77.02483566666666, "lat": 38.93859283333333, "rental_uris": {"ios": "https://dc.lft.to/lastmile_qr_scan", "android": "https://dc.lft.to/lastmile_qr_scan"}, "bike_id": "abae38605061c73ca0f89ac7dd34d712", "type": "electric_scooter", "is_disabled": 0, "fusion_lat": 0.0, "fusion_lon": 0.0, "is_reserved": 0, "name": "abae38605061c73ca0f89ac7dd34d712"}, {"lon": -77.0344925, "lat": 38.905174333333335, "rental_uris": {"ios": "https://dc.lft.to/lastmile_qr_scan", "android": "https://dc.lft.to/lastmile_qr_scan"}, "bike_id": "bde3879552c7a9d6ab9120cd81af1369", "type": "electric_scooter", "is_disabled": 0, "fusion_lat": 0.0, "fusion_lon": 0.0, "is_reserved": 0, "name": "bde3879552c7a9d6ab9120cd81af1369"}, {"lon": -77.0595445, "lat": 38.90763166666667, "rental_uris": {"ios": "https://dc.lft.to/lastmile_qr_scan", "android": "https://dc.lft.to/lastmile_qr_scan"}, "bike_id": "c347f2d3acf63385e019dba19014f024", "type": "electric_scooter", "is_disabled": 0, "fusion_lat": 0.0, "fusion_lon": 0.0, "is_reserved": 0, "name": "c347f2d3acf63385e019dba19014f024"}, {"lon": -77.023892, "lat": 38.89626633333334, "rental_uris": {"ios": "https://dc.lft.to/lastmile_qr_scan", "android": "https://dc.lft.to/lastmile_qr_scan"}, "bike_id": "1c677e1e2aaa3fb489245aa3ab350daf", "type": "electric_scooter", "is_disabled": 0, "fusion_lat": 0.0, "fusion_lon": 0.0, "is_reserved": 0, "name": "1c677e1e2aaa3fb489245aa3ab350daf"}, {"lon": -77.01377966666666, "lat": 38.92864016666667, "rental_uris": {"ios": "https://dc.lft.to/lastmile_qr_scan", "android": "https://dc.lft.to/lastmile_qr_scan"}, "bike_id": "98516192b7db4e9042d3bb75b9362a40", "type": "electric_scooter", "is_disabled": 0, "fusion_lat": 0.0, "fusion_lon": 0.0, "is_reserved": 0, "name": "98516192b7db4e9042d3bb75b9362a40"}, {"lon": -76.93608016666667, "lat": 38.89682633333334, "rental_uris": {"ios": "https://dc.lft.to/lastmile_qr_scan", "android": "https://dc.lft.to/lastmile_qr_scan"}, "bike_id": "4bd3f5a2d88160542a73704ddd19a083", "type": "electric_scooter", "is_disabled": 0, "fusion_lat": 0.0, "fusion_lon": 0.0, "is_reserved": 0, "name": "4bd3f5a2d88160542a73704ddd19a083"}, {"lon": -76.9761745, "lat": 38.9038425, "rental_uris": {"ios": "https://dc.lft.to/lastmile_qr_scan", "android": "https://dc.lft.to/lastmile_qr_scan"}, "bike_id": "e701aad941cea472e73ed6688b47f592", "type": "electric_scooter", "is_disabled": 0, "fusion_lat": 0.0, "fusion_lon": 0.0, "is_reserved": 0, "name": "e701aad941cea472e73ed6688b47f592"}, {"lon": -77.02349933333333, "lat": 38.93173066666667, "rental_uris": {"ios": "https://dc.lft.to/lastmile_qr_scan", "android": "https://dc.lft.to/lastmile_qr_scan"}, "bike_id": "4050a91843f3f193e9b338080e1d6ea1", "type": "electric_scooter", "is_disabled": 0, "fusion_lat": 0.0, "fusion_lon": 0.0, "is_reserved": 0, "name": "4050a91843f3f193e9b338080e1d6ea1"}, {"lon": -77.03213166666667, "lat": 38.920710666666665, "rental_uris": {"ios": "https://dc.lft.to/lastmile_qr_scan", "android": "https://dc.lft.to/lastmile_qr_scan"}, "bike_id": "da7f9165e614e1269782dde51451bf27", "type": "electric_scooter", "is_disabled": 0, "fusion_lat": 0.0, "fusion_lon": 0.0, "is_reserved": 0, "name": "da7f9165e614e1269782dde51451bf27"}, {"lon": -77.04490816666667, "lat": 38.902476, "rental_uris": {"ios": "https://dc.lft.to/lastmile_qr_scan", "android": "https://dc.lft.to/lastmile_qr_scan"}, "bike_id": "1e2983cf9759cf463f57b37a19d611b7", "type": "electric_scooter", "is_disabled": 0, "fusion_lat": 0.0, "fusion_lon": 0.0, "is_reserved": 0, "name": "1e2983cf9759cf463f57b37a19d611b7"}, {"lon": -77.04002783333334, "lat": 38.90798616666667, "rental_uris": {"ios": "https://dc.lft.to/lastmile_qr_scan", "android": "https://dc.lft.to/lastmile_qr_scan"}, "bike_id": "767ec5c60219a8f55228bac63143b9a9", "type": "electric_scooter", "is_disabled": 0, "fusion_lat": 0.0, "fusion_lon": 0.0, "is_reserved": 0, "name": "767ec5c60219a8f55228bac63143b9a9"}, {"lon": -77.035641, "lat": 38.90960416666667, "rental_uris": {"ios": "https://dc.lft.to/lastmile_qr_scan", "android": "https://dc.lft.to/lastmile_qr_scan"}, "bike_id": "459914ea452ca0c0c5f8a290f2ec2c47", "type": "electric_scooter", "is_disabled": 0, "fusion_lat": 0.0, "fusion_lon": 0.0, "is_reserved": 0, "name": "459914ea452ca0c0c5f8a290f2ec2c47"}, {"lon": -77.02831216666667, "lat": 38.88733916666666, "rental_uris": {"ios": "https://dc.lft.to/lastmile_qr_scan", "android": "https://dc.lft.to/lastmile_qr_scan"}, "bike_id": "d09af7984cf4d866b83aa7331ceec255", "type": "electric_scooter", "is_disabled": 0, "fusion_lat": 0.0, "fusion_lon": 0.0, "is_reserved": 0, "name": "d09af7984cf4d866b83aa7331ceec255"}, {"lon": -76.91799866666666, "lat": 39.00001533333333, "rental_uris": {"ios": "https://dc.lft.to/lastmile_qr_scan", "android": "https://dc.lft.to/lastmile_qr_scan"}, "bike_id": "ade1519dac92b73d690e945cf070bda7", "type": "electric_bike", "is_disabled": 0, "fusion_lat": 0.0, "fusion_lon": 0.0, "is_reserved": 0, "name": "ade1519dac92b73d690e945cf070bda7"}, {"lon": -77.027139, "lat": 38.906731, "rental_uris": {"ios": "https://dc.lft.to/lastmile_qr_scan", "android": "https://dc.lft.to/lastmile_qr_scan"}, "bike_id": "50416de4b878bc41c521e252857c0232", "type": "electric_scooter", "is_disabled": 0, "fusion_lat": 0.0, "fusion_lon": 0.0, "is_reserved": 0, "name": "50416de4b878bc41c521e252857c0232"}, {"lon": -76.99337983333334, "lat": 38.92045733333333, "rental_uris": {"ios": "https://dc.lft.to/lastmile_qr_scan", "android": "https://dc.lft.to/lastmile_qr_scan"}, "bike_id": "027d1ea1edffd2c9dfdcf55d7d171947", "type": "electric_bike", "is_disabled": 0, "fusion_lat": 0.0, "fusion_lon": 0.0, "is_reserved": 0, "name": "027d1ea1edffd2c9dfdcf55d7d171947"}, {"lon": -77.04183466666667, "lat": 38.899628166666666, "rental_uris": {"ios": "https://dc.lft.to/lastmile_qr_scan", "android": "https://dc.lft.to/lastmile_qr_scan"}, "bike_id": "bc75442c21ca2ff703eeb6db4fad6674", "type": "electric_scooter", "is_disabled": 0, "fusion_lat": 0.0, "fusion_lon": 0.0, "is_reserved": 0, "name": "bc75442c21ca2ff703eeb6db4fad6674"}, {"lon": -77.05051566666667, "lat": 38.90532816666666, "rental_uris": {"ios": "https://dc.lft.to/lastmile_qr_scan", "android": "https://dc.lft.to/lastmile_qr_scan"}, "bike_id": "fe216d97f1bae7b5346d73087f1cd37e", "type": "electric_scooter", "is_disabled": 0, "fusion_lat": 0.0, "fusion_lon": 0.0, "is_reserved": 0, "name": "fe216d97f1bae7b5346d73087f1cd37e"}, {"lon": -77.05912733333334, "lat": 38.901666, "rental_uris": {"ios": "https://dc.lft.to/lastmile_qr_scan", "android": "https://dc.lft.to/lastmile_qr_scan"}, "bike_id": "15213e9f2a2f0b40e8ad6b81ab37b231", "type": "electric_scooter", "is_disabled": 0, "fusion_lat": 0.0, "fusion_lon": 0.0, "is_reserved": 0, "name": "15213e9f2a2f0b40e8ad6b81ab37b231"}, {"lon": -77.03349133333333, "lat": 38.922376166666666, "rental_uris": {"ios": "https://dc.lft.to/lastmile_qr_scan", "android": "https://dc.lft.to/lastmile_qr_scan"}, "bike_id": "2067b5aa62c511bacdfd6c5988cd62b0", "type": "electric_scooter", "is_disabled": 0, "fusion_lat": 0.0, "fusion_lon": 0.0, "is_reserved": 0, "name": "2067b5aa62c511bacdfd6c5988cd62b0"}, {"lon": -77.01965666666666, "lat": 38.950195, "rental_uris": {"ios": "https://dc.lft.to/lastmile_qr_scan", "android": "https://dc.lft.to/lastmile_qr_scan"}, "bike_id": "9ea0ef39debe304f657328ee20271f94", "type": "electric_scooter", "is_disabled": 0, "fusion_lat": 0.0, "fusion_lon": 0.0, "is_reserved": 0, "name": "9ea0ef39debe304f657328ee20271f94"}, {"lon": -77.04995683333334, "lat": 38.905632833333335, "rental_uris": {"ios": "https://dc.lft.to/lastmile_qr_scan", "android": "https://dc.lft.to/lastmile_qr_scan"}, "bike_id": "a78be70d5c30a284162f6a6e9dbdf1e7", "type": "electric_scooter", "is_disabled": 0, "fusion_lat": 0.0, "fusion_lon": 0.0, "is_reserved": 0, "name": "a78be70d5c30a284162f6a6e9dbdf1e7"}, {"lon": -76.9540625, "lat": 38.884703333333334, "rental_uris": {"ios": "https://dc.lft.to/lastmile_qr_scan", "android": "https://dc.lft.to/lastmile_qr_scan"}, "bike_id": "c0e0ea0104dbe23158d8efd09bfcc9bd", "type": "electric_scooter", "is_disabled": 0, "fusion_lat": 0.0, "fusion_lon": 0.0, "is_reserved": 0, "name": "c0e0ea0104dbe23158d8efd09bfcc9bd"}, {"lon": -77.034932, "lat": 38.9204715, "rental_uris": {"ios": "https://dc.lft.to/lastmile_qr_scan", "android": "https://dc.lft.to/lastmile_qr_scan"}, "bike_id": "4c9b449e988a6c75d02def4333732ae9", "type": "electric_scooter", "is_disabled": 0, "fusion_lat": 0.0, "fusion_lon": 0.0, "is_reserved": 0, "name": "4c9b449e988a6c75d02def4333732ae9"}, {"lon": -77.02203616666667, "lat": 38.910404666666665, "rental_uris": {"ios": "https://dc.lft.to/lastmile_qr_scan", "android": "https://dc.lft.to/lastmile_qr_scan"}, "bike_id": "e13d11250ff56fe61134a008a4f29592", "type": "electric_scooter", "is_disabled": 0, "fusion_lat": 0.0, "fusion_lon": 0.0, "is_reserved": 0, "name": "e13d11250ff56fe61134a008a4f29592"}, {"lon": -76.98710516666667, "lat": 38.86629116666667, "rental_uris": {"ios": "https://dc.lft.to/lastmile_qr_scan", "android": "https://dc.lft.to/lastmile_qr_scan"}, "bike_id": "95a9de393ad724df240a3a1beb5a3a26", "type": "electric_scooter", "is_disabled": 0, "fusion_lat": 0.0, "fusion_lon": 0.0, "is_reserved": 0, "name": "95a9de393ad724df240a3a1beb5a3a26"}, {"lon": -77.02135016666666, "lat": 38.92464916666667, "rental_uris": {"ios": "https://dc.lft.to/lastmile_qr_scan", "android": "https://dc.lft.to/lastmile_qr_scan"}, "bike_id": "b26253d964b7fd055f906ad16d7ed2d0", "type": "electric_scooter", "is_disabled": 0, "fusion_lat": 0.0, "fusion_lon": 0.0, "is_reserved": 0, "name": "b26253d964b7fd055f906ad16d7ed2d0"}, {"lon": -77.02240833333333, "lat": 38.9127575, "rental_uris": {"ios": "https://dc.lft.to/lastmile_qr_scan", "android": "https://dc.lft.to/lastmile_qr_scan"}, "bike_id": "fdd21fecf3d6d4d1217ba0ec48e00315", "type": "electric_scooter", "is_disabled": 0, "fusion_lat": 0.0, "fusion_lon": 0.0, "is_reserved": 0, "name": "fdd21fecf3d6d4d1217ba0ec48e00315"}, {"lon": -77.045178, "lat": 38.941983666666665, "rental_uris": {"ios": "https://dc.lft.to/lastmile_qr_scan", "android": "https://dc.lft.to/lastmile_qr_scan"}, "bike_id": "c002bda6aa16d46509be533796073328", "type": "electric_bike", "is_disabled": 0, "fusion_lat": 0.0, "fusion_lon": 0.0, "is_reserved": 0, "name": "c002bda6aa16d46509be533796073328"}, {"lon": -77.01738783333333, "lat": 38.8858275, "rental_uris": {"ios": "https://dc.lft.to/lastmile_qr_scan", "android": "https://dc.lft.to/lastmile_qr_scan"}, "bike_id": "9b466d998356c1252c453f5488f3e0af", "type": "electric_scooter", "is_disabled": 0, "fusion_lat": 0.0, "fusion_lon": 0.0, "is_reserved": 0, "name": "9b466d998356c1252c453f5488f3e0af"}, {"lon": -77.00337083333334, "lat": 38.88989983333333, "rental_uris": {"ios": "https://dc.lft.to/lastmile_qr_scan", "android": "https://dc.lft.to/lastmile_qr_scan"}, "bike_id": "3d36e946e99feb25b92f83b176514a84", "type": "electric_scooter", "is_disabled": 0, "fusion_lat": 0.0, "fusion_lon": 0.0, "is_reserved": 0, "name": "3d36e946e99feb25b92f83b176514a84"}, {"lon": -77.04695733333334, "lat": 38.915804, "rental_uris": {"ios": "https://dc.lft.to/lastmile_qr_scan", "android": "https://dc.lft.to/lastmile_qr_scan"}, "bike_id": "e041d04896035fc224e0c16343360169", "type": "electric_scooter", "is_disabled": 0, "fusion_lat": 0.0, "fusion_lon": 0.0, "is_reserved": 0, "name": "e041d04896035fc224e0c16343360169"}, {"lon": -77.02362533333333, "lat": 38.8936355, "rental_uris": {"ios": "https://dc.lft.to/lastmile_qr_scan", "android": "https://dc.lft.to/lastmile_qr_scan"}, "bike_id": "7b0b6533dc2972a30205a2939fad416c", "type": "electric_scooter", "is_disabled": 0, "fusion_lat": 0.0, "fusion_lon": 0.0, "is_reserved": 0, "name": "7b0b6533dc2972a30205a2939fad416c"}, {"lon": -77.02988366666666, "lat": 38.89765233333333, "rental_uris": {"ios": "https://dc.lft.to/lastmile_qr_scan", "android": "https://dc.lft.to/lastmile_qr_scan"}, "bike_id": "d17068d4a1ceaaf5a6a6e22e8cb806f2", "type": "electric_scooter", "is_disabled": 0, "fusion_lat": 0.0, "fusion_lon": 0.0, "is_reserved": 0, "name": "d17068d4a1ceaaf5a6a6e22e8cb806f2"}, {"lon": -76.948035, "lat": 38.861931, "rental_uris": {"ios": "https://dc.lft.to/lastmile_qr_scan", "android": "https://dc.lft.to/lastmile_qr_scan"}, "bike_id": "11e2e730f655404a3acbd04205a0323e", "type": "electric_bike", "is_disabled": 0, "fusion_lat": 0.0, "fusion_lon": 0.0, "is_reserved": 0, "name": "11e2e730f655404a3acbd04205a0323e"}, {"lon": -77.0224125, "lat": 38.92276666666667, "rental_uris": {"ios": "https://dc.lft.to/lastmile_qr_scan", "android": "https://dc.lft.to/lastmile_qr_scan"}, "bike_id": "1c3bbe237521a96b47cd5d1a25ff7596", "type": "electric_scooter", "is_disabled": 0, "fusion_lat": 0.0, "fusion_lon": 0.0, "is_reserved": 0, "name": "1c3bbe237521a96b47cd5d1a25ff7596"}, {"lon": -77.00435583333334, "lat": 38.90553366666666, "rental_uris": {"ios": "https://dc.lft.to/lastmile_qr_scan", "android": "https://dc.lft.to/lastmile_qr_scan"}, "bike_id": "d2d18984bccfa6e6a795cfef51b9ea73", "type": "electric_scooter", "is_disabled": 0, "fusion_lat": 0.0, "fusion_lon": 0.0, "is_reserved": 0, "name": "d2d18984bccfa6e6a795cfef51b9ea73"}, {"lon": -77.038583, "lat": 38.902978, "rental_uris": {"ios": "https://dc.lft.to/lastmile_qr_scan", "android": "https://dc.lft.to/lastmile_qr_scan"}, "bike_id": "1fa25b6fddc6a3416bc6b8708accfd5d", "type": "electric_scooter", "is_disabled": 0, "fusion_lat": 0.0, "fusion_lon": 0.0, "is_reserved": 0, "name": "1fa25b6fddc6a3416bc6b8708accfd5d"}, {"lon": -77.03352683333334, "lat": 38.89841283333333, "rental_uris": {"ios": "https://dc.lft.to/lastmile_qr_scan", "android": "https://dc.lft.to/lastmile_qr_scan"}, "bike_id": "bcf4611ab441cf3a34d1fe84944ac787", "type": "electric_scooter", "is_disabled": 0, "fusion_lat": 0.0, "fusion_lon": 0.0, "is_reserved": 0, "name": "bcf4611ab441cf3a34d1fe84944ac787"}, {"lon": -77.03388983333333, "lat": 38.938764, "rental_uris": {"ios": "https://dc.lft.to/lastmile_qr_scan", "android": "https://dc.lft.to/lastmile_qr_scan"}, "bike_id": "3243c5b334aa0d8db23d98e0b8e4919b", "type": "electric_scooter", "is_disabled": 0, "fusion_lat": 0.0, "fusion_lon": 0.0, "is_reserved": 0, "name": "3243c5b334aa0d8db23d98e0b8e4919b"}, {"lon": -76.99779166666667, "lat": 38.84432866666667, "rental_uris": {"ios": "https://dc.lft.to/lastmile_qr_scan", "android": "https://dc.lft.to/lastmile_qr_scan"}, "bike_id": "4db279ed693e9da9470197530e924a28", "type": "electric_scooter", "is_disabled": 0, "fusion_lat": 0.0, "fusion_lon": 0.0, "is_reserved": 0, "name": "4db279ed693e9da9470197530e924a28"}, {"lon": -76.93751483333334, "lat": 38.89052083333333, "rental_uris": {"ios": "https://dc.lft.to/lastmile_qr_scan", "android": "https://dc.lft.to/lastmile_qr_scan"}, "bike_id": "3828e8365d15ef0ba5e0a17461c347ef", "type": "electric_scooter", "is_disabled": 0, "fusion_lat": 0.0, "fusion_lon": 0.0, "is_reserved": 0, "name": "3828e8365d15ef0ba5e0a17461c347ef"}, {"lon": -77.043405, "lat": 38.90432783333333, "rental_uris": {"ios": "https://dc.lft.to/lastmile_qr_scan", "android": "https://dc.lft.to/lastmile_qr_scan"}, "bike_id": "8d83891fe60ccbd13f27c29e1d7931dd", "type": "electric_scooter", "is_disabled": 0, "fusion_lat": 0.0, "fusion_lon": 0.0, "is_reserved": 0, "name": "8d83891fe60ccbd13f27c29e1d7931dd"}, {"lon": -77.02389433333333, "lat": 38.900506, "rental_uris": {"ios": "https://dc.lft.to/lastmile_qr_scan", "android": "https://dc.lft.to/lastmile_qr_scan"}, "bike_id": "378d0d143513dfc1aa9402e7d8cf1b7c", "type": "electric_scooter", "is_disabled": 0, "fusion_lat": 0.0, "fusion_lon": 0.0, "is_reserved": 0, "name": "378d0d143513dfc1aa9402e7d8cf1b7c"}, {"lon": -77.02943466666666, "lat": 38.9207735, "rental_uris": {"ios": "https://dc.lft.to/lastmile_qr_scan", "android": "https://dc.lft.to/lastmile_qr_scan"}, "bike_id": "0b57d6c73511a375656d11d1ead9248b", "type": "electric_scooter", "is_disabled": 0, "fusion_lat": 0.0, "fusion_lon": 0.0, "is_reserved": 0, "name": "0b57d6c73511a375656d11d1ead9248b"}, {"lon": -76.99517933333334, "lat": 38.89610883333334, "rental_uris": {"ios": "https://dc.lft.to/lastmile_qr_scan", "android": "https://dc.lft.to/lastmile_qr_scan"}, "bike_id": "644e36d4724a0cb2b7e4c2f7416476d1", "type": "electric_scooter", "is_disabled": 0, "fusion_lat": 0.0, "fusion_lon": 0.0, "is_reserved": 0, "name": "644e36d4724a0cb2b7e4c2f7416476d1"}, {"lon": -77.04055333333334, "lat": 38.89735133333333, "rental_uris": {"ios": "https://dc.lft.to/lastmile_qr_scan", "android": "https://dc.lft.to/lastmile_qr_scan"}, "bike_id": "529c11efe48209cc36aec42d90bb1d03", "type": "electric_scooter", "is_disabled": 0, "fusion_lat": 0.0, "fusion_lon": 0.0, "is_reserved": 0, "name": "529c11efe48209cc36aec42d90bb1d03"}, {"lon": -76.93362866666666, "lat": 38.887949, "rental_uris": {"ios": "https://dc.lft.to/lastmile_qr_scan", "android": "https://dc.lft.to/lastmile_qr_scan"}, "bike_id": "1bbca7cd2191e056d2f9bebc5b7a20c2", "type": "electric_scooter", "is_disabled": 0, "fusion_lat": 0.0, "fusion_lon": 0.0, "is_reserved": 0, "name": "1bbca7cd2191e056d2f9bebc5b7a20c2"}, {"lon": -77.052216, "lat": 38.92497, "rental_uris": {"ios": "https://dc.lft.to/lastmile_qr_scan", "android": "https://dc.lft.to/lastmile_qr_scan"}, "bike_id": "676109f4f1ddb0040de4f190387afe80", "type": "electric_scooter", "is_disabled": 0, "fusion_lat": 0.0, "fusion_lon": 0.0, "is_reserved": 0, "name": "676109f4f1ddb0040de4f190387afe80"}, {"lon": -77.0297945, "lat": 38.946045833333336, "rental_uris": {"ios": "https://dc.lft.to/lastmile_qr_scan", "android": "https://dc.lft.to/lastmile_qr_scan"}, "bike_id": "bff233757b939623bfdd8d37d1303594", "type": "electric_scooter", "is_disabled": 0, "fusion_lat": 0.0, "fusion_lon": 0.0, "is_reserved": 0, "name": "bff233757b939623bfdd8d37d1303594"}, {"lon": -77.00344583333333, "lat": 38.895322666666665, "rental_uris": {"ios": "https://dc.lft.to/lastmile_qr_scan", "android": "https://dc.lft.to/lastmile_qr_scan"}, "bike_id": "0d94de1fe085b154ec5f6128e2c97b80", "type": "electric_scooter", "is_disabled": 0, "fusion_lat": 0.0, "fusion_lon": 0.0, "is_reserved": 0, "name": "0d94de1fe085b154ec5f6128e2c97b80"}, {"lon": -77.01764483333334, "lat": 38.975974, "rental_uris": {"ios": "https://dc.lft.to/lastmile_qr_scan", "android": "https://dc.lft.to/lastmile_qr_scan"}, "bike_id": "0f9318b5ea997d2570ee499f418a10ac", "type": "electric_scooter", "is_disabled": 0, "fusion_lat": 0.0, "fusion_lon": 0.0, "is_reserved": 0, "name": "0f9318b5ea997d2570ee499f418a10ac"}, {"lon": -77.04486583333333, "lat": 38.9037, "rental_uris": {"ios": "https://dc.lft.to/lastmile_qr_scan", "android": "https://dc.lft.to/lastmile_qr_scan"}, "bike_id": "fb1c077b0ba37f6a90f3c001106e0179", "type": "electric_scooter", "is_disabled": 0, "fusion_lat": 0.0, "fusion_lon": 0.0, "is_reserved": 0, "name": "fb1c077b0ba37f6a90f3c001106e0179"}, {"lon": -77.04676533333334, "lat": 38.8955855, "rental_uris": {"ios": "https://dc.lft.to/lastmile_qr_scan", "android": "https://dc.lft.to/lastmile_qr_scan"}, "bike_id": "66957df947088ce0b92a1ddc37410715", "type": "electric_scooter", "is_disabled": 0, "fusion_lat": 0.0, "fusion_lon": 0.0, "is_reserved": 0, "name": "66957df947088ce0b92a1ddc37410715"}, {"lon": -77.0446345, "lat": 38.91535, "rental_uris": {"ios": "https://dc.lft.to/lastmile_qr_scan", "android": "https://dc.lft.to/lastmile_qr_scan"}, "bike_id": "ab6f2501c29727cf21572d3db25f95e9", "type": "electric_scooter", "is_disabled": 0, "fusion_lat": 0.0, "fusion_lon": 0.0, "is_reserved": 0, "name": "ab6f2501c29727cf21572d3db25f95e9"}, {"lon": -77.03640916666667, "lat": 38.910004666666666, "rental_uris": {"ios": "https://dc.lft.to/lastmile_qr_scan", "android": "https://dc.lft.to/lastmile_qr_scan"}, "bike_id": "3751575d9265fb4b1798056e9644c19f", "type": "electric_scooter", "is_disabled": 0, "fusion_lat": 0.0, "fusion_lon": 0.0, "is_reserved": 0, "name": "3751575d9265fb4b1798056e9644c19f"}, {"lon": -77.05210966666667, "lat": 38.915603, "rental_uris": {"ios": "https://dc.lft.to/lastmile_qr_scan", "android": "https://dc.lft.to/lastmile_qr_scan"}, "bike_id": "bd21bee4b04ebfee53e608b415883e1b", "type": "electric_scooter", "is_disabled": 0, "fusion_lat": 0.0, "fusion_lon": 0.0, "is_reserved": 0, "name": "bd21bee4b04ebfee53e608b415883e1b"}, {"lon": -77.023655, "lat": 38.893718166666666, "rental_uris": {"ios": "https://dc.lft.to/lastmile_qr_scan", "android": "https://dc.lft.to/lastmile_qr_scan"}, "bike_id": "275f35a17d848d97268a23f92dc408ba", "type": "electric_scooter", "is_disabled": 0, "fusion_lat": 0.0, "fusion_lon": 0.0, "is_reserved": 0, "name": "275f35a17d848d97268a23f92dc408ba"}, {"lon": -77.045015, "lat": 38.8923495, "rental_uris": {"ios": "https://dc.lft.to/lastmile_qr_scan", "android": "https://dc.lft.to/lastmile_qr_scan"}, "bike_id": "7cd93355b15f95a00827a1c7db7f830c", "type": "electric_scooter", "is_disabled": 0, "fusion_lat": 0.0, "fusion_lon": 0.0, "is_reserved": 0, "name": "7cd93355b15f95a00827a1c7db7f830c"}, {"lon": -77.00432066666667, "lat": 38.913342166666666, "rental_uris": {"ios": "https://dc.lft.to/lastmile_qr_scan", "android": "https://dc.lft.to/lastmile_qr_scan"}, "bike_id": "df155052ab3a0e2350af677fb4e4adfc", "type": "electric_scooter", "is_disabled": 0, "fusion_lat": 0.0, "fusion_lon": 0.0, "is_reserved": 0, "name": "df155052ab3a0e2350af677fb4e4adfc"}, {"lon": -77.0265005, "lat": 38.938640666666664, "rental_uris": {"ios": "https://dc.lft.to/lastmile_qr_scan", "android": "https://dc.lft.to/lastmile_qr_scan"}, "bike_id": "1a2cc6f9206d58acfe1aeea28a1a5490", "type": "electric_scooter", "is_disabled": 0, "fusion_lat": 0.0, "fusion_lon": 0.0, "is_reserved": 0, "name": "1a2cc6f9206d58acfe1aeea28a1a5490"}, {"lon": -77.04373716666667, "lat": 38.898578666666666, "rental_uris": {"ios": "https://dc.lft.to/lastmile_qr_scan", "android": "https://dc.lft.to/lastmile_qr_scan"}, "bike_id": "8bba89de7406f1f44eb037727d4dbe78", "type": "electric_scooter", "is_disabled": 0, "fusion_lat": 0.0, "fusion_lon": 0.0, "is_reserved": 0, "name": "8bba89de7406f1f44eb037727d4dbe78"}, {"lon": -77.04312433333334, "lat": 38.918809833333334, "rental_uris": {"ios": "https://dc.lft.to/lastmile_qr_scan", "android": "https://dc.lft.to/lastmile_qr_scan"}, "bike_id": "1385b4e9d4d94ea154e04a90bf253eef", "type": "electric_scooter", "is_disabled": 0, "fusion_lat": 0.0, "fusion_lon": 0.0, "is_reserved": 0, "name": "1385b4e9d4d94ea154e04a90bf253eef"}, {"lon": -77.00887983333334, "lat": 38.9227975, "rental_uris": {"ios": "https://dc.lft.to/lastmile_qr_scan", "android": "https://dc.lft.to/lastmile_qr_scan"}, "bike_id": "34239db9f8d92928100b72bd2a8b0c75", "type": "electric_scooter", "is_disabled": 0, "fusion_lat": 0.0, "fusion_lon": 0.0, "is_reserved": 0, "name": "34239db9f8d92928100b72bd2a8b0c75"}, {"lon": -76.97299783333334, "lat": 38.916464166666664, "rental_uris": {"ios": "https://dc.lft.to/lastmile_qr_scan", "android": "https://dc.lft.to/lastmile_qr_scan"}, "bike_id": "2e617987bfe8a2b85c97e403a2fadb15", "type": "electric_bike", "is_disabled": 0, "fusion_lat": 0.0, "fusion_lon": 0.0, "is_reserved": 0, "name": "2e617987bfe8a2b85c97e403a2fadb15"}, {"lon": -77.23326933333334, "lat": 38.872771666666665, "rental_uris": {"ios": "https://dc.lft.to/lastmile_qr_scan", "android": "https://dc.lft.to/lastmile_qr_scan"}, "bike_id": "a692ff0fab553e41afe6771e14b543dd", "type": "electric_bike", "is_disabled": 0, "fusion_lat": 0.0, "fusion_lon": 0.0, "is_reserved": 0, "name": "a692ff0fab553e41afe6771e14b543dd"}, {"lon": -77.02130233333334, "lat": 38.924176333333335, "rental_uris": {"ios": "https://dc.lft.to/lastmile_qr_scan", "android": "https://dc.lft.to/lastmile_qr_scan"}, "bike_id": "337f357c0d1b0671002fbc2ad98e77c4", "type": "electric_scooter", "is_disabled": 0, "fusion_lat": 0.0, "fusion_lon": 0.0, "is_reserved": 0, "name": "337f357c0d1b0671002fbc2ad98e77c4"}, {"lon": -77.04483916666666, "lat": 38.92426366666667, "rental_uris": {"ios": "https://dc.lft.to/lastmile_qr_scan", "android": "https://dc.lft.to/lastmile_qr_scan"}, "bike_id": "9359ab81810afa80b64e7c6c8ff66802", "type": "electric_scooter", "is_disabled": 0, "fusion_lat": 0.0, "fusion_lon": 0.0, "is_reserved": 0, "name": "9359ab81810afa80b64e7c6c8ff66802"}, {"lon": -77.0486295, "lat": 38.905657166666664, "rental_uris": {"ios": "https://dc.lft.to/lastmile_qr_scan", "android": "https://dc.lft.to/lastmile_qr_scan"}, "bike_id": "d593482f65adfd30e03b411175a2b3fb", "type": "electric_scooter", "is_disabled": 0, "fusion_lat": 0.0, "fusion_lon": 0.0, "is_reserved": 0, "name": "d593482f65adfd30e03b411175a2b3fb"}, {"lon": -77.028203, "lat": 38.9169135, "rental_uris": {"ios": "https://dc.lft.to/lastmile_qr_scan", "android": "https://dc.lft.to/lastmile_qr_scan"}, "bike_id": "fce979ca12da11303edd4a1c3701e707", "type": "electric_scooter", "is_disabled": 0, "fusion_lat": 0.0, "fusion_lon": 0.0, "is_reserved": 0, "name": "fce979ca12da11303edd4a1c3701e707"}, {"lon": -76.98536733333333, "lat": 38.85359283333333, "rental_uris": {"ios": "https://dc.lft.to/lastmile_qr_scan", "android": "https://dc.lft.to/lastmile_qr_scan"}, "bike_id": "2a649251db9bb57f2e341a56e7f6de23", "type": "electric_scooter", "is_disabled": 0, "fusion_lat": 0.0, "fusion_lon": 0.0, "is_reserved": 0, "name": "2a649251db9bb57f2e341a56e7f6de23"}, {"lon": -77.03178866666667, "lat": 38.903772000000004, "rental_uris": {"ios": "https://dc.lft.to/lastmile_qr_scan", "android": "https://dc.lft.to/lastmile_qr_scan"}, "bike_id": "262952d5467fbce7bcf1bce6c2a0b695", "type": "electric_scooter", "is_disabled": 0, "fusion_lat": 0.0, "fusion_lon": 0.0, "is_reserved": 0, "name": "262952d5467fbce7bcf1bce6c2a0b695"}, {"lon": -77.06247166666667, "lat": 38.9438, "rental_uris": {"ios": "https://dc.lft.to/lastmile_qr_scan", "android": "https://dc.lft.to/lastmile_qr_scan"}, "bike_id": "21864490c8fd554bd14e83f5498b42e1", "type": "electric_bike", "is_disabled": 0, "fusion_lat": 0.0, "fusion_lon": 0.0, "is_reserved": 0, "name": "21864490c8fd554bd14e83f5498b42e1"}, {"lon": -76.93755183333333, "lat": 38.890482166666665, "rental_uris": {"ios": "https://dc.lft.to/lastmile_qr_scan", "android": "https://dc.lft.to/lastmile_qr_scan"}, "bike_id": "414051cb287048c1e36b781d75be7cb9", "type": "electric_scooter", "is_disabled": 0, "fusion_lat": 0.0, "fusion_lon": 0.0, "is_reserved": 0, "name": "414051cb287048c1e36b781d75be7cb9"}, {"lon": -77.0261475, "lat": 38.91413383333333, "rental_uris": {"ios": "https://dc.lft.to/lastmile_qr_scan", "android": "https://dc.lft.to/lastmile_qr_scan"}, "bike_id": "f90a59eb9757243eb3c7d7e213259286", "type": "electric_scooter", "is_disabled": 0, "fusion_lat": 0.0, "fusion_lon": 0.0, "is_reserved": 0, "name": "f90a59eb9757243eb3c7d7e213259286"}, {"lon": -77.02866833333333, "lat": 38.9043265, "rental_uris": {"ios": "https://dc.lft.to/lastmile_qr_scan", "android": "https://dc.lft.to/lastmile_qr_scan"}, "bike_id": "0ee3001ec4b5d65efb0fa9b5b526298e", "type": "electric_scooter", "is_disabled": 0, "fusion_lat": 0.0, "fusion_lon": 0.0, "is_reserved": 0, "name": "0ee3001ec4b5d65efb0fa9b5b526298e"}, {"lon": -77.02625616666667, "lat": 38.96224266666667, "rental_uris": {"ios": "https://dc.lft.to/lastmile_qr_scan", "android": "https://dc.lft.to/lastmile_qr_scan"}, "bike_id": "8aaf7796114fafa811e7401c57335ab5", "type": "electric_bike", "is_disabled": 0, "fusion_lat": 0.0, "fusion_lon": 0.0, "is_reserved": 0, "name": "8aaf7796114fafa811e7401c57335ab5"}, {"lon": -77.0363575, "lat": 38.90380283333333, "rental_uris": {"ios": "https://dc.lft.to/lastmile_qr_scan", "android": "https://dc.lft.to/lastmile_qr_scan"}, "bike_id": "efd2b4f427d0a74b3894acdaf15362c6", "type": "electric_scooter", "is_disabled": 0, "fusion_lat": 0.0, "fusion_lon": 0.0, "is_reserved": 0, "name": "efd2b4f427d0a74b3894acdaf15362c6"}, {"lon": -77.0122065, "lat": 38.877296666666666, "rental_uris": {"ios": "https://dc.lft.to/lastmile_qr_scan", "android": "https://dc.lft.to/lastmile_qr_scan"}, "bike_id": "72537b204c8e97a9d1b09436a28dad94", "type": "electric_scooter", "is_disabled": 0, "fusion_lat": 0.0, "fusion_lon": 0.0, "is_reserved": 0, "name": "72537b204c8e97a9d1b09436a28dad94"}, {"lon": -76.98616966666667, "lat": 38.938281, "rental_uris": {"ios": "https://dc.lft.to/lastmile_qr_scan", "android": "https://dc.lft.to/lastmile_qr_scan"}, "bike_id": "eee2468b327575b0d4f8936c426d2e4a", "type": "electric_scooter", "is_disabled": 0, "fusion_lat": 0.0, "fusion_lon": 0.0, "is_reserved": 0, "name": "eee2468b327575b0d4f8936c426d2e4a"}, {"lon": -76.95145, "lat": 38.890399, "rental_uris": {"ios": "https://dc.lft.to/lastmile_qr_scan", "android": "https://dc.lft.to/lastmile_qr_scan"}, "bike_id": "f2bd1a399c92a9df6c7fdcdd090f846b", "type": "electric_scooter", "is_disabled": 0, "fusion_lat": 0.0, "fusion_lon": 0.0, "is_reserved": 0, "name": "f2bd1a399c92a9df6c7fdcdd090f846b"}, {"lon": -77.0229805, "lat": 38.917457666666664, "rental_uris": {"ios": "https://dc.lft.to/lastmile_qr_scan", "android": "https://dc.lft.to/lastmile_qr_scan"}, "bike_id": "77d1482152f1400b622ce747014492ee", "type": "electric_scooter", "is_disabled": 0, "fusion_lat": 0.0, "fusion_lon": 0.0, "is_reserved": 0, "name": "77d1482152f1400b622ce747014492ee"}, {"lon": -77.04357533333334, "lat": 38.899464, "rental_uris": {"ios": "https://dc.lft.to/lastmile_qr_scan", "android": "https://dc.lft.to/lastmile_qr_scan"}, "bike_id": "5ae11aff76a5a8ba1a2490f5aa2e715c", "type": "electric_scooter", "is_disabled": 0, "fusion_lat": 0.0, "fusion_lon": 0.0, "is_reserved": 0, "name": "5ae11aff76a5a8ba1a2490f5aa2e715c"}, {"lon": -77.024014, "lat": 38.914240666666664, "rental_uris": {"ios": "https://dc.lft.to/lastmile_qr_scan", "android": "https://dc.lft.to/lastmile_qr_scan"}, "bike_id": "6cf9faae79fb83623176000cfdb9ffc2", "type": "electric_scooter", "is_disabled": 0, "fusion_lat": 0.0, "fusion_lon": 0.0, "is_reserved": 0, "name": "6cf9faae79fb83623176000cfdb9ffc2"}, {"lon": -76.97704016666667, "lat": 38.9491405, "rental_uris": {"ios": "https://dc.lft.to/lastmile_qr_scan", "android": "https://dc.lft.to/lastmile_qr_scan"}, "bike_id": "e03fd806c7edd43de1c02ba8e65a0488", "type": "electric_bike", "is_disabled": 0, "fusion_lat": 0.0, "fusion_lon": 0.0, "is_reserved": 0, "name": "e03fd806c7edd43de1c02ba8e65a0488"}, {"lon": -77.004031, "lat": 38.92136, "rental_uris": {"ios": "https://dc.lft.to/lastmile_qr_scan", "android": "https://dc.lft.to/lastmile_qr_scan"}, "bike_id": "b152e5162492a62d6c8089391c0e1f07", "type": "electric_scooter", "is_disabled": 0, "fusion_lat": 0.0, "fusion_lon": 0.0, "is_reserved": 0, "name": "b152e5162492a62d6c8089391c0e1f07"}, {"lon": -76.90815333333333, "lat": 39.00282816666667, "rental_uris": {"ios": "https://dc.lft.to/lastmile_qr_scan", "android": "https://dc.lft.to/lastmile_qr_scan"}, "bike_id": "71de304e1050e2e8ca26da370b9ec234", "type": "electric_bike", "is_disabled": 0, "fusion_lat": 0.0, "fusion_lon": 0.0, "is_reserved": 0, "name": "71de304e1050e2e8ca26da370b9ec234"}, {"lon": -77.02502983333333, "lat": 38.90636083333333, "rental_uris": {"ios": "https://dc.lft.to/lastmile_qr_scan", "android": "https://dc.lft.to/lastmile_qr_scan"}, "bike_id": "82ea274de4d4d1ae9c1a60dc054ce428", "type": "electric_scooter", "is_disabled": 0, "fusion_lat": 0.0, "fusion_lon": 0.0, "is_reserved": 0, "name": "82ea274de4d4d1ae9c1a60dc054ce428"}, {"lon": -77.04100766666667, "lat": 38.9054555, "rental_uris": {"ios": "https://dc.lft.to/lastmile_qr_scan", "android": "https://dc.lft.to/lastmile_qr_scan"}, "bike_id": "a6c247fbd0bf8e17c817907eb1544c61", "type": "electric_scooter", "is_disabled": 0, "fusion_lat": 0.0, "fusion_lon": 0.0, "is_reserved": 0, "name": "a6c247fbd0bf8e17c817907eb1544c61"}, {"lon": -77.36099333333334, "lat": 38.939541166666665, "rental_uris": {"ios": "https://dc.lft.to/lastmile_qr_scan", "android": "https://dc.lft.to/lastmile_qr_scan"}, "bike_id": "79a61fff49f54ffa9ad82f6322956e49", "type": "electric_bike", "is_disabled": 0, "fusion_lat": 0.0, "fusion_lon": 0.0, "is_reserved": 0, "name": "79a61fff49f54ffa9ad82f6322956e49"}, {"lon": -77.05021433333333, "lat": 38.907207666666665, "rental_uris": {"ios": "https://dc.lft.to/lastmile_qr_scan", "android": "https://dc.lft.to/lastmile_qr_scan"}, "bike_id": "0e5bd0cfcb2c978516ffa9b77f27903c", "type": "electric_scooter", "is_disabled": 0, "fusion_lat": 0.0, "fusion_lon": 0.0, "is_reserved": 0, "name": "0e5bd0cfcb2c978516ffa9b77f27903c"}, {"lon": -77.041727, "lat": 38.916562666666664, "rental_uris": {"ios": "https://dc.lft.to/lastmile_qr_scan", "android": "https://dc.lft.to/lastmile_qr_scan"}, "bike_id": "213eed6f896d5210044d0a56ff0fe677", "type": "electric_scooter", "is_disabled": 0, "fusion_lat": 0.0, "fusion_lon": 0.0, "is_reserved": 0, "name": "213eed6f896d5210044d0a56ff0fe677"}, {"lon": -77.00600483333334, "lat": 38.88521266666667, "rental_uris": {"ios": "https://dc.lft.to/lastmile_qr_scan", "android": "https://dc.lft.to/lastmile_qr_scan"}, "bike_id": "1b76daaf2492720d1eb82a35f752a0e5", "type": "electric_scooter", "is_disabled": 0, "fusion_lat": 0.0, "fusion_lon": 0.0, "is_reserved": 0, "name": "1b76daaf2492720d1eb82a35f752a0e5"}, {"lon": -77.0387595, "lat": 38.902762333333335, "rental_uris": {"ios": "https://dc.lft.to/lastmile_qr_scan", "android": "https://dc.lft.to/lastmile_qr_scan"}, "bike_id": "be79bc0abc40dbf9cc17030240454e3a", "type": "electric_scooter", "is_disabled": 0, "fusion_lat": 0.0, "fusion_lon": 0.0, "is_reserved": 0, "name": "be79bc0abc40dbf9cc17030240454e3a"}, {"lon": -77.06120016666667, "lat": 38.90196616666667, "rental_uris": {"ios": "https://dc.lft.to/lastmile_qr_scan", "android": "https://dc.lft.to/lastmile_qr_scan"}, "bike_id": "aeefe3c6264846cdc13959ab726293ad", "type": "electric_scooter", "is_disabled": 0, "fusion_lat": 0.0, "fusion_lon": 0.0, "is_reserved": 0, "name": "aeefe3c6264846cdc13959ab726293ad"}, {"lon": -77.036929, "lat": 38.916772333333334, "rental_uris": {"ios": "https://dc.lft.to/lastmile_qr_scan", "android": "https://dc.lft.to/lastmile_qr_scan"}, "bike_id": "e7d54ece560bae6edec094d86394ce56", "type": "electric_scooter", "is_disabled": 0, "fusion_lat": 0.0, "fusion_lon": 0.0, "is_reserved": 0, "name": "e7d54ece560bae6edec094d86394ce56"}, {"lon": -76.99329283333333, "lat": 38.871407, "rental_uris": {"ios": "https://dc.lft.to/lastmile_qr_scan", "android": "https://dc.lft.to/lastmile_qr_scan"}, "bike_id": "ebc580e7653c2db0a6a1cc92a093ba6b", "type": "electric_scooter", "is_disabled": 0, "fusion_lat": 0.0, "fusion_lon": 0.0, "is_reserved": 0, "name": "ebc580e7653c2db0a6a1cc92a093ba6b"}, {"lon": -76.96056316666666, "lat": 38.884056666666666, "rental_uris": {"ios": "https://dc.lft.to/lastmile_qr_scan", "android": "https://dc.lft.to/lastmile_qr_scan"},