{"data": {"bikes": [{"type": "electric_scooter", "rental_uris": {"ios": "https://dc.lft.to/lastmile_qr_scan", "android": "https://dc.lft.to/lastmile_qr_scan"}, "lon": -77.03365533333333, "fusion_lon": 0.0, "is_disabled": 0, "lat": 38.887612833333336, "bike_id": "07c66f1c2f69530f085d8dc6bea25f24", "name": "07c66f1c2f69530f085d8dc6bea25f24", "is_reserved": 0, "fusion_lat": 0.0}, {"type": "electric_scooter", "rental_uris": {"ios": "https://dc.lft.to/lastmile_qr_scan", "android": "https://dc.lft.to/lastmile_qr_scan"}, "lon": -77.045046, "fusion_lon": 0.0, "is_disabled": 0, "lat": 38.8922295, "bike_id": "c30d0902d1dc2a3534875c23b863bdfa", "name": "c30d0902d1dc2a3534875c23b863bdfa", "is_reserved": 0, "fusion_lat": 0.0}, {"type": "electric_scooter", "rental_uris": {"ios": "https://dc.lft.to/lastmile_qr_scan", "android": "https://dc.lft.to/lastmile_qr_scan"}, "lon": -76.96610683333333, "fusion_lon": 0.0, "is_disabled": 0, "lat": 38.87386766666667, "bike_id": "e5a634a8deb544b2b914e57929c9f588", "name": "e5a634a8deb544b2b914e57929c9f588", "is_reserved": 0, "fusion_lat": 0.0}, {"type": "electric_scooter", "rental_uris": {"ios": "https://dc.lft.to/lastmile_qr_scan", "android": "https://dc.lft.to/lastmile_qr_scan"}, "lon": -77.03801983333334, "fusion_lon": 0.0, "is_disabled": 0, "lat": 38.92629266666667, "bike_id": "b6030341867c4979230428be5832ea79", "name": "b6030341867c4979230428be5832ea79", "is_reserved": 0, "fusion_lat": 0.0}, {"type": "electric_scooter", "rental_uris": {"ios": "https://dc.lft.to/lastmile_qr_scan", "android": "https://dc.lft.to/lastmile_qr_scan"}, "lon": -77.02774433333333, "fusion_lon": 0.0, "is_disabled": 0, "lat": 38.8922125, "bike_id": "c6a02a1de279ed2248eae9df77560c64", "name": "c6a02a1de279ed2248eae9df77560c64", "is_reserved": 0, "fusion_lat": 0.0}, {"type": "electric_scooter", "rental_uris": {"ios": "https://dc.lft.to/lastmile_qr_scan", "android": "https://dc.lft.to/lastmile_qr_scan"}, "lon": -77.04381666666667, "fusion_lon": 0.0, "is_disabled": 0, "lat": 38.921141166666665, "bike_id": "e61dc2f34b75f4248d6f57f2f89eba7d", "name": "e61dc2f34b75f4248d6f57f2f89eba7d", "is_reserved": 0, "fusion_lat": 0.0}, {"type": "electric_scooter", "rental_uris": {"ios": "https://dc.lft.to/lastmile_qr_scan", "android": "https://dc.lft.to/lastmile_qr_scan"}, "lon": -77.03847566666667, "fusion_lon": 0.0, "is_disabled": 0, "lat": 38.93248366666667, "bike_id": "45ef9c78236523d91f52894a692a38de", "name": "45ef9c78236523d91f52894a692a38de", "is_reserved": 0, "fusion_lat": 0.0}, {"type": "electric_scooter", "rental_uris": {"ios": "https://dc.lft.to/lastmile_qr_scan", "android": "https://dc.lft.to/lastmile_qr_scan"}, "lon": -77.03186833333334, "fusion_lon": 0.0, "is_disabled": 0, "lat": 38.90793516666667, "bike_id": "747751945b7353b92e0ed4fe965040d3", "name": "747751945b7353b92e0ed4fe965040d3", "is_reserved": 0, "fusion_lat": 0.0}, {"type": "electric_bike", "rental_uris": {"ios": "https://dc.lft.to/lastmile_qr_scan", "android": "https://dc.lft.to/lastmile_qr_scan"}, "lon": -76.93651483333333, "fusion_lon": 0.0, "is_disabled": 0, "lat": 38.871519666666664, "bike_id": "c8afb540804ad8ec6ff263ce8f9114aa", "name": "c8afb540804ad8ec6ff263ce8f9114aa", "is_reserved": 0, "fusion_lat": 0.0}, {"type": "electric_scooter", "rental_uris": {"ios": "https://dc.lft.to/lastmile_qr_scan", "android": "https://dc.lft.to/lastmile_qr_scan"}, "lon": -77.0297505, "fusion_lon": 0.0, "is_disabled": 0, "lat": 38.91683283333333, "bike_id": "8a67473b3e6e24fce64e2a6763439d46", "name": "8a67473b3e6e24fce64e2a6763439d46", "is_reserved": 0, "fusion_lat": 0.0}, {"type": "electric_scooter", "rental_uris": {"ios": "https://dc.lft.to/lastmile_qr_scan", "android": "https://dc.lft.to/lastmile_qr_scan"}, "lon": -76.97438233333334, "fusion_lon": 0.0, "is_disabled": 0, "lat": 38.86422266666667, "bike_id": "51b4b56fd8b0d3b995572d808e4f8a63", "name": "51b4b56fd8b0d3b995572d808e4f8a63", "is_reserved": 0, "fusion_lat": 0.0}, {"type": "electric_scooter", "rental_uris": {"ios": "https://dc.lft.to/lastmile_qr_scan", "android": "https://dc.lft.to/lastmile_qr_scan"}, "lon": -77.034358, "fusion_lon": 0.0, "is_disabled": 0, "lat": 38.90420266666667, "bike_id": "6b86cf43ab438a527a03bd7e9aa5a5e1", "name": "6b86cf43ab438a527a03bd7e9aa5a5e1", "is_reserved": 0, "fusion_lat": 0.0}, {"type": "electric_scooter", "rental_uris": {"ios": "https://dc.lft.to/lastmile_qr_scan", "android": "https://dc.lft.to/lastmile_qr_scan"}, "lon": -77.02655716666666, "fusion_lon": 0.0, "is_disabled": 0, "lat": 38.89216666666667, "bike_id": "dda2dc4f29bbb84475548113e868a671", "name": "dda2dc4f29bbb84475548113e868a671", "is_reserved": 0, "fusion_lat": 0.0}, {"type": "electric_scooter", "rental_uris": {"ios": "https://dc.lft.to/lastmile_qr_scan", "android": "https://dc.lft.to/lastmile_qr_scan"}, "lon": -76.9262275, "fusion_lon": 0.0, "is_disabled": 0, "lat": 38.8845765, "bike_id": "2ffddfa2d4ea3049fc225d0cbd994104", "name": "2ffddfa2d4ea3049fc225d0cbd994104", "is_reserved": 0, "fusion_lat": 0.0}, {"type": "electric_scooter", "rental_uris": {"ios": "https://dc.lft.to/lastmile_qr_scan", "android": "https://dc.lft.to/lastmile_qr_scan"}, "lon": -77.02099933333334, "fusion_lon": 0.0, "is_disabled": 0, "lat": 38.93116966666667, "bike_id": "b9d3d04c636a76b12809ea2225991440", "name": "b9d3d04c636a76b12809ea2225991440", "is_reserved": 0, "fusion_lat": 0.0}, {"type": "electric_scooter", "rental_uris": {"ios": "https://dc.lft.to/lastmile_qr_scan", "android": "https://dc.lft.to/lastmile_qr_scan"}, "lon": -77.04660616666666, "fusion_lon": 0.0, "is_disabled": 0, "lat": 38.89241583333333, "bike_id": "ba96638dec925f7d3144e38d490cc887", "name": "ba96638dec925f7d3144e38d490cc887", "is_reserved": 0, "fusion_lat": 0.0}, {"type": "electric_scooter", "rental_uris": {"ios": "https://dc.lft.to/lastmile_qr_scan", "android": "https://dc.lft.to/lastmile_qr_scan"}, "lon": -77.0231975, "fusion_lon": 0.0, "is_disabled": 0, "lat": 38.91681033333333, "bike_id": "eb2b2b56599b1b0a37914c188853cf1f", "name": "eb2b2b56599b1b0a37914c188853cf1f", "is_reserved": 0, "fusion_lat": 0.0}, {"type": "electric_scooter", "rental_uris": {"ios": "https://dc.lft.to/lastmile_qr_scan", "android": "https://dc.lft.to/lastmile_qr_scan"}, "lon": -77.04523666666667, "fusion_lon": 0.0, "is_disabled": 0, "lat": 38.91832133333333, "bike_id": "d719380a0ee174464d99ba7be6036b03", "name": "d719380a0ee174464d99ba7be6036b03", "is_reserved": 0, "fusion_lat": 0.0}, {"type": "electric_scooter", "rental_uris": {"ios": "https://dc.lft.to/lastmile_qr_scan", "android": "https://dc.lft.to/lastmile_qr_scan"}, "lon": -77.04009133333334, "fusion_lon": 0.0, "is_disabled": 0, "lat": 38.92167383333334, "bike_id": "727c9d1663e30022a142a6626d221f3d", "name": "727c9d1663e30022a142a6626d221f3d", "is_reserved": 0, "fusion_lat": 0.0}, {"type": "electric_scooter", "rental_uris": {"ios": "https://dc.lft.to/lastmile_qr_scan", "android": "https://dc.lft.to/lastmile_qr_scan"}, "lon": -76.96870883333334, "fusion_lon": 0.0, "is_disabled": 0, "lat": 38.8709585, "bike_id": "218f8b921d3d9e7ba9b476a54585f2e8", "name": "218f8b921d3d9e7ba9b476a54585f2e8", "is_reserved": 0, "fusion_lat": 0.0}, {"type": "electric_scooter", "rental_uris": {"ios": "https://dc.lft.to/lastmile_qr_scan", "android": "https://dc.lft.to/lastmile_qr_scan"}, "lon": -76.99505533333334, "fusion_lon": 0.0, "is_disabled": 0, "lat": 38.894858, "bike_id": "0b51a2b75fc262e148087451695a635b", "name": "0b51a2b75fc262e148087451695a635b", "is_reserved": 0, "fusion_lat": 0.0}, {"type": "electric_bike", "rental_uris": {"ios": "https://dc.lft.to/lastmile_qr_scan", "android": "https://dc.lft.to/lastmile_qr_scan"}, "lon": -76.97531783333334, "fusion_lon": 0.0, "is_disabled": 0, "lat": 38.8401245, "bike_id": "d149a7ed008ddc86507360f2480dfb5a", "name": "d149a7ed008ddc86507360f2480dfb5a", "is_reserved": 0, "fusion_lat": 0.0}, {"type": "electric_scooter", "rental_uris": {"ios": "https://dc.lft.to/lastmile_qr_scan", "android": "https://dc.lft.to/lastmile_qr_scan"}, "lon": -77.0303235, "fusion_lon": 0.0, "is_disabled": 0, "lat": 38.931202, "bike_id": "ca949721def553351431273c000aebaa", "name": "ca949721def553351431273c000aebaa", "is_reserved": 0, "fusion_lat": 0.0}, {"type": "electric_scooter", "rental_uris": {"ios": "https://dc.lft.to/lastmile_qr_scan", "android": "https://dc.lft.to/lastmile_qr_scan"}, "lon": -76.99517533333334, "fusion_lon": 0.0, "is_disabled": 0, "lat": 38.883771, "bike_id": "d60db8dfe9870670c93780a28e73f502", "name": "d60db8dfe9870670c93780a28e73f502", "is_reserved": 0, "fusion_lat": 0.0}, {"type": "electric_scooter", "rental_uris": {"ios": "https://dc.lft.to/lastmile_qr_scan", "android": "https://dc.lft.to/lastmile_qr_scan"}, "lon": -76.981796, "fusion_lon": 0.0, "is_disabled": 0, "lat": 38.89579533333333, "bike_id": "0443f152c14030e08c1179d3aaaae4c8", "name": "0443f152c14030e08c1179d3aaaae4c8", "is_reserved": 0, "fusion_lat": 0.0}, {"type": "electric_scooter", "rental_uris": {"ios": "https://dc.lft.to/lastmile_qr_scan", "android": "https://dc.lft.to/lastmile_qr_scan"}, "lon": -77.04692416666667, "fusion_lon": 0.0, "is_disabled": 0, "lat": 38.89728366666667, "bike_id": "8b5def3d6e0ae288861fe8540e3de012", "name": "8b5def3d6e0ae288861fe8540e3de012", "is_reserved": 0, "fusion_lat": 0.0}, {"type": "electric_bike", "rental_uris": {"ios": "https://dc.lft.to/lastmile_qr_scan", "android": "https://dc.lft.to/lastmile_qr_scan"}, "lon": -77.1248565, "fusion_lon": 0.0, "is_disabled": 0, "lat": 38.8539525, "bike_id": "4d4c9329fb7a232d860abc77e098f430", "name": "4d4c9329fb7a232d860abc77e098f430", "is_reserved": 0, "fusion_lat": 0.0}, {"type": "electric_scooter", "rental_uris": {"ios": "https://dc.lft.to/lastmile_qr_scan", "android": "https://dc.lft.to/lastmile_qr_scan"}, "lon": -77.03203983333333, "fusion_lon": 0.0, "is_disabled": 0, "lat": 38.89633633333333, "bike_id": "5dd84cbf35785ba9a16fb2b9dedaf366", "name": "5dd84cbf35785ba9a16fb2b9dedaf366", "is_reserved": 0, "fusion_lat": 0.0}, {"type": "electric_bike", "rental_uris": {"ios": "https://dc.lft.to/lastmile_qr_scan", "android": "https://dc.lft.to/lastmile_qr_scan"}, "lon": -77.0321015, "fusion_lon": 0.0, "is_disabled": 0, "lat": 38.908977, "bike_id": "e59f824b0aad19978c11a31418133f3e", "name": "e59f824b0aad19978c11a31418133f3e", "is_reserved": 0, "fusion_lat": 0.0}, {"type": "electric_scooter", "rental_uris": {"ios": "https://dc.lft.to/lastmile_qr_scan", "android": "https://dc.lft.to/lastmile_qr_scan"}, "lon": -77.02302133333333, "fusion_lon": 0.0, "is_disabled": 0, "lat": 38.917366666666666, "bike_id": "6dd8fc901edabfc9013622dd89e6ed9e", "name": "6dd8fc901edabfc9013622dd89e6ed9e", "is_reserved": 0, "fusion_lat": 0.0}, {"type": "electric_scooter", "rental_uris": {"ios": "https://dc.lft.to/lastmile_qr_scan", "android": "https://dc.lft.to/lastmile_qr_scan"}, "lon": -77.04027566666667, "fusion_lon": 0.0, "is_disabled": 0, "lat": 38.91806166666667, "bike_id": "2a9461c19aa9ed7ece237fe2f2505af2", "name": "2a9461c19aa9ed7ece237fe2f2505af2", "is_reserved": 0, "fusion_lat": 0.0}, {"type": "electric_scooter", "rental_uris": {"ios": "https://dc.lft.to/lastmile_qr_scan", "android": "https://dc.lft.to/lastmile_qr_scan"}, "lon": -77.0314935, "fusion_lon": 0.0, "is_disabled": 0, "lat": 38.915668, "bike_id": "890575af1d591815ba18c6a361e819bd", "name": "890575af1d591815ba18c6a361e819bd", "is_reserved": 0, "fusion_lat": 0.0}, {"type": "electric_scooter", "rental_uris": {"ios": "https://dc.lft.to/lastmile_qr_scan", "android": "https://dc.lft.to/lastmile_qr_scan"}, "lon": -77.03185166666667, "fusion_lon": 0.0, "is_disabled": 0, "lat": 38.90788933333333, "bike_id": "72aba770f0e4ca12980d46263f9efac7", "name": "72aba770f0e4ca12980d46263f9efac7", "is_reserved": 0, "fusion_lat": 0.0}, {"type": "electric_bike", "rental_uris": {"ios": "https://dc.lft.to/lastmile_qr_scan", "android": "https://dc.lft.to/lastmile_qr_scan"}, "lon": -76.969113, "fusion_lon": 0.0, "is_disabled": 0, "lat": 38.846124, "bike_id": "34d1b52b9839769339024c49aa54a171", "name": "34d1b52b9839769339024c49aa54a171", "is_reserved": 0, "fusion_lat": 0.0}, {"type": "electric_scooter", "rental_uris": {"ios": "https://dc.lft.to/lastmile_qr_scan", "android": "https://dc.lft.to/lastmile_qr_scan"}, "lon": -77.02352016666667, "fusion_lon": 0.0, "is_disabled": 0, "lat": 38.91775333333333, "bike_id": "57cab7959863101a16b24905076caaf2", "name": "57cab7959863101a16b24905076caaf2", "is_reserved": 0, "fusion_lat": 0.0}, {"type": "electric_scooter", "rental_uris": {"ios": "https://dc.lft.to/lastmile_qr_scan", "android": "https://dc.lft.to/lastmile_qr_scan"}, "lon": -77.03850466666667, "fusion_lon": 0.0, "is_disabled": 0, "lat": 38.91551366666667, "bike_id": "490ac1d1be46a7c2eb5af221f46b0e50", "name": "490ac1d1be46a7c2eb5af221f46b0e50", "is_reserved": 0, "fusion_lat": 0.0}, {"type": "electric_scooter", "rental_uris": {"ios": "https://dc.lft.to/lastmile_qr_scan", "android": "https://dc.lft.to/lastmile_qr_scan"}, "lon": -76.94179216666667, "fusion_lon": 0.0, "is_disabled": 0, "lat": 38.897582, "bike_id": "c52c8a9cca515de4113d761260be6fbc", "name": "c52c8a9cca515de4113d761260be6fbc", "is_reserved": 0, "fusion_lat": 0.0}, {"type": "electric_bike", "rental_uris": {"ios": "https://dc.lft.to/lastmile_qr_scan", "android": "https://dc.lft.to/lastmile_qr_scan"}, "lon": -77.120467, "fusion_lon": 0.0, "is_disabled": 0, "lat": 38.85527116666667, "bike_id": "76cdcf2505b51e2bca2c150a499c3c50", "name": "76cdcf2505b51e2bca2c150a499c3c50", "is_reserved": 0, "fusion_lat": 0.0}, {"type": "electric_scooter", "rental_uris": {"ios": "https://dc.lft.to/lastmile_qr_scan", "android": "https://dc.lft.to/lastmile_qr_scan"}, "lon": -76.97648533333333, "fusion_lon": 0.0, "is_disabled": 0, "lat": 38.89850233333333, "bike_id": "23de0cb3d2b12063b128895c3da19e56", "name": "23de0cb3d2b12063b128895c3da19e56", "is_reserved": 0, "fusion_lat": 0.0}, {"type": "electric_scooter", "rental_uris": {"ios": "https://dc.lft.to/lastmile_qr_scan", "android": "https://dc.lft.to/lastmile_qr_scan"}, "lon": -77.037166, "fusion_lon": 0.0, "is_disabled": 0, "lat": 38.928671333333334, "bike_id": "3b7c0a786e161ec28c7a7751e2d3514c", "name": "3b7c0a786e161ec28c7a7751e2d3514c", "is_reserved": 0, "fusion_lat": 0.0}, {"type": "electric_scooter", "rental_uris": {"ios": "https://dc.lft.to/lastmile_qr_scan", "android": "https://dc.lft.to/lastmile_qr_scan"}, "lon": -77.0194585, "fusion_lon": 0.0, "is_disabled": 0, "lat": 38.94926616666667, "bike_id": "f318597c6f73e312a16135022b0993fe", "name": "f318597c6f73e312a16135022b0993fe", "is_reserved": 0, "fusion_lat": 0.0}, {"type": "electric_scooter", "rental_uris": {"ios": "https://dc.lft.to/lastmile_qr_scan", "android": "https://dc.lft.to/lastmile_qr_scan"}, "lon": -77.0260055, "fusion_lon": 0.0, "is_disabled": 0, "lat": 38.91694416666667, "bike_id": "f4b03b4f66b4768135e79881eeee8791", "name": "f4b03b4f66b4768135e79881eeee8791", "is_reserved": 0, "fusion_lat": 0.0}, {"type": "electric_scooter", "rental_uris": {"ios": "https://dc.lft.to/lastmile_qr_scan", "android": "https://dc.lft.to/lastmile_qr_scan"}, "lon": -77.03418533333334, "fusion_lon": 0.0, "is_disabled": 0, "lat": 38.9223925, "bike_id": "d7859face6eedd32f5b26bfa81f073b9", "name": "d7859face6eedd32f5b26bfa81f073b9", "is_reserved": 0, "fusion_lat": 0.0}, {"type": "electric_scooter", "rental_uris": {"ios": "https://dc.lft.to/lastmile_qr_scan", "android": "https://dc.lft.to/lastmile_qr_scan"}, "lon": -77.025833, "fusion_lon": 0.0, "is_disabled": 0, "lat": 38.909644666666665, "bike_id": "05f8d32fa255097a6cb06cad6c6c4395", "name": "05f8d32fa255097a6cb06cad6c6c4395", "is_reserved": 0, "fusion_lat": 0.0}, {"type": "electric_scooter", "rental_uris": {"ios": "https://dc.lft.to/lastmile_qr_scan", "android": "https://dc.lft.to/lastmile_qr_scan"}, "lon": -77.03420816666667, "fusion_lon": 0.0, "is_disabled": 0, "lat": 38.907053, "bike_id": "b236101340a29fb3b7036775be075394", "name": "b236101340a29fb3b7036775be075394", "is_reserved": 0, "fusion_lat": 0.0}, {"type": "electric_bike", "rental_uris": {"ios": "https://dc.lft.to/lastmile_qr_scan", "android": "https://dc.lft.to/lastmile_qr_scan"}, "lon": -77.03988066666666, "fusion_lon": 0.0, "is_disabled": 0, "lat": 38.933308, "bike_id": "438eda835ab83023a1c595b3779c5d71", "name": "438eda835ab83023a1c595b3779c5d71", "is_reserved": 0, "fusion_lat": 0.0}, {"type": "electric_bike", "rental_uris": {"ios": "https://dc.lft.to/lastmile_qr_scan", "android": "https://dc.lft.to/lastmile_qr_scan"}, "lon": -77.17841983333334, "fusion_lon": 0.0, "is_disabled": 0, "lat": 39.0886255, "bike_id": "fb377d301a9d7852f82661fdea5dc8c8", "name": "fb377d301a9d7852f82661fdea5dc8c8", "is_reserved": 0, "fusion_lat": 0.0}, {"type": "electric_bike", "rental_uris": {"ios": "https://dc.lft.to/lastmile_qr_scan", "android": "https://dc.lft.to/lastmile_qr_scan"}, "lon": -77.011997, "fusion_lon": 0.0, "is_disabled": 0, "lat": 38.872558166666664, "bike_id": "c443ab56052a6a7d23d8afb6939da641", "name": "c443ab56052a6a7d23d8afb6939da641", "is_reserved": 0, "fusion_lat": 0.0}, {"type": "electric_bike", "rental_uris": {"ios": "https://dc.lft.to/lastmile_qr_scan", "android": "https://dc.lft.to/lastmile_qr_scan"}, "lon": -77.22215866666667, "fusion_lon": 0.0, "is_disabled": 0, "lat": 38.928533333333334, "bike_id": "b347d7390f1d51f25704f8151eb76817", "name": "b347d7390f1d51f25704f8151eb76817", "is_reserved": 0, "fusion_lat": 0.0}, {"type": "electric_scooter", "rental_uris": {"ios": "https://dc.lft.to/lastmile_qr_scan", "android": "https://dc.lft.to/lastmile_qr_scan"}, "lon": -76.939915, "fusion_lon": 0.0, "is_disabled": 0, "lat": 38.899809833333336, "bike_id": "bdf3438dd3a7fb034460543f5abf3329", "name": "bdf3438dd3a7fb034460543f5abf3329", "is_reserved": 0, "fusion_lat": 0.0}, {"type": "electric_scooter", "rental_uris": {"ios": "https://dc.lft.to/lastmile_qr_scan", "android": "https://dc.lft.to/lastmile_qr_scan"}, "lon": -77.03950566666667, "fusion_lon": 0.0, "is_disabled": 0, "lat": 38.89881283333333, "bike_id": "c3209e90a617ef393234652ebf033110", "name": "c3209e90a617ef393234652ebf033110", "is_reserved": 0, "fusion_lat": 0.0}, {"type": "electric_bike", "rental_uris": {"ios": "https://dc.lft.to/lastmile_qr_scan", "android": "https://dc.lft.to/lastmile_qr_scan"}, "lon": -76.96532216666667, "fusion_lon": 0.0, "is_disabled": 0, "lat": 38.874782, "bike_id": "ce74cbdf689a5ba258f9d53fc8d07a78", "name": "ce74cbdf689a5ba258f9d53fc8d07a78", "is_reserved": 0, "fusion_lat": 0.0}, {"type": "electric_scooter", "rental_uris": {"ios": "https://dc.lft.to/lastmile_qr_scan", "android": "https://dc.lft.to/lastmile_qr_scan"}, "lon": -77.03286883333334, "fusion_lon": 0.0, "is_disabled": 0, "lat": 38.927507166666665, "bike_id": "06179e5e76a151516a7964f0c46aee50", "name": "06179e5e76a151516a7964f0c46aee50", "is_reserved": 0, "fusion_lat": 0.0}, {"type": "electric_scooter", "rental_uris": {"ios": "https://dc.lft.to/lastmile_qr_scan", "android": "https://dc.lft.to/lastmile_qr_scan"}, "lon": -77.05043666666667, "fusion_lon": 0.0, "is_disabled": 0, "lat": 38.892816333333336, "bike_id": "f292f33f8efb39eae5ed138b3f0d67c7", "name": "f292f33f8efb39eae5ed138b3f0d67c7", "is_reserved": 0, "fusion_lat": 0.0}, {"type": "electric_scooter", "rental_uris": {"ios": "https://dc.lft.to/lastmile_qr_scan", "android": "https://dc.lft.to/lastmile_qr_scan"}, "lon": -77.02693816666667, "fusion_lon": 0.0, "is_disabled": 0, "lat": 38.906799, "bike_id": "8f597892a98bcb4a23e5042b43da077d", "name": "8f597892a98bcb4a23e5042b43da077d", "is_reserved": 0, "fusion_lat": 0.0}, {"type": "electric_scooter", "rental_uris": {"ios": "https://dc.lft.to/lastmile_qr_scan", "android": "https://dc.lft.to/lastmile_qr_scan"}, "lon": -77.0314805, "fusion_lon": 0.0, "is_disabled": 0, "lat": 38.915634833333336, "bike_id": "952be7ae1bf626c471acdfe4187625ac", "name": "952be7ae1bf626c471acdfe4187625ac", "is_reserved": 0, "fusion_lat": 0.0}, {"type": "electric_scooter", "rental_uris": {"ios": "https://dc.lft.to/lastmile_qr_scan", "android": "https://dc.lft.to/lastmile_qr_scan"}, "lon": -77.029749, "fusion_lon": 0.0, "is_disabled": 0, "lat": 38.9169675, "bike_id": "304940ad0d500c97a8cd2ca976e3ed3a", "name": "304940ad0d500c97a8cd2ca976e3ed3a", "is_reserved": 0, "fusion_lat": 0.0}, {"type": "electric_scooter", "rental_uris": {"ios": "https://dc.lft.to/lastmile_qr_scan", "android": "https://dc.lft.to/lastmile_qr_scan"}, "lon": -77.02279816666666, "fusion_lon": 0.0, "is_disabled": 0, "lat": 38.8783875, "bike_id": "e295725cc4450919fffdaf281341cef3", "name": "e295725cc4450919fffdaf281341cef3", "is_reserved": 0, "fusion_lat": 0.0}, {"type": "electric_scooter", "rental_uris": {"ios": "https://dc.lft.to/lastmile_qr_scan", "android": "https://dc.lft.to/lastmile_qr_scan"}, "lon": -76.9373825, "fusion_lon": 0.0, "is_disabled": 0, "lat": 38.8901785, "bike_id": "af3264ab25e68811868db30f6a8e0e34", "name": "af3264ab25e68811868db30f6a8e0e34", "is_reserved": 0, "fusion_lat": 0.0}, {"type": "electric_scooter", "rental_uris": {"ios": "https://dc.lft.to/lastmile_qr_scan", "android": "https://dc.lft.to/lastmile_qr_scan"}, "lon": -77.02595683333334, "fusion_lon": 0.0, "is_disabled": 0, "lat": 38.942029166666664, "bike_id": "50fa3f80ad63a5a2f3f7ed06b1d0ea3f", "name": "50fa3f80ad63a5a2f3f7ed06b1d0ea3f", "is_reserved": 0, "fusion_lat": 0.0}, {"type": "electric_scooter", "rental_uris": {"ios": "https://dc.lft.to/lastmile_qr_scan", "android": "https://dc.lft.to/lastmile_qr_scan"}, "lon": -77.0137495, "fusion_lon": 0.0, "is_disabled": 0, "lat": 38.892217, "bike_id": "cc7e36182255896080f28d8b6ec0fa06", "name": "cc7e36182255896080f28d8b6ec0fa06", "is_reserved": 0, "fusion_lat": 0.0}, {"type": "electric_bike", "rental_uris": {"ios": "https://dc.lft.to/lastmile_qr_scan", "android": "https://dc.lft.to/lastmile_qr_scan"}, "lon": -77.08813383333333, "fusion_lon": 0.0, "is_disabled": 0, "lat": 38.862429666666664, "bike_id": "d758f38f3ceacef475c5e324c6e79cd2", "name": "d758f38f3ceacef475c5e324c6e79cd2", "is_reserved": 0, "fusion_lat": 0.0}, {"type": "electric_scooter", "rental_uris": {"ios": "https://dc.lft.to/lastmile_qr_scan", "android": "https://dc.lft.to/lastmile_qr_scan"}, "lon": -76.99411866666667, "fusion_lon": 0.0, "is_disabled": 0, "lat": 38.8779525, "bike_id": "dc3eb436daac3498f0224afc482d0018", "name": "dc3eb436daac3498f0224afc482d0018", "is_reserved": 0, "fusion_lat": 0.0}, {"type": "electric_scooter", "rental_uris": {"ios": "https://dc.lft.to/lastmile_qr_scan", "android": "https://dc.lft.to/lastmile_qr_scan"}, "lon": -77.03584716666667, "fusion_lon": 0.0, "is_disabled": 0, "lat": 38.933132, "bike_id": "76832ccf7b41661fbf2b0db74db33584", "name": "76832ccf7b41661fbf2b0db74db33584", "is_reserved": 0, "fusion_lat": 0.0}, {"type": "electric_bike", "rental_uris": {"ios": "https://dc.lft.to/lastmile_qr_scan", "android": "https://dc.lft.to/lastmile_qr_scan"}, "lon": -77.050223, "fusion_lon": 0.0, "is_disabled": 0, "lat": 39.039067333333335, "bike_id": "8fd7814994e8c615f5e69f55593a2d28", "name": "8fd7814994e8c615f5e69f55593a2d28", "is_reserved": 0, "fusion_lat": 0.0}, {"type": "electric_scooter", "rental_uris": {"ios": "https://dc.lft.to/lastmile_qr_scan", "android": "https://dc.lft.to/lastmile_qr_scan"}, "lon": -77.01847766666667, "fusion_lon": 0.0, "is_disabled": 0, "lat": 38.908166, "bike_id": "213323879470ed2feec608f225113599", "name": "213323879470ed2feec608f225113599", "is_reserved": 0, "fusion_lat": 0.0}, {"type": "electric_bike", "rental_uris": {"ios": "https://dc.lft.to/lastmile_qr_scan", "android": "https://dc.lft.to/lastmile_qr_scan"}, "lon": -76.987975, "fusion_lon": 0.0, "is_disabled": 0, "lat": 38.92216666666667, "bike_id": "5e192939133adadc6f440335ff121c81", "name": "5e192939133adadc6f440335ff121c81", "is_reserved": 0, "fusion_lat": 0.0}, {"type": "electric_scooter", "rental_uris": {"ios": "https://dc.lft.to/lastmile_qr_scan", "android": "https://dc.lft.to/lastmile_qr_scan"}, "lon": -77.0045215, "fusion_lon": 0.0, "is_disabled": 0, "lat": 38.91177866666666, "bike_id": "9d15f08abb9aa4547bd940040feff10c", "name": "9d15f08abb9aa4547bd940040feff10c", "is_reserved": 0, "fusion_lat": 0.0}, {"type": "electric_scooter", "rental_uris": {"ios": "https://dc.lft.to/lastmile_qr_scan", "android": "https://dc.lft.to/lastmile_qr_scan"}, "lon": -77.06981633333334, "fusion_lon": 0.0, "is_disabled": 0, "lat": 38.95247466666667, "bike_id": "7d0a415c4741ac9a0cfd18493016e9ba", "name": "7d0a415c4741ac9a0cfd18493016e9ba", "is_reserved": 0, "fusion_lat": 0.0}, {"type": "electric_bike", "rental_uris": {"ios": "https://dc.lft.to/lastmile_qr_scan", "android": "https://dc.lft.to/lastmile_qr_scan"}, "lon": -77.11221283333333, "fusion_lon": 0.0, "is_disabled": 0, "lat": 38.828751, "bike_id": "fa0c8290e6b6fc9e7cb540d6c9014e49", "name": "fa0c8290e6b6fc9e7cb540d6c9014e49", "is_reserved": 0, "fusion_lat": 0.0}, {"type": "electric_scooter", "rental_uris": {"ios": "https://dc.lft.to/lastmile_qr_scan", "android": "https://dc.lft.to/lastmile_qr_scan"}, "lon": -77.044515, "fusion_lon": 0.0, "is_disabled": 0, "lat": 38.9301665, "bike_id": "9f5a0551da9b50a78284b09fa2f83b9b", "name": "9f5a0551da9b50a78284b09fa2f83b9b", "is_reserved": 0, "fusion_lat": 0.0}, {"type": "electric_scooter", "rental_uris": {"ios": "https://dc.lft.to/lastmile_qr_scan", "android": "https://dc.lft.to/lastmile_qr_scan"}, "lon": -77.03867683333333, "fusion_lon": 0.0, "is_disabled": 0, "lat": 38.90972083333333, "bike_id": "8bf27cbe59e1a933c3bffa31dae22f7b", "name": "8bf27cbe59e1a933c3bffa31dae22f7b", "is_reserved": 0, "fusion_lat": 0.0}, {"type": "electric_scooter", "rental_uris": {"ios": "https://dc.lft.to/lastmile_qr_scan", "android": "https://dc.lft.to/lastmile_qr_scan"}, "lon": -76.9398945, "fusion_lon": 0.0, "is_disabled": 0, "lat": 38.899792, "bike_id": "7dc4126ae0ff28747ff93a805cf2ef3b", "name": "7dc4126ae0ff28747ff93a805cf2ef3b", "is_reserved": 0, "fusion_lat": 0.0}, {"type": "electric_scooter", "rental_uris": {"ios": "https://dc.lft.to/lastmile_qr_scan", "android": "https://dc.lft.to/lastmile_qr_scan"}, "lon": -77.03166283333333, "fusion_lon": 0.0, "is_disabled": 0, "lat": 38.89226216666667, "bike_id": "4e7e898387795554c741438c96455d4f", "name": "4e7e898387795554c741438c96455d4f", "is_reserved": 0, "fusion_lat": 0.0}, {"type": "electric_scooter", "rental_uris": {"ios": "https://dc.lft.to/lastmile_qr_scan", "android": "https://dc.lft.to/lastmile_qr_scan"}, "lon": -76.98989483333334, "fusion_lon": 0.0, "is_disabled": 0, "lat": 38.86498866666667, "bike_id": "5892789ef2bb0f7de702062867ee5f17", "name": "5892789ef2bb0f7de702062867ee5f17", "is_reserved": 0, "fusion_lat": 0.0}, {"type": "electric_scooter", "rental_uris": {"ios": "https://dc.lft.to/lastmile_qr_scan", "android": "https://dc.lft.to/lastmile_qr_scan"}, "lon": -77.03167033333334, "fusion_lon": 0.0, "is_disabled": 0, "lat": 38.892232166666666, "bike_id": "c78efb902efb44cb675aced4c4e2aa9b", "name": "c78efb902efb44cb675aced4c4e2aa9b", "is_reserved": 0, "fusion_lat": 0.0}, {"type": "electric_scooter", "rental_uris": {"ios": "https://dc.lft.to/lastmile_qr_scan", "android": "https://dc.lft.to/lastmile_qr_scan"}, "lon": -77.0321345, "fusion_lon": 0.0, "is_disabled": 0, "lat": 38.917206, "bike_id": "a24c17998bbe4ea2438a9e7ed807eec6", "name": "a24c17998bbe4ea2438a9e7ed807eec6", "is_reserved": 0, "fusion_lat": 0.0}, {"type": "electric_scooter", "rental_uris": {"ios": "https://dc.lft.to/lastmile_qr_scan", "android": "https://dc.lft.to/lastmile_qr_scan"}, "lon": -77.01180066666667, "fusion_lon": 0.0, "is_disabled": 0, "lat": 38.90340166666667, "bike_id": "9b3366303d4441a779d77b5e052c67f0", "name": "9b3366303d4441a779d77b5e052c67f0", "is_reserved": 0, "fusion_lat": 0.0}, {"type": "electric_scooter", "rental_uris": {"ios": "https://dc.lft.to/lastmile_qr_scan", "android": "https://dc.lft.to/lastmile_qr_scan"}, "lon": -76.99775266666667, "fusion_lon": 0.0, "is_disabled": 0, "lat": 38.84433766666667, "bike_id": "c0b76b604c4806825190d0351558bb45", "name": "c0b76b604c4806825190d0351558bb45", "is_reserved": 0, "fusion_lat": 0.0}, {"type": "electric_scooter", "rental_uris": {"ios": "https://dc.lft.to/lastmile_qr_scan", "android": "https://dc.lft.to/lastmile_qr_scan"}, "lon": -77.03435116666667, "fusion_lon": 0.0, "is_disabled": 0, "lat": 38.9079645, "bike_id": "024fefc56916f192f9d5998c528b832e", "name": "024fefc56916f192f9d5998c528b832e", "is_reserved": 0, "fusion_lat": 0.0}, {"type": "electric_scooter", "rental_uris": {"ios": "https://dc.lft.to/lastmile_qr_scan", "android": "https://dc.lft.to/lastmile_qr_scan"}, "lon": -77.0477375, "fusion_lon": 0.0, "is_disabled": 0, "lat": 38.90857333333334, "bike_id": "47c78ea3dfac7dff2cd703ee2b775818", "name": "47c78ea3dfac7dff2cd703ee2b775818", "is_reserved": 0, "fusion_lat": 0.0}, {"type": "electric_scooter", "rental_uris": {"ios": "https://dc.lft.to/lastmile_qr_scan", "android": "https://dc.lft.to/lastmile_qr_scan"}, "lon": -77.00958633333333, "fusion_lon": 0.0, "is_disabled": 0, "lat": 38.9079125, "bike_id": "759039f348f7997e85e728eb72eb8c95", "name": "759039f348f7997e85e728eb72eb8c95", "is_reserved": 0, "fusion_lat": 0.0}, {"type": "electric_scooter", "rental_uris": {"ios": "https://dc.lft.to/lastmile_qr_scan", "android": "https://dc.lft.to/lastmile_qr_scan"}, "lon": -76.99858233333333, "fusion_lon": 0.0, "is_disabled": 0, "lat": 38.8811315, "bike_id": "f08822bf333e43cab2c47f928495adb3", "name": "f08822bf333e43cab2c47f928495adb3", "is_reserved": 0, "fusion_lat": 0.0}, {"type": "electric_scooter", "rental_uris": {"ios": "https://dc.lft.to/lastmile_qr_scan", "android": "https://dc.lft.to/lastmile_qr_scan"}, "lon": -76.96864716666667, "fusion_lon": 0.0, "is_disabled": 0, "lat": 38.870810166666665, "bike_id": "49cc698d1a16a42963b8ba0856ac1f06", "name": "49cc698d1a16a42963b8ba0856ac1f06", "is_reserved": 0, "fusion_lat": 0.0}, {"type": "electric_scooter", "rental_uris": {"ios": "https://dc.lft.to/lastmile_qr_scan", "android": "https://dc.lft.to/lastmile_qr_scan"}, "lon": -77.01224416666666, "fusion_lon": 0.0, "is_disabled": 0, "lat": 38.91498083333333, "bike_id": "05b1f90f26738364e37128ad026ee433", "name": "05b1f90f26738364e37128ad026ee433", "is_reserved": 0, "fusion_lat": 0.0}, {"type": "electric_scooter", "rental_uris": {"ios": "https://dc.lft.to/lastmile_qr_scan", "android": "https://dc.lft.to/lastmile_qr_scan"}, "lon": -76.977273, "fusion_lon": 0.0, "is_disabled": 0, "lat": 38.87246783333333, "bike_id": "99031d5ea9abe1408114b5829caa1825", "name": "99031d5ea9abe1408114b5829caa1825", "is_reserved": 0, "fusion_lat": 0.0}, {"type": "electric_scooter", "rental_uris": {"ios": "https://dc.lft.to/lastmile_qr_scan", "android": "https://dc.lft.to/lastmile_qr_scan"}, "lon": -77.0272385, "fusion_lon": 0.0, "is_disabled": 0, "lat": 38.924832333333335, "bike_id": "8bf8de4530ba1944f429f5af902b0421", "name": "8bf8de4530ba1944f429f5af902b0421", "is_reserved": 0, "fusion_lat": 0.0}, {"type": "electric_scooter", "rental_uris": {"ios": "https://dc.lft.to/lastmile_qr_scan", "android": "https://dc.lft.to/lastmile_qr_scan"}, "lon": -77.032841, "fusion_lon": 0.0, "is_disabled": 0, "lat": 38.92747166666667, "bike_id": "a1c299fde2f915f2730c7334e91516d0", "name": "a1c299fde2f915f2730c7334e91516d0", "is_reserved": 0, "fusion_lat": 0.0}, {"type": "electric_scooter", "rental_uris": {"ios": "https://dc.lft.to/lastmile_qr_scan", "android": "https://dc.lft.to/lastmile_qr_scan"}, "lon": -77.0309775, "fusion_lon": 0.0, "is_disabled": 0, "lat": 38.92855333333333, "bike_id": "515813044d09606326f0b786e891fe6c", "name": "515813044d09606326f0b786e891fe6c", "is_reserved": 0, "fusion_lat": 0.0}, {"type": "electric_scooter", "rental_uris": {"ios": "https://dc.lft.to/lastmile_qr_scan", "android": "https://dc.lft.to/lastmile_qr_scan"}, "lon": -77.001018, "fusion_lon": 0.0, "is_disabled": 0, "lat": 38.90750416666667, "bike_id": "54b2e28575982495ce8e0448d1192c47", "name": "54b2e28575982495ce8e0448d1192c47", "is_reserved": 0, "fusion_lat": 0.0}, {"type": "electric_scooter", "rental_uris": {"ios": "https://dc.lft.to/lastmile_qr_scan", "android": "https://dc.lft.to/lastmile_qr_scan"}, "lon": -77.0271405, "fusion_lon": 0.0, "is_disabled": 0, "lat": 38.9170365, "bike_id": "818b7d63340887e0fb117089548d65ce", "name": "818b7d63340887e0fb117089548d65ce", "is_reserved": 0, "fusion_lat": 0.0}, {"type": "electric_scooter", "rental_uris": {"ios": "https://dc.lft.to/lastmile_qr_scan", "android": "https://dc.lft.to/lastmile_qr_scan"}, "lon": -77.03548333333333, "fusion_lon": 0.0, "is_disabled": 0, "lat": 38.918801333333334, "bike_id": "e1051bdb9af9c944e196cd01ef8b918d", "name": "e1051bdb9af9c944e196cd01ef8b918d", "is_reserved": 0, "fusion_lat": 0.0}, {"type": "electric_scooter", "rental_uris": {"ios": "https://dc.lft.to/lastmile_qr_scan", "android": "https://dc.lft.to/lastmile_qr_scan"}, "lon": -77.04067633333334, "fusion_lon": 0.0, "is_disabled": 0, "lat": 38.912726166666666, "bike_id": "4f7f3d27b7f676d4db884cecd287cdba", "name": "4f7f3d27b7f676d4db884cecd287cdba", "is_reserved": 0, "fusion_lat": 0.0}, {"type": "electric_scooter", "rental_uris": {"ios": "https://dc.lft.to/lastmile_qr_scan", "android": "https://dc.lft.to/lastmile_qr_scan"}, "lon": -76.93175733333334, "fusion_lon": 0.0, "is_disabled": 0, "lat": 38.898854166666666, "bike_id": "ac321a65136179619ce576471046f9dc", "name": "ac321a65136179619ce576471046f9dc", "is_reserved": 0, "fusion_lat": 0.0}, {"type": "electric_scooter", "rental_uris": {"ios": "https://dc.lft.to/lastmile_qr_scan", "android": "https://dc.lft.to/lastmile_qr_scan"}, "lon": -77.02167983333334, "fusion_lon": 0.0, "is_disabled": 0, "lat": 38.897349, "bike_id": "10a58dc592f231777177505a428e7415", "name": "10a58dc592f231777177505a428e7415", "is_reserved": 0, "fusion_lat": 0.0}, {"type": "electric_scooter", "rental_uris": {"ios": "https://dc.lft.to/lastmile_qr_scan", "android": "https://dc.lft.to/lastmile_qr_scan"}, "lon": -76.98538983333333, "fusion_lon": 0.0, "is_disabled": 0, "lat": 38.866771666666665, "bike_id": "979c8f0d1cad30bcb337786bee636fee", "name": "979c8f0d1cad30bcb337786bee636fee", "is_reserved": 0, "fusion_lat": 0.0}, {"type": "electric_scooter", "rental_uris": {"ios": "https://dc.lft.to/lastmile_qr_scan", "android": "https://dc.lft.to/lastmile_qr_scan"}, "lon": -77.050084, "fusion_lon": 0.0, "is_disabled": 0, "lat": 38.892314166666665, "bike_id": "365b8a39b0dd9ae9575660a41fecf845", "name": "365b8a39b0dd9ae9575660a41fecf845", "is_reserved": 0, "fusion_lat": 0.0}, {"type": "electric_scooter", "rental_uris": {"ios": "https://dc.lft.to/lastmile_qr_scan", "android": "https://dc.lft.to/lastmile_qr_scan"}, "lon": -76.99883283333334, "fusion_lon": 0.0, "is_disabled": 0, "lat": 38.9075335, "bike_id": "74f2af96f03a9c9dd876fb47bf689460", "name": "74f2af96f03a9c9dd876fb47bf689460", "is_reserved": 0, "fusion_lat": 0.0}, {"type": "electric_bike", "rental_uris": {"ios": "https://dc.lft.to/lastmile_qr_scan", "android": "https://dc.lft.to/lastmile_qr_scan"}, "lon": -76.9978095, "fusion_lon": 0.0, "is_disabled": 0, "lat": 38.8621395, "bike_id": "9afad9631f4b0dd52b7170be2c658146", "name": "9afad9631f4b0dd52b7170be2c658146", "is_reserved": 0, "fusion_lat": 0.0}, {"type": "electric_scooter", "rental_uris": {"ios": "https://dc.lft.to/lastmile_qr_scan", "android": "https://dc.lft.to/lastmile_qr_scan"}, "lon": -77.02879316666667, "fusion_lon": 0.0, "is_disabled": 0, "lat": 38.92818066666667, "bike_id": "f30966ccca629214dc783efb00940cfb", "name": "f30966ccca629214dc783efb00940cfb", "is_reserved": 0, "fusion_lat": 0.0}, {"type": "electric_bike", "rental_uris": {"ios": "https://dc.lft.to/lastmile_qr_scan", "android": "https://dc.lft.to/lastmile_qr_scan"}, "lon": -77.00660966666666, "fusion_lon": 0.0, "is_disabled": 0, "lat": 38.90833933333333, "bike_id": "920bccf0bda6328c24b5e4b1f5d07ae1", "name": "920bccf0bda6328c24b5e4b1f5d07ae1", "is_reserved": 0, "fusion_lat": 0.0}, {"type": "electric_scooter", "rental_uris": {"ios": "https://dc.lft.to/lastmile_qr_scan", "android": "https://dc.lft.to/lastmile_qr_scan"}, "lon": -77.044815, "fusion_lon": 0.0, "is_disabled": 0, "lat": 38.91111933333333, "bike_id": "2a94a9443f1dab9d034bc61c5c0312c5", "name": "2a94a9443f1dab9d034bc61c5c0312c5", "is_reserved": 0, "fusion_lat": 0.0}, {"type": "electric_scooter", "rental_uris": {"ios": "https://dc.lft.to/lastmile_qr_scan", "android": "https://dc.lft.to/lastmile_qr_scan"}, "lon": -77.02804566666667, "fusion_lon": 0.0, "is_disabled": 0, "lat": 38.892351166666664, "bike_id": "16b07c91ddcc673a8c4d68b1219b49f3", "name": "16b07c91ddcc673a8c4d68b1219b49f3", "is_reserved": 0, "fusion_lat": 0.0}, {"type": "electric_scooter", "rental_uris": {"ios": "https://dc.lft.to/lastmile_qr_scan", "android": "https://dc.lft.to/lastmile_qr_scan"}, "lon": -77.04204933333334, "fusion_lon": 0.0, "is_disabled": 0, "lat": 38.911135333333334, "bike_id": "b6331bd36a9ab38abcbc6a536adb5003", "name": "b6331bd36a9ab38abcbc6a536adb5003", "is_reserved": 0, "fusion_lat": 0.0}, {"type": "electric_scooter", "rental_uris": {"ios": "https://dc.lft.to/lastmile_qr_scan", "android": "https://dc.lft.to/lastmile_qr_scan"}, "lon": -77.03380666666666, "fusion_lon": 0.0, "is_disabled": 0, "lat": 38.9096585, "bike_id": "40af5794367c26c3b89fc454c21479ee", "name": "40af5794367c26c3b89fc454c21479ee", "is_reserved": 0, "fusion_lat": 0.0}, {"type": "electric_scooter", "rental_uris": {"ios": "https://dc.lft.to/lastmile_qr_scan", "android": "https://dc.lft.to/lastmile_qr_scan"}, "lon": -77.0201305, "fusion_lon": 0.0, "is_disabled": 0, "lat": 38.91568016666667, "bike_id": "fc73a4c9da42b4fa4bed82ee9eef3e14", "name": "fc73a4c9da42b4fa4bed82ee9eef3e14", "is_reserved": 0, "fusion_lat": 0.0}, {"type": "electric_scooter", "rental_uris": {"ios": "https://dc.lft.to/lastmile_qr_scan", "android": "https://dc.lft.to/lastmile_qr_scan"}, "lon": -77.02622583333333, "fusion_lon": 0.0, "is_disabled": 0, "lat": 38.89219833333333, "bike_id": "0e17a95ab14af5feef18a162e0afdbc8", "name": "0e17a95ab14af5feef18a162e0afdbc8", "is_reserved": 0, "fusion_lat": 0.0}, {"type": "electric_scooter", "rental_uris": {"ios": "https://dc.lft.to/lastmile_qr_scan", "android": "https://dc.lft.to/lastmile_qr_scan"}, "lon": -76.99947166666666, "fusion_lon": 0.0, "is_disabled": 0, "lat": 38.84298716666667, "bike_id": "f80917fbdaeec12049b2bffb48f89600", "name": "f80917fbdaeec12049b2bffb48f89600", "is_reserved": 0, "fusion_lat": 0.0}, {"type": "electric_scooter", "rental_uris": {"ios": "https://dc.lft.to/lastmile_qr_scan", "android": "https://dc.lft.to/lastmile_qr_scan"}, "lon": -77.02192166666667, "fusion_lon": 0.0, "is_disabled": 0, "lat": 38.9061725, "bike_id": "01b1d9aa967b026c73943120a9b5ad5a", "name": "01b1d9aa967b026c73943120a9b5ad5a", "is_reserved": 0, "fusion_lat": 0.0}, {"type": "electric_scooter", "rental_uris": {"ios": "https://dc.lft.to/lastmile_qr_scan", "android": "https://dc.lft.to/lastmile_qr_scan"}, "lon": -77.05127183333333, "fusion_lon": 0.0, "is_disabled": 0, "lat": 38.92369033333333, "bike_id": "c228cb17eb889d103df3cb7f8842e7fc", "name": "c228cb17eb889d103df3cb7f8842e7fc", "is_reserved": 0, "fusion_lat": 0.0}, {"type": "electric_scooter", "rental_uris": {"ios": "https://dc.lft.to/lastmile_qr_scan", "android": "https://dc.lft.to/lastmile_qr_scan"}, "lon": -77.04653166666667, "fusion_lon": 0.0, "is_disabled": 0, "lat": 38.905585333333335, "bike_id": "dd2101213602234ecafc9e2f24876afb", "name": "dd2101213602234ecafc9e2f24876afb", "is_reserved": 0, "fusion_lat": 0.0}, {"type": "electric_scooter", "rental_uris": {"ios": "https://dc.lft.to/lastmile_qr_scan", "android": "https://dc.lft.to/lastmile_qr_scan"}, "lon": -77.00717633333333, "fusion_lon": 0.0, "is_disabled": 0, "lat": 38.905867666666666, "bike_id": "728cde52fe373eb419df1c4867af8598", "name": "728cde52fe373eb419df1c4867af8598", "is_reserved": 0, "fusion_lat": 0.0}, {"type": "electric_scooter", "rental_uris": {"ios": "https://dc.lft.to/lastmile_qr_scan", "android": "https://dc.lft.to/lastmile_qr_scan"}, "lon": -77.04261, "fusion_lon": 0.0, "is_disabled": 0, "lat": 38.92201716666667, "bike_id": "837e8416296a0ee58a1dbe03b4e33dca", "name": "837e8416296a0ee58a1dbe03b4e33dca", "is_reserved": 0, "fusion_lat": 0.0}, {"type": "electric_scooter", "rental_uris": {"ios": "https://dc.lft.to/lastmile_qr_scan", "android": "https://dc.lft.to/lastmile_qr_scan"}, "lon": -76.94990633333333, "fusion_lon": 0.0, "is_disabled": 0, "lat": 38.8940785, "bike_id": "d6a85b2e15247593b9fe6f18f5023da4", "name": "d6a85b2e15247593b9fe6f18f5023da4", "is_reserved": 0, "fusion_lat": 0.0}, {"type": "electric_scooter", "rental_uris": {"ios": "https://dc.lft.to/lastmile_qr_scan", "android": "https://dc.lft.to/lastmile_qr_scan"}, "lon": -77.03841, "fusion_lon": 0.0, "is_disabled": 0, "lat": 38.91761916666667, "bike_id": "13e3284330816636c3498e67b647cad0", "name": "13e3284330816636c3498e67b647cad0", "is_reserved": 0, "fusion_lat": 0.0}, {"type": "electric_scooter", "rental_uris": {"ios": "https://dc.lft.to/lastmile_qr_scan", "android": "https://dc.lft.to/lastmile_qr_scan"}, "lon": -77.040294, "fusion_lon": 0.0, "is_disabled": 0, "lat": 38.91806283333333, "bike_id": "7ff547654dddc8d9f0961364784bdf4e", "name": "7ff547654dddc8d9f0961364784bdf4e", "is_reserved": 0, "fusion_lat": 0.0}, {"type": "electric_scooter", "rental_uris": {"ios": "https://dc.lft.to/lastmile_qr_scan", "android": "https://dc.lft.to/lastmile_qr_scan"}, "lon": -77.0314715, "fusion_lon": 0.0, "is_disabled": 0, "lat": 38.91114783333333, "bike_id": "c1e1cb5abd2ea0f3aa10bc2f577b449e", "name": "c1e1cb5abd2ea0f3aa10bc2f577b449e", "is_reserved": 0, "fusion_lat": 0.0}, {"type": "electric_scooter", "rental_uris": {"ios": "https://dc.lft.to/lastmile_qr_scan", "android": "https://dc.lft.to/lastmile_qr_scan"}, "lon": -77.05514816666667, "fusion_lon": 0.0, "is_disabled": 0, "lat": 38.94414316666666, "bike_id": "ce8951b3b404d3f7ce9be8574378d516", "name": "ce8951b3b404d3f7ce9be8574378d516", "is_reserved": 0, "fusion_lat": 0.0}, {"type": "electric_scooter", "rental_uris": {"ios": "https://dc.lft.to/lastmile_qr_scan", "android": "https://dc.lft.to/lastmile_qr_scan"}, "lon": -76.97923133333333, "fusion_lon": 0.0, "is_disabled": 0, "lat": 38.905074166666665, "bike_id": "f49f65fcde7945d38f4b49b044514bc6", "name": "f49f65fcde7945d38f4b49b044514bc6", "is_reserved": 0, "fusion_lat": 0.0}, {"type": "electric_scooter", "rental_uris": {"ios": "https://dc.lft.to/lastmile_qr_scan", "android": "https://dc.lft.to/lastmile_qr_scan"}, "lon": -77.03183766666666, "fusion_lon": 0.0, "is_disabled": 0, "lat": 38.9185895, "bike_id": "8359dbdb84f7e25c02b316c97a18bffd", "name": "8359dbdb84f7e25c02b316c97a18bffd", "is_reserved": 0, "fusion_lat": 0.0}, {"type": "electric_scooter", "rental_uris": {"ios": "https://dc.lft.to/lastmile_qr_scan", "android": "https://dc.lft.to/lastmile_qr_scan"}, "lon": -77.03218433333333, "fusion_lon": 0.0, "is_disabled": 0, "lat": 38.8922145, "bike_id": "7611bf7f3532d9fd05af2ac32dd52c93", "name": "7611bf7f3532d9fd05af2ac32dd52c93", "is_reserved": 0, "fusion_lat": 0.0}, {"type": "electric_scooter", "rental_uris": {"ios": "https://dc.lft.to/lastmile_qr_scan", "android": "https://dc.lft.to/lastmile_qr_scan"}, "lon": -77.03168666666667, "fusion_lon": 0.0, "is_disabled": 0, "lat": 38.921329166666666, "bike_id": "a74ce3bc77156e0cf70c59139e5a1478", "name": "a74ce3bc77156e0cf70c59139e5a1478", "is_reserved": 0, "fusion_lat": 0.0}, {"type": "electric_scooter", "rental_uris": {"ios": "https://dc.lft.to/lastmile_qr_scan", "android": "https://dc.lft.to/lastmile_qr_scan"}, "lon": -77.03831766666667, "fusion_lon": 0.0, "is_disabled": 0, "lat": 38.911186666666666, "bike_id": "4183a484e9be01e8a779e37a4aab6032", "name": "4183a484e9be01e8a779e37a4aab6032", "is_reserved": 0, "fusion_lat": 0.0}, {"type": "electric_scooter", "rental_uris": {"ios": "https://dc.lft.to/lastmile_qr_scan", "android": "https://dc.lft.to/lastmile_qr_scan"}, "lon": -77.03218733333334, "fusion_lon": 0.0, "is_disabled": 0, "lat": 38.89219383333333, "bike_id": "79d110944d1db30760c0e515e6bc90db", "name": "79d110944d1db30760c0e515e6bc90db", "is_reserved": 0, "fusion_lat": 0.0}, {"type": "electric_scooter", "rental_uris": {"ios": "https://dc.lft.to/lastmile_qr_scan", "android": "https://dc.lft.to/lastmile_qr_scan"}, "lon": -77.04489283333334, "fusion_lon": 0.0, "is_disabled": 0, "lat": 38.90790783333333, "bike_id": "fd3b22f44ce753e2e0f6821f85cde06b", "name": "fd3b22f44ce753e2e0f6821f85cde06b", "is_reserved": 0, "fusion_lat": 0.0}, {"type": "electric_scooter", "rental_uris": {"ios": "https://dc.lft.to/lastmile_qr_scan", "android": "https://dc.lft.to/lastmile_qr_scan"}, "lon": -77.0342025, "fusion_lon": 0.0, "is_disabled": 0, "lat": 38.927535666666664, "bike_id": "5b5352110a884de155b289b9c59f3485", "name": "5b5352110a884de155b289b9c59f3485", "is_reserved": 0, "fusion_lat": 0.0}, {"type": "electric_scooter", "rental_uris": {"ios": "https://dc.lft.to/lastmile_qr_scan", "android": "https://dc.lft.to/lastmile_qr_scan"}, "lon": -77.03163716666667, "fusion_lon": 0.0, "is_disabled": 0, "lat": 38.892224666666664, "bike_id": "d0d29bdbed89e202d5b0c4700168d278", "name": "d0d29bdbed89e202d5b0c4700168d278", "is_reserved": 0, "fusion_lat": 0.0}, {"type": "electric_scooter", "rental_uris": {"ios": "https://dc.lft.to/lastmile_qr_scan", "android": "https://dc.lft.to/lastmile_qr_scan"}, "lon": -76.99365183333333, "fusion_lon": 0.0, "is_disabled": 0, "lat": 38.9284095, "bike_id": "1c7209f9e35c0285ed0b6b61dc7c1b8e", "name": "1c7209f9e35c0285ed0b6b61dc7c1b8e", "is_reserved": 0, "fusion_lat": 0.0}, {"type": "electric_scooter", "rental_uris": {"ios": "https://dc.lft.to/lastmile_qr_scan", "android": "https://dc.lft.to/lastmile_qr_scan"}, "lon": -77.04266533333333, "fusion_lon": 0.0, "is_disabled": 0, "lat": 38.913325666666665, "bike_id": "03469f86474220c8661c2799d488b8c3", "name": "03469f86474220c8661c2799d488b8c3", "is_reserved": 0, "fusion_lat": 0.0}, {"type": "electric_scooter", "rental_uris": {"ios": "https://dc.lft.to/lastmile_qr_scan", "android": "https://dc.lft.to/lastmile_qr_scan"}, "lon": -77.0467555, "fusion_lon": 0.0, "is_disabled": 0, "lat": 38.90946533333333, "bike_id": "49daed6fdaf6fd6d3a7fb60f0c1ca370", "name": "49daed6fdaf6fd6d3a7fb60f0c1ca370", "is_reserved": 0, "fusion_lat": 0.0}, {"type": "electric_scooter", "rental_uris": {"ios": "https://dc.lft.to/lastmile_qr_scan", "android": "https://dc.lft.to/lastmile_qr_scan"}, "lon": -76.94634683333334, "fusion_lon": 0.0, "is_disabled": 0, "lat": 38.898426666666666, "bike_id": "92cfa89b9c78f1e636757755cb372500", "name": "92cfa89b9c78f1e636757755cb372500", "is_reserved": 0, "fusion_lat": 0.0}, {"type": "electric_scooter", "rental_uris": {"ios": "https://dc.lft.to/lastmile_qr_scan", "android": "https://dc.lft.to/lastmile_qr_scan"}, "lon": -77.03660733333334, "fusion_lon": 0.0, "is_disabled": 0, "lat": 38.917268666666665, "bike_id": "9de2eee8ba1f81a634fd39599668c594", "name": "9de2eee8ba1f81a634fd39599668c594", "is_reserved": 0, "fusion_lat": 0.0}, {"type": "electric_scooter", "rental_uris": {"ios": "https://dc.lft.to/lastmile_qr_scan", "android": "https://dc.lft.to/lastmile_qr_scan"}, "lon": -77.032826, "fusion_lon": 0.0, "is_disabled": 0, "lat": 38.89904133333334, "bike_id": "a3c11fca02bf8f3995056919f8f0336d", "name": "a3c11fca02bf8f3995056919f8f0336d", "is_reserved": 0, "fusion_lat": 0.0}, {"type": "electric_bike", "rental_uris": {"ios": "https://dc.lft.to/lastmile_qr_scan", "android": "https://dc.lft.to/lastmile_qr_scan"}, "lon": -77.18742833333333, "fusion_lon": 0.0, "is_disabled": 0, "lat": 38.89355066666667, "bike_id": "e80c042446dcbb200d4516fdf39f1c97", "name": "e80c042446dcbb200d4516fdf39f1c97", "is_reserved": 0, "fusion_lat": 0.0}, {"type": "electric_scooter", "rental_uris": {"ios": "https://dc.lft.to/lastmile_qr_scan", "android": "https://dc.lft.to/lastmile_qr_scan"}, "lon": -77.02606233333333, "fusion_lon": 0.0, "is_disabled": 0, "lat": 38.914109, "bike_id": "d834ff94292b05fcefa061b0419464b4", "name": "d834ff94292b05fcefa061b0419464b4", "is_reserved": 0, "fusion_lat": 0.0}, {"type": "electric_bike", "rental_uris": {"ios": "https://dc.lft.to/lastmile_qr_scan", "android": "https://dc.lft.to/lastmile_qr_scan"}, "lon": -77.04416183333333, "fusion_lon": 0.0, "is_disabled": 0, "lat": 39.015682, "bike_id": "7477502a2e219f0be703991445df8a0b", "name": "7477502a2e219f0be703991445df8a0b", "is_reserved": 0, "fusion_lat": 0.0}, {"type": "electric_scooter", "rental_uris": {"ios": "https://dc.lft.to/lastmile_qr_scan", "android": "https://dc.lft.to/lastmile_qr_scan"}, "lon": -77.0402525, "fusion_lon": 0.0, "is_disabled": 0, "lat": 38.918101, "bike_id": "e0351464d84c3535675aa0261285d065", "name": "e0351464d84c3535675aa0261285d065", "is_reserved": 0, "fusion_lat": 0.0}, {"type": "electric_bike", "rental_uris": {"ios": "https://dc.lft.to/lastmile_qr_scan", "android": "https://dc.lft.to/lastmile_qr_scan"}, "lon": -77.03820983333334, "fusion_lon": 0.0, "is_disabled": 0, "lat": 38.91412033333334, "bike_id": "dd751bdd40339f690e1297d4531932b8", "name": "dd751bdd40339f690e1297d4531932b8", "is_reserved": 0, "fusion_lat": 0.0}, {"type": "electric_scooter", "rental_uris": {"ios": "https://dc.lft.to/lastmile_qr_scan", "android": "https://dc.lft.to/lastmile_qr_scan"}, "lon": -77.013213, "fusion_lon": 0.0, "is_disabled": 0, "lat": 38.8815655, "bike_id": "65d3c4a29668721bb902624db09cf6ab", "name": "65d3c4a29668721bb902624db09cf6ab", "is_reserved": 0, "fusion_lat": 0.0}, {"type": "electric_scooter", "rental_uris": {"ios": "https://dc.lft.to/lastmile_qr_scan", "android": "https://dc.lft.to/lastmile_qr_scan"}, "lon": -77.02590266666667, "fusion_lon": 0.0, "is_disabled": 0, "lat": 38.905295833333334, "bike_id": "14f8f165360fc39057805e105a194f56", "name": "14f8f165360fc39057805e105a194f56", "is_reserved": 0, "fusion_lat": 0.0}, {"type": "electric_scooter", "rental_uris": {"ios": "https://dc.lft.to/lastmile_qr_scan", "android": "https://dc.lft.to/lastmile_qr_scan"}, "lon": -77.02672333333334, "fusion_lon": 0.0, "is_disabled": 0, "lat": 38.899202833333334, "bike_id": "1d840f84df805d012d810523a6e619a2", "name": "1d840f84df805d012d810523a6e619a2", "is_reserved": 0, "fusion_lat": 0.0}, {"type": "electric_scooter", "rental_uris": {"ios": "https://dc.lft.to/lastmile_qr_scan", "android": "https://dc.lft.to/lastmile_qr_scan"}, "lon": -77.026878, "fusion_lon": 0.0, "is_disabled": 0, "lat": 38.91692783333333, "bike_id": "5377276211150ea735871c85c722be19", "name": "5377276211150ea735871c85c722be19", "is_reserved": 0, "fusion_lat": 0.0}, {"type": "electric_scooter", "rental_uris": {"ios": "https://dc.lft.to/lastmile_qr_scan", "android": "https://dc.lft.to/lastmile_qr_scan"}, "lon": -77.04369183333333, "fusion_lon": 0.0, "is_disabled": 0, "lat": 38.89222216666667, "bike_id": "e3fe000fad69c692b4341e5bec5bb15a", "name": "e3fe000fad69c692b4341e5bec5bb15a", "is_reserved": 0, "fusion_lat": 0.0}, {"type": "electric_scooter", "rental_uris": {"ios": "https://dc.lft.to/lastmile_qr_scan", "android": "https://dc.lft.to/lastmile_qr_scan"}, "lon": -77.04005766666667, "fusion_lon": 0.0, "is_disabled": 0, "lat": 38.922081, "bike_id": "96d31c0b91eb9745e9bf198b5052a8bd", "name": "96d31c0b91eb9745e9bf198b5052a8bd", "is_reserved": 0, "fusion_lat": 0.0}, {"type": "electric_scooter", "rental_uris": {"ios": "https://dc.lft.to/lastmile_qr_scan", "android": "https://dc.lft.to/lastmile_qr_scan"}, "lon": -77.02787933333333, "fusion_lon": 0.0, "is_disabled": 0, "lat": 38.9613115, "bike_id": "3ab46bc172802b1c8d1835cfff04d32c", "name": "3ab46bc172802b1c8d1835cfff04d32c", "is_reserved": 0, "fusion_lat": 0.0}, {"type": "electric_scooter", "rental_uris": {"ios": "https://dc.lft.to/lastmile_qr_scan", "android": "https://dc.lft.to/lastmile_qr_scan"}, "lon": -77.044716, "fusion_lon": 0.0, "is_disabled": 0, "lat": 38.915304666666664, "bike_id": "24cac1744b9175686775c950a75c4753", "name": "24cac1744b9175686775c950a75c4753", "is_reserved": 0, "fusion_lat": 0.0}, {"type": "electric_scooter", "rental_uris": {"ios": "https://dc.lft.to/lastmile_qr_scan", "android": "https://dc.lft.to/lastmile_qr_scan"}, "lon": -77.02338016666667, "fusion_lon": 0.0, "is_disabled": 0, "lat": 38.9177315, "bike_id": "2accf4ccc1d2a5bb2b12aeed8280d4cf", "name": "2accf4ccc1d2a5bb2b12aeed8280d4cf", "is_reserved": 0, "fusion_lat": 0.0}, {"type": "electric_scooter", "rental_uris": {"ios": "https://dc.lft.to/lastmile_qr_scan", "android": "https://dc.lft.to/lastmile_qr_scan"}, "lon": -77.03081483333334, "fusion_lon": 0.0, "is_disabled": 0, "lat": 38.911091, "bike_id": "919f50f5f58c889d5bf1f05ba9d35615", "name": "919f50f5f58c889d5bf1f05ba9d35615", "is_reserved": 0, "fusion_lat": 0.0}, {"type": "electric_scooter", "rental_uris": {"ios": "https://dc.lft.to/lastmile_qr_scan", "android": "https://dc.lft.to/lastmile_qr_scan"}, "lon": -77.04253033333333, "fusion_lon": 0.0, "is_disabled": 0, "lat": 38.90774566666666, "bike_id": "924ee0be0fbf859a5fc55e00357ca28e", "name": "924ee0be0fbf859a5fc55e00357ca28e", "is_reserved": 0, "fusion_lat": 0.0}, {"type": "electric_scooter", "rental_uris": {"ios": "https://dc.lft.to/lastmile_qr_scan", "android": "https://dc.lft.to/lastmile_qr_scan"}, "lon": -77.038539, "fusion_lon": 0.0, "is_disabled": 0, "lat": 38.9325435, "bike_id": "e89569e72df7712a8de8922c1b619bbc", "name": "e89569e72df7712a8de8922c1b619bbc", "is_reserved": 0, "fusion_lat": 0.0}, {"type": "electric_scooter", "rental_uris": {"ios": "https://dc.lft.to/lastmile_qr_scan", "android": "https://dc.lft.to/lastmile_qr_scan"}, "lon": -77.04357966666667, "fusion_lon": 0.0, "is_disabled": 0, "lat": 38.922347333333335, "bike_id": "a6191b12bbb65a3a240fee13af732231", "name": "a6191b12bbb65a3a240fee13af732231", "is_reserved": 0, "fusion_lat": 0.0}, {"type": "electric_scooter", "rental_uris": {"ios": "https://dc.lft.to/lastmile_qr_scan", "android": "https://dc.lft.to/lastmile_qr_scan"}, "lon": -76.9903845, "fusion_lon": 0.0, "is_disabled": 0, "lat": 38.863655666666666, "bike_id": "5fb954518048dfe8e6be22257b0c4b3b", "name": "5fb954518048dfe8e6be22257b0c4b3b", "is_reserved": 0, "fusion_lat": 0.0}, {"type": "electric_scooter", "rental_uris": {"ios": "https://dc.lft.to/lastmile_qr_scan", "android": "https://dc.lft.to/lastmile_qr_scan"}, "lon": -77.009146, "fusion_lon": 0.0, "is_disabled": 0, "lat": 38.91846183333333, "bike_id": "88b268e38ae3b355ad1ecfd37f02b28f", "name": "88b268e38ae3b355ad1ecfd37f02b28f", "is_reserved": 0, "fusion_lat": 0.0}, {"type": "electric_scooter", "rental_uris": {"ios": "https://dc.lft.to/lastmile_qr_scan", "android": "https://dc.lft.to/lastmile_qr_scan"}, "lon": -77.040324, "fusion_lon": 0.0, "is_disabled": 0, "lat": 38.92441266666667, "bike_id": "c8144bfa1e6fc7528f07493803b8f0a9", "name": "c8144bfa1e6fc7528f07493803b8f0a9", "is_reserved": 0, "fusion_lat": 0.0}, {"type": "electric_scooter", "rental_uris": {"ios": "https://dc.lft.to/lastmile_qr_scan", "android": "https://dc.lft.to/lastmile_qr_scan"}, "lon": -77.04158483333333, "fusion_lon": 0.0, "is_disabled": 0, "lat": 38.90549716666666, "bike_id": "5f5098f37a4e0fd3e4a05d5b8a981a5c", "name": "5f5098f37a4e0fd3e4a05d5b8a981a5c", "is_reserved": 0, "fusion_lat": 0.0}, {"type": "electric_bike", "rental_uris": {"ios": "https://dc.lft.to/lastmile_qr_scan", "android": "https://dc.lft.to/lastmile_qr_scan"}, "lon": -76.9841775, "fusion_lon": 0.0, "is_disabled": 0, "lat": 38.85519683333333, "bike_id": "fc61f58de8ee1e3defd10113ea862b3d", "name": "fc61f58de8ee1e3defd10113ea862b3d", "is_reserved": 0, "fusion_lat": 0.0}, {"type": "electric_scooter", "rental_uris": {"ios": "https://dc.lft.to/lastmile_qr_scan", "android": "https://dc.lft.to/lastmile_qr_scan"}, "lon": -77.03435466666667, "fusion_lon": 0.0, "is_disabled": 0, "lat": 38.902635333333336, "bike_id": "4309044719df49efd0ff90a983f3cd84", "name": "4309044719df49efd0ff90a983f3cd84", "is_reserved": 0, "fusion_lat": 0.0}, {"type": "electric_scooter", "rental_uris": {"ios": "https://dc.lft.to/lastmile_qr_scan", "android": "https://dc.lft.to/lastmile_qr_scan"}, "lon": -77.014586, "fusion_lon": 0.0, "is_disabled": 0, "lat": 38.877309, "bike_id": "af922fa0cba0b5f78441de29e30ec5b1", "name": "af922fa0cba0b5f78441de29e30ec5b1", "is_reserved": 0, "fusion_lat": 0.0}, {"type": "electric_scooter", "rental_uris": {"ios": "https://dc.lft.to/lastmile_qr_scan", "android": "https://dc.lft.to/lastmile_qr_scan"}, "lon": -77.00193766666666, "fusion_lon": 0.0, "is_disabled": 0, "lat": 38.90035533333333, "bike_id": "6f5318c0222ad0a337a2ac6110433890", "name": "6f5318c0222ad0a337a2ac6110433890", "is_reserved": 0, "fusion_lat": 0.0}, {"type": "electric_scooter", "rental_uris": {"ios": "https://dc.lft.to/lastmile_qr_scan", "android": "https://dc.lft.to/lastmile_qr_scan"}, "lon": -76.9698265, "fusion_lon": 0.0, "is_disabled": 0, "lat": 38.91952716666667, "bike_id": "471e55e5904d509d309a3b04603fdce0", "name": "471e55e5904d509d309a3b04603fdce0", "is_reserved": 0, "fusion_lat": 0.0}, {"type": "electric_scooter", "rental_uris": {"ios": "https://dc.lft.to/lastmile_qr_scan", "android": "https://dc.lft.to/lastmile_qr_scan"}, "lon": -77.02323766666666, "fusion_lon": 0.0, "is_disabled": 0, "lat": 38.930635, "bike_id": "0eacb73906ff46fe21f5d3f1a06a2985", "name": "0eacb73906ff46fe21f5d3f1a06a2985", "is_reserved": 0, "fusion_lat": 0.0}, {"type": "electric_bike", "rental_uris": {"ios": "https://dc.lft.to/lastmile_qr_scan", "android": "https://dc.lft.to/lastmile_qr_scan"}, "lon": -76.975227, "fusion_lon": 0.0, "is_disabled": 0, "lat": 38.96703633333333, "bike_id": "ae07b97346604063dc0054312cd9c6d9", "name": "ae07b97346604063dc0054312cd9c6d9", "is_reserved": 0, "fusion_lat": 0.0}, {"type": "electric_bike", "rental_uris": {"ios": "https://dc.lft.to/lastmile_qr_scan", "android": "https://dc.lft.to/lastmile_qr_scan"}, "lon": -77.07915366666667, "fusion_lon": 0.0, "is_disabled": 0, "lat": 38.802265166666665, "bike_id": "8cdb386c104636d774940ce9012b76cb", "name": "8cdb386c104636d774940ce9012b76cb", "is_reserved": 0, "fusion_lat": 0.0}, {"type": "electric_scooter", "rental_uris": {"ios": "https://dc.lft.to/lastmile_qr_scan", "android": "https://dc.lft.to/lastmile_qr_scan"}, "lon": -77.04337016666666, "fusion_lon": 0.0, "is_disabled": 0, "lat": 38.902390833333335, "bike_id": "a8d5a327cfd50b627b1d1ee1ec0011fe", "name": "a8d5a327cfd50b627b1d1ee1ec0011fe", "is_reserved": 0, "fusion_lat": 0.0}, {"type": "electric_scooter", "rental_uris": {"ios": "https://dc.lft.to/lastmile_qr_scan", "android": "https://dc.lft.to/lastmile_qr_scan"}, "lon": -76.933447, "fusion_lon": 0.0, "is_disabled": 0, "lat": 38.888136833333334, "bike_id": "dc25a33fec144d820a37108b0cdf44e2", "name": "dc25a33fec144d820a37108b0cdf44e2", "is_reserved": 0, "fusion_lat": 0.0}, {"type": "electric_scooter", "rental_uris": {"ios": "https://dc.lft.to/lastmile_qr_scan", "android": "https://dc.lft.to/lastmile_qr_scan"}, "lon": -77.03995233333333, "fusion_lon": 0.0, "is_disabled": 0, "lat": 38.91329133333333, "bike_id": "6e830a3f4a35f3e05fa7c18467b5c526", "name": "6e830a3f4a35f3e05fa7c18467b5c526", "is_reserved": 0, "fusion_lat": 0.0}, {"type": "electric_bike", "rental_uris": {"ios": "https://dc.lft.to/lastmile_qr_scan", "android": "https://dc.lft.to/lastmile_qr_scan"}, "lon": -77.0332835, "fusion_lon": 0.0, "is_disabled": 0, "lat": 38.920602333333335, "bike_id": "4d1303ee7ec2feab2168c38a8daa5f36", "name": "4d1303ee7ec2feab2168c38a8daa5f36", "is_reserved": 0, "fusion_lat": 0.0}, {"type": "electric_bike", "rental_uris": {"ios": "https://dc.lft.to/lastmile_qr_scan", "android": "https://dc.lft.to/lastmile_qr_scan"}, "lon": -77.00572933333333, "fusion_lon": 0.0, "is_disabled": 0, "lat": 38.8398675, "bike_id": "8bd2303085a08c0f4df731ef1a542135", "name": "8bd2303085a08c0f4df731ef1a542135", "is_reserved": 0, "fusion_lat": 0.0}, {"type": "electric_bike", "rental_uris": {"ios": "https://dc.lft.to/lastmile_qr_scan", "android": "https://dc.lft.to/lastmile_qr_scan"}, "lon": -77.01442416666667, "fusion_lon": 0.0, "is_disabled": 0, "lat": 38.876763833333335, "bike_id": "da2312f516dfd09456ecde29db51a539", "name": "da2312f516dfd09456ecde29db51a539", "is_reserved": 0, "fusion_lat": 0.0}, {"type": "electric_scooter", "rental_uris": {"ios": "https://dc.lft.to/lastmile_qr_scan", "android": "https://dc.lft.to/lastmile_qr_scan"}, "lon": -77.03207216666667, "fusion_lon": 0.0, "is_disabled": 0, "lat": 38.91789383333333, "bike_id": "ac1d043636c4e4b611f91b59d0013634", "name": "ac1d043636c4e4b611f91b59d0013634", "is_reserved": 0, "fusion_lat": 0.0}, {"type": "electric_scooter", "rental_uris": {"ios": "https://dc.lft.to/lastmile_qr_scan", "android": "https://dc.lft.to/lastmile_qr_scan"}, "lon": -77.03162516666667, "fusion_lon": 0.0, "is_disabled": 0, "lat": 38.89227983333333, "bike_id": "a7acc0d010d6de1271b683b6ca2a45a5", "name": "a7acc0d010d6de1271b683b6ca2a45a5", "is_reserved": 0, "fusion_lat": 0.0}, {"type": "electric_scooter", "rental_uris": {"ios": "https://dc.lft.to/lastmile_qr_scan", "android": "https://dc.lft.to/lastmile_qr_scan"}, "lon": -77.0321225, "fusion_lon": 0.0, "is_disabled": 0, "lat": 38.90892633333333, "bike_id": "fc5f5a42856a8872a909956c5a46d811", "name": "fc5f5a42856a8872a909956c5a46d811", "is_reserved": 0, "fusion_lat": 0.0}, {"type": "electric_scooter", "rental_uris": {"ios": "https://dc.lft.to/lastmile_qr_scan", "android": "https://dc.lft.to/lastmile_qr_scan"}, "lon": -77.07059283333334, "fusion_lon": 0.0, "is_disabled": 0, "lat": 38.93176533333333, "bike_id": "9c78443a952d542f5bf760018e506435", "name": "9c78443a952d542f5bf760018e506435", "is_reserved": 0, "fusion_lat": 0.0}, {"type": "electric_scooter", "rental_uris": {"ios": "https://dc.lft.to/lastmile_qr_scan", "android": "https://dc.lft.to/lastmile_qr_scan"}, "lon": -76.985222, "fusion_lon": 0.0, "is_disabled": 0, "lat": 38.86688483333333, "bike_id": "51a389bc8e35647a266b402de9c07850", "name": "51a389bc8e35647a266b402de9c07850", "is_reserved": 0, "fusion_lat": 0.0}, {"type": "electric_scooter", "rental_uris": {"ios": "https://dc.lft.to/lastmile_qr_scan", "android": "https://dc.lft.to/lastmile_qr_scan"}, "lon": -77.0249595, "fusion_lon": 0.0, "is_disabled": 0, "lat": 38.91806233333333, "bike_id": "c4d85e52e44f8d3fd8be14936a2bb695", "name": "c4d85e52e44f8d3fd8be14936a2bb695", "is_reserved": 0, "fusion_lat": 0.0}, {"type": "electric_scooter", "rental_uris": {"ios": "https://dc.lft.to/lastmile_qr_scan", "android": "https://dc.lft.to/lastmile_qr_scan"}, "lon": -77.03401866666667, "fusion_lon": 0.0, "is_disabled": 0, "lat": 38.92045016666667, "bike_id": "21fe63349e3aa1e65439cb195d5902b8", "name": "21fe63349e3aa1e65439cb195d5902b8", "is_reserved": 0, "fusion_lat": 0.0}, {"type": "electric_bike", "rental_uris": {"ios": "https://dc.lft.to/lastmile_qr_scan", "android": "https://dc.lft.to/lastmile_qr_scan"}, "lon": -76.895366, "fusion_lon": 0.0, "is_disabled": 0, "lat": 38.945566, "bike_id": "d4ea95b7d62fd591ef201b7a40b673ef", "name": "d4ea95b7d62fd591ef201b7a40b673ef", "is_reserved": 0, "fusion_lat": 0.0}, {"type": "electric_scooter", "rental_uris": {"ios": "https://dc.lft.to/lastmile_qr_scan", "android": "https://dc.lft.to/lastmile_qr_scan"}, "lon": -77.0446845, "fusion_lon": 0.0, "is_disabled": 0, "lat": 38.896254166666665, "bike_id": "474f72b7252aa17535313e58906c944a", "name": "474f72b7252aa17535313e58906c944a", "is_reserved": 0, "fusion_lat": 0.0}, {"type": "electric_bike", "rental_uris": {"ios": "https://dc.lft.to/lastmile_qr_scan", "android": "https://dc.lft.to/lastmile_qr_scan"}, "lon": -76.979734, "fusion_lon": 0.0, "is_disabled": 0, "lat": 38.9537325, "bike_id": "56db9c57d0971ace8f03b456541ae1f9", "name": "56db9c57d0971ace8f03b456541ae1f9", "is_reserved": 0, "fusion_lat": 0.0}, {"type": "electric_scooter", "rental_uris": {"ios": "https://dc.lft.to/lastmile_qr_scan", "android": "https://dc.lft.to/lastmile_qr_scan"}, "lon": -77.02590816666667, "fusion_lon": 0.0, "is_disabled": 0, "lat": 38.90740483333333, "bike_id": "2fc29db7a01127e1a748e59f84b8e73d", "name": "2fc29db7a01127e1a748e59f84b8e73d", "is_reserved": 0, "fusion_lat": 0.0}, {"type": "electric_scooter", "rental_uris": {"ios": "https://dc.lft.to/lastmile_qr_scan", "android": "https://dc.lft.to/lastmile_qr_scan"}, "lon": -77.03204766666667, "fusion_lon": 0.0, "is_disabled": 0, "lat": 38.915712666666664, "bike_id": "69184f4bfff974bcc9bc93f9fa0dcdc5", "name": "69184f4bfff974bcc9bc93f9fa0dcdc5", "is_reserved": 0, "fusion_lat": 0.0}, {"type": "electric_scooter", "rental_uris": {"ios": "https://dc.lft.to/lastmile_qr_scan", "android": "https://dc.lft.to/lastmile_qr_scan"}, "lon": -77.03446583333333, "fusion_lon": 0.0, "is_disabled": 0, "lat": 38.906780166666664, "bike_id": "381e5818c3c63c09926db46d54256779", "name": "381e5818c3c63c09926db46d54256779", "is_reserved": 0, "fusion_lat": 0.0}, {"type": "electric_scooter", "rental_uris": {"ios": "https://dc.lft.to/lastmile_qr_scan", "android": "https://dc.lft.to/lastmile_qr_scan"}, "lon": -77.04657283333333, "fusion_lon": 0.0, "is_disabled": 0, "lat": 38.905585, "bike_id": "bc9303eb5379e69c8c6dd8f151142cdc", "name": "bc9303eb5379e69c8c6dd8f151142cdc", "is_reserved": 0, "fusion_lat": 0.0}, {"type": "electric_scooter", "rental_uris": {"ios": "https://dc.lft.to/lastmile_qr_scan", "android": "https://dc.lft.to/lastmile_qr_scan"}, "lon": -77.04467, "fusion_lon": 0.0, "is_disabled": 0, "lat": 38.91119616666667, "bike_id": "3aacf0273027473b1604c65c02e43993", "name": "3aacf0273027473b1604c65c02e43993", "is_reserved": 0, "fusion_lat": 0.0}, {"type": "electric_scooter", "rental_uris": {"ios": "https://dc.lft.to/lastmile_qr_scan", "android": "https://dc.lft.to/lastmile_qr_scan"}, "lon": -77.02970266666667, "fusion_lon": 0.0, "is_disabled": 0, "lat": 38.932553166666665, "bike_id": "0319e2daae809b1c13161b48e9e61f70", "name": "0319e2daae809b1c13161b48e9e61f70", "is_reserved": 0, "fusion_lat": 0.0}, {"type": "electric_scooter", "rental_uris": {"ios": "https://dc.lft.to/lastmile_qr_scan", "android": "https://dc.lft.to/lastmile_qr_scan"}, "lon": -77.03454316666667, "fusion_lon": 0.0, "is_disabled": 0, "lat": 38.91820833333333, "bike_id": "a9eecf6dfa5ca45a16b3696ec55e7b5a", "name": "a9eecf6dfa5ca45a16b3696ec55e7b5a", "is_reserved": 0, "fusion_lat": 0.0}, {"type": "electric_scooter", "rental_uris": {"ios": "https://dc.lft.to/lastmile_qr_scan", "android": "https://dc.lft.to/lastmile_qr_scan"}, "lon": -77.0221085, "fusion_lon": 0.0, "is_disabled": 0, "lat": 38.88748433333333, "bike_id": "4f7899f083689dedf6c0734c8200518c", "name": "4f7899f083689dedf6c0734c8200518c", "is_reserved": 0, "fusion_lat": 0.0}, {"type": "electric_scooter", "rental_uris": {"ios": "https://dc.lft.to/lastmile_qr_scan", "android": "https://dc.lft.to/lastmile_qr_scan"}, "lon": -77.01758433333333, "fusion_lon": 0.0, "is_disabled": 0, "lat": 38.902643166666664, "bike_id": "3fdb958ccd62f6e5c473d4701e1d0634", "name": "3fdb958ccd62f6e5c473d4701e1d0634", "is_reserved": 0, "fusion_lat": 0.0}, {"type": "electric_scooter", "rental_uris": {"ios": "https://dc.lft.to/lastmile_qr_scan", "android": "https://dc.lft.to/lastmile_qr_scan"}, "lon": -76.97630983333333, "fusion_lon": 0.0, "is_disabled": 0, "lat": 38.85199216666667, "bike_id": "805c14af24cd70cea5fb2f8b21e26670", "name": "805c14af24cd70cea5fb2f8b21e26670", "is_reserved": 0, "fusion_lat": 0.0}, {"type": "electric_scooter", "rental_uris": {"ios": "https://dc.lft.to/lastmile_qr_scan", "android": "https://dc.lft.to/lastmile_qr_scan"}, "lon": -77.03075833333334, "fusion_lon": 0.0, "is_disabled": 0, "lat": 38.88606933333333, "bike_id": "93d184edeb5784868ded9886642594ec", "name": "93d184edeb5784868ded9886642594ec", "is_reserved": 0, "fusion_lat": 0.0}, {"type": "electric_scooter", "rental_uris": {"ios": "https://dc.lft.to/lastmile_qr_scan", "android": "https://dc.lft.to/lastmile_qr_scan"}, "lon": -77.043635, "fusion_lon": 0.0, "is_disabled": 0, "lat": 38.9206015, "bike_id": "7e9069657f5578652882657d9eabcd6a", "name": "7e9069657f5578652882657d9eabcd6a", "is_reserved": 0, "fusion_lat": 0.0}, {"type": "electric_scooter", "rental_uris": {"ios": "https://dc.lft.to/lastmile_qr_scan", "android": "https://dc.lft.to/lastmile_qr_scan"}, "lon": -77.03082, "fusion_lon": 0.0, "is_disabled": 0, "lat": 38.899732666666665, "bike_id": "2c5e28fd335a4707af8cf90ecfbbb7e8", "name": "2c5e28fd335a4707af8cf90ecfbbb7e8", "is_reserved": 0, "fusion_lat": 0.0}, {"type": "electric_scooter", "rental_uris": {"ios": "https://dc.lft.to/lastmile_qr_scan", "android": "https://dc.lft.to/lastmile_qr_scan"}, "lon": -77.028145, "fusion_lon": 0.0, "is_disabled": 0, "lat": 38.90267716666666, "bike_id": "5617e20afdc87d0240403e424484ebae", "name": "5617e20afdc87d0240403e424484ebae", "is_reserved": 0, "fusion_lat": 0.0}, {"type": "electric_scooter", "rental_uris": {"ios": "https://dc.lft.to/lastmile_qr_scan", "android": "https://dc.lft.to/lastmile_qr_scan"}, "lon": -77.037801, "fusion_lon": 0.0, "is_disabled": 0, "lat": 38.909654833333335, "bike_id": "95a329e150acbb660a4b621e465d84cc", "name": "95a329e150acbb660a4b621e465d84cc", "is_reserved": 0, "fusion_lat": 0.0}, {"type": "electric_scooter", "rental_uris": {"ios": "https://dc.lft.to/lastmile_qr_scan", "android": "https://dc.lft.to/lastmile_qr_scan"}, "lon": -76.98979216666666, "fusion_lon": 0.0, "is_disabled": 0, "lat": 38.865074, "bike_id": "8f0062e831e41c206f3dc08ef3d6e49e", "name": "8f0062e831e41c206f3dc08ef3d6e49e", "is_reserved": 0, "fusion_lat": 0.0}, {"type": "electric_scooter", "rental_uris": {"ios": "https://dc.lft.to/lastmile_qr_scan", "android": "https://dc.lft.to/lastmile_qr_scan"}, "lon": -77.04144866666667, "fusion_lon": 0.0, "is_disabled": 0, "lat": 38.893605, "bike_id": "a92befc6e26f9b51d6362a44a211a790", "name": "a92befc6e26f9b51d6362a44a211a790", "is_reserved": 0, "fusion_lat": 0.0}, {"type": "electric_scooter", "rental_uris": {"ios": "https://dc.lft.to/lastmile_qr_scan", "android": "https://dc.lft.to/lastmile_qr_scan"}, "lon": -77.00611933333333, "fusion_lon": 0.0, "is_disabled": 0, "lat": 38.87181133333333, "bike_id": "eee4794d1ae2533cf9f23aa25e1c278c", "name": "eee4794d1ae2533cf9f23aa25e1c278c", "is_reserved": 0, "fusion_lat": 0.0}, {"type": "electric_scooter", "rental_uris": {"ios": "https://dc.lft.to/lastmile_qr_scan", "android": "https://dc.lft.to/lastmile_qr_scan"}, "lon": -77.03857283333333, "fusion_lon": 0.0, "is_disabled": 0, "lat": 38.908586, "bike_id": "b0026e26c2eacf36b0e3b97c9b39c447", "name": "b0026e26c2eacf36b0e3b97c9b39c447", "is_reserved": 0, "fusion_lat": 0.0}, {"type": "electric_scooter", "rental_uris": {"ios": "https://dc.lft.to/lastmile_qr_scan", "android": "https://dc.lft.to/lastmile_qr_scan"}, "lon": -77.031526, "fusion_lon": 0.0, "is_disabled": 0, "lat": 38.915601333333335, "bike_id": "367c522fcd04064560c11cbaff0d408e", "name": "367c522fcd04064560c11cbaff0d408e", "is_reserved": 0, "fusion_lat": 0.0}, {"type": "electric_scooter", "rental_uris": {"ios": "https://dc.lft.to/lastmile_qr_scan", "android": "https://dc.lft.to/lastmile_qr_scan"}, "lon": -77.01701766666666, "fusion_lon": 0.0, "is_disabled": 0, "lat": 38.91387133333333, "bike_id": "d07473e9d0f3a96b10c4e2bd91f2e67f", "name": "d07473e9d0f3a96b10c4e2bd91f2e67f", "is_reserved": 0, "fusion_lat": 0.0}, {"type": "electric_scooter", "rental_uris": {"ios": "https://dc.lft.to/lastmile_qr_scan", "android": "https://dc.lft.to/lastmile_qr_scan"}, "lon": -77.03692016666666, "fusion_lon": 0.0, "is_disabled": 0, "lat": 38.926122166666666, "bike_id": "026149651145ce2e11ba4ebcfb3e7473", "name": "026149651145ce2e11ba4ebcfb3e7473", "is_reserved": 0, "fusion_lat": 0.0}, {"type": "electric_scooter", "rental_uris": {"ios": "https://dc.lft.to/lastmile_qr_scan", "android": "https://dc.lft.to/lastmile_qr_scan"}, "lon": -77.02488433333333, "fusion_lon": 0.0, "is_disabled": 0, "lat": 38.941882, "bike_id": "8dd4671f2333e6f4cb2a31cbc7c34627", "name": "8dd4671f2333e6f4cb2a31cbc7c34627", "is_reserved": 0, "fusion_lat": 0.0}, {"type": "electric_scooter", "rental_uris": {"ios": "https://dc.lft.to/lastmile_qr_scan", "android": "https://dc.lft.to/lastmile_qr_scan"}, "lon": -77.0585635, "fusion_lon": 0.0, "is_disabled": 0, "lat": 38.935472, "bike_id": "a64adefd401451b56631ed0054113c23", "name": "a64adefd401451b56631ed0054113c23", "is_reserved": 0, "fusion_lat": 0.0}, {"type": "electric_scooter", "rental_uris": {"ios": "https://dc.lft.to/lastmile_qr_scan", "android": "https://dc.lft.to/lastmile_qr_scan"}, "lon": -77.0325485, "fusion_lon": 0.0, "is_disabled": 0, "lat": 38.915623833333335, "bike_id": "a7c5d61d759b6f8a4de9874e48c3d3d8", "name": "a7c5d61d759b6f8a4de9874e48c3d3d8", "is_reserved": 0, "fusion_lat": 0.0}, {"type": "electric_scooter", "rental_uris": {"ios": "https://dc.lft.to/lastmile_qr_scan", "android": "https://dc.lft.to/lastmile_qr_scan"}, "lon": -77.03207733333333, "fusion_lon": 0.0, "is_disabled": 0, "lat": 38.91202783333333, "bike_id": "8bc8beb903b23f7d28fe65330b8ec89e", "name": "8bc8beb903b23f7d28fe65330b8ec89e", "is_reserved": 0, "fusion_lat": 0.0}, {"type": "electric_scooter", "rental_uris": {"ios": "https://dc.lft.to/lastmile_qr_scan", "android": "https://dc.lft.to/lastmile_qr_scan"}, "lon": -77.01368616666667, "fusion_lon": 0.0, "is_disabled": 0, "lat": 38.892221166666666, "bike_id": "3be4424bcd3ce8357d738fa79683055f", "name": "3be4424bcd3ce8357d738fa79683055f", "is_reserved": 0, "fusion_lat": 0.0}, {"type": "electric_scooter", "rental_uris": {"ios": "https://dc.lft.to/lastmile_qr_scan", "android": "https://dc.lft.to/lastmile_qr_scan"}, "lon": -77.02212333333334, "fusion_lon": 0.0, "is_disabled": 0, "lat": 38.887456666666665, "bike_id": "49d0916fa60ab0495a83996ae04c355c", "name": "49d0916fa60ab0495a83996ae04c355c", "is_reserved": 0, "fusion_lat": 0.0}, {"type": "electric_scooter", "rental_uris": {"ios": "https://dc.lft.to/lastmile_qr_scan", "android": "https://dc.lft.to/lastmile_qr_scan"}, "lon": -77.03411283333334, "fusion_lon": 0.0, "is_disabled": 0, "lat": 38.91924983333333, "bike_id": "10120d3f2e83674de7265fc4bf269760", "name": "10120d3f2e83674de7265fc4bf269760", "is_reserved": 0, "fusion_lat": 0.0}, {"type": "electric_scooter", "rental_uris": {"ios": "https://dc.lft.to/lastmile_qr_scan", "android": "https://dc.lft.to/lastmile_qr_scan"}, "lon": -77.0249165, "fusion_lon": 0.0, "is_disabled": 0, "lat": 38.941857666666664, "bike_id": "5f9fa04ca2b46c96fedb99e27edd1689", "name": "5f9fa04ca2b46c96fedb99e27edd1689", "is_reserved": 0, "fusion_lat": 0.0}, {"type": "electric_scooter", "rental_uris": {"ios": "https://dc.lft.to/lastmile_qr_scan", "android": "https://dc.lft.to/lastmile_qr_scan"}, "lon": -77.04285583333333, "fusion_lon": 0.0, "is_disabled": 0, "lat": 38.920660833333336, "bike_id": "a2567f942548958894bf299238f7907c", "name": "a2567f942548958894bf299238f7907c", "is_reserved": 0, "fusion_lat": 0.0}, {"type": "electric_scooter", "rental_uris": {"ios": "https://dc.lft.to/lastmile_qr_scan", "android": "https://dc.lft.to/lastmile_qr_scan"}, "lon": -77.03365466666666, "fusion_lon": 0.0, "is_disabled": 0, "lat": 38.9135175, "bike_id": "517a7b6b7149d119a88a9a73321db618", "name": "517a7b6b7149d119a88a9a73321db618", "is_reserved": 0, "fusion_lat": 0.0}, {"type": "electric_scooter", "rental_uris": {"ios": "https://dc.lft.to/lastmile_qr_scan", "android": "https://dc.lft.to/lastmile_qr_scan"}, "lon": -77.03295933333334, "fusion_lon": 0.0, "is_disabled": 0, "lat": 38.947172333333334, "bike_id": "559e420966ec142d133f23c327aa8c3e", "name": "559e420966ec142d133f23c327aa8c3e", "is_reserved": 0, "fusion_lat": 0.0}, {"type": "electric_scooter", "rental_uris": {"ios": "https://dc.lft.to/lastmile_qr_scan", "android": "https://dc.lft.to/lastmile_qr_scan"}, "lon": -77.02645416666667, "fusion_lon": 0.0, "is_disabled": 0, "lat": 38.899700833333334, "bike_id": "53d78a2eb9cdcaff07675b1fe073cd4e", "name": "53d78a2eb9cdcaff07675b1fe073cd4e", "is_reserved": 0, "fusion_lat": 0.0}, {"type": "electric_scooter", "rental_uris": {"ios": "https://dc.lft.to/lastmile_qr_scan", "android": "https://dc.lft.to/lastmile_qr_scan"}, "lon": -77.00609, "fusion_lon": 0.0, "is_disabled": 0, "lat": 38.87182766666667, "bike_id": "d32a1b57fbaf81afa2579bb9f8524664", "name": "d32a1b57fbaf81afa2579bb9f8524664", "is_reserved": 0, "fusion_lat": 0.0}, {"type": "electric_scooter", "rental_uris": {"ios": "https://dc.lft.to/lastmile_qr_scan", "android": "https://dc.lft.to/lastmile_qr_scan"}, "lon": -77.0099395, "fusion_lon": 0.0, "is_disabled": 0, "lat": 38.9025815, "bike_id": "c8eab3e21c128efe0a980c53ae86ad41", "name": "c8eab3e21c128efe0a980c53ae86ad41", "is_reserved": 0, "fusion_lat": 0.0}, {"type": "electric_scooter", "rental_uris": {"ios": "https://dc.lft.to/lastmile_qr_scan", "android": "https://dc.lft.to/lastmile_qr_scan"}, "lon": -77.02302083333333, "fusion_lon": 0.0, "is_disabled": 0, "lat": 38.926132333333335, "bike_id": "1fc039c6097c300fdfcb0cb0e7cac822", "name": "1fc039c6097c300fdfcb0cb0e7cac822", "is_reserved": 0, "fusion_lat": 0.0}, {"type": "electric_scooter", "rental_uris": {"ios": "https://dc.lft.to/lastmile_qr_scan", "android": "https://dc.lft.to/lastmile_qr_scan"}, "lon": -76.933005, "fusion_lon": 0.0, "is_disabled": 0, "lat": 38.892226, "bike_id": "811785c4c77b3eb5b1f885a23f333201", "name": "811785c4c77b3eb5b1f885a23f333201", "is_reserved": 0, "fusion_lat": 0.0}, {"type": "electric_scooter", "rental_uris": {"ios": "https://dc.lft.to/lastmile_qr_scan", "android": "https://dc.lft.to/lastmile_qr_scan"}, "lon": -77.041881, "fusion_lon": 0.0, "is_disabled": 0, "lat": 38.892904333333334, "bike_id": "70a51104dd579e4236e17e827881b254", "name": "70a51104dd579e4236e17e827881b254", "is_reserved": 0, "fusion_lat": 0.0}, {"type": "electric_scooter", "rental_uris": {"ios": "https://dc.lft.to/lastmile_qr_scan", "android": "https://dc.lft.to/lastmile_qr_scan"}, "lon": -77.05591083333333, "fusion_lon": 0.0, "is_disabled": 0, "lat": 38.90097516666667, "bike_id": "57718ebbe6531d8d043428ed70e0d3c0", "name": "57718ebbe6531d8d043428ed70e0d3c0", "is_reserved": 0, "fusion_lat": 0.0}, {"type": "electric_scooter", "rental_uris": {"ios": "https://dc.lft.to/lastmile_qr_scan", "android": "https://dc.lft.to/lastmile_qr_scan"}, "lon": -77.0510135, "fusion_lon": 0.0, "is_disabled": 0, "lat": 38.89630483333333, "bike_id": "9646c0ccb19723be6b864662a410749d", "name": "9646c0ccb19723be6b864662a410749d", "is_reserved": 0, "fusion_lat": 0.0}, {"type": "electric_scooter", "rental_uris": {"ios": "https://dc.lft.to/lastmile_qr_scan", "android": "https://dc.lft.to/lastmile_qr_scan"}, "lon": -77.0492615, "fusion_lon": 0.0, "is_disabled": 0, "lat": 38.90064516666666, "bike_id": "01384caeec04cb05a328432cf8af8cc6", "name": "01384caeec04cb05a328432cf8af8cc6", "is_reserved": 0, "fusion_lat": 0.0}, {"type": "electric_scooter", "rental_uris": {"ios": "https://dc.lft.to/lastmile_qr_scan", "android": "https://dc.lft.to/lastmile_qr_scan"}, "lon": -76.94637533333334, "fusion_lon": 0.0, "is_disabled": 0, "lat": 38.89843966666667, "bike_id": "8e18209de58c302bc92fa3e7151ca4d9", "name": "8e18209de58c302bc92fa3e7151ca4d9", "is_reserved": 0, "fusion_lat": 0.0}, {"type": "electric_scooter", "rental_uris": {"ios": "https://dc.lft.to/lastmile_qr_scan", "android": "https://dc.lft.to/lastmile_qr_scan"}, "lon": -77.04607883333334, "fusion_lon": 0.0, "is_disabled": 0, "lat": 38.918678666666665, "bike_id": "02217c431663f0ea1ef77d611a53befc", "name": "02217c431663f0ea1ef77d611a53befc", "is_reserved": 0, "fusion_lat": 0.0}, {"type": "electric_bike", "rental_uris": {"ios": "https://dc.lft.to/lastmile_qr_scan", "android": "https://dc.lft.to/lastmile_qr_scan"}, "lon": -76.98691333333333, "fusion_lon": 0.0, "is_disabled": 0, "lat": 38.944733166666666, "bike_id": "089ecdd3c0a1b78b688acb0c5d8493df", "name": "089ecdd3c0a1b78b688acb0c5d8493df", "is_reserved": 0, "fusion_lat": 0.0}, {"type": "electric_scooter", "rental_uris": {"ios": "https://dc.lft.to/lastmile_qr_scan", "android": "https://dc.lft.to/lastmile_qr_scan"}, "lon": -77.0350885, "fusion_lon": 0.0, "is_disabled": 0, "lat": 38.921525333333335, "bike_id": "5939dec125db875190b376a6d6d24c7b", "name": "5939dec125db875190b376a6d6d24c7b", "is_reserved": 0, "fusion_lat": 0.0}, {"type": "electric_scooter", "rental_uris": {"ios": "https://dc.lft.to/lastmile_qr_scan", "android": "https://dc.lft.to/lastmile_qr_scan"}, "lon": -77.02748216666667, "fusion_lon": 0.0, "is_disabled": 0, "lat": 38.95776, "bike_id": "8fd69fc22ec64c58bc507f6fbbb9d6aa", "name": "8fd69fc22ec64c58bc507f6fbbb9d6aa", "is_reserved": 0, "fusion_lat": 0.0}, {"type": "electric_scooter", "rental_uris": {"ios": "https://dc.lft.to/lastmile_qr_scan", "android": "https://dc.lft.to/lastmile_qr_scan"}, "lon": -77.052304, "fusion_lon": 0.0, "is_disabled": 0, "lat": 38.92458083333333, "bike_id": "013a96c3243fdbf596812e77477f524e", "name": "013a96c3243fdbf596812e77477f524e", "is_reserved": 0, "fusion_lat": 0.0}, {"type": "electric_scooter", "rental_uris": {"ios": "https://dc.lft.to/lastmile_qr_scan", "android": "https://dc.lft.to/lastmile_qr_scan"}, "lon": -77.02988683333334, "fusion_lon": 0.0, "is_disabled": 0, "lat": 38.9224315, "bike_id": "211a1e86b90fc69abf85b6e2eafa6ce3", "name": "211a1e86b90fc69abf85b6e2eafa6ce3", "is_reserved": 0, "fusion_lat": 0.0}, {"type": "electric_scooter", "rental_uris": {"ios": "https://dc.lft.to/lastmile_qr_scan", "android": "https://dc.lft.to/lastmile_qr_scan"}, "lon": -76.957564, "fusion_lon": 0.0, "is_disabled": 0, "lat": 38.88427016666667, "bike_id": "923971d2ad915b3e9df0fc2f2f07b340", "name": "923971d2ad915b3e9df0fc2f2f07b340", "is_reserved": 0, "fusion_lat": 0.0}, {"type": "electric_scooter", "rental_uris": {"ios": "https://dc.lft.to/lastmile_qr_scan", "android": "https://dc.lft.to/lastmile_qr_scan"}, "lon": -77.021835, "fusion_lon": 0.0, "is_disabled": 0, "lat": 38.893008333333334, "bike_id": "dc797a0930852598d546e16927c6cc98", "name": "dc797a0930852598d546e16927c6cc98", "is_reserved": 0, "fusion_lat": 0.0}, {"type": "electric_scooter", "rental_uris": {"ios": "https://dc.lft.to/lastmile_qr_scan", "android": "https://dc.lft.to/lastmile_qr_scan"}, "lon": -77.0242165, "fusion_lon": 0.0, "is_disabled": 0, "lat": 38.92754983333333, "bike_id": "e11b4276796fb623ab2225c5eed6e046", "name": "e11b4276796fb623ab2225c5eed6e046", "is_reserved": 0, "fusion_lat": 0.0}, {"type": "electric_scooter", "rental_uris": {"ios": "https://dc.lft.to/lastmile_qr_scan", "android": "https://dc.lft.to/lastmile_qr_scan"}, "lon": -77.03419233333334, "fusion_lon": 0.0, "is_disabled": 0, "lat": 38.90978333333334, "bike_id": "83b72164f0dcd9a3585541f04cd8bcde", "name": "83b72164f0dcd9a3585541f04cd8bcde", "is_reserved": 0, "fusion_lat": 0.0}, {"type": "electric_scooter", "rental_uris": {"ios": "https://dc.lft.to/lastmile_qr_scan", "android": "https://dc.lft.to/lastmile_qr_scan"}, "lon": -77.032659, "fusion_lon": 0.0, "is_disabled": 0, "lat": 38.91992233333333, "bike_id": "2f893cbd99558cedd9cd34b19071b69b", "name": "2f893cbd99558cedd9cd34b19071b69b", "is_reserved": 0, "fusion_lat": 0.0}, {"type": "electric_scooter", "rental_uris": {"ios": "https://dc.lft.to/lastmile_qr_scan", "android": "https://dc.lft.to/lastmile_qr_scan"}, "lon": -77.045554, "fusion_lon": 0.0, "is_disabled": 0, "lat": 38.919269666666665, "bike_id": "6f9165dba7736917485c2d0729302fd1", "name": "6f9165dba7736917485c2d0729302fd1", "is_reserved": 0, "fusion_lat": 0.0}, {"type": "electric_scooter", "rental_uris": {"ios": "https://dc.lft.to/lastmile_qr_scan", "android": "https://dc.lft.to/lastmile_qr_scan"}, "lon": -77.0439045, "fusion_lon": 0.0, "is_disabled": 0, "lat": 38.90275966666667, "bike_id": "7757bceb1f0b81f94f701aa69c585b05", "name": "7757bceb1f0b81f94f701aa69c585b05", "is_reserved": 0, "fusion_lat": 0.0}, {"type": "electric_scooter", "rental_uris": {"ios": "https://dc.lft.to/lastmile_qr_scan", "android": "https://dc.lft.to/lastmile_qr_scan"}, "lon": -76.9852405, "fusion_lon": 0.0, "is_disabled": 0, "lat": 38.866870166666665, "bike_id": "559c76ef7bd8e44848b0f88d597e5342", "name": "559c76ef7bd8e44848b0f88d597e5342", "is_reserved": 0, "fusion_lat": 0.0}, {"type": "electric_scooter", "rental_uris": {"ios": "https://dc.lft.to/lastmile_qr_scan", "android": "https://dc.lft.to/lastmile_qr_scan"}, "lon": -77.03531783333334, "fusion_lon": 0.0, "is_disabled": 0, "lat": 38.92543, "bike_id": "d30ce2c51edb68354e4b904fb9948c51", "name": "d30ce2c51edb68354e4b904fb9948c51", "is_reserved": 0, "fusion_lat": 0.0}, {"type": "electric_scooter", "rental_uris": {"ios": "https://dc.lft.to/lastmile_qr_scan", "android": "https://dc.lft.to/lastmile_qr_scan"}, "lon": -77.02205383333333, "fusion_lon": 0.0, "is_disabled": 0, "lat": 38.915460333333336, "bike_id": "8cc32a88d283f3e3e592c796dec057f6", "name": "8cc32a88d283f3e3e592c796dec057f6", "is_reserved": 0, "fusion_lat": 0.0}, {"type": "electric_bike", "rental_uris": {"ios": "https://dc.lft.to/lastmile_qr_scan", "android": "https://dc.lft.to/lastmile_qr_scan"}, "lon": -77.125275, "fusion_lon": 0.0, "is_disabled": 0, "lat": 39.05633616666667, "bike_id": "f1824e21cba251e580bdf657774d8d3a", "name": "f1824e21cba251e580bdf657774d8d3a", "is_reserved": 0, "fusion_lat": 0.0}, {"type": "electric_scooter", "rental_uris": {"ios": "https://dc.lft.to/lastmile_qr_scan", "android": "https://dc.lft.to/lastmile_qr_scan"}, "lon": -77.03790466666666, "fusion_lon": 0.0, "is_disabled": 0, "lat": 38.91118783333334, "bike_id": "8927dc03d341d4bfb699508644efa786", "name": "8927dc03d341d4bfb699508644efa786", "is_reserved": 0, "fusion_lat": 0.0}, {"type": "electric_scooter", "rental_uris": {"ios": "https://dc.lft.to/lastmile_qr_scan", "android": "https://dc.lft.to/lastmile_qr_scan"}, "lon": -77.02222916666666, "fusion_lon": 0.0, "is_disabled": 0, "lat": 38.892257666666666, "bike_id": "04b368c36d518ee95da20feb5a0f619e", "name": "04b368c36d518ee95da20feb5a0f619e", "is_reserved": 0, "fusion_lat": 0.0}, {"type": "electric_scooter", "rental_uris": {"ios": "https://dc.lft.to/lastmile_qr_scan", "android": "https://dc.lft.to/lastmile_qr_scan"}, "lon": -76.98392233333334, "fusion_lon": 0.0, "is_disabled": 0, "lat": 38.880876666666666, "bike_id": "f19e4ca334ccfe973f4e383e2844a7c6", "name": "f19e4ca334ccfe973f4e383e2844a7c6", "is_reserved": 0, "fusion_lat": 0.0}, {"type": "electric_scooter", "rental_uris": {"ios": "https://dc.lft.to/lastmile_qr_scan", "android": "https://dc.lft.to/lastmile_qr_scan"}, "lon": -77.01177733333333, "fusion_lon": 0.0, "is_disabled": 0, "lat": 38.91564416666667, "bike_id": "aa5717521e800b535ad7be2c143e3897", "name": "aa5717521e800b535ad7be2c143e3897", "is_reserved": 0, "fusion_lat": 0.0}, {"type": "electric_scooter", "rental_uris": {"ios": "https://dc.lft.to/lastmile_qr_scan", "android": "https://dc.lft.to/lastmile_qr_scan"}, "lon": -76.9465565, "fusion_lon": 0.0, "is_disabled": 0, "lat": 38.89827016666667, "bike_id": "5a6c5061adf4a240a248ec8ef551f9f3", "name": "5a6c5061adf4a240a248ec8ef551f9f3", "is_reserved": 0, "fusion_lat": 0.0}, {"type": "electric_scooter", "rental_uris": {"ios": "https://dc.lft.to/lastmile_qr_scan", "android": "https://dc.lft.to/lastmile_qr_scan"}, "lon": -77.03177283333333, "fusion_lon": 0.0, "is_disabled": 0, "lat": 38.9186465, "bike_id": "7ea2eb5782fb705527c3c92daf57d9c3", "name": "7ea2eb5782fb705527c3c92daf57d9c3", "is_reserved": 0, "fusion_lat": 0.0}, {"type": "electric_scooter", "rental_uris": {"ios": "https://dc.lft.to/lastmile_qr_scan", "android": "https://dc.lft.to/lastmile_qr_scan"}, "lon": -77.02620166666667, "fusion_lon": 0.0, "is_disabled": 0, "lat": 38.90173083333333, "bike_id": "6e38519bfaad476ba825e40f8d649ff5", "name": "6e38519bfaad476ba825e40f8d649ff5", "is_reserved": 0, "fusion_lat": 0.0}, {"type": "electric_scooter", "rental_uris": {"ios": "https://dc.lft.to/lastmile_qr_scan", "android": "https://dc.lft.to/lastmile_qr_scan"}, "lon": -77.01537966666666, "fusion_lon": 0.0, "is_disabled": 0, "lat": 38.88738633333333, "bike_id": "3691abf35636d4f09cafc4a5a636bf82", "name": "3691abf35636d4f09cafc4a5a636bf82", "is_reserved": 0, "fusion_lat": 0.0}, {"type": "electric_scooter", "rental_uris": {"ios": "https://dc.lft.to/lastmile_qr_scan", "android": "https://dc.lft.to/lastmile_qr_scan"}, "lon": -77.03640133333333, "fusion_lon": 0.0, "is_disabled": 0, "lat": 38.917644, "bike_id": "8e870b3def97ef1913a2ad12b5b23cb2", "name": "8e870b3def97ef1913a2ad12b5b23cb2", "is_reserved": 0, "fusion_lat": 0.0}, {"type": "electric_scooter", "rental_uris": {"ios": "https://dc.lft.to/lastmile_qr_scan", "android": "https://dc.lft.to/lastmile_qr_scan"}, "lon": -77.03078033333334, "fusion_lon": 0.0, "is_disabled": 0, "lat": 38.91759533333333, "bike_id": "8e1437d4f47063cf4805076954eaf18f", "name": "8e1437d4f47063cf4805076954eaf18f", "is_reserved": 0, "fusion_lat": 0.0}, {"type": "electric_scooter", "rental_uris": {"ios": "https://dc.lft.to/lastmile_qr_scan", "android": "https://dc.lft.to/lastmile_qr_scan"}, "lon": -77.0335495, "fusion_lon": 0.0, "is_disabled": 0, "lat": 38.91711766666667, "bike_id": "c813212db1d629e3dae7ff86f5728e24", "name": "c813212db1d629e3dae7ff86f5728e24", "is_reserved": 0, "fusion_lat": 0.0}, {"type": "electric_scooter", "rental_uris": {"ios": "https://dc.lft.to/lastmile_qr_scan", "android": "https://dc.lft.to/lastmile_qr_scan"}, "lon": -77.01372716666667, "fusion_lon": 0.0, "is_disabled": 0, "lat": 38.892201166666666, "bike_id": "5e60065a70dcf65f27561151247ddf68", "name": "5e60065a70dcf65f27561151247ddf68", "is_reserved": 0, "fusion_lat": 0.0}, {"type": "electric_scooter", "rental_uris": {"ios": "https://dc.lft.to/lastmile_qr_scan", "android": "https://dc.lft.to/lastmile_qr_scan"}, "lon": -77.03626183333333, "fusion_lon": 0.0, "is_disabled": 0, "lat": 38.936873166666665, "bike_id": "7c971e654acdd2805e24d55d23714869", "name": "7c971e654acdd2805e24d55d23714869", "is_reserved": 0, "fusion_lat": 0.0}, {"type": "electric_scooter", "rental_uris": {"ios": "https://dc.lft.to/lastmile_qr_scan", "android": "https://dc.lft.to/lastmile_qr_scan"}, "lon": -76.9702135, "fusion_lon": 0.0, "is_disabled": 0, "lat": 38.92034666666667, "bike_id": "63941ddd2564e99b7dd9f5a3b3950478", "name": "63941ddd2564e99b7dd9f5a3b3950478", "is_reserved": 0, "fusion_lat": 0.0}, {"type": "electric_scooter", "rental_uris": {"ios": "https://dc.lft.to/lastmile_qr_scan", "android": "https://dc.lft.to/lastmile_qr_scan"}, "lon": -77.05051366666666, "fusion_lon": 0.0, "is_disabled": 0, "lat": 38.923668666666664, "bike_id": "e2e0742a01d96ca74720e7646783c6d9", "name": "e2e0742a01d96ca74720e7646783c6d9", "is_reserved": 0, "fusion_lat": 0.0}, {"type": "electric_scooter", "rental_uris": {"ios": "https://dc.lft.to/lastmile_qr_scan", "android": "https://dc.lft.to/lastmile_qr_scan"}, "lon": -77.0222185, "fusion_lon": 0.0, "is_disabled": 0, "lat": 38.892219, "bike_id": "15e57cff922d5cb249b387ac55f02c25", "name": "15e57cff922d5cb249b387ac55f02c25", "is_reserved": 0, "fusion_lat": 0.0}, {"type": "electric_scooter", "rental_uris": {"ios": "https://dc.lft.to/lastmile_qr_scan", "android": "https://dc.lft.to/lastmile_qr_scan"}, "lon": -77.0309695, "fusion_lon": 0.0, "is_disabled": 0, "lat": 38.901233500000004, "bike_id": "1816843f1da05da2a0f6f3f881bda71d", "name": "1816843f1da05da2a0f6f3f881bda71d", "is_reserved": 0, "fusion_lat": 0.0}, {"type": "electric_bike", "rental_uris": {"ios": "https://dc.lft.to/lastmile_qr_scan", "android": "https://dc.lft.to/lastmile_qr_scan"}, "lon": -77.02718816666666, "fusion_lon": 0.0, "is_disabled": 0, "lat": 38.922992, "bike_id": "9f4997aeec003e6407ba78fbb5e66430", "name": "9f4997aeec003e6407ba78fbb5e66430", "is_reserved": 0, "fusion_lat": 0.0}, {"type": "electric_scooter", "rental_uris": {"ios": "https://dc.lft.to/lastmile_qr_scan", "android": "https://dc.lft.to/lastmile_qr_scan"}, "lon": -77.03036683333333, "fusion_lon": 0.0, "is_disabled": 0, "lat": 38.92680333333333, "bike_id": "dfe5102e184a1a7bb7ea0540e02b064f", "name": "dfe5102e184a1a7bb7ea0540e02b064f", "is_reserved": 0, "fusion_lat": 0.0}, {"type": "electric_scooter", "rental_uris": {"ios": "https://dc.lft.to/lastmile_qr_scan", "android": "https://dc.lft.to/lastmile_qr_scan"}, "lon": -77.024246, "fusion_lon": 0.0, "is_disabled": 0, "lat": 38.92656233333334, "bike_id": "bc115962849b9c3d79d96ab304cd1b88", "name": "bc115962849b9c3d79d96ab304cd1b88", "is_reserved": 0, "fusion_lat": 0.0}, {"type": "electric_scooter", "rental_uris": {"ios": "https://dc.lft.to/lastmile_qr_scan", "android": "https://dc.lft.to/lastmile_qr_scan"}, "lon": -77.01044216666666, "fusion_lon": 0.0, "is_disabled": 0, "lat": 38.86661933333333, "bike_id": "f45a841e7a1d7a7270110983e9c772b0", "name": "f45a841e7a1d7a7270110983e9c772b0", "is_reserved": 0, "fusion_lat": 0.0}, {"type": "electric_scooter", "rental_uris": {"ios": "https://dc.lft.to/lastmile_qr_scan", "android": "https://dc.lft.to/lastmile_qr_scan"}, "lon": -77.04027666666667, "fusion_lon": 0.0, "is_disabled": 0, "lat": 38.9306335, "bike_id": "3b6cd86ca16ed7d88d4600a714596147", "name": "3b6cd86ca16ed7d88d4600a714596147", "is_reserved": 0, "fusion_lat": 0.0}, {"type": "electric_scooter", "rental_uris": {"ios": "https://dc.lft.to/lastmile_qr_scan", "android": "https://dc.lft.to/lastmile_qr_scan"}, "lon": -77.02449316666667, "fusion_lon": 0.0, "is_disabled": 0, "lat": 38.91884866666667, "bike_id": "d01ee2f41aad1afb519460f91bc6ba35", "name": "d01ee2f41aad1afb519460f91bc6ba35", "is_reserved": 0, "fusion_lat": 0.0}, {"type": "electric_scooter", "rental_uris": {"ios": "https://dc.lft.to/lastmile_qr_scan", "android": "https://dc.lft.to/lastmile_qr_scan"}, "lon": -77.02985416666667, "fusion_lon": 0.0, "is_disabled": 0, "lat": 38.905079666666666, "bike_id": "efbf1d5639092addd01586131b103eee", "name": "efbf1d5639092addd01586131b103eee", "is_reserved": 0, "fusion_lat": 0.0}, {"type": "electric_scooter", "rental_uris": {"ios": "https://dc.lft.to/lastmile_qr_scan", "android": "https://dc.lft.to/lastmile_qr_scan"}, "lon": -77.02292366666667, "fusion_lon": 0.0, "is_disabled": 0, "lat": 38.9161305, "bike_id": "5554381149d449846c9e82d7de8c1974", "name": "5554381149d449846c9e82d7de8c1974", "is_reserved": 0, "fusion_lat": 0.0}, {"type": "electric_scooter", "rental_uris": {"ios": "https://dc.lft.to/lastmile_qr_scan", "android": "https://dc.lft.to/lastmile_qr_scan"}, "lon": -77.01977783333334, "fusion_lon": 0.0, "is_disabled": 0, "lat": 38.92925533333333, "bike_id": "9b1eeb483ee14a353b8e2d19512ca176", "name": "9b1eeb483ee14a353b8e2d19512ca176", "is_reserved": 0, "fusion_lat": 0.0}, {"type": "electric_scooter", "rental_uris": {"ios": "https://dc.lft.to/lastmile_qr_scan", "android": "https://dc.lft.to/lastmile_qr_scan"}, "lon": -76.98691283333334, "fusion_lon": 0.0, "is_disabled": 0, "lat": 38.86723766666667, "bike_id": "b544c66eea45ee8d84575a8eaeae2e34", "name": "b544c66eea45ee8d84575a8eaeae2e34", "is_reserved": 0, "fusion_lat": 0.0}, {"type": "electric_scooter", "rental_uris": {"ios": "https://dc.lft.to/lastmile_qr_scan", "android": "https://dc.lft.to/lastmile_qr_scan"}, "lon": -77.03372133333333, "fusion_lon": 0.0, "is_disabled": 0, "lat": 38.8992145, "bike_id": "4b002378187266904bfd42ddb6bcb669", "name": "4b002378187266904bfd42ddb6bcb669", "is_reserved": 0, "fusion_lat": 0.0}, {"type": "electric_scooter", "rental_uris": {"ios": "https://dc.lft.to/lastmile_qr_scan", "android": "https://dc.lft.to/lastmile_qr_scan"}, "lon": -77.0350895, "fusion_lon": 0.0, "is_disabled": 0, "lat": 38.9214915, "bike_id": "17689613c9ef64a939dd43a820a9bb85", "name": "17689613c9ef64a939dd43a820a9bb85", "is_reserved": 0, "fusion_lat": 0.0}, {"type": "electric_scooter", "rental_uris": {"ios": "https://dc.lft.to/lastmile_qr_scan", "android": "https://dc.lft.to/lastmile_qr_scan"}, "lon": -77.0024995, "fusion_lon": 0.0, "is_disabled": 0, "lat": 38.9086155, "bike_id": "30cb9260b3ec2a1d31029fa40a616dbf", "name": "30cb9260b3ec2a1d31029fa40a616dbf", "is_reserved": 0, "fusion_lat": 0.0}, {"type": "electric_scooter", "rental_uris": {"ios": "https://dc.lft.to/lastmile_qr_scan", "android": "https://dc.lft.to/lastmile_qr_scan"}, "lon": -77.02952583333334, "fusion_lon": 0.0, "is_disabled": 0, "lat": 38.93243733333333, "bike_id": "97c21ce5b1fb080aa752ff67d7ca95dd", "name": "97c21ce5b1fb080aa752ff67d7ca95dd", "is_reserved": 0, "fusion_lat": 0.0}, {"type": "electric_scooter", "rental_uris": {"ios": "https://dc.lft.to/lastmile_qr_scan", "android": "https://dc.lft.to/lastmile_qr_scan"}, "lon": -77.02723033333334, "fusion_lon": 0.0, "is_disabled": 0, "lat": 38.90679183333334, "bike_id": "be02cfcce91fc99c1007440d6178515a", "name": "be02cfcce91fc99c1007440d6178515a", "is_reserved": 0, "fusion_lat": 0.0}, {"type": "electric_scooter", "rental_uris": {"ios": "https://dc.lft.to/lastmile_qr_scan", "android": "https://dc.lft.to/lastmile_qr_scan"}, "lon": -77.0259535, "fusion_lon": 0.0, "is_disabled": 0, "lat": 38.91413566666667, "bike_id": "6109ea5f625754543da5247d413a7407", "name": "6109ea5f625754543da5247d413a7407", "is_reserved": 0, "fusion_lat": 0.0}, {"type": "electric_bike", "rental_uris": {"ios": "https://dc.lft.to/lastmile_qr_scan", "android": "https://dc.lft.to/lastmile_qr_scan"}, "lon": -76.9935235, "fusion_lon": 0.0, "is_disabled": 0, "lat": 38.84509283333333, "bike_id": "9385145a6b94b5d4e360cc4465215034", "name": "9385145a6b94b5d4e360cc4465215034", "is_reserved": 0, "fusion_lat": 0.0}, {"type": "electric_scooter", "rental_uris": {"ios": "https://dc.lft.to/lastmile_qr_scan", "android": "https://dc.lft.to/lastmile_qr_scan"}, "lon": -77.03121566666667, "fusion_lon": 0.0, "is_disabled": 0, "lat": 38.93765116666667, "bike_id": "c0beff02014ba6376d4ae1e1fafa4300", "name": "c0beff02014ba6376d4ae1e1fafa4300", "is_reserved": 0, "fusion_lat": 0.0}, {"type": "electric_scooter", "rental_uris": {"ios": "https://dc.lft.to/lastmile_qr_scan", "android": "https://dc.lft.to/lastmile_qr_scan"}, "lon": -76.99829166666666, "fusion_lon": 0.0, "is_disabled": 0, "lat": 38.88533066666667, "bike_id": "051b329b430b5a810e4b6c81d6dc3c64", "name": "051b329b430b5a810e4b6c81d6dc3c64", "is_reserved": 0, "fusion_lat": 0.0}, {"type": "electric_scooter", "rental_uris": {"ios": "https://dc.lft.to/lastmile_qr_scan", "android": "https://dc.lft.to/lastmile_qr_scan"}, "lon": -77.05278683333333, "fusion_lon": 0.0, "is_disabled": 0, "lat": 38.92545583333333, "bike_id": "a66b995a1fe4c7c128aa25f39b49f97e", "name": "a66b995a1fe4c7c128aa25f39b49f97e", "is_reserved": 0, "fusion_lat": 0.0}, {"type": "electric_scooter", "rental_uris": {"ios": "https://dc.lft.to/lastmile_qr_scan", "android": "https://dc.lft.to/lastmile_qr_scan"}, "lon": -77.03648483333333, "fusion_lon": 0.0, "is_disabled": 0, "lat": 38.92348116666667, "bike_id": "b9723f9bb0bc3b8b99b5337370f80a7d", "name": "b9723f9bb0bc3b8b99b5337370f80a7d", "is_reserved": 0, "fusion_lat": 0.0}, {"type": "electric_scooter", "rental_uris": {"ios": "https://dc.lft.to/lastmile_qr_scan", "android": "https://dc.lft.to/lastmile_qr_scan"}, "lon": -77.02800633333334, "fusion_lon": 0.0, "is_disabled": 0, "lat": 38.953965, "bike_id": "040d70ee0372652c954059b191af4ddc", "name": "040d70ee0372652c954059b191af4ddc", "is_reserved": 0, "fusion_lat": 0.0}, {"type": "electric_scooter", "rental_uris": {"ios": "https://dc.lft.to/lastmile_qr_scan", "android": "https://dc.lft.to/lastmile_qr_scan"}, "lon": -77.0415475, "fusion_lon": 0.0, "is_disabled": 0, "lat": 38.905103833333335, "bike_id": "530cfc5dfca2a9a5586a31c2675b3bd0", "name": "530cfc5dfca2a9a5586a31c2675b3bd0", "is_reserved": 0, "fusion_lat": 0.0}, {"type": "electric_scooter", "rental_uris": {"ios": "https://dc.lft.to/lastmile_qr_scan", "android": "https://dc.lft.to/lastmile_qr_scan"}, "lon": -77.027503, "fusion_lon": 0.0, "is_disabled": 0, "lat": 38.95775416666667, "bike_id": "2057d6603e2efe3ceff0c8deb82f7327", "name": "2057d6603e2efe3ceff0c8deb82f7327", "is_reserved": 0, "fusion_lat": 0.0}, {"type": "electric_scooter", "rental_uris": {"ios": "https://dc.lft.to/lastmile_qr_scan", "android": "https://dc.lft.to/lastmile_qr_scan"}, "lon": -77.04172683333333, "fusion_lon": 0.0, "is_disabled": 0, "lat": 38.9201235, "bike_id": "c0d90c24c922d51d70e7dde1358e249e", "name": "c0d90c24c922d51d70e7dde1358e249e", "is_reserved": 0, "fusion_lat": 0.0}, {"type": "electric_scooter", "rental_uris": {"ios": "https://dc.lft.to/lastmile_qr_scan", "android": "https://dc.lft.to/lastmile_qr_scan"}, "lon": -77.04153833333334, "fusion_lon": 0.0, "is_disabled": 0, "lat": 38.89223616666666, "bike_id": "36d89d8ad9f28e4a822c3137e470683d", "name": "36d89d8ad9f28e4a822c3137e470683d", "is_reserved": 0, "fusion_lat": 0.0}, {"type": "electric_scooter", "rental_uris": {"ios": "https://dc.lft.to/lastmile_qr_scan", "android": "https://dc.lft.to/lastmile_qr_scan"},