{"data": {"bikes": [{"is_reserved": 0, "is_disabled": 0, "fusion_lon": 0.0, "lat": 38.923403, "name": "9c107e3f26609d72d067b9636b5ae0be", "bike_id": "9c107e3f26609d72d067b9636b5ae0be", "lon": -77.03531816666667, "fusion_lat": 0.0, "rental_uris": {"android": "https://dc.lft.to/lastmile_qr_scan", "ios": "https://dc.lft.to/lastmile_qr_scan"}, "type": "electric_scooter"}, {"is_reserved": 0, "is_disabled": 0, "fusion_lon": 0.0, "lat": 38.915064666666666, "name": "9141de50022125df4964b95a450f0af8", "bike_id": "9141de50022125df4964b95a450f0af8", "lon": -77.03824633333333, "fusion_lat": 0.0, "rental_uris": {"android": "https://dc.lft.to/lastmile_qr_scan", "ios": "https://dc.lft.to/lastmile_qr_scan"}, "type": "electric_scooter"}, {"is_reserved": 0, "is_disabled": 0, "fusion_lon": 0.0, "lat": 38.921543666666665, "name": "06be79747527f973af0a5542991b0f6b", "bike_id": "06be79747527f973af0a5542991b0f6b", "lon": -77.034397, "fusion_lat": 0.0, "rental_uris": {"android": "https://dc.lft.to/lastmile_qr_scan", "ios": "https://dc.lft.to/lastmile_qr_scan"}, "type": "electric_scooter"}, {"is_reserved": 0, "is_disabled": 0, "fusion_lon": 0.0, "lat": 38.907305, "name": "201b177b98fab24a15573b06df240b3f", "bike_id": "201b177b98fab24a15573b06df240b3f", "lon": -77.04545883333333, "fusion_lat": 0.0, "rental_uris": {"android": "https://dc.lft.to/lastmile_qr_scan", "ios": "https://dc.lft.to/lastmile_qr_scan"}, "type": "electric_scooter"}, {"is_reserved": 0, "is_disabled": 0, "fusion_lon": 0.0, "lat": 38.90852433333333, "name": "e07681c28f91b1965f1a954347d8e7eb", "bike_id": "e07681c28f91b1965f1a954347d8e7eb", "lon": -76.99798483333333, "fusion_lat": 0.0, "rental_uris": {"android": "https://dc.lft.to/lastmile_qr_scan", "ios": "https://dc.lft.to/lastmile_qr_scan"}, "type": "electric_scooter"}, {"is_reserved": 0, "is_disabled": 0, "fusion_lon": 0.0, "lat": 38.99501766666667, "name": "8132c6c662209cef934a69ba0a0a52c2", "bike_id": "8132c6c662209cef934a69ba0a0a52c2", "lon": -77.02876916666666, "fusion_lat": 0.0, "rental_uris": {"android": "https://dc.lft.to/lastmile_qr_scan", "ios": "https://dc.lft.to/lastmile_qr_scan"}, "type": "electric_bike"}, {"is_reserved": 0, "is_disabled": 0, "fusion_lon": 0.0, "lat": 38.919702, "name": "2c95747252494814ecba3ab52661cc7a", "bike_id": "2c95747252494814ecba3ab52661cc7a", "lon": -77.0712195, "fusion_lat": 0.0, "rental_uris": {"android": "https://dc.lft.to/lastmile_qr_scan", "ios": "https://dc.lft.to/lastmile_qr_scan"}, "type": "electric_scooter"}, {"is_reserved": 0, "is_disabled": 0, "fusion_lon": 0.0, "lat": 38.92341916666667, "name": "cd2ccfcf6eef69f1346cac5034b28991", "bike_id": "cd2ccfcf6eef69f1346cac5034b28991", "lon": -77.0190255, "fusion_lat": 0.0, "rental_uris": {"android": "https://dc.lft.to/lastmile_qr_scan", "ios": "https://dc.lft.to/lastmile_qr_scan"}, "type": "electric_scooter"}, {"is_reserved": 0, "is_disabled": 0, "fusion_lon": 0.0, "lat": 38.92419666666667, "name": "8a66d6af250460de589eda342abbfa90", "bike_id": "8a66d6af250460de589eda342abbfa90", "lon": -77.0201935, "fusion_lat": 0.0, "rental_uris": {"android": "https://dc.lft.to/lastmile_qr_scan", "ios": "https://dc.lft.to/lastmile_qr_scan"}, "type": "electric_scooter"}, {"is_reserved": 0, "is_disabled": 0, "fusion_lon": 0.0, "lat": 38.91925283333333, "name": "ce7f527e0fac764e3ac63eec882ced72", "bike_id": "ce7f527e0fac764e3ac63eec882ced72", "lon": -77.03489383333333, "fusion_lat": 0.0, "rental_uris": {"android": "https://dc.lft.to/lastmile_qr_scan", "ios": "https://dc.lft.to/lastmile_qr_scan"}, "type": "electric_scooter"}, {"is_reserved": 0, "is_disabled": 0, "fusion_lon": 0.0, "lat": 38.884768333333334, "name": "2c013fc02cc89d0e1f87ffb1434039ff", "bike_id": "2c013fc02cc89d0e1f87ffb1434039ff", "lon": -77.02644133333334, "fusion_lat": 0.0, "rental_uris": {"android": "https://dc.lft.to/lastmile_qr_scan", "ios": "https://dc.lft.to/lastmile_qr_scan"}, "type": "electric_scooter"}, {"is_reserved": 0, "is_disabled": 0, "fusion_lon": 0.0, "lat": 38.91909166666667, "name": "f09b9413993dfe9af716f835b6bcb5b6", "bike_id": "f09b9413993dfe9af716f835b6bcb5b6", "lon": -77.02948083333334, "fusion_lat": 0.0, "rental_uris": {"android": "https://dc.lft.to/lastmile_qr_scan", "ios": "https://dc.lft.to/lastmile_qr_scan"}, "type": "electric_scooter"}, {"is_reserved": 0, "is_disabled": 0, "fusion_lon": 0.0, "lat": 38.929914833333335, "name": "51e4d73d2af2d804d209c73c12d71f7e", "bike_id": "51e4d73d2af2d804d209c73c12d71f7e", "lon": -77.01205, "fusion_lat": 0.0, "rental_uris": {"android": "https://dc.lft.to/lastmile_qr_scan", "ios": "https://dc.lft.to/lastmile_qr_scan"}, "type": "electric_scooter"}, {"is_reserved": 0, "is_disabled": 0, "fusion_lon": 0.0, "lat": 38.90400833333333, "name": "9661330907562989c5edd5a6a462414e", "bike_id": "9661330907562989c5edd5a6a462414e", "lon": -77.01857816666667, "fusion_lat": 0.0, "rental_uris": {"android": "https://dc.lft.to/lastmile_qr_scan", "ios": "https://dc.lft.to/lastmile_qr_scan"}, "type": "electric_scooter"}, {"is_reserved": 0, "is_disabled": 0, "fusion_lon": 0.0, "lat": 38.897254333333336, "name": "0ffa661b63cadc2f7809fca1913190ca", "bike_id": "0ffa661b63cadc2f7809fca1913190ca", "lon": -77.03229766666666, "fusion_lat": 0.0, "rental_uris": {"android": "https://dc.lft.to/lastmile_qr_scan", "ios": "https://dc.lft.to/lastmile_qr_scan"}, "type": "electric_scooter"}, {"is_reserved": 0, "is_disabled": 0, "fusion_lon": 0.0, "lat": 38.9126435, "name": "e9b370e4ca19e694e1f2d21108cab040", "bike_id": "e9b370e4ca19e694e1f2d21108cab040", "lon": -77.03276233333334, "fusion_lat": 0.0, "rental_uris": {"android": "https://dc.lft.to/lastmile_qr_scan", "ios": "https://dc.lft.to/lastmile_qr_scan"}, "type": "electric_scooter"}, {"is_reserved": 0, "is_disabled": 0, "fusion_lon": 0.0, "lat": 38.9169315, "name": "d26baea3395f6a327365ace7e82d20d8", "bike_id": "d26baea3395f6a327365ace7e82d20d8", "lon": -77.02934033333334, "fusion_lat": 0.0, "rental_uris": {"android": "https://dc.lft.to/lastmile_qr_scan", "ios": "https://dc.lft.to/lastmile_qr_scan"}, "type": "electric_scooter"}, {"is_reserved": 0, "is_disabled": 0, "fusion_lon": 0.0, "lat": 38.88136, "name": "c63b3852b9f13fcc47c8ae66c75d62e2", "bike_id": "c63b3852b9f13fcc47c8ae66c75d62e2", "lon": -77.02272033333334, "fusion_lat": 0.0, "rental_uris": {"android": "https://dc.lft.to/lastmile_qr_scan", "ios": "https://dc.lft.to/lastmile_qr_scan"}, "type": "electric_scooter"}, {"is_reserved": 0, "is_disabled": 0, "fusion_lon": 0.0, "lat": 38.88877766666667, "name": "358245ecaf068d745cf673f30eec561d", "bike_id": "358245ecaf068d745cf673f30eec561d", "lon": -76.98672333333333, "fusion_lat": 0.0, "rental_uris": {"android": "https://dc.lft.to/lastmile_qr_scan", "ios": "https://dc.lft.to/lastmile_qr_scan"}, "type": "electric_scooter"}, {"is_reserved": 0, "is_disabled": 0, "fusion_lon": 0.0, "lat": 38.902741, "name": "5c903c1552fdcf4051130352e3705386", "bike_id": "5c903c1552fdcf4051130352e3705386", "lon": -77.060014, "fusion_lat": 0.0, "rental_uris": {"android": "https://dc.lft.to/lastmile_qr_scan", "ios": "https://dc.lft.to/lastmile_qr_scan"}, "type": "electric_scooter"}, {"is_reserved": 0, "is_disabled": 0, "fusion_lon": 0.0, "lat": 38.923091666666664, "name": "90adb9bb88a4ad88ef584a84f6a6d05e", "bike_id": "90adb9bb88a4ad88ef584a84f6a6d05e", "lon": -77.03107416666667, "fusion_lat": 0.0, "rental_uris": {"android": "https://dc.lft.to/lastmile_qr_scan", "ios": "https://dc.lft.to/lastmile_qr_scan"}, "type": "electric_scooter"}, {"is_reserved": 0, "is_disabled": 0, "fusion_lon": 0.0, "lat": 38.93309383333333, "name": "591b284de18f4dbf73e5a2731b4a35c5", "bike_id": "591b284de18f4dbf73e5a2731b4a35c5", "lon": -77.0307605, "fusion_lat": 0.0, "rental_uris": {"android": "https://dc.lft.to/lastmile_qr_scan", "ios": "https://dc.lft.to/lastmile_qr_scan"}, "type": "electric_scooter"}, {"is_reserved": 0, "is_disabled": 0, "fusion_lon": 0.0, "lat": 38.92463816666667, "name": "d6d30af4ce7f8b7f1532f693334d077b", "bike_id": "d6d30af4ce7f8b7f1532f693334d077b", "lon": -77.02717333333334, "fusion_lat": 0.0, "rental_uris": {"android": "https://dc.lft.to/lastmile_qr_scan", "ios": "https://dc.lft.to/lastmile_qr_scan"}, "type": "electric_scooter"}, {"is_reserved": 0, "is_disabled": 0, "fusion_lon": 0.0, "lat": 38.907155833333334, "name": "e46cee51989db942fa0e166f70d2a722", "bike_id": "e46cee51989db942fa0e166f70d2a722", "lon": -77.03226216666667, "fusion_lat": 0.0, "rental_uris": {"android": "https://dc.lft.to/lastmile_qr_scan", "ios": "https://dc.lft.to/lastmile_qr_scan"}, "type": "electric_scooter"}, {"is_reserved": 0, "is_disabled": 0, "fusion_lon": 0.0, "lat": 38.898552, "name": "cd655b2fc3907bf880b47f9b3d2c38e3", "bike_id": "cd655b2fc3907bf880b47f9b3d2c38e3", "lon": -76.931881, "fusion_lat": 0.0, "rental_uris": {"android": "https://dc.lft.to/lastmile_qr_scan", "ios": "https://dc.lft.to/lastmile_qr_scan"}, "type": "electric_bike"}, {"is_reserved": 0, "is_disabled": 0, "fusion_lon": 0.0, "lat": 38.90265383333333, "name": "416c50cdcb2780599bd19d371c8bb863", "bike_id": "416c50cdcb2780599bd19d371c8bb863", "lon": -77.017506, "fusion_lat": 0.0, "rental_uris": {"android": "https://dc.lft.to/lastmile_qr_scan", "ios": "https://dc.lft.to/lastmile_qr_scan"}, "type": "electric_scooter"}, {"is_reserved": 0, "is_disabled": 0, "fusion_lon": 0.0, "lat": 38.935906, "name": "a8fc6f3dac65dfb108d7a38d853f63f3", "bike_id": "a8fc6f3dac65dfb108d7a38d853f63f3", "lon": -77.05839683333333, "fusion_lat": 0.0, "rental_uris": {"android": "https://dc.lft.to/lastmile_qr_scan", "ios": "https://dc.lft.to/lastmile_qr_scan"}, "type": "electric_scooter"}, {"is_reserved": 0, "is_disabled": 0, "fusion_lon": 0.0, "lat": 38.9535465, "name": "b8a9fb6916f5cd9fd66efadc1aeddb23", "bike_id": "b8a9fb6916f5cd9fd66efadc1aeddb23", "lon": -76.98095733333334, "fusion_lat": 0.0, "rental_uris": {"android": "https://dc.lft.to/lastmile_qr_scan", "ios": "https://dc.lft.to/lastmile_qr_scan"}, "type": "electric_bike"}, {"is_reserved": 0, "is_disabled": 0, "fusion_lon": 0.0, "lat": 38.916636833333335, "name": "b8c4533842d0f5d11cbbeb4efba34a38", "bike_id": "b8c4533842d0f5d11cbbeb4efba34a38", "lon": -77.03845783333334, "fusion_lat": 0.0, "rental_uris": {"android": "https://dc.lft.to/lastmile_qr_scan", "ios": "https://dc.lft.to/lastmile_qr_scan"}, "type": "electric_scooter"}, {"is_reserved": 0, "is_disabled": 0, "fusion_lon": 0.0, "lat": 38.88786733333333, "name": "751ede5387fc91c279f545dca97dcf90", "bike_id": "751ede5387fc91c279f545dca97dcf90", "lon": -77.01595933333333, "fusion_lat": 0.0, "rental_uris": {"android": "https://dc.lft.to/lastmile_qr_scan", "ios": "https://dc.lft.to/lastmile_qr_scan"}, "type": "electric_scooter"}, {"is_reserved": 0, "is_disabled": 0, "fusion_lon": 0.0, "lat": 38.903698166666665, "name": "b65ce0fd5788f3545365d7a5be30af13", "bike_id": "b65ce0fd5788f3545365d7a5be30af13", "lon": -77.017609, "fusion_lat": 0.0, "rental_uris": {"android": "https://dc.lft.to/lastmile_qr_scan", "ios": "https://dc.lft.to/lastmile_qr_scan"}, "type": "electric_scooter"}, {"is_reserved": 0, "is_disabled": 0, "fusion_lon": 0.0, "lat": 38.89501516666667, "name": "911ae131752d907c894801b2e84e1b92", "bike_id": "911ae131752d907c894801b2e84e1b92", "lon": -77.0229385, "fusion_lat": 0.0, "rental_uris": {"android": "https://dc.lft.to/lastmile_qr_scan", "ios": "https://dc.lft.to/lastmile_qr_scan"}, "type": "electric_scooter"}, {"is_reserved": 0, "is_disabled": 0, "fusion_lon": 0.0, "lat": 38.936570333333336, "name": "aa955bf9a90d5615ace49bfa6511cf5e", "bike_id": "aa955bf9a90d5615ace49bfa6511cf5e", "lon": -76.99353066666667, "fusion_lat": 0.0, "rental_uris": {"android": "https://dc.lft.to/lastmile_qr_scan", "ios": "https://dc.lft.to/lastmile_qr_scan"}, "type": "electric_scooter"}, {"is_reserved": 0, "is_disabled": 0, "fusion_lon": 0.0, "lat": 38.917130666666665, "name": "bd5444ced6025b4fcc6d0fbe0f032cb3", "bike_id": "bd5444ced6025b4fcc6d0fbe0f032cb3", "lon": -77.0334915, "fusion_lat": 0.0, "rental_uris": {"android": "https://dc.lft.to/lastmile_qr_scan", "ios": "https://dc.lft.to/lastmile_qr_scan"}, "type": "electric_scooter"}, {"is_reserved": 0, "is_disabled": 0, "fusion_lon": 0.0, "lat": 38.926882, "name": "dfdbf1449bf48a58db76751e36590a22", "bike_id": "dfdbf1449bf48a58db76751e36590a22", "lon": -77.02964033333333, "fusion_lat": 0.0, "rental_uris": {"android": "https://dc.lft.to/lastmile_qr_scan", "ios": "https://dc.lft.to/lastmile_qr_scan"}, "type": "electric_scooter"}, {"is_reserved": 0, "is_disabled": 0, "fusion_lon": 0.0, "lat": 38.907321333333336, "name": "aa98fc32bb94479e2d587e5a5536f6b8", "bike_id": "aa98fc32bb94479e2d587e5a5536f6b8", "lon": -77.02806316666667, "fusion_lat": 0.0, "rental_uris": {"android": "https://dc.lft.to/lastmile_qr_scan", "ios": "https://dc.lft.to/lastmile_qr_scan"}, "type": "electric_scooter"}, {"is_reserved": 0, "is_disabled": 0, "fusion_lon": 0.0, "lat": 38.87469216666667, "name": "615e0a4380771423dff229ecb03a6436", "bike_id": "615e0a4380771423dff229ecb03a6436", "lon": -77.00510433333334, "fusion_lat": 0.0, "rental_uris": {"android": "https://dc.lft.to/lastmile_qr_scan", "ios": "https://dc.lft.to/lastmile_qr_scan"}, "type": "electric_scooter"}, {"is_reserved": 0, "is_disabled": 0, "fusion_lon": 0.0, "lat": 38.923855, "name": "095a4cf35d6814f033dcbafbf6d945b3", "bike_id": "095a4cf35d6814f033dcbafbf6d945b3", "lon": -77.036642, "fusion_lat": 0.0, "rental_uris": {"android": "https://dc.lft.to/lastmile_qr_scan", "ios": "https://dc.lft.to/lastmile_qr_scan"}, "type": "electric_scooter"}, {"is_reserved": 0, "is_disabled": 0, "fusion_lon": 0.0, "lat": 38.87067366666667, "name": "68cc8d1b184b6c77627a0ade1af42b37", "bike_id": "68cc8d1b184b6c77627a0ade1af42b37", "lon": -77.11033133333333, "fusion_lat": 0.0, "rental_uris": {"android": "https://dc.lft.to/lastmile_qr_scan", "ios": "https://dc.lft.to/lastmile_qr_scan"}, "type": "electric_bike"}, {"is_reserved": 0, "is_disabled": 0, "fusion_lon": 0.0, "lat": 38.923468166666666, "name": "e48c2250354d7d3e1fde6f0ef9912a4b", "bike_id": "e48c2250354d7d3e1fde6f0ef9912a4b", "lon": -77.02444483333333, "fusion_lat": 0.0, "rental_uris": {"android": "https://dc.lft.to/lastmile_qr_scan", "ios": "https://dc.lft.to/lastmile_qr_scan"}, "type": "electric_scooter"}, {"is_reserved": 0, "is_disabled": 0, "fusion_lon": 0.0, "lat": 38.9170575, "name": "e1ade9a53bd0c75f513f6c9b3cb83694", "bike_id": "e1ade9a53bd0c75f513f6c9b3cb83694", "lon": -77.03730416666667, "fusion_lat": 0.0, "rental_uris": {"android": "https://dc.lft.to/lastmile_qr_scan", "ios": "https://dc.lft.to/lastmile_qr_scan"}, "type": "electric_scooter"}, {"is_reserved": 0, "is_disabled": 0, "fusion_lon": 0.0, "lat": 38.919947, "name": "a45acd4cb3880662f7d4aa40f00c75cd", "bike_id": "a45acd4cb3880662f7d4aa40f00c75cd", "lon": -77.02381883333334, "fusion_lat": 0.0, "rental_uris": {"android": "https://dc.lft.to/lastmile_qr_scan", "ios": "https://dc.lft.to/lastmile_qr_scan"}, "type": "electric_scooter"}, {"is_reserved": 0, "is_disabled": 0, "fusion_lon": 0.0, "lat": 38.897295166666666, "name": "854cf456cdfb848c09ab26ee22f8046b", "bike_id": "854cf456cdfb848c09ab26ee22f8046b", "lon": -77.0552125, "fusion_lat": 0.0, "rental_uris": {"android": "https://dc.lft.to/lastmile_qr_scan", "ios": "https://dc.lft.to/lastmile_qr_scan"}, "type": "electric_scooter"}, {"is_reserved": 0, "is_disabled": 0, "fusion_lon": 0.0, "lat": 38.96406366666667, "name": "35e711fe1ae008ea2f86702806665110", "bike_id": "35e711fe1ae008ea2f86702806665110", "lon": -77.03288716666667, "fusion_lat": 0.0, "rental_uris": {"android": "https://dc.lft.to/lastmile_qr_scan", "ios": "https://dc.lft.to/lastmile_qr_scan"}, "type": "electric_scooter"}, {"is_reserved": 0, "is_disabled": 0, "fusion_lon": 0.0, "lat": 38.934224666666665, "name": "9be97b0f589463c5844629893bd69ae8", "bike_id": "9be97b0f589463c5844629893bd69ae8", "lon": -77.03261883333333, "fusion_lat": 0.0, "rental_uris": {"android": "https://dc.lft.to/lastmile_qr_scan", "ios": "https://dc.lft.to/lastmile_qr_scan"}, "type": "electric_scooter"}, {"is_reserved": 0, "is_disabled": 0, "fusion_lon": 0.0, "lat": 38.90172233333333, "name": "7d3f98775951d4c8fe27d5e7c6e0fecc", "bike_id": "7d3f98775951d4c8fe27d5e7c6e0fecc", "lon": -77.0220715, "fusion_lat": 0.0, "rental_uris": {"android": "https://dc.lft.to/lastmile_qr_scan", "ios": "https://dc.lft.to/lastmile_qr_scan"}, "type": "electric_scooter"}, {"is_reserved": 0, "is_disabled": 0, "fusion_lon": 0.0, "lat": 38.912668333333336, "name": "830f84dddd40e892a077e961317659d6", "bike_id": "830f84dddd40e892a077e961317659d6", "lon": -77.02445116666667, "fusion_lat": 0.0, "rental_uris": {"android": "https://dc.lft.to/lastmile_qr_scan", "ios": "https://dc.lft.to/lastmile_qr_scan"}, "type": "electric_scooter"}, {"is_reserved": 0, "is_disabled": 0, "fusion_lon": 0.0, "lat": 38.927071833333336, "name": "239a7af3a7b5defb3296eb47daf07207", "bike_id": "239a7af3a7b5defb3296eb47daf07207", "lon": -77.02333833333333, "fusion_lat": 0.0, "rental_uris": {"android": "https://dc.lft.to/lastmile_qr_scan", "ios": "https://dc.lft.to/lastmile_qr_scan"}, "type": "electric_scooter"}, {"is_reserved": 0, "is_disabled": 0, "fusion_lon": 0.0, "lat": 38.8671085, "name": "2d9132bd98a1440918c3b14e1b09cbd0", "bike_id": "2d9132bd98a1440918c3b14e1b09cbd0", "lon": -77.01007933333334, "fusion_lat": 0.0, "rental_uris": {"android": "https://dc.lft.to/lastmile_qr_scan", "ios": "https://dc.lft.to/lastmile_qr_scan"}, "type": "electric_scooter"}, {"is_reserved": 0, "is_disabled": 0, "fusion_lon": 0.0, "lat": 38.902892333333334, "name": "c9e8c8cfc2b4e494c5721a8c3a8ff7fe", "bike_id": "c9e8c8cfc2b4e494c5721a8c3a8ff7fe", "lon": -77.04671133333333, "fusion_lat": 0.0, "rental_uris": {"android": "https://dc.lft.to/lastmile_qr_scan", "ios": "https://dc.lft.to/lastmile_qr_scan"}, "type": "electric_scooter"}, {"is_reserved": 0, "is_disabled": 0, "fusion_lon": 0.0, "lat": 38.922888666666665, "name": "f27c4077d327a2a56252e079c68780a6", "bike_id": "f27c4077d327a2a56252e079c68780a6", "lon": -77.0194605, "fusion_lat": 0.0, "rental_uris": {"android": "https://dc.lft.to/lastmile_qr_scan", "ios": "https://dc.lft.to/lastmile_qr_scan"}, "type": "electric_scooter"}, {"is_reserved": 0, "is_disabled": 0, "fusion_lon": 0.0, "lat": 39.007222166666665, "name": "d407d978438a2b55f1ae7cb641660088", "bike_id": "d407d978438a2b55f1ae7cb641660088", "lon": -76.98152783333333, "fusion_lat": 0.0, "rental_uris": {"android": "https://dc.lft.to/lastmile_qr_scan", "ios": "https://dc.lft.to/lastmile_qr_scan"}, "type": "electric_bike"}, {"is_reserved": 0, "is_disabled": 0, "fusion_lon": 0.0, "lat": 38.91562916666667, "name": "d3a2a6cdab881e48cedfd32225ada71e", "bike_id": "d3a2a6cdab881e48cedfd32225ada71e", "lon": -77.00697283333334, "fusion_lat": 0.0, "rental_uris": {"android": "https://dc.lft.to/lastmile_qr_scan", "ios": "https://dc.lft.to/lastmile_qr_scan"}, "type": "electric_scooter"}, {"is_reserved": 0, "is_disabled": 0, "fusion_lon": 0.0, "lat": 38.92896233333333, "name": "2cbe188674a7cb0a34376fc57a429259", "bike_id": "2cbe188674a7cb0a34376fc57a429259", "lon": -77.03252916666666, "fusion_lat": 0.0, "rental_uris": {"android": "https://dc.lft.to/lastmile_qr_scan", "ios": "https://dc.lft.to/lastmile_qr_scan"}, "type": "electric_scooter"}, {"is_reserved": 0, "is_disabled": 0, "fusion_lon": 0.0, "lat": 38.84881083333333, "name": "333bdca21df3b7b8f164417d4c44515d", "bike_id": "333bdca21df3b7b8f164417d4c44515d", "lon": -77.07793633333333, "fusion_lat": 0.0, "rental_uris": {"android": "https://dc.lft.to/lastmile_qr_scan", "ios": "https://dc.lft.to/lastmile_qr_scan"}, "type": "electric_bike"}, {"is_reserved": 0, "is_disabled": 0, "fusion_lon": 0.0, "lat": 38.900369, "name": "4310dc4bb9645ea0a07ec91a45ec3ad5", "bike_id": "4310dc4bb9645ea0a07ec91a45ec3ad5", "lon": -77.017553, "fusion_lat": 0.0, "rental_uris": {"android": "https://dc.lft.to/lastmile_qr_scan", "ios": "https://dc.lft.to/lastmile_qr_scan"}, "type": "electric_scooter"}, {"is_reserved": 0, "is_disabled": 0, "fusion_lon": 0.0, "lat": 38.89943533333334, "name": "fd8ae4a5bc93ac83805ab61c926077f0", "bike_id": "fd8ae4a5bc93ac83805ab61c926077f0", "lon": -77.03195066666666, "fusion_lat": 0.0, "rental_uris": {"android": "https://dc.lft.to/lastmile_qr_scan", "ios": "https://dc.lft.to/lastmile_qr_scan"}, "type": "electric_scooter"}, {"is_reserved": 0, "is_disabled": 0, "fusion_lon": 0.0, "lat": 38.9189145, "name": "3601cbe86392e89a0f77acbc2a0b7d05", "bike_id": "3601cbe86392e89a0f77acbc2a0b7d05", "lon": -77.04467033333333, "fusion_lat": 0.0, "rental_uris": {"android": "https://dc.lft.to/lastmile_qr_scan", "ios": "https://dc.lft.to/lastmile_qr_scan"}, "type": "electric_scooter"}, {"is_reserved": 0, "is_disabled": 0, "fusion_lon": 0.0, "lat": 39.00381133333333, "name": "08c5f7b179c0068e1878b0210f06269d", "bike_id": "08c5f7b179c0068e1878b0210f06269d", "lon": -77.01294666666666, "fusion_lat": 0.0, "rental_uris": {"android": "https://dc.lft.to/lastmile_qr_scan", "ios": "https://dc.lft.to/lastmile_qr_scan"}, "type": "electric_bike"}, {"is_reserved": 0, "is_disabled": 0, "fusion_lon": 0.0, "lat": 38.89492083333333, "name": "c27b07c95928570d8e4e1296720352b0", "bike_id": "c27b07c95928570d8e4e1296720352b0", "lon": -76.94894466666666, "fusion_lat": 0.0, "rental_uris": {"android": "https://dc.lft.to/lastmile_qr_scan", "ios": "https://dc.lft.to/lastmile_qr_scan"}, "type": "electric_scooter"}, {"is_reserved": 0, "is_disabled": 0, "fusion_lon": 0.0, "lat": 38.89216733333333, "name": "a6506e0d60e7984e63d30c4614f6c8f1", "bike_id": "a6506e0d60e7984e63d30c4614f6c8f1", "lon": -77.0263215, "fusion_lat": 0.0, "rental_uris": {"android": "https://dc.lft.to/lastmile_qr_scan", "ios": "https://dc.lft.to/lastmile_qr_scan"}, "type": "electric_scooter"}, {"is_reserved": 0, "is_disabled": 0, "fusion_lon": 0.0, "lat": 38.89519033333333, "name": "3f0039434c26c85376df419ee200d9e8", "bike_id": "3f0039434c26c85376df419ee200d9e8", "lon": -77.019858, "fusion_lat": 0.0, "rental_uris": {"android": "https://dc.lft.to/lastmile_qr_scan", "ios": "https://dc.lft.to/lastmile_qr_scan"}, "type": "electric_scooter"}, {"is_reserved": 0, "is_disabled": 0, "fusion_lon": 0.0, "lat": 38.92366116666667, "name": "d34e25c614612df2848cf7cddc14ce89", "bike_id": "d34e25c614612df2848cf7cddc14ce89", "lon": -77.02979083333334, "fusion_lat": 0.0, "rental_uris": {"android": "https://dc.lft.to/lastmile_qr_scan", "ios": "https://dc.lft.to/lastmile_qr_scan"}, "type": "electric_scooter"}, {"is_reserved": 0, "is_disabled": 0, "fusion_lon": 0.0, "lat": 38.879171, "name": "befab0a3908a168e367c7f60190acf55", "bike_id": "befab0a3908a168e367c7f60190acf55", "lon": -77.0082685, "fusion_lat": 0.0, "rental_uris": {"android": "https://dc.lft.to/lastmile_qr_scan", "ios": "https://dc.lft.to/lastmile_qr_scan"}, "type": "electric_scooter"}, {"is_reserved": 0, "is_disabled": 0, "fusion_lon": 0.0, "lat": 38.8794205, "name": "f98435f6682d9cf841479ea3ff3744cf", "bike_id": "f98435f6682d9cf841479ea3ff3744cf", "lon": -76.98386516666666, "fusion_lat": 0.0, "rental_uris": {"android": "https://dc.lft.to/lastmile_qr_scan", "ios": "https://dc.lft.to/lastmile_qr_scan"}, "type": "electric_scooter"}, {"is_reserved": 0, "is_disabled": 0, "fusion_lon": 0.0, "lat": 38.9397125, "name": "1327504b5ba3f982df6a2770648534f1", "bike_id": "1327504b5ba3f982df6a2770648534f1", "lon": -77.03426133333333, "fusion_lat": 0.0, "rental_uris": {"android": "https://dc.lft.to/lastmile_qr_scan", "ios": "https://dc.lft.to/lastmile_qr_scan"}, "type": "electric_scooter"}, {"is_reserved": 0, "is_disabled": 0, "fusion_lon": 0.0, "lat": 38.93383433333333, "name": "51bfd32bd9c4affb4e2ad646767cf555", "bike_id": "51bfd32bd9c4affb4e2ad646767cf555", "lon": -77.02642966666667, "fusion_lat": 0.0, "rental_uris": {"android": "https://dc.lft.to/lastmile_qr_scan", "ios": "https://dc.lft.to/lastmile_qr_scan"}, "type": "electric_scooter"}, {"is_reserved": 0, "is_disabled": 0, "fusion_lon": 0.0, "lat": 38.903357, "name": "654e51b85557b8b7dd4f86cbf963e0bb", "bike_id": "654e51b85557b8b7dd4f86cbf963e0bb", "lon": -76.97574233333333, "fusion_lat": 0.0, "rental_uris": {"android": "https://dc.lft.to/lastmile_qr_scan", "ios": "https://dc.lft.to/lastmile_qr_scan"}, "type": "electric_scooter"}, {"is_reserved": 0, "is_disabled": 0, "fusion_lon": 0.0, "lat": 38.902660833333336, "name": "5f2e456b30c3d729f409e72f4a9884cd", "bike_id": "5f2e456b30c3d729f409e72f4a9884cd", "lon": -77.01759666666666, "fusion_lat": 0.0, "rental_uris": {"android": "https://dc.lft.to/lastmile_qr_scan", "ios": "https://dc.lft.to/lastmile_qr_scan"}, "type": "electric_scooter"}, {"is_reserved": 0, "is_disabled": 0, "fusion_lon": 0.0, "lat": 38.91688366666666, "name": "422e919cedb2befb1732bf465bcaa10b", "bike_id": "422e919cedb2befb1732bf465bcaa10b", "lon": -77.0377035, "fusion_lat": 0.0, "rental_uris": {"android": "https://dc.lft.to/lastmile_qr_scan", "ios": "https://dc.lft.to/lastmile_qr_scan"}, "type": "electric_scooter"}, {"is_reserved": 0, "is_disabled": 0, "fusion_lon": 0.0, "lat": 38.92150433333333, "name": "da859ba714b508772c3352c32f5c8bc4", "bike_id": "da859ba714b508772c3352c32f5c8bc4", "lon": -77.03507516666667, "fusion_lat": 0.0, "rental_uris": {"android": "https://dc.lft.to/lastmile_qr_scan", "ios": "https://dc.lft.to/lastmile_qr_scan"}, "type": "electric_scooter"}, {"is_reserved": 0, "is_disabled": 0, "fusion_lon": 0.0, "lat": 38.83748283333333, "name": "dfa0905a3b490fe25a10c989ae4dd38f", "bike_id": "dfa0905a3b490fe25a10c989ae4dd38f", "lon": -76.99864666666667, "fusion_lat": 0.0, "rental_uris": {"android": "https://dc.lft.to/lastmile_qr_scan", "ios": "https://dc.lft.to/lastmile_qr_scan"}, "type": "electric_scooter"}, {"is_reserved": 0, "is_disabled": 0, "fusion_lon": 0.0, "lat": 39.029249166666666, "name": "c2eeb92508096add9d649e2813f59b5e", "bike_id": "c2eeb92508096add9d649e2813f59b5e", "lon": -77.01363066666667, "fusion_lat": 0.0, "rental_uris": {"android": "https://dc.lft.to/lastmile_qr_scan", "ios": "https://dc.lft.to/lastmile_qr_scan"}, "type": "electric_bike"}, {"is_reserved": 0, "is_disabled": 0, "fusion_lon": 0.0, "lat": 38.91681966666667, "name": "0a960f0686f010c0ec7c95eb1e012554", "bike_id": "0a960f0686f010c0ec7c95eb1e012554", "lon": -77.01728033333333, "fusion_lat": 0.0, "rental_uris": {"android": "https://dc.lft.to/lastmile_qr_scan", "ios": "https://dc.lft.to/lastmile_qr_scan"}, "type": "electric_scooter"}, {"is_reserved": 0, "is_disabled": 0, "fusion_lon": 0.0, "lat": 38.89679366666667, "name": "13da84c7160ba06d55528e49ab3714d5", "bike_id": "13da84c7160ba06d55528e49ab3714d5", "lon": -77.04338466666667, "fusion_lat": 0.0, "rental_uris": {"android": "https://dc.lft.to/lastmile_qr_scan", "ios": "https://dc.lft.to/lastmile_qr_scan"}, "type": "electric_scooter"}, {"is_reserved": 0, "is_disabled": 0, "fusion_lon": 0.0, "lat": 38.857989833333335, "name": "19e7d23d3c89ab0b991ff8f5b58d255a", "bike_id": "19e7d23d3c89ab0b991ff8f5b58d255a", "lon": -76.98750916666667, "fusion_lat": 0.0, "rental_uris": {"android": "https://dc.lft.to/lastmile_qr_scan", "ios": "https://dc.lft.to/lastmile_qr_scan"}, "type": "electric_bike"}, {"is_reserved": 0, "is_disabled": 0, "fusion_lon": 0.0, "lat": 38.878034166666666, "name": "a84804d7be07e76878295dbfb0b0aa15", "bike_id": "a84804d7be07e76878295dbfb0b0aa15", "lon": -76.98824316666666, "fusion_lat": 0.0, "rental_uris": {"android": "https://dc.lft.to/lastmile_qr_scan", "ios": "https://dc.lft.to/lastmile_qr_scan"}, "type": "electric_scooter"}, {"is_reserved": 0, "is_disabled": 0, "fusion_lon": 0.0, "lat": 39.0015855, "name": "3a398249bac0a6df8a044f2fbec6ed5a", "bike_id": "3a398249bac0a6df8a044f2fbec6ed5a", "lon": -76.9024575, "fusion_lat": 0.0, "rental_uris": {"android": "https://dc.lft.to/lastmile_qr_scan", "ios": "https://dc.lft.to/lastmile_qr_scan"}, "type": "electric_bike"}, {"is_reserved": 0, "is_disabled": 0, "fusion_lon": 0.0, "lat": 38.90730033333333, "name": "4a748dfd72e8988844079481460fe246", "bike_id": "4a748dfd72e8988844079481460fe246", "lon": -77.0321045, "fusion_lat": 0.0, "rental_uris": {"android": "https://dc.lft.to/lastmile_qr_scan", "ios": "https://dc.lft.to/lastmile_qr_scan"}, "type": "electric_scooter"}, {"is_reserved": 0, "is_disabled": 0, "fusion_lon": 0.0, "lat": 38.93406933333333, "name": "8e4f0bfb13538a4f0fa7b0eeb653f7cc", "bike_id": "8e4f0bfb13538a4f0fa7b0eeb653f7cc", "lon": -77.04542816666667, "fusion_lat": 0.0, "rental_uris": {"android": "https://dc.lft.to/lastmile_qr_scan", "ios": "https://dc.lft.to/lastmile_qr_scan"}, "type": "electric_scooter"}, {"is_reserved": 0, "is_disabled": 0, "fusion_lon": 0.0, "lat": 38.927902, "name": "209cd95ff9c5f4674a5e133956a961aa", "bike_id": "209cd95ff9c5f4674a5e133956a961aa", "lon": -77.03142933333334, "fusion_lat": 0.0, "rental_uris": {"android": "https://dc.lft.to/lastmile_qr_scan", "ios": "https://dc.lft.to/lastmile_qr_scan"}, "type": "electric_scooter"}, {"is_reserved": 0, "is_disabled": 0, "fusion_lon": 0.0, "lat": 38.91594933333333, "name": "f6238a322eff593d995ab4e83edbdb5d", "bike_id": "f6238a322eff593d995ab4e83edbdb5d", "lon": -77.06760683333333, "fusion_lat": 0.0, "rental_uris": {"android": "https://dc.lft.to/lastmile_qr_scan", "ios": "https://dc.lft.to/lastmile_qr_scan"}, "type": "electric_scooter"}, {"is_reserved": 0, "is_disabled": 0, "fusion_lon": 0.0, "lat": 38.872950333333335, "name": "30765df135bbb582d2d33d0b4a0524cd", "bike_id": "30765df135bbb582d2d33d0b4a0524cd", "lon": -77.01585583333333, "fusion_lat": 0.0, "rental_uris": {"android": "https://dc.lft.to/lastmile_qr_scan", "ios": "https://dc.lft.to/lastmile_qr_scan"}, "type": "electric_scooter"}, {"is_reserved": 0, "is_disabled": 0, "fusion_lon": 0.0, "lat": 38.939794166666665, "name": "c1e5f08b012d83d3361b0a391592b107", "bike_id": "c1e5f08b012d83d3361b0a391592b107", "lon": -77.03022283333334, "fusion_lat": 0.0, "rental_uris": {"android": "https://dc.lft.to/lastmile_qr_scan", "ios": "https://dc.lft.to/lastmile_qr_scan"}, "type": "electric_scooter"}, {"is_reserved": 0, "is_disabled": 0, "fusion_lon": 0.0, "lat": 38.924456166666666, "name": "4da2771db8d1582bd42fdb1421bde5f1", "bike_id": "4da2771db8d1582bd42fdb1421bde5f1", "lon": -76.9682695, "fusion_lat": 0.0, "rental_uris": {"android": "https://dc.lft.to/lastmile_qr_scan", "ios": "https://dc.lft.to/lastmile_qr_scan"}, "type": "electric_scooter"}, {"is_reserved": 0, "is_disabled": 0, "fusion_lon": 0.0, "lat": 38.8652455, "name": "98897ca285db3482c8057d2ba952d0f9", "bike_id": "98897ca285db3482c8057d2ba952d0f9", "lon": -76.96906333333334, "fusion_lat": 0.0, "rental_uris": {"android": "https://dc.lft.to/lastmile_qr_scan", "ios": "https://dc.lft.to/lastmile_qr_scan"}, "type": "electric_scooter"}, {"is_reserved": 0, "is_disabled": 0, "fusion_lon": 0.0, "lat": 38.88439916666667, "name": "dd337b5b592de0294caab38cd75e2e54", "bike_id": "dd337b5b592de0294caab38cd75e2e54", "lon": -76.95766883333333, "fusion_lat": 0.0, "rental_uris": {"android": "https://dc.lft.to/lastmile_qr_scan", "ios": "https://dc.lft.to/lastmile_qr_scan"}, "type": "electric_scooter"}, {"is_reserved": 0, "is_disabled": 0, "fusion_lon": 0.0, "lat": 38.91414833333333, "name": "2dedcf5439ce050d2ed639faf579c0ba", "bike_id": "2dedcf5439ce050d2ed639faf579c0ba", "lon": -77.02059666666666, "fusion_lat": 0.0, "rental_uris": {"android": "https://dc.lft.to/lastmile_qr_scan", "ios": "https://dc.lft.to/lastmile_qr_scan"}, "type": "electric_scooter"}, {"is_reserved": 0, "is_disabled": 0, "fusion_lon": 0.0, "lat": 38.88434133333333, "name": "3d8959b727d6b95e51c308c8244c68f2", "bike_id": "3d8959b727d6b95e51c308c8244c68f2", "lon": -76.99725616666667, "fusion_lat": 0.0, "rental_uris": {"android": "https://dc.lft.to/lastmile_qr_scan", "ios": "https://dc.lft.to/lastmile_qr_scan"}, "type": "electric_scooter"}, {"is_reserved": 0, "is_disabled": 0, "fusion_lon": 0.0, "lat": 38.9198465, "name": "9a8bbd988f43c3363a003f32a2404827", "bike_id": "9a8bbd988f43c3363a003f32a2404827", "lon": -77.0217835, "fusion_lat": 0.0, "rental_uris": {"android": "https://dc.lft.to/lastmile_qr_scan", "ios": "https://dc.lft.to/lastmile_qr_scan"}, "type": "electric_scooter"}, {"is_reserved": 0, "is_disabled": 0, "fusion_lon": 0.0, "lat": 38.903075333333334, "name": "6149674a9f8d6d4fb37583b1c3e88ae7", "bike_id": "6149674a9f8d6d4fb37583b1c3e88ae7", "lon": -76.97500233333334, "fusion_lat": 0.0, "rental_uris": {"android": "https://dc.lft.to/lastmile_qr_scan", "ios": "https://dc.lft.to/lastmile_qr_scan"}, "type": "electric_scooter"}, {"is_reserved": 0, "is_disabled": 0, "fusion_lon": 0.0, "lat": 38.914141666666666, "name": "84156a24057860c3167138bdf768c841", "bike_id": "84156a24057860c3167138bdf768c841", "lon": -77.0224015, "fusion_lat": 0.0, "rental_uris": {"android": "https://dc.lft.to/lastmile_qr_scan", "ios": "https://dc.lft.to/lastmile_qr_scan"}, "type": "electric_scooter"}, {"is_reserved": 0, "is_disabled": 0, "fusion_lon": 0.0, "lat": 38.88958483333333, "name": "dba0260dc2a8f50b78714a132522c22e", "bike_id": "dba0260dc2a8f50b78714a132522c22e", "lon": -76.9882105, "fusion_lat": 0.0, "rental_uris": {"android": "https://dc.lft.to/lastmile_qr_scan", "ios": "https://dc.lft.to/lastmile_qr_scan"}, "type": "electric_scooter"}, {"is_reserved": 0, "is_disabled": 0, "fusion_lon": 0.0, "lat": 38.920877833333336, "name": "c9ea05a9ec52876aca75e6899821709f", "bike_id": "c9ea05a9ec52876aca75e6899821709f", "lon": -77.023398, "fusion_lat": 0.0, "rental_uris": {"android": "https://dc.lft.to/lastmile_qr_scan", "ios": "https://dc.lft.to/lastmile_qr_scan"}, "type": "electric_scooter"}, {"is_reserved": 0, "is_disabled": 0, "fusion_lon": 0.0, "lat": 38.923703333333336, "name": "aa08b4f96d81a536f3ee271ce3ace8a1", "bike_id": "aa08b4f96d81a536f3ee271ce3ace8a1", "lon": -77.030482, "fusion_lat": 0.0, "rental_uris": {"android": "https://dc.lft.to/lastmile_qr_scan", "ios": "https://dc.lft.to/lastmile_qr_scan"}, "type": "electric_scooter"}, {"is_reserved": 0, "is_disabled": 0, "fusion_lon": 0.0, "lat": 38.915455333333334, "name": "8879b5caf38f054a5b874361179f3f82", "bike_id": "8879b5caf38f054a5b874361179f3f82", "lon": -77.04454633333333, "fusion_lat": 0.0, "rental_uris": {"android": "https://dc.lft.to/lastmile_qr_scan", "ios": "https://dc.lft.to/lastmile_qr_scan"}, "type": "electric_scooter"}, {"is_reserved": 0, "is_disabled": 0, "fusion_lon": 0.0, "lat": 38.90838083333333, "name": "f33b4cafa5b20b1fe01070fdd29390b8", "bike_id": "f33b4cafa5b20b1fe01070fdd29390b8", "lon": -77.07303133333333, "fusion_lat": 0.0, "rental_uris": {"android": "https://dc.lft.to/lastmile_qr_scan", "ios": "https://dc.lft.to/lastmile_qr_scan"}, "type": "electric_scooter"}, {"is_reserved": 0, "is_disabled": 0, "fusion_lon": 0.0, "lat": 38.91262116666667, "name": "1e1081f0f5f57fb89f7a3f29865b11fe", "bike_id": "1e1081f0f5f57fb89f7a3f29865b11fe", "lon": -77.07241566666667, "fusion_lat": 0.0, "rental_uris": {"android": "https://dc.lft.to/lastmile_qr_scan", "ios": "https://dc.lft.to/lastmile_qr_scan"}, "type": "electric_scooter"}, {"is_reserved": 0, "is_disabled": 0, "fusion_lon": 0.0, "lat": 38.905676, "name": "b26dbb1d5fbd07c75745852e0c0b23f3", "bike_id": "b26dbb1d5fbd07c75745852e0c0b23f3", "lon": -77.0061115, "fusion_lat": 0.0, "rental_uris": {"android": "https://dc.lft.to/lastmile_qr_scan", "ios": "https://dc.lft.to/lastmile_qr_scan"}, "type": "electric_scooter"}, {"is_reserved": 0, "is_disabled": 0, "fusion_lon": 0.0, "lat": 38.920620666666665, "name": "f5c58d7efb650ebc33fe8897aa3d315e", "bike_id": "f5c58d7efb650ebc33fe8897aa3d315e", "lon": -77.03460516666667, "fusion_lat": 0.0, "rental_uris": {"android": "https://dc.lft.to/lastmile_qr_scan", "ios": "https://dc.lft.to/lastmile_qr_scan"}, "type": "electric_scooter"}, {"is_reserved": 0, "is_disabled": 0, "fusion_lon": 0.0, "lat": 38.91912583333333, "name": "32a6252c62ab75c4f44827ddc04972fd", "bike_id": "32a6252c62ab75c4f44827ddc04972fd", "lon": -77.03033733333334, "fusion_lat": 0.0, "rental_uris": {"android": "https://dc.lft.to/lastmile_qr_scan", "ios": "https://dc.lft.to/lastmile_qr_scan"}, "type": "electric_scooter"}, {"is_reserved": 0, "is_disabled": 0, "fusion_lon": 0.0, "lat": 38.9111725, "name": "6c8483a1f7bbb5cbdcd40d5c188ffda8", "bike_id": "6c8483a1f7bbb5cbdcd40d5c188ffda8", "lon": -77.03831233333334, "fusion_lat": 0.0, "rental_uris": {"android": "https://dc.lft.to/lastmile_qr_scan", "ios": "https://dc.lft.to/lastmile_qr_scan"}, "type": "electric_scooter"}, {"is_reserved": 0, "is_disabled": 0, "fusion_lon": 0.0, "lat": 38.894007, "name": "17602cd52c12ae38158ea6b51ecce40d", "bike_id": "17602cd52c12ae38158ea6b51ecce40d", "lon": -77.02164466666666, "fusion_lat": 0.0, "rental_uris": {"android": "https://dc.lft.to/lastmile_qr_scan", "ios": "https://dc.lft.to/lastmile_qr_scan"}, "type": "electric_scooter"}, {"is_reserved": 0, "is_disabled": 0, "fusion_lon": 0.0, "lat": 38.91839816666667, "name": "5be2213ce5b5d2e8692d3dae39bdfa52", "bike_id": "5be2213ce5b5d2e8692d3dae39bdfa52", "lon": -77.022662, "fusion_lat": 0.0, "rental_uris": {"android": "https://dc.lft.to/lastmile_qr_scan", "ios": "https://dc.lft.to/lastmile_qr_scan"}, "type": "electric_scooter"}, {"is_reserved": 0, "is_disabled": 0, "fusion_lon": 0.0, "lat": 38.91107383333333, "name": "523e3c0a210123b2df81f0a6e1c1bd05", "bike_id": "523e3c0a210123b2df81f0a6e1c1bd05", "lon": -77.03855916666667, "fusion_lat": 0.0, "rental_uris": {"android": "https://dc.lft.to/lastmile_qr_scan", "ios": "https://dc.lft.to/lastmile_qr_scan"}, "type": "electric_scooter"}, {"is_reserved": 0, "is_disabled": 0, "fusion_lon": 0.0, "lat": 38.9223745, "name": "b7d7331dd6dc2a650c2c990355fed683", "bike_id": "b7d7331dd6dc2a650c2c990355fed683", "lon": -77.02124183333333, "fusion_lat": 0.0, "rental_uris": {"android": "https://dc.lft.to/lastmile_qr_scan", "ios": "https://dc.lft.to/lastmile_qr_scan"}, "type": "electric_scooter"}, {"is_reserved": 0, "is_disabled": 0, "fusion_lon": 0.0, "lat": 38.926142166666665, "name": "c4c86c10fd9d60d3229c37bdbe79b1e1", "bike_id": "c4c86c10fd9d60d3229c37bdbe79b1e1", "lon": -76.98201983333334, "fusion_lat": 0.0, "rental_uris": {"android": "https://dc.lft.to/lastmile_qr_scan", "ios": "https://dc.lft.to/lastmile_qr_scan"}, "type": "electric_scooter"}, {"is_reserved": 0, "is_disabled": 0, "fusion_lon": 0.0, "lat": 38.8918735, "name": "6f27a9e7d60dd3d4ac8c6f1a77ef64e5", "bike_id": "6f27a9e7d60dd3d4ac8c6f1a77ef64e5", "lon": -77.03672583333334, "fusion_lat": 0.0, "rental_uris": {"android": "https://dc.lft.to/lastmile_qr_scan", "ios": "https://dc.lft.to/lastmile_qr_scan"}, "type": "electric_scooter"}, {"is_reserved": 0, "is_disabled": 0, "fusion_lon": 0.0, "lat": 38.944046, "name": "7d3f521e81b5c74c1ed745001cd849af", "bike_id": "7d3f521e81b5c74c1ed745001cd849af", "lon": -77.06360766666667, "fusion_lat": 0.0, "rental_uris": {"android": "https://dc.lft.to/lastmile_qr_scan", "ios": "https://dc.lft.to/lastmile_qr_scan"}, "type": "electric_scooter"}, {"is_reserved": 0, "is_disabled": 0, "fusion_lon": 0.0, "lat": 38.901513666666666, "name": "3b1e308d3def2eec59388d419d7cf398", "bike_id": "3b1e308d3def2eec59388d419d7cf398", "lon": -77.01739633333334, "fusion_lat": 0.0, "rental_uris": {"android": "https://dc.lft.to/lastmile_qr_scan", "ios": "https://dc.lft.to/lastmile_qr_scan"}, "type": "electric_scooter"}, {"is_reserved": 0, "is_disabled": 0, "fusion_lon": 0.0, "lat": 38.92150516666667, "name": "3893d2c2a4a95644dcd73d0c1bd76ea3", "bike_id": "3893d2c2a4a95644dcd73d0c1bd76ea3", "lon": -77.01797483333333, "fusion_lat": 0.0, "rental_uris": {"android": "https://dc.lft.to/lastmile_qr_scan", "ios": "https://dc.lft.to/lastmile_qr_scan"}, "type": "electric_scooter"}, {"is_reserved": 0, "is_disabled": 0, "fusion_lon": 0.0, "lat": 38.92448266666667, "name": "fbe306940bfdfbd0870bab9c3cb6744b", "bike_id": "fbe306940bfdfbd0870bab9c3cb6744b", "lon": -77.05226966666666, "fusion_lat": 0.0, "rental_uris": {"android": "https://dc.lft.to/lastmile_qr_scan", "ios": "https://dc.lft.to/lastmile_qr_scan"}, "type": "electric_scooter"}, {"is_reserved": 0, "is_disabled": 0, "fusion_lon": 0.0, "lat": 38.88198783333333, "name": "ca3a48903f9bd9d63eb40e0254c7721b", "bike_id": "ca3a48903f9bd9d63eb40e0254c7721b", "lon": -77.0286585, "fusion_lat": 0.0, "rental_uris": {"android": "https://dc.lft.to/lastmile_qr_scan", "ios": "https://dc.lft.to/lastmile_qr_scan"}, "type": "electric_scooter"}, {"is_reserved": 0, "is_disabled": 0, "fusion_lon": 0.0, "lat": 38.899175, "name": "a246f8df247b7cf369d8d06ed9902e94", "bike_id": "a246f8df247b7cf369d8d06ed9902e94", "lon": -77.04871266666666, "fusion_lat": 0.0, "rental_uris": {"android": "https://dc.lft.to/lastmile_qr_scan", "ios": "https://dc.lft.to/lastmile_qr_scan"}, "type": "electric_scooter"}, {"is_reserved": 0, "is_disabled": 0, "fusion_lon": 0.0, "lat": 38.93141333333333, "name": "39461dfcb398da1509598ba582ba99eb", "bike_id": "39461dfcb398da1509598ba582ba99eb", "lon": -77.05698783333334, "fusion_lat": 0.0, "rental_uris": {"android": "https://dc.lft.to/lastmile_qr_scan", "ios": "https://dc.lft.to/lastmile_qr_scan"}, "type": "electric_scooter"}, {"is_reserved": 0, "is_disabled": 0, "fusion_lon": 0.0, "lat": 38.915199666666666, "name": "6c8cd6c40154bca3ddf0413619d6a058", "bike_id": "6c8cd6c40154bca3ddf0413619d6a058", "lon": -77.01223333333333, "fusion_lat": 0.0, "rental_uris": {"android": "https://dc.lft.to/lastmile_qr_scan", "ios": "https://dc.lft.to/lastmile_qr_scan"}, "type": "electric_bike"}, {"is_reserved": 0, "is_disabled": 0, "fusion_lon": 0.0, "lat": 38.92462333333334, "name": "d54df744272c60e19bd81c69af52482c", "bike_id": "d54df744272c60e19bd81c69af52482c", "lon": -77.02154516666667, "fusion_lat": 0.0, "rental_uris": {"android": "https://dc.lft.to/lastmile_qr_scan", "ios": "https://dc.lft.to/lastmile_qr_scan"}, "type": "electric_scooter"}, {"is_reserved": 0, "is_disabled": 0, "fusion_lon": 0.0, "lat": 38.93358, "name": "2057825a5d0a7a5e9327af9a6439f0e9", "bike_id": "2057825a5d0a7a5e9327af9a6439f0e9", "lon": -77.0240895, "fusion_lat": 0.0, "rental_uris": {"android": "https://dc.lft.to/lastmile_qr_scan", "ios": "https://dc.lft.to/lastmile_qr_scan"}, "type": "electric_scooter"}, {"is_reserved": 0, "is_disabled": 0, "fusion_lon": 0.0, "lat": 38.923418166666664, "name": "141d3761f56eac42c85f7ace9781f719", "bike_id": "141d3761f56eac42c85f7ace9781f719", "lon": -77.03418133333334, "fusion_lat": 0.0, "rental_uris": {"android": "https://dc.lft.to/lastmile_qr_scan", "ios": "https://dc.lft.to/lastmile_qr_scan"}, "type": "electric_scooter"}, {"is_reserved": 0, "is_disabled": 0, "fusion_lon": 0.0, "lat": 38.807392666666665, "name": "4be3fe2bb5538233353a09f8947f69e4", "bike_id": "4be3fe2bb5538233353a09f8947f69e4", "lon": -77.09695016666667, "fusion_lat": 0.0, "rental_uris": {"android": "https://dc.lft.to/lastmile_qr_scan", "ios": "https://dc.lft.to/lastmile_qr_scan"}, "type": "electric_bike"}, {"is_reserved": 0, "is_disabled": 0, "fusion_lon": 0.0, "lat": 38.9209245, "name": "abd2687a5bba3d33e67989e1e1d623ac", "bike_id": "abd2687a5bba3d33e67989e1e1d623ac", "lon": -77.02334033333334, "fusion_lat": 0.0, "rental_uris": {"android": "https://dc.lft.to/lastmile_qr_scan", "ios": "https://dc.lft.to/lastmile_qr_scan"}, "type": "electric_scooter"}, {"is_reserved": 0, "is_disabled": 0, "fusion_lon": 0.0, "lat": 38.929746333333334, "name": "43c96835196bf64bee4920ca22b87532", "bike_id": "43c96835196bf64bee4920ca22b87532", "lon": -77.023394, "fusion_lat": 0.0, "rental_uris": {"android": "https://dc.lft.to/lastmile_qr_scan", "ios": "https://dc.lft.to/lastmile_qr_scan"}, "type": "electric_scooter"}, {"is_reserved": 0, "is_disabled": 0, "fusion_lon": 0.0, "lat": 38.9212655, "name": "22d894bc0bb76be42cc8088512403da6", "bike_id": "22d894bc0bb76be42cc8088512403da6", "lon": -77.045769, "fusion_lat": 0.0, "rental_uris": {"android": "https://dc.lft.to/lastmile_qr_scan", "ios": "https://dc.lft.to/lastmile_qr_scan"}, "type": "electric_scooter"}, {"is_reserved": 0, "is_disabled": 0, "fusion_lon": 0.0, "lat": 38.93534483333333, "name": "c2fc97eafb88884ff39375b2bbf09bd7", "bike_id": "c2fc97eafb88884ff39375b2bbf09bd7", "lon": -77.02353183333334, "fusion_lat": 0.0, "rental_uris": {"android": "https://dc.lft.to/lastmile_qr_scan", "ios": "https://dc.lft.to/lastmile_qr_scan"}, "type": "electric_scooter"}, {"is_reserved": 0, "is_disabled": 0, "fusion_lon": 0.0, "lat": 38.919555833333334, "name": "ae5f7265d8466f87a2266986ca633181", "bike_id": "ae5f7265d8466f87a2266986ca633181", "lon": -77.07870583333333, "fusion_lat": 0.0, "rental_uris": {"android": "https://dc.lft.to/lastmile_qr_scan", "ios": "https://dc.lft.to/lastmile_qr_scan"}, "type": "electric_scooter"}, {"is_reserved": 0, "is_disabled": 0, "fusion_lon": 0.0, "lat": 38.913383833333334, "name": "5d030d34d1200191f982dcdbdd4ea403", "bike_id": "5d030d34d1200191f982dcdbdd4ea403", "lon": -77.0398555, "fusion_lat": 0.0, "rental_uris": {"android": "https://dc.lft.to/lastmile_qr_scan", "ios": "https://dc.lft.to/lastmile_qr_scan"}, "type": "electric_scooter"}, {"is_reserved": 0, "is_disabled": 0, "fusion_lon": 0.0, "lat": 38.9149625, "name": "ee779f5372f73a1095454e6656337bfa", "bike_id": "ee779f5372f73a1095454e6656337bfa", "lon": -77.0185275, "fusion_lat": 0.0, "rental_uris": {"android": "https://dc.lft.to/lastmile_qr_scan", "ios": "https://dc.lft.to/lastmile_qr_scan"}, "type": "electric_scooter"}, {"is_reserved": 0, "is_disabled": 0, "fusion_lon": 0.0, "lat": 38.8648565, "name": "8d26f42e2272567f4e0d3533fb2984c8", "bike_id": "8d26f42e2272567f4e0d3533fb2984c8", "lon": -76.97746216666667, "fusion_lat": 0.0, "rental_uris": {"android": "https://dc.lft.to/lastmile_qr_scan", "ios": "https://dc.lft.to/lastmile_qr_scan"}, "type": "electric_bike"}, {"is_reserved": 0, "is_disabled": 0, "fusion_lon": 0.0, "lat": 38.926754, "name": "8aa404c2fa935cabafa7418ac134fd67", "bike_id": "8aa404c2fa935cabafa7418ac134fd67", "lon": -77.05438433333333, "fusion_lat": 0.0, "rental_uris": {"android": "https://dc.lft.to/lastmile_qr_scan", "ios": "https://dc.lft.to/lastmile_qr_scan"}, "type": "electric_scooter"}, {"is_reserved": 0, "is_disabled": 0, "fusion_lon": 0.0, "lat": 38.91729466666666, "name": "1a9af0d112317333f4a36eba26f7d736", "bike_id": "1a9af0d112317333f4a36eba26f7d736", "lon": -77.04176333333334, "fusion_lat": 0.0, "rental_uris": {"android": "https://dc.lft.to/lastmile_qr_scan", "ios": "https://dc.lft.to/lastmile_qr_scan"}, "type": "electric_scooter"}, {"is_reserved": 0, "is_disabled": 0, "fusion_lon": 0.0, "lat": 38.92455533333333, "name": "4496b065600108d8c7c96ba83de3f678", "bike_id": "4496b065600108d8c7c96ba83de3f678", "lon": -76.999131, "fusion_lat": 0.0, "rental_uris": {"android": "https://dc.lft.to/lastmile_qr_scan", "ios": "https://dc.lft.to/lastmile_qr_scan"}, "type": "electric_scooter"}, {"is_reserved": 0, "is_disabled": 0, "fusion_lon": 0.0, "lat": 38.898779, "name": "490a077a7b1ea26f6323240b0ba0cacd", "bike_id": "490a077a7b1ea26f6323240b0ba0cacd", "lon": -76.98001433333333, "fusion_lat": 0.0, "rental_uris": {"android": "https://dc.lft.to/lastmile_qr_scan", "ios": "https://dc.lft.to/lastmile_qr_scan"}, "type": "electric_scooter"}, {"is_reserved": 0, "is_disabled": 0, "fusion_lon": 0.0, "lat": 38.9370125, "name": "d28b8bc421e4e9f99a5bac07c4d8476d", "bike_id": "d28b8bc421e4e9f99a5bac07c4d8476d", "lon": -77.03284416666666, "fusion_lat": 0.0, "rental_uris": {"android": "https://dc.lft.to/lastmile_qr_scan", "ios": "https://dc.lft.to/lastmile_qr_scan"}, "type": "electric_scooter"}, {"is_reserved": 0, "is_disabled": 0, "fusion_lon": 0.0, "lat": 38.8997835, "name": "e0711900ab7549eb234cb8cfbc85a9f5", "bike_id": "e0711900ab7549eb234cb8cfbc85a9f5", "lon": -77.04194733333334, "fusion_lat": 0.0, "rental_uris": {"android": "https://dc.lft.to/lastmile_qr_scan", "ios": "https://dc.lft.to/lastmile_qr_scan"}, "type": "electric_scooter"}, {"is_reserved": 0, "is_disabled": 0, "fusion_lon": 0.0, "lat": 38.941373166666665, "name": "ff0b1c6a6548f8e46c2d74cd54640af6", "bike_id": "ff0b1c6a6548f8e46c2d74cd54640af6", "lon": -77.0232275, "fusion_lat": 0.0, "rental_uris": {"android": "https://dc.lft.to/lastmile_qr_scan", "ios": "https://dc.lft.to/lastmile_qr_scan"}, "type": "electric_scooter"}, {"is_reserved": 0, "is_disabled": 0, "fusion_lon": 0.0, "lat": 38.9128605, "name": "85ec3568b61e120733ea03312c181279", "bike_id": "85ec3568b61e120733ea03312c181279", "lon": -77.02299916666666, "fusion_lat": 0.0, "rental_uris": {"android": "https://dc.lft.to/lastmile_qr_scan", "ios": "https://dc.lft.to/lastmile_qr_scan"}, "type": "electric_scooter"}, {"is_reserved": 0, "is_disabled": 0, "fusion_lon": 0.0, "lat": 38.91330133333334, "name": "5464bf95c1b94f49abe07ccd06dad5f0", "bike_id": "5464bf95c1b94f49abe07ccd06dad5f0", "lon": -77.03186316666667, "fusion_lat": 0.0, "rental_uris": {"android": "https://dc.lft.to/lastmile_qr_scan", "ios": "https://dc.lft.to/lastmile_qr_scan"}, "type": "electric_scooter"}, {"is_reserved": 0, "is_disabled": 0, "fusion_lon": 0.0, "lat": 38.916558, "name": "a3804876ac5249a701110f5c32c862fc", "bike_id": "a3804876ac5249a701110f5c32c862fc", "lon": -77.00930083333333, "fusion_lat": 0.0, "rental_uris": {"android": "https://dc.lft.to/lastmile_qr_scan", "ios": "https://dc.lft.to/lastmile_qr_scan"}, "type": "electric_scooter"}, {"is_reserved": 0, "is_disabled": 0, "fusion_lon": 0.0, "lat": 38.922327333333335, "name": "916d001b215b5af2d91564d4548de255", "bike_id": "916d001b215b5af2d91564d4548de255", "lon": -77.0346605, "fusion_lat": 0.0, "rental_uris": {"android": "https://dc.lft.to/lastmile_qr_scan", "ios": "https://dc.lft.to/lastmile_qr_scan"}, "type": "electric_scooter"}, {"is_reserved": 0, "is_disabled": 0, "fusion_lon": 0.0, "lat": 38.91363033333333, "name": "96d74b8eb93c3e04593afff7401e9977", "bike_id": "96d74b8eb93c3e04593afff7401e9977", "lon": -77.04555783333333, "fusion_lat": 0.0, "rental_uris": {"android": "https://dc.lft.to/lastmile_qr_scan", "ios": "https://dc.lft.to/lastmile_qr_scan"}, "type": "electric_scooter"}, {"is_reserved": 0, "is_disabled": 0, "fusion_lon": 0.0, "lat": 38.937162, "name": "9ea1341656775ff8e74bf5b3174c84f9", "bike_id": "9ea1341656775ff8e74bf5b3174c84f9", "lon": -77.03289066666666, "fusion_lat": 0.0, "rental_uris": {"android": "https://dc.lft.to/lastmile_qr_scan", "ios": "https://dc.lft.to/lastmile_qr_scan"}, "type": "electric_scooter"}, {"is_reserved": 0, "is_disabled": 0, "fusion_lon": 0.0, "lat": 38.91116433333333, "name": "1b9a57f6fb0d5428f601abcc037db3e6", "bike_id": "1b9a57f6fb0d5428f601abcc037db3e6", "lon": -77.03609283333333, "fusion_lat": 0.0, "rental_uris": {"android": "https://dc.lft.to/lastmile_qr_scan", "ios": "https://dc.lft.to/lastmile_qr_scan"}, "type": "electric_scooter"}, {"is_reserved": 0, "is_disabled": 0, "fusion_lon": 0.0, "lat": 38.90222883333333, "name": "5ddd7f460c2374d70e9f68e7777273d7", "bike_id": "5ddd7f460c2374d70e9f68e7777273d7", "lon": -77.048043, "fusion_lat": 0.0, "rental_uris": {"android": "https://dc.lft.to/lastmile_qr_scan", "ios": "https://dc.lft.to/lastmile_qr_scan"}, "type": "electric_scooter"}, {"is_reserved": 0, "is_disabled": 0, "fusion_lon": 0.0, "lat": 38.9092585, "name": "c906e95e719b105ef20c5d81e428764f", "bike_id": "c906e95e719b105ef20c5d81e428764f", "lon": -77.07276483333334, "fusion_lat": 0.0, "rental_uris": {"android": "https://dc.lft.to/lastmile_qr_scan", "ios": "https://dc.lft.to/lastmile_qr_scan"}, "type": "electric_scooter"}, {"is_reserved": 0, "is_disabled": 0, "fusion_lon": 0.0, "lat": 38.93529266666667, "name": "095259537712143209828062e6d9f539", "bike_id": "095259537712143209828062e6d9f539", "lon": -77.07290383333333, "fusion_lat": 0.0, "rental_uris": {"android": "https://dc.lft.to/lastmile_qr_scan", "ios": "https://dc.lft.to/lastmile_qr_scan"}, "type": "electric_scooter"}, {"is_reserved": 0, "is_disabled": 0, "fusion_lon": 0.0, "lat": 38.9248285, "name": "f133d7ee37720023e6c3b9d45631a1e9", "bike_id": "f133d7ee37720023e6c3b9d45631a1e9", "lon": -77.03947366666667, "fusion_lat": 0.0, "rental_uris": {"android": "https://dc.lft.to/lastmile_qr_scan", "ios": "https://dc.lft.to/lastmile_qr_scan"}, "type": "electric_scooter"}, {"is_reserved": 0, "is_disabled": 0, "fusion_lon": 0.0, "lat": 38.930891, "name": "c6860aede8ab09d848cbcf71c2d04442", "bike_id": "c6860aede8ab09d848cbcf71c2d04442", "lon": -77.03734666666666, "fusion_lat": 0.0, "rental_uris": {"android": "https://dc.lft.to/lastmile_qr_scan", "ios": "https://dc.lft.to/lastmile_qr_scan"}, "type": "electric_scooter"}, {"is_reserved": 0, "is_disabled": 0, "fusion_lon": 0.0, "lat": 38.90439666666666, "name": "bbcd06a2c69e166849ccdab8901800ae", "bike_id": "bbcd06a2c69e166849ccdab8901800ae", "lon": -77.05322266666667, "fusion_lat": 0.0, "rental_uris": {"android": "https://dc.lft.to/lastmile_qr_scan", "ios": "https://dc.lft.to/lastmile_qr_scan"}, "type": "electric_scooter"}, {"is_reserved": 0, "is_disabled": 0, "fusion_lon": 0.0, "lat": 38.903091833333335, "name": "c563601c542fd6bd16672ee6df1e1f57", "bike_id": "c563601c542fd6bd16672ee6df1e1f57", "lon": -77.05051, "fusion_lat": 0.0, "rental_uris": {"android": "https://dc.lft.to/lastmile_qr_scan", "ios": "https://dc.lft.to/lastmile_qr_scan"}, "type": "electric_scooter"}, {"is_reserved": 0, "is_disabled": 0, "fusion_lon": 0.0, "lat": 38.897302333333336, "name": "d72108525bb175618204bbc2af764002", "bike_id": "d72108525bb175618204bbc2af764002", "lon": -77.0552275, "fusion_lat": 0.0, "rental_uris": {"android": "https://dc.lft.to/lastmile_qr_scan", "ios": "https://dc.lft.to/lastmile_qr_scan"}, "type": "electric_scooter"}, {"is_reserved": 0, "is_disabled": 0, "fusion_lon": 0.0, "lat": 38.784623333333336, "name": "7f1c2fe034f699408325be60361e04b8", "bike_id": "7f1c2fe034f699408325be60361e04b8", "lon": -77.05437733333333, "fusion_lat": 0.0, "rental_uris": {"android": "https://dc.lft.to/lastmile_qr_scan", "ios": "https://dc.lft.to/lastmile_qr_scan"}, "type": "electric_bike"}, {"is_reserved": 0, "is_disabled": 0, "fusion_lon": 0.0, "lat": 38.89321616666667, "name": "8a570d171258ea64dea365833c9dee63", "bike_id": "8a570d171258ea64dea365833c9dee63", "lon": -77.0222075, "fusion_lat": 0.0, "rental_uris": {"android": "https://dc.lft.to/lastmile_qr_scan", "ios": "https://dc.lft.to/lastmile_qr_scan"}, "type": "electric_scooter"}, {"is_reserved": 0, "is_disabled": 0, "fusion_lon": 0.0, "lat": 38.927977, "name": "341064a96d30cd6e644c9604a8210294", "bike_id": "341064a96d30cd6e644c9604a8210294", "lon": -77.01548566666666, "fusion_lat": 0.0, "rental_uris": {"android": "https://dc.lft.to/lastmile_qr_scan", "ios": "https://dc.lft.to/lastmile_qr_scan"}, "type": "electric_scooter"}, {"is_reserved": 0, "is_disabled": 0, "fusion_lon": 0.0, "lat": 38.921407, "name": "e0a0c9df6ebbeff508aeef805865b8f3", "bike_id": "e0a0c9df6ebbeff508aeef805865b8f3", "lon": -77.01837866666666, "fusion_lat": 0.0, "rental_uris": {"android": "https://dc.lft.to/lastmile_qr_scan", "ios": "https://dc.lft.to/lastmile_qr_scan"}, "type": "electric_scooter"}, {"is_reserved": 0, "is_disabled": 0, "fusion_lon": 0.0, "lat": 38.9214585, "name": "a5f19546a81af2510d38497a44f13b96", "bike_id": "a5f19546a81af2510d38497a44f13b96", "lon": -77.03375233333334, "fusion_lat": 0.0, "rental_uris": {"android": "https://dc.lft.to/lastmile_qr_scan", "ios": "https://dc.lft.to/lastmile_qr_scan"}, "type": "electric_scooter"}, {"is_reserved": 0, "is_disabled": 0, "fusion_lon": 0.0, "lat": 38.91712033333334, "name": "5a2088d4571a31d8724eeb8325d167b3", "bike_id": "5a2088d4571a31d8724eeb8325d167b3", "lon": -77.02510666666667, "fusion_lat": 0.0, "rental_uris": {"android": "https://dc.lft.to/lastmile_qr_scan", "ios": "https://dc.lft.to/lastmile_qr_scan"}, "type": "electric_scooter"}, {"is_reserved": 0, "is_disabled": 0, "fusion_lon": 0.0, "lat": 38.909439666666664, "name": "986ae21106bf67f5cda0aa15ed79355a", "bike_id": "986ae21106bf67f5cda0aa15ed79355a", "lon": -77.01529216666667, "fusion_lat": 0.0, "rental_uris": {"android": "https://dc.lft.to/lastmile_qr_scan", "ios": "https://dc.lft.to/lastmile_qr_scan"}, "type": "electric_scooter"}, {"is_reserved": 0, "is_disabled": 0, "fusion_lon": 0.0, "lat": 38.90668066666667, "name": "f49052121daebe2d3a73c17d7daa891a", "bike_id": "f49052121daebe2d3a73c17d7daa891a", "lon": -77.0488955, "fusion_lat": 0.0, "rental_uris": {"android": "https://dc.lft.to/lastmile_qr_scan", "ios": "https://dc.lft.to/lastmile_qr_scan"}, "type": "electric_scooter"}, {"is_reserved": 0, "is_disabled": 0, "fusion_lon": 0.0, "lat": 38.9622375, "name": "aae5747657699bdfd25a20640a4a8fc8", "bike_id": "aae5747657699bdfd25a20640a4a8fc8", "lon": -77.01355166666667, "fusion_lat": 0.0, "rental_uris": {"android": "https://dc.lft.to/lastmile_qr_scan", "ios": "https://dc.lft.to/lastmile_qr_scan"}, "type": "electric_scooter"}, {"is_reserved": 0, "is_disabled": 0, "fusion_lon": 0.0, "lat": 38.885510333333336, "name": "bf90ce3382eb1688a053bb065ab0c521", "bike_id": "bf90ce3382eb1688a053bb065ab0c521", "lon": -77.11692333333333, "fusion_lat": 0.0, "rental_uris": {"android": "https://dc.lft.to/lastmile_qr_scan", "ios": "https://dc.lft.to/lastmile_qr_scan"}, "type": "electric_bike"}, {"is_reserved": 0, "is_disabled": 0, "fusion_lon": 0.0, "lat": 38.892254333333334, "name": "d7a9a6ed63943d640eb5b80b75b7b700", "bike_id": "d7a9a6ed63943d640eb5b80b75b7b700", "lon": -77.03132583333333, "fusion_lat": 0.0, "rental_uris": {"android": "https://dc.lft.to/lastmile_qr_scan", "ios": "https://dc.lft.to/lastmile_qr_scan"}, "type": "electric_scooter"}, {"is_reserved": 0, "is_disabled": 0, "fusion_lon": 0.0, "lat": 38.9169105, "name": "ce552615e5e91ca250d1c74c91375ae0", "bike_id": "ce552615e5e91ca250d1c74c91375ae0", "lon": -77.021769, "fusion_lat": 0.0, "rental_uris": {"android": "https://dc.lft.to/lastmile_qr_scan", "ios": "https://dc.lft.to/lastmile_qr_scan"}, "type": "electric_scooter"}, {"is_reserved": 0, "is_disabled": 0, "fusion_lon": 0.0, "lat": 38.8799415, "name": "a39de1db6846b478c4929153b0993516", "bike_id": "a39de1db6846b478c4929153b0993516", "lon": -76.98540533333333, "fusion_lat": 0.0, "rental_uris": {"android": "https://dc.lft.to/lastmile_qr_scan", "ios": "https://dc.lft.to/lastmile_qr_scan"}, "type": "electric_scooter"}, {"is_reserved": 0, "is_disabled": 0, "fusion_lon": 0.0, "lat": 38.88290466666667, "name": "bbd5f8eb884847cfe961d7c1b6fe45d6", "bike_id": "bbd5f8eb884847cfe961d7c1b6fe45d6", "lon": -76.92898116666667, "fusion_lat": 0.0, "rental_uris": {"android": "https://dc.lft.to/lastmile_qr_scan", "ios": "https://dc.lft.to/lastmile_qr_scan"}, "type": "electric_scooter"}, {"is_reserved": 0, "is_disabled": 0, "fusion_lon": 0.0, "lat": 38.9162415, "name": "64de862212673d0927cfe0810418fe4d", "bike_id": "64de862212673d0927cfe0810418fe4d", "lon": -77.03500166666667, "fusion_lat": 0.0, "rental_uris": {"android": "https://dc.lft.to/lastmile_qr_scan", "ios": "https://dc.lft.to/lastmile_qr_scan"}, "type": "electric_scooter"}, {"is_reserved": 0, "is_disabled": 0, "fusion_lon": 0.0, "lat": 38.896218, "name": "3de32bfe91be0e91b2f5f9aa6fa82b66", "bike_id": "3de32bfe91be0e91b2f5f9aa6fa82b66", "lon": -77.02227483333333, "fusion_lat": 0.0, "rental_uris": {"android": "https://dc.lft.to/lastmile_qr_scan", "ios": "https://dc.lft.to/lastmile_qr_scan"}, "type": "electric_scooter"}, {"is_reserved": 0, "is_disabled": 0, "fusion_lon": 0.0, "lat": 38.89233883333333, "name": "f038c2189379f4ba60ea011b6b5377ad", "bike_id": "f038c2189379f4ba60ea011b6b5377ad", "lon": -77.0487785, "fusion_lat": 0.0, "rental_uris": {"android": "https://dc.lft.to/lastmile_qr_scan", "ios": "https://dc.lft.to/lastmile_qr_scan"}, "type": "electric_scooter"}, {"is_reserved": 0, "is_disabled": 0, "fusion_lon": 0.0, "lat": 38.91271283333333, "name": "144b6cc71255ab856f9fcb066445566c", "bike_id": "144b6cc71255ab856f9fcb066445566c", "lon": -77.02211783333334, "fusion_lat": 0.0, "rental_uris": {"android": "https://dc.lft.to/lastmile_qr_scan", "ios": "https://dc.lft.to/lastmile_qr_scan"}, "type": "electric_scooter"}, {"is_reserved": 0, "is_disabled": 0, "fusion_lon": 0.0, "lat": 38.88720383333333, "name": "df8a2e274f488006b772373debabaded", "bike_id": "df8a2e274f488006b772373debabaded", "lon": -77.0282195, "fusion_lat": 0.0, "rental_uris": {"android": "https://dc.lft.to/lastmile_qr_scan", "ios": "https://dc.lft.to/lastmile_qr_scan"}, "type": "electric_scooter"}, {"is_reserved": 0, "is_disabled": 0, "fusion_lon": 0.0, "lat": 38.89502533333334, "name": "f2e1036a949fde6cfca60e0293dd01ef", "bike_id": "f2e1036a949fde6cfca60e0293dd01ef", "lon": -77.0416595, "fusion_lat": 0.0, "rental_uris": {"android": "https://dc.lft.to/lastmile_qr_scan", "ios": "https://dc.lft.to/lastmile_qr_scan"}, "type": "electric_scooter"}, {"is_reserved": 0, "is_disabled": 0, "fusion_lon": 0.0, "lat": 38.89562316666667, "name": "e12f465e14a2c0f0fd6bd5294cc3f9e4", "bike_id": "e12f465e14a2c0f0fd6bd5294cc3f9e4", "lon": -77.1273245, "fusion_lat": 0.0, "rental_uris": {"android": "https://dc.lft.to/lastmile_qr_scan", "ios": "https://dc.lft.to/lastmile_qr_scan"}, "type": "electric_bike"}, {"is_reserved": 0, "is_disabled": 0, "fusion_lon": 0.0, "lat": 38.92035633333333, "name": "019fc200a8d3e0463a4ec101af1cccfe", "bike_id": "019fc200a8d3e0463a4ec101af1cccfe", "lon": -76.97960683333334, "fusion_lat": 0.0, "rental_uris": {"android": "https://dc.lft.to/lastmile_qr_scan", "ios": "https://dc.lft.to/lastmile_qr_scan"}, "type": "electric_bike"}, {"is_reserved": 0, "is_disabled": 0, "fusion_lon": 0.0, "lat": 38.91491933333333, "name": "2b14ba52ce4892cf249ebc7688ca4806", "bike_id": "2b14ba52ce4892cf249ebc7688ca4806", "lon": -77.02200866666666, "fusion_lat": 0.0, "rental_uris": {"android": "https://dc.lft.to/lastmile_qr_scan", "ios": "https://dc.lft.to/lastmile_qr_scan"}, "type": "electric_scooter"}, {"is_reserved": 0, "is_disabled": 0, "fusion_lon": 0.0, "lat": 38.8946915, "name": "fab2b5e340155fb73a7b384c2096d2bc", "bike_id": "fab2b5e340155fb73a7b384c2096d2bc", "lon": -77.02797233333334, "fusion_lat": 0.0, "rental_uris": {"android": "https://dc.lft.to/lastmile_qr_scan", "ios": "https://dc.lft.to/lastmile_qr_scan"}, "type": "electric_scooter"}, {"is_reserved": 0, "is_disabled": 0, "fusion_lon": 0.0, "lat": 38.8988465, "name": "f205d013b59af4000bdc8424af6b0e23", "bike_id": "f205d013b59af4000bdc8424af6b0e23", "lon": -77.029666, "fusion_lat": 0.0, "rental_uris": {"android": "https://dc.lft.to/lastmile_qr_scan", "ios": "https://dc.lft.to/lastmile_qr_scan"}, "type": "electric_scooter"}, {"is_reserved": 0, "is_disabled": 0, "fusion_lon": 0.0, "lat": 38.8988445, "name": "b211b7504582267dcecf074c4e87c7f3", "bike_id": "b211b7504582267dcecf074c4e87c7f3", "lon": -76.931755, "fusion_lat": 0.0, "rental_uris": {"android": "https://dc.lft.to/lastmile_qr_scan", "ios": "https://dc.lft.to/lastmile_qr_scan"}, "type": "electric_scooter"}, {"is_reserved": 0, "is_disabled": 0, "fusion_lon": 0.0, "lat": 38.88986516666667, "name": "37499cf17bd42c9df9d49e2171a4a14f", "bike_id": "37499cf17bd42c9df9d49e2171a4a14f", "lon": -76.92108383333333, "fusion_lat": 0.0, "rental_uris": {"android": "https://dc.lft.to/lastmile_qr_scan", "ios": "https://dc.lft.to/lastmile_qr_scan"}, "type": "electric_scooter"}, {"is_reserved": 0, "is_disabled": 0, "fusion_lon": 0.0, "lat": 38.87454866666667, "name": "4c73f003488be2bf6d1aec52eed530d9", "bike_id": "4c73f003488be2bf6d1aec52eed530d9", "lon": -77.00936483333334, "fusion_lat": 0.0, "rental_uris": {"android": "https://dc.lft.to/lastmile_qr_scan", "ios": "https://dc.lft.to/lastmile_qr_scan"}, "type": "electric_scooter"}, {"is_reserved": 0, "is_disabled": 0, "fusion_lon": 0.0, "lat": 38.899069833333336, "name": "797dc77e604780e4f37b60fb7e73d59d", "bike_id": "797dc77e604780e4f37b60fb7e73d59d", "lon": -77.03958683333333, "fusion_lat": 0.0, "rental_uris": {"android": "https://dc.lft.to/lastmile_qr_scan", "ios": "https://dc.lft.to/lastmile_qr_scan"}, "type": "electric_scooter"}, {"is_reserved": 0, "is_disabled": 0, "fusion_lon": 0.0, "lat": 38.9002895, "name": "dfe51a1eca35153c40134bb960d99f47", "bike_id": "dfe51a1eca35153c40134bb960d99f47", "lon": -76.99847783333334, "fusion_lat": 0.0, "rental_uris": {"android": "https://dc.lft.to/lastmile_qr_scan", "ios": "https://dc.lft.to/lastmile_qr_scan"}, "type": "electric_scooter"}, {"is_reserved": 0, "is_disabled": 0, "fusion_lon": 0.0, "lat": 38.886655833333336, "name": "68aecea46f4c40bcb82fb30f9d0a476c", "bike_id": "68aecea46f4c40bcb82fb30f9d0a476c", "lon": -77.0136815, "fusion_lat": 0.0, "rental_uris": {"android": "https://dc.lft.to/lastmile_qr_scan", "ios": "https://dc.lft.to/lastmile_qr_scan"}, "type": "electric_scooter"}, {"is_reserved": 0, "is_disabled": 0, "fusion_lon": 0.0, "lat": 38.9039575, "name": "4953c4887ca88bc914ebbfe6f604d535", "bike_id": "4953c4887ca88bc914ebbfe6f604d535", "lon": -76.98950266666667, "fusion_lat": 0.0, "rental_uris": {"android": "https://dc.lft.to/lastmile_qr_scan", "ios": "https://dc.lft.to/lastmile_qr_scan"}, "type": "electric_scooter"}, {"is_reserved": 0, "is_disabled": 0, "fusion_lon": 0.0, "lat": 38.90865, "name": "78ef5061fcb9bf80f6441552031aa695", "bike_id": "78ef5061fcb9bf80f6441552031aa695", "lon": -77.0859365, "fusion_lat": 0.0, "rental_uris": {"android": "https://dc.lft.to/lastmile_qr_scan", "ios": "https://dc.lft.to/lastmile_qr_scan"}, "type": "electric_scooter"}, {"is_reserved": 0, "is_disabled": 0, "fusion_lon": 0.0, "lat": 38.907865666666666, "name": "793f03b167a0e4a6502f3bf185153873", "bike_id": "793f03b167a0e4a6502f3bf185153873", "lon": -77.00968833333333, "fusion_lat": 0.0, "rental_uris": {"android": "https://dc.lft.to/lastmile_qr_scan", "ios": "https://dc.lft.to/lastmile_qr_scan"}, "type": "electric_scooter"}, {"is_reserved": 0, "is_disabled": 0, "fusion_lon": 0.0, "lat": 38.91719583333333, "name": "eb928bc1aa6bb6871b4a0f670db23219", "bike_id": "eb928bc1aa6bb6871b4a0f670db23219", "lon": -77.0416075, "fusion_lat": 0.0, "rental_uris": {"android": "https://dc.lft.to/lastmile_qr_scan", "ios": "https://dc.lft.to/lastmile_qr_scan"}, "type": "electric_scooter"}, {"is_reserved": 0, "is_disabled": 0, "fusion_lon": 0.0, "lat": 38.9083635, "name": "238129041a54717136564d89befde790", "bike_id": "238129041a54717136564d89befde790", "lon": -77.00198366666666, "fusion_lat": 0.0, "rental_uris": {"android": "https://dc.lft.to/lastmile_qr_scan", "ios": "https://dc.lft.to/lastmile_qr_scan"}, "type": "electric_scooter"}, {"is_reserved": 0, "is_disabled": 0, "fusion_lon": 0.0, "lat": 38.914471666666664, "name": "a0973ba501c50350f7d2e0c13ef1b901", "bike_id": "a0973ba501c50350f7d2e0c13ef1b901", "lon": -77.02170183333334, "fusion_lat": 0.0, "rental_uris": {"android": "https://dc.lft.to/lastmile_qr_scan", "ios": "https://dc.lft.to/lastmile_qr_scan"}, "type": "electric_scooter"}, {"is_reserved": 0, "is_disabled": 0, "fusion_lon": 0.0, "lat": 38.94241016666667, "name": "bb5d7546921fd8eb62ab0773b9c51ab1", "bike_id": "bb5d7546921fd8eb62ab0773b9c51ab1", "lon": -77.00225633333334, "fusion_lat": 0.0, "rental_uris": {"android": "https://dc.lft.to/lastmile_qr_scan", "ios": "https://dc.lft.to/lastmile_qr_scan"}, "type": "electric_scooter"}, {"is_reserved": 0, "is_disabled": 0, "fusion_lon": 0.0, "lat": 38.89623066666667, "name": "da347a2aa5412fe05c3e2fec05981a7d", "bike_id": "da347a2aa5412fe05c3e2fec05981a7d", "lon": -76.90753050000001, "fusion_lat": 0.0, "rental_uris": {"android": "https://dc.lft.to/lastmile_qr_scan", "ios": "https://dc.lft.to/lastmile_qr_scan"}, "type": "electric_bike"}, {"is_reserved": 0, "is_disabled": 0, "fusion_lon": 0.0, "lat": 38.894915166666664, "name": "fd242672534a451ecf4b4aecd3044a50", "bike_id": "fd242672534a451ecf4b4aecd3044a50", "lon": -76.99505983333333, "fusion_lat": 0.0, "rental_uris": {"android": "https://dc.lft.to/lastmile_qr_scan", "ios": "https://dc.lft.to/lastmile_qr_scan"}, "type": "electric_scooter"}, {"is_reserved": 0, "is_disabled": 0, "fusion_lon": 0.0, "lat": 38.926763, "name": "76545cf1dd85483c51c77ac02cc8250c", "bike_id": "76545cf1dd85483c51c77ac02cc8250c", "lon": -77.02581366666666, "fusion_lat": 0.0, "rental_uris": {"android": "https://dc.lft.to/lastmile_qr_scan", "ios": "https://dc.lft.to/lastmile_qr_scan"}, "type": "electric_scooter"}, {"is_reserved": 0, "is_disabled": 0, "fusion_lon": 0.0, "lat": 38.90392766666667, "name": "50395b67b1b3b58686897c0175b67413", "bike_id": "50395b67b1b3b58686897c0175b67413", "lon": -77.025881, "fusion_lat": 0.0, "rental_uris": {"android": "https://dc.lft.to/lastmile_qr_scan", "ios": "https://dc.lft.to/lastmile_qr_scan"}, "type": "electric_scooter"}, {"is_reserved": 0, "is_disabled": 0, "fusion_lon": 0.0, "lat": 38.897495, "name": "ca11229033d09f5494fe590cc32a4628", "bike_id": "ca11229033d09f5494fe590cc32a4628", "lon": -77.02887183333333, "fusion_lat": 0.0, "rental_uris": {"android": "https://dc.lft.to/lastmile_qr_scan", "ios": "https://dc.lft.to/lastmile_qr_scan"}, "type": "electric_scooter"}, {"is_reserved": 0, "is_disabled": 0, "fusion_lon": 0.0, "lat": 38.90570566666667, "name": "9da5ff9315e09382eb359529a091878f", "bike_id": "9da5ff9315e09382eb359529a091878f", "lon": -77.0407015, "fusion_lat": 0.0, "rental_uris": {"android": "https://dc.lft.to/lastmile_qr_scan", "ios": "https://dc.lft.to/lastmile_qr_scan"}, "type": "electric_scooter"}, {"is_reserved": 0, "is_disabled": 0, "fusion_lon": 0.0, "lat": 38.916520166666665, "name": "a2147447729da1976699c192550a682b", "bike_id": "a2147447729da1976699c192550a682b", "lon": -77.03190883333333, "fusion_lat": 0.0, "rental_uris": {"android": "https://dc.lft.to/lastmile_qr_scan", "ios": "https://dc.lft.to/lastmile_qr_scan"}, "type": "electric_scooter"}, {"is_reserved": 0, "is_disabled": 0, "fusion_lon": 0.0, "lat": 38.9385435, "name": "84a671a41bac72f8ab90ca5642190db6", "bike_id": "84a671a41bac72f8ab90ca5642190db6", "lon": -77.02466566666666, "fusion_lat": 0.0, "rental_uris": {"android": "https://dc.lft.to/lastmile_qr_scan", "ios": "https://dc.lft.to/lastmile_qr_scan"}, "type": "electric_scooter"}, {"is_reserved": 0, "is_disabled": 0, "fusion_lon": 0.0, "lat": 38.91970416666667, "name": "fc364cafc0cdeb7d9e7c0e9cab721336", "bike_id": "fc364cafc0cdeb7d9e7c0e9cab721336", "lon": -77.001098, "fusion_lat": 0.0, "rental_uris": {"android": "https://dc.lft.to/lastmile_qr_scan", "ios": "https://dc.lft.to/lastmile_qr_scan"}, "type": "electric_scooter"}, {"is_reserved": 0, "is_disabled": 0, "fusion_lon": 0.0, "lat": 38.900391666666664, "name": "9ae2540dcb19e9683059ccb3ace67aa5", "bike_id": "9ae2540dcb19e9683059ccb3ace67aa5", "lon": -77.01238133333334, "fusion_lat": 0.0, "rental_uris": {"android": "https://dc.lft.to/lastmile_qr_scan", "ios": "https://dc.lft.to/lastmile_qr_scan"}, "type": "electric_scooter"}, {"is_reserved": 0, "is_disabled": 0, "fusion_lon": 0.0, "lat": 38.931983, "name": "02391462c8110eea9d38ba0e6fd7ff59", "bike_id": "02391462c8110eea9d38ba0e6fd7ff59", "lon": -77.03753483333334, "fusion_lat": 0.0, "rental_uris": {"android": "https://dc.lft.to/lastmile_qr_scan", "ios": "https://dc.lft.to/lastmile_qr_scan"}, "type": "electric_scooter"}, {"is_reserved": 0, "is_disabled": 0, "fusion_lon": 0.0, "lat": 38.902748333333335, "name": "fc3ad95551e5dce94078de6b757431bc", "bike_id": "fc3ad95551e5dce94078de6b757431bc", "lon": -77.01743216666667, "fusion_lat": 0.0, "rental_uris": {"android": "https://dc.lft.to/lastmile_qr_scan", "ios": "https://dc.lft.to/lastmile_qr_scan"}, "type": "electric_scooter"}, {"is_reserved": 0, "is_disabled": 0, "fusion_lon": 0.0, "lat": 38.905584166666664, "name": "e695bada9c97caa7a374d74386d6d1a5", "bike_id": "e695bada9c97caa7a374d74386d6d1a5", "lon": -77.0061255, "fusion_lat": 0.0, "rental_uris": {"android": "https://dc.lft.to/lastmile_qr_scan", "ios": "https://dc.lft.to/lastmile_qr_scan"}, "type": "electric_scooter"}, {"is_reserved": 0, "is_disabled": 0, "fusion_lon": 0.0, "lat": 38.89127366666666, "name": "15a51ea558ad0551c9ce40a2faba5355", "bike_id": "15a51ea558ad0551c9ce40a2faba5355", "lon": -76.940622, "fusion_lat": 0.0, "rental_uris": {"android": "https://dc.lft.to/lastmile_qr_scan", "ios": "https://dc.lft.to/lastmile_qr_scan"}, "type": "electric_bike"}, {"is_reserved": 0, "is_disabled": 0, "fusion_lon": 0.0, "lat": 38.92329933333333, "name": "993d58801a7c983f615ede2324dc4cd9", "bike_id": "993d58801a7c983f615ede2324dc4cd9", "lon": -77.05684533333333, "fusion_lat": 0.0, "rental_uris": {"android": "https://dc.lft.to/lastmile_qr_scan", "ios": "https://dc.lft.to/lastmile_qr_scan"}, "type": "electric_scooter"}, {"is_reserved": 0, "is_disabled": 0, "fusion_lon": 0.0, "lat": 38.89742716666667, "name": "e1cda4e9ef44ad7290e436cbf87f27e1", "bike_id": "e1cda4e9ef44ad7290e436cbf87f27e1", "lon": -77.00075266666667, "fusion_lat": 0.0, "rental_uris": {"android": "https://dc.lft.to/lastmile_qr_scan", "ios": "https://dc.lft.to/lastmile_qr_scan"}, "type": "electric_scooter"}, {"is_reserved": 0, "is_disabled": 0, "fusion_lon": 0.0, "lat": 38.916178333333335, "name": "2ef61e76d3f98c57487137991d8511f4", "bike_id": "2ef61e76d3f98c57487137991d8511f4", "lon": -77.048641, "fusion_lat": 0.0, "rental_uris": {"android": "https://dc.lft.to/lastmile_qr_scan", "ios": "https://dc.lft.to/lastmile_qr_scan"}, "type": "electric_scooter"}, {"is_reserved": 0, "is_disabled": 0, "fusion_lon": 0.0, "lat": 38.913581666666666, "name": "f73a40f7abfd0b9da0c6250a446964d4", "bike_id": "f73a40f7abfd0b9da0c6250a446964d4", "lon": -77.03365183333334, "fusion_lat": 0.0, "rental_uris": {"android": "https://dc.lft.to/lastmile_qr_scan", "ios": "https://dc.lft.to/lastmile_qr_scan"}, "type": "electric_scooter"}, {"is_reserved": 0, "is_disabled": 0, "fusion_lon": 0.0, "lat": 38.90469266666667, "name": "0efc0d2d6a5aa9c30aa84298394f0507", "bike_id": "0efc0d2d6a5aa9c30aa84298394f0507", "lon": -77.03575483333333, "fusion_lat": 0.0, "rental_uris": {"android": "https://dc.lft.to/lastmile_qr_scan", "ios": "https://dc.lft.to/lastmile_qr_scan"}, "type": "electric_scooter"}, {"is_reserved": 0, "is_disabled": 0, "fusion_lon": 0.0, "lat": 38.90973316666667, "name": "b6cc11c57e69b3ba6bcda8ba87fa2133", "bike_id": "b6cc11c57e69b3ba6bcda8ba87fa2133", "lon": -77.04737, "fusion_lat": 0.0, "rental_uris": {"android": "https://dc.lft.to/lastmile_qr_scan", "ios": "https://dc.lft.to/lastmile_qr_scan"}, "type": "electric_scooter"}, {"is_reserved": 0, "is_disabled": 0, "fusion_lon": 0.0, "lat": 38.938620666666665, "name": "648916f42dc543bdb5f594c6e6835fe8", "bike_id": "648916f42dc543bdb5f594c6e6835fe8", "lon": -76.99439533333333, "fusion_lat": 0.0, "rental_uris": {"android": "https://dc.lft.to/lastmile_qr_scan", "ios": "https://dc.lft.to/lastmile_qr_scan"}, "type": "electric_scooter"}, {"is_reserved": 0, "is_disabled": 0, "fusion_lon": 0.0, "lat": 38.89959566666667, "name": "bc5baa9aaab9ae7c9938b0e03c0087b0", "bike_id": "bc5baa9aaab9ae7c9938b0e03c0087b0", "lon": -77.04510116666667, "fusion_lat": 0.0, "rental_uris": {"android": "https://dc.lft.to/lastmile_qr_scan", "ios": "https://dc.lft.to/lastmile_qr_scan"}, "type": "electric_scooter"}, {"is_reserved": 0, "is_disabled": 0, "fusion_lon": 0.0, "lat": 38.921165333333335, "name": "306940c6947f9313cd81286032b1ef26", "bike_id": "306940c6947f9313cd81286032b1ef26", "lon": -77.03657916666667, "fusion_lat": 0.0, "rental_uris": {"android": "https://dc.lft.to/lastmile_qr_scan", "ios": "https://dc.lft.to/lastmile_qr_scan"}, "type": "electric_scooter"}, {"is_reserved": 0, "is_disabled": 0, "fusion_lon": 0.0, "lat": 38.924174, "name": "4c4284d2150024bb71b4008ec5f462ff", "bike_id": "4c4284d2150024bb71b4008ec5f462ff", "lon": -77.02129766666667, "fusion_lat": 0.0, "rental_uris": {"android": "https://dc.lft.to/lastmile_qr_scan", "ios": "https://dc.lft.to/lastmile_qr_scan"}, "type": "electric_scooter"}, {"is_reserved": 0, "is_disabled": 0, "fusion_lon": 0.0, "lat": 38.91412316666667, "name": "f0d6371e038fa7a3152f7e05104c152d", "bike_id": "f0d6371e038fa7a3152f7e05104c152d", "lon": -77.02236816666667, "fusion_lat": 0.0, "rental_uris": {"android": "https://dc.lft.to/lastmile_qr_scan", "ios": "https://dc.lft.to/lastmile_qr_scan"}, "type": "electric_scooter"}, {"is_reserved": 0, "is_disabled": 0, "fusion_lon": 0.0, "lat": 38.935272833333336, "name": "ccfd9e64a8bb1154f943428daddc278e", "bike_id": "ccfd9e64a8bb1154f943428daddc278e", "lon": -77.0349535, "fusion_lat": 0.0, "rental_uris": {"android": "https://dc.lft.to/lastmile_qr_scan", "ios": "https://dc.lft.to/lastmile_qr_scan"}, "type": "electric_scooter"}, {"is_reserved": 0, "is_disabled": 0, "fusion_lon": 0.0, "lat": 38.896887, "name": "8a2cd6756069c3a94edccc036f900050", "bike_id": "8a2cd6756069c3a94edccc036f900050", "lon": -77.0058685, "fusion_lat": 0.0, "rental_uris": {"android": "https://dc.lft.to/lastmile_qr_scan", "ios": "https://dc.lft.to/lastmile_qr_scan"}, "type": "electric_scooter"}, {"is_reserved": 0, "is_disabled": 0, "fusion_lon": 0.0, "lat": 38.927739833333334, "name": "66dfe515fa31e2aa5db5ee5f1a264aa1", "bike_id": "66dfe515fa31e2aa5db5ee5f1a264aa1", "lon": -77.0370665, "fusion_lat": 0.0, "rental_uris": {"android": "https://dc.lft.to/lastmile_qr_scan", "ios": "https://dc.lft.to/lastmile_qr_scan"}, "type": "electric_scooter"}, {"is_reserved": 0, "is_disabled": 0, "fusion_lon": 0.0, "lat": 38.914036333333335, "name": "53fdc9a77e99bdb8f672312c136aef58", "bike_id": "53fdc9a77e99bdb8f672312c136aef58", "lon": -77.0488585, "fusion_lat": 0.0, "rental_uris": {"android": "https://dc.lft.to/lastmile_qr_scan", "ios": "https://dc.lft.to/lastmile_qr_scan"}, "type": "electric_scooter"}, {"is_reserved": 0, "is_disabled": 0, "fusion_lon": 0.0, "lat": 38.91626083333333, "name": "a874871a330c6bc36efd729e705609ba", "bike_id": "a874871a330c6bc36efd729e705609ba", "lon": -77.05058483333333, "fusion_lat": 0.0, "rental_uris": {"android": "https://dc.lft.to/lastmile_qr_scan", "ios": "https://dc.lft.to/lastmile_qr_scan"}, "type": "electric_scooter"}, {"is_reserved": 0, "is_disabled": 0, "fusion_lon": 0.0, "lat": 38.92002883333333, "name": "75208ba70c4fcd46cdf3204f49001837", "bike_id": "75208ba70c4fcd46cdf3204f49001837", "lon": -76.98499983333333, "fusion_lat": 0.0, "rental_uris": {"android": "https://dc.lft.to/lastmile_qr_scan", "ios": "https://dc.lft.to/lastmile_qr_scan"}, "type": "electric_scooter"}, {"is_reserved": 0, "is_disabled": 0, "fusion_lon": 0.0, "lat": 38.9312235, "name": "d496c93b4dfdd618066f7e6b4e0888f4", "bike_id": "d496c93b4dfdd618066f7e6b4e0888f4", "lon": -77.02071516666666, "fusion_lat": 0.0, "rental_uris": {"android": "https://dc.lft.to/lastmile_qr_scan", "ios": "https://dc.lft.to/lastmile_qr_scan"}, "type": "electric_scooter"}, {"is_reserved": 0, "is_disabled": 0, "fusion_lon": 0.0, "lat": 38.91570183333333, "name": "742b649a80184b334be3308b8a60f0d4", "bike_id": "742b649a80184b334be3308b8a60f0d4", "lon": -77.020082, "fusion_lat": 0.0, "rental_uris": {"android": "https://dc.lft.to/lastmile_qr_scan", "ios": "https://dc.lft.to/lastmile_qr_scan"}, "type": "electric_scooter"}, {"is_reserved": 0, "is_disabled": 0, "fusion_lon": 0.0, "lat": 38.942927, "name": "6f4c11b16b2323c2f153f35cea3934cb", "bike_id": "6f4c11b16b2323c2f153f35cea3934cb", "lon": -77.02635733333334, "fusion_lat": 0.0, "rental_uris": {"android": "https://dc.lft.to/lastmile_qr_scan", "ios": "https://dc.lft.to/lastmile_qr_scan"}, "type": "electric_scooter"}, {"is_reserved": 0, "is_disabled": 0, "fusion_lon": 0.0, "lat": 38.922519333333334, "name": "ef89f7541f774795d9f4895d2757f299", "bike_id": "ef89f7541f774795d9f4895d2757f299", "lon": -77.03057933333334, "fusion_lat": 0.0, "rental_uris": {"android": "https://dc.lft.to/lastmile_qr_scan", "ios": "https://dc.lft.to/lastmile_qr_scan"}, "type": "electric_scooter"}, {"is_reserved": 0, "is_disabled": 0, "fusion_lon": 0.0, "lat": 38.90609533333333, "name": "46b988ce43c1d29f6649217a6ac9ec41", "bike_id": "46b988ce43c1d29f6649217a6ac9ec41", "lon": -77.12884466666667, "fusion_lat": 0.0, "rental_uris": {"android": "https://dc.lft.to/lastmile_qr_scan", "ios": "https://dc.lft.to/lastmile_qr_scan"}, "type": "electric_bike"}, {"is_reserved": 0, "is_disabled": 0, "fusion_lon": 0.0, "lat": 38.896079, "name": "268f733291af7088146a5a67ea58dc0d", "bike_id": "268f733291af7088146a5a67ea58dc0d", "lon": -77.0451645, "fusion_lat": 0.0, "rental_uris": {"android": "https://dc.lft.to/lastmile_qr_scan", "ios": "https://dc.lft.to/lastmile_qr_scan"}, "type": "electric_scooter"}, {"is_reserved": 0, "is_disabled": 0, "fusion_lon": 0.0, "lat": 38.900012, "name": "c50ffa796536f64590b5038dae893991", "bike_id": "c50ffa796536f64590b5038dae893991", "lon": -77.033552, "fusion_lat": 0.0, "rental_uris": {"android": "https://dc.lft.to/lastmile_qr_scan", "ios": "https://dc.lft.to/lastmile_qr_scan"}, "type": "electric_bike"}, {"is_reserved": 0, "is_disabled": 0, "fusion_lon": 0.0, "lat": 38.90406883333333, "name": "515e69e544b79db74194866822e6b3aa", "bike_id": "515e69e544b79db74194866822e6b3aa", "lon": -77.01870583333333, "fusion_lat": 0.0, "rental_uris": {"android": "https://dc.lft.to/lastmile_qr_scan", "ios": "https://dc.lft.to/lastmile_qr_scan"}, "type": "electric_scooter"}, {"is_reserved": 0, "is_disabled": 0, "fusion_lon": 0.0, "lat": 38.883766, "name": "2f74464e5c6ee922425dad39efb71d60", "bike_id": "2f74464e5c6ee922425dad39efb71d60", "lon": -77.020011, "fusion_lat": 0.0, "rental_uris": {"android": "https://dc.lft.to/lastmile_qr_scan", "ios": "https://dc.lft.to/lastmile_qr_scan"}, "type": "electric_scooter"}, {"is_reserved": 0, "is_disabled": 0, "fusion_lon": 0.0, "lat": 38.880753166666665, "name": "28bab5eebc15f7a2df3bf6d5973d7ee9", "bike_id": "28bab5eebc15f7a2df3bf6d5973d7ee9", "lon": -77.01176633333333, "fusion_lat": 0.0, "rental_uris": {"android": "https://dc.lft.to/lastmile_qr_scan", "ios": "https://dc.lft.to/lastmile_qr_scan"}, "type": "electric_scooter"}, {"is_reserved": 0, "is_disabled": 0, "fusion_lon": 0.0, "lat": 38.91745866666667, "name": "3fa2431343fb071a60aeee38db371458", "bike_id": "3fa2431343fb071a60aeee38db371458", "lon": -77.01710583333333, "fusion_lat": 0.0, "rental_uris": {"android": "https://dc.lft.to/lastmile_qr_scan", "ios": "https://dc.lft.to/lastmile_qr_scan"}, "type": "electric_scooter"}, {"is_reserved": 0, "is_disabled": 0, "fusion_lon": 0.0, "lat": 38.904968, "name": "1dc90f4f2e8e5232ab1624ec0bbd7d8d", "bike_id": "1dc90f4f2e8e5232ab1624ec0bbd7d8d", "lon": -77.02721766666667, "fusion_lat": 0.0, "rental_uris": {"android": "https://dc.lft.to/lastmile_qr_scan", "ios": "https://dc.lft.to/lastmile_qr_scan"}, "type": "electric_scooter"}, {"is_reserved": 0, "is_disabled": 0, "fusion_lon": 0.0, "lat": 38.91874816666667, "name": "f0110536eb3d493d792b33cf6bd87807", "bike_id": "f0110536eb3d493d792b33cf6bd87807", "lon": -77.04256766666667, "fusion_lat": 0.0, "rental_uris": {"android": "https://dc.lft.to/lastmile_qr_scan", "ios": "https://dc.lft.to/lastmile_qr_scan"}, "type": "electric_scooter"}, {"is_reserved": 0, "is_disabled": 0, "fusion_lon": 0.0, "lat": 38.902672, "name": "b6c7cf5dd631f9f3a8baedcc99766c8d", "bike_id": "b6c7cf5dd631f9f3a8baedcc99766c8d", "lon": -77.00328616666667, "fusion_lat": 0.0, "rental_uris": {"android": "https://dc.lft.to/lastmile_qr_scan", "ios": "https://dc.lft.to/lastmile_qr_scan"}, "type": "electric_scooter"}, {"is_reserved": 0, "is_disabled": 0, "fusion_lon": 0.0, "lat": 38.920348833333335, "name": "be9649a473a3f7cc085adb09de8025fd", "bike_id": "be9649a473a3f7cc085adb09de8025fd", "lon": -77.04796816666666, "fusion_lat": 0.0, "rental_uris": {"android": "https://dc.lft.to/lastmile_qr_scan", "ios": "https://dc.lft.to/lastmile_qr_scan"}, "type": "electric_scooter"}, {"is_reserved": 0, "is_disabled": 0, "fusion_lon": 0.0, "lat": 39.08489816666667, "name": "4c815da3cf4974e1604e8502cd5d96d3", "bike_id": "4c815da3cf4974e1604e8502cd5d96d3", "lon": -76.95046933333333, "fusion_lat": 0.0, "rental_uris": {"android": "https://dc.lft.to/lastmile_qr_scan", "ios": "https://dc.lft.to/lastmile_qr_scan"}, "type": "electric_bike"}, {"is_reserved": 0, "is_disabled": 0, "fusion_lon": 0.0, "lat": 38.9343665, "name": "51057f9c838cb8216b0078cc90cb0274", "bike_id": "51057f9c838cb8216b0078cc90cb0274", "lon": -77.03437883333334, "fusion_lat": 0.0, "rental_uris": {"android": "https://dc.lft.to/lastmile_qr_scan", "ios": "https://dc.lft.to/lastmile_qr_scan"}, "type": "electric_scooter"}, {"is_reserved": 0, "is_disabled": 0, "fusion_lon": 0.0, "lat": 38.902673666666665, "name": "d013b7d461439d0228bc7b3e5ec0fe23", "bike_id": "d013b7d461439d0228bc7b3e5ec0fe23", "lon": -77.02820183333333, "fusion_lat": 0.0, "rental_uris": {"android": "https://dc.lft.to/lastmile_qr_scan", "ios": "https://dc.lft.to/lastmile_qr_scan"}, "type": "electric_scooter"}, {"is_reserved": 0, "is_disabled": 0, "fusion_lon": 0.0, "lat": 38.98963716666667, "name": "6844e62427b773b7139ab19305946b59", "bike_id": "6844e62427b773b7139ab19305946b59", "lon": -77.09896283333333, "fusion_lat": 0.0, "rental_uris": {"android": "https://dc.lft.to/lastmile_qr_scan", "ios": "https://dc.lft.to/lastmile_qr_scan"}, "type": "electric_bike"}, {"is_reserved": 0, "is_disabled": 0, "fusion_lon": 0.0, "lat": 38.90543066666667, "name": "4335a2242152dadac1a644d648b3541e", "bike_id": "4335a2242152dadac1a644d648b3541e", "lon": -77.02189, "fusion_lat": 0.0, "rental_uris": {"android": "https://dc.lft.to/lastmile_qr_scan", "ios": "https://dc.lft.to/lastmile_qr_scan"}, "type": "electric_scooter"}, {"is_reserved": 0, "is_disabled": 0, "fusion_lon": 0.0, "lat": 38.91004266666667, "name": "1004ccac40348365af268fa0263e0431", "bike_id": "1004ccac40348365af268fa0263e0431", "lon": -77.02096683333333, "fusion_lat": 0.0, "rental_uris": {"android": "https://dc.lft.to/lastmile_qr_scan", "ios": "https://dc.lft.to/lastmile_qr_scan"}, "type": "electric_scooter"}, {"is_reserved": 0, "is_disabled": 0, "fusion_lon": 0.0, "lat": 38.920718, "name": "a94c6e7612b05303c45bca1a7824d5cd", "bike_id": "a94c6e7612b05303c45bca1a7824d5cd", "lon": -77.02418266666666, "fusion_lat": 0.0, "rental_uris": {"android": "https://dc.lft.to/lastmile_qr_scan", "ios": "https://dc.lft.to/lastmile_qr_scan"}, "type": "electric_scooter"}, {"is_reserved": 0, "is_disabled": 0, "fusion_lon": 0.0, "lat": 38.910126166666664, "name": "521c8261bfcca14398ed538303316a60", "bike_id": "521c8261bfcca14398ed538303316a60", "lon": -77.02205333333333, "fusion_lat": 0.0, "rental_uris": {"android": "https://dc.lft.to/lastmile_qr_scan", "ios": "https://dc.lft.to/lastmile_qr_scan"}, "type": "electric_scooter"}, {"is_reserved": 0, "is_disabled": 0, "fusion_lon": 0.0, "lat": 38.902040666666664, "name": "4f938748f80e1f76b3d8d6de85b72a63", "bike_id": "4f938748f80e1f76b3d8d6de85b72a63", "lon": -77.05898383333333, "fusion_lat": 0.0, "rental_uris": {"android": "https://dc.lft.to/lastmile_qr_scan", "ios": "https://dc.lft.to/lastmile_qr_scan"}, "type": "electric_scooter"}, {"is_reserved": 0, "is_disabled": 0, "fusion_lon": 0.0, "lat": 38.944498333333335, "name": "8b69bc15be52c48764c004d6beb53664", "bike_id": "8b69bc15be52c48764c004d6beb53664", "lon": -77.06350166666667, "fusion_lat": 0.0, "rental_uris": {"android": "https://dc.lft.to/lastmile_qr_scan", "ios": "https://dc.lft.to/lastmile_qr_scan"}, "type": "electric_scooter"}, {"is_reserved": 0, "is_disabled": 0, "fusion_lon": 0.0, "lat": 38.90849516666667, "name": "36ac8022d3ab830468fc65dfd2da756f", "bike_id": "36ac8022d3ab830468fc65dfd2da756f", "lon": -76.99799733333333, "fusion_lat": 0.0, "rental_uris": {"android": "https://dc.lft.to/lastmile_qr_scan", "ios": "https://dc.lft.to/lastmile_qr_scan"}, "type": "electric_scooter"}, {"is_reserved": 0, "is_disabled": 0, "fusion_lon": 0.0, "lat": 38.91990933333334, "name": "e62a3709b58a43f0a2ee13f2a2202b5c", "bike_id": "e62a3709b58a43f0a2ee13f2a2202b5c", "lon": -77.0324705, "fusion_lat": 0.0, "rental_uris": {"android": "https://dc.lft.to/lastmile_qr_scan", "ios": "https://dc.lft.to/lastmile_qr_scan"}, "type": "electric_scooter"}, {"is_reserved": 0, "is_disabled": 0, "fusion_lon": 0.0, "lat": 38.91573483333333, "name": "410c5e528c2edac8488c5efdd059610a", "bike_id": "410c5e528c2edac8488c5efdd059610a", "lon": -77.0463635, "fusion_lat": 0.0, "rental_uris": {"android": "https://dc.lft.to/lastmile_qr_scan", "ios": "https://dc.lft.to/lastmile_qr_scan"}, "type": "electric_scooter"}, {"is_reserved": 0, "is_disabled": 0, "fusion_lon": 0.0, "lat": 38.881394, "name": "d5e90cc53013ee75b72a1efb93cbe111", "bike_id": "d5e90cc53013ee75b72a1efb93cbe111", "lon": -77.017668, "fusion_lat": 0.0, "rental_uris": {"android": "https://dc.lft.to/lastmile_qr_scan", "ios": "https://dc.lft.to/lastmile_qr_scan"}, "type": "electric_scooter"}, {"is_reserved": 0, "is_disabled": 0, "fusion_lon": 0.0, "lat": 38.91419883333333, "name": "2378fdcccd48fc42bbc291b9e7348650", "bike_id": "2378fdcccd48fc42bbc291b9e7348650", "lon": -77.02062116666667, "fusion_lat": 0.0, "rental_uris": {"android": "https://dc.lft.to/lastmile_qr_scan", "ios": "https://dc.lft.to/lastmile_qr_scan"}, "type": "electric_scooter"}, {"is_reserved": 0, "is_disabled": 0, "fusion_lon": 0.0, "lat": 38.935004166666666, "name": "892b4d6e3da69082502002c58dbc3a90", "bike_id": "892b4d6e3da69082502002c58dbc3a90", "lon": -77.036358, "fusion_lat": 0.0, "rental_uris": {"android": "https://dc.lft.to/lastmile_qr_scan", "ios": "https://dc.lft.to/lastmile_qr_scan"}, "type": "electric_scooter"}, {"is_reserved": 0, "is_disabled": 0, "fusion_lon": 0.0, "lat": 38.903110166666664, "name": "6be86f76cc8192f715f8bcc3c887d466", "bike_id": "6be86f76cc8192f715f8bcc3c887d466", "lon": -77.01955533333333, "fusion_lat": 0.0, "rental_uris": {"android": "https://dc.lft.to/lastmile_qr_scan", "ios": "https://dc.lft.to/lastmile_qr_scan"}, "type": "electric_scooter"}, {"is_reserved": 0, "is_disabled": 0, "fusion_lon": 0.0, "lat": 38.903720666666665, "name": "e4fb84b6954cb3310e07f8ebcec9913e", "bike_id": "e4fb84b6954cb3310e07f8ebcec9913e", "lon": -77.036607, "fusion_lat": 0.0, "rental_uris": {"android": "https://dc.lft.to/lastmile_qr_scan", "ios": "https://dc.lft.to/lastmile_qr_scan"}, "type": "electric_scooter"}, {"is_reserved": 0, "is_disabled": 0, "fusion_lon": 0.0, "lat": 38.939917333333334, "name": "c0ce2c44fd4e74d4e4bef69e46c4e3b3", "bike_id": "c0ce2c44fd4e74d4e4bef69e46c4e3b3", "lon": -77.01740566666666, "fusion_lat": 0.0, "rental_uris": {"android": "https://dc.lft.to/lastmile_qr_scan", "ios": "https://dc.lft.to/lastmile_qr_scan"}, "type": "electric_scooter"}, {"is_reserved": 0, "is_disabled": 0, "fusion_lon": 0.0, "lat": 38.881221833333335, "name": "ac1f24f28a9d2ccee651a4d3cd91798a", "bike_id": "ac1f24f28a9d2ccee651a4d3cd91798a", "lon": -76.9934925, "fusion_lat": 0.0, "rental_uris": {"android": "https://dc.lft.to/lastmile_qr_scan", "ios": "https://dc.lft.to/lastmile_qr_scan"}, "type": "electric_scooter"}, {"is_reserved": 0, "is_disabled": 0, "fusion_lon": 0.0, "lat": 38.910259333333336, "name": "6bbcd92acee97bb6a1423968540243af", "bike_id": "6bbcd92acee97bb6a1423968540243af", "lon": -77.02937766666666, "fusion_lat": 0.0, "rental_uris": {"android": "https://dc.lft.to/lastmile_qr_scan", "ios": "https://dc.lft.to/lastmile_qr_scan"}, "type": "electric_scooter"}, {"is_reserved": 0, "is_disabled": 0, "fusion_lon": 0.0, "lat": 38.858108666666666, "name": "e02a6a7f979843c93e325eaab7e0400c", "bike_id": "e02a6a7f979843c93e325eaab7e0400c", "lon": -76.98996983333333, "fusion_lat": 0.0, "rental_uris": {"android": "https://dc.lft.to/lastmile_qr_scan", "ios": "https://dc.lft.to/lastmile_qr_scan"}, "type": "electric_scooter"}, {"is_reserved": 0, "is_disabled": 0, "fusion_lon": 0.0, "lat": 38.803847166666664, "name": "e0b27c4f66c6dde1bdd7b88166c4a3b6", "bike_id": "e0b27c4f66c6dde1bdd7b88166c4a3b6", "lon": -76.98813466666667, "fusion_lat": 0.0, "rental_uris": {"android": "https://dc.lft.to/lastmile_qr_scan", "ios": "https://dc.lft.to/lastmile_qr_scan"}, "type": "electric_bike"}, {"is_reserved": 0, "is_disabled": 0, "fusion_lon": 0.0, "lat": 38.91269716666667, "name": "bc1ad5e8548e53b80158024ad773b297", "bike_id": "bc1ad5e8548e53b80158024ad773b297", "lon": -77.02211266666667, "fusion_lat": 0.0, "rental_uris": {"android": "https://dc.lft.to/lastmile_qr_scan", "ios": "https://dc.lft.to/lastmile_qr_scan"}, "type": "electric_scooter"}, {"is_reserved": 0, "is_disabled": 0, "fusion_lon": 0.0, "lat": 38.905575666666664, "name": "d4a916862136ec06a72ca1db15de7d67", "bike_id": "d4a916862136ec06a72ca1db15de7d67", "lon": -76.98378583333333, "fusion_lat": 0.0, "rental_uris": {"android": "https://dc.lft.to/lastmile_qr_scan", "ios": "https://dc.lft.to/lastmile_qr_scan"}, "type": "electric_scooter"}, {"is_reserved": 0, "is_disabled": 0, "fusion_lon": 0.0, "lat": 38.887109833333334, "name": "dbb3301f0128d716ac90ea36e8614412", "bike_id": "dbb3301f0128d716ac90ea36e8614412", "lon": -76.983448, "fusion_lat": 0.0, "rental_uris": {"android": "https://dc.lft.to/lastmile_qr_scan", "ios": "https://dc.lft.to/lastmile_qr_scan"}, "type": "electric_scooter"}, {"is_reserved": 0, "is_disabled": 0, "fusion_lon": 0.0, "lat": 38.9176355, "name": "bfc8634a76c5699cdde094f37104dc91", "bike_id": "bfc8634a76c5699cdde094f37104dc91", "lon": -77.01492233333333, "fusion_lat": 0.0, "rental_uris": {"android": "https://dc.lft.to/lastmile_qr_scan", "ios": "https://dc.lft.to/lastmile_qr_scan"}, "type": "electric_scooter"}, {"is_reserved": 0, "is_disabled": 0, "fusion_lon": 0.0, "lat": 38.938802333333335, "name": "45041361445bc0b8a5aa227c33bc6f98", "bike_id": "45041361445bc0b8a5aa227c33bc6f98", "lon": -77.03392166666667, "fusion_lat": 0.0, "rental_uris": {"android": "https://dc.lft.to/lastmile_qr_scan", "ios": "https://dc.lft.to/lastmile_qr_scan"}, "type": "electric_scooter"}, {"is_reserved": 0, "is_disabled": 0, "fusion_lon": 0.0, "lat": 38.90669233333333, "name": "cffb1c2ce56528832efb77ba88efd4ec", "bike_id": "cffb1c2ce56528832efb77ba88efd4ec", "lon": -76.98368416666666, "fusion_lat": 0.0, "rental_uris": {"android": "https://dc.lft.to/lastmile_qr_scan", "ios": "https://dc.lft.to/lastmile_qr_scan"}, "type": "electric_scooter"}, {"is_reserved": 0, "is_disabled": 0, "fusion_lon": 0.0, "lat": 38.90028183333333, "name": "d575602a5f52e9839ace581380b5bb20", "bike_id": "d575602a5f52e9839ace581380b5bb20", "lon": -77.01765716666667, "fusion_lat": 0.0, "rental_uris": {"android": "https://dc.lft.to/lastmile_qr_scan", "ios": "https://dc.lft.to/lastmile_qr_scan"}, "type": "electric_scooter"}, {"is_reserved": 0, "is_disabled": 0, "fusion_lon": 0.0, "lat": 38.91559216666667, "name": "e755fc72394fe8a15d7059f506da8015", "bike_id": "e755fc72394fe8a15d7059f506da8015", "lon": -77.00717216666666, "fusion_lat": 0.0, "rental_uris": {"android": "https://dc.lft.to/lastmile_qr_scan", "ios": "https://dc.lft.to/lastmile_qr_scan"}, "type": "electric_scooter"}, {"is_reserved": 0, "is_disabled": 0, "fusion_lon": 0.0, "lat": 38.8802365, "name": "ad74e6482020247f1ed8b27340ebb31d", "bike_id": "ad74e6482020247f1ed8b27340ebb31d", "lon": -76.943221, "fusion_lat": 0.0, "rental_uris": {"android": "https://dc.lft.to/lastmile_qr_scan", "ios": "https://dc.lft.to/lastmile_qr_scan"}, "type": "electric_scooter"}, {"is_reserved": 0, "is_disabled": 0, "fusion_lon": 0.0, "lat": 38.9215375, "name": "4b70fdc97ef487b61a6507b8f33b187c", "bike_id": "4b70fdc97ef487b61a6507b8f33b187c", "lon": -77.04015766666667, "fusion_lat": 0.0, "rental_uris": {"android": "https://dc.lft.to/lastmile_qr_scan", "ios": "https://dc.lft.to/lastmile_qr_scan"}, "type": "electric_scooter"}, {"is_reserved": 0, "is_disabled": 0, "fusion_lon": 0.0, "lat": 38.89500833333334, "name": "bc9d602e1472d9ebb01d20f60fe88db4", "bike_id": "bc9d602e1472d9ebb01d20f60fe88db4", "lon": -77.04637366666667, "fusion_lat": 0.0, "rental_uris": {"android": "https://dc.lft.to/lastmile_qr_scan", "ios": "https://dc.lft.to/lastmile_qr_scan"}, "type": "electric_scooter"}, {"is_reserved": 0, "is_disabled": 0, "fusion_lon": 0.0, "lat": 38.92408833333333, "name": "83a7babef6f09dd5ef998b347b973b0a", "bike_id": "83a7babef6f09dd5ef998b347b973b0a", "lon": -77.01944716666667, "fusion_lat": 0.0, "rental_uris": {"android": "https://dc.lft.to/lastmile_qr_scan", "ios": "https://dc.lft.to/lastmile_qr_scan"}, "type": "electric_scooter"}, {"is_reserved": 0, "is_disabled": 0, "fusion_lon": 0.0, "lat": 38.9011515, "name": "8d95a2961ef55d4b812454398627441b", "bike_id": "8d95a2961ef55d4b812454398627441b", "lon": -77.03186866666667, "fusion_lat": 0.0, "rental_uris": {"android": "https://dc.lft.to/lastmile_qr_scan", "ios": "https://dc.lft.to/lastmile_qr_scan"}, "type": "electric_scooter"}, {"is_reserved": 0, "is_disabled": 0, "fusion_lon": 0.0, "lat": 38.91182083333333, "name": "0d0201bb42412832f1bbaf5005200e3f", "bike_id": "0d0201bb42412832f1bbaf5005200e3f", "lon": -77.03142916666667, "fusion_lat": 0.0, "rental_uris": {"android": "https://dc.lft.to/lastmile_qr_scan", "ios": "https://dc.lft.to/lastmile_qr_scan"}, "type": "electric_scooter"}, {"is_reserved": 0, "is_disabled": 0, "fusion_lon": 0.0, "lat": 38.911883333333336, "name": "af5a883790648ee4673295c1ab3e6e4f", "bike_id": "af5a883790648ee4673295c1ab3e6e4f", "lon": -77.01073766666667, "fusion_lat": 0.0, "rental_uris": {"android": "https://dc.lft.to/lastmile_qr_scan", "ios": "https://dc.lft.to/lastmile_qr_scan"}, "type": "electric_scooter"}, {"is_reserved": 0, "is_disabled": 0, "fusion_lon": 0.0, "lat": 38.93598433333333, "name": "3975d501536e452063b22992c55c01cb", "bike_id": "3975d501536e452063b22992c55c01cb", "lon": -77.02118983333334, "fusion_lat": 0.0, "rental_uris": {"android": "https://dc.lft.to/lastmile_qr_scan", "ios": "https://dc.lft.to/lastmile_qr_scan"}, "type": "electric_bike"}, {"is_reserved": 0, "is_disabled": 0, "fusion_lon": 0.0, "lat": 38.91682466666666, "name": "9618753e627df76c134bf825eb078317", "bike_id": "9618753e627df76c134bf825eb078317", "lon": -77.029469, "fusion_lat": 0.0, "rental_uris": {"android": "https://dc.lft.to/lastmile_qr_scan", "ios": "https://dc.lft.to/lastmile_qr_scan"}, "type": "electric_scooter"}, {"is_reserved": 0, "is_disabled": 0, "fusion_lon": 0.0, "lat": 38.918103333333335, "name": "8da619650bbae0a4b3e2754742f2a3e6", "bike_id": "8da619650bbae0a4b3e2754742f2a3e6", "lon": -77.01426116666667, "fusion_lat": 0.0, "rental_uris": {"android": "https://dc.lft.to/lastmile_qr_scan", "ios": "https://dc.lft.to/lastmile_qr_scan"}, "type": "electric_scooter"}, {"is_reserved": 0, "is_disabled": 0, "fusion_lon": 0.0, "lat": 38.92727766666667, "name": "186bfc17f48e3f57121df6b0443ceb65", "bike_id": "186bfc17f48e3f57121df6b0443ceb65", "lon": -77.02274816666667, "fusion_lat": 0.0, "rental_uris": {"android": "https://dc.lft.to/lastmile_qr_scan", "ios": "https://dc.lft.to/lastmile_qr_scan"}, "type": "electric_scooter"}, {"is_reserved": 0, "is_disabled": 0, "fusion_lon": 0.0, "lat": 38.923539833333336, "name": "2a8d1227108d21654721500f28970955", "bike_id": "2a8d1227108d21654721500f28970955", "lon": -77.03544816666667, "fusion_lat": 0.0, "rental_uris": {"android": "https://dc.lft.to/lastmile_qr_scan", "ios": "https://dc.lft.to/lastmile_qr_scan"}, "type": "electric_scooter"}, {"is_reserved": 0, "is_disabled": 0, "fusion_lon": 0.0, "lat": 38.91940316666667, "name": "26f56e4bace7ad24cf774e558c7ec9fb", "bike_id": "26f56e4bace7ad24cf774e558c7ec9fb", "lon": -77.045607, "fusion_lat": 0.0, "rental_uris": {"android": "https://dc.lft.to/lastmile_qr_scan", "ios": "https://dc.lft.to/lastmile_qr_scan"}, "type": "electric_scooter"}, {"is_reserved": 0, "is_disabled": 0, "fusion_lon": 0.0, "lat": 38.91980733333333, "name": "86499259ff966a63ca70bdf53e729cb3", "bike_id": "86499259ff966a63ca70bdf53e729cb3", "lon": -77.0219865, "fusion_lat": 0.0, "rental_uris": {"android": "https://dc.lft.to/lastmile_qr_scan", "ios": "https://dc.lft.to/lastmile_qr_scan"}, "type": "electric_scooter"}, {"is_reserved": 0, "is_disabled": 0, "fusion_lon": 0.0, "lat": 38.92752016666667, "name": "8244a190cb4485a87ad3cf59a1b53cb3", "bike_id": "8244a190cb4485a87ad3cf59a1b53cb3", "lon": -77.0211615, "fusion_lat": 0.0, "rental_uris": {"android": "https://dc.lft.to/lastmile_qr_scan", "ios": "https://dc.lft.to/lastmile_qr_scan"}, "type": "electric_scooter"}, {"is_reserved": 0, "is_disabled": 0, "fusion_lon": 0.0, "lat": 38.923167, "name": "2cd983f39b73dcbd44b9881a00717fce", "bike_id": "2cd983f39b73dcbd44b9881a00717fce", "lon": -77.02708616666666, "fusion_lat": 0.0, "rental_uris": {"android": "https://dc.lft.to/lastmile_qr_scan", "ios": "https://dc.lft.to/lastmile_qr_scan"}, "type": "electric_scooter"}, {"is_reserved": 0, "is_disabled": 0, "fusion_lon": 0.0, "lat": 38.870822833333335, "name": "27d05b69828f779c537685afdf17036c", "bike_id": "27d05b69828f779c537685afdf17036c", "lon": -77.110488, "fusion_lat": 0.0, "rental_uris": {"android": "https://dc.lft.to/lastmile_qr_scan", "ios": "https://dc.lft.to/lastmile_qr_scan"},