{"data": {"bikes": [{"lon": -76.96884083333333, "lat": 38.8459615, "name": "dcdb6b71417b19521690ea5b0b15754e", "fusion_lat": 0.0, "fusion_lon": 0.0, "rental_uris": {"android": "https://dc.lft.to/lastmile_qr_scan", "ios": "https://dc.lft.to/lastmile_qr_scan"}, "is_reserved": 0, "is_disabled": 0, "type": "electric_bike", "bike_id": "dcdb6b71417b19521690ea5b0b15754e"}, {"lon": -77.06761233333333, "lat": 38.9497565, "name": "f5ab244998eb11814cf4e4508f819029", "fusion_lat": 0.0, "fusion_lon": 0.0, "rental_uris": {"android": "https://dc.lft.to/lastmile_qr_scan", "ios": "https://dc.lft.to/lastmile_qr_scan"}, "is_reserved": 0, "is_disabled": 0, "type": "electric_scooter", "bike_id": "f5ab244998eb11814cf4e4508f819029"}, {"lon": -77.00731266666666, "lat": 38.95973933333333, "name": "ef142839399a6ac7d7d8710f449e30e4", "fusion_lat": 0.0, "fusion_lon": 0.0, "rental_uris": {"android": "https://dc.lft.to/lastmile_qr_scan", "ios": "https://dc.lft.to/lastmile_qr_scan"}, "is_reserved": 0, "is_disabled": 0, "type": "electric_scooter", "bike_id": "ef142839399a6ac7d7d8710f449e30e4"}, {"lon": -76.99124783333333, "lat": 38.90014266666667, "name": "6cf0c20e7870c94c0b7e5e542b129008", "fusion_lat": 0.0, "fusion_lon": 0.0, "rental_uris": {"android": "https://dc.lft.to/lastmile_qr_scan", "ios": "https://dc.lft.to/lastmile_qr_scan"}, "is_reserved": 0, "is_disabled": 0, "type": "electric_scooter", "bike_id": "6cf0c20e7870c94c0b7e5e542b129008"}, {"lon": -77.021743, "lat": 38.897365666666666, "name": "bd20069eb643bad750a79977f1addfc8", "fusion_lat": 0.0, "fusion_lon": 0.0, "rental_uris": {"android": "https://dc.lft.to/lastmile_qr_scan", "ios": "https://dc.lft.to/lastmile_qr_scan"}, "is_reserved": 0, "is_disabled": 0, "type": "electric_scooter", "bike_id": "bd20069eb643bad750a79977f1addfc8"}, {"lon": -77.03637266666667, "lat": 38.924218833333335, "name": "13ee7fb64419c4789f8e426c8812036d", "fusion_lat": 0.0, "fusion_lon": 0.0, "rental_uris": {"android": "https://dc.lft.to/lastmile_qr_scan", "ios": "https://dc.lft.to/lastmile_qr_scan"}, "is_reserved": 0, "is_disabled": 0, "type": "electric_scooter", "bike_id": "13ee7fb64419c4789f8e426c8812036d"}, {"lon": -76.972158, "lat": 38.844801, "name": "5f82f046e2b089da06b959fcc21ca929", "fusion_lat": 0.0, "fusion_lon": 0.0, "rental_uris": {"android": "https://dc.lft.to/lastmile_qr_scan", "ios": "https://dc.lft.to/lastmile_qr_scan"}, "is_reserved": 0, "is_disabled": 0, "type": "electric_bike", "bike_id": "5f82f046e2b089da06b959fcc21ca929"}, {"lon": -77.0185125, "lat": 38.91981833333333, "name": "3f6e469c3a391eba17192ccea766fa94", "fusion_lat": 0.0, "fusion_lon": 0.0, "rental_uris": {"android": "https://dc.lft.to/lastmile_qr_scan", "ios": "https://dc.lft.to/lastmile_qr_scan"}, "is_reserved": 0, "is_disabled": 0, "type": "electric_scooter", "bike_id": "3f6e469c3a391eba17192ccea766fa94"}, {"lon": -77.05646516666667, "lat": 38.90770033333333, "name": "a9be9af1428c1f592dd7b1edec7d81b7", "fusion_lat": 0.0, "fusion_lon": 0.0, "rental_uris": {"android": "https://dc.lft.to/lastmile_qr_scan", "ios": "https://dc.lft.to/lastmile_qr_scan"}, "is_reserved": 0, "is_disabled": 0, "type": "electric_bike", "bike_id": "a9be9af1428c1f592dd7b1edec7d81b7"}, {"lon": -77.02234783333333, "lat": 38.92227366666667, "name": "389c1a3a4c8d961de2fb5c7f98ee354a", "fusion_lat": 0.0, "fusion_lon": 0.0, "rental_uris": {"android": "https://dc.lft.to/lastmile_qr_scan", "ios": "https://dc.lft.to/lastmile_qr_scan"}, "is_reserved": 0, "is_disabled": 0, "type": "electric_bike", "bike_id": "389c1a3a4c8d961de2fb5c7f98ee354a"}, {"lon": -77.01299366666667, "lat": 39.0038415, "name": "14117f13cfb3b64ac7dc839f50aa5811", "fusion_lat": 0.0, "fusion_lon": 0.0, "rental_uris": {"android": "https://dc.lft.to/lastmile_qr_scan", "ios": "https://dc.lft.to/lastmile_qr_scan"}, "is_reserved": 0, "is_disabled": 0, "type": "electric_bike", "bike_id": "14117f13cfb3b64ac7dc839f50aa5811"}, {"lon": -77.033388, "lat": 38.90848783333333, "name": "dcd9389a505d1ee03176c74fbba00329", "fusion_lat": 0.0, "fusion_lon": 0.0, "rental_uris": {"android": "https://dc.lft.to/lastmile_qr_scan", "ios": "https://dc.lft.to/lastmile_qr_scan"}, "is_reserved": 0, "is_disabled": 0, "type": "electric_scooter", "bike_id": "dcd9389a505d1ee03176c74fbba00329"}, {"lon": -77.02547616666666, "lat": 38.892202166666664, "name": "79261238060691bdd1800304ea997aa4", "fusion_lat": 0.0, "fusion_lon": 0.0, "rental_uris": {"android": "https://dc.lft.to/lastmile_qr_scan", "ios": "https://dc.lft.to/lastmile_qr_scan"}, "is_reserved": 0, "is_disabled": 0, "type": "electric_scooter", "bike_id": "79261238060691bdd1800304ea997aa4"}, {"lon": -77.01121583333334, "lat": 38.90360233333333, "name": "45d76523dd36da27d25a9359f2b6f913", "fusion_lat": 0.0, "fusion_lon": 0.0, "rental_uris": {"android": "https://dc.lft.to/lastmile_qr_scan", "ios": "https://dc.lft.to/lastmile_qr_scan"}, "is_reserved": 0, "is_disabled": 0, "type": "electric_scooter", "bike_id": "45d76523dd36da27d25a9359f2b6f913"}, {"lon": -77.04990266666667, "lat": 38.90118666666667, "name": "1261c70feeb4196ffbfa2b248a4e7cb2", "fusion_lat": 0.0, "fusion_lon": 0.0, "rental_uris": {"android": "https://dc.lft.to/lastmile_qr_scan", "ios": "https://dc.lft.to/lastmile_qr_scan"}, "is_reserved": 0, "is_disabled": 0, "type": "electric_scooter", "bike_id": "1261c70feeb4196ffbfa2b248a4e7cb2"}, {"lon": -77.04834766666667, "lat": 38.91340016666667, "name": "66c767dc50da7f7959bc19a7be4d4b96", "fusion_lat": 0.0, "fusion_lon": 0.0, "rental_uris": {"android": "https://dc.lft.to/lastmile_qr_scan", "ios": "https://dc.lft.to/lastmile_qr_scan"}, "is_reserved": 0, "is_disabled": 0, "type": "electric_scooter", "bike_id": "66c767dc50da7f7959bc19a7be4d4b96"}, {"lon": -77.097529, "lat": 38.85851183333333, "name": "d149eab884b4b25b0d5aa75ad8d75fe2", "fusion_lat": 0.0, "fusion_lon": 0.0, "rental_uris": {"android": "https://dc.lft.to/lastmile_qr_scan", "ios": "https://dc.lft.to/lastmile_qr_scan"}, "is_reserved": 0, "is_disabled": 0, "type": "electric_bike", "bike_id": "d149eab884b4b25b0d5aa75ad8d75fe2"}, {"lon": -77.02700833333333, "lat": 38.906845, "name": "d8c87303c866cf833ccbfec1d3c31dc2", "fusion_lat": 0.0, "fusion_lon": 0.0, "rental_uris": {"android": "https://dc.lft.to/lastmile_qr_scan", "ios": "https://dc.lft.to/lastmile_qr_scan"}, "is_reserved": 0, "is_disabled": 0, "type": "electric_scooter", "bike_id": "d8c87303c866cf833ccbfec1d3c31dc2"}, {"lon": -76.9963205, "lat": 38.900415833333334, "name": "0bb8c0c4c4e05a16995df42077223859", "fusion_lat": 0.0, "fusion_lon": 0.0, "rental_uris": {"android": "https://dc.lft.to/lastmile_qr_scan", "ios": "https://dc.lft.to/lastmile_qr_scan"}, "is_reserved": 0, "is_disabled": 0, "type": "electric_scooter", "bike_id": "0bb8c0c4c4e05a16995df42077223859"}, {"lon": -77.03204966666667, "lat": 38.9151345, "name": "960bde56d148f77e1fda9045ce452030", "fusion_lat": 0.0, "fusion_lon": 0.0, "rental_uris": {"android": "https://dc.lft.to/lastmile_qr_scan", "ios": "https://dc.lft.to/lastmile_qr_scan"}, "is_reserved": 0, "is_disabled": 0, "type": "electric_scooter", "bike_id": "960bde56d148f77e1fda9045ce452030"}, {"lon": -76.94846383333334, "lat": 38.8949085, "name": "b475197121aed8daa1b82ce8f936303e", "fusion_lat": 0.0, "fusion_lon": 0.0, "rental_uris": {"android": "https://dc.lft.to/lastmile_qr_scan", "ios": "https://dc.lft.to/lastmile_qr_scan"}, "is_reserved": 0, "is_disabled": 0, "type": "electric_scooter", "bike_id": "b475197121aed8daa1b82ce8f936303e"}, {"lon": -77.02974633333334, "lat": 38.91673683333333, "name": "a1c35a5d98f5cf18362dafca23de57ca", "fusion_lat": 0.0, "fusion_lon": 0.0, "rental_uris": {"android": "https://dc.lft.to/lastmile_qr_scan", "ios": "https://dc.lft.to/lastmile_qr_scan"}, "is_reserved": 0, "is_disabled": 0, "type": "electric_scooter", "bike_id": "a1c35a5d98f5cf18362dafca23de57ca"}, {"lon": -77.0346205, "lat": 38.94578033333333, "name": "3cc5f33fc9764da894b52d4a05359d50", "fusion_lat": 0.0, "fusion_lon": 0.0, "rental_uris": {"android": "https://dc.lft.to/lastmile_qr_scan", "ios": "https://dc.lft.to/lastmile_qr_scan"}, "is_reserved": 0, "is_disabled": 0, "type": "electric_scooter", "bike_id": "3cc5f33fc9764da894b52d4a05359d50"}, {"lon": -77.08540866666667, "lat": 38.85617083333333, "name": "927b21688dee8056f55dd6612a27223d", "fusion_lat": 0.0, "fusion_lon": 0.0, "rental_uris": {"android": "https://dc.lft.to/lastmile_qr_scan", "ios": "https://dc.lft.to/lastmile_qr_scan"}, "is_reserved": 0, "is_disabled": 0, "type": "electric_bike", "bike_id": "927b21688dee8056f55dd6612a27223d"}, {"lon": -76.99552116666666, "lat": 38.886033, "name": "7c18118e8761a6c11b6576037cbe4ed9", "fusion_lat": 0.0, "fusion_lon": 0.0, "rental_uris": {"android": "https://dc.lft.to/lastmile_qr_scan", "ios": "https://dc.lft.to/lastmile_qr_scan"}, "is_reserved": 0, "is_disabled": 0, "type": "electric_scooter", "bike_id": "7c18118e8761a6c11b6576037cbe4ed9"}, {"lon": -77.050024, "lat": 38.89231383333333, "name": "a248d2d3ce9707a0a6fcf3f319046346", "fusion_lat": 0.0, "fusion_lon": 0.0, "rental_uris": {"android": "https://dc.lft.to/lastmile_qr_scan", "ios": "https://dc.lft.to/lastmile_qr_scan"}, "is_reserved": 0, "is_disabled": 0, "type": "electric_scooter", "bike_id": "a248d2d3ce9707a0a6fcf3f319046346"}, {"lon": -77.03363233333333, "lat": 38.885098, "name": "98f92fc8e13637a72203250239470133", "fusion_lat": 0.0, "fusion_lon": 0.0, "rental_uris": {"android": "https://dc.lft.to/lastmile_qr_scan", "ios": "https://dc.lft.to/lastmile_qr_scan"}, "is_reserved": 0, "is_disabled": 0, "type": "electric_scooter", "bike_id": "98f92fc8e13637a72203250239470133"}, {"lon": -77.02935833333333, "lat": 38.9050745, "name": "681e11d81e3583d4c1e1fd97cfd275e7", "fusion_lat": 0.0, "fusion_lon": 0.0, "rental_uris": {"android": "https://dc.lft.to/lastmile_qr_scan", "ios": "https://dc.lft.to/lastmile_qr_scan"}, "is_reserved": 0, "is_disabled": 0, "type": "electric_scooter", "bike_id": "681e11d81e3583d4c1e1fd97cfd275e7"}, {"lon": -77.17850533333333, "lat": 39.08906566666667, "name": "32f8a2fbb1e8145467ddd93db9fce8ea", "fusion_lat": 0.0, "fusion_lon": 0.0, "rental_uris": {"android": "https://dc.lft.to/lastmile_qr_scan", "ios": "https://dc.lft.to/lastmile_qr_scan"}, "is_reserved": 0, "is_disabled": 0, "type": "electric_bike", "bike_id": "32f8a2fbb1e8145467ddd93db9fce8ea"}, {"lon": -77.02539833333333, "lat": 38.94099033333333, "name": "a401c71247f62354c7cb0d245ca0f068", "fusion_lat": 0.0, "fusion_lon": 0.0, "rental_uris": {"android": "https://dc.lft.to/lastmile_qr_scan", "ios": "https://dc.lft.to/lastmile_qr_scan"}, "is_reserved": 0, "is_disabled": 0, "type": "electric_scooter", "bike_id": "a401c71247f62354c7cb0d245ca0f068"}, {"lon": -76.98898516666667, "lat": 38.86675233333333, "name": "8b365c7986dde7f6201f304c9fbfe964", "fusion_lat": 0.0, "fusion_lon": 0.0, "rental_uris": {"android": "https://dc.lft.to/lastmile_qr_scan", "ios": "https://dc.lft.to/lastmile_qr_scan"}, "is_reserved": 0, "is_disabled": 0, "type": "electric_scooter", "bike_id": "8b365c7986dde7f6201f304c9fbfe964"}, {"lon": -77.0263225, "lat": 38.9621215, "name": "a3bc23b3584231a3f4fe050b27afd1c7", "fusion_lat": 0.0, "fusion_lon": 0.0, "rental_uris": {"android": "https://dc.lft.to/lastmile_qr_scan", "ios": "https://dc.lft.to/lastmile_qr_scan"}, "is_reserved": 0, "is_disabled": 0, "type": "electric_bike", "bike_id": "a3bc23b3584231a3f4fe050b27afd1c7"}, {"lon": -77.0075655, "lat": 38.92677233333333, "name": "e5fa685cb4e97f85cd7514de73136ddb", "fusion_lat": 0.0, "fusion_lon": 0.0, "rental_uris": {"android": "https://dc.lft.to/lastmile_qr_scan", "ios": "https://dc.lft.to/lastmile_qr_scan"}, "is_reserved": 0, "is_disabled": 0, "type": "electric_scooter", "bike_id": "e5fa685cb4e97f85cd7514de73136ddb"}, {"lon": -77.01180566666666, "lat": 38.9002765, "name": "d7c8fdbb6824056197f1ed38f4eb8f27", "fusion_lat": 0.0, "fusion_lon": 0.0, "rental_uris": {"android": "https://dc.lft.to/lastmile_qr_scan", "ios": "https://dc.lft.to/lastmile_qr_scan"}, "is_reserved": 0, "is_disabled": 0, "type": "electric_scooter", "bike_id": "d7c8fdbb6824056197f1ed38f4eb8f27"}, {"lon": -77.00045, "lat": 38.875288, "name": "3c4bdde4b79e66d3d576821aef583204", "fusion_lat": 0.0, "fusion_lon": 0.0, "rental_uris": {"android": "https://dc.lft.to/lastmile_qr_scan", "ios": "https://dc.lft.to/lastmile_qr_scan"}, "is_reserved": 0, "is_disabled": 0, "type": "electric_scooter", "bike_id": "3c4bdde4b79e66d3d576821aef583204"}, {"lon": -77.04050766666667, "lat": 38.90957483333333, "name": "d6f0dd75d8f097dad761b1194a8b9caa", "fusion_lat": 0.0, "fusion_lon": 0.0, "rental_uris": {"android": "https://dc.lft.to/lastmile_qr_scan", "ios": "https://dc.lft.to/lastmile_qr_scan"}, "is_reserved": 0, "is_disabled": 0, "type": "electric_scooter", "bike_id": "d6f0dd75d8f097dad761b1194a8b9caa"}, {"lon": -77.04162, "lat": 38.915692, "name": "0f4cf705c06e64aee25c58e8c826d6b8", "fusion_lat": 0.0, "fusion_lon": 0.0, "rental_uris": {"android": "https://dc.lft.to/lastmile_qr_scan", "ios": "https://dc.lft.to/lastmile_qr_scan"}, "is_reserved": 0, "is_disabled": 0, "type": "electric_scooter", "bike_id": "0f4cf705c06e64aee25c58e8c826d6b8"}, {"lon": -76.995456, "lat": 38.88417883333334, "name": "a450778a0f3154b5186a99ca1b581a07", "fusion_lat": 0.0, "fusion_lon": 0.0, "rental_uris": {"android": "https://dc.lft.to/lastmile_qr_scan", "ios": "https://dc.lft.to/lastmile_qr_scan"}, "is_reserved": 0, "is_disabled": 0, "type": "electric_scooter", "bike_id": "a450778a0f3154b5186a99ca1b581a07"}, {"lon": -77.00522516666666, "lat": 38.92894483333333, "name": "e5e74ea17ade41c28440aafb148183ae", "fusion_lat": 0.0, "fusion_lon": 0.0, "rental_uris": {"android": "https://dc.lft.to/lastmile_qr_scan", "ios": "https://dc.lft.to/lastmile_qr_scan"}, "is_reserved": 0, "is_disabled": 0, "type": "electric_scooter", "bike_id": "e5e74ea17ade41c28440aafb148183ae"}, {"lon": -76.9900615, "lat": 38.8644115, "name": "c3652f1a83d6cd714b459516e9848671", "fusion_lat": 0.0, "fusion_lon": 0.0, "rental_uris": {"android": "https://dc.lft.to/lastmile_qr_scan", "ios": "https://dc.lft.to/lastmile_qr_scan"}, "is_reserved": 0, "is_disabled": 0, "type": "electric_scooter", "bike_id": "c3652f1a83d6cd714b459516e9848671"}, {"lon": -77.03210966666667, "lat": 38.921709, "name": "b3b6ad26b7fd8bd0d2c544dbeb30f374", "fusion_lat": 0.0, "fusion_lon": 0.0, "rental_uris": {"android": "https://dc.lft.to/lastmile_qr_scan", "ios": "https://dc.lft.to/lastmile_qr_scan"}, "is_reserved": 0, "is_disabled": 0, "type": "electric_scooter", "bike_id": "b3b6ad26b7fd8bd0d2c544dbeb30f374"}, {"lon": -77.01936466666666, "lat": 38.93588883333334, "name": "80f4fcada783ca2406b3ee0be8c3cf18", "fusion_lat": 0.0, "fusion_lon": 0.0, "rental_uris": {"android": "https://dc.lft.to/lastmile_qr_scan", "ios": "https://dc.lft.to/lastmile_qr_scan"}, "is_reserved": 0, "is_disabled": 0, "type": "electric_scooter", "bike_id": "80f4fcada783ca2406b3ee0be8c3cf18"}, {"lon": -77.02346483333334, "lat": 38.96212966666667, "name": "b3e17b1d6f026f62219743e8c4d07f17", "fusion_lat": 0.0, "fusion_lon": 0.0, "rental_uris": {"android": "https://dc.lft.to/lastmile_qr_scan", "ios": "https://dc.lft.to/lastmile_qr_scan"}, "is_reserved": 0, "is_disabled": 0, "type": "electric_scooter", "bike_id": "b3e17b1d6f026f62219743e8c4d07f17"}, {"lon": -76.98560316666666, "lat": 38.899534333333335, "name": "7f00e4f127427fb97567064f8032f098", "fusion_lat": 0.0, "fusion_lon": 0.0, "rental_uris": {"android": "https://dc.lft.to/lastmile_qr_scan", "ios": "https://dc.lft.to/lastmile_qr_scan"}, "is_reserved": 0, "is_disabled": 0, "type": "electric_scooter", "bike_id": "7f00e4f127427fb97567064f8032f098"}, {"lon": -77.03678266666667, "lat": 38.9361175, "name": "22c916b1684c2a4b2cf00563642df5ef", "fusion_lat": 0.0, "fusion_lon": 0.0, "rental_uris": {"android": "https://dc.lft.to/lastmile_qr_scan", "ios": "https://dc.lft.to/lastmile_qr_scan"}, "is_reserved": 0, "is_disabled": 0, "type": "electric_scooter", "bike_id": "22c916b1684c2a4b2cf00563642df5ef"}, {"lon": -77.057357, "lat": 38.93367833333333, "name": "c3981dafb09d38e0e14f46eb9d287b7e", "fusion_lat": 0.0, "fusion_lon": 0.0, "rental_uris": {"android": "https://dc.lft.to/lastmile_qr_scan", "ios": "https://dc.lft.to/lastmile_qr_scan"}, "is_reserved": 0, "is_disabled": 0, "type": "electric_scooter", "bike_id": "c3981dafb09d38e0e14f46eb9d287b7e"}, {"lon": -76.99627533333333, "lat": 38.900369833333336, "name": "a22b5e113e72497ededd5385d1eb9aa0", "fusion_lat": 0.0, "fusion_lon": 0.0, "rental_uris": {"android": "https://dc.lft.to/lastmile_qr_scan", "ios": "https://dc.lft.to/lastmile_qr_scan"}, "is_reserved": 0, "is_disabled": 0, "type": "electric_scooter", "bike_id": "a22b5e113e72497ededd5385d1eb9aa0"}, {"lon": -77.03842316666666, "lat": 38.91471666666666, "name": "b4206c5c2d11063aaacffb9145a150e9", "fusion_lat": 0.0, "fusion_lon": 0.0, "rental_uris": {"android": "https://dc.lft.to/lastmile_qr_scan", "ios": "https://dc.lft.to/lastmile_qr_scan"}, "is_reserved": 0, "is_disabled": 0, "type": "electric_scooter", "bike_id": "b4206c5c2d11063aaacffb9145a150e9"}, {"lon": -77.02883016666667, "lat": 38.904037833333334, "name": "31312afd1cfdf6b1518d6df0196f7418", "fusion_lat": 0.0, "fusion_lon": 0.0, "rental_uris": {"android": "https://dc.lft.to/lastmile_qr_scan", "ios": "https://dc.lft.to/lastmile_qr_scan"}, "is_reserved": 0, "is_disabled": 0, "type": "electric_scooter", "bike_id": "31312afd1cfdf6b1518d6df0196f7418"}, {"lon": -77.05929316666666, "lat": 38.93673866666666, "name": "d96360672e42008fa75964c46109fd62", "fusion_lat": 0.0, "fusion_lon": 0.0, "rental_uris": {"android": "https://dc.lft.to/lastmile_qr_scan", "ios": "https://dc.lft.to/lastmile_qr_scan"}, "is_reserved": 0, "is_disabled": 0, "type": "electric_scooter", "bike_id": "d96360672e42008fa75964c46109fd62"}, {"lon": -77.02578666666666, "lat": 38.925170666666666, "name": "66397cc62a8a58b43c1d3bc48c730c2e", "fusion_lat": 0.0, "fusion_lon": 0.0, "rental_uris": {"android": "https://dc.lft.to/lastmile_qr_scan", "ios": "https://dc.lft.to/lastmile_qr_scan"}, "is_reserved": 0, "is_disabled": 0, "type": "electric_scooter", "bike_id": "66397cc62a8a58b43c1d3bc48c730c2e"}, {"lon": -77.02723666666667, "lat": 38.951320333333335, "name": "02ec83d4b11ecd8151b398b6f5ed511d", "fusion_lat": 0.0, "fusion_lon": 0.0, "rental_uris": {"android": "https://dc.lft.to/lastmile_qr_scan", "ios": "https://dc.lft.to/lastmile_qr_scan"}, "is_reserved": 0, "is_disabled": 0, "type": "electric_scooter", "bike_id": "02ec83d4b11ecd8151b398b6f5ed511d"}, {"lon": -77.02105783333333, "lat": 38.930072, "name": "9e4af6ed105703c82d94465ad231c6ef", "fusion_lat": 0.0, "fusion_lon": 0.0, "rental_uris": {"android": "https://dc.lft.to/lastmile_qr_scan", "ios": "https://dc.lft.to/lastmile_qr_scan"}, "is_reserved": 0, "is_disabled": 0, "type": "electric_scooter", "bike_id": "9e4af6ed105703c82d94465ad231c6ef"}, {"lon": -77.00796016666666, "lat": 38.94918033333333, "name": "b07d8f77babc0a59720fba16a477a293", "fusion_lat": 0.0, "fusion_lon": 0.0, "rental_uris": {"android": "https://dc.lft.to/lastmile_qr_scan", "ios": "https://dc.lft.to/lastmile_qr_scan"}, "is_reserved": 0, "is_disabled": 0, "type": "electric_bike", "bike_id": "b07d8f77babc0a59720fba16a477a293"}, {"lon": -77.03365966666667, "lat": 38.93593933333333, "name": "1488eaa135353d6c1ef08c1c2cee72b0", "fusion_lat": 0.0, "fusion_lon": 0.0, "rental_uris": {"android": "https://dc.lft.to/lastmile_qr_scan", "ios": "https://dc.lft.to/lastmile_qr_scan"}, "is_reserved": 0, "is_disabled": 0, "type": "electric_scooter", "bike_id": "1488eaa135353d6c1ef08c1c2cee72b0"}, {"lon": -76.99788883333333, "lat": 38.89097833333334, "name": "0f7673e364406e8443bf0cc71bacbbae", "fusion_lat": 0.0, "fusion_lon": 0.0, "rental_uris": {"android": "https://dc.lft.to/lastmile_qr_scan", "ios": "https://dc.lft.to/lastmile_qr_scan"}, "is_reserved": 0, "is_disabled": 0, "type": "electric_scooter", "bike_id": "0f7673e364406e8443bf0cc71bacbbae"}, {"lon": -76.98556733333334, "lat": 38.89410016666667, "name": "4b71a16a343cd0096ffd2502f70a83ec", "fusion_lat": 0.0, "fusion_lon": 0.0, "rental_uris": {"android": "https://dc.lft.to/lastmile_qr_scan", "ios": "https://dc.lft.to/lastmile_qr_scan"}, "is_reserved": 0, "is_disabled": 0, "type": "electric_scooter", "bike_id": "4b71a16a343cd0096ffd2502f70a83ec"}, {"lon": -77.027787, "lat": 38.92760033333333, "name": "3105100a440bc7648cd1ff307860e63b", "fusion_lat": 0.0, "fusion_lon": 0.0, "rental_uris": {"android": "https://dc.lft.to/lastmile_qr_scan", "ios": "https://dc.lft.to/lastmile_qr_scan"}, "is_reserved": 0, "is_disabled": 0, "type": "electric_scooter", "bike_id": "3105100a440bc7648cd1ff307860e63b"}, {"lon": -77.0137145, "lat": 38.892314999999996, "name": "0f7b082399c2ab93483d948215d325fb", "fusion_lat": 0.0, "fusion_lon": 0.0, "rental_uris": {"android": "https://dc.lft.to/lastmile_qr_scan", "ios": "https://dc.lft.to/lastmile_qr_scan"}, "is_reserved": 0, "is_disabled": 0, "type": "electric_scooter", "bike_id": "0f7b082399c2ab93483d948215d325fb"}, {"lon": -77.07820933333333, "lat": 38.924653166666666, "name": "b527f81ad087b840fa461d5f5f0fc254", "fusion_lat": 0.0, "fusion_lon": 0.0, "rental_uris": {"android": "https://dc.lft.to/lastmile_qr_scan", "ios": "https://dc.lft.to/lastmile_qr_scan"}, "is_reserved": 0, "is_disabled": 0, "type": "electric_scooter", "bike_id": "b527f81ad087b840fa461d5f5f0fc254"}, {"lon": -77.03338566666666, "lat": 38.8974655, "name": "41e2987cf2f6820350595c92bcc9e85e", "fusion_lat": 0.0, "fusion_lon": 0.0, "rental_uris": {"android": "https://dc.lft.to/lastmile_qr_scan", "ios": "https://dc.lft.to/lastmile_qr_scan"}, "is_reserved": 0, "is_disabled": 0, "type": "electric_scooter", "bike_id": "41e2987cf2f6820350595c92bcc9e85e"}, {"lon": -77.04276416666667, "lat": 38.923140333333336, "name": "864a3acff74ac5e58861190b58cf4e25", "fusion_lat": 0.0, "fusion_lon": 0.0, "rental_uris": {"android": "https://dc.lft.to/lastmile_qr_scan", "ios": "https://dc.lft.to/lastmile_qr_scan"}, "is_reserved": 0, "is_disabled": 0, "type": "electric_scooter", "bike_id": "864a3acff74ac5e58861190b58cf4e25"}, {"lon": -77.0025615, "lat": 38.911840166666664, "name": "4eb39d2815c919ad5056bc3b0a368eb5", "fusion_lat": 0.0, "fusion_lon": 0.0, "rental_uris": {"android": "https://dc.lft.to/lastmile_qr_scan", "ios": "https://dc.lft.to/lastmile_qr_scan"}, "is_reserved": 0, "is_disabled": 0, "type": "electric_scooter", "bike_id": "4eb39d2815c919ad5056bc3b0a368eb5"}, {"lon": -76.97254233333334, "lat": 38.957447333333334, "name": "5bd2860df5fe34403a53e7e8427a9b2e", "fusion_lat": 0.0, "fusion_lon": 0.0, "rental_uris": {"android": "https://dc.lft.to/lastmile_qr_scan", "ios": "https://dc.lft.to/lastmile_qr_scan"}, "is_reserved": 0, "is_disabled": 0, "type": "electric_bike", "bike_id": "5bd2860df5fe34403a53e7e8427a9b2e"}, {"lon": -77.03807383333333, "lat": 38.931148666666665, "name": "81165581907c4ad5c0f89994349e685b", "fusion_lat": 0.0, "fusion_lon": 0.0, "rental_uris": {"android": "https://dc.lft.to/lastmile_qr_scan", "ios": "https://dc.lft.to/lastmile_qr_scan"}, "is_reserved": 0, "is_disabled": 0, "type": "electric_scooter", "bike_id": "81165581907c4ad5c0f89994349e685b"}, {"lon": -76.95659466666666, "lat": 38.8962445, "name": "3ef96c34af26709dfa86f83895ea76b4", "fusion_lat": 0.0, "fusion_lon": 0.0, "rental_uris": {"android": "https://dc.lft.to/lastmile_qr_scan", "ios": "https://dc.lft.to/lastmile_qr_scan"}, "is_reserved": 0, "is_disabled": 0, "type": "electric_scooter", "bike_id": "3ef96c34af26709dfa86f83895ea76b4"}, {"lon": -76.94652666666667, "lat": 38.898260666666665, "name": "693a381ef006d56c236d1ef8159504ec", "fusion_lat": 0.0, "fusion_lon": 0.0, "rental_uris": {"android": "https://dc.lft.to/lastmile_qr_scan", "ios": "https://dc.lft.to/lastmile_qr_scan"}, "is_reserved": 0, "is_disabled": 0, "type": "electric_scooter", "bike_id": "693a381ef006d56c236d1ef8159504ec"}, {"lon": -77.038716, "lat": 38.91259433333333, "name": "c22865f7f1176cfe047cabc2e1f31024", "fusion_lat": 0.0, "fusion_lon": 0.0, "rental_uris": {"android": "https://dc.lft.to/lastmile_qr_scan", "ios": "https://dc.lft.to/lastmile_qr_scan"}, "is_reserved": 0, "is_disabled": 0, "type": "electric_scooter", "bike_id": "c22865f7f1176cfe047cabc2e1f31024"}, {"lon": -77.02200633333334, "lat": 38.918846333333335, "name": "ce3bf03a3c683704009065f9857add50", "fusion_lat": 0.0, "fusion_lon": 0.0, "rental_uris": {"android": "https://dc.lft.to/lastmile_qr_scan", "ios": "https://dc.lft.to/lastmile_qr_scan"}, "is_reserved": 0, "is_disabled": 0, "type": "electric_scooter", "bike_id": "ce3bf03a3c683704009065f9857add50"}, {"lon": -77.0396205, "lat": 38.9198625, "name": "6893c98762bf02af10ce2f4e50429b0a", "fusion_lat": 0.0, "fusion_lon": 0.0, "rental_uris": {"android": "https://dc.lft.to/lastmile_qr_scan", "ios": "https://dc.lft.to/lastmile_qr_scan"}, "is_reserved": 0, "is_disabled": 0, "type": "electric_scooter", "bike_id": "6893c98762bf02af10ce2f4e50429b0a"}, {"lon": -77.0292225, "lat": 38.910310333333335, "name": "c63813e9c98a8d0131f00058ec08aefd", "fusion_lat": 0.0, "fusion_lon": 0.0, "rental_uris": {"android": "https://dc.lft.to/lastmile_qr_scan", "ios": "https://dc.lft.to/lastmile_qr_scan"}, "is_reserved": 0, "is_disabled": 0, "type": "electric_scooter", "bike_id": "c63813e9c98a8d0131f00058ec08aefd"}, {"lon": -77.00593516666666, "lat": 38.90573633333333, "name": "82802d79320f715bfb755a33bb3e3206", "fusion_lat": 0.0, "fusion_lon": 0.0, "rental_uris": {"android": "https://dc.lft.to/lastmile_qr_scan", "ios": "https://dc.lft.to/lastmile_qr_scan"}, "is_reserved": 0, "is_disabled": 0, "type": "electric_scooter", "bike_id": "82802d79320f715bfb755a33bb3e3206"}, {"lon": -77.0268825, "lat": 38.89221916666666, "name": "a6a1e024a6c7d38ce9debbc7a616f0fb", "fusion_lat": 0.0, "fusion_lon": 0.0, "rental_uris": {"android": "https://dc.lft.to/lastmile_qr_scan", "ios": "https://dc.lft.to/lastmile_qr_scan"}, "is_reserved": 0, "is_disabled": 0, "type": "electric_scooter", "bike_id": "a6a1e024a6c7d38ce9debbc7a616f0fb"}, {"lon": -76.9386155, "lat": 38.90090433333334, "name": "7a748b41176d078f2cc74af6e9b5360d", "fusion_lat": 0.0, "fusion_lon": 0.0, "rental_uris": {"android": "https://dc.lft.to/lastmile_qr_scan", "ios": "https://dc.lft.to/lastmile_qr_scan"}, "is_reserved": 0, "is_disabled": 0, "type": "electric_scooter", "bike_id": "7a748b41176d078f2cc74af6e9b5360d"}, {"lon": -77.0523975, "lat": 38.925141333333336, "name": "cb5987c62164f7369946cee994d2146b", "fusion_lat": 0.0, "fusion_lon": 0.0, "rental_uris": {"android": "https://dc.lft.to/lastmile_qr_scan", "ios": "https://dc.lft.to/lastmile_qr_scan"}, "is_reserved": 0, "is_disabled": 0, "type": "electric_scooter", "bike_id": "cb5987c62164f7369946cee994d2146b"}, {"lon": -76.94903666666667, "lat": 38.895202166666664, "name": "b8629c4a241406d083ba090f3ddd4eeb", "fusion_lat": 0.0, "fusion_lon": 0.0, "rental_uris": {"android": "https://dc.lft.to/lastmile_qr_scan", "ios": "https://dc.lft.to/lastmile_qr_scan"}, "is_reserved": 0, "is_disabled": 0, "type": "electric_scooter", "bike_id": "b8629c4a241406d083ba090f3ddd4eeb"}, {"lon": -77.043328, "lat": 38.903571, "name": "1ce3140ab27acf9bc13fbd640a200d15", "fusion_lat": 0.0, "fusion_lon": 0.0, "rental_uris": {"android": "https://dc.lft.to/lastmile_qr_scan", "ios": "https://dc.lft.to/lastmile_qr_scan"}, "is_reserved": 0, "is_disabled": 0, "type": "electric_scooter", "bike_id": "1ce3140ab27acf9bc13fbd640a200d15"}, {"lon": -77.025899, "lat": 38.9042995, "name": "4158d841d1d146e9b8775d879537080a", "fusion_lat": 0.0, "fusion_lon": 0.0, "rental_uris": {"android": "https://dc.lft.to/lastmile_qr_scan", "ios": "https://dc.lft.to/lastmile_qr_scan"}, "is_reserved": 0, "is_disabled": 0, "type": "electric_scooter", "bike_id": "4158d841d1d146e9b8775d879537080a"}, {"lon": -77.03166983333334, "lat": 38.905324, "name": "42f0a233590df672a203f1ef24e6645f", "fusion_lat": 0.0, "fusion_lon": 0.0, "rental_uris": {"android": "https://dc.lft.to/lastmile_qr_scan", "ios": "https://dc.lft.to/lastmile_qr_scan"}, "is_reserved": 0, "is_disabled": 0, "type": "electric_scooter", "bike_id": "42f0a233590df672a203f1ef24e6645f"}, {"lon": -77.0485415, "lat": 38.91957416666666, "name": "12901ceef5704807b09a3be79f970cae", "fusion_lat": 0.0, "fusion_lon": 0.0, "rental_uris": {"android": "https://dc.lft.to/lastmile_qr_scan", "ios": "https://dc.lft.to/lastmile_qr_scan"}, "is_reserved": 0, "is_disabled": 0, "type": "electric_scooter", "bike_id": "12901ceef5704807b09a3be79f970cae"}, {"lon": -77.00282366666667, "lat": 38.9148585, "name": "9db67e84ee1c27193d7a10cb7ec9b6e0", "fusion_lat": 0.0, "fusion_lon": 0.0, "rental_uris": {"android": "https://dc.lft.to/lastmile_qr_scan", "ios": "https://dc.lft.to/lastmile_qr_scan"}, "is_reserved": 0, "is_disabled": 0, "type": "electric_scooter", "bike_id": "9db67e84ee1c27193d7a10cb7ec9b6e0"}, {"lon": -77.02775916666667, "lat": 38.894800833333335, "name": "b8513047c7deb6895d0b4dd38b97b522", "fusion_lat": 0.0, "fusion_lon": 0.0, "rental_uris": {"android": "https://dc.lft.to/lastmile_qr_scan", "ios": "https://dc.lft.to/lastmile_qr_scan"}, "is_reserved": 0, "is_disabled": 0, "type": "electric_scooter", "bike_id": "b8513047c7deb6895d0b4dd38b97b522"}, {"lon": -76.93354233333334, "lat": 38.89898766666666, "name": "b9cdc6dd2939b4a31f2b449dc6660187", "fusion_lat": 0.0, "fusion_lon": 0.0, "rental_uris": {"android": "https://dc.lft.to/lastmile_qr_scan", "ios": "https://dc.lft.to/lastmile_qr_scan"}, "is_reserved": 0, "is_disabled": 0, "type": "electric_scooter", "bike_id": "b9cdc6dd2939b4a31f2b449dc6660187"}, {"lon": -77.02575916666666, "lat": 38.892316666666666, "name": "1760ca6621841e5820a236b940ec18c9", "fusion_lat": 0.0, "fusion_lon": 0.0, "rental_uris": {"android": "https://dc.lft.to/lastmile_qr_scan", "ios": "https://dc.lft.to/lastmile_qr_scan"}, "is_reserved": 0, "is_disabled": 0, "type": "electric_scooter", "bike_id": "1760ca6621841e5820a236b940ec18c9"}, {"lon": -76.99540333333333, "lat": 38.900315666666664, "name": "a642dde909b13eefab4caa58eb8411a0", "fusion_lat": 0.0, "fusion_lon": 0.0, "rental_uris": {"android": "https://dc.lft.to/lastmile_qr_scan", "ios": "https://dc.lft.to/lastmile_qr_scan"}, "is_reserved": 0, "is_disabled": 0, "type": "electric_scooter", "bike_id": "a642dde909b13eefab4caa58eb8411a0"}, {"lon": -77.03195666666667, "lat": 38.90792283333333, "name": "f775f3089280c23d4565f742aaf8964d", "fusion_lat": 0.0, "fusion_lon": 0.0, "rental_uris": {"android": "https://dc.lft.to/lastmile_qr_scan", "ios": "https://dc.lft.to/lastmile_qr_scan"}, "is_reserved": 0, "is_disabled": 0, "type": "electric_scooter", "bike_id": "f775f3089280c23d4565f742aaf8964d"}, {"lon": -76.99175116666666, "lat": 38.905027833333335, "name": "6a2552ef5578aa1a5c8d774356c5e4b1", "fusion_lat": 0.0, "fusion_lon": 0.0, "rental_uris": {"android": "https://dc.lft.to/lastmile_qr_scan", "ios": "https://dc.lft.to/lastmile_qr_scan"}, "is_reserved": 0, "is_disabled": 0, "type": "electric_scooter", "bike_id": "6a2552ef5578aa1a5c8d774356c5e4b1"}, {"lon": -76.9901855, "lat": 38.8586975, "name": "44aa27f215b8c3e0fd3985b6d25c4c94", "fusion_lat": 0.0, "fusion_lon": 0.0, "rental_uris": {"android": "https://dc.lft.to/lastmile_qr_scan", "ios": "https://dc.lft.to/lastmile_qr_scan"}, "is_reserved": 0, "is_disabled": 0, "type": "electric_scooter", "bike_id": "44aa27f215b8c3e0fd3985b6d25c4c94"}, {"lon": -77.03136983333333, "lat": 38.915635, "name": "4d136fae088111bbe6adc3a27b2e2533", "fusion_lat": 0.0, "fusion_lon": 0.0, "rental_uris": {"android": "https://dc.lft.to/lastmile_qr_scan", "ios": "https://dc.lft.to/lastmile_qr_scan"}, "is_reserved": 0, "is_disabled": 0, "type": "electric_scooter", "bike_id": "4d136fae088111bbe6adc3a27b2e2533"}, {"lon": -76.99624783333333, "lat": 38.880325, "name": "79a314075842a9d11a8652659e2e39dd", "fusion_lat": 0.0, "fusion_lon": 0.0, "rental_uris": {"android": "https://dc.lft.to/lastmile_qr_scan", "ios": "https://dc.lft.to/lastmile_qr_scan"}, "is_reserved": 0, "is_disabled": 0, "type": "electric_scooter", "bike_id": "79a314075842a9d11a8652659e2e39dd"}, {"lon": -77.11236483333333, "lat": 38.828524, "name": "dacfe1262c8e731c8ed57d3a975f4fb7", "fusion_lat": 0.0, "fusion_lon": 0.0, "rental_uris": {"android": "https://dc.lft.to/lastmile_qr_scan", "ios": "https://dc.lft.to/lastmile_qr_scan"}, "is_reserved": 0, "is_disabled": 0, "type": "electric_bike", "bike_id": "dacfe1262c8e731c8ed57d3a975f4fb7"}, {"lon": -76.8749805, "lat": 38.990909, "name": "e24f747851eea1a0ce8957e7dd5aa92c", "fusion_lat": 0.0, "fusion_lon": 0.0, "rental_uris": {"android": "https://dc.lft.to/lastmile_qr_scan", "ios": "https://dc.lft.to/lastmile_qr_scan"}, "is_reserved": 0, "is_disabled": 0, "type": "electric_bike", "bike_id": "e24f747851eea1a0ce8957e7dd5aa92c"}, {"lon": -77.0095795, "lat": 38.921350833333335, "name": "69316e64d1c0ffd724e9299e10f55f4a", "fusion_lat": 0.0, "fusion_lon": 0.0, "rental_uris": {"android": "https://dc.lft.to/lastmile_qr_scan", "ios": "https://dc.lft.to/lastmile_qr_scan"}, "is_reserved": 0, "is_disabled": 0, "type": "electric_scooter", "bike_id": "69316e64d1c0ffd724e9299e10f55f4a"}, {"lon": -76.93160616666667, "lat": 38.89889083333333, "name": "83f6e7f70bd2a67d1691231bc4e91427", "fusion_lat": 0.0, "fusion_lon": 0.0, "rental_uris": {"android": "https://dc.lft.to/lastmile_qr_scan", "ios": "https://dc.lft.to/lastmile_qr_scan"}, "is_reserved": 0, "is_disabled": 0, "type": "electric_scooter", "bike_id": "83f6e7f70bd2a67d1691231bc4e91427"}, {"lon": -77.0019425, "lat": 38.9004015, "name": "b78646fb73c0f46f384376fe570425a1", "fusion_lat": 0.0, "fusion_lon": 0.0, "rental_uris": {"android": "https://dc.lft.to/lastmile_qr_scan", "ios": "https://dc.lft.to/lastmile_qr_scan"}, "is_reserved": 0, "is_disabled": 0, "type": "electric_scooter", "bike_id": "b78646fb73c0f46f384376fe570425a1"}, {"lon": -76.99951483333334, "lat": 38.8804565, "name": "6a336156470fced5125f194c6be91d69", "fusion_lat": 0.0, "fusion_lon": 0.0, "rental_uris": {"android": "https://dc.lft.to/lastmile_qr_scan", "ios": "https://dc.lft.to/lastmile_qr_scan"}, "is_reserved": 0, "is_disabled": 0, "type": "electric_scooter", "bike_id": "6a336156470fced5125f194c6be91d69"}, {"lon": -77.03210883333334, "lat": 38.938691, "name": "f35e68cf78942195a00175c519300a72", "fusion_lat": 0.0, "fusion_lon": 0.0, "rental_uris": {"android": "https://dc.lft.to/lastmile_qr_scan", "ios": "https://dc.lft.to/lastmile_qr_scan"}, "is_reserved": 0, "is_disabled": 0, "type": "electric_scooter", "bike_id": "f35e68cf78942195a00175c519300a72"}, {"lon": -76.9610245, "lat": 38.92872, "name": "e778cd5e46155e4b44c37924ca3c3dc5", "fusion_lat": 0.0, "fusion_lon": 0.0, "rental_uris": {"android": "https://dc.lft.to/lastmile_qr_scan", "ios": "https://dc.lft.to/lastmile_qr_scan"}, "is_reserved": 0, "is_disabled": 0, "type": "electric_bike", "bike_id": "e778cd5e46155e4b44c37924ca3c3dc5"}, {"lon": -77.02152866666667, "lat": 38.925999833333336, "name": "90ea0c9341d92637e18e0b9ab3f7ec87", "fusion_lat": 0.0, "fusion_lon": 0.0, "rental_uris": {"android": "https://dc.lft.to/lastmile_qr_scan", "ios": "https://dc.lft.to/lastmile_qr_scan"}, "is_reserved": 0, "is_disabled": 0, "type": "electric_scooter", "bike_id": "90ea0c9341d92637e18e0b9ab3f7ec87"}, {"lon": -77.00345183333333, "lat": 38.89739933333333, "name": "6fc8d25493151b42a481c83f77846cdd", "fusion_lat": 0.0, "fusion_lon": 0.0, "rental_uris": {"android": "https://dc.lft.to/lastmile_qr_scan", "ios": "https://dc.lft.to/lastmile_qr_scan"}, "is_reserved": 0, "is_disabled": 0, "type": "electric_scooter", "bike_id": "6fc8d25493151b42a481c83f77846cdd"}, {"lon": -77.00206916666667, "lat": 38.90740266666667, "name": "5aaf362678ae196665804a3d8137e832", "fusion_lat": 0.0, "fusion_lon": 0.0, "rental_uris": {"android": "https://dc.lft.to/lastmile_qr_scan", "ios": "https://dc.lft.to/lastmile_qr_scan"}, "is_reserved": 0, "is_disabled": 0, "type": "electric_scooter", "bike_id": "5aaf362678ae196665804a3d8137e832"}, {"lon": -77.00196083333333, "lat": 38.898789666666666, "name": "0e8160a91abd9570781001f1476007b6", "fusion_lat": 0.0, "fusion_lon": 0.0, "rental_uris": {"android": "https://dc.lft.to/lastmile_qr_scan", "ios": "https://dc.lft.to/lastmile_qr_scan"}, "is_reserved": 0, "is_disabled": 0, "type": "electric_scooter", "bike_id": "0e8160a91abd9570781001f1476007b6"}, {"lon": -77.03644816666667, "lat": 38.90286416666667, "name": "237281ce20e2e01d46e0043bb085303d", "fusion_lat": 0.0, "fusion_lon": 0.0, "rental_uris": {"android": "https://dc.lft.to/lastmile_qr_scan", "ios": "https://dc.lft.to/lastmile_qr_scan"}, "is_reserved": 0, "is_disabled": 0, "type": "electric_scooter", "bike_id": "237281ce20e2e01d46e0043bb085303d"}, {"lon": -77.01180966666666, "lat": 38.900208166666665, "name": "d0b069a03cfc98a44e2f8d40df446a47", "fusion_lat": 0.0, "fusion_lon": 0.0, "rental_uris": {"android": "https://dc.lft.to/lastmile_qr_scan", "ios": "https://dc.lft.to/lastmile_qr_scan"}, "is_reserved": 0, "is_disabled": 0, "type": "electric_scooter", "bike_id": "d0b069a03cfc98a44e2f8d40df446a47"}, {"lon": -77.035877, "lat": 38.9367285, "name": "5b0e52574f13ead81bf8400b62e36ee6", "fusion_lat": 0.0, "fusion_lon": 0.0, "rental_uris": {"android": "https://dc.lft.to/lastmile_qr_scan", "ios": "https://dc.lft.to/lastmile_qr_scan"}, "is_reserved": 0, "is_disabled": 0, "type": "electric_scooter", "bike_id": "5b0e52574f13ead81bf8400b62e36ee6"}, {"lon": -77.02719933333333, "lat": 38.892183, "name": "e09a6f7bf2bf07bea05b88c6794c7900", "fusion_lat": 0.0, "fusion_lon": 0.0, "rental_uris": {"android": "https://dc.lft.to/lastmile_qr_scan", "ios": "https://dc.lft.to/lastmile_qr_scan"}, "is_reserved": 0, "is_disabled": 0, "type": "electric_scooter", "bike_id": "e09a6f7bf2bf07bea05b88c6794c7900"}, {"lon": -77.01108483333333, "lat": 38.90350466666666, "name": "a5e5bcf8309a8f9038c93863e7e267ed", "fusion_lat": 0.0, "fusion_lon": 0.0, "rental_uris": {"android": "https://dc.lft.to/lastmile_qr_scan", "ios": "https://dc.lft.to/lastmile_qr_scan"}, "is_reserved": 0, "is_disabled": 0, "type": "electric_scooter", "bike_id": "a5e5bcf8309a8f9038c93863e7e267ed"}, {"lon": -77.028167, "lat": 38.91603666666666, "name": "de3da6677d1072e43aa85a9dd687af2f", "fusion_lat": 0.0, "fusion_lon": 0.0, "rental_uris": {"android": "https://dc.lft.to/lastmile_qr_scan", "ios": "https://dc.lft.to/lastmile_qr_scan"}, "is_reserved": 0, "is_disabled": 0, "type": "electric_scooter", "bike_id": "de3da6677d1072e43aa85a9dd687af2f"}, {"lon": -77.0223095, "lat": 38.91271616666667, "name": "08665b4cbb89880b4b192b1595e504a9", "fusion_lat": 0.0, "fusion_lon": 0.0, "rental_uris": {"android": "https://dc.lft.to/lastmile_qr_scan", "ios": "https://dc.lft.to/lastmile_qr_scan"}, "is_reserved": 0, "is_disabled": 0, "type": "electric_scooter", "bike_id": "08665b4cbb89880b4b192b1595e504a9"}, {"lon": -77.038995, "lat": 38.92327183333333, "name": "c173c76d492495563a3e5689d2cbd820", "fusion_lat": 0.0, "fusion_lon": 0.0, "rental_uris": {"android": "https://dc.lft.to/lastmile_qr_scan", "ios": "https://dc.lft.to/lastmile_qr_scan"}, "is_reserved": 0, "is_disabled": 0, "type": "electric_scooter", "bike_id": "c173c76d492495563a3e5689d2cbd820"}, {"lon": -77.069836, "lat": 38.95280433333333, "name": "136e1f12e5b1ef61479b413073bc9839", "fusion_lat": 0.0, "fusion_lon": 0.0, "rental_uris": {"android": "https://dc.lft.to/lastmile_qr_scan", "ios": "https://dc.lft.to/lastmile_qr_scan"}, "is_reserved": 0, "is_disabled": 0, "type": "electric_bike", "bike_id": "136e1f12e5b1ef61479b413073bc9839"}, {"lon": -76.96527966666666, "lat": 38.876282333333336, "name": "0f60aff2a1e9d9b66faaff11e10342a7", "fusion_lat": 0.0, "fusion_lon": 0.0, "rental_uris": {"android": "https://dc.lft.to/lastmile_qr_scan", "ios": "https://dc.lft.to/lastmile_qr_scan"}, "is_reserved": 0, "is_disabled": 0, "type": "electric_scooter", "bike_id": "0f60aff2a1e9d9b66faaff11e10342a7"}, {"lon": -77.02802516666667, "lat": 38.94290566666667, "name": "f9f76b971b036e32640fa60e84f688e1", "fusion_lat": 0.0, "fusion_lon": 0.0, "rental_uris": {"android": "https://dc.lft.to/lastmile_qr_scan", "ios": "https://dc.lft.to/lastmile_qr_scan"}, "is_reserved": 0, "is_disabled": 0, "type": "electric_bike", "bike_id": "f9f76b971b036e32640fa60e84f688e1"}, {"lon": -77.0269975, "lat": 38.909473166666665, "name": "70bcd4e849ddfafd74d9732506d21689", "fusion_lat": 0.0, "fusion_lon": 0.0, "rental_uris": {"android": "https://dc.lft.to/lastmile_qr_scan", "ios": "https://dc.lft.to/lastmile_qr_scan"}, "is_reserved": 0, "is_disabled": 0, "type": "electric_scooter", "bike_id": "70bcd4e849ddfafd74d9732506d21689"}, {"lon": -76.99011166666666, "lat": 38.91141283333333, "name": "b50bf1672f54bf87be738f549f9f183a", "fusion_lat": 0.0, "fusion_lon": 0.0, "rental_uris": {"android": "https://dc.lft.to/lastmile_qr_scan", "ios": "https://dc.lft.to/lastmile_qr_scan"}, "is_reserved": 0, "is_disabled": 0, "type": "electric_scooter", "bike_id": "b50bf1672f54bf87be738f549f9f183a"}, {"lon": -76.95253433333333, "lat": 38.885986333333335, "name": "4fbef427a3db4c165b3504078b8593fc", "fusion_lat": 0.0, "fusion_lon": 0.0, "rental_uris": {"android": "https://dc.lft.to/lastmile_qr_scan", "ios": "https://dc.lft.to/lastmile_qr_scan"}, "is_reserved": 0, "is_disabled": 0, "type": "electric_scooter", "bike_id": "4fbef427a3db4c165b3504078b8593fc"}, {"lon": -77.01043183333333, "lat": 38.884521, "name": "1bec763d657edac0acb57c15600d2c2c", "fusion_lat": 0.0, "fusion_lon": 0.0, "rental_uris": {"android": "https://dc.lft.to/lastmile_qr_scan", "ios": "https://dc.lft.to/lastmile_qr_scan"}, "is_reserved": 0, "is_disabled": 0, "type": "electric_scooter", "bike_id": "1bec763d657edac0acb57c15600d2c2c"}, {"lon": -76.9790945, "lat": 38.903898833333336, "name": "c338aaa6e0a57b91e001c16ed4547ee5", "fusion_lat": 0.0, "fusion_lon": 0.0, "rental_uris": {"android": "https://dc.lft.to/lastmile_qr_scan", "ios": "https://dc.lft.to/lastmile_qr_scan"}, "is_reserved": 0, "is_disabled": 0, "type": "electric_scooter", "bike_id": "c338aaa6e0a57b91e001c16ed4547ee5"}, {"lon": -77.064562, "lat": 38.910479, "name": "ba8479b899cba4876d2af03cf68fc78f", "fusion_lat": 0.0, "fusion_lon": 0.0, "rental_uris": {"android": "https://dc.lft.to/lastmile_qr_scan", "ios": "https://dc.lft.to/lastmile_qr_scan"}, "is_reserved": 0, "is_disabled": 0, "type": "electric_scooter", "bike_id": "ba8479b899cba4876d2af03cf68fc78f"}, {"lon": -77.0238875, "lat": 38.9327755, "name": "01d031d115143624cc57ee867f80925c", "fusion_lat": 0.0, "fusion_lon": 0.0, "rental_uris": {"android": "https://dc.lft.to/lastmile_qr_scan", "ios": "https://dc.lft.to/lastmile_qr_scan"}, "is_reserved": 0, "is_disabled": 0, "type": "electric_scooter", "bike_id": "01d031d115143624cc57ee867f80925c"}, {"lon": -77.0343635, "lat": 38.90700116666667, "name": "98915dd54caf982bb8b20a3a209bc57f", "fusion_lat": 0.0, "fusion_lon": 0.0, "rental_uris": {"android": "https://dc.lft.to/lastmile_qr_scan", "ios": "https://dc.lft.to/lastmile_qr_scan"}, "is_reserved": 0, "is_disabled": 0, "type": "electric_scooter", "bike_id": "98915dd54caf982bb8b20a3a209bc57f"}, {"lon": -77.01862166666666, "lat": 38.949191, "name": "a7e2256fcff32768a852900f31e29e9d", "fusion_lat": 0.0, "fusion_lon": 0.0, "rental_uris": {"android": "https://dc.lft.to/lastmile_qr_scan", "ios": "https://dc.lft.to/lastmile_qr_scan"}, "is_reserved": 0, "is_disabled": 0, "type": "electric_scooter", "bike_id": "a7e2256fcff32768a852900f31e29e9d"}, {"lon": -77.03830883333333, "lat": 38.9111955, "name": "2fd23d285ff902f3605865323f94387e", "fusion_lat": 0.0, "fusion_lon": 0.0, "rental_uris": {"android": "https://dc.lft.to/lastmile_qr_scan", "ios": "https://dc.lft.to/lastmile_qr_scan"}, "is_reserved": 0, "is_disabled": 0, "type": "electric_scooter", "bike_id": "2fd23d285ff902f3605865323f94387e"}, {"lon": -77.01717016666667, "lat": 38.87942066666667, "name": "93e335ec0e16a9a57a45e42b709e7477", "fusion_lat": 0.0, "fusion_lon": 0.0, "rental_uris": {"android": "https://dc.lft.to/lastmile_qr_scan", "ios": "https://dc.lft.to/lastmile_qr_scan"}, "is_reserved": 0, "is_disabled": 0, "type": "electric_scooter", "bike_id": "93e335ec0e16a9a57a45e42b709e7477"}, {"lon": -77.04347983333334, "lat": 38.8968345, "name": "0eff830b25568b24bc4c9e1a1205fc76", "fusion_lat": 0.0, "fusion_lon": 0.0, "rental_uris": {"android": "https://dc.lft.to/lastmile_qr_scan", "ios": "https://dc.lft.to/lastmile_qr_scan"}, "is_reserved": 0, "is_disabled": 0, "type": "electric_scooter", "bike_id": "0eff830b25568b24bc4c9e1a1205fc76"}, {"lon": -77.04316416666667, "lat": 38.934262, "name": "ac70ac5a11d0bb01e347ee4ca49d9aa2", "fusion_lat": 0.0, "fusion_lon": 0.0, "rental_uris": {"android": "https://dc.lft.to/lastmile_qr_scan", "ios": "https://dc.lft.to/lastmile_qr_scan"}, "is_reserved": 0, "is_disabled": 0, "type": "electric_scooter", "bike_id": "ac70ac5a11d0bb01e347ee4ca49d9aa2"}, {"lon": -77.02704183333333, "lat": 38.928803333333335, "name": "215cf7ff83179bd27741be9be4b5c704", "fusion_lat": 0.0, "fusion_lon": 0.0, "rental_uris": {"android": "https://dc.lft.to/lastmile_qr_scan", "ios": "https://dc.lft.to/lastmile_qr_scan"}, "is_reserved": 0, "is_disabled": 0, "type": "electric_scooter", "bike_id": "215cf7ff83179bd27741be9be4b5c704"}, {"lon": -77.03459266666667, "lat": 38.918213, "name": "0404771bada87a65cf0b1a7013471f0f", "fusion_lat": 0.0, "fusion_lon": 0.0, "rental_uris": {"android": "https://dc.lft.to/lastmile_qr_scan", "ios": "https://dc.lft.to/lastmile_qr_scan"}, "is_reserved": 0, "is_disabled": 0, "type": "electric_scooter", "bike_id": "0404771bada87a65cf0b1a7013471f0f"}, {"lon": -77.052857, "lat": 38.9255825, "name": "5589c515ad4a6ff310ee69e496bdb527", "fusion_lat": 0.0, "fusion_lon": 0.0, "rental_uris": {"android": "https://dc.lft.to/lastmile_qr_scan", "ios": "https://dc.lft.to/lastmile_qr_scan"}, "is_reserved": 0, "is_disabled": 0, "type": "electric_scooter", "bike_id": "5589c515ad4a6ff310ee69e496bdb527"}, {"lon": -77.014251, "lat": 38.92868683333333, "name": "42b817a18a90abc6a626878e12aac0bc", "fusion_lat": 0.0, "fusion_lon": 0.0, "rental_uris": {"android": "https://dc.lft.to/lastmile_qr_scan", "ios": "https://dc.lft.to/lastmile_qr_scan"}, "is_reserved": 0, "is_disabled": 0, "type": "electric_scooter", "bike_id": "42b817a18a90abc6a626878e12aac0bc"}, {"lon": -77.03206566666667, "lat": 38.90773183333334, "name": "cd0b8f6e6af836668636d2c0120bcf35", "fusion_lat": 0.0, "fusion_lon": 0.0, "rental_uris": {"android": "https://dc.lft.to/lastmile_qr_scan", "ios": "https://dc.lft.to/lastmile_qr_scan"}, "is_reserved": 0, "is_disabled": 0, "type": "electric_scooter", "bike_id": "cd0b8f6e6af836668636d2c0120bcf35"}, {"lon": -76.95755633333333, "lat": 38.884342, "name": "6aac88f20283b10a97baa1a9497246c3", "fusion_lat": 0.0, "fusion_lon": 0.0, "rental_uris": {"android": "https://dc.lft.to/lastmile_qr_scan", "ios": "https://dc.lft.to/lastmile_qr_scan"}, "is_reserved": 0, "is_disabled": 0, "type": "electric_scooter", "bike_id": "6aac88f20283b10a97baa1a9497246c3"}, {"lon": -77.04054283333333, "lat": 38.92714016666667, "name": "142ed87cdb48f172a585948eb923e377", "fusion_lat": 0.0, "fusion_lon": 0.0, "rental_uris": {"android": "https://dc.lft.to/lastmile_qr_scan", "ios": "https://dc.lft.to/lastmile_qr_scan"}, "is_reserved": 0, "is_disabled": 0, "type": "electric_scooter", "bike_id": "142ed87cdb48f172a585948eb923e377"}, {"lon": -76.96508633333333, "lat": 38.876502, "name": "7455a962d9dd204b7bcfd3f03e204a92", "fusion_lat": 0.0, "fusion_lon": 0.0, "rental_uris": {"android": "https://dc.lft.to/lastmile_qr_scan", "ios": "https://dc.lft.to/lastmile_qr_scan"}, "is_reserved": 0, "is_disabled": 0, "type": "electric_scooter", "bike_id": "7455a962d9dd204b7bcfd3f03e204a92"}, {"lon": -77.04153633333334, "lat": 38.919005, "name": "0db46334a0e34d0b95459af0474e846b", "fusion_lat": 0.0, "fusion_lon": 0.0, "rental_uris": {"android": "https://dc.lft.to/lastmile_qr_scan", "ios": "https://dc.lft.to/lastmile_qr_scan"}, "is_reserved": 0, "is_disabled": 0, "type": "electric_scooter", "bike_id": "0db46334a0e34d0b95459af0474e846b"}, {"lon": -77.15265966666666, "lat": 39.10567783333333, "name": "8af094884af4aa7c948bb868ec1163ee", "fusion_lat": 0.0, "fusion_lon": 0.0, "rental_uris": {"android": "https://dc.lft.to/lastmile_qr_scan", "ios": "https://dc.lft.to/lastmile_qr_scan"}, "is_reserved": 0, "is_disabled": 0, "type": "electric_bike", "bike_id": "8af094884af4aa7c948bb868ec1163ee"}, {"lon": -77.0302935, "lat": 38.91556883333333, "name": "90539ccea17c94e58ea7ad7eb67fb9ad", "fusion_lat": 0.0, "fusion_lon": 0.0, "rental_uris": {"android": "https://dc.lft.to/lastmile_qr_scan", "ios": "https://dc.lft.to/lastmile_qr_scan"}, "is_reserved": 0, "is_disabled": 0, "type": "electric_scooter", "bike_id": "90539ccea17c94e58ea7ad7eb67fb9ad"}, {"lon": -77.02357983333333, "lat": 38.925153, "name": "b3418aacec0121ba2810ad1a38068004", "fusion_lat": 0.0, "fusion_lon": 0.0, "rental_uris": {"android": "https://dc.lft.to/lastmile_qr_scan", "ios": "https://dc.lft.to/lastmile_qr_scan"}, "is_reserved": 0, "is_disabled": 0, "type": "electric_scooter", "bike_id": "b3418aacec0121ba2810ad1a38068004"}, {"lon": -77.038578, "lat": 38.91719283333333, "name": "1490101825363eebbc02bfc898e224f2", "fusion_lat": 0.0, "fusion_lon": 0.0, "rental_uris": {"android": "https://dc.lft.to/lastmile_qr_scan", "ios": "https://dc.lft.to/lastmile_qr_scan"}, "is_reserved": 0, "is_disabled": 0, "type": "electric_scooter", "bike_id": "1490101825363eebbc02bfc898e224f2"}, {"lon": -77.03935966666667, "lat": 38.91417033333333, "name": "7815dd7cc42a8ddb950286613502beab", "fusion_lat": 0.0, "fusion_lon": 0.0, "rental_uris": {"android": "https://dc.lft.to/lastmile_qr_scan", "ios": "https://dc.lft.to/lastmile_qr_scan"}, "is_reserved": 0, "is_disabled": 0, "type": "electric_scooter", "bike_id": "7815dd7cc42a8ddb950286613502beab"}, {"lon": -77.00562633333334, "lat": 38.90580166666667, "name": "ff98b26c57b8bd8e7f819de0b93b4a2c", "fusion_lat": 0.0, "fusion_lon": 0.0, "rental_uris": {"android": "https://dc.lft.to/lastmile_qr_scan", "ios": "https://dc.lft.to/lastmile_qr_scan"}, "is_reserved": 0, "is_disabled": 0, "type": "electric_scooter", "bike_id": "ff98b26c57b8bd8e7f819de0b93b4a2c"}, {"lon": -77.07897066666666, "lat": 38.91926, "name": "127484504555702b6e039f23ac3e4d6f", "fusion_lat": 0.0, "fusion_lon": 0.0, "rental_uris": {"android": "https://dc.lft.to/lastmile_qr_scan", "ios": "https://dc.lft.to/lastmile_qr_scan"}, "is_reserved": 0, "is_disabled": 0, "type": "electric_scooter", "bike_id": "127484504555702b6e039f23ac3e4d6f"}, {"lon": -77.00800133333334, "lat": 38.9170815, "name": "c3a5b129cc962ef09111e72dbf5c05c4", "fusion_lat": 0.0, "fusion_lon": 0.0, "rental_uris": {"android": "https://dc.lft.to/lastmile_qr_scan", "ios": "https://dc.lft.to/lastmile_qr_scan"}, "is_reserved": 0, "is_disabled": 0, "type": "electric_scooter", "bike_id": "c3a5b129cc962ef09111e72dbf5c05c4"}, {"lon": -77.037015, "lat": 38.92646166666667, "name": "7860401ab7d0767a0fa5fd5a3047ef0f", "fusion_lat": 0.0, "fusion_lon": 0.0, "rental_uris": {"android": "https://dc.lft.to/lastmile_qr_scan", "ios": "https://dc.lft.to/lastmile_qr_scan"}, "is_reserved": 0, "is_disabled": 0, "type": "electric_scooter", "bike_id": "7860401ab7d0767a0fa5fd5a3047ef0f"}, {"lon": -77.02993933333333, "lat": 38.916812, "name": "9d37259af92d1bd31bf06845a9bb1a5d", "fusion_lat": 0.0, "fusion_lon": 0.0, "rental_uris": {"android": "https://dc.lft.to/lastmile_qr_scan", "ios": "https://dc.lft.to/lastmile_qr_scan"}, "is_reserved": 0, "is_disabled": 0, "type": "electric_scooter", "bike_id": "9d37259af92d1bd31bf06845a9bb1a5d"}, {"lon": -77.01995083333334, "lat": 38.966271166666665, "name": "6dc40a37272e07df6b66b97b9b18f6b1", "fusion_lat": 0.0, "fusion_lon": 0.0, "rental_uris": {"android": "https://dc.lft.to/lastmile_qr_scan", "ios": "https://dc.lft.to/lastmile_qr_scan"}, "is_reserved": 0, "is_disabled": 0, "type": "electric_scooter", "bike_id": "6dc40a37272e07df6b66b97b9b18f6b1"}, {"lon": -76.9761505, "lat": 38.895781666666664, "name": "c03eca5581b8a22f17f93843b8d4d8cc", "fusion_lat": 0.0, "fusion_lon": 0.0, "rental_uris": {"android": "https://dc.lft.to/lastmile_qr_scan", "ios": "https://dc.lft.to/lastmile_qr_scan"}, "is_reserved": 0, "is_disabled": 0, "type": "electric_bike", "bike_id": "c03eca5581b8a22f17f93843b8d4d8cc"}, {"lon": -77.0158475, "lat": 38.928495, "name": "c2e98ff9b47d645da18056f3a9677f0d", "fusion_lat": 0.0, "fusion_lon": 0.0, "rental_uris": {"android": "https://dc.lft.to/lastmile_qr_scan", "ios": "https://dc.lft.to/lastmile_qr_scan"}, "is_reserved": 0, "is_disabled": 0, "type": "electric_scooter", "bike_id": "c2e98ff9b47d645da18056f3a9677f0d"}, {"lon": -77.00520733333333, "lat": 38.916985, "name": "852d560053580aa748b0f5bc0dfa5a73", "fusion_lat": 0.0, "fusion_lon": 0.0, "rental_uris": {"android": "https://dc.lft.to/lastmile_qr_scan", "ios": "https://dc.lft.to/lastmile_qr_scan"}, "is_reserved": 0, "is_disabled": 0, "type": "electric_scooter", "bike_id": "852d560053580aa748b0f5bc0dfa5a73"}, {"lon": -77.010583, "lat": 38.872416, "name": "e08153a714e90342319e6a0761ed2686", "fusion_lat": 0.0, "fusion_lon": 0.0, "rental_uris": {"android": "https://dc.lft.to/lastmile_qr_scan", "ios": "https://dc.lft.to/lastmile_qr_scan"}, "is_reserved": 0, "is_disabled": 0, "type": "electric_scooter", "bike_id": "e08153a714e90342319e6a0761ed2686"}, {"lon": -77.03438733333333, "lat": 38.9180695, "name": "327f7116f716042c9c4645c80c125daf", "fusion_lat": 0.0, "fusion_lon": 0.0, "rental_uris": {"android": "https://dc.lft.to/lastmile_qr_scan", "ios": "https://dc.lft.to/lastmile_qr_scan"}, "is_reserved": 0, "is_disabled": 0, "type": "electric_scooter", "bike_id": "327f7116f716042c9c4645c80c125daf"}, {"lon": -77.023745, "lat": 38.92000683333333, "name": "4883d1c7471a3fcb604715f1ab9eb874", "fusion_lat": 0.0, "fusion_lon": 0.0, "rental_uris": {"android": "https://dc.lft.to/lastmile_qr_scan", "ios": "https://dc.lft.to/lastmile_qr_scan"}, "is_reserved": 0, "is_disabled": 0, "type": "electric_scooter", "bike_id": "4883d1c7471a3fcb604715f1ab9eb874"}, {"lon": -77.04996716666666, "lat": 38.90128633333333, "name": "ee36e75e7823843351b2a69b0c4b7487", "fusion_lat": 0.0, "fusion_lon": 0.0, "rental_uris": {"android": "https://dc.lft.to/lastmile_qr_scan", "ios": "https://dc.lft.to/lastmile_qr_scan"}, "is_reserved": 0, "is_disabled": 0, "type": "electric_scooter", "bike_id": "ee36e75e7823843351b2a69b0c4b7487"}, {"lon": -77.03703416666667, "lat": 38.92782366666667, "name": "2e59d5fd3fe55327c25dca021536adb9", "fusion_lat": 0.0, "fusion_lon": 0.0, "rental_uris": {"android": "https://dc.lft.to/lastmile_qr_scan", "ios": "https://dc.lft.to/lastmile_qr_scan"}, "is_reserved": 0, "is_disabled": 0, "type": "electric_scooter", "bike_id": "2e59d5fd3fe55327c25dca021536adb9"}, {"lon": -77.00570116666667, "lat": 38.907128666666665, "name": "7ceb400b59fc9585cda5aa8932337f7f", "fusion_lat": 0.0, "fusion_lon": 0.0, "rental_uris": {"android": "https://dc.lft.to/lastmile_qr_scan", "ios": "https://dc.lft.to/lastmile_qr_scan"}, "is_reserved": 0, "is_disabled": 0, "type": "electric_scooter", "bike_id": "7ceb400b59fc9585cda5aa8932337f7f"}, {"lon": -76.985696, "lat": 38.898909, "name": "74985c9837324f4f9c869213b1d32711", "fusion_lat": 0.0, "fusion_lon": 0.0, "rental_uris": {"android": "https://dc.lft.to/lastmile_qr_scan", "ios": "https://dc.lft.to/lastmile_qr_scan"}, "is_reserved": 0, "is_disabled": 0, "type": "electric_scooter", "bike_id": "74985c9837324f4f9c869213b1d32711"}, {"lon": -77.0100175, "lat": 38.906951, "name": "7392404050ac05c0b795291022efdf39", "fusion_lat": 0.0, "fusion_lon": 0.0, "rental_uris": {"android": "https://dc.lft.to/lastmile_qr_scan", "ios": "https://dc.lft.to/lastmile_qr_scan"}, "is_reserved": 0, "is_disabled": 0, "type": "electric_scooter", "bike_id": "7392404050ac05c0b795291022efdf39"}, {"lon": -77.03283366666666, "lat": 38.9376185, "name": "5ca08da36d5c44a873d6f5bcf71bbfd3", "fusion_lat": 0.0, "fusion_lon": 0.0, "rental_uris": {"android": "https://dc.lft.to/lastmile_qr_scan", "ios": "https://dc.lft.to/lastmile_qr_scan"}, "is_reserved": 0, "is_disabled": 0, "type": "electric_scooter", "bike_id": "5ca08da36d5c44a873d6f5bcf71bbfd3"}, {"lon": -76.99125333333333, "lat": 38.90020533333333, "name": "593e7202d9f3018703c774e0d600890b", "fusion_lat": 0.0, "fusion_lon": 0.0, "rental_uris": {"android": "https://dc.lft.to/lastmile_qr_scan", "ios": "https://dc.lft.to/lastmile_qr_scan"}, "is_reserved": 0, "is_disabled": 0, "type": "electric_scooter", "bike_id": "593e7202d9f3018703c774e0d600890b"}, {"lon": -77.03901166666667, "lat": 38.91711033333333, "name": "444d54d04e675c1d9e183b58d5b24035", "fusion_lat": 0.0, "fusion_lon": 0.0, "rental_uris": {"android": "https://dc.lft.to/lastmile_qr_scan", "ios": "https://dc.lft.to/lastmile_qr_scan"}, "is_reserved": 0, "is_disabled": 0, "type": "electric_scooter", "bike_id": "444d54d04e675c1d9e183b58d5b24035"}, {"lon": -77.01816016666666, "lat": 38.911959, "name": "bcfd4e29313e97ebd142a079e85c7ba7", "fusion_lat": 0.0, "fusion_lon": 0.0, "rental_uris": {"android": "https://dc.lft.to/lastmile_qr_scan", "ios": "https://dc.lft.to/lastmile_qr_scan"}, "is_reserved": 0, "is_disabled": 0, "type": "electric_scooter", "bike_id": "bcfd4e29313e97ebd142a079e85c7ba7"}, {"lon": -77.07303416666667, "lat": 38.90667233333333, "name": "a05a17b4d3ed3f7e5966e9407a1b9dde", "fusion_lat": 0.0, "fusion_lon": 0.0, "rental_uris": {"android": "https://dc.lft.to/lastmile_qr_scan", "ios": "https://dc.lft.to/lastmile_qr_scan"}, "is_reserved": 0, "is_disabled": 0, "type": "electric_scooter", "bike_id": "a05a17b4d3ed3f7e5966e9407a1b9dde"}, {"lon": -77.04426966666666, "lat": 38.93275416666667, "name": "01eca61f43e3201a8bf526dd8e757026", "fusion_lat": 0.0, "fusion_lon": 0.0, "rental_uris": {"android": "https://dc.lft.to/lastmile_qr_scan", "ios": "https://dc.lft.to/lastmile_qr_scan"}, "is_reserved": 0, "is_disabled": 0, "type": "electric_scooter", "bike_id": "01eca61f43e3201a8bf526dd8e757026"}, {"lon": -77.10029116666666, "lat": 38.990704666666666, "name": "daf88d860b28568c782bfdd369f4e78b", "fusion_lat": 0.0, "fusion_lon": 0.0, "rental_uris": {"android": "https://dc.lft.to/lastmile_qr_scan", "ios": "https://dc.lft.to/lastmile_qr_scan"}, "is_reserved": 0, "is_disabled": 0, "type": "electric_bike", "bike_id": "daf88d860b28568c782bfdd369f4e78b"}, {"lon": -76.94651416666666, "lat": 38.898261833333336, "name": "217ef2d61e51189b5c6e9b5e650344ee", "fusion_lat": 0.0, "fusion_lon": 0.0, "rental_uris": {"android": "https://dc.lft.to/lastmile_qr_scan", "ios": "https://dc.lft.to/lastmile_qr_scan"}, "is_reserved": 0, "is_disabled": 0, "type": "electric_scooter", "bike_id": "217ef2d61e51189b5c6e9b5e650344ee"}, {"lon": -77.0419345, "lat": 38.920526333333335, "name": "55c0d8bfb4efd87b6f1b66946e1b218c", "fusion_lat": 0.0, "fusion_lon": 0.0, "rental_uris": {"android": "https://dc.lft.to/lastmile_qr_scan", "ios": "https://dc.lft.to/lastmile_qr_scan"}, "is_reserved": 0, "is_disabled": 0, "type": "electric_scooter", "bike_id": "55c0d8bfb4efd87b6f1b66946e1b218c"}, {"lon": -77.0409485, "lat": 38.91257483333333, "name": "c67d252bd07264beb48692f28273356a", "fusion_lat": 0.0, "fusion_lon": 0.0, "rental_uris": {"android": "https://dc.lft.to/lastmile_qr_scan", "ios": "https://dc.lft.to/lastmile_qr_scan"}, "is_reserved": 0, "is_disabled": 0, "type": "electric_scooter", "bike_id": "c67d252bd07264beb48692f28273356a"}, {"lon": -77.04899033333334, "lat": 38.87491933333333, "name": "e2d26856b962140c19098df342e07352", "fusion_lat": 0.0, "fusion_lon": 0.0, "rental_uris": {"android": "https://dc.lft.to/lastmile_qr_scan", "ios": "https://dc.lft.to/lastmile_qr_scan"}, "is_reserved": 0, "is_disabled": 0, "type": "electric_bike", "bike_id": "e2d26856b962140c19098df342e07352"}, {"lon": -77.01601283333333, "lat": 38.917592, "name": "56c87a31d1b6afe0b4770c068120decc", "fusion_lat": 0.0, "fusion_lon": 0.0, "rental_uris": {"android": "https://dc.lft.to/lastmile_qr_scan", "ios": "https://dc.lft.to/lastmile_qr_scan"}, "is_reserved": 0, "is_disabled": 0, "type": "electric_scooter", "bike_id": "56c87a31d1b6afe0b4770c068120decc"}, {"lon": -77.0214475, "lat": 38.924859833333336, "name": "2ce9fffce7762e100fbfbc6e0b981b94", "fusion_lat": 0.0, "fusion_lon": 0.0, "rental_uris": {"android": "https://dc.lft.to/lastmile_qr_scan", "ios": "https://dc.lft.to/lastmile_qr_scan"}, "is_reserved": 0, "is_disabled": 0, "type": "electric_scooter", "bike_id": "2ce9fffce7762e100fbfbc6e0b981b94"}, {"lon": -77.02482483333333, "lat": 38.93884366666666, "name": "59ee78875118b33d4b43b34598dff0b8", "fusion_lat": 0.0, "fusion_lon": 0.0, "rental_uris": {"android": "https://dc.lft.to/lastmile_qr_scan", "ios": "https://dc.lft.to/lastmile_qr_scan"}, "is_reserved": 0, "is_disabled": 0, "type": "electric_scooter", "bike_id": "59ee78875118b33d4b43b34598dff0b8"}, {"lon": -77.02801533333333, "lat": 38.92373116666667, "name": "5edb82b51f5a7db7d492a06843fbdf78", "fusion_lat": 0.0, "fusion_lon": 0.0, "rental_uris": {"android": "https://dc.lft.to/lastmile_qr_scan", "ios": "https://dc.lft.to/lastmile_qr_scan"}, "is_reserved": 0, "is_disabled": 0, "type": "electric_scooter", "bike_id": "5edb82b51f5a7db7d492a06843fbdf78"}, {"lon": -77.03257266666667, "lat": 38.932427, "name": "4188dcdd7a9ac63ab8f4c1633b91c603", "fusion_lat": 0.0, "fusion_lon": 0.0, "rental_uris": {"android": "https://dc.lft.to/lastmile_qr_scan", "ios": "https://dc.lft.to/lastmile_qr_scan"}, "is_reserved": 0, "is_disabled": 0, "type": "electric_scooter", "bike_id": "4188dcdd7a9ac63ab8f4c1633b91c603"}, {"lon": -76.9811995, "lat": 38.896653666666666, "name": "a77193f2aa1fb4b596895f3294dd05ae", "fusion_lat": 0.0, "fusion_lon": 0.0, "rental_uris": {"android": "https://dc.lft.to/lastmile_qr_scan", "ios": "https://dc.lft.to/lastmile_qr_scan"}, "is_reserved": 0, "is_disabled": 0, "type": "electric_bike", "bike_id": "a77193f2aa1fb4b596895f3294dd05ae"}, {"lon": -77.017043, "lat": 38.91389366666667, "name": "69875c6d0ccbb8ebb65226e9b7d36253", "fusion_lat": 0.0, "fusion_lon": 0.0, "rental_uris": {"android": "https://dc.lft.to/lastmile_qr_scan", "ios": "https://dc.lft.to/lastmile_qr_scan"}, "is_reserved": 0, "is_disabled": 0, "type": "electric_scooter", "bike_id": "69875c6d0ccbb8ebb65226e9b7d36253"}, {"lon": -77.02226833333333, "lat": 38.91271066666667, "name": "f432852193bfced863927184081f3110", "fusion_lat": 0.0, "fusion_lon": 0.0, "rental_uris": {"android": "https://dc.lft.to/lastmile_qr_scan", "ios": "https://dc.lft.to/lastmile_qr_scan"}, "is_reserved": 0, "is_disabled": 0, "type": "electric_scooter", "bike_id": "f432852193bfced863927184081f3110"}, {"lon": -77.02157816666667, "lat": 38.9260765, "name": "1d75bec271eef16fcda154a530dea244", "fusion_lat": 0.0, "fusion_lon": 0.0, "rental_uris": {"android": "https://dc.lft.to/lastmile_qr_scan", "ios": "https://dc.lft.to/lastmile_qr_scan"}, "is_reserved": 0, "is_disabled": 0, "type": "electric_scooter", "bike_id": "1d75bec271eef16fcda154a530dea244"}, {"lon": -77.03287266666666, "lat": 38.93687833333333, "name": "523a0b680c125a2a29342b082c598baa", "fusion_lat": 0.0, "fusion_lon": 0.0, "rental_uris": {"android": "https://dc.lft.to/lastmile_qr_scan", "ios": "https://dc.lft.to/lastmile_qr_scan"}, "is_reserved": 0, "is_disabled": 0, "type": "electric_scooter", "bike_id": "523a0b680c125a2a29342b082c598baa"}, {"lon": -77.02204983333333, "lat": 38.887143, "name": "3b76e770f003e6521a2f250e54b76251", "fusion_lat": 0.0, "fusion_lon": 0.0, "rental_uris": {"android": "https://dc.lft.to/lastmile_qr_scan", "ios": "https://dc.lft.to/lastmile_qr_scan"}, "is_reserved": 0, "is_disabled": 0, "type": "electric_scooter", "bike_id": "3b76e770f003e6521a2f250e54b76251"}, {"lon": -77.0057805, "lat": 38.878817, "name": "3831011a040c73da0f3de1f08c839e75", "fusion_lat": 0.0, "fusion_lon": 0.0, "rental_uris": {"android": "https://dc.lft.to/lastmile_qr_scan", "ios": "https://dc.lft.to/lastmile_qr_scan"}, "is_reserved": 0, "is_disabled": 0, "type": "electric_scooter", "bike_id": "3831011a040c73da0f3de1f08c839e75"}, {"lon": -77.01744116666667, "lat": 38.884252833333335, "name": "58d00bbf269849f1900f0fdef4af63cf", "fusion_lat": 0.0, "fusion_lon": 0.0, "rental_uris": {"android": "https://dc.lft.to/lastmile_qr_scan", "ios": "https://dc.lft.to/lastmile_qr_scan"}, "is_reserved": 0, "is_disabled": 0, "type": "electric_scooter", "bike_id": "58d00bbf269849f1900f0fdef4af63cf"}, {"lon": -76.98332383333333, "lat": 38.966100833333336, "name": "37578332a1fa02972e79c2b66b4136ec", "fusion_lat": 0.0, "fusion_lon": 0.0, "rental_uris": {"android": "https://dc.lft.to/lastmile_qr_scan", "ios": "https://dc.lft.to/lastmile_qr_scan"}, "is_reserved": 0, "is_disabled": 0, "type": "electric_bike", "bike_id": "37578332a1fa02972e79c2b66b4136ec"}, {"lon": -76.965304, "lat": 38.87633433333333, "name": "93f0c466654c5052468c5bafa46d0833", "fusion_lat": 0.0, "fusion_lon": 0.0, "rental_uris": {"android": "https://dc.lft.to/lastmile_qr_scan", "ios": "https://dc.lft.to/lastmile_qr_scan"}, "is_reserved": 0, "is_disabled": 0, "type": "electric_scooter", "bike_id": "93f0c466654c5052468c5bafa46d0833"}, {"lon": -76.99604733333334, "lat": 38.90478783333333, "name": "74a66a0d00b43ce03eba9b10cf68621f", "fusion_lat": 0.0, "fusion_lon": 0.0, "rental_uris": {"android": "https://dc.lft.to/lastmile_qr_scan", "ios": "https://dc.lft.to/lastmile_qr_scan"}, "is_reserved": 0, "is_disabled": 0, "type": "electric_scooter", "bike_id": "74a66a0d00b43ce03eba9b10cf68621f"}, {"lon": -77.03327783333333, "lat": 38.89837683333333, "name": "8895c81aaff3bab040a69bfeb5eb47d3", "fusion_lat": 0.0, "fusion_lon": 0.0, "rental_uris": {"android": "https://dc.lft.to/lastmile_qr_scan", "ios": "https://dc.lft.to/lastmile_qr_scan"}, "is_reserved": 0, "is_disabled": 0, "type": "electric_scooter", "bike_id": "8895c81aaff3bab040a69bfeb5eb47d3"}, {"lon": -77.11227433333333, "lat": 38.81218783333333, "name": "ba1f7442fd3a76ab0ee87640706a00aa", "fusion_lat": 0.0, "fusion_lon": 0.0, "rental_uris": {"android": "https://dc.lft.to/lastmile_qr_scan", "ios": "https://dc.lft.to/lastmile_qr_scan"}, "is_reserved": 0, "is_disabled": 0, "type": "electric_bike", "bike_id": "ba1f7442fd3a76ab0ee87640706a00aa"}, {"lon": -76.9525185, "lat": 38.906947, "name": "d9fdc0a2b0d673c8a62370eb8b593ba2", "fusion_lat": 0.0, "fusion_lon": 0.0, "rental_uris": {"android": "https://dc.lft.to/lastmile_qr_scan", "ios": "https://dc.lft.to/lastmile_qr_scan"}, "is_reserved": 0, "is_disabled": 0, "type": "electric_bike", "bike_id": "d9fdc0a2b0d673c8a62370eb8b593ba2"}, {"lon": -77.08941733333333, "lat": 38.84109433333333, "name": "c803f11936f1f186ff278f23bdb79d2d", "fusion_lat": 0.0, "fusion_lon": 0.0, "rental_uris": {"android": "https://dc.lft.to/lastmile_qr_scan", "ios": "https://dc.lft.to/lastmile_qr_scan"}, "is_reserved": 0, "is_disabled": 0, "type": "electric_bike", "bike_id": "c803f11936f1f186ff278f23bdb79d2d"}, {"lon": -77.02003733333333, "lat": 38.902264833333334, "name": "77643782ab59573448803ebba6135bf9", "fusion_lat": 0.0, "fusion_lon": 0.0, "rental_uris": {"android": "https://dc.lft.to/lastmile_qr_scan", "ios": "https://dc.lft.to/lastmile_qr_scan"}, "is_reserved": 0, "is_disabled": 0, "type": "electric_scooter", "bike_id": "77643782ab59573448803ebba6135bf9"}, {"lon": -77.02706033333334, "lat": 38.95001766666667, "name": "b0df2f45a71d83dab6969bc0d85c1904", "fusion_lat": 0.0, "fusion_lon": 0.0, "rental_uris": {"android": "https://dc.lft.to/lastmile_qr_scan", "ios": "https://dc.lft.to/lastmile_qr_scan"}, "is_reserved": 0, "is_disabled": 0, "type": "electric_scooter", "bike_id": "b0df2f45a71d83dab6969bc0d85c1904"}, {"lon": -77.03287433333334, "lat": 38.95650916666666, "name": "0abd6e197d6c59938b3d9e56f8f53dc8", "fusion_lat": 0.0, "fusion_lon": 0.0, "rental_uris": {"android": "https://dc.lft.to/lastmile_qr_scan", "ios": "https://dc.lft.to/lastmile_qr_scan"}, "is_reserved": 0, "is_disabled": 0, "type": "electric_scooter", "bike_id": "0abd6e197d6c59938b3d9e56f8f53dc8"}, {"lon": -77.01902733333333, "lat": 38.917320333333336, "name": "49e948946d74c1a1374529daeb0c4648", "fusion_lat": 0.0, "fusion_lon": 0.0, "rental_uris": {"android": "https://dc.lft.to/lastmile_qr_scan", "ios": "https://dc.lft.to/lastmile_qr_scan"}, "is_reserved": 0, "is_disabled": 0, "type": "electric_scooter", "bike_id": "49e948946d74c1a1374529daeb0c4648"}, {"lon": -77.02797966666667, "lat": 38.90562216666667, "name": "cdc595ffdbcf5eaf279385ce9254654e", "fusion_lat": 0.0, "fusion_lon": 0.0, "rental_uris": {"android": "https://dc.lft.to/lastmile_qr_scan", "ios": "https://dc.lft.to/lastmile_qr_scan"}, "is_reserved": 0, "is_disabled": 0, "type": "electric_scooter", "bike_id": "cdc595ffdbcf5eaf279385ce9254654e"}, {"lon": -76.9905915, "lat": 38.93692866666667, "name": "af8949bdfe78eb6c37c0d24862eb5656", "fusion_lat": 0.0, "fusion_lon": 0.0, "rental_uris": {"android": "https://dc.lft.to/lastmile_qr_scan", "ios": "https://dc.lft.to/lastmile_qr_scan"}, "is_reserved": 0, "is_disabled": 0, "type": "electric_bike", "bike_id": "af8949bdfe78eb6c37c0d24862eb5656"}, {"lon": -77.040765, "lat": 38.812347833333334, "name": "0ed30407563f12d9eb34a4ae3232ae90", "fusion_lat": 0.0, "fusion_lon": 0.0, "rental_uris": {"android": "https://dc.lft.to/lastmile_qr_scan", "ios": "https://dc.lft.to/lastmile_qr_scan"}, "is_reserved": 0, "is_disabled": 0, "type": "electric_bike", "bike_id": "0ed30407563f12d9eb34a4ae3232ae90"}, {"lon": -77.03258016666666, "lat": 38.919822333333336, "name": "d8a6f02f81651d75b8909dc57231b1df", "fusion_lat": 0.0, "fusion_lon": 0.0, "rental_uris": {"android": "https://dc.lft.to/lastmile_qr_scan", "ios": "https://dc.lft.to/lastmile_qr_scan"}, "is_reserved": 0, "is_disabled": 0, "type": "electric_scooter", "bike_id": "d8a6f02f81651d75b8909dc57231b1df"}, {"lon": -77.00203216666667, "lat": 38.902434666666664, "name": "983051fde0e7921f89eb792a5ea2497b", "fusion_lat": 0.0, "fusion_lon": 0.0, "rental_uris": {"android": "https://dc.lft.to/lastmile_qr_scan", "ios": "https://dc.lft.to/lastmile_qr_scan"}, "is_reserved": 0, "is_disabled": 0, "type": "electric_scooter", "bike_id": "983051fde0e7921f89eb792a5ea2497b"}, {"lon": -77.07017583333334, "lat": 38.927711333333335, "name": "26b862afb784aae7d43956f7fde107f0", "fusion_lat": 0.0, "fusion_lon": 0.0, "rental_uris": {"android": "https://dc.lft.to/lastmile_qr_scan", "ios": "https://dc.lft.to/lastmile_qr_scan"}, "is_reserved": 0, "is_disabled": 0, "type": "electric_bike", "bike_id": "26b862afb784aae7d43956f7fde107f0"}, {"lon": -76.9319825, "lat": 38.87237283333333, "name": "e7b8dcc93031da227c772ee56960cb61", "fusion_lat": 0.0, "fusion_lon": 0.0, "rental_uris": {"android": "https://dc.lft.to/lastmile_qr_scan", "ios": "https://dc.lft.to/lastmile_qr_scan"}, "is_reserved": 0, "is_disabled": 0, "type": "electric_bike", "bike_id": "e7b8dcc93031da227c772ee56960cb61"}, {"lon": -77.03863483333333, "lat": 38.9048825, "name": "ad6da2e200f7e6c1c4bbb0a4a93b0528", "fusion_lat": 0.0, "fusion_lon": 0.0, "rental_uris": {"android": "https://dc.lft.to/lastmile_qr_scan", "ios": "https://dc.lft.to/lastmile_qr_scan"}, "is_reserved": 0, "is_disabled": 0, "type": "electric_scooter", "bike_id": "ad6da2e200f7e6c1c4bbb0a4a93b0528"}, {"lon": -77.037002, "lat": 38.916916666666665, "name": "2153008664996a33f1694aa9e9c3c62d", "fusion_lat": 0.0, "fusion_lon": 0.0, "rental_uris": {"android": "https://dc.lft.to/lastmile_qr_scan", "ios": "https://dc.lft.to/lastmile_qr_scan"}, "is_reserved": 0, "is_disabled": 0, "type": "electric_scooter", "bike_id": "2153008664996a33f1694aa9e9c3c62d"}, {"lon": -76.95238966666666, "lat": 38.886801, "name": "04999226e810fef05abfbd862f658e47", "fusion_lat": 0.0, "fusion_lon": 0.0, "rental_uris": {"android": "https://dc.lft.to/lastmile_qr_scan", "ios": "https://dc.lft.to/lastmile_qr_scan"}, "is_reserved": 0, "is_disabled": 0, "type": "electric_scooter", "bike_id": "04999226e810fef05abfbd862f658e47"}, {"lon": -77.02986766666666, "lat": 38.956284833333335, "name": "465f3ba57d6cee571bfe0e7a45f9f5f1", "fusion_lat": 0.0, "fusion_lon": 0.0, "rental_uris": {"android": "https://dc.lft.to/lastmile_qr_scan", "ios": "https://dc.lft.to/lastmile_qr_scan"}, "is_reserved": 0, "is_disabled": 0, "type": "electric_scooter", "bike_id": "465f3ba57d6cee571bfe0e7a45f9f5f1"}, {"lon": -77.02254183333334, "lat": 38.92500666666667, "name": "1f979346f9f80896a392c2fc51f62b76", "fusion_lat": 0.0, "fusion_lon": 0.0, "rental_uris": {"android": "https://dc.lft.to/lastmile_qr_scan", "ios": "https://dc.lft.to/lastmile_qr_scan"}, "is_reserved": 0, "is_disabled": 0, "type": "electric_scooter", "bike_id": "1f979346f9f80896a392c2fc51f62b76"}, {"lon": -77.02370033333334, "lat": 38.90199716666667, "name": "3af5f1533d55fa81ef4a22aff13a4171", "fusion_lat": 0.0, "fusion_lon": 0.0, "rental_uris": {"android": "https://dc.lft.to/lastmile_qr_scan", "ios": "https://dc.lft.to/lastmile_qr_scan"}, "is_reserved": 0, "is_disabled": 0, "type": "electric_scooter", "bike_id": "3af5f1533d55fa81ef4a22aff13a4171"}, {"lon": -77.03940066666667, "lat": 38.9083345, "name": "56544e276665a866004caaf4a18981cc", "fusion_lat": 0.0, "fusion_lon": 0.0, "rental_uris": {"android": "https://dc.lft.to/lastmile_qr_scan", "ios": "https://dc.lft.to/lastmile_qr_scan"}, "is_reserved": 0, "is_disabled": 0, "type": "electric_scooter", "bike_id": "56544e276665a866004caaf4a18981cc"}, {"lon": -76.94664, "lat": 38.898697, "name": "01f5d18b5d3a2dedd42559f2606e7159", "fusion_lat": 0.0, "fusion_lon": 0.0, "rental_uris": {"android": "https://dc.lft.to/lastmile_qr_scan", "ios": "https://dc.lft.to/lastmile_qr_scan"}, "is_reserved": 0, "is_disabled": 0, "type": "electric_scooter", "bike_id": "01f5d18b5d3a2dedd42559f2606e7159"}, {"lon": -77.02794083333333, "lat": 38.930795333333336, "name": "6e9dcaaadc8e5620882a73e1c5fadbfa", "fusion_lat": 0.0, "fusion_lon": 0.0, "rental_uris": {"android": "https://dc.lft.to/lastmile_qr_scan", "ios": "https://dc.lft.to/lastmile_qr_scan"}, "is_reserved": 0, "is_disabled": 0, "type": "electric_scooter", "bike_id": "6e9dcaaadc8e5620882a73e1c5fadbfa"}, {"lon": -77.022105, "lat": 38.9057465, "name": "3d5e70d4f16cf3676d0926e40f49e93e", "fusion_lat": 0.0, "fusion_lon": 0.0, "rental_uris": {"android": "https://dc.lft.to/lastmile_qr_scan", "ios": "https://dc.lft.to/lastmile_qr_scan"}, "is_reserved": 0, "is_disabled": 0, "type": "electric_scooter", "bike_id": "3d5e70d4f16cf3676d0926e40f49e93e"}, {"lon": -77.00203883333333, "lat": 38.91430116666667, "name": "9e5496b08ea9b1987dd5a58de284b6fd", "fusion_lat": 0.0, "fusion_lon": 0.0, "rental_uris": {"android": "https://dc.lft.to/lastmile_qr_scan", "ios": "https://dc.lft.to/lastmile_qr_scan"}, "is_reserved": 0, "is_disabled": 0, "type": "electric_scooter", "bike_id": "9e5496b08ea9b1987dd5a58de284b6fd"}, {"lon": -77.04738166666667, "lat": 38.91257483333333, "name": "5f224c60e3effe6d1e0ffb908b5343b8", "fusion_lat": 0.0, "fusion_lon": 0.0, "rental_uris": {"android": "https://dc.lft.to/lastmile_qr_scan", "ios": "https://dc.lft.to/lastmile_qr_scan"}, "is_reserved": 0, "is_disabled": 0, "type": "electric_scooter", "bike_id": "5f224c60e3effe6d1e0ffb908b5343b8"}, {"lon": -77.04685416666666, "lat": 38.9213595, "name": "de39fa0e86ff08bec10383686a1edbdd", "fusion_lat": 0.0, "fusion_lon": 0.0, "rental_uris": {"android": "https://dc.lft.to/lastmile_qr_scan", "ios": "https://dc.lft.to/lastmile_qr_scan"}, "is_reserved": 0, "is_disabled": 0, "type": "electric_scooter", "bike_id": "de39fa0e86ff08bec10383686a1edbdd"}, {"lon": -77.0215455, "lat": 38.90385066666666, "name": "335d2cb48d2920a9bccc1296f359f333", "fusion_lat": 0.0, "fusion_lon": 0.0, "rental_uris": {"android": "https://dc.lft.to/lastmile_qr_scan", "ios": "https://dc.lft.to/lastmile_qr_scan"}, "is_reserved": 0, "is_disabled": 0, "type": "electric_scooter", "bike_id": "335d2cb48d2920a9bccc1296f359f333"}, {"lon": -77.03516366666666, "lat": 38.92341966666667, "name": "55554401b7da5db8c80feee216e52be2", "fusion_lat": 0.0, "fusion_lon": 0.0, "rental_uris": {"android": "https://dc.lft.to/lastmile_qr_scan", "ios": "https://dc.lft.to/lastmile_qr_scan"}, "is_reserved": 0, "is_disabled": 0, "type": "electric_scooter", "bike_id": "55554401b7da5db8c80feee216e52be2"}, {"lon": -77.03263083333333, "lat": 38.918138666666664, "name": "895984509dd0ef689239dd8055b459cd", "fusion_lat": 0.0, "fusion_lon": 0.0, "rental_uris": {"android": "https://dc.lft.to/lastmile_qr_scan", "ios": "https://dc.lft.to/lastmile_qr_scan"}, "is_reserved": 0, "is_disabled": 0, "type": "electric_scooter", "bike_id": "895984509dd0ef689239dd8055b459cd"}, {"lon": -77.0483535, "lat": 38.91852133333333, "name": "a0d9f87ffe17efdac1a8b03fd0a770c6", "fusion_lat": 0.0, "fusion_lon": 0.0, "rental_uris": {"android": "https://dc.lft.to/lastmile_qr_scan", "ios": "https://dc.lft.to/lastmile_qr_scan"}, "is_reserved": 0, "is_disabled": 0, "type": "electric_scooter", "bike_id": "a0d9f87ffe17efdac1a8b03fd0a770c6"}, {"lon": -77.02152216666667, "lat": 38.9144535, "name": "52a043eb573ffc79cae5cad434ea861b", "fusion_lat": 0.0, "fusion_lon": 0.0, "rental_uris": {"android": "https://dc.lft.to/lastmile_qr_scan", "ios": "https://dc.lft.to/lastmile_qr_scan"}, "is_reserved": 0, "is_disabled": 0, "type": "electric_scooter", "bike_id": "52a043eb573ffc79cae5cad434ea861b"}, {"lon": -76.9317505, "lat": 38.8988375, "name": "b6c0c5bbbf5407cdac70199b78a2be9d", "fusion_lat": 0.0, "fusion_lon": 0.0, "rental_uris": {"android": "https://dc.lft.to/lastmile_qr_scan", "ios": "https://dc.lft.to/lastmile_qr_scan"}, "is_reserved": 0, "is_disabled": 0, "type": "electric_scooter", "bike_id": "b6c0c5bbbf5407cdac70199b78a2be9d"}, {"lon": -76.99461, "lat": 38.85162833333333, "name": "169b3e5406411f0c72c0ee5bfaa9735a", "fusion_lat": 0.0, "fusion_lon": 0.0, "rental_uris": {"android": "https://dc.lft.to/lastmile_qr_scan", "ios": "https://dc.lft.to/lastmile_qr_scan"}, "is_reserved": 0, "is_disabled": 0, "type": "electric_scooter", "bike_id": "169b3e5406411f0c72c0ee5bfaa9735a"}, {"lon": -76.98171516666666, "lat": 38.959585, "name": "4792d89b430f59c16a8112d0b611ee07", "fusion_lat": 0.0, "fusion_lon": 0.0, "rental_uris": {"android": "https://dc.lft.to/lastmile_qr_scan", "ios": "https://dc.lft.to/lastmile_qr_scan"}, "is_reserved": 0, "is_disabled": 0, "type": "electric_bike", "bike_id": "4792d89b430f59c16a8112d0b611ee07"}, {"lon": -77.080454, "lat": 38.8485185, "name": "fe57360bd80212efc77b0c71ffc06e43", "fusion_lat": 0.0, "fusion_lon": 0.0, "rental_uris": {"android": "https://dc.lft.to/lastmile_qr_scan", "ios": "https://dc.lft.to/lastmile_qr_scan"}, "is_reserved": 0, "is_disabled": 0, "type": "electric_bike", "bike_id": "fe57360bd80212efc77b0c71ffc06e43"}, {"lon": -77.011132, "lat": 38.87084466666667, "name": "1faa400c8100ba72e760207571881d99", "fusion_lat": 0.0, "fusion_lon": 0.0, "rental_uris": {"android": "https://dc.lft.to/lastmile_qr_scan", "ios": "https://dc.lft.to/lastmile_qr_scan"}, "is_reserved": 0, "is_disabled": 0, "type": "electric_scooter", "bike_id": "1faa400c8100ba72e760207571881d99"}, {"lon": -76.95678033333333, "lat": 38.947306, "name": "3cb8e7a00682ca1bb192034c2f520d2b", "fusion_lat": 0.0, "fusion_lon": 0.0, "rental_uris": {"android": "https://dc.lft.to/lastmile_qr_scan", "ios": "https://dc.lft.to/lastmile_qr_scan"}, "is_reserved": 0, "is_disabled": 0, "type": "electric_bike", "bike_id": "3cb8e7a00682ca1bb192034c2f520d2b"}, {"lon": -76.95107066666667, "lat": 38.887933333333336, "name": "098751b27a996c1c938da9fb37dc919d", "fusion_lat": 0.0, "fusion_lon": 0.0, "rental_uris": {"android": "https://dc.lft.to/lastmile_qr_scan", "ios": "https://dc.lft.to/lastmile_qr_scan"}, "is_reserved": 0, "is_disabled": 0, "type": "electric_scooter", "bike_id": "098751b27a996c1c938da9fb37dc919d"}, {"lon": -76.985398, "lat": 38.909581, "name": "c9dbc4980c8b5620d5a653d3d69e7f78", "fusion_lat": 0.0, "fusion_lon": 0.0, "rental_uris": {"android": "https://dc.lft.to/lastmile_qr_scan", "ios": "https://dc.lft.to/lastmile_qr_scan"}, "is_reserved": 0, "is_disabled": 0, "type": "electric_scooter", "bike_id": "c9dbc4980c8b5620d5a653d3d69e7f78"}, {"lon": -77.00199683333334, "lat": 38.9024535, "name": "21fed7080d27acc62047e8d21b4f219d", "fusion_lat": 0.0, "fusion_lon": 0.0, "rental_uris": {"android": "https://dc.lft.to/lastmile_qr_scan", "ios": "https://dc.lft.to/lastmile_qr_scan"}, "is_reserved": 0, "is_disabled": 0, "type": "electric_scooter", "bike_id": "21fed7080d27acc62047e8d21b4f219d"}, {"lon": -77.01657333333333, "lat": 38.915988, "name": "f027c010d5e49331ae262f66c27d7a5e", "fusion_lat": 0.0, "fusion_lon": 0.0, "rental_uris": {"android": "https://dc.lft.to/lastmile_qr_scan", "ios": "https://dc.lft.to/lastmile_qr_scan"}, "is_reserved": 0, "is_disabled": 0, "type": "electric_scooter", "bike_id": "f027c010d5e49331ae262f66c27d7a5e"}, {"lon": -77.02975783333333, "lat": 38.90511466666667, "name": "8a210301b3e4990291d607aed3d7c5d4", "fusion_lat": 0.0, "fusion_lon": 0.0, "rental_uris": {"android": "https://dc.lft.to/lastmile_qr_scan", "ios": "https://dc.lft.to/lastmile_qr_scan"}, "is_reserved": 0, "is_disabled": 0, "type": "electric_scooter", "bike_id": "8a210301b3e4990291d607aed3d7c5d4"}, {"lon": -77.04292166666667, "lat": 38.90719333333333, "name": "12cc20b8a1e85f368284c21d19466628", "fusion_lat": 0.0, "fusion_lon": 0.0, "rental_uris": {"android": "https://dc.lft.to/lastmile_qr_scan", "ios": "https://dc.lft.to/lastmile_qr_scan"}, "is_reserved": 0, "is_disabled": 0, "type": "electric_scooter", "bike_id": "12cc20b8a1e85f368284c21d19466628"}, {"lon": -76.97744416666667, "lat": 38.900089, "name": "eaff874595f17b18a2553b0acc627df7", "fusion_lat": 0.0, "fusion_lon": 0.0, "rental_uris": {"android": "https://dc.lft.to/lastmile_qr_scan", "ios": "https://dc.lft.to/lastmile_qr_scan"}, "is_reserved": 0, "is_disabled": 0, "type": "electric_scooter", "bike_id": "eaff874595f17b18a2553b0acc627df7"}, {"lon": -77.10692233333333, "lat": 38.855508666666665, "name": "f08dbbb98c5cc015e3065f7208919a1c", "fusion_lat": 0.0, "fusion_lon": 0.0, "rental_uris": {"android": "https://dc.lft.to/lastmile_qr_scan", "ios": "https://dc.lft.to/lastmile_qr_scan"}, "is_reserved": 0, "is_disabled": 0, "type": "electric_bike", "bike_id": "f08dbbb98c5cc015e3065f7208919a1c"}, {"lon": -76.98233916666666, "lat": 38.92517216666667, "name": "801c8e640df526c59feefa4794dbe20b", "fusion_lat": 0.0, "fusion_lon": 0.0, "rental_uris": {"android": "https://dc.lft.to/lastmile_qr_scan", "ios": "https://dc.lft.to/lastmile_qr_scan"}, "is_reserved": 0, "is_disabled": 0, "type": "electric_bike", "bike_id": "801c8e640df526c59feefa4794dbe20b"}, {"lon": -77.0201665, "lat": 38.89958416666666, "name": "ab8946a4e3c8ad589555ef48d45e211b", "fusion_lat": 0.0, "fusion_lon": 0.0, "rental_uris": {"android": "https://dc.lft.to/lastmile_qr_scan", "ios": "https://dc.lft.to/lastmile_qr_scan"}, "is_reserved": 0, "is_disabled": 0, "type": "electric_scooter", "bike_id": "ab8946a4e3c8ad589555ef48d45e211b"}, {"lon": -77.03794933333333, "lat": 38.926399, "name": "caf85113a277bc149ba22db548e19e12", "fusion_lat": 0.0, "fusion_lon": 0.0, "rental_uris": {"android": "https://dc.lft.to/lastmile_qr_scan", "ios": "https://dc.lft.to/lastmile_qr_scan"}, "is_reserved": 0, "is_disabled": 0, "type": "electric_scooter", "bike_id": "caf85113a277bc149ba22db548e19e12"}, {"lon": -76.9487435, "lat": 38.889628333333334, "name": "e22eb5c94966f92b340613d443484e03", "fusion_lat": 0.0, "fusion_lon": 0.0, "rental_uris": {"android": "https://dc.lft.to/lastmile_qr_scan", "ios": "https://dc.lft.to/lastmile_qr_scan"}, "is_reserved": 0, "is_disabled": 0, "type": "electric_bike", "bike_id": "e22eb5c94966f92b340613d443484e03"}, {"lon": -76.878256, "lat": 38.992364, "name": "78ab40cebf18fd580e9d4aeb506e9f26", "fusion_lat": 0.0, "fusion_lon": 0.0, "rental_uris": {"android": "https://dc.lft.to/lastmile_qr_scan", "ios": "https://dc.lft.to/lastmile_qr_scan"}, "is_reserved": 0, "is_disabled": 0, "type": "electric_bike", "bike_id": "78ab40cebf18fd580e9d4aeb506e9f26"}, {"lon": -77.0552395, "lat": 38.89935883333333, "name": "82655a49c452096ce2ac34ddb11a9da7", "fusion_lat": 0.0, "fusion_lon": 0.0, "rental_uris": {"android": "https://dc.lft.to/lastmile_qr_scan", "ios": "https://dc.lft.to/lastmile_qr_scan"}, "is_reserved": 0, "is_disabled": 0, "type": "electric_scooter", "bike_id": "82655a49c452096ce2ac34ddb11a9da7"}, {"lon": -76.981778, "lat": 38.90043716666667, "name": "2263e0b5cc49d208a7da8544e17b1f4a", "fusion_lat": 0.0, "fusion_lon": 0.0, "rental_uris": {"android": "https://dc.lft.to/lastmile_qr_scan", "ios": "https://dc.lft.to/lastmile_qr_scan"}, "is_reserved": 0, "is_disabled": 0, "type": "electric_scooter", "bike_id": "2263e0b5cc49d208a7da8544e17b1f4a"}, {"lon": -76.987807, "lat": 38.90032333333333, "name": "a0d44fbc42388a98d75096fe5b0cc108", "fusion_lat": 0.0, "fusion_lon": 0.0, "rental_uris": {"android": "https://dc.lft.to/lastmile_qr_scan", "ios": "https://dc.lft.to/lastmile_qr_scan"}, "is_reserved": 0, "is_disabled": 0, "type": "electric_scooter", "bike_id": "a0d44fbc42388a98d75096fe5b0cc108"}, {"lon": -77.00373533333334, "lat": 38.83612733333333, "name": "bca79579c4ca58e7fa2bfa17c4b024c5", "fusion_lat": 0.0, "fusion_lon": 0.0, "rental_uris": {"android": "https://dc.lft.to/lastmile_qr_scan", "ios": "https://dc.lft.to/lastmile_qr_scan"}, "is_reserved": 0, "is_disabled": 0, "type": "electric_bike", "bike_id": "bca79579c4ca58e7fa2bfa17c4b024c5"}, {"lon": -77.03512816666667, "lat": 38.975872333333335, "name": "f743f4feb9fb0d3bd58768165f0bcaf8", "fusion_lat": 0.0, "fusion_lon": 0.0, "rental_uris": {"android": "https://dc.lft.to/lastmile_qr_scan", "ios": "https://dc.lft.to/lastmile_qr_scan"}, "is_reserved": 0, "is_disabled": 0, "type": "electric_bike", "bike_id": "f743f4feb9fb0d3bd58768165f0bcaf8"}, {"lon": -77.01766016666667, "lat": 38.9025515, "name": "0a15a71848c8d470c950fd18de5ee8fd", "fusion_lat": 0.0, "fusion_lon": 0.0, "rental_uris": {"android": "https://dc.lft.to/lastmile_qr_scan", "ios": "https://dc.lft.to/lastmile_qr_scan"}, "is_reserved": 0, "is_disabled": 0, "type": "electric_scooter", "bike_id": "0a15a71848c8d470c950fd18de5ee8fd"}, {"lon": -76.99777683333333, "lat": 38.8442595, "name": "caccfb3ca4f731734be2ad74f3881903", "fusion_lat": 0.0, "fusion_lon": 0.0, "rental_uris": {"android": "https://dc.lft.to/lastmile_qr_scan", "ios": "https://dc.lft.to/lastmile_qr_scan"}, "is_reserved": 0, "is_disabled": 0, "type": "electric_scooter", "bike_id": "caccfb3ca4f731734be2ad74f3881903"}, {"lon": -77.09546666666667, "lat": 38.837311666666665, "name": "5e916564e02de42bc18bf235d2822371", "fusion_lat": 0.0, "fusion_lon": 0.0, "rental_uris": {"android": "https://dc.lft.to/lastmile_qr_scan", "ios": "https://dc.lft.to/lastmile_qr_scan"}, "is_reserved": 0, "is_disabled": 0, "type": "electric_bike", "bike_id": "5e916564e02de42bc18bf235d2822371"}, {"lon": -77.0365775, "lat": 38.91239933333333, "name": "f542ec96b5b16bfe0c9b50984b51ec91", "fusion_lat": 0.0, "fusion_lon": 0.0, "rental_uris": {"android": "https://dc.lft.to/lastmile_qr_scan", "ios": "https://dc.lft.to/lastmile_qr_scan"}, "is_reserved": 0, "is_disabled": 0, "type": "electric_scooter", "bike_id": "f542ec96b5b16bfe0c9b50984b51ec91"}, {"lon": -77.0429035, "lat": 38.907293833333334, "name": "ba4385d12282dabb457359950c2a661c", "fusion_lat": 0.0, "fusion_lon": 0.0, "rental_uris": {"android": "https://dc.lft.to/lastmile_qr_scan", "ios": "https://dc.lft.to/lastmile_qr_scan"}, "is_reserved": 0, "is_disabled": 0, "type": "electric_scooter", "bike_id": "ba4385d12282dabb457359950c2a661c"}, {"lon": -77.01160816666666, "lat": 38.89344633333333, "name": "a6db61c420fac133bbb9b2c092a2652f", "fusion_lat": 0.0, "fusion_lon": 0.0, "rental_uris": {"android": "https://dc.lft.to/lastmile_qr_scan", "ios": "https://dc.lft.to/lastmile_qr_scan"}, "is_reserved": 0, "is_disabled": 0, "type": "electric_scooter", "bike_id": "a6db61c420fac133bbb9b2c092a2652f"}, {"lon": -76.94949016666666, "lat": 38.883238166666665, "name": "326ff9fc4d7309cf2e6b046d583be71b", "fusion_lat": 0.0, "fusion_lon": 0.0, "rental_uris": {"android": "https://dc.lft.to/lastmile_qr_scan", "ios": "https://dc.lft.to/lastmile_qr_scan"}, "is_reserved": 0, "is_disabled": 0, "type": "electric_scooter", "bike_id": "326ff9fc4d7309cf2e6b046d583be71b"}, {"lon": -77.10899033333334, "lat": 38.83044683333333, "name": "7fabbd0b254b61a7bf4ad5712fb5ff66", "fusion_lat": 0.0, "fusion_lon": 0.0, "rental_uris": {"android": "https://dc.lft.to/lastmile_qr_scan", "ios": "https://dc.lft.to/lastmile_qr_scan"}, "is_reserved": 0, "is_disabled": 0, "type": "electric_bike", "bike_id": "7fabbd0b254b61a7bf4ad5712fb5ff66"}, {"lon": -76.95032466666666, "lat": 38.891851833333334, "name": "2cf607d1401fe3f749e106dfbedcde90", "fusion_lat": 0.0, "fusion_lon": 0.0, "rental_uris": {"android": "https://dc.lft.to/lastmile_qr_scan", "ios": "https://dc.lft.to/lastmile_qr_scan"}, "is_reserved": 0, "is_disabled": 0, "type": "electric_bike", "bike_id": "2cf607d1401fe3f749e106dfbedcde90"}, {"lon": -77.03446233333334, "lat": 38.9027695, "name": "65292f4d87a8e755658508d6abcc7243", "fusion_lat": 0.0, "fusion_lon": 0.0, "rental_uris": {"android": "https://dc.lft.to/lastmile_qr_scan", "ios": "https://dc.lft.to/lastmile_qr_scan"}, "is_reserved": 0, "is_disabled": 0, "type": "electric_scooter", "bike_id": "65292f4d87a8e755658508d6abcc7243"}, {"lon": -77.02934133333333, "lat": 38.90508066666666, "name": "e97ade77b4d7b7a970ccd80add97d7c3", "fusion_lat": 0.0, "fusion_lon": 0.0, "rental_uris": {"android": "https://dc.lft.to/lastmile_qr_scan", "ios": "https://dc.lft.to/lastmile_qr_scan"}, "is_reserved": 0, "is_disabled": 0, "type": "electric_scooter", "bike_id": "e97ade77b4d7b7a970ccd80add97d7c3"}, {"lon": -76.9732675, "lat": 38.904863666666664, "name": "1768632310965978761f3271e9a6f8db", "fusion_lat": 0.0, "fusion_lon": 0.0, "rental_uris": {"android": "https://dc.lft.to/lastmile_qr_scan", "ios": "https://dc.lft.to/lastmile_qr_scan"}, "is_reserved": 0, "is_disabled": 0, "type": "electric_scooter", "bike_id": "1768632310965978761f3271e9a6f8db"}, {"lon": -77.0221175, "lat": 38.905763666666665, "name": "e5bca368581dfbd0ea12372ece807466", "fusion_lat": 0.0, "fusion_lon": 0.0, "rental_uris": {"android": "https://dc.lft.to/lastmile_qr_scan", "ios": "https://dc.lft.to/lastmile_qr_scan"}, "is_reserved": 0, "is_disabled": 0, "type": "electric_scooter", "bike_id": "e5bca368581dfbd0ea12372ece807466"}, {"lon": -77.024312, "lat": 38.926113666666666, "name": "c4e96a23c274d57415d8a01a3073012c", "fusion_lat": 0.0, "fusion_lon": 0.0, "rental_uris": {"android": "https://dc.lft.to/lastmile_qr_scan", "ios": "https://dc.lft.to/lastmile_qr_scan"}, "is_reserved": 0, "is_disabled": 0, "type": "electric_bike", "bike_id": "c4e96a23c274d57415d8a01a3073012c"}, {"lon": -77.01104733333334, "lat": 38.96308766666667, "name": "11dcbb1f9ffd451f00c3fdb4b67ce376", "fusion_lat": 0.0, "fusion_lon": 0.0, "rental_uris": {"android": "https://dc.lft.to/lastmile_qr_scan", "ios": "https://dc.lft.to/lastmile_qr_scan"}, "is_reserved": 0, "is_disabled": 0, "type": "electric_bike", "bike_id": "11dcbb1f9ffd451f00c3fdb4b67ce376"}, {"lon": -77.00134983333334, "lat": 38.904173166666666, "name": "66c2c181a2c3e9234c0030fbed621031", "fusion_lat": 0.0, "fusion_lon": 0.0, "rental_uris": {"android": "https://dc.lft.to/lastmile_qr_scan", "ios": "https://dc.lft.to/lastmile_qr_scan"}, "is_reserved": 0, "is_disabled": 0, "type": "electric_scooter", "bike_id": "66c2c181a2c3e9234c0030fbed621031"}, {"lon": -77.03854283333334, "lat": 38.91545883333333, "name": "e2c1292af7f004b29d2e1ac5b1b59f94", "fusion_lat": 0.0, "fusion_lon": 0.0, "rental_uris": {"android": "https://dc.lft.to/lastmile_qr_scan", "ios": "https://dc.lft.to/lastmile_qr_scan"}, "is_reserved": 0, "is_disabled": 0, "type": "electric_scooter", "bike_id": "e2c1292af7f004b29d2e1ac5b1b59f94"}, {"lon": -77.02952466666666, "lat": 38.906617833333335, "name": "151a9ca2018858f65be0acf2e6201c5d", "fusion_lat": 0.0, "fusion_lon": 0.0, "rental_uris": {"android": "https://dc.lft.to/lastmile_qr_scan", "ios": "https://dc.lft.to/lastmile_qr_scan"}, "is_reserved": 0, "is_disabled": 0, "type": "electric_scooter", "bike_id": "151a9ca2018858f65be0acf2e6201c5d"}, {"lon": -77.00754433333333, "lat": 38.8712415, "name": "47d012e7eec5e04f21183eb60ec16138", "fusion_lat": 0.0, "fusion_lon": 0.0, "rental_uris": {"android": "https://dc.lft.to/lastmile_qr_scan", "ios": "https://dc.lft.to/lastmile_qr_scan"}, "is_reserved": 0, "is_disabled": 0, "type": "electric_scooter", "bike_id": "47d012e7eec5e04f21183eb60ec16138"}, {"lon": -77.0542805, "lat": 38.923239333333335, "name": "acd6cd45029fed80a5e598517ebe2cc3", "fusion_lat": 0.0, "fusion_lon": 0.0, "rental_uris": {"android": "https://dc.lft.to/lastmile_qr_scan", "ios": "https://dc.lft.to/lastmile_qr_scan"}, "is_reserved": 0, "is_disabled": 0, "type": "electric_scooter", "bike_id": "acd6cd45029fed80a5e598517ebe2cc3"}, {"lon": -77.0091115, "lat": 38.896184166666664, "name": "0d5cddd5f1ef9ef7dbaaa167f1700446", "fusion_lat": 0.0, "fusion_lon": 0.0, "rental_uris": {"android": "https://dc.lft.to/lastmile_qr_scan", "ios": "https://dc.lft.to/lastmile_qr_scan"}, "is_reserved": 0, "is_disabled": 0, "type": "electric_scooter", "bike_id": "0d5cddd5f1ef9ef7dbaaa167f1700446"}, {"lon": -77.027265, "lat": 38.951367833333336, "name": "989254624982cb2d6708a0fba31ce06f", "fusion_lat": 0.0, "fusion_lon": 0.0, "rental_uris": {"android": "https://dc.lft.to/lastmile_qr_scan", "ios": "https://dc.lft.to/lastmile_qr_scan"}, "is_reserved": 0, "is_disabled": 0, "type": "electric_scooter", "bike_id": "989254624982cb2d6708a0fba31ce06f"}, {"lon": -77.35307783333333, "lat": 38.950094666666665, "name": "96372290c889c62f599264deb2154fe1", "fusion_lat": 0.0, "fusion_lon": 0.0, "rental_uris": {"android": "https://dc.lft.to/lastmile_qr_scan", "ios": "https://dc.lft.to/lastmile_qr_scan"}, "is_reserved": 0, "is_disabled": 0, "type": "electric_bike", "bike_id": "96372290c889c62f599264deb2154fe1"}, {"lon": -77.0345195, "lat": 38.9029425, "name": "67701a1615807d4aecd798fcc0861b5a", "fusion_lat": 0.0, "fusion_lon": 0.0, "rental_uris": {"android": "https://dc.lft.to/lastmile_qr_scan", "ios": "https://dc.lft.to/lastmile_qr_scan"}, "is_reserved": 0, "is_disabled": 0, "type": "electric_scooter", "bike_id": "67701a1615807d4aecd798fcc0861b5a"}, {"lon": -77.008365, "lat": 38.913728166666665, "name": "9186a5041c1a4344bb1ae254046271bf", "fusion_lat": 0.0, "fusion_lon": 0.0, "rental_uris": {"android": "https://dc.lft.to/lastmile_qr_scan", "ios": "https://dc.lft.to/lastmile_qr_scan"}, "is_reserved": 0, "is_disabled": 0, "type": "electric_scooter", "bike_id": "9186a5041c1a4344bb1ae254046271bf"}, {"lon": -77.03747316666667, "lat": 38.92212883333333, "name": "b65b1550fb2609b618e9842ea6213f56", "fusion_lat": 0.0, "fusion_lon": 0.0, "rental_uris": {"android": "https://dc.lft.to/lastmile_qr_scan", "ios": "https://dc.lft.to/lastmile_qr_scan"}, "is_reserved": 0, "is_disabled": 0, "type": "electric_scooter", "bike_id": "b65b1550fb2609b618e9842ea6213f56"}, {"lon": -77.04473766666666, "lat": 38.900171, "name": "42b82e0d75ad6d0a577fc20da59ac7cc", "fusion_lat": 0.0, "fusion_lon": 0.0, "rental_uris": {"android": "https://dc.lft.to/lastmile_qr_scan", "ios": "https://dc.lft.to/lastmile_qr_scan"}, "is_reserved": 0, "is_disabled": 0, "type": "electric_scooter", "bike_id": "42b82e0d75ad6d0a577fc20da59ac7cc"}, {"lon": -77.05934533333334, "lat": 38.936660333333336, "name": "c84b19d794d10dee3e5dba276a961cef", "fusion_lat": 0.0, "fusion_lon": 0.0, "rental_uris": {"android": "https://dc.lft.to/lastmile_qr_scan", "ios": "https://dc.lft.to/lastmile_qr_scan"}, "is_reserved": 0, "is_disabled": 0, "type": "electric_scooter", "bike_id": "c84b19d794d10dee3e5dba276a961cef"}, {"lon": -77.02830083333333, "lat": 38.88749716666667, "name": "08c18d4f7668f24dbce1c879bd072d27", "fusion_lat": 0.0, "fusion_lon": 0.0, "rental_uris": {"android": "https://dc.lft.to/lastmile_qr_scan", "ios": "https://dc.lft.to/lastmile_qr_scan"}, "is_reserved": 0, "is_disabled": 0, "type": "electric_scooter", "bike_id": "08c18d4f7668f24dbce1c879bd072d27"}, {"lon": -77.0349895, "lat": 38.93756466666667, "name": "b746572047eca7fc7fcaa8ae8b5c8f7d", "fusion_lat": 0.0, "fusion_lon": 0.0, "rental_uris": {"android": "https://dc.lft.to/lastmile_qr_scan", "ios": "https://dc.lft.to/lastmile_qr_scan"}, "is_reserved": 0, "is_disabled": 0, "type": "electric_scooter", "bike_id": "b746572047eca7fc7fcaa8ae8b5c8f7d"}, {"lon": -77.03328766666667, "lat": 38.898455166666665, "name": "256d6eb11a0e1eca85e63ca6161224d5", "fusion_lat": 0.0, "fusion_lon": 0.0, "rental_uris": {"android": "https://dc.lft.to/lastmile_qr_scan", "ios": "https://dc.lft.to/lastmile_qr_scan"}, "is_reserved": 0, "is_disabled": 0, "type": "electric_scooter", "bike_id": "256d6eb11a0e1eca85e63ca6161224d5"}, {"lon": -77.03213816666667, "lat": 38.89253766666667, "name": "4d2261fa4c9aac315a182820d878cabf", "fusion_lat": 0.0, "fusion_lon": 0.0, "rental_uris": {"android": "https://dc.lft.to/lastmile_qr_scan", "ios": "https://dc.lft.to/lastmile_qr_scan"}, "is_reserved": 0, "is_disabled": 0, "type": "electric_scooter", "bike_id": "4d2261fa4c9aac315a182820d878cabf"}, {"lon": -77.045408, "lat": 38.8947965, "name": "ad1309ca1a794914cd1cc10f8d887f36", "fusion_lat": 0.0, "fusion_lon": 0.0, "rental_uris": {"android": "https://dc.lft.to/lastmile_qr_scan", "ios": "https://dc.lft.to/lastmile_qr_scan"}, "is_reserved": 0, "is_disabled": 0, "type": "electric_scooter", "bike_id": "ad1309ca1a794914cd1cc10f8d887f36"}, {"lon": -76.94783016666666, "lat": 38.896457166666664, "name": "e6d05fc00b529304abf41f8b747dd6af", "fusion_lat": 0.0, "fusion_lon": 0.0, "rental_uris": {"android": "https://dc.lft.to/lastmile_qr_scan", "ios": "https://dc.lft.to/lastmile_qr_scan"}, "is_reserved": 0, "is_disabled": 0, "type": "electric_bike", "bike_id": "e6d05fc00b529304abf41f8b747dd6af"}, {"lon": -76.9908295, "lat": 38.842901, "name": "227e71561e931c880e70ada899d29d29", "fusion_lat": 0.0, "fusion_lon": 0.0, "rental_uris": {"android": "https://dc.lft.to/lastmile_qr_scan", "ios": "https://dc.lft.to/lastmile_qr_scan"}, "is_reserved": 0, "is_disabled": 0, "type": "electric_scooter", "bike_id": "227e71561e931c880e70ada899d29d29"}, {"lon": -77.02988016666667, "lat": 38.916804666666664, "name": "8ec170955b76923393e936d06542b1e4", "fusion_lat": 0.0, "fusion_lon": 0.0, "rental_uris": {"android": "https://dc.lft.to/lastmile_qr_scan", "ios": "https://dc.lft.to/lastmile_qr_scan"}, "is_reserved": 0, "is_disabled": 0, "type": "electric_scooter", "bike_id": "8ec170955b76923393e936d06542b1e4"}, {"lon": -76.9702285, "lat": 38.920345833333336, "name": "3cb28c9e5f6926c1ab76b8a9afb51e79", "fusion_lat": 0.0, "fusion_lon": 0.0, "rental_uris": {"android": "https://dc.lft.to/lastmile_qr_scan", "ios": "https://dc.lft.to/lastmile_qr_scan"}, "is_reserved": 0, "is_disabled": 0, "type": "electric_scooter", "bike_id": "3cb28c9e5f6926c1ab76b8a9afb51e79"}, {"lon": -76.99949883333333, "lat": 38.9086055, "name": "49e91df223fb7cbbce4bca73c909fda9", "fusion_lat": 0.0, "fusion_lon": 0.0, "rental_uris": {"android": "https://dc.lft.to/lastmile_qr_scan", "ios": "https://dc.lft.to/lastmile_qr_scan"}, "is_reserved": 0, "is_disabled": 0, "type": "electric_scooter", "bike_id": "49e91df223fb7cbbce4bca73c909fda9"}, {"lon": -76.986968, "lat": 38.90703366666666, "name": "3519cafe63880f19211e1757db601bd2", "fusion_lat": 0.0, "fusion_lon": 0.0, "rental_uris": {"android": "https://dc.lft.to/lastmile_qr_scan", "ios": "https://dc.lft.to/lastmile_qr_scan"}, "is_reserved": 0, "is_disabled": 0, "type": "electric_scooter", "bike_id": "3519cafe63880f19211e1757db601bd2"}, {"lon": -77.018958, "lat": 38.93919533333333, "name": "867acd262967b6f3d891a6af1b5f7cc8", "fusion_lat": 0.0, "fusion_lon": 0.0, "rental_uris": {"android": "https://dc.lft.to/lastmile_qr_scan", "ios": "https://dc.lft.to/lastmile_qr_scan"}, "is_reserved": 0, "is_disabled": 0, "type": "electric_scooter", "bike_id": "867acd262967b6f3d891a6af1b5f7cc8"}, {"lon": -76.98610983333333, "lat": 38.92577933333333, "name": "e564294198c255a56df10f01b077f4fa", "fusion_lat": 0.0, "fusion_lon": 0.0, "rental_uris": {"android": "https://dc.lft.to/lastmile_qr_scan", "ios": "https://dc.lft.to/lastmile_qr_scan"}, "is_reserved": 0, "is_disabled": 0, "type": "electric_bike", "bike_id": "e564294198c255a56df10f01b077f4fa"},