{"data": {"bikes": [{"rental_uris": {"ios": "https://dc.lft.to/lastmile_qr_scan", "android": "https://dc.lft.to/lastmile_qr_scan"}, "fusion_lon": 0.0, "type": "electric_scooter", "is_reserved": 0, "lon": -77.04947866666667, "is_disabled": 0, "fusion_lat": 0.0, "bike_id": "dc7379298481f1708c7fad0336e640f8", "name": "dc7379298481f1708c7fad0336e640f8", "lat": 38.89737683333333}, {"rental_uris": {"ios": "https://dc.lft.to/lastmile_qr_scan", "android": "https://dc.lft.to/lastmile_qr_scan"}, "fusion_lon": 0.0, "type": "electric_scooter", "is_reserved": 0, "lon": -77.04788483333333, "is_disabled": 0, "fusion_lat": 0.0, "bike_id": "8b04917412fa3c2fc4ec0d2ba9f0e947", "name": "8b04917412fa3c2fc4ec0d2ba9f0e947", "lat": 38.919479}, {"rental_uris": {"ios": "https://dc.lft.to/lastmile_qr_scan", "android": "https://dc.lft.to/lastmile_qr_scan"}, "fusion_lon": 0.0, "type": "electric_scooter", "is_reserved": 0, "lon": -77.040487, "is_disabled": 0, "fusion_lat": 0.0, "bike_id": "19a1f33047fcca671d6d2903be9fb01d", "name": "19a1f33047fcca671d6d2903be9fb01d", "lat": 38.92422883333333}, {"rental_uris": {"ios": "https://dc.lft.to/lastmile_qr_scan", "android": "https://dc.lft.to/lastmile_qr_scan"}, "fusion_lon": 0.0, "type": "electric_scooter", "is_reserved": 0, "lon": -77.00095583333334, "is_disabled": 0, "fusion_lat": 0.0, "bike_id": "7f6724e0128e2bae069ae0958d562085", "name": "7f6724e0128e2bae069ae0958d562085", "lat": 38.907333666666666}, {"rental_uris": {"ios": "https://dc.lft.to/lastmile_qr_scan", "android": "https://dc.lft.to/lastmile_qr_scan"}, "fusion_lon": 0.0, "type": "electric_scooter", "is_reserved": 0, "lon": -77.01276266666666, "is_disabled": 0, "fusion_lat": 0.0, "bike_id": "4765cb80b576f1f2a84b8803f6285f41", "name": "4765cb80b576f1f2a84b8803f6285f41", "lat": 38.90951183333333}, {"rental_uris": {"ios": "https://dc.lft.to/lastmile_qr_scan", "android": "https://dc.lft.to/lastmile_qr_scan"}, "fusion_lon": 0.0, "type": "electric_scooter", "is_reserved": 0, "lon": -77.0017745, "is_disabled": 0, "fusion_lat": 0.0, "bike_id": "ac1bb480aff795b3b72de665ef5b6b5f", "name": "ac1bb480aff795b3b72de665ef5b6b5f", "lat": 38.888636}, {"rental_uris": {"ios": "https://dc.lft.to/lastmile_qr_scan", "android": "https://dc.lft.to/lastmile_qr_scan"}, "fusion_lon": 0.0, "type": "electric_scooter", "is_reserved": 0, "lon": -77.066124, "is_disabled": 0, "fusion_lat": 0.0, "bike_id": "e5f8b962648bc205d7bd2feba4527fc0", "name": "e5f8b962648bc205d7bd2feba4527fc0", "lat": 38.905876}, {"rental_uris": {"ios": "https://dc.lft.to/lastmile_qr_scan", "android": "https://dc.lft.to/lastmile_qr_scan"}, "fusion_lon": 0.0, "type": "electric_scooter", "is_reserved": 0, "lon": -77.0236145, "is_disabled": 0, "fusion_lat": 0.0, "bike_id": "6d99d9480d09107bf3778b8ccdc646fa", "name": "6d99d9480d09107bf3778b8ccdc646fa", "lat": 38.9195955}, {"rental_uris": {"ios": "https://dc.lft.to/lastmile_qr_scan", "android": "https://dc.lft.to/lastmile_qr_scan"}, "fusion_lon": 0.0, "type": "electric_scooter", "is_reserved": 0, "lon": -77.04572583333334, "is_disabled": 0, "fusion_lat": 0.0, "bike_id": "400c95ea9f77b216245830eeb5070768", "name": "400c95ea9f77b216245830eeb5070768", "lat": 38.9072355}, {"rental_uris": {"ios": "https://dc.lft.to/lastmile_qr_scan", "android": "https://dc.lft.to/lastmile_qr_scan"}, "fusion_lon": 0.0, "type": "electric_scooter", "is_reserved": 0, "lon": -77.03077, "is_disabled": 0, "fusion_lat": 0.0, "bike_id": "66a996e1630a97850e3ecc0608e11d50", "name": "66a996e1630a97850e3ecc0608e11d50", "lat": 38.9224505}, {"rental_uris": {"ios": "https://dc.lft.to/lastmile_qr_scan", "android": "https://dc.lft.to/lastmile_qr_scan"}, "fusion_lon": 0.0, "type": "electric_scooter", "is_reserved": 0, "lon": -77.038325, "is_disabled": 0, "fusion_lat": 0.0, "bike_id": "d15dfcfe38c592b568c76ee7f5ab334d", "name": "d15dfcfe38c592b568c76ee7f5ab334d", "lat": 38.9111175}, {"rental_uris": {"ios": "https://dc.lft.to/lastmile_qr_scan", "android": "https://dc.lft.to/lastmile_qr_scan"}, "fusion_lon": 0.0, "type": "electric_scooter", "is_reserved": 0, "lon": -77.03432733333334, "is_disabled": 0, "fusion_lat": 0.0, "bike_id": "2435243ef8cebdc1f75f5542b1563978", "name": "2435243ef8cebdc1f75f5542b1563978", "lat": 38.90414216666667}, {"rental_uris": {"ios": "https://dc.lft.to/lastmile_qr_scan", "android": "https://dc.lft.to/lastmile_qr_scan"}, "fusion_lon": 0.0, "type": "electric_scooter", "is_reserved": 0, "lon": -77.0221205, "is_disabled": 0, "fusion_lat": 0.0, "bike_id": "4f50e75a6f52ea30bf3c2c2e06ee660d", "name": "4f50e75a6f52ea30bf3c2c2e06ee660d", "lat": 38.89601666666667}, {"rental_uris": {"ios": "https://dc.lft.to/lastmile_qr_scan", "android": "https://dc.lft.to/lastmile_qr_scan"}, "fusion_lon": 0.0, "type": "electric_scooter", "is_reserved": 0, "lon": -77.04550033333334, "is_disabled": 0, "fusion_lat": 0.0, "bike_id": "3c0ba8f35b24e08683db9585222ec89f", "name": "3c0ba8f35b24e08683db9585222ec89f", "lat": 38.90739633333333}, {"rental_uris": {"ios": "https://dc.lft.to/lastmile_qr_scan", "android": "https://dc.lft.to/lastmile_qr_scan"}, "fusion_lon": 0.0, "type": "electric_bike", "is_reserved": 0, "lon": -76.91720433333333, "is_disabled": 0, "fusion_lat": 0.0, "bike_id": "85304e625724bcb3c4be3f36717da074", "name": "85304e625724bcb3c4be3f36717da074", "lat": 38.8802055}, {"rental_uris": {"ios": "https://dc.lft.to/lastmile_qr_scan", "android": "https://dc.lft.to/lastmile_qr_scan"}, "fusion_lon": 0.0, "type": "electric_scooter", "is_reserved": 0, "lon": -77.0241755, "is_disabled": 0, "fusion_lat": 0.0, "bike_id": "152e10e932e33cf27bf7262e21ba5f19", "name": "152e10e932e33cf27bf7262e21ba5f19", "lat": 38.909616666666665}, {"rental_uris": {"ios": "https://dc.lft.to/lastmile_qr_scan", "android": "https://dc.lft.to/lastmile_qr_scan"}, "fusion_lon": 0.0, "type": "electric_scooter", "is_reserved": 0, "lon": -76.9496415, "is_disabled": 0, "fusion_lat": 0.0, "bike_id": "e081b70c09989741ab37fc2862bcfefc", "name": "e081b70c09989741ab37fc2862bcfefc", "lat": 38.90481416666667}, {"rental_uris": {"ios": "https://dc.lft.to/lastmile_qr_scan", "android": "https://dc.lft.to/lastmile_qr_scan"}, "fusion_lon": 0.0, "type": "electric_scooter", "is_reserved": 0, "lon": -77.0383775, "is_disabled": 0, "fusion_lat": 0.0, "bike_id": "65d4447dc8bcdc55012e07a03e635bf0", "name": "65d4447dc8bcdc55012e07a03e635bf0", "lat": 38.90388383333333}, {"rental_uris": {"ios": "https://dc.lft.to/lastmile_qr_scan", "android": "https://dc.lft.to/lastmile_qr_scan"}, "fusion_lon": 0.0, "type": "electric_scooter", "is_reserved": 0, "lon": -77.042014, "is_disabled": 0, "fusion_lat": 0.0, "bike_id": "e3b31e0ba4d166df4bfb6d24d0d9ae78", "name": "e3b31e0ba4d166df4bfb6d24d0d9ae78", "lat": 38.92044383333333}, {"rental_uris": {"ios": "https://dc.lft.to/lastmile_qr_scan", "android": "https://dc.lft.to/lastmile_qr_scan"}, "fusion_lon": 0.0, "type": "electric_scooter", "is_reserved": 0, "lon": -77.0193975, "is_disabled": 0, "fusion_lat": 0.0, "bike_id": "52b56dff9eb40a542e0d06df1fccaa9a", "name": "52b56dff9eb40a542e0d06df1fccaa9a", "lat": 38.87671483333333}, {"rental_uris": {"ios": "https://dc.lft.to/lastmile_qr_scan", "android": "https://dc.lft.to/lastmile_qr_scan"}, "fusion_lon": 0.0, "type": "electric_scooter", "is_reserved": 0, "lon": -77.0244395, "is_disabled": 0, "fusion_lat": 0.0, "bike_id": "3f7824166f824db7827fea5cb90cac57", "name": "3f7824166f824db7827fea5cb90cac57", "lat": 38.905673166666666}, {"rental_uris": {"ios": "https://dc.lft.to/lastmile_qr_scan", "android": "https://dc.lft.to/lastmile_qr_scan"}, "fusion_lon": 0.0, "type": "electric_scooter", "is_reserved": 0, "lon": -76.994622, "is_disabled": 0, "fusion_lat": 0.0, "bike_id": "c389f13eb0ccebdbb63788cd5fc3e56f", "name": "c389f13eb0ccebdbb63788cd5fc3e56f", "lat": 38.89722533333333}, {"rental_uris": {"ios": "https://dc.lft.to/lastmile_qr_scan", "android": "https://dc.lft.to/lastmile_qr_scan"}, "fusion_lon": 0.0, "type": "electric_bike", "is_reserved": 0, "lon": -76.92242433333334, "is_disabled": 0, "fusion_lat": 0.0, "bike_id": "470e129d9b1ae6fc78ce1ef32bf31eb8", "name": "470e129d9b1ae6fc78ce1ef32bf31eb8", "lat": 39.01064483333333}, {"rental_uris": {"ios": "https://dc.lft.to/lastmile_qr_scan", "android": "https://dc.lft.to/lastmile_qr_scan"}, "fusion_lon": 0.0, "type": "electric_scooter", "is_reserved": 0, "lon": -77.02280883333333, "is_disabled": 0, "fusion_lat": 0.0, "bike_id": "95105b86bccd6f7b7a9a0de8bb51bc50", "name": "95105b86bccd6f7b7a9a0de8bb51bc50", "lat": 38.89836533333333}, {"rental_uris": {"ios": "https://dc.lft.to/lastmile_qr_scan", "android": "https://dc.lft.to/lastmile_qr_scan"}, "fusion_lon": 0.0, "type": "electric_scooter", "is_reserved": 0, "lon": -77.036731, "is_disabled": 0, "fusion_lat": 0.0, "bike_id": "2c73468b6c4b1b45406b8735122b88de", "name": "2c73468b6c4b1b45406b8735122b88de", "lat": 38.9155935}, {"rental_uris": {"ios": "https://dc.lft.to/lastmile_qr_scan", "android": "https://dc.lft.to/lastmile_qr_scan"}, "fusion_lon": 0.0, "type": "electric_scooter", "is_reserved": 0, "lon": -77.0298575, "is_disabled": 0, "fusion_lat": 0.0, "bike_id": "28ee2035cc8693d169a0dbfa867891b5", "name": "28ee2035cc8693d169a0dbfa867891b5", "lat": 38.9035445}, {"rental_uris": {"ios": "https://dc.lft.to/lastmile_qr_scan", "android": "https://dc.lft.to/lastmile_qr_scan"}, "fusion_lon": 0.0, "type": "electric_scooter", "is_reserved": 0, "lon": -77.0220255, "is_disabled": 0, "fusion_lat": 0.0, "bike_id": "7fdf6b74039c3f67225d44e0fbefc7a1", "name": "7fdf6b74039c3f67225d44e0fbefc7a1", "lat": 38.93137816666667}, {"rental_uris": {"ios": "https://dc.lft.to/lastmile_qr_scan", "android": "https://dc.lft.to/lastmile_qr_scan"}, "fusion_lon": 0.0, "type": "electric_scooter", "is_reserved": 0, "lon": -77.07254333333333, "is_disabled": 0, "fusion_lat": 0.0, "bike_id": "450e9b2b14997f78f4e45bed135e55bb", "name": "450e9b2b14997f78f4e45bed135e55bb", "lat": 38.9395105}, {"rental_uris": {"ios": "https://dc.lft.to/lastmile_qr_scan", "android": "https://dc.lft.to/lastmile_qr_scan"}, "fusion_lon": 0.0, "type": "electric_scooter", "is_reserved": 0, "lon": -77.00858433333333, "is_disabled": 0, "fusion_lat": 0.0, "bike_id": "cdc66987547d66c9f13e6f67dbb126b4", "name": "cdc66987547d66c9f13e6f67dbb126b4", "lat": 38.9267805}, {"rental_uris": {"ios": "https://dc.lft.to/lastmile_qr_scan", "android": "https://dc.lft.to/lastmile_qr_scan"}, "fusion_lon": 0.0, "type": "electric_scooter", "is_reserved": 0, "lon": -77.0040325, "is_disabled": 0, "fusion_lat": 0.0, "bike_id": "ec52f3b0a0f0b96039b21eeea5079e56", "name": "ec52f3b0a0f0b96039b21eeea5079e56", "lat": 38.8794375}, {"rental_uris": {"ios": "https://dc.lft.to/lastmile_qr_scan", "android": "https://dc.lft.to/lastmile_qr_scan"}, "fusion_lon": 0.0, "type": "electric_scooter", "is_reserved": 0, "lon": -76.93137283333333, "is_disabled": 0, "fusion_lat": 0.0, "bike_id": "bf15feaa5dfce867e14d7b72dce328e0", "name": "bf15feaa5dfce867e14d7b72dce328e0", "lat": 38.87839816666666}, {"rental_uris": {"ios": "https://dc.lft.to/lastmile_qr_scan", "android": "https://dc.lft.to/lastmile_qr_scan"}, "fusion_lon": 0.0, "type": "electric_scooter", "is_reserved": 0, "lon": -77.04521033333333, "is_disabled": 0, "fusion_lat": 0.0, "bike_id": "3669f469b0a81b8572b8e797dc05c6e3", "name": "3669f469b0a81b8572b8e797dc05c6e3", "lat": 38.91825083333333}, {"rental_uris": {"ios": "https://dc.lft.to/lastmile_qr_scan", "android": "https://dc.lft.to/lastmile_qr_scan"}, "fusion_lon": 0.0, "type": "electric_scooter", "is_reserved": 0, "lon": -77.02083183333333, "is_disabled": 0, "fusion_lat": 0.0, "bike_id": "7f65eecac0ca3eab84e1f38288f1324d", "name": "7f65eecac0ca3eab84e1f38288f1324d", "lat": 38.902465}, {"rental_uris": {"ios": "https://dc.lft.to/lastmile_qr_scan", "android": "https://dc.lft.to/lastmile_qr_scan"}, "fusion_lon": 0.0, "type": "electric_scooter", "is_reserved": 0, "lon": -77.03176916666666, "is_disabled": 0, "fusion_lat": 0.0, "bike_id": "5e1fb5379ee773f1ae99d0690a1ff597", "name": "5e1fb5379ee773f1ae99d0690a1ff597", "lat": 38.919206833333334}, {"rental_uris": {"ios": "https://dc.lft.to/lastmile_qr_scan", "android": "https://dc.lft.to/lastmile_qr_scan"}, "fusion_lon": 0.0, "type": "electric_scooter", "is_reserved": 0, "lon": -77.0069095, "is_disabled": 0, "fusion_lat": 0.0, "bike_id": "519e6cdb70fe4447d82c8697c10bc070", "name": "519e6cdb70fe4447d82c8697c10bc070", "lat": 38.87870433333333}, {"rental_uris": {"ios": "https://dc.lft.to/lastmile_qr_scan", "android": "https://dc.lft.to/lastmile_qr_scan"}, "fusion_lon": 0.0, "type": "electric_scooter", "is_reserved": 0, "lon": -77.0357005, "is_disabled": 0, "fusion_lat": 0.0, "bike_id": "026f92b0ca2604857f74b9979b756179", "name": "026f92b0ca2604857f74b9979b756179", "lat": 38.92701483333333}, {"rental_uris": {"ios": "https://dc.lft.to/lastmile_qr_scan", "android": "https://dc.lft.to/lastmile_qr_scan"}, "fusion_lon": 0.0, "type": "electric_scooter", "is_reserved": 0, "lon": -77.03954833333333, "is_disabled": 0, "fusion_lat": 0.0, "bike_id": "688bb0e5ff2ad92c57538c098c68eae0", "name": "688bb0e5ff2ad92c57538c098c68eae0", "lat": 38.93272066666667}, {"rental_uris": {"ios": "https://dc.lft.to/lastmile_qr_scan", "android": "https://dc.lft.to/lastmile_qr_scan"}, "fusion_lon": 0.0, "type": "electric_scooter", "is_reserved": 0, "lon": -77.02185966666667, "is_disabled": 0, "fusion_lat": 0.0, "bike_id": "30664b8f731ecb63a3f223559a6aab44", "name": "30664b8f731ecb63a3f223559a6aab44", "lat": 38.91472433333333}, {"rental_uris": {"ios": "https://dc.lft.to/lastmile_qr_scan", "android": "https://dc.lft.to/lastmile_qr_scan"}, "fusion_lon": 0.0, "type": "electric_scooter", "is_reserved": 0, "lon": -77.03343333333333, "is_disabled": 0, "fusion_lat": 0.0, "bike_id": "ec995d22def69f0b015e60a7a9b0c39d", "name": "ec995d22def69f0b015e60a7a9b0c39d", "lat": 38.909626833333334}, {"rental_uris": {"ios": "https://dc.lft.to/lastmile_qr_scan", "android": "https://dc.lft.to/lastmile_qr_scan"}, "fusion_lon": 0.0, "type": "electric_scooter", "is_reserved": 0, "lon": -77.0393425, "is_disabled": 0, "fusion_lat": 0.0, "bike_id": "89e33261fe241fc7c074acb988395876", "name": "89e33261fe241fc7c074acb988395876", "lat": 38.924885}, {"rental_uris": {"ios": "https://dc.lft.to/lastmile_qr_scan", "android": "https://dc.lft.to/lastmile_qr_scan"}, "fusion_lon": 0.0, "type": "electric_scooter", "is_reserved": 0, "lon": -76.98248133333334, "is_disabled": 0, "fusion_lat": 0.0, "bike_id": "1cc8d16a45107ce33c2083a0308300d2", "name": "1cc8d16a45107ce33c2083a0308300d2", "lat": 38.904566}, {"rental_uris": {"ios": "https://dc.lft.to/lastmile_qr_scan", "android": "https://dc.lft.to/lastmile_qr_scan"}, "fusion_lon": 0.0, "type": "electric_scooter", "is_reserved": 0, "lon": -77.04704033333333, "is_disabled": 0, "fusion_lat": 0.0, "bike_id": "180715a9d1cf407a4bc6ae4965472aea", "name": "180715a9d1cf407a4bc6ae4965472aea", "lat": 38.9209895}, {"rental_uris": {"ios": "https://dc.lft.to/lastmile_qr_scan", "android": "https://dc.lft.to/lastmile_qr_scan"}, "fusion_lon": 0.0, "type": "electric_bike", "is_reserved": 0, "lon": -76.9698855, "is_disabled": 0, "fusion_lat": 0.0, "bike_id": "a4de4ebd40de3ffabcd7fa99b51613e1", "name": "a4de4ebd40de3ffabcd7fa99b51613e1", "lat": 38.864368166666665}, {"rental_uris": {"ios": "https://dc.lft.to/lastmile_qr_scan", "android": "https://dc.lft.to/lastmile_qr_scan"}, "fusion_lon": 0.0, "type": "electric_scooter", "is_reserved": 0, "lon": -77.0238455, "is_disabled": 0, "fusion_lat": 0.0, "bike_id": "3a37475c7f27ed4bc838771436d7c571", "name": "3a37475c7f27ed4bc838771436d7c571", "lat": 38.90846783333333}, {"rental_uris": {"ios": "https://dc.lft.to/lastmile_qr_scan", "android": "https://dc.lft.to/lastmile_qr_scan"}, "fusion_lon": 0.0, "type": "electric_scooter", "is_reserved": 0, "lon": -77.03479516666667, "is_disabled": 0, "fusion_lat": 0.0, "bike_id": "809cd592df20f48a3faa8279d3b67995", "name": "809cd592df20f48a3faa8279d3b67995", "lat": 38.9353005}, {"rental_uris": {"ios": "https://dc.lft.to/lastmile_qr_scan", "android": "https://dc.lft.to/lastmile_qr_scan"}, "fusion_lon": 0.0, "type": "electric_scooter", "is_reserved": 0, "lon": -77.02212633333333, "is_disabled": 0, "fusion_lat": 0.0, "bike_id": "5623ebf6291fc462cef5e426771d8455", "name": "5623ebf6291fc462cef5e426771d8455", "lat": 38.95747933333333}, {"rental_uris": {"ios": "https://dc.lft.to/lastmile_qr_scan", "android": "https://dc.lft.to/lastmile_qr_scan"}, "fusion_lon": 0.0, "type": "electric_scooter", "is_reserved": 0, "lon": -77.02004966666667, "is_disabled": 0, "fusion_lat": 0.0, "bike_id": "54090b0e64699cf5ac75f8a75799d3a8", "name": "54090b0e64699cf5ac75f8a75799d3a8", "lat": 38.92411666666667}, {"rental_uris": {"ios": "https://dc.lft.to/lastmile_qr_scan", "android": "https://dc.lft.to/lastmile_qr_scan"}, "fusion_lon": 0.0, "type": "electric_scooter", "is_reserved": 0, "lon": -77.03361683333334, "is_disabled": 0, "fusion_lat": 0.0, "bike_id": "070b15ee9e207af2056d2f0519e24f7c", "name": "070b15ee9e207af2056d2f0519e24f7c", "lat": 38.91114283333334}, {"rental_uris": {"ios": "https://dc.lft.to/lastmile_qr_scan", "android": "https://dc.lft.to/lastmile_qr_scan"}, "fusion_lon": 0.0, "type": "electric_scooter", "is_reserved": 0, "lon": -77.0222705, "is_disabled": 0, "fusion_lat": 0.0, "bike_id": "5c21040aefc555e30b9ebc1eaf4e4cc5", "name": "5c21040aefc555e30b9ebc1eaf4e4cc5", "lat": 38.90173166666667}, {"rental_uris": {"ios": "https://dc.lft.to/lastmile_qr_scan", "android": "https://dc.lft.to/lastmile_qr_scan"}, "fusion_lon": 0.0, "type": "electric_scooter", "is_reserved": 0, "lon": -77.0533515, "is_disabled": 0, "fusion_lat": 0.0, "bike_id": "90c5d090039b001cc81942e34fa6dd3f", "name": "90c5d090039b001cc81942e34fa6dd3f", "lat": 38.904557833333335}, {"rental_uris": {"ios": "https://dc.lft.to/lastmile_qr_scan", "android": "https://dc.lft.to/lastmile_qr_scan"}, "fusion_lon": 0.0, "type": "electric_scooter", "is_reserved": 0, "lon": -76.98052033333333, "is_disabled": 0, "fusion_lat": 0.0, "bike_id": "5926908607b14f8f9db88565fef67e1b", "name": "5926908607b14f8f9db88565fef67e1b", "lat": 38.8852675}, {"rental_uris": {"ios": "https://dc.lft.to/lastmile_qr_scan", "android": "https://dc.lft.to/lastmile_qr_scan"}, "fusion_lon": 0.0, "type": "electric_scooter", "is_reserved": 0, "lon": -76.9244525, "is_disabled": 0, "fusion_lat": 0.0, "bike_id": "507abeea6f9d4798e196b762d2ddaca0", "name": "507abeea6f9d4798e196b762d2ddaca0", "lat": 38.885145666666666}, {"rental_uris": {"ios": "https://dc.lft.to/lastmile_qr_scan", "android": "https://dc.lft.to/lastmile_qr_scan"}, "fusion_lon": 0.0, "type": "electric_bike", "is_reserved": 0, "lon": -76.90748983333333, "is_disabled": 0, "fusion_lat": 0.0, "bike_id": "5f62d4332713315f30f6e13aabab233f", "name": "5f62d4332713315f30f6e13aabab233f", "lat": 38.8961625}, {"rental_uris": {"ios": "https://dc.lft.to/lastmile_qr_scan", "android": "https://dc.lft.to/lastmile_qr_scan"}, "fusion_lon": 0.0, "type": "electric_scooter", "is_reserved": 0, "lon": -77.07005016666666, "is_disabled": 0, "fusion_lat": 0.0, "bike_id": "ba214776afcb0048a131d95c8f1cc87b", "name": "ba214776afcb0048a131d95c8f1cc87b", "lat": 38.905961}, {"rental_uris": {"ios": "https://dc.lft.to/lastmile_qr_scan", "android": "https://dc.lft.to/lastmile_qr_scan"}, "fusion_lon": 0.0, "type": "electric_scooter", "is_reserved": 0, "lon": -76.9770065, "is_disabled": 0, "fusion_lat": 0.0, "bike_id": "7adbb350ed899ecfd47c350d7cad03ac", "name": "7adbb350ed899ecfd47c350d7cad03ac", "lat": 38.9025345}, {"rental_uris": {"ios": "https://dc.lft.to/lastmile_qr_scan", "android": "https://dc.lft.to/lastmile_qr_scan"}, "fusion_lon": 0.0, "type": "electric_bike", "is_reserved": 0, "lon": -76.90022666666667, "is_disabled": 0, "fusion_lat": 0.0, "bike_id": "ba49c3978a0dc7d3d74901463b4d2db9", "name": "ba49c3978a0dc7d3d74901463b4d2db9", "lat": 39.0064615}, {"rental_uris": {"ios": "https://dc.lft.to/lastmile_qr_scan", "android": "https://dc.lft.to/lastmile_qr_scan"}, "fusion_lon": 0.0, "type": "electric_scooter", "is_reserved": 0, "lon": -77.02280983333333, "is_disabled": 0, "fusion_lat": 0.0, "bike_id": "1a7e94aff65574fe7093e52a786411c2", "name": "1a7e94aff65574fe7093e52a786411c2", "lat": 38.92681566666667}, {"rental_uris": {"ios": "https://dc.lft.to/lastmile_qr_scan", "android": "https://dc.lft.to/lastmile_qr_scan"}, "fusion_lon": 0.0, "type": "electric_scooter", "is_reserved": 0, "lon": -77.03183333333334, "is_disabled": 0, "fusion_lat": 0.0, "bike_id": "2297a079293c54692d317b311695b3f1", "name": "2297a079293c54692d317b311695b3f1", "lat": 38.916521333333336}, {"rental_uris": {"ios": "https://dc.lft.to/lastmile_qr_scan", "android": "https://dc.lft.to/lastmile_qr_scan"}, "fusion_lon": 0.0, "type": "electric_scooter", "is_reserved": 0, "lon": -77.00427883333333, "is_disabled": 0, "fusion_lat": 0.0, "bike_id": "ee4c0d672f1de274fea26fdae60e6438", "name": "ee4c0d672f1de274fea26fdae60e6438", "lat": 38.9039725}, {"rental_uris": {"ios": "https://dc.lft.to/lastmile_qr_scan", "android": "https://dc.lft.to/lastmile_qr_scan"}, "fusion_lon": 0.0, "type": "electric_scooter", "is_reserved": 0, "lon": -76.99835583333333, "is_disabled": 0, "fusion_lat": 0.0, "bike_id": "51b5caf87a5c6ca93cd8158aa391fe30", "name": "51b5caf87a5c6ca93cd8158aa391fe30", "lat": 38.880028833333334}, {"rental_uris": {"ios": "https://dc.lft.to/lastmile_qr_scan", "android": "https://dc.lft.to/lastmile_qr_scan"}, "fusion_lon": 0.0, "type": "electric_scooter", "is_reserved": 0, "lon": -77.01712083333334, "is_disabled": 0, "fusion_lat": 0.0, "bike_id": "7f04c76c9792ac32c10e4417c0d45ab1", "name": "7f04c76c9792ac32c10e4417c0d45ab1", "lat": 38.905129333333335}, {"rental_uris": {"ios": "https://dc.lft.to/lastmile_qr_scan", "android": "https://dc.lft.to/lastmile_qr_scan"}, "fusion_lon": 0.0, "type": "electric_scooter", "is_reserved": 0, "lon": -76.99501283333333, "is_disabled": 0, "fusion_lat": 0.0, "bike_id": "264fd91beadc4be89fc2d172442cb60a", "name": "264fd91beadc4be89fc2d172442cb60a", "lat": 38.9270075}, {"rental_uris": {"ios": "https://dc.lft.to/lastmile_qr_scan", "android": "https://dc.lft.to/lastmile_qr_scan"}, "fusion_lon": 0.0, "type": "electric_bike", "is_reserved": 0, "lon": -77.114122, "is_disabled": 0, "fusion_lat": 0.0, "bike_id": "487093ef5edab6c8fe1ddb5520df38d1", "name": "487093ef5edab6c8fe1ddb5520df38d1", "lat": 38.852414}, {"rental_uris": {"ios": "https://dc.lft.to/lastmile_qr_scan", "android": "https://dc.lft.to/lastmile_qr_scan"}, "fusion_lon": 0.0, "type": "electric_scooter", "is_reserved": 0, "lon": -76.93482433333334, "is_disabled": 0, "fusion_lat": 0.0, "bike_id": "b1d717f59d2505199d9a6e32dd89b1cd", "name": "b1d717f59d2505199d9a6e32dd89b1cd", "lat": 38.8829765}, {"rental_uris": {"ios": "https://dc.lft.to/lastmile_qr_scan", "android": "https://dc.lft.to/lastmile_qr_scan"}, "fusion_lon": 0.0, "type": "electric_scooter", "is_reserved": 0, "lon": -77.0025015, "is_disabled": 0, "fusion_lat": 0.0, "bike_id": "925f3b327f09fd0f00a6b0da718cb6f3", "name": "925f3b327f09fd0f00a6b0da718cb6f3", "lat": 38.90125716666667}, {"rental_uris": {"ios": "https://dc.lft.to/lastmile_qr_scan", "android": "https://dc.lft.to/lastmile_qr_scan"}, "fusion_lon": 0.0, "type": "electric_scooter", "is_reserved": 0, "lon": -77.03287733333333, "is_disabled": 0, "fusion_lat": 0.0, "bike_id": "b47b695742de4ec19d9927c26f22b64a", "name": "b47b695742de4ec19d9927c26f22b64a", "lat": 38.9362155}, {"rental_uris": {"ios": "https://dc.lft.to/lastmile_qr_scan", "android": "https://dc.lft.to/lastmile_qr_scan"}, "fusion_lon": 0.0, "type": "electric_scooter", "is_reserved": 0, "lon": -76.99613416666666, "is_disabled": 0, "fusion_lat": 0.0, "bike_id": "cf5ec0fedbdbeff8ea024904e733b3c4", "name": "cf5ec0fedbdbeff8ea024904e733b3c4", "lat": 38.8871915}, {"rental_uris": {"ios": "https://dc.lft.to/lastmile_qr_scan", "android": "https://dc.lft.to/lastmile_qr_scan"}, "fusion_lon": 0.0, "type": "electric_scooter", "is_reserved": 0, "lon": -77.00384733333334, "is_disabled": 0, "fusion_lat": 0.0, "bike_id": "cd763ff4d3f20bf9b159524a99a471d4", "name": "cd763ff4d3f20bf9b159524a99a471d4", "lat": 38.876354}, {"rental_uris": {"ios": "https://dc.lft.to/lastmile_qr_scan", "android": "https://dc.lft.to/lastmile_qr_scan"}, "fusion_lon": 0.0, "type": "electric_scooter", "is_reserved": 0, "lon": -76.93475366666667, "is_disabled": 0, "fusion_lat": 0.0, "bike_id": "ddeea441a63ec2af379ae08619be07d1", "name": "ddeea441a63ec2af379ae08619be07d1", "lat": 38.908374}, {"rental_uris": {"ios": "https://dc.lft.to/lastmile_qr_scan", "android": "https://dc.lft.to/lastmile_qr_scan"}, "fusion_lon": 0.0, "type": "electric_scooter", "is_reserved": 0, "lon": -77.02114833333333, "is_disabled": 0, "fusion_lat": 0.0, "bike_id": "ca191b6920458c94ebe9818dfdce5122", "name": "ca191b6920458c94ebe9818dfdce5122", "lat": 38.917392166666666}, {"rental_uris": {"ios": "https://dc.lft.to/lastmile_qr_scan", "android": "https://dc.lft.to/lastmile_qr_scan"}, "fusion_lon": 0.0, "type": "electric_scooter", "is_reserved": 0, "lon": -77.0330545, "is_disabled": 0, "fusion_lat": 0.0, "bike_id": "7f47c16ce878d63363b82a463b353af1", "name": "7f47c16ce878d63363b82a463b353af1", "lat": 38.903184333333336}, {"rental_uris": {"ios": "https://dc.lft.to/lastmile_qr_scan", "android": "https://dc.lft.to/lastmile_qr_scan"}, "fusion_lon": 0.0, "type": "electric_scooter", "is_reserved": 0, "lon": -77.03658333333334, "is_disabled": 0, "fusion_lat": 0.0, "bike_id": "707bc5950a4f7ac9655576be23a722ef", "name": "707bc5950a4f7ac9655576be23a722ef", "lat": 38.92240433333333}, {"rental_uris": {"ios": "https://dc.lft.to/lastmile_qr_scan", "android": "https://dc.lft.to/lastmile_qr_scan"}, "fusion_lon": 0.0, "type": "electric_scooter", "is_reserved": 0, "lon": -77.04680366666666, "is_disabled": 0, "fusion_lat": 0.0, "bike_id": "b44293387820341f046b628a81ad6753", "name": "b44293387820341f046b628a81ad6753", "lat": 38.897403}, {"rental_uris": {"ios": "https://dc.lft.to/lastmile_qr_scan", "android": "https://dc.lft.to/lastmile_qr_scan"}, "fusion_lon": 0.0, "type": "electric_scooter", "is_reserved": 0, "lon": -77.00058616666666, "is_disabled": 0, "fusion_lat": 0.0, "bike_id": "ae8998933792da4db8c064ef1615e372", "name": "ae8998933792da4db8c064ef1615e372", "lat": 38.876588}, {"rental_uris": {"ios": "https://dc.lft.to/lastmile_qr_scan", "android": "https://dc.lft.to/lastmile_qr_scan"}, "fusion_lon": 0.0, "type": "electric_scooter", "is_reserved": 0, "lon": -77.00326466666667, "is_disabled": 0, "fusion_lat": 0.0, "bike_id": "c5433b04e4d825e28d70be6940de0900", "name": "c5433b04e4d825e28d70be6940de0900", "lat": 38.887279}, {"rental_uris": {"ios": "https://dc.lft.to/lastmile_qr_scan", "android": "https://dc.lft.to/lastmile_qr_scan"}, "fusion_lon": 0.0, "type": "electric_scooter", "is_reserved": 0, "lon": -77.02469383333333, "is_disabled": 0, "fusion_lat": 0.0, "bike_id": "734dc4921acb850eee1ff1b609ccae4f", "name": "734dc4921acb850eee1ff1b609ccae4f", "lat": 38.93095016666667}, {"rental_uris": {"ios": "https://dc.lft.to/lastmile_qr_scan", "android": "https://dc.lft.to/lastmile_qr_scan"}, "fusion_lon": 0.0, "type": "electric_scooter", "is_reserved": 0, "lon": -77.04484683333334, "is_disabled": 0, "fusion_lat": 0.0, "bike_id": "a8966886d4bc15f063172ad43fad2ef7", "name": "a8966886d4bc15f063172ad43fad2ef7", "lat": 38.911584500000004}, {"rental_uris": {"ios": "https://dc.lft.to/lastmile_qr_scan", "android": "https://dc.lft.to/lastmile_qr_scan"}, "fusion_lon": 0.0, "type": "electric_scooter", "is_reserved": 0, "lon": -77.02220616666666, "is_disabled": 0, "fusion_lat": 0.0, "bike_id": "3cd96020c7a55a18fb5285208dfe8295", "name": "3cd96020c7a55a18fb5285208dfe8295", "lat": 38.9246825}, {"rental_uris": {"ios": "https://dc.lft.to/lastmile_qr_scan", "android": "https://dc.lft.to/lastmile_qr_scan"}, "fusion_lon": 0.0, "type": "electric_scooter", "is_reserved": 0, "lon": -77.04211233333334, "is_disabled": 0, "fusion_lat": 0.0, "bike_id": "2f7889a6c8f6291f9e18b16b119f9ffc", "name": "2f7889a6c8f6291f9e18b16b119f9ffc", "lat": 38.921026166666664}, {"rental_uris": {"ios": "https://dc.lft.to/lastmile_qr_scan", "android": "https://dc.lft.to/lastmile_qr_scan"}, "fusion_lon": 0.0, "type": "electric_bike", "is_reserved": 0, "lon": -77.01965083333333, "is_disabled": 0, "fusion_lat": 0.0, "bike_id": "839b905e6b2a536b9a2a040a5b4652ed", "name": "839b905e6b2a536b9a2a040a5b4652ed", "lat": 39.02515983333333}, {"rental_uris": {"ios": "https://dc.lft.to/lastmile_qr_scan", "android": "https://dc.lft.to/lastmile_qr_scan"}, "fusion_lon": 0.0, "type": "electric_scooter", "is_reserved": 0, "lon": -77.031886, "is_disabled": 0, "fusion_lat": 0.0, "bike_id": "3057070ac9699c1547552faa6dc335bb", "name": "3057070ac9699c1547552faa6dc335bb", "lat": 38.892292166666664}, {"rental_uris": {"ios": "https://dc.lft.to/lastmile_qr_scan", "android": "https://dc.lft.to/lastmile_qr_scan"}, "fusion_lon": 0.0, "type": "electric_scooter", "is_reserved": 0, "lon": -76.97004383333334, "is_disabled": 0, "fusion_lat": 0.0, "bike_id": "1c30529c3622bc23afe5c892eaa2a693", "name": "1c30529c3622bc23afe5c892eaa2a693", "lat": 38.860194166666666}, {"rental_uris": {"ios": "https://dc.lft.to/lastmile_qr_scan", "android": "https://dc.lft.to/lastmile_qr_scan"}, "fusion_lon": 0.0, "type": "electric_scooter", "is_reserved": 0, "lon": -77.02804183333333, "is_disabled": 0, "fusion_lat": 0.0, "bike_id": "e737915cd17372dcbda21e41537de534", "name": "e737915cd17372dcbda21e41537de534", "lat": 38.91707533333334}, {"rental_uris": {"ios": "https://dc.lft.to/lastmile_qr_scan", "android": "https://dc.lft.to/lastmile_qr_scan"}, "fusion_lon": 0.0, "type": "electric_scooter", "is_reserved": 0, "lon": -76.95525633333334, "is_disabled": 0, "fusion_lat": 0.0, "bike_id": "fdaea0471230a15095ac3237b24c3ce6", "name": "fdaea0471230a15095ac3237b24c3ce6", "lat": 38.887846}, {"rental_uris": {"ios": "https://dc.lft.to/lastmile_qr_scan", "android": "https://dc.lft.to/lastmile_qr_scan"}, "fusion_lon": 0.0, "type": "electric_scooter", "is_reserved": 0, "lon": -77.01559683333333, "is_disabled": 0, "fusion_lat": 0.0, "bike_id": "2b84823a0fe0a8ecd3d2b3b4262f5c19", "name": "2b84823a0fe0a8ecd3d2b3b4262f5c19", "lat": 38.89171483333333}, {"rental_uris": {"ios": "https://dc.lft.to/lastmile_qr_scan", "android": "https://dc.lft.to/lastmile_qr_scan"}, "fusion_lon": 0.0, "type": "electric_bike", "is_reserved": 0, "lon": -76.9506395, "is_disabled": 0, "fusion_lat": 0.0, "bike_id": "9af3364be65c041530af52997b90f6d9", "name": "9af3364be65c041530af52997b90f6d9", "lat": 39.085054}, {"rental_uris": {"ios": "https://dc.lft.to/lastmile_qr_scan", "android": "https://dc.lft.to/lastmile_qr_scan"}, "fusion_lon": 0.0, "type": "electric_scooter", "is_reserved": 0, "lon": -77.01197933333333, "is_disabled": 0, "fusion_lat": 0.0, "bike_id": "5b698a991c8adb2e2829b78c0a1f06b5", "name": "5b698a991c8adb2e2829b78c0a1f06b5", "lat": 38.896647333333334}, {"rental_uris": {"ios": "https://dc.lft.to/lastmile_qr_scan", "android": "https://dc.lft.to/lastmile_qr_scan"}, "fusion_lon": 0.0, "type": "electric_scooter", "is_reserved": 0, "lon": -77.00147783333334, "is_disabled": 0, "fusion_lat": 0.0, "bike_id": "c3820c41fc88c808ebff45a0b52d2745", "name": "c3820c41fc88c808ebff45a0b52d2745", "lat": 38.867510333333335}, {"rental_uris": {"ios": "https://dc.lft.to/lastmile_qr_scan", "android": "https://dc.lft.to/lastmile_qr_scan"}, "fusion_lon": 0.0, "type": "electric_scooter", "is_reserved": 0, "lon": -76.99516766666666, "is_disabled": 0, "fusion_lat": 0.0, "bike_id": "4ee58bfa3250b105c684ea90ce3939d5", "name": "4ee58bfa3250b105c684ea90ce3939d5", "lat": 38.89481033333333}, {"rental_uris": {"ios": "https://dc.lft.to/lastmile_qr_scan", "android": "https://dc.lft.to/lastmile_qr_scan"}, "fusion_lon": 0.0, "type": "electric_scooter", "is_reserved": 0, "lon": -77.0056365, "is_disabled": 0, "fusion_lat": 0.0, "bike_id": "efc03b04d470c3af66e7bb1e814e0dc9", "name": "efc03b04d470c3af66e7bb1e814e0dc9", "lat": 38.8763775}, {"rental_uris": {"ios": "https://dc.lft.to/lastmile_qr_scan", "android": "https://dc.lft.to/lastmile_qr_scan"}, "fusion_lon": 0.0, "type": "electric_scooter", "is_reserved": 0, "lon": -77.0181785, "is_disabled": 0, "fusion_lat": 0.0, "bike_id": "2dcf95fd8be9a1a1b6c573f577f78bee", "name": "2dcf95fd8be9a1a1b6c573f577f78bee", "lat": 38.9205505}, {"rental_uris": {"ios": "https://dc.lft.to/lastmile_qr_scan", "android": "https://dc.lft.to/lastmile_qr_scan"}, "fusion_lon": 0.0, "type": "electric_scooter", "is_reserved": 0, "lon": -77.0154035, "is_disabled": 0, "fusion_lat": 0.0, "bike_id": "e6d7b6391f055045f7bdbd9b2b330b94", "name": "e6d7b6391f055045f7bdbd9b2b330b94", "lat": 38.891920666666664}, {"rental_uris": {"ios": "https://dc.lft.to/lastmile_qr_scan", "android": "https://dc.lft.to/lastmile_qr_scan"}, "fusion_lon": 0.0, "type": "electric_bike", "is_reserved": 0, "lon": -77.04729383333333, "is_disabled": 0, "fusion_lat": 0.0, "bike_id": "9134e15f481dd73a5835c764eba6d228", "name": "9134e15f481dd73a5835c764eba6d228", "lat": 38.92020016666667}, {"rental_uris": {"ios": "https://dc.lft.to/lastmile_qr_scan", "android": "https://dc.lft.to/lastmile_qr_scan"}, "fusion_lon": 0.0, "type": "electric_scooter", "is_reserved": 0, "lon": -77.02699516666667, "is_disabled": 0, "fusion_lat": 0.0, "bike_id": "f63e6424cedef634ed15a4e7f5a4df9b", "name": "f63e6424cedef634ed15a4e7f5a4df9b", "lat": 38.925833833333336}, {"rental_uris": {"ios": "https://dc.lft.to/lastmile_qr_scan", "android": "https://dc.lft.to/lastmile_qr_scan"}, "fusion_lon": 0.0, "type": "electric_bike", "is_reserved": 0, "lon": -77.05089316666667, "is_disabled": 0, "fusion_lat": 0.0, "bike_id": "e44c4cf45630d7425f7910730381193e", "name": "e44c4cf45630d7425f7910730381193e", "lat": 38.8132895}, {"rental_uris": {"ios": "https://dc.lft.to/lastmile_qr_scan", "android": "https://dc.lft.to/lastmile_qr_scan"}, "fusion_lon": 0.0, "type": "electric_scooter", "is_reserved": 0, "lon": -77.0319175, "is_disabled": 0, "fusion_lat": 0.0, "bike_id": "1325b469c4287747982ca92a123010d6", "name": "1325b469c4287747982ca92a123010d6", "lat": 38.9018605}, {"rental_uris": {"ios": "https://dc.lft.to/lastmile_qr_scan", "android": "https://dc.lft.to/lastmile_qr_scan"}, "fusion_lon": 0.0, "type": "electric_scooter", "is_reserved": 0, "lon": -77.01145066666666, "is_disabled": 0, "fusion_lat": 0.0, "bike_id": "e519bc751e47174b2130825b4ab5f284", "name": "e519bc751e47174b2130825b4ab5f284", "lat": 38.92959066666667}, {"rental_uris": {"ios": "https://dc.lft.to/lastmile_qr_scan", "android": "https://dc.lft.to/lastmile_qr_scan"}, "fusion_lon": 0.0, "type": "electric_scooter", "is_reserved": 0, "lon": -77.012335, "is_disabled": 0, "fusion_lat": 0.0, "bike_id": "398c97dd328b7fc22256f7968b12f182", "name": "398c97dd328b7fc22256f7968b12f182", "lat": 38.900198}, {"rental_uris": {"ios": "https://dc.lft.to/lastmile_qr_scan", "android": "https://dc.lft.to/lastmile_qr_scan"}, "fusion_lon": 0.0, "type": "electric_scooter", "is_reserved": 0, "lon": -77.04518533333334, "is_disabled": 0, "fusion_lat": 0.0, "bike_id": "2065676ba2a44d076283881816ce3779", "name": "2065676ba2a44d076283881816ce3779", "lat": 38.899638833333334}, {"rental_uris": {"ios": "https://dc.lft.to/lastmile_qr_scan", "android": "https://dc.lft.to/lastmile_qr_scan"}, "fusion_lon": 0.0, "type": "electric_scooter", "is_reserved": 0, "lon": -76.93207116666666, "is_disabled": 0, "fusion_lat": 0.0, "bike_id": "f1c796fe39722c53c486065de28c49f2", "name": "f1c796fe39722c53c486065de28c49f2", "lat": 38.896621}, {"rental_uris": {"ios": "https://dc.lft.to/lastmile_qr_scan", "android": "https://dc.lft.to/lastmile_qr_scan"}, "fusion_lon": 0.0, "type": "electric_scooter", "is_reserved": 0, "lon": -77.0699655, "is_disabled": 0, "fusion_lat": 0.0, "bike_id": "c0e9d12b2db22bad8745ce56074eab2a", "name": "c0e9d12b2db22bad8745ce56074eab2a", "lat": 38.95496216666667}, {"rental_uris": {"ios": "https://dc.lft.to/lastmile_qr_scan", "android": "https://dc.lft.to/lastmile_qr_scan"}, "fusion_lon": 0.0, "type": "electric_bike", "is_reserved": 0, "lon": -76.98025266666667, "is_disabled": 0, "fusion_lat": 0.0, "bike_id": "ef335f0cd9c9d3435ca1caeef7bae103", "name": "ef335f0cd9c9d3435ca1caeef7bae103", "lat": 38.8682295}, {"rental_uris": {"ios": "https://dc.lft.to/lastmile_qr_scan", "android": "https://dc.lft.to/lastmile_qr_scan"}, "fusion_lon": 0.0, "type": "electric_scooter", "is_reserved": 0, "lon": -77.0404935, "is_disabled": 0, "fusion_lat": 0.0, "bike_id": "48aec26055213396867dcc07446f8073", "name": "48aec26055213396867dcc07446f8073", "lat": 38.9086995}, {"rental_uris": {"ios": "https://dc.lft.to/lastmile_qr_scan", "android": "https://dc.lft.to/lastmile_qr_scan"}, "fusion_lon": 0.0, "type": "electric_scooter", "is_reserved": 0, "lon": -77.04154583333333, "is_disabled": 0, "fusion_lat": 0.0, "bike_id": "5caa801387f8404791f05611d790f7d5", "name": "5caa801387f8404791f05611d790f7d5", "lat": 38.91945166666667}, {"rental_uris": {"ios": "https://dc.lft.to/lastmile_qr_scan", "android": "https://dc.lft.to/lastmile_qr_scan"}, "fusion_lon": 0.0, "type": "electric_scooter", "is_reserved": 0, "lon": -77.04482633333333, "is_disabled": 0, "fusion_lat": 0.0, "bike_id": "ca947039900d5057ddd6e8f0a95a42ce", "name": "ca947039900d5057ddd6e8f0a95a42ce", "lat": 38.911555666666665}, {"rental_uris": {"ios": "https://dc.lft.to/lastmile_qr_scan", "android": "https://dc.lft.to/lastmile_qr_scan"}, "fusion_lon": 0.0, "type": "electric_scooter", "is_reserved": 0, "lon": -77.0031535, "is_disabled": 0, "fusion_lat": 0.0, "bike_id": "f1e564dd031170b60269795e9d329024", "name": "f1e564dd031170b60269795e9d329024", "lat": 38.901246666666665}, {"rental_uris": {"ios": "https://dc.lft.to/lastmile_qr_scan", "android": "https://dc.lft.to/lastmile_qr_scan"}, "fusion_lon": 0.0, "type": "electric_scooter", "is_reserved": 0, "lon": -77.04863333333333, "is_disabled": 0, "fusion_lat": 0.0, "bike_id": "54bb5a9456e2e8d5b57561dd3b0e2abb", "name": "54bb5a9456e2e8d5b57561dd3b0e2abb", "lat": 38.90716616666667}, {"rental_uris": {"ios": "https://dc.lft.to/lastmile_qr_scan", "android": "https://dc.lft.to/lastmile_qr_scan"}, "fusion_lon": 0.0, "type": "electric_scooter", "is_reserved": 0, "lon": -77.023151, "is_disabled": 0, "fusion_lat": 0.0, "bike_id": "e1570c6d45804e85dbe12f969384ccca", "name": "e1570c6d45804e85dbe12f969384ccca", "lat": 38.90205066666667}, {"rental_uris": {"ios": "https://dc.lft.to/lastmile_qr_scan", "android": "https://dc.lft.to/lastmile_qr_scan"}, "fusion_lon": 0.0, "type": "electric_scooter", "is_reserved": 0, "lon": -77.02154066666667, "is_disabled": 0, "fusion_lat": 0.0, "bike_id": "225a43e1563bd642f61ac15e141cbeff", "name": "225a43e1563bd642f61ac15e141cbeff", "lat": 38.925992666666666}, {"rental_uris": {"ios": "https://dc.lft.to/lastmile_qr_scan", "android": "https://dc.lft.to/lastmile_qr_scan"}, "fusion_lon": 0.0, "type": "electric_scooter", "is_reserved": 0, "lon": -77.04190983333334, "is_disabled": 0, "fusion_lat": 0.0, "bike_id": "dc15c1267fb49d55a9aa87ea03e05d48", "name": "dc15c1267fb49d55a9aa87ea03e05d48", "lat": 38.92051383333333}, {"rental_uris": {"ios": "https://dc.lft.to/lastmile_qr_scan", "android": "https://dc.lft.to/lastmile_qr_scan"}, "fusion_lon": 0.0, "type": "electric_scooter", "is_reserved": 0, "lon": -77.052269, "is_disabled": 0, "fusion_lat": 0.0, "bike_id": "008c098f187a1d0a21bfcd6e8b39fff3", "name": "008c098f187a1d0a21bfcd6e8b39fff3", "lat": 38.92356383333333}, {"rental_uris": {"ios": "https://dc.lft.to/lastmile_qr_scan", "android": "https://dc.lft.to/lastmile_qr_scan"}, "fusion_lon": 0.0, "type": "electric_bike", "is_reserved": 0, "lon": -77.12811783333333, "is_disabled": 0, "fusion_lat": 0.0, "bike_id": "6c0b0db55340024e3a77f790758a8238", "name": "6c0b0db55340024e3a77f790758a8238", "lat": 38.88668883333333}, {"rental_uris": {"ios": "https://dc.lft.to/lastmile_qr_scan", "android": "https://dc.lft.to/lastmile_qr_scan"}, "fusion_lon": 0.0, "type": "electric_scooter", "is_reserved": 0, "lon": -77.0294415, "is_disabled": 0, "fusion_lat": 0.0, "bike_id": "6c8b3d23972aa4a37b015cb7303e3fb7", "name": "6c8b3d23972aa4a37b015cb7303e3fb7", "lat": 38.89531183333333}, {"rental_uris": {"ios": "https://dc.lft.to/lastmile_qr_scan", "android": "https://dc.lft.to/lastmile_qr_scan"}, "fusion_lon": 0.0, "type": "electric_scooter", "is_reserved": 0, "lon": -76.99843683333333, "is_disabled": 0, "fusion_lat": 0.0, "bike_id": "f795a77a22a274d34e4463feaeb7c90c", "name": "f795a77a22a274d34e4463feaeb7c90c", "lat": 38.90040833333333}, {"rental_uris": {"ios": "https://dc.lft.to/lastmile_qr_scan", "android": "https://dc.lft.to/lastmile_qr_scan"}, "fusion_lon": 0.0, "type": "electric_scooter", "is_reserved": 0, "lon": -77.071161, "is_disabled": 0, "fusion_lat": 0.0, "bike_id": "fa051d48315f0dddf55f0ed7d4e35906", "name": "fa051d48315f0dddf55f0ed7d4e35906", "lat": 38.91977383333333}, {"rental_uris": {"ios": "https://dc.lft.to/lastmile_qr_scan", "android": "https://dc.lft.to/lastmile_qr_scan"}, "fusion_lon": 0.0, "type": "electric_scooter", "is_reserved": 0, "lon": -77.02154766666666, "is_disabled": 0, "fusion_lat": 0.0, "bike_id": "1b3f3f2e9526b0ff0c444781d29bd336", "name": "1b3f3f2e9526b0ff0c444781d29bd336", "lat": 38.9281995}, {"rental_uris": {"ios": "https://dc.lft.to/lastmile_qr_scan", "android": "https://dc.lft.to/lastmile_qr_scan"}, "fusion_lon": 0.0, "type": "electric_scooter", "is_reserved": 0, "lon": -77.0601445, "is_disabled": 0, "fusion_lat": 0.0, "bike_id": "a0b19ba4f77defb9e818a1f3141a705e", "name": "a0b19ba4f77defb9e818a1f3141a705e", "lat": 38.904760833333334}, {"rental_uris": {"ios": "https://dc.lft.to/lastmile_qr_scan", "android": "https://dc.lft.to/lastmile_qr_scan"}, "fusion_lon": 0.0, "type": "electric_scooter", "is_reserved": 0, "lon": -77.0294445, "is_disabled": 0, "fusion_lat": 0.0, "bike_id": "281f5c2b84e2ac39ff5b0613ba73a8ff", "name": "281f5c2b84e2ac39ff5b0613ba73a8ff", "lat": 38.9396835}, {"rental_uris": {"ios": "https://dc.lft.to/lastmile_qr_scan", "android": "https://dc.lft.to/lastmile_qr_scan"}, "fusion_lon": 0.0, "type": "electric_scooter", "is_reserved": 0, "lon": -77.04666183333333, "is_disabled": 0, "fusion_lat": 0.0, "bike_id": "80fd132e1681cb0f34ed4205d921c60a", "name": "80fd132e1681cb0f34ed4205d921c60a", "lat": 38.89841933333334}, {"rental_uris": {"ios": "https://dc.lft.to/lastmile_qr_scan", "android": "https://dc.lft.to/lastmile_qr_scan"}, "fusion_lon": 0.0, "type": "electric_scooter", "is_reserved": 0, "lon": -77.03503566666667, "is_disabled": 0, "fusion_lat": 0.0, "bike_id": "1d2626c47a78ae5f3c760df2713549d5", "name": "1d2626c47a78ae5f3c760df2713549d5", "lat": 38.92478366666667}, {"rental_uris": {"ios": "https://dc.lft.to/lastmile_qr_scan", "android": "https://dc.lft.to/lastmile_qr_scan"}, "fusion_lon": 0.0, "type": "electric_scooter", "is_reserved": 0, "lon": -77.02604616666666, "is_disabled": 0, "fusion_lat": 0.0, "bike_id": "ec01749823c1c227b3f0ba48d58f7a4d", "name": "ec01749823c1c227b3f0ba48d58f7a4d", "lat": 38.89855033333333}, {"rental_uris": {"ios": "https://dc.lft.to/lastmile_qr_scan", "android": "https://dc.lft.to/lastmile_qr_scan"}, "fusion_lon": 0.0, "type": "electric_scooter", "is_reserved": 0, "lon": -77.002008, "is_disabled": 0, "fusion_lat": 0.0, "bike_id": "5a20a22668ade9edc01258078abfbc41", "name": "5a20a22668ade9edc01258078abfbc41", "lat": 38.930801833333334}, {"rental_uris": {"ios": "https://dc.lft.to/lastmile_qr_scan", "android": "https://dc.lft.to/lastmile_qr_scan"}, "fusion_lon": 0.0, "type": "electric_scooter", "is_reserved": 0, "lon": -77.03496666666666, "is_disabled": 0, "fusion_lat": 0.0, "bike_id": "e19f9523de8c82d9c3f98a86e085b5d5", "name": "e19f9523de8c82d9c3f98a86e085b5d5", "lat": 38.918581833333334}, {"rental_uris": {"ios": "https://dc.lft.to/lastmile_qr_scan", "android": "https://dc.lft.to/lastmile_qr_scan"}, "fusion_lon": 0.0, "type": "electric_scooter", "is_reserved": 0, "lon": -77.04641566666666, "is_disabled": 0, "fusion_lat": 0.0, "bike_id": "1cc5d7167c7ddde35ac3c81555d90846", "name": "1cc5d7167c7ddde35ac3c81555d90846", "lat": 38.916364333333334}, {"rental_uris": {"ios": "https://dc.lft.to/lastmile_qr_scan", "android": "https://dc.lft.to/lastmile_qr_scan"}, "fusion_lon": 0.0, "type": "electric_scooter", "is_reserved": 0, "lon": -77.01725016666667, "is_disabled": 0, "fusion_lat": 0.0, "bike_id": "a8f8092b9bcaf4570ecefd4cead01f7a", "name": "a8f8092b9bcaf4570ecefd4cead01f7a", "lat": 38.9204855}, {"rental_uris": {"ios": "https://dc.lft.to/lastmile_qr_scan", "android": "https://dc.lft.to/lastmile_qr_scan"}, "fusion_lon": 0.0, "type": "electric_scooter", "is_reserved": 0, "lon": -77.00920666666667, "is_disabled": 0, "fusion_lat": 0.0, "bike_id": "1c4ae59a66c787d89599f9c7b786a627", "name": "1c4ae59a66c787d89599f9c7b786a627", "lat": 38.9146935}, {"rental_uris": {"ios": "https://dc.lft.to/lastmile_qr_scan", "android": "https://dc.lft.to/lastmile_qr_scan"}, "fusion_lon": 0.0, "type": "electric_scooter", "is_reserved": 0, "lon": -77.048202, "is_disabled": 0, "fusion_lat": 0.0, "bike_id": "4ce6e76c180666e4d26c8e4b2f31e71e", "name": "4ce6e76c180666e4d26c8e4b2f31e71e", "lat": 38.916414333333336}, {"rental_uris": {"ios": "https://dc.lft.to/lastmile_qr_scan", "android": "https://dc.lft.to/lastmile_qr_scan"}, "fusion_lon": 0.0, "type": "electric_scooter", "is_reserved": 0, "lon": -77.0284465, "is_disabled": 0, "fusion_lat": 0.0, "bike_id": "270a0c75dc62806e3e5d91c09234aeeb", "name": "270a0c75dc62806e3e5d91c09234aeeb", "lat": 38.932770166666664}, {"rental_uris": {"ios": "https://dc.lft.to/lastmile_qr_scan", "android": "https://dc.lft.to/lastmile_qr_scan"}, "fusion_lon": 0.0, "type": "electric_scooter", "is_reserved": 0, "lon": -77.02350166666666, "is_disabled": 0, "fusion_lat": 0.0, "bike_id": "d7a43d6ebb32c5ba253c43313da37687", "name": "d7a43d6ebb32c5ba253c43313da37687", "lat": 38.91686216666667}, {"rental_uris": {"ios": "https://dc.lft.to/lastmile_qr_scan", "android": "https://dc.lft.to/lastmile_qr_scan"}, "fusion_lon": 0.0, "type": "electric_scooter", "is_reserved": 0, "lon": -77.02517266666666, "is_disabled": 0, "fusion_lat": 0.0, "bike_id": "8d473a7a5e8dd7fe61dc29ca23ee3f3e", "name": "8d473a7a5e8dd7fe61dc29ca23ee3f3e", "lat": 38.884797666666664}, {"rental_uris": {"ios": "https://dc.lft.to/lastmile_qr_scan", "android": "https://dc.lft.to/lastmile_qr_scan"}, "fusion_lon": 0.0, "type": "electric_scooter", "is_reserved": 0, "lon": -77.02566483333334, "is_disabled": 0, "fusion_lat": 0.0, "bike_id": "c743d1d03f92a32a7d35622bc7fa0719", "name": "c743d1d03f92a32a7d35622bc7fa0719", "lat": 38.92476033333333}, {"rental_uris": {"ios": "https://dc.lft.to/lastmile_qr_scan", "android": "https://dc.lft.to/lastmile_qr_scan"}, "fusion_lon": 0.0, "type": "electric_scooter", "is_reserved": 0, "lon": -77.00576933333333, "is_disabled": 0, "fusion_lat": 0.0, "bike_id": "19edafc386dd97cd634306e35407dbe9", "name": "19edafc386dd97cd634306e35407dbe9", "lat": 38.87629366666667}, {"rental_uris": {"ios": "https://dc.lft.to/lastmile_qr_scan", "android": "https://dc.lft.to/lastmile_qr_scan"}, "fusion_lon": 0.0, "type": "electric_scooter", "is_reserved": 0, "lon": -77.00729566666666, "is_disabled": 0, "fusion_lat": 0.0, "bike_id": "f7f81fc9cab3040629f0f18af2031f24", "name": "f7f81fc9cab3040629f0f18af2031f24", "lat": 38.876444666666664}, {"rental_uris": {"ios": "https://dc.lft.to/lastmile_qr_scan", "android": "https://dc.lft.to/lastmile_qr_scan"}, "fusion_lon": 0.0, "type": "electric_scooter", "is_reserved": 0, "lon": -77.03534283333333, "is_disabled": 0, "fusion_lat": 0.0, "bike_id": "a71eddb4e1d8ab5dcf128d305a58d53e", "name": "a71eddb4e1d8ab5dcf128d305a58d53e", "lat": 38.91864966666667}, {"rental_uris": {"ios": "https://dc.lft.to/lastmile_qr_scan", "android": "https://dc.lft.to/lastmile_qr_scan"}, "fusion_lon": 0.0, "type": "electric_scooter", "is_reserved": 0, "lon": -76.9961245, "is_disabled": 0, "fusion_lat": 0.0, "bike_id": "9a6888339eb7cabfda804099cf154354", "name": "9a6888339eb7cabfda804099cf154354", "lat": 38.88720333333333}, {"rental_uris": {"ios": "https://dc.lft.to/lastmile_qr_scan", "android": "https://dc.lft.to/lastmile_qr_scan"}, "fusion_lon": 0.0, "type": "electric_scooter", "is_reserved": 0, "lon": -77.07428716666666, "is_disabled": 0, "fusion_lat": 0.0, "bike_id": "752798ae5522c8dcc224d9d064471eeb", "name": "752798ae5522c8dcc224d9d064471eeb", "lat": 38.93585083333333}, {"rental_uris": {"ios": "https://dc.lft.to/lastmile_qr_scan", "android": "https://dc.lft.to/lastmile_qr_scan"}, "fusion_lon": 0.0, "type": "electric_scooter", "is_reserved": 0, "lon": -77.00203683333334, "is_disabled": 0, "fusion_lat": 0.0, "bike_id": "c826d14c21082122ab5420d868e4eaff", "name": "c826d14c21082122ab5420d868e4eaff", "lat": 38.90234566666667}, {"rental_uris": {"ios": "https://dc.lft.to/lastmile_qr_scan", "android": "https://dc.lft.to/lastmile_qr_scan"}, "fusion_lon": 0.0, "type": "electric_scooter", "is_reserved": 0, "lon": -77.04652833333333, "is_disabled": 0, "fusion_lat": 0.0, "bike_id": "444223bf044340d67e4474a90f8665a0", "name": "444223bf044340d67e4474a90f8665a0", "lat": 38.901925}, {"rental_uris": {"ios": "https://dc.lft.to/lastmile_qr_scan", "android": "https://dc.lft.to/lastmile_qr_scan"}, "fusion_lon": 0.0, "type": "electric_scooter", "is_reserved": 0, "lon": -77.01833, "is_disabled": 0, "fusion_lat": 0.0, "bike_id": "afbd55db667ea73d9296ceb2ec3310d0", "name": "afbd55db667ea73d9296ceb2ec3310d0", "lat": 38.89245666666667}, {"rental_uris": {"ios": "https://dc.lft.to/lastmile_qr_scan", "android": "https://dc.lft.to/lastmile_qr_scan"}, "fusion_lon": 0.0, "type": "electric_scooter", "is_reserved": 0, "lon": -77.01784966666666, "is_disabled": 0, "fusion_lat": 0.0, "bike_id": "563190e2a188cbd71a0c350c003e15c3", "name": "563190e2a188cbd71a0c350c003e15c3", "lat": 38.9212675}, {"rental_uris": {"ios": "https://dc.lft.to/lastmile_qr_scan", "android": "https://dc.lft.to/lastmile_qr_scan"}, "fusion_lon": 0.0, "type": "electric_scooter", "is_reserved": 0, "lon": -77.02419833333333, "is_disabled": 0, "fusion_lat": 0.0, "bike_id": "01e0059f36f37a8c240c60529e60be58", "name": "01e0059f36f37a8c240c60529e60be58", "lat": 38.902468166666665}, {"rental_uris": {"ios": "https://dc.lft.to/lastmile_qr_scan", "android": "https://dc.lft.to/lastmile_qr_scan"}, "fusion_lon": 0.0, "type": "electric_scooter", "is_reserved": 0, "lon": -77.0241305, "is_disabled": 0, "fusion_lat": 0.0, "bike_id": "4ab0dba8e9f0f231bc1d48b5beb8b681", "name": "4ab0dba8e9f0f231bc1d48b5beb8b681", "lat": 38.9367945}, {"rental_uris": {"ios": "https://dc.lft.to/lastmile_qr_scan", "android": "https://dc.lft.to/lastmile_qr_scan"}, "fusion_lon": 0.0, "type": "electric_scooter", "is_reserved": 0, "lon": -76.93264583333334, "is_disabled": 0, "fusion_lat": 0.0, "bike_id": "fbd7965d024c5b210d28723b8d7e6ff3", "name": "fbd7965d024c5b210d28723b8d7e6ff3", "lat": 38.88769466666667}, {"rental_uris": {"ios": "https://dc.lft.to/lastmile_qr_scan", "android": "https://dc.lft.to/lastmile_qr_scan"}, "fusion_lon": 0.0, "type": "electric_scooter", "is_reserved": 0, "lon": -77.01206483333333, "is_disabled": 0, "fusion_lat": 0.0, "bike_id": "5e2ef92877f9467debf4b99484ae0914", "name": "5e2ef92877f9467debf4b99484ae0914", "lat": 38.89755066666667}, {"rental_uris": {"ios": "https://dc.lft.to/lastmile_qr_scan", "android": "https://dc.lft.to/lastmile_qr_scan"}, "fusion_lon": 0.0, "type": "electric_bike", "is_reserved": 0, "lon": -76.98802633333334, "is_disabled": 0, "fusion_lat": 0.0, "bike_id": "a931766e18397213faef4f4d55054dee", "name": "a931766e18397213faef4f4d55054dee", "lat": 38.98883516666667}, {"rental_uris": {"ios": "https://dc.lft.to/lastmile_qr_scan", "android": "https://dc.lft.to/lastmile_qr_scan"}, "fusion_lon": 0.0, "type": "electric_scooter", "is_reserved": 0, "lon": -77.00791483333333, "is_disabled": 0, "fusion_lat": 0.0, "bike_id": "e9202f0a80a641b4c61a7ba15b641453", "name": "e9202f0a80a641b4c61a7ba15b641453", "lat": 38.9071375}, {"rental_uris": {"ios": "https://dc.lft.to/lastmile_qr_scan", "android": "https://dc.lft.to/lastmile_qr_scan"}, "fusion_lon": 0.0, "type": "electric_scooter", "is_reserved": 0, "lon": -77.01597183333334, "is_disabled": 0, "fusion_lat": 0.0, "bike_id": "9461aaa1872a73655885d7952e2dfccd", "name": "9461aaa1872a73655885d7952e2dfccd", "lat": 38.965918}, {"rental_uris": {"ios": "https://dc.lft.to/lastmile_qr_scan", "android": "https://dc.lft.to/lastmile_qr_scan"}, "fusion_lon": 0.0, "type": "electric_scooter", "is_reserved": 0, "lon": -77.0149975, "is_disabled": 0, "fusion_lat": 0.0, "bike_id": "dfba7114b6ddccb9e214de6f7a5b6231", "name": "dfba7114b6ddccb9e214de6f7a5b6231", "lat": 38.89292483333333}, {"rental_uris": {"ios": "https://dc.lft.to/lastmile_qr_scan", "android": "https://dc.lft.to/lastmile_qr_scan"}, "fusion_lon": 0.0, "type": "electric_scooter", "is_reserved": 0, "lon": -77.009175, "is_disabled": 0, "fusion_lat": 0.0, "bike_id": "c790fc433a7b7677ea6f9019e0f465ec", "name": "c790fc433a7b7677ea6f9019e0f465ec", "lat": 38.895532333333335}, {"rental_uris": {"ios": "https://dc.lft.to/lastmile_qr_scan", "android": "https://dc.lft.to/lastmile_qr_scan"}, "fusion_lon": 0.0, "type": "electric_scooter", "is_reserved": 0, "lon": -77.03213766666667, "is_disabled": 0, "fusion_lat": 0.0, "bike_id": "3c4c26ac0d101f8860a040ed1b40fdfd", "name": "3c4c26ac0d101f8860a040ed1b40fdfd", "lat": 38.911293}, {"rental_uris": {"ios": "https://dc.lft.to/lastmile_qr_scan", "android": "https://dc.lft.to/lastmile_qr_scan"}, "fusion_lon": 0.0, "type": "electric_scooter", "is_reserved": 0, "lon": -77.028703, "is_disabled": 0, "fusion_lat": 0.0, "bike_id": "02234dbc96f0127f6ff0144dc4a3e8e1", "name": "02234dbc96f0127f6ff0144dc4a3e8e1", "lat": 38.90501916666667}, {"rental_uris": {"ios": "https://dc.lft.to/lastmile_qr_scan", "android": "https://dc.lft.to/lastmile_qr_scan"}, "fusion_lon": 0.0, "type": "electric_scooter", "is_reserved": 0, "lon": -77.02204816666666, "is_disabled": 0, "fusion_lat": 0.0, "bike_id": "23f413d05c7577deaf618f533a52ed83", "name": "23f413d05c7577deaf618f533a52ed83", "lat": 38.92088583333334}, {"rental_uris": {"ios": "https://dc.lft.to/lastmile_qr_scan", "android": "https://dc.lft.to/lastmile_qr_scan"}, "fusion_lon": 0.0, "type": "electric_scooter", "is_reserved": 0, "lon": -77.0049985, "is_disabled": 0, "fusion_lat": 0.0, "bike_id": "1e17045135ea5cc5ccb77f71df0b1089", "name": "1e17045135ea5cc5ccb77f71df0b1089", "lat": 38.9074905}, {"rental_uris": {"ios": "https://dc.lft.to/lastmile_qr_scan", "android": "https://dc.lft.to/lastmile_qr_scan"}, "fusion_lon": 0.0, "type": "electric_bike", "is_reserved": 0, "lon": -77.03880866666667, "is_disabled": 0, "fusion_lat": 0.0, "bike_id": "23da54440efd1786ee4913f7b9244362", "name": "23da54440efd1786ee4913f7b9244362", "lat": 39.02620483333333}, {"rental_uris": {"ios": "https://dc.lft.to/lastmile_qr_scan", "android": "https://dc.lft.to/lastmile_qr_scan"}, "fusion_lon": 0.0, "type": "electric_scooter", "is_reserved": 0, "lon": -77.031872, "is_disabled": 0, "fusion_lat": 0.0, "bike_id": "32e694ddd46c7b4ec3ef75f79e1b0e70", "name": "32e694ddd46c7b4ec3ef75f79e1b0e70", "lat": 38.92482116666667}, {"rental_uris": {"ios": "https://dc.lft.to/lastmile_qr_scan", "android": "https://dc.lft.to/lastmile_qr_scan"}, "fusion_lon": 0.0, "type": "electric_scooter", "is_reserved": 0, "lon": -76.998766, "is_disabled": 0, "fusion_lat": 0.0, "bike_id": "535e75922988291ea086f612b7010a7e", "name": "535e75922988291ea086f612b7010a7e", "lat": 38.900174666666665}, {"rental_uris": {"ios": "https://dc.lft.to/lastmile_qr_scan", "android": "https://dc.lft.to/lastmile_qr_scan"}, "fusion_lon": 0.0, "type": "electric_scooter", "is_reserved": 0, "lon": -77.0325725, "is_disabled": 0, "fusion_lat": 0.0, "bike_id": "77a818154f98aca49ec141eecb17a0e3", "name": "77a818154f98aca49ec141eecb17a0e3", "lat": 38.911185333333336}, {"rental_uris": {"ios": "https://dc.lft.to/lastmile_qr_scan", "android": "https://dc.lft.to/lastmile_qr_scan"}, "fusion_lon": 0.0, "type": "electric_bike", "is_reserved": 0, "lon": -76.93870766666667, "is_disabled": 0, "fusion_lat": 0.0, "bike_id": "b7b0ac0e8e913f2f4c038ba26fa97e54", "name": "b7b0ac0e8e913f2f4c038ba26fa97e54", "lat": 38.956291666666665}, {"rental_uris": {"ios": "https://dc.lft.to/lastmile_qr_scan", "android": "https://dc.lft.to/lastmile_qr_scan"}, "fusion_lon": 0.0, "type": "electric_scooter", "is_reserved": 0, "lon": -77.05996266666666, "is_disabled": 0, "fusion_lat": 0.0, "bike_id": "ff1e1b5ec457b5f70729994733c46d8d", "name": "ff1e1b5ec457b5f70729994733c46d8d", "lat": 38.927110666666664}, {"rental_uris": {"ios": "https://dc.lft.to/lastmile_qr_scan", "android": "https://dc.lft.to/lastmile_qr_scan"}, "fusion_lon": 0.0, "type": "electric_scooter", "is_reserved": 0, "lon": -77.04456, "is_disabled": 0, "fusion_lat": 0.0, "bike_id": "e912735a31bf90df1fdfba99be416631", "name": "e912735a31bf90df1fdfba99be416631", "lat": 38.9153515}, {"rental_uris": {"ios": "https://dc.lft.to/lastmile_qr_scan", "android": "https://dc.lft.to/lastmile_qr_scan"}, "fusion_lon": 0.0, "type": "electric_scooter", "is_reserved": 0, "lon": -77.045122, "is_disabled": 0, "fusion_lat": 0.0, "bike_id": "b0ed11316659eab676b62317a2322f36", "name": "b0ed11316659eab676b62317a2322f36", "lat": 38.90781366666667}, {"rental_uris": {"ios": "https://dc.lft.to/lastmile_qr_scan", "android": "https://dc.lft.to/lastmile_qr_scan"}, "fusion_lon": 0.0, "type": "electric_scooter", "is_reserved": 0, "lon": -77.028562, "is_disabled": 0, "fusion_lat": 0.0, "bike_id": "8c11e0e3f7afc58aa32d879e027e7de1", "name": "8c11e0e3f7afc58aa32d879e027e7de1", "lat": 38.913069666666665}, {"rental_uris": {"ios": "https://dc.lft.to/lastmile_qr_scan", "android": "https://dc.lft.to/lastmile_qr_scan"}, "fusion_lon": 0.0, "type": "electric_bike", "is_reserved": 0, "lon": -76.98764283333334, "is_disabled": 0, "fusion_lat": 0.0, "bike_id": "d9bc1fae6197070c5240368f68ae436b", "name": "d9bc1fae6197070c5240368f68ae436b", "lat": 38.85782666666667}, {"rental_uris": {"ios": "https://dc.lft.to/lastmile_qr_scan", "android": "https://dc.lft.to/lastmile_qr_scan"}, "fusion_lon": 0.0, "type": "electric_scooter", "is_reserved": 0, "lon": -77.0095425, "is_disabled": 0, "fusion_lat": 0.0, "bike_id": "b8e31704cb95bcf4f014f13e8b9bd69d", "name": "b8e31704cb95bcf4f014f13e8b9bd69d", "lat": 38.87628633333333}, {"rental_uris": {"ios": "https://dc.lft.to/lastmile_qr_scan", "android": "https://dc.lft.to/lastmile_qr_scan"}, "fusion_lon": 0.0, "type": "electric_scooter", "is_reserved": 0, "lon": -76.988273, "is_disabled": 0, "fusion_lat": 0.0, "bike_id": "e10ea5086ec67e8d9bf841a1e5e650ff", "name": "e10ea5086ec67e8d9bf841a1e5e650ff", "lat": 38.89090216666666}, {"rental_uris": {"ios": "https://dc.lft.to/lastmile_qr_scan", "android": "https://dc.lft.to/lastmile_qr_scan"}, "fusion_lon": 0.0, "type": "electric_scooter", "is_reserved": 0, "lon": -77.02130016666666, "is_disabled": 0, "fusion_lat": 0.0, "bike_id": "7602c70e833d340adfaab904c3915276", "name": "7602c70e833d340adfaab904c3915276", "lat": 38.92422216666667}, {"rental_uris": {"ios": "https://dc.lft.to/lastmile_qr_scan", "android": "https://dc.lft.to/lastmile_qr_scan"}, "fusion_lon": 0.0, "type": "electric_scooter", "is_reserved": 0, "lon": -76.98179433333334, "is_disabled": 0, "fusion_lat": 0.0, "bike_id": "2747ecdd0dec39ed58d2a3a8a1a47b4d", "name": "2747ecdd0dec39ed58d2a3a8a1a47b4d", "lat": 38.88623333333334}, {"rental_uris": {"ios": "https://dc.lft.to/lastmile_qr_scan", "android": "https://dc.lft.to/lastmile_qr_scan"}, "fusion_lon": 0.0, "type": "electric_scooter", "is_reserved": 0, "lon": -76.983479, "is_disabled": 0, "fusion_lat": 0.0, "bike_id": "7a5b4eff7e0240bbacb1c640aac7bdf6", "name": "7a5b4eff7e0240bbacb1c640aac7bdf6", "lat": 38.9125185}, {"rental_uris": {"ios": "https://dc.lft.to/lastmile_qr_scan", "android": "https://dc.lft.to/lastmile_qr_scan"}, "fusion_lon": 0.0, "type": "electric_scooter", "is_reserved": 0, "lon": -77.03731333333333, "is_disabled": 0, "fusion_lat": 0.0, "bike_id": "c00dde5bf66c4a0441dcb0a01563646b", "name": "c00dde5bf66c4a0441dcb0a01563646b", "lat": 38.918201333333336}, {"rental_uris": {"ios": "https://dc.lft.to/lastmile_qr_scan", "android": "https://dc.lft.to/lastmile_qr_scan"}, "fusion_lon": 0.0, "type": "electric_scooter", "is_reserved": 0, "lon": -77.03524833333333, "is_disabled": 0, "fusion_lat": 0.0, "bike_id": "f5136d061ae9beb7f9f5160192ce3b67", "name": "f5136d061ae9beb7f9f5160192ce3b67", "lat": 38.9262255}, {"rental_uris": {"ios": "https://dc.lft.to/lastmile_qr_scan", "android": "https://dc.lft.to/lastmile_qr_scan"}, "fusion_lon": 0.0, "type": "electric_scooter", "is_reserved": 0, "lon": -76.98414683333333, "is_disabled": 0, "fusion_lat": 0.0, "bike_id": "273c0e434e9cf39ed954f3f06de92799", "name": "273c0e434e9cf39ed954f3f06de92799", "lat": 38.91589966666667}, {"rental_uris": {"ios": "https://dc.lft.to/lastmile_qr_scan", "android": "https://dc.lft.to/lastmile_qr_scan"}, "fusion_lon": 0.0, "type": "electric_scooter", "is_reserved": 0, "lon": -77.030399, "is_disabled": 0, "fusion_lat": 0.0, "bike_id": "0b26484997a91ee30dd39cdacac8ebf4", "name": "0b26484997a91ee30dd39cdacac8ebf4", "lat": 38.88424966666667}, {"rental_uris": {"ios": "https://dc.lft.to/lastmile_qr_scan", "android": "https://dc.lft.to/lastmile_qr_scan"}, "fusion_lon": 0.0, "type": "electric_bike", "is_reserved": 0, "lon": -77.1393455, "is_disabled": 0, "fusion_lat": 0.0, "bike_id": "9ed293d78a9fcb5cbc1b6a3001b907f7", "name": "9ed293d78a9fcb5cbc1b6a3001b907f7", "lat": 38.84673566666667}, {"rental_uris": {"ios": "https://dc.lft.to/lastmile_qr_scan", "android": "https://dc.lft.to/lastmile_qr_scan"}, "fusion_lon": 0.0, "type": "electric_scooter", "is_reserved": 0, "lon": -77.015581, "is_disabled": 0, "fusion_lat": 0.0, "bike_id": "3816e5bdfe6d5b53196b1be91cea7ae1", "name": "3816e5bdfe6d5b53196b1be91cea7ae1", "lat": 38.89370816666667}, {"rental_uris": {"ios": "https://dc.lft.to/lastmile_qr_scan", "android": "https://dc.lft.to/lastmile_qr_scan"}, "fusion_lon": 0.0, "type": "electric_scooter", "is_reserved": 0, "lon": -77.03140566666667, "is_disabled": 0, "fusion_lat": 0.0, "bike_id": "163f646525cec9048eb05dd65120823f", "name": "163f646525cec9048eb05dd65120823f", "lat": 38.901109166666664}, {"rental_uris": {"ios": "https://dc.lft.to/lastmile_qr_scan", "android": "https://dc.lft.to/lastmile_qr_scan"}, "fusion_lon": 0.0, "type": "electric_scooter", "is_reserved": 0, "lon": -77.04092933333334, "is_disabled": 0, "fusion_lat": 0.0, "bike_id": "de1445efd093a442bbbd6b09fb15457a", "name": "de1445efd093a442bbbd6b09fb15457a", "lat": 38.919841166666664}, {"rental_uris": {"ios": "https://dc.lft.to/lastmile_qr_scan", "android": "https://dc.lft.to/lastmile_qr_scan"}, "fusion_lon": 0.0, "type": "electric_scooter", "is_reserved": 0, "lon": -77.0173765, "is_disabled": 0, "fusion_lat": 0.0, "bike_id": "b52d19863cabfd831044ef6e3207c356", "name": "b52d19863cabfd831044ef6e3207c356", "lat": 38.975157}, {"rental_uris": {"ios": "https://dc.lft.to/lastmile_qr_scan", "android": "https://dc.lft.to/lastmile_qr_scan"}, "fusion_lon": 0.0, "type": "electric_scooter", "is_reserved": 0, "lon": -77.02590866666667, "is_disabled": 0, "fusion_lat": 0.0, "bike_id": "8638fe67297336880054fd84dc1f1150", "name": "8638fe67297336880054fd84dc1f1150", "lat": 38.899591}, {"rental_uris": {"ios": "https://dc.lft.to/lastmile_qr_scan", "android": "https://dc.lft.to/lastmile_qr_scan"}, "fusion_lon": 0.0, "type": "electric_scooter", "is_reserved": 0, "lon": -76.998964, "is_disabled": 0, "fusion_lat": 0.0, "bike_id": "f32fb2a0f8ce2683eb06fb08eba08568", "name": "f32fb2a0f8ce2683eb06fb08eba08568", "lat": 38.92093716666667}, {"rental_uris": {"ios": "https://dc.lft.to/lastmile_qr_scan", "android": "https://dc.lft.to/lastmile_qr_scan"}, "fusion_lon": 0.0, "type": "electric_scooter", "is_reserved": 0, "lon": -77.04811016666666, "is_disabled": 0, "fusion_lat": 0.0, "bike_id": "cb6f3da0ca20a981d34f46d17071dfc4", "name": "cb6f3da0ca20a981d34f46d17071dfc4", "lat": 38.90194616666667}, {"rental_uris": {"ios": "https://dc.lft.to/lastmile_qr_scan", "android": "https://dc.lft.to/lastmile_qr_scan"}, "fusion_lon": 0.0, "type": "electric_scooter", "is_reserved": 0, "lon": -76.99611816666666, "is_disabled": 0, "fusion_lat": 0.0, "bike_id": "2277ecb463efcc3a53d22467e5f987f1", "name": "2277ecb463efcc3a53d22467e5f987f1", "lat": 38.89616683333333}, {"rental_uris": {"ios": "https://dc.lft.to/lastmile_qr_scan", "android": "https://dc.lft.to/lastmile_qr_scan"}, "fusion_lon": 0.0, "type": "electric_scooter", "is_reserved": 0, "lon": -77.027639, "is_disabled": 0, "fusion_lat": 0.0, "bike_id": "169b7743b2b48a2a364ccb248139fd86", "name": "169b7743b2b48a2a364ccb248139fd86", "lat": 38.91048333333333}, {"rental_uris": {"ios": "https://dc.lft.to/lastmile_qr_scan", "android": "https://dc.lft.to/lastmile_qr_scan"}, "fusion_lon": 0.0, "type": "electric_scooter", "is_reserved": 0, "lon": -77.014919, "is_disabled": 0, "fusion_lat": 0.0, "bike_id": "62372e8f84c778299f1be9339545d5bb", "name": "62372e8f84c778299f1be9339545d5bb", "lat": 38.892923833333334}, {"rental_uris": {"ios": "https://dc.lft.to/lastmile_qr_scan", "android": "https://dc.lft.to/lastmile_qr_scan"}, "fusion_lon": 0.0, "type": "electric_scooter", "is_reserved": 0, "lon": -77.00885666666667, "is_disabled": 0, "fusion_lat": 0.0, "bike_id": "d3807583a6ace0221696cfd81ea2b4d5", "name": "d3807583a6ace0221696cfd81ea2b4d5", "lat": 38.924767}, {"rental_uris": {"ios": "https://dc.lft.to/lastmile_qr_scan", "android": "https://dc.lft.to/lastmile_qr_scan"}, "fusion_lon": 0.0, "type": "electric_scooter", "is_reserved": 0, "lon": -77.012133, "is_disabled": 0, "fusion_lat": 0.0, "bike_id": "23c5cdbbe4858606c75acf0ef9b398cc", "name": "23c5cdbbe4858606c75acf0ef9b398cc", "lat": 38.921152666666664}, {"rental_uris": {"ios": "https://dc.lft.to/lastmile_qr_scan", "android": "https://dc.lft.to/lastmile_qr_scan"}, "fusion_lon": 0.0, "type": "electric_scooter", "is_reserved": 0, "lon": -77.02023316666667, "is_disabled": 0, "fusion_lat": 0.0, "bike_id": "d5e00e606c05476ca278998ac3561d2c", "name": "d5e00e606c05476ca278998ac3561d2c", "lat": 38.926838333333336}, {"rental_uris": {"ios": "https://dc.lft.to/lastmile_qr_scan", "android": "https://dc.lft.to/lastmile_qr_scan"}, "fusion_lon": 0.0, "type": "electric_scooter", "is_reserved": 0, "lon": -77.01375633333333, "is_disabled": 0, "fusion_lat": 0.0, "bike_id": "ae9f39caf331ed9ad5ba7ad4c0cbbe22", "name": "ae9f39caf331ed9ad5ba7ad4c0cbbe22", "lat": 38.8871735}, {"rental_uris": {"ios": "https://dc.lft.to/lastmile_qr_scan", "android": "https://dc.lft.to/lastmile_qr_scan"}, "fusion_lon": 0.0, "type": "electric_scooter", "is_reserved": 0, "lon": -77.07240616666667, "is_disabled": 0, "fusion_lat": 0.0, "bike_id": "f82fdc94fc238ff466c598ec2dff7171", "name": "f82fdc94fc238ff466c598ec2dff7171", "lat": 38.93949033333333}, {"rental_uris": {"ios": "https://dc.lft.to/lastmile_qr_scan", "android": "https://dc.lft.to/lastmile_qr_scan"}, "fusion_lon": 0.0, "type": "electric_scooter", "is_reserved": 0, "lon": -77.04483716666667, "is_disabled": 0, "fusion_lat": 0.0, "bike_id": "0fafd73fa984ba611c107d557619b05d", "name": "0fafd73fa984ba611c107d557619b05d", "lat": 38.91061916666666}, {"rental_uris": {"ios": "https://dc.lft.to/lastmile_qr_scan", "android": "https://dc.lft.to/lastmile_qr_scan"}, "fusion_lon": 0.0, "type": "electric_bike", "is_reserved": 0, "lon": -76.91065233333333, "is_disabled": 0, "fusion_lat": 0.0, "bike_id": "ffb043c6041db40b2b0179db1f3c2abe", "name": "ffb043c6041db40b2b0179db1f3c2abe", "lat": 39.010747}, {"rental_uris": {"ios": "https://dc.lft.to/lastmile_qr_scan", "android": "https://dc.lft.to/lastmile_qr_scan"}, "fusion_lon": 0.0, "type": "electric_scooter", "is_reserved": 0, "lon": -77.04478283333333, "is_disabled": 0, "fusion_lat": 0.0, "bike_id": "365a688e17e7319c25657eeb29e8aec3", "name": "365a688e17e7319c25657eeb29e8aec3", "lat": 38.91369133333333}, {"rental_uris": {"ios": "https://dc.lft.to/lastmile_qr_scan", "android": "https://dc.lft.to/lastmile_qr_scan"}, "fusion_lon": 0.0, "type": "electric_bike", "is_reserved": 0, "lon": -77.096865, "is_disabled": 0, "fusion_lat": 0.0, "bike_id": "c90e7e66acdd629dabf30dbcabd791ab", "name": "c90e7e66acdd629dabf30dbcabd791ab", "lat": 38.807363}, {"rental_uris": {"ios": "https://dc.lft.to/lastmile_qr_scan", "android": "https://dc.lft.to/lastmile_qr_scan"}, "fusion_lon": 0.0, "type": "electric_scooter", "is_reserved": 0, "lon": -77.05325483333333, "is_disabled": 0, "fusion_lat": 0.0, "bike_id": "9442a1ad4e0713ba20db0d2b3fd1f4ae", "name": "9442a1ad4e0713ba20db0d2b3fd1f4ae", "lat": 38.9063735}, {"rental_uris": {"ios": "https://dc.lft.to/lastmile_qr_scan", "android": "https://dc.lft.to/lastmile_qr_scan"}, "fusion_lon": 0.0, "type": "electric_scooter", "is_reserved": 0, "lon": -77.04355916666667, "is_disabled": 0, "fusion_lat": 0.0, "bike_id": "81739c7760ac459e937c782281d44970", "name": "81739c7760ac459e937c782281d44970", "lat": 38.92171166666667}, {"rental_uris": {"ios": "https://dc.lft.to/lastmile_qr_scan", "android": "https://dc.lft.to/lastmile_qr_scan"}, "fusion_lon": 0.0, "type": "electric_bike", "is_reserved": 0, "lon": -77.23392616666666, "is_disabled": 0, "fusion_lat": 0.0, "bike_id": "19817c0b1d66996f739885cc7b08074b", "name": "19817c0b1d66996f739885cc7b08074b", "lat": 38.87174666666667}, {"rental_uris": {"ios": "https://dc.lft.to/lastmile_qr_scan", "android": "https://dc.lft.to/lastmile_qr_scan"}, "fusion_lon": 0.0, "type": "electric_bike", "is_reserved": 0, "lon": -77.02727, "is_disabled": 0, "fusion_lat": 0.0, "bike_id": "95ca335735afb38724f74f89a535ec71", "name": "95ca335735afb38724f74f89a535ec71", "lat": 38.971516}, {"rental_uris": {"ios": "https://dc.lft.to/lastmile_qr_scan", "android": "https://dc.lft.to/lastmile_qr_scan"}, "fusion_lon": 0.0, "type": "electric_scooter", "is_reserved": 0, "lon": -76.98339516666667, "is_disabled": 0, "fusion_lat": 0.0, "bike_id": "a5ddd40f00cc32347683797986027528", "name": "a5ddd40f00cc32347683797986027528", "lat": 38.895442}, {"rental_uris": {"ios": "https://dc.lft.to/lastmile_qr_scan", "android": "https://dc.lft.to/lastmile_qr_scan"}, "fusion_lon": 0.0, "type": "electric_scooter", "is_reserved": 0, "lon": -77.04547916666667, "is_disabled": 0, "fusion_lat": 0.0, "bike_id": "b1026d801f83c38c6612e20269edd576", "name": "b1026d801f83c38c6612e20269edd576", "lat": 38.90731016666667}, {"rental_uris": {"ios": "https://dc.lft.to/lastmile_qr_scan", "android": "https://dc.lft.to/lastmile_qr_scan"}, "fusion_lon": 0.0, "type": "electric_scooter", "is_reserved": 0, "lon": -77.00032433333334, "is_disabled": 0, "fusion_lat": 0.0, "bike_id": "4f76ac1c7cbb547b2dc4609aa44a119b", "name": "4f76ac1c7cbb547b2dc4609aa44a119b", "lat": 38.87398316666667}, {"rental_uris": {"ios": "https://dc.lft.to/lastmile_qr_scan", "android": "https://dc.lft.to/lastmile_qr_scan"}, "fusion_lon": 0.0, "type": "electric_scooter", "is_reserved": 0, "lon": -77.006043, "is_disabled": 0, "fusion_lat": 0.0, "bike_id": "6afbb6e311333692e29a18445af46520", "name": "6afbb6e311333692e29a18445af46520", "lat": 38.911070333333335}, {"rental_uris": {"ios": "https://dc.lft.to/lastmile_qr_scan", "android": "https://dc.lft.to/lastmile_qr_scan"}, "fusion_lon": 0.0, "type": "electric_scooter", "is_reserved": 0, "lon": -76.9979425, "is_disabled": 0, "fusion_lat": 0.0, "bike_id": "8037ac9aa98ebdf506ca0aa5f5ff7faa", "name": "8037ac9aa98ebdf506ca0aa5f5ff7faa", "lat": 38.8855615}, {"rental_uris": {"ios": "https://dc.lft.to/lastmile_qr_scan", "android": "https://dc.lft.to/lastmile_qr_scan"}, "fusion_lon": 0.0, "type": "electric_scooter", "is_reserved": 0, "lon": -77.04246183333333, "is_disabled": 0, "fusion_lat": 0.0, "bike_id": "3140acf60095741df906e584a67c12e8", "name": "3140acf60095741df906e584a67c12e8", "lat": 38.922125333333334}, {"rental_uris": {"ios": "https://dc.lft.to/lastmile_qr_scan", "android": "https://dc.lft.to/lastmile_qr_scan"}, "fusion_lon": 0.0, "type": "electric_scooter", "is_reserved": 0, "lon": -77.03185583333334, "is_disabled": 0, "fusion_lat": 0.0, "bike_id": "96b017a54707d540c50b40fc284e0de1", "name": "96b017a54707d540c50b40fc284e0de1", "lat": 38.91319983333333}, {"rental_uris": {"ios": "https://dc.lft.to/lastmile_qr_scan", "android": "https://dc.lft.to/lastmile_qr_scan"}, "fusion_lon": 0.0, "type": "electric_scooter", "is_reserved": 0, "lon": -77.038655, "is_disabled": 0, "fusion_lat": 0.0, "bike_id": "1bf2f245cb1e8f7e809af63e4380875d", "name": "1bf2f245cb1e8f7e809af63e4380875d", "lat": 38.917075833333335}, {"rental_uris": {"ios": "https://dc.lft.to/lastmile_qr_scan", "android": "https://dc.lft.to/lastmile_qr_scan"}, "fusion_lon": 0.0, "type": "electric_scooter", "is_reserved": 0, "lon": -77.00066066666666, "is_disabled": 0, "fusion_lat": 0.0, "bike_id": "06b249a32d0fcf8fee9c9b75dedc0b18", "name": "06b249a32d0fcf8fee9c9b75dedc0b18", "lat": 38.886936}, {"rental_uris": {"ios": "https://dc.lft.to/lastmile_qr_scan", "android": "https://dc.lft.to/lastmile_qr_scan"}, "fusion_lon": 0.0, "type": "electric_scooter", "is_reserved": 0, "lon": -77.054504, "is_disabled": 0, "fusion_lat": 0.0, "bike_id": "831e7078441240f227b676850d6a67d0", "name": "831e7078441240f227b676850d6a67d0", "lat": 38.928391}, {"rental_uris": {"ios": "https://dc.lft.to/lastmile_qr_scan", "android": "https://dc.lft.to/lastmile_qr_scan"}, "fusion_lon": 0.0, "type": "electric_scooter", "is_reserved": 0, "lon": -77.0188375, "is_disabled": 0, "fusion_lat": 0.0, "bike_id": "badfff67296ed20edbd44589158812bd", "name": "badfff67296ed20edbd44589158812bd", "lat": 38.877604}, {"rental_uris": {"ios": "https://dc.lft.to/lastmile_qr_scan", "android": "https://dc.lft.to/lastmile_qr_scan"}, "fusion_lon": 0.0, "type": "electric_scooter", "is_reserved": 0, "lon": -77.03401916666667, "is_disabled": 0, "fusion_lat": 0.0, "bike_id": "1543ca854e355222f3c7c96da854c47b", "name": "1543ca854e355222f3c7c96da854c47b", "lat": 38.96683633333333}, {"rental_uris": {"ios": "https://dc.lft.to/lastmile_qr_scan", "android": "https://dc.lft.to/lastmile_qr_scan"}, "fusion_lon": 0.0, "type": "electric_scooter", "is_reserved": 0, "lon": -77.033536, "is_disabled": 0, "fusion_lat": 0.0, "bike_id": "fbccf6f8a0a58b7fb31317870464093f", "name": "fbccf6f8a0a58b7fb31317870464093f", "lat": 38.9096385}, {"rental_uris": {"ios": "https://dc.lft.to/lastmile_qr_scan", "android": "https://dc.lft.to/lastmile_qr_scan"}, "fusion_lon": 0.0, "type": "electric_scooter", "is_reserved": 0, "lon": -77.055202, "is_disabled": 0, "fusion_lat": 0.0, "bike_id": "2c74b8c0309e971659d70220a737c7e0", "name": "2c74b8c0309e971659d70220a737c7e0", "lat": 38.910529833333335}, {"rental_uris": {"ios": "https://dc.lft.to/lastmile_qr_scan", "android": "https://dc.lft.to/lastmile_qr_scan"}, "fusion_lon": 0.0, "type": "electric_scooter", "is_reserved": 0, "lon": -77.03760483333333, "is_disabled": 0, "fusion_lat": 0.0, "bike_id": "8eb4fd64c68e98bc90196424bd9f3e04", "name": "8eb4fd64c68e98bc90196424bd9f3e04", "lat": 38.90227616666667}, {"rental_uris": {"ios": "https://dc.lft.to/lastmile_qr_scan", "android": "https://dc.lft.to/lastmile_qr_scan"}, "fusion_lon": 0.0, "type": "electric_scooter", "is_reserved": 0, "lon": -77.03444133333333, "is_disabled": 0, "fusion_lat": 0.0, "bike_id": "5c76af2fe8c1fccf843ec1004fbb131d", "name": "5c76af2fe8c1fccf843ec1004fbb131d", "lat": 38.918003166666665}, {"rental_uris": {"ios": "https://dc.lft.to/lastmile_qr_scan", "android": "https://dc.lft.to/lastmile_qr_scan"}, "fusion_lon": 0.0, "type": "electric_bike", "is_reserved": 0, "lon": -76.99650216666667, "is_disabled": 0, "fusion_lat": 0.0, "bike_id": "27ba6ec4afb49172f8409698cb5a9966", "name": "27ba6ec4afb49172f8409698cb5a9966", "lat": 38.967763166666664}, {"rental_uris": {"ios": "https://dc.lft.to/lastmile_qr_scan", "android": "https://dc.lft.to/lastmile_qr_scan"}, "fusion_lon": 0.0, "type": "electric_scooter", "is_reserved": 0, "lon": -77.01748433333333, "is_disabled": 0, "fusion_lat": 0.0, "bike_id": "56148a33925f3e0d87f2f0c8bcdea5c1", "name": "56148a33925f3e0d87f2f0c8bcdea5c1", "lat": 38.88178583333333}, {"rental_uris": {"ios": "https://dc.lft.to/lastmile_qr_scan", "android": "https://dc.lft.to/lastmile_qr_scan"}, "fusion_lon": 0.0, "type": "electric_scooter", "is_reserved": 0, "lon": -77.0114575, "is_disabled": 0, "fusion_lat": 0.0, "bike_id": "f925fabf4387883d3ad10e1837ef805a", "name": "f925fabf4387883d3ad10e1837ef805a", "lat": 38.911023}, {"rental_uris": {"ios": "https://dc.lft.to/lastmile_qr_scan", "android": "https://dc.lft.to/lastmile_qr_scan"}, "fusion_lon": 0.0, "type": "electric_scooter", "is_reserved": 0, "lon": -77.0451355, "is_disabled": 0, "fusion_lat": 0.0, "bike_id": "72a6365a4b9a7b7ffae3fdd1e99c2fd8", "name": "72a6365a4b9a7b7ffae3fdd1e99c2fd8", "lat": 38.89604633333333}, {"rental_uris": {"ios": "https://dc.lft.to/lastmile_qr_scan", "android": "https://dc.lft.to/lastmile_qr_scan"}, "fusion_lon": 0.0, "type": "electric_scooter", "is_reserved": 0, "lon": -76.98154616666666, "is_disabled": 0, "fusion_lat": 0.0, "bike_id": "d3aa9b0917dc32b053776c46a5e2a00a", "name": "d3aa9b0917dc32b053776c46a5e2a00a", "lat": 38.904416166666664}, {"rental_uris": {"ios": "https://dc.lft.to/lastmile_qr_scan", "android": "https://dc.lft.to/lastmile_qr_scan"}, "fusion_lon": 0.0, "type": "electric_scooter", "is_reserved": 0, "lon": -77.07232333333333, "is_disabled": 0, "fusion_lat": 0.0, "bike_id": "051c33e8b8077ee604653599f2fba6ce", "name": "051c33e8b8077ee604653599f2fba6ce", "lat": 38.93865133333333}, {"rental_uris": {"ios": "https://dc.lft.to/lastmile_qr_scan", "android": "https://dc.lft.to/lastmile_qr_scan"}, "fusion_lon": 0.0, "type": "electric_bike", "is_reserved": 0, "lon": -77.08365583333334, "is_disabled": 0, "fusion_lat": 0.0, "bike_id": "befd21f10b94c0270873af088fa6f5f6", "name": "befd21f10b94c0270873af088fa6f5f6", "lat": 38.832689333333335}, {"rental_uris": {"ios": "https://dc.lft.to/lastmile_qr_scan", "android": "https://dc.lft.to/lastmile_qr_scan"}, "fusion_lon": 0.0, "type": "electric_scooter", "is_reserved": 0, "lon": -77.0088885, "is_disabled": 0, "fusion_lat": 0.0, "bike_id": "f05847b0dea082709540addfadc8ce6c", "name": "f05847b0dea082709540addfadc8ce6c", "lat": 38.87524583333333}, {"rental_uris": {"ios": "https://dc.lft.to/lastmile_qr_scan", "android": "https://dc.lft.to/lastmile_qr_scan"}, "fusion_lon": 0.0, "type": "electric_scooter", "is_reserved": 0, "lon": -77.03808633333334, "is_disabled": 0, "fusion_lat": 0.0, "bike_id": "69311a41c4b03b3a3042438699b5bfac", "name": "69311a41c4b03b3a3042438699b5bfac", "lat": 38.930275333333334}, {"rental_uris": {"ios": "https://dc.lft.to/lastmile_qr_scan", "android": "https://dc.lft.to/lastmile_qr_scan"}, "fusion_lon": 0.0, "type": "electric_scooter", "is_reserved": 0, "lon": -77.019404, "is_disabled": 0, "fusion_lat": 0.0, "bike_id": "4204ed3a9461f7fca84af2ba528db766", "name": "4204ed3a9461f7fca84af2ba528db766", "lat": 38.92429083333333}, {"rental_uris": {"ios": "https://dc.lft.to/lastmile_qr_scan", "android": "https://dc.lft.to/lastmile_qr_scan"}, "fusion_lon": 0.0, "type": "electric_scooter", "is_reserved": 0, "lon": -77.03926933333334, "is_disabled": 0, "fusion_lat": 0.0, "bike_id": "1dcee2e79d0e77efa5890679a9d2142f", "name": "1dcee2e79d0e77efa5890679a9d2142f", "lat": 38.921055333333335}, {"rental_uris": {"ios": "https://dc.lft.to/lastmile_qr_scan", "android": "https://dc.lft.to/lastmile_qr_scan"}, "fusion_lon": 0.0, "type": "electric_scooter", "is_reserved": 0, "lon": -77.0203055, "is_disabled": 0, "fusion_lat": 0.0, "bike_id": "51e904915a6cb98c58b3a071fa0772d3", "name": "51e904915a6cb98c58b3a071fa0772d3", "lat": 38.92437133333333}, {"rental_uris": {"ios": "https://dc.lft.to/lastmile_qr_scan", "android": "https://dc.lft.to/lastmile_qr_scan"}, "fusion_lon": 0.0, "type": "electric_scooter", "is_reserved": 0, "lon": -77.02225, "is_disabled": 0, "fusion_lat": 0.0, "bike_id": "287de7efdd4eab64b98ca9cbbed83837", "name": "287de7efdd4eab64b98ca9cbbed83837", "lat": 38.89967583333333}, {"rental_uris": {"ios": "https://dc.lft.to/lastmile_qr_scan", "android": "https://dc.lft.to/lastmile_qr_scan"}, "fusion_lon": 0.0, "type": "electric_scooter", "is_reserved": 0, "lon": -77.021586, "is_disabled": 0, "fusion_lat": 0.0, "bike_id": "d3b7a85a9ec5beb8d7156e55b5e3015a", "name": "d3b7a85a9ec5beb8d7156e55b5e3015a", "lat": 38.893086833333335}, {"rental_uris": {"ios": "https://dc.lft.to/lastmile_qr_scan", "android": "https://dc.lft.to/lastmile_qr_scan"}, "fusion_lon": 0.0, "type": "electric_scooter", "is_reserved": 0, "lon": -77.044137, "is_disabled": 0, "fusion_lat": 0.0, "bike_id": "69ee59e586e252aab59fae906c07e7f6", "name": "69ee59e586e252aab59fae906c07e7f6", "lat": 38.8959955}, {"rental_uris": {"ios": "https://dc.lft.to/lastmile_qr_scan", "android": "https://dc.lft.to/lastmile_qr_scan"}, "fusion_lon": 0.0, "type": "electric_scooter", "is_reserved": 0, "lon": -77.024913, "is_disabled": 0, "fusion_lat": 0.0, "bike_id": "5d652774e991cb335b43ca00fe84e0ee", "name": "5d652774e991cb335b43ca00fe84e0ee", "lat": 38.918019}, {"rental_uris": {"ios": "https://dc.lft.to/lastmile_qr_scan", "android": "https://dc.lft.to/lastmile_qr_scan"}, "fusion_lon": 0.0, "type": "electric_scooter", "is_reserved": 0, "lon": -77.01700066666666, "is_disabled": 0, "fusion_lat": 0.0, "bike_id": "847042c6051c11a0914c0590582f95ec", "name": "847042c6051c11a0914c0590582f95ec", "lat": 38.9202115}, {"rental_uris": {"ios": "https://dc.lft.to/lastmile_qr_scan", "android": "https://dc.lft.to/lastmile_qr_scan"}, "fusion_lon": 0.0, "type": "electric_scooter", "is_reserved": 0, "lon": -77.03455566666666, "is_disabled": 0, "fusion_lat": 0.0, "bike_id": "40c031af2121e0911a4010952513c190", "name": "40c031af2121e0911a4010952513c190", "lat": 38.906393}, {"rental_uris": {"ios": "https://dc.lft.to/lastmile_qr_scan", "android": "https://dc.lft.to/lastmile_qr_scan"}, "fusion_lon": 0.0, "type": "electric_scooter", "is_reserved": 0, "lon": -77.003595, "is_disabled": 0, "fusion_lat": 0.0, "bike_id": "af24f3eb84b73fff83413e0b19eb8882", "name": "af24f3eb84b73fff83413e0b19eb8882", "lat": 38.87670683333333}, {"rental_uris": {"ios": "https://dc.lft.to/lastmile_qr_scan", "android": "https://dc.lft.to/lastmile_qr_scan"}, "fusion_lon": 0.0, "type": "electric_scooter", "is_reserved": 0, "lon": -77.03343483333333, "is_disabled": 0, "fusion_lat": 0.0, "bike_id": "91f1953ee0f9f7f91b21bc944789e837", "name": "91f1953ee0f9f7f91b21bc944789e837", "lat": 38.9014105}, {"rental_uris": {"ios": "https://dc.lft.to/lastmile_qr_scan", "android": "https://dc.lft.to/lastmile_qr_scan"}, "fusion_lon": 0.0, "type": "electric_scooter", "is_reserved": 0, "lon": -77.03240583333333, "is_disabled": 0, "fusion_lat": 0.0, "bike_id": "b5e9c0784390d21161722ee4217de0f5", "name": "b5e9c0784390d21161722ee4217de0f5", "lat": 38.92861966666667}, {"rental_uris": {"ios": "https://dc.lft.to/lastmile_qr_scan", "android": "https://dc.lft.to/lastmile_qr_scan"}, "fusion_lon": 0.0, "type": "electric_scooter", "is_reserved": 0, "lon": -77.00145916666666, "is_disabled": 0, "fusion_lat": 0.0, "bike_id": "95e6645c9365c66f8cc174a2fa0d1fd2", "name": "95e6645c9365c66f8cc174a2fa0d1fd2", "lat": 38.900044}, {"rental_uris": {"ios": "https://dc.lft.to/lastmile_qr_scan", "android": "https://dc.lft.to/lastmile_qr_scan"}, "fusion_lon": 0.0, "type": "electric_scooter", "is_reserved": 0, "lon": -77.03908916666667, "is_disabled": 0, "fusion_lat": 0.0, "bike_id": "62f3e24e8c13eaed488e08d40638aa4f", "name": "62f3e24e8c13eaed488e08d40638aa4f", "lat": 38.9025255}, {"rental_uris": {"ios": "https://dc.lft.to/lastmile_qr_scan", "android": "https://dc.lft.to/lastmile_qr_scan"}, "fusion_lon": 0.0, "type": "electric_scooter", "is_reserved": 0, "lon": -77.074809, "is_disabled": 0, "fusion_lat": 0.0, "bike_id": "fbce2605cc68493b6411ae7c603f66ad", "name": "fbce2605cc68493b6411ae7c603f66ad", "lat": 38.90640666666667}, {"rental_uris": {"ios": "https://dc.lft.to/lastmile_qr_scan", "android": "https://dc.lft.to/lastmile_qr_scan"}, "fusion_lon": 0.0, "type": "electric_scooter", "is_reserved": 0, "lon": -77.015773, "is_disabled": 0, "fusion_lat": 0.0, "bike_id": "bf0d28aa1274985574bd51b332411b6f", "name": "bf0d28aa1274985574bd51b332411b6f", "lat": 38.874646166666665}, {"rental_uris": {"ios": "https://dc.lft.to/lastmile_qr_scan", "android": "https://dc.lft.to/lastmile_qr_scan"}, "fusion_lon": 0.0, "type": "electric_scooter", "is_reserved": 0, "lon": -77.02688516666667, "is_disabled": 0, "fusion_lat": 0.0, "bike_id": "5cf87e16c494732f8ea9da7cf3c1727a", "name": "5cf87e16c494732f8ea9da7cf3c1727a", "lat": 38.9025435}, {"rental_uris": {"ios": "https://dc.lft.to/lastmile_qr_scan", "android": "https://dc.lft.to/lastmile_qr_scan"}, "fusion_lon": 0.0, "type": "electric_scooter", "is_reserved": 0, "lon": -77.0175995, "is_disabled": 0, "fusion_lat": 0.0, "bike_id": "e6df709eed2decb7420c6538ae9b06f8", "name": "e6df709eed2decb7420c6538ae9b06f8", "lat": 38.885843666666666}, {"rental_uris": {"ios": "https://dc.lft.to/lastmile_qr_scan", "android": "https://dc.lft.to/lastmile_qr_scan"}, "fusion_lon": 0.0, "type": "electric_scooter", "is_reserved": 0, "lon": -77.0362535, "is_disabled": 0, "fusion_lat": 0.0, "bike_id": "0c997567a8ad08b7df2eead6ad97bfde", "name": "0c997567a8ad08b7df2eead6ad97bfde", "lat": 38.92942433333333}, {"rental_uris": {"ios": "https://dc.lft.to/lastmile_qr_scan", "android": "https://dc.lft.to/lastmile_qr_scan"}, "fusion_lon": 0.0, "type": "electric_scooter", "is_reserved": 0, "lon": -77.038141, "is_disabled": 0, "fusion_lat": 0.0, "bike_id": "4ebea9f18c849e131006bfae52ced85b", "name": "4ebea9f18c849e131006bfae52ced85b", "lat": 38.9037855}, {"rental_uris": {"ios": "https://dc.lft.to/lastmile_qr_scan", "android": "https://dc.lft.to/lastmile_qr_scan"}, "fusion_lon": 0.0, "type": "electric_scooter", "is_reserved": 0, "lon": -77.0522755, "is_disabled": 0, "fusion_lat": 0.0, "bike_id": "d3f0f4b16539c7da25875cd2fa50e798", "name": "d3f0f4b16539c7da25875cd2fa50e798", "lat": 38.924608166666665}, {"rental_uris": {"ios": "https://dc.lft.to/lastmile_qr_scan", "android": "https://dc.lft.to/lastmile_qr_scan"}, "fusion_lon": 0.0, "type": "electric_scooter", "is_reserved": 0, "lon": -77.03396783333334, "is_disabled": 0, "fusion_lat": 0.0, "bike_id": "7ba4d6727b6f477bc07977a565b1ce81", "name": "7ba4d6727b6f477bc07977a565b1ce81", "lat": 38.92858}, {"rental_uris": {"ios": "https://dc.lft.to/lastmile_qr_scan", "android": "https://dc.lft.to/lastmile_qr_scan"}, "fusion_lon": 0.0, "type": "electric_scooter", "is_reserved": 0, "lon": -77.02453833333334, "is_disabled": 0, "fusion_lat": 0.0, "bike_id": "96e84f115a14400cad350025efe9214f", "name": "96e84f115a14400cad350025efe9214f", "lat": 38.918024}, {"rental_uris": {"ios": "https://dc.lft.to/lastmile_qr_scan", "android": "https://dc.lft.to/lastmile_qr_scan"}, "fusion_lon": 0.0, "type": "electric_scooter", "is_reserved": 0, "lon": -77.01203833333334, "is_disabled": 0, "fusion_lat": 0.0, "bike_id": "5a870dd4bdfef213309cf194e5be60b3", "name": "5a870dd4bdfef213309cf194e5be60b3", "lat": 38.91550633333333}, {"rental_uris": {"ios": "https://dc.lft.to/lastmile_qr_scan", "android": "https://dc.lft.to/lastmile_qr_scan"}, "fusion_lon": 0.0, "type": "electric_bike", "is_reserved": 0, "lon": -77.126475, "is_disabled": 0, "fusion_lat": 0.0, "bike_id": "c7582fd6bc5ffe8a2684782845c85fdc", "name": "c7582fd6bc5ffe8a2684782845c85fdc", "lat": 38.81900983333333}, {"rental_uris": {"ios": "https://dc.lft.to/lastmile_qr_scan", "android": "https://dc.lft.to/lastmile_qr_scan"}, "fusion_lon": 0.0, "type": "electric_scooter", "is_reserved": 0, "lon": -77.01472766666667, "is_disabled": 0, "fusion_lat": 0.0, "bike_id": "3f9a29aa6a0e9de38a2faa54aeb6ed61", "name": "3f9a29aa6a0e9de38a2faa54aeb6ed61", "lat": 38.9266985}, {"rental_uris": {"ios": "https://dc.lft.to/lastmile_qr_scan", "android": "https://dc.lft.to/lastmile_qr_scan"}, "fusion_lon": 0.0, "type": "electric_scooter", "is_reserved": 0, "lon": -77.04493533333333, "is_disabled": 0, "fusion_lat": 0.0, "bike_id": "9393f47a14de1fe3b2e44e635d2689f5", "name": "9393f47a14de1fe3b2e44e635d2689f5", "lat": 38.900883}, {"rental_uris": {"ios": "https://dc.lft.to/lastmile_qr_scan", "android": "https://dc.lft.to/lastmile_qr_scan"}, "fusion_lon": 0.0, "type": "electric_scooter", "is_reserved": 0, "lon": -77.0265405, "is_disabled": 0, "fusion_lat": 0.0, "bike_id": "13cc39921a9c164290ca33b4c33eb15f", "name": "13cc39921a9c164290ca33b4c33eb15f", "lat": 38.975985333333334}, {"rental_uris": {"ios": "https://dc.lft.to/lastmile_qr_scan", "android": "https://dc.lft.to/lastmile_qr_scan"}, "fusion_lon": 0.0, "type": "electric_scooter", "is_reserved": 0, "lon": -77.00538, "is_disabled": 0, "fusion_lat": 0.0, "bike_id": "1d55400ad0130fd627af3ecd737626a8", "name": "1d55400ad0130fd627af3ecd737626a8", "lat": 38.87544066666667}, {"rental_uris": {"ios": "https://dc.lft.to/lastmile_qr_scan", "android": "https://dc.lft.to/lastmile_qr_scan"}, "fusion_lon": 0.0, "type": "electric_scooter", "is_reserved": 0, "lon": -77.02499183333333, "is_disabled": 0, "fusion_lat": 0.0, "bike_id": "fbb6eea0c7bdebcdfc0621f96f3fecb5", "name": "fbb6eea0c7bdebcdfc0621f96f3fecb5", "lat": 38.925891}, {"rental_uris": {"ios": "https://dc.lft.to/lastmile_qr_scan", "android": "https://dc.lft.to/lastmile_qr_scan"}, "fusion_lon": 0.0, "type": "electric_scooter", "is_reserved": 0, "lon": -77.03440816666667, "is_disabled": 0, "fusion_lat": 0.0, "bike_id": "cd5a4b5f7cb5794f0e03453afe50fc78", "name": "cd5a4b5f7cb5794f0e03453afe50fc78", "lat": 38.93089483333333}, {"rental_uris": {"ios": "https://dc.lft.to/lastmile_qr_scan", "android": "https://dc.lft.to/lastmile_qr_scan"}, "fusion_lon": 0.0, "type": "electric_scooter", "is_reserved": 0, "lon": -77.084274, "is_disabled": 0, "fusion_lat": 0.0, "bike_id": "e281ea1f1122408f7434b3007d8f983d", "name": "e281ea1f1122408f7434b3007d8f983d", "lat": 38.908058833333335}, {"rental_uris": {"ios": "https://dc.lft.to/lastmile_qr_scan", "android": "https://dc.lft.to/lastmile_qr_scan"}, "fusion_lon": 0.0, "type": "electric_scooter", "is_reserved": 0, "lon": -77.02219066666666, "is_disabled": 0, "fusion_lat": 0.0, "bike_id": "1841e35191f44d45599a04d5a5fcbe0b", "name": "1841e35191f44d45599a04d5a5fcbe0b", "lat": 38.924659}, {"rental_uris": {"ios": "https://dc.lft.to/lastmile_qr_scan", "android": "https://dc.lft.to/lastmile_qr_scan"}, "fusion_lon": 0.0, "type": "electric_scooter", "is_reserved": 0, "lon": -77.04361283333333, "is_disabled": 0, "fusion_lat": 0.0, "bike_id": "b636076b11d95734a73b24138742c892", "name": "b636076b11d95734a73b24138742c892", "lat": 38.9046025}, {"rental_uris": {"ios": "https://dc.lft.to/lastmile_qr_scan", "android": "https://dc.lft.to/lastmile_qr_scan"}, "fusion_lon": 0.0, "type": "electric_bike", "is_reserved": 0, "lon": -76.97820816666666, "is_disabled": 0, "fusion_lat": 0.0, "bike_id": "d3af4409b3e7e83b93625c905f0d01b2", "name": "d3af4409b3e7e83b93625c905f0d01b2", "lat": 38.846107}, {"rental_uris": {"ios": "https://dc.lft.to/lastmile_qr_scan", "android": "https://dc.lft.to/lastmile_qr_scan"}, "fusion_lon": 0.0, "type": "electric_scooter", "is_reserved": 0, "lon": -77.044578, "is_disabled": 0, "fusion_lat": 0.0, "bike_id": "faec51c307bd07007b4adf9c32ef1a63", "name": "faec51c307bd07007b4adf9c32ef1a63", "lat": 38.90038666666667}, {"rental_uris": {"ios": "https://dc.lft.to/lastmile_qr_scan", "android": "https://dc.lft.to/lastmile_qr_scan"}, "fusion_lon": 0.0, "type": "electric_scooter", "is_reserved": 0, "lon": -77.032589, "is_disabled": 0, "fusion_lat": 0.0, "bike_id": "b6d57fb80873e51434c896b179da9943", "name": "b6d57fb80873e51434c896b179da9943", "lat": 38.9154985}, {"rental_uris": {"ios": "https://dc.lft.to/lastmile_qr_scan", "android": "https://dc.lft.to/lastmile_qr_scan"}, "fusion_lon": 0.0, "type": "electric_scooter", "is_reserved": 0, "lon": -76.983394, "is_disabled": 0, "fusion_lat": 0.0, "bike_id": "c08859fab5b1e317761270bcbc556698", "name": "c08859fab5b1e317761270bcbc556698", "lat": 38.8870605}, {"rental_uris": {"ios": "https://dc.lft.to/lastmile_qr_scan", "android": "https://dc.lft.to/lastmile_qr_scan"}, "fusion_lon": 0.0, "type": "electric_scooter", "is_reserved": 0, "lon": -77.0218225, "is_disabled": 0, "fusion_lat": 0.0, "bike_id": "6f848aedfd5c75177d8990711e551230", "name": "6f848aedfd5c75177d8990711e551230", "lat": 38.91449166666666}, {"rental_uris": {"ios": "https://dc.lft.to/lastmile_qr_scan", "android": "https://dc.lft.to/lastmile_qr_scan"}, "fusion_lon": 0.0, "type": "electric_scooter", "is_reserved": 0, "lon": -77.012148, "is_disabled": 0, "fusion_lat": 0.0, "bike_id": "96597b8f3e2f0815d87a5e11078fb1c1", "name": "96597b8f3e2f0815d87a5e11078fb1c1", "lat": 38.88577433333333}, {"rental_uris": {"ios": "https://dc.lft.to/lastmile_qr_scan", "android": "https://dc.lft.to/lastmile_qr_scan"}, "fusion_lon": 0.0, "type": "electric_scooter", "is_reserved": 0, "lon": -77.01611283333334, "is_disabled": 0, "fusion_lat": 0.0, "bike_id": "5c2c733d142afe668e77bff9f140da7a", "name": "5c2c733d142afe668e77bff9f140da7a", "lat": 38.89950983333333}, {"rental_uris": {"ios": "https://dc.lft.to/lastmile_qr_scan", "android": "https://dc.lft.to/lastmile_qr_scan"}, "fusion_lon": 0.0, "type": "electric_scooter", "is_reserved": 0, "lon": -77.00923433333334, "is_disabled": 0, "fusion_lat": 0.0, "bike_id": "ca50a16cd21e871a2a0786e6930b8a77", "name": "ca50a16cd21e871a2a0786e6930b8a77", "lat": 38.8964175}, {"rental_uris": {"ios": "https://dc.lft.to/lastmile_qr_scan", "android": "https://dc.lft.to/lastmile_qr_scan"}, "fusion_lon": 0.0, "type": "electric_scooter", "is_reserved": 0, "lon": -77.01157016666667, "is_disabled": 0, "fusion_lat": 0.0, "bike_id": "188acfa66f8dd0785938d825709c4c35", "name": "188acfa66f8dd0785938d825709c4c35", "lat": 38.90020033333333}, {"rental_uris": {"ios": "https://dc.lft.to/lastmile_qr_scan", "android": "https://dc.lft.to/lastmile_qr_scan"}, "fusion_lon": 0.0, "type": "electric_scooter", "is_reserved": 0, "lon": -77.03361133333334, "is_disabled": 0, "fusion_lat": 0.0, "bike_id": "1185104e0ed4aac3cf55af99aeaf1264", "name": "1185104e0ed4aac3cf55af99aeaf1264", "lat": 38.927599}, {"rental_uris": {"ios": "https://dc.lft.to/lastmile_qr_scan", "android": "https://dc.lft.to/lastmile_qr_scan"}, "fusion_lon": 0.0, "type": "electric_scooter", "is_reserved": 0, "lon": -77.044323, "is_disabled": 0, "fusion_lat": 0.0, "bike_id": "aa77941b43c8ddc5562dce8b3ec0cea4", "name": "aa77941b43c8ddc5562dce8b3ec0cea4", "lat": 38.9212135}, {"rental_uris": {"ios": "https://dc.lft.to/lastmile_qr_scan", "android": "https://dc.lft.to/lastmile_qr_scan"}, "fusion_lon": 0.0, "type": "electric_scooter", "is_reserved": 0, "lon": -77.03431383333333, "is_disabled": 0, "fusion_lat": 0.0, "bike_id": "7e3665ecf6b0d9a8bee9bc06c173bd50", "name": "7e3665ecf6b0d9a8bee9bc06c173bd50", "lat": 38.9036445}, {"rental_uris": {"ios": "https://dc.lft.to/lastmile_qr_scan", "android": "https://dc.lft.to/lastmile_qr_scan"}, "fusion_lon": 0.0, "type": "electric_scooter", "is_reserved": 0, "lon": -76.9881115, "is_disabled": 0, "fusion_lat": 0.0, "bike_id": "a744ef85b02ec4e24c4f2434a57031a0", "name": "a744ef85b02ec4e24c4f2434a57031a0", "lat": 38.88983}, {"rental_uris": {"ios": "https://dc.lft.to/lastmile_qr_scan", "android": "https://dc.lft.to/lastmile_qr_scan"}, "fusion_lon": 0.0, "type": "electric_bike", "is_reserved": 0, "lon": -76.98757383333333, "is_disabled": 0, "fusion_lat": 0.0, "bike_id": "c915001a80080844b074aecb13a4e60e", "name": "c915001a80080844b074aecb13a4e60e", "lat": 38.85780916666667}, {"rental_uris": {"ios": "https://dc.lft.to/lastmile_qr_scan", "android": "https://dc.lft.to/lastmile_qr_scan"}, "fusion_lon": 0.0, "type": "electric_bike", "is_reserved": 0, "lon": -77.09877083333333, "is_disabled": 0, "fusion_lat": 0.0, "bike_id": "9ada9190612300823ea652f553370799", "name": "9ada9190612300823ea652f553370799", "lat": 38.947209}, {"rental_uris": {"ios": "https://dc.lft.to/lastmile_qr_scan", "android": "https://dc.lft.to/lastmile_qr_scan"}, "fusion_lon": 0.0, "type": "electric_bike", "is_reserved": 0, "lon": -77.07001966666667, "is_disabled": 0, "fusion_lat": 0.0, "bike_id": "79a5509b8bbe4bc8007b0cc7a9e599e2", "name": "79a5509b8bbe4bc8007b0cc7a9e599e2", "lat": 38.9566745}, {"rental_uris": {"ios": "https://dc.lft.to/lastmile_qr_scan", "android": "https://dc.lft.to/lastmile_qr_scan"}, "fusion_lon": 0.0, "type": "electric_scooter", "is_reserved": 0, "lon": -77.0356475, "is_disabled": 0, "fusion_lat": 0.0, "bike_id": "3d2d8be1747e95a4a892111482cf764c", "name": "3d2d8be1747e95a4a892111482cf764c", "lat": 38.9023725}, {"rental_uris": {"ios": "https://dc.lft.to/lastmile_qr_scan", "android": "https://dc.lft.to/lastmile_qr_scan"}, "fusion_lon": 0.0, "type": "electric_scooter", "is_reserved": 0, "lon": -77.04159633333333, "is_disabled": 0, "fusion_lat": 0.0, "bike_id": "c9cbe0595cbb00522b6791e64606f978", "name": "c9cbe0595cbb00522b6791e64606f978", "lat": 38.91859766666666}, {"rental_uris": {"ios": "https://dc.lft.to/lastmile_qr_scan", "android": "https://dc.lft.to/lastmile_qr_scan"}, "fusion_lon": 0.0, "type": "electric_scooter", "is_reserved": 0, "lon": -76.99083216666666, "is_disabled": 0, "fusion_lat": 0.0, "bike_id": "669c84235ab00a62b6ea648c8191e6cc", "name": "669c84235ab00a62b6ea648c8191e6cc", "lat": 38.85562516666667}, {"rental_uris": {"ios": "https://dc.lft.to/lastmile_qr_scan", "android": "https://dc.lft.to/lastmile_qr_scan"}, "fusion_lon": 0.0, "type": "electric_scooter", "is_reserved": 0, "lon": -77.01529033333334, "is_disabled": 0, "fusion_lat": 0.0, "bike_id": "371c0399766ce157518b05b083f0ba4e", "name": "371c0399766ce157518b05b083f0ba4e", "lat": 38.92681616666667}, {"rental_uris": {"ios": "https://dc.lft.to/lastmile_qr_scan", "android": "https://dc.lft.to/lastmile_qr_scan"}, "fusion_lon": 0.0, "type": "electric_scooter", "is_reserved": 0, "lon": -77.020642, "is_disabled": 0, "fusion_lat": 0.0, "bike_id": "9df9839c4090354f5194ff837b5d8f0d", "name": "9df9839c4090354f5194ff837b5d8f0d", "lat": 38.89368983333333}, {"rental_uris": {"ios": "https://dc.lft.to/lastmile_qr_scan", "android": "https://dc.lft.to/lastmile_qr_scan"}, "fusion_lon": 0.0, "type": "electric_scooter", "is_reserved": 0, "lon": -77.02101183333333, "is_disabled": 0, "fusion_lat": 0.0, "bike_id": "57e6a541471ecc96a8e2abd70f9dd542", "name": "57e6a541471ecc96a8e2abd70f9dd542", "lat": 38.9311195}, {"rental_uris": {"ios": "https://dc.lft.to/lastmile_qr_scan", "android": "https://dc.lft.to/lastmile_qr_scan"}, "fusion_lon": 0.0, "type": "electric_scooter", "is_reserved": 0, "lon": -76.93338383333334, "is_disabled": 0, "fusion_lat": 0.0, "bike_id": "fe79d3d59a76aa2bddb899107c89cbc7", "name": "fe79d3d59a76aa2bddb899107c89cbc7", "lat": 38.882364833333334}, {"rental_uris": {"ios": "https://dc.lft.to/lastmile_qr_scan", "android": "https://dc.lft.to/lastmile_qr_scan"}, "fusion_lon": 0.0, "type": "electric_scooter", "is_reserved": 0, "lon": -77.04335666666667, "is_disabled": 0, "fusion_lat": 0.0, "bike_id": "8a7e169e30c1a6caa22bdd54885429c9", "name": "8a7e169e30c1a6caa22bdd54885429c9", "lat": 38.905515666666666}, {"rental_uris": {"ios": "https://dc.lft.to/lastmile_qr_scan", "android": "https://dc.lft.to/lastmile_qr_scan"}, "fusion_lon": 0.0, "type": "electric_scooter", "is_reserved": 0, "lon": -76.9320925, "is_disabled": 0, "fusion_lat": 0.0, "bike_id": "a99b17d3c3a90e60bd8b8e5af55ba732", "name": "a99b17d3c3a90e60bd8b8e5af55ba732", "lat": 38.89845233333333}, {"rental_uris": {"ios": "https://dc.lft.to/lastmile_qr_scan", "android": "https://dc.lft.to/lastmile_qr_scan"}, "fusion_lon": 0.0, "type": "electric_scooter", "is_reserved": 0, "lon": -77.05011883333333, "is_disabled": 0, "fusion_lat": 0.0, "bike_id": "e87ab4bde6924fe64d815e237a4457b8", "name": "e87ab4bde6924fe64d815e237a4457b8", "lat": 38.90072333333333}, {"rental_uris": {"ios": "https://dc.lft.to/lastmile_qr_scan", "android": "https://dc.lft.to/lastmile_qr_scan"}, "fusion_lon": 0.0, "type": "electric_scooter", "is_reserved": 0, "lon": -76.95766816666666, "is_disabled": 0, "fusion_lat": 0.0, "bike_id": "938cd30c7c9948e2db226a053d5cb0b7", "name": "938cd30c7c9948e2db226a053d5cb0b7", "lat": 38.88352716666667}, {"rental_uris": {"ios": "https://dc.lft.to/lastmile_qr_scan", "android": "https://dc.lft.to/lastmile_qr_scan"}, "fusion_lon": 0.0, "type": "electric_bike", "is_reserved": 0, "lon": -77.06252116666667, "is_disabled": 0, "fusion_lat": 0.0, "bike_id": "2383e11a0b8769230f250d30e7faa3f6", "name": "2383e11a0b8769230f250d30e7faa3f6", "lat": 38.8063405},