{"data": {"bikes": [{"is_reserved": 0, "is_disabled": 0, "fusion_lon": 0.0, "lat": 38.917309, "name": "511d7e7034015699ac7f2e15f71dcaa3", "bike_id": "511d7e7034015699ac7f2e15f71dcaa3", "lon": -77.0684045, "fusion_lat": 0.0, "rental_uris": {"android": "https://dc.lft.to/lastmile_qr_scan", "ios": "https://dc.lft.to/lastmile_qr_scan"}, "type": "electric_scooter"}, {"is_reserved": 0, "is_disabled": 0, "fusion_lon": 0.0, "lat": 38.902649333333336, "name": "5b97b098b270978bdfa58d8713b86e8b", "bike_id": "5b97b098b270978bdfa58d8713b86e8b", "lon": -77.01133, "fusion_lat": 0.0, "rental_uris": {"android": "https://dc.lft.to/lastmile_qr_scan", "ios": "https://dc.lft.to/lastmile_qr_scan"}, "type": "electric_scooter"}, {"is_reserved": 0, "is_disabled": 0, "fusion_lon": 0.0, "lat": 38.898834666666666, "name": "bebaf03a3379168af657cee7cd3d7759", "bike_id": "bebaf03a3379168af657cee7cd3d7759", "lon": -76.93174683333334, "fusion_lat": 0.0, "rental_uris": {"android": "https://dc.lft.to/lastmile_qr_scan", "ios": "https://dc.lft.to/lastmile_qr_scan"}, "type": "electric_scooter"}, {"is_reserved": 0, "is_disabled": 0, "fusion_lon": 0.0, "lat": 38.923758666666664, "name": "3f8293365b814cbde026791b1d99c6d9", "bike_id": "3f8293365b814cbde026791b1d99c6d9", "lon": -77.031356, "fusion_lat": 0.0, "rental_uris": {"android": "https://dc.lft.to/lastmile_qr_scan", "ios": "https://dc.lft.to/lastmile_qr_scan"}, "type": "electric_scooter"}, {"is_reserved": 0, "is_disabled": 0, "fusion_lon": 0.0, "lat": 38.92297816666667, "name": "6c5fa695b1209a220308b7f5a49d5e63", "bike_id": "6c5fa695b1209a220308b7f5a49d5e63", "lon": -77.04229716666667, "fusion_lat": 0.0, "rental_uris": {"android": "https://dc.lft.to/lastmile_qr_scan", "ios": "https://dc.lft.to/lastmile_qr_scan"}, "type": "electric_scooter"}, {"is_reserved": 0, "is_disabled": 0, "fusion_lon": 0.0, "lat": 38.91862116666667, "name": "bbc87719826fe3e18c232fea3f4545ee", "bike_id": "bbc87719826fe3e18c232fea3f4545ee", "lon": -77.04481416666667, "fusion_lat": 0.0, "rental_uris": {"android": "https://dc.lft.to/lastmile_qr_scan", "ios": "https://dc.lft.to/lastmile_qr_scan"}, "type": "electric_scooter"}, {"is_reserved": 0, "is_disabled": 0, "fusion_lon": 0.0, "lat": 38.924733, "name": "98e3a7aa31a7630abc80f4e3e2ccb9b6", "bike_id": "98e3a7aa31a7630abc80f4e3e2ccb9b6", "lon": -77.03938916666667, "fusion_lat": 0.0, "rental_uris": {"android": "https://dc.lft.to/lastmile_qr_scan", "ios": "https://dc.lft.to/lastmile_qr_scan"}, "type": "electric_scooter"}, {"is_reserved": 0, "is_disabled": 0, "fusion_lon": 0.0, "lat": 38.9126745, "name": "a0a96afdb7aa3c4060da10fa07e55efa", "bike_id": "a0a96afdb7aa3c4060da10fa07e55efa", "lon": -77.0221475, "fusion_lat": 0.0, "rental_uris": {"android": "https://dc.lft.to/lastmile_qr_scan", "ios": "https://dc.lft.to/lastmile_qr_scan"}, "type": "electric_scooter"}, {"is_reserved": 0, "is_disabled": 0, "fusion_lon": 0.0, "lat": 38.9656155, "name": "168f969749d88f74e752ba6aee22ea20", "bike_id": "168f969749d88f74e752ba6aee22ea20", "lon": -77.028291, "fusion_lat": 0.0, "rental_uris": {"android": "https://dc.lft.to/lastmile_qr_scan", "ios": "https://dc.lft.to/lastmile_qr_scan"}, "type": "electric_bike"}, {"is_reserved": 0, "is_disabled": 0, "fusion_lon": 0.0, "lat": 38.9249415, "name": "b5705d63581ce3545019001ed02a7aa7", "bike_id": "b5705d63581ce3545019001ed02a7aa7", "lon": -77.07331183333334, "fusion_lat": 0.0, "rental_uris": {"android": "https://dc.lft.to/lastmile_qr_scan", "ios": "https://dc.lft.to/lastmile_qr_scan"}, "type": "electric_scooter"}, {"is_reserved": 0, "is_disabled": 0, "fusion_lon": 0.0, "lat": 38.926803166666666, "name": "8ad2f531ee112ac86abcd2694db6367b", "bike_id": "8ad2f531ee112ac86abcd2694db6367b", "lon": -77.02790533333334, "fusion_lat": 0.0, "rental_uris": {"android": "https://dc.lft.to/lastmile_qr_scan", "ios": "https://dc.lft.to/lastmile_qr_scan"}, "type": "electric_scooter"}, {"is_reserved": 0, "is_disabled": 0, "fusion_lon": 0.0, "lat": 38.877935, "name": "4866626009ebcab149d3769c6e3c7bf2", "bike_id": "4866626009ebcab149d3769c6e3c7bf2", "lon": -76.99418316666667, "fusion_lat": 0.0, "rental_uris": {"android": "https://dc.lft.to/lastmile_qr_scan", "ios": "https://dc.lft.to/lastmile_qr_scan"}, "type": "electric_scooter"}, {"is_reserved": 0, "is_disabled": 0, "fusion_lon": 0.0, "lat": 38.902396, "name": "0491524304154fb400d091e953c1ba99", "bike_id": "0491524304154fb400d091e953c1ba99", "lon": -77.00201633333333, "fusion_lat": 0.0, "rental_uris": {"android": "https://dc.lft.to/lastmile_qr_scan", "ios": "https://dc.lft.to/lastmile_qr_scan"}, "type": "electric_scooter"}, {"is_reserved": 0, "is_disabled": 0, "fusion_lon": 0.0, "lat": 38.899072, "name": "3060926591041eaa15a8476dfe5c3d65", "bike_id": "3060926591041eaa15a8476dfe5c3d65", "lon": -76.93385666666667, "fusion_lat": 0.0, "rental_uris": {"android": "https://dc.lft.to/lastmile_qr_scan", "ios": "https://dc.lft.to/lastmile_qr_scan"}, "type": "electric_scooter"}, {"is_reserved": 0, "is_disabled": 0, "fusion_lon": 0.0, "lat": 38.93854266666666, "name": "b3034bd0beb6dc4fb3ce60d56d8f91dc", "bike_id": "b3034bd0beb6dc4fb3ce60d56d8f91dc", "lon": -77.0252485, "fusion_lat": 0.0, "rental_uris": {"android": "https://dc.lft.to/lastmile_qr_scan", "ios": "https://dc.lft.to/lastmile_qr_scan"}, "type": "electric_scooter"}, {"is_reserved": 0, "is_disabled": 0, "fusion_lon": 0.0, "lat": 38.9420255, "name": "5305439dedc6c2e0200a9d4b9ae774a7", "bike_id": "5305439dedc6c2e0200a9d4b9ae774a7", "lon": -77.01834233333334, "fusion_lat": 0.0, "rental_uris": {"android": "https://dc.lft.to/lastmile_qr_scan", "ios": "https://dc.lft.to/lastmile_qr_scan"}, "type": "electric_scooter"}, {"is_reserved": 0, "is_disabled": 0, "fusion_lon": 0.0, "lat": 38.88426033333333, "name": "b7ca06e564d84f067c1f271a18ed73eb", "bike_id": "b7ca06e564d84f067c1f271a18ed73eb", "lon": -77.02554766666667, "fusion_lat": 0.0, "rental_uris": {"android": "https://dc.lft.to/lastmile_qr_scan", "ios": "https://dc.lft.to/lastmile_qr_scan"}, "type": "electric_scooter"}, {"is_reserved": 0, "is_disabled": 0, "fusion_lon": 0.0, "lat": 38.89012016666667, "name": "7d8e42b8e41d4ab5166a262a4f861211", "bike_id": "7d8e42b8e41d4ab5166a262a4f861211", "lon": -76.93740983333333, "fusion_lat": 0.0, "rental_uris": {"android": "https://dc.lft.to/lastmile_qr_scan", "ios": "https://dc.lft.to/lastmile_qr_scan"}, "type": "electric_scooter"}, {"is_reserved": 0, "is_disabled": 0, "fusion_lon": 0.0, "lat": 38.898753666666664, "name": "755246a0879b1b9131afc2a873b411c9", "bike_id": "755246a0879b1b9131afc2a873b411c9", "lon": -76.931827, "fusion_lat": 0.0, "rental_uris": {"android": "https://dc.lft.to/lastmile_qr_scan", "ios": "https://dc.lft.to/lastmile_qr_scan"}, "type": "electric_bike"}, {"is_reserved": 0, "is_disabled": 0, "fusion_lon": 0.0, "lat": 38.924452, "name": "ea3a44b31b0e8227d6876b789f11aa0a", "bike_id": "ea3a44b31b0e8227d6876b789f11aa0a", "lon": -76.96836916666666, "fusion_lat": 0.0, "rental_uris": {"android": "https://dc.lft.to/lastmile_qr_scan", "ios": "https://dc.lft.to/lastmile_qr_scan"}, "type": "electric_bike"}, {"is_reserved": 0, "is_disabled": 0, "fusion_lon": 0.0, "lat": 38.879408, "name": "d491abe87d0776ca4c7e47f8dcffa444", "bike_id": "d491abe87d0776ca4c7e47f8dcffa444", "lon": -77.00370233333334, "fusion_lat": 0.0, "rental_uris": {"android": "https://dc.lft.to/lastmile_qr_scan", "ios": "https://dc.lft.to/lastmile_qr_scan"}, "type": "electric_scooter"}, {"is_reserved": 0, "is_disabled": 0, "fusion_lon": 0.0, "lat": 38.91981833333333, "name": "8d8d9e1bc3eed61e810d94b836ef857b", "bike_id": "8d8d9e1bc3eed61e810d94b836ef857b", "lon": -77.07113916666667, "fusion_lat": 0.0, "rental_uris": {"android": "https://dc.lft.to/lastmile_qr_scan", "ios": "https://dc.lft.to/lastmile_qr_scan"}, "type": "electric_scooter"}, {"is_reserved": 0, "is_disabled": 0, "fusion_lon": 0.0, "lat": 38.91922616666667, "name": "80f05b17a11cadc86af52237305d8177", "bike_id": "80f05b17a11cadc86af52237305d8177", "lon": -77.03496633333333, "fusion_lat": 0.0, "rental_uris": {"android": "https://dc.lft.to/lastmile_qr_scan", "ios": "https://dc.lft.to/lastmile_qr_scan"}, "type": "electric_scooter"}, {"is_reserved": 0, "is_disabled": 0, "fusion_lon": 0.0, "lat": 38.9241385, "name": "44ed69c6dd3b024f1ba9e217dd61cb03", "bike_id": "44ed69c6dd3b024f1ba9e217dd61cb03", "lon": -77.020126, "fusion_lat": 0.0, "rental_uris": {"android": "https://dc.lft.to/lastmile_qr_scan", "ios": "https://dc.lft.to/lastmile_qr_scan"}, "type": "electric_scooter"}, {"is_reserved": 0, "is_disabled": 0, "fusion_lon": 0.0, "lat": 38.88487, "name": "7493f76f00acb9721617202f9bcadd11", "bike_id": "7493f76f00acb9721617202f9bcadd11", "lon": -77.02677716666666, "fusion_lat": 0.0, "rental_uris": {"android": "https://dc.lft.to/lastmile_qr_scan", "ios": "https://dc.lft.to/lastmile_qr_scan"}, "type": "electric_scooter"}, {"is_reserved": 0, "is_disabled": 0, "fusion_lon": 0.0, "lat": 38.994845833333336, "name": "aa94061dfbd96bee74b13cdf5d959592", "bike_id": "aa94061dfbd96bee74b13cdf5d959592", "lon": -77.0290035, "fusion_lat": 0.0, "rental_uris": {"android": "https://dc.lft.to/lastmile_qr_scan", "ios": "https://dc.lft.to/lastmile_qr_scan"}, "type": "electric_bike"}, {"is_reserved": 0, "is_disabled": 0, "fusion_lon": 0.0, "lat": 38.91906016666667, "name": "7e6ab09628e3adac3b493d2b8a38ac3d", "bike_id": "7e6ab09628e3adac3b493d2b8a38ac3d", "lon": -77.02946183333333, "fusion_lat": 0.0, "rental_uris": {"android": "https://dc.lft.to/lastmile_qr_scan", "ios": "https://dc.lft.to/lastmile_qr_scan"}, "type": "electric_scooter"}, {"is_reserved": 0, "is_disabled": 0, "fusion_lon": 0.0, "lat": 38.9038575, "name": "d70a3881117fefa50abb62366545c670", "bike_id": "d70a3881117fefa50abb62366545c670", "lon": -77.018486, "fusion_lat": 0.0, "rental_uris": {"android": "https://dc.lft.to/lastmile_qr_scan", "ios": "https://dc.lft.to/lastmile_qr_scan"}, "type": "electric_scooter"}, {"is_reserved": 0, "is_disabled": 0, "fusion_lon": 0.0, "lat": 38.9299255, "name": "384151b7aae12937ae98466f0f736b41", "bike_id": "384151b7aae12937ae98466f0f736b41", "lon": -77.01208333333334, "fusion_lat": 0.0, "rental_uris": {"android": "https://dc.lft.to/lastmile_qr_scan", "ios": "https://dc.lft.to/lastmile_qr_scan"}, "type": "electric_scooter"}, {"is_reserved": 0, "is_disabled": 0, "fusion_lon": 0.0, "lat": 38.897128, "name": "e6a6e69865b7ee1ea31d7b76da38cf08", "bike_id": "e6a6e69865b7ee1ea31d7b76da38cf08", "lon": -77.03225283333333, "fusion_lat": 0.0, "rental_uris": {"android": "https://dc.lft.to/lastmile_qr_scan", "ios": "https://dc.lft.to/lastmile_qr_scan"}, "type": "electric_scooter"}, {"is_reserved": 0, "is_disabled": 0, "fusion_lon": 0.0, "lat": 38.912585, "name": "febbc0337aecd465d89c66e401a16c23", "bike_id": "febbc0337aecd465d89c66e401a16c23", "lon": -77.0327915, "fusion_lat": 0.0, "rental_uris": {"android": "https://dc.lft.to/lastmile_qr_scan", "ios": "https://dc.lft.to/lastmile_qr_scan"}, "type": "electric_scooter"}, {"is_reserved": 0, "is_disabled": 0, "fusion_lon": 0.0, "lat": 38.9151405, "name": "3142c984fee4e8b3e43dd4be27986773", "bike_id": "3142c984fee4e8b3e43dd4be27986773", "lon": -77.03827066666666, "fusion_lat": 0.0, "rental_uris": {"android": "https://dc.lft.to/lastmile_qr_scan", "ios": "https://dc.lft.to/lastmile_qr_scan"}, "type": "electric_scooter"}, {"is_reserved": 0, "is_disabled": 0, "fusion_lon": 0.0, "lat": 38.923318333333334, "name": "23563be6f0629c94ef9ffd943487985b", "bike_id": "23563be6f0629c94ef9ffd943487985b", "lon": -77.01899716666667, "fusion_lat": 0.0, "rental_uris": {"android": "https://dc.lft.to/lastmile_qr_scan", "ios": "https://dc.lft.to/lastmile_qr_scan"}, "type": "electric_scooter"}, {"is_reserved": 0, "is_disabled": 0, "fusion_lon": 0.0, "lat": 38.907293333333335, "name": "aa7761b856df510875550022eef39550", "bike_id": "aa7761b856df510875550022eef39550", "lon": -77.04550683333333, "fusion_lat": 0.0, "rental_uris": {"android": "https://dc.lft.to/lastmile_qr_scan", "ios": "https://dc.lft.to/lastmile_qr_scan"}, "type": "electric_scooter"}, {"is_reserved": 0, "is_disabled": 0, "fusion_lon": 0.0, "lat": 38.923340333333336, "name": "6f9a1a7ebd24f07e4eabe2a832117c52", "bike_id": "6f9a1a7ebd24f07e4eabe2a832117c52", "lon": -77.0353585, "fusion_lat": 0.0, "rental_uris": {"android": "https://dc.lft.to/lastmile_qr_scan", "ios": "https://dc.lft.to/lastmile_qr_scan"}, "type": "electric_scooter"}, {"is_reserved": 0, "is_disabled": 0, "fusion_lon": 0.0, "lat": 38.9215335, "name": "369eb29a30123dc8361bab284bf5c6d8", "bike_id": "369eb29a30123dc8361bab284bf5c6d8", "lon": -77.03440116666667, "fusion_lat": 0.0, "rental_uris": {"android": "https://dc.lft.to/lastmile_qr_scan", "ios": "https://dc.lft.to/lastmile_qr_scan"}, "type": "electric_scooter"}, {"is_reserved": 0, "is_disabled": 0, "fusion_lon": 0.0, "lat": 38.897475666666665, "name": "de695fcb6b9681fb94f0be2682f1db17", "bike_id": "de695fcb6b9681fb94f0be2682f1db17", "lon": -77.01900616666667, "fusion_lat": 0.0, "rental_uris": {"android": "https://dc.lft.to/lastmile_qr_scan", "ios": "https://dc.lft.to/lastmile_qr_scan"}, "type": "electric_scooter"}, {"is_reserved": 0, "is_disabled": 0, "fusion_lon": 0.0, "lat": 38.92639833333333, "name": "1a663047c8bbb163b38e97c4b9140e82", "bike_id": "1a663047c8bbb163b38e97c4b9140e82", "lon": -77.03846666666666, "fusion_lat": 0.0, "rental_uris": {"android": "https://dc.lft.to/lastmile_qr_scan", "ios": "https://dc.lft.to/lastmile_qr_scan"}, "type": "electric_scooter"}, {"is_reserved": 0, "is_disabled": 0, "fusion_lon": 0.0, "lat": 38.9243515, "name": "d22b39b8318381a40f2ece16a1dd3b0c", "bike_id": "d22b39b8318381a40f2ece16a1dd3b0c", "lon": -77.0032615, "fusion_lat": 0.0, "rental_uris": {"android": "https://dc.lft.to/lastmile_qr_scan", "ios": "https://dc.lft.to/lastmile_qr_scan"}, "type": "electric_scooter"}, {"is_reserved": 0, "is_disabled": 0, "fusion_lon": 0.0, "lat": 38.897044, "name": "50223a65b1bd2019bab6b57a09a10216", "bike_id": "50223a65b1bd2019bab6b57a09a10216", "lon": -76.9391875, "fusion_lat": 0.0, "rental_uris": {"android": "https://dc.lft.to/lastmile_qr_scan", "ios": "https://dc.lft.to/lastmile_qr_scan"}, "type": "electric_scooter"}, {"is_reserved": 0, "is_disabled": 0, "fusion_lon": 0.0, "lat": 38.902632833333335, "name": "d9db7f77fbb3745985c67e92d4d24f56", "bike_id": "d9db7f77fbb3745985c67e92d4d24f56", "lon": -76.9984875, "fusion_lat": 0.0, "rental_uris": {"android": "https://dc.lft.to/lastmile_qr_scan", "ios": "https://dc.lft.to/lastmile_qr_scan"}, "type": "electric_scooter"}, {"is_reserved": 0, "is_disabled": 0, "fusion_lon": 0.0, "lat": 38.89360116666667, "name": "76dae6bb030063a7da7f375d272cb2c7", "bike_id": "76dae6bb030063a7da7f375d272cb2c7", "lon": -77.04627083333334, "fusion_lat": 0.0, "rental_uris": {"android": "https://dc.lft.to/lastmile_qr_scan", "ios": "https://dc.lft.to/lastmile_qr_scan"}, "type": "electric_scooter"}, {"is_reserved": 0, "is_disabled": 0, "fusion_lon": 0.0, "lat": 38.87656616666666, "name": "b0a5a1367c7c7464adbc7cc5d6be76da", "bike_id": "b0a5a1367c7c7464adbc7cc5d6be76da", "lon": -77.011679, "fusion_lat": 0.0, "rental_uris": {"android": "https://dc.lft.to/lastmile_qr_scan", "ios": "https://dc.lft.to/lastmile_qr_scan"}, "type": "electric_scooter"}, {"is_reserved": 0, "is_disabled": 0, "fusion_lon": 0.0, "lat": 38.9245385, "name": "b2c709454dcc00bfcdecd3192aeb5e6f", "bike_id": "b2c709454dcc00bfcdecd3192aeb5e6f", "lon": -77.04019816666667, "fusion_lat": 0.0, "rental_uris": {"android": "https://dc.lft.to/lastmile_qr_scan", "ios": "https://dc.lft.to/lastmile_qr_scan"}, "type": "electric_scooter"}, {"is_reserved": 0, "is_disabled": 0, "fusion_lon": 0.0, "lat": 38.92473833333333, "name": "e8258c7ef6426c9f8a21cbabf9103281", "bike_id": "e8258c7ef6426c9f8a21cbabf9103281", "lon": -77.05755966666666, "fusion_lat": 0.0, "rental_uris": {"android": "https://dc.lft.to/lastmile_qr_scan", "ios": "https://dc.lft.to/lastmile_qr_scan"}, "type": "electric_scooter"}, {"is_reserved": 0, "is_disabled": 0, "fusion_lon": 0.0, "lat": 38.9206055, "name": "8db1f27d934ae5cc8a47d0f4047e36b5", "bike_id": "8db1f27d934ae5cc8a47d0f4047e36b5", "lon": -77.04189916666667, "fusion_lat": 0.0, "rental_uris": {"android": "https://dc.lft.to/lastmile_qr_scan", "ios": "https://dc.lft.to/lastmile_qr_scan"}, "type": "electric_scooter"}, {"is_reserved": 0, "is_disabled": 0, "fusion_lon": 0.0, "lat": 38.924508333333335, "name": "fdcf7ec7fbb8af83decea84e85aa049d", "bike_id": "fdcf7ec7fbb8af83decea84e85aa049d", "lon": -77.03972116666667, "fusion_lat": 0.0, "rental_uris": {"android": "https://dc.lft.to/lastmile_qr_scan", "ios": "https://dc.lft.to/lastmile_qr_scan"}, "type": "electric_scooter"}, {"is_reserved": 0, "is_disabled": 0, "fusion_lon": 0.0, "lat": 38.911214666666666, "name": "84c516cc2b4f1bf1b55160116432c22b", "bike_id": "84c516cc2b4f1bf1b55160116432c22b", "lon": -77.03831133333334, "fusion_lat": 0.0, "rental_uris": {"android": "https://dc.lft.to/lastmile_qr_scan", "ios": "https://dc.lft.to/lastmile_qr_scan"}, "type": "electric_scooter"}, {"is_reserved": 0, "is_disabled": 0, "fusion_lon": 0.0, "lat": 38.890532666666665, "name": "b285e5a8be99dc3a1ae277634e01be02", "bike_id": "b285e5a8be99dc3a1ae277634e01be02", "lon": -77.04499016666666, "fusion_lat": 0.0, "rental_uris": {"android": "https://dc.lft.to/lastmile_qr_scan", "ios": "https://dc.lft.to/lastmile_qr_scan"}, "type": "electric_scooter"}, {"is_reserved": 0, "is_disabled": 0, "fusion_lon": 0.0, "lat": 38.95734616666667, "name": "3ee4a9860d7adf66fdaee9319393923f", "bike_id": "3ee4a9860d7adf66fdaee9319393923f", "lon": -77.02418416666667, "fusion_lat": 0.0, "rental_uris": {"android": "https://dc.lft.to/lastmile_qr_scan", "ios": "https://dc.lft.to/lastmile_qr_scan"}, "type": "electric_scooter"}, {"is_reserved": 0, "is_disabled": 0, "fusion_lon": 0.0, "lat": 38.895107, "name": "15513ceccb8230604b3c8697689025ee", "bike_id": "15513ceccb8230604b3c8697689025ee", "lon": -76.9488555, "fusion_lat": 0.0, "rental_uris": {"android": "https://dc.lft.to/lastmile_qr_scan", "ios": "https://dc.lft.to/lastmile_qr_scan"}, "type": "electric_scooter"}, {"is_reserved": 0, "is_disabled": 0, "fusion_lon": 0.0, "lat": 38.91219433333333, "name": "79fbcc7c211879bcb9c20852df897cda", "bike_id": "79fbcc7c211879bcb9c20852df897cda", "lon": -77.03211466666667, "fusion_lat": 0.0, "rental_uris": {"android": "https://dc.lft.to/lastmile_qr_scan", "ios": "https://dc.lft.to/lastmile_qr_scan"}, "type": "electric_scooter"}, {"is_reserved": 0, "is_disabled": 0, "fusion_lon": 0.0, "lat": 38.930039, "name": "df5baab3a634ed47291c87e030afd69d", "bike_id": "df5baab3a634ed47291c87e030afd69d", "lon": -77.06190233333334, "fusion_lat": 0.0, "rental_uris": {"android": "https://dc.lft.to/lastmile_qr_scan", "ios": "https://dc.lft.to/lastmile_qr_scan"}, "type": "electric_scooter"}, {"is_reserved": 0, "is_disabled": 0, "fusion_lon": 0.0, "lat": 38.91145, "name": "27eb8d282e7eed81c111e592c8889f13", "bike_id": "27eb8d282e7eed81c111e592c8889f13", "lon": -77.021896, "fusion_lat": 0.0, "rental_uris": {"android": "https://dc.lft.to/lastmile_qr_scan", "ios": "https://dc.lft.to/lastmile_qr_scan"}, "type": "electric_scooter"}, {"is_reserved": 0, "is_disabled": 0, "fusion_lon": 0.0, "lat": 38.8881725, "name": "af04ae388adbdbb18256a58087a0add0", "bike_id": "af04ae388adbdbb18256a58087a0add0", "lon": -76.97705366666666, "fusion_lat": 0.0, "rental_uris": {"android": "https://dc.lft.to/lastmile_qr_scan", "ios": "https://dc.lft.to/lastmile_qr_scan"}, "type": "electric_scooter"}, {"is_reserved": 0, "is_disabled": 0, "fusion_lon": 0.0, "lat": 38.93871883333333, "name": "22657db512930bcf2cb675cc27934f94", "bike_id": "22657db512930bcf2cb675cc27934f94", "lon": -77.03046466666666, "fusion_lat": 0.0, "rental_uris": {"android": "https://dc.lft.to/lastmile_qr_scan", "ios": "https://dc.lft.to/lastmile_qr_scan"}, "type": "electric_scooter"}, {"is_reserved": 0, "is_disabled": 0, "fusion_lon": 0.0, "lat": 38.90905933333333, "name": "09760ed505ac3fd1fac5d59df3525ac6", "bike_id": "09760ed505ac3fd1fac5d59df3525ac6", "lon": -77.07267816666666, "fusion_lat": 0.0, "rental_uris": {"android": "https://dc.lft.to/lastmile_qr_scan", "ios": "https://dc.lft.to/lastmile_qr_scan"}, "type": "electric_scooter"}, {"is_reserved": 0, "is_disabled": 0, "fusion_lon": 0.0, "lat": 38.876630666666664, "name": "5759d736570f47154ff4e0ba8428dce0", "bike_id": "5759d736570f47154ff4e0ba8428dce0", "lon": -77.00433633333333, "fusion_lat": 0.0, "rental_uris": {"android": "https://dc.lft.to/lastmile_qr_scan", "ios": "https://dc.lft.to/lastmile_qr_scan"}, "type": "electric_scooter"}, {"is_reserved": 0, "is_disabled": 0, "fusion_lon": 0.0, "lat": 38.88288883333333, "name": "e23e310637cbc1fa5d7a023cb0ff87f6", "bike_id": "e23e310637cbc1fa5d7a023cb0ff87f6", "lon": -76.932518, "fusion_lat": 0.0, "rental_uris": {"android": "https://dc.lft.to/lastmile_qr_scan", "ios": "https://dc.lft.to/lastmile_qr_scan"}, "type": "electric_bike"}, {"is_reserved": 0, "is_disabled": 0, "fusion_lon": 0.0, "lat": 38.914531833333335, "name": "16dfed14c4a7acff0017c72caa91ac32", "bike_id": "16dfed14c4a7acff0017c72caa91ac32", "lon": -76.972813, "fusion_lat": 0.0, "rental_uris": {"android": "https://dc.lft.to/lastmile_qr_scan", "ios": "https://dc.lft.to/lastmile_qr_scan"}, "type": "electric_bike"}, {"is_reserved": 0, "is_disabled": 0, "fusion_lon": 0.0, "lat": 38.924633166666666, "name": "130c8df9eaafd9a3af945e0f1e29a752", "bike_id": "130c8df9eaafd9a3af945e0f1e29a752", "lon": -77.0328745, "fusion_lat": 0.0, "rental_uris": {"android": "https://dc.lft.to/lastmile_qr_scan", "ios": "https://dc.lft.to/lastmile_qr_scan"}, "type": "electric_scooter"}, {"is_reserved": 0, "is_disabled": 0, "fusion_lon": 0.0, "lat": 38.85215266666667, "name": "4777e0b47599cc03c9e25de746caa66f", "bike_id": "4777e0b47599cc03c9e25de746caa66f", "lon": -76.99377833333334, "fusion_lat": 0.0, "rental_uris": {"android": "https://dc.lft.to/lastmile_qr_scan", "ios": "https://dc.lft.to/lastmile_qr_scan"}, "type": "electric_bike"}, {"is_reserved": 0, "is_disabled": 0, "fusion_lon": 0.0, "lat": 38.8984405, "name": "0949d7baea1936e1d6aa9ad841055952", "bike_id": "0949d7baea1936e1d6aa9ad841055952", "lon": -77.02280583333334, "fusion_lat": 0.0, "rental_uris": {"android": "https://dc.lft.to/lastmile_qr_scan", "ios": "https://dc.lft.to/lastmile_qr_scan"}, "type": "electric_scooter"}, {"is_reserved": 0, "is_disabled": 0, "fusion_lon": 0.0, "lat": 38.92248216666667, "name": "f86051135be60171f4a2476ca2350d5b", "bike_id": "f86051135be60171f4a2476ca2350d5b", "lon": -77.03528016666667, "fusion_lat": 0.0, "rental_uris": {"android": "https://dc.lft.to/lastmile_qr_scan", "ios": "https://dc.lft.to/lastmile_qr_scan"}, "type": "electric_scooter"}, {"is_reserved": 0, "is_disabled": 0, "fusion_lon": 0.0, "lat": 38.918593666666666, "name": "229c6acf9651baa86adb945da17fde06", "bike_id": "229c6acf9651baa86adb945da17fde06", "lon": -77.03221866666667, "fusion_lat": 0.0, "rental_uris": {"android": "https://dc.lft.to/lastmile_qr_scan", "ios": "https://dc.lft.to/lastmile_qr_scan"}, "type": "electric_scooter"}, {"is_reserved": 0, "is_disabled": 0, "fusion_lon": 0.0, "lat": 38.9223055, "name": "4de863b46b7c3a47fb9e3686927efe8b", "bike_id": "4de863b46b7c3a47fb9e3686927efe8b", "lon": -77.02118583333333, "fusion_lat": 0.0, "rental_uris": {"android": "https://dc.lft.to/lastmile_qr_scan", "ios": "https://dc.lft.to/lastmile_qr_scan"}, "type": "electric_scooter"}, {"is_reserved": 0, "is_disabled": 0, "fusion_lon": 0.0, "lat": 38.897580166666664, "name": "898ff143834a0b26d98741f4a67d3fcc", "bike_id": "898ff143834a0b26d98741f4a67d3fcc", "lon": -77.03208766666667, "fusion_lat": 0.0, "rental_uris": {"android": "https://dc.lft.to/lastmile_qr_scan", "ios": "https://dc.lft.to/lastmile_qr_scan"}, "type": "electric_scooter"}, {"is_reserved": 0, "is_disabled": 0, "fusion_lon": 0.0, "lat": 38.902369166666666, "name": "ffe6c981491d29b14dff4ef07b42dd19", "bike_id": "ffe6c981491d29b14dff4ef07b42dd19", "lon": -77.00194716666667, "fusion_lat": 0.0, "rental_uris": {"android": "https://dc.lft.to/lastmile_qr_scan", "ios": "https://dc.lft.to/lastmile_qr_scan"}, "type": "electric_scooter"}, {"is_reserved": 0, "is_disabled": 0, "fusion_lon": 0.0, "lat": 38.92064366666666, "name": "0bbb61cfd5249767612419b8fb0304a2", "bike_id": "0bbb61cfd5249767612419b8fb0304a2", "lon": -77.03467683333334, "fusion_lat": 0.0, "rental_uris": {"android": "https://dc.lft.to/lastmile_qr_scan", "ios": "https://dc.lft.to/lastmile_qr_scan"}, "type": "electric_scooter"}, {"is_reserved": 0, "is_disabled": 0, "fusion_lon": 0.0, "lat": 38.92886016666667, "name": "f753e60b10d1d21a9b6b977bba176dc1", "bike_id": "f753e60b10d1d21a9b6b977bba176dc1", "lon": -77.03268833333334, "fusion_lat": 0.0, "rental_uris": {"android": "https://dc.lft.to/lastmile_qr_scan", "ios": "https://dc.lft.to/lastmile_qr_scan"}, "type": "electric_scooter"}, {"is_reserved": 0, "is_disabled": 0, "fusion_lon": 0.0, "lat": 38.9156275, "name": "6a0c7b93d06807fb79ca23d39c53a0c5", "bike_id": "6a0c7b93d06807fb79ca23d39c53a0c5", "lon": -77.00698733333333, "fusion_lat": 0.0, "rental_uris": {"android": "https://dc.lft.to/lastmile_qr_scan", "ios": "https://dc.lft.to/lastmile_qr_scan"}, "type": "electric_scooter"}, {"is_reserved": 0, "is_disabled": 0, "fusion_lon": 0.0, "lat": 38.90044616666667, "name": "5b586ecd2afc9439d7a3884c6ad2100b", "bike_id": "5b586ecd2afc9439d7a3884c6ad2100b", "lon": -77.01780133333334, "fusion_lat": 0.0, "rental_uris": {"android": "https://dc.lft.to/lastmile_qr_scan", "ios": "https://dc.lft.to/lastmile_qr_scan"}, "type": "electric_scooter"}, {"is_reserved": 0, "is_disabled": 0, "fusion_lon": 0.0, "lat": 39.007119, "name": "d0b3211861eab17478ea6153f9dd9da8", "bike_id": "d0b3211861eab17478ea6153f9dd9da8", "lon": -76.98146066666666, "fusion_lat": 0.0, "rental_uris": {"android": "https://dc.lft.to/lastmile_qr_scan", "ios": "https://dc.lft.to/lastmile_qr_scan"}, "type": "electric_bike"}, {"is_reserved": 0, "is_disabled": 0, "fusion_lon": 0.0, "lat": 38.899452333333336, "name": "6ec3af8876d93a643b604f2282558973", "bike_id": "6ec3af8876d93a643b604f2282558973", "lon": -77.03188933333334, "fusion_lat": 0.0, "rental_uris": {"android": "https://dc.lft.to/lastmile_qr_scan", "ios": "https://dc.lft.to/lastmile_qr_scan"}, "type": "electric_scooter"}, {"is_reserved": 0, "is_disabled": 0, "fusion_lon": 0.0, "lat": 38.92289666666667, "name": "4905bda2405f107ee8b4524496ccba97", "bike_id": "4905bda2405f107ee8b4524496ccba97", "lon": -77.0195235, "fusion_lat": 0.0, "rental_uris": {"android": "https://dc.lft.to/lastmile_qr_scan", "ios": "https://dc.lft.to/lastmile_qr_scan"}, "type": "electric_scooter"}, {"is_reserved": 0, "is_disabled": 0, "fusion_lon": 0.0, "lat": 38.849009, "name": "f57d7dadc13dee46fcc5674d276d6118", "bike_id": "f57d7dadc13dee46fcc5674d276d6118", "lon": -77.0779685, "fusion_lat": 0.0, "rental_uris": {"android": "https://dc.lft.to/lastmile_qr_scan", "ios": "https://dc.lft.to/lastmile_qr_scan"}, "type": "electric_bike"}, {"is_reserved": 0, "is_disabled": 0, "fusion_lon": 0.0, "lat": 38.918957, "name": "cf4c0709fac460dfb2ca14a5fad6e0f3", "bike_id": "cf4c0709fac460dfb2ca14a5fad6e0f3", "lon": -77.04475716666667, "fusion_lat": 0.0, "rental_uris": {"android": "https://dc.lft.to/lastmile_qr_scan", "ios": "https://dc.lft.to/lastmile_qr_scan"}, "type": "electric_scooter"}, {"is_reserved": 0, "is_disabled": 0, "fusion_lon": 0.0, "lat": 38.90280816666667, "name": "27274f533529e8544c1efeb013321a43", "bike_id": "27274f533529e8544c1efeb013321a43", "lon": -77.04699333333333, "fusion_lat": 0.0, "rental_uris": {"android": "https://dc.lft.to/lastmile_qr_scan", "ios": "https://dc.lft.to/lastmile_qr_scan"}, "type": "electric_scooter"}, {"is_reserved": 0, "is_disabled": 0, "fusion_lon": 0.0, "lat": 38.9340825, "name": "f92262abae9429ff7224a98bcdc6b525", "bike_id": "f92262abae9429ff7224a98bcdc6b525", "lon": -77.03276866666667, "fusion_lat": 0.0, "rental_uris": {"android": "https://dc.lft.to/lastmile_qr_scan", "ios": "https://dc.lft.to/lastmile_qr_scan"}, "type": "electric_scooter"}, {"is_reserved": 0, "is_disabled": 0, "fusion_lon": 0.0, "lat": 38.912419, "name": "a9518d139eb10e383be00b59cd604961", "bike_id": "a9518d139eb10e383be00b59cd604961", "lon": -77.02444, "fusion_lat": 0.0, "rental_uris": {"android": "https://dc.lft.to/lastmile_qr_scan", "ios": "https://dc.lft.to/lastmile_qr_scan"}, "type": "electric_scooter"}, {"is_reserved": 0, "is_disabled": 0, "fusion_lon": 0.0, "lat": 38.90174966666667, "name": "5346bf074198f929e18c798489a823d3", "bike_id": "5346bf074198f929e18c798489a823d3", "lon": -77.02209233333333, "fusion_lat": 0.0, "rental_uris": {"android": "https://dc.lft.to/lastmile_qr_scan", "ios": "https://dc.lft.to/lastmile_qr_scan"}, "type": "electric_scooter"}, {"is_reserved": 0, "is_disabled": 0, "fusion_lon": 0.0, "lat": 38.927085166666664, "name": "d6d238b5cbff31414632ec0aa7dfdec7", "bike_id": "d6d238b5cbff31414632ec0aa7dfdec7", "lon": -77.023321, "fusion_lat": 0.0, "rental_uris": {"android": "https://dc.lft.to/lastmile_qr_scan", "ios": "https://dc.lft.to/lastmile_qr_scan"}, "type": "electric_scooter"}, {"is_reserved": 0, "is_disabled": 0, "fusion_lon": 0.0, "lat": 38.867153333333334, "name": "36e43721033716f8bc59faa805765ff2", "bike_id": "36e43721033716f8bc59faa805765ff2", "lon": -77.010138, "fusion_lat": 0.0, "rental_uris": {"android": "https://dc.lft.to/lastmile_qr_scan", "ios": "https://dc.lft.to/lastmile_qr_scan"}, "type": "electric_scooter"}, {"is_reserved": 0, "is_disabled": 0, "fusion_lon": 0.0, "lat": 38.9213325, "name": "8c30abcc64c0895d7bfa275f6424d76f", "bike_id": "8c30abcc64c0895d7bfa275f6424d76f", "lon": -77.01802933333333, "fusion_lat": 0.0, "rental_uris": {"android": "https://dc.lft.to/lastmile_qr_scan", "ios": "https://dc.lft.to/lastmile_qr_scan"}, "type": "electric_scooter"}, {"is_reserved": 0, "is_disabled": 0, "fusion_lon": 0.0, "lat": 38.865237666666665, "name": "8541337d2d83cc1631a352af925de5ca", "bike_id": "8541337d2d83cc1631a352af925de5ca", "lon": -76.96909716666667, "fusion_lat": 0.0, "rental_uris": {"android": "https://dc.lft.to/lastmile_qr_scan", "ios": "https://dc.lft.to/lastmile_qr_scan"}, "type": "electric_scooter"}, {"is_reserved": 0, "is_disabled": 0, "fusion_lon": 0.0, "lat": 38.92449933333333, "name": "1090c0937867c113b041803efa51b674", "bike_id": "1090c0937867c113b041803efa51b674", "lon": -76.96828533333333, "fusion_lat": 0.0, "rental_uris": {"android": "https://dc.lft.to/lastmile_qr_scan", "ios": "https://dc.lft.to/lastmile_qr_scan"}, "type": "electric_scooter"}, {"is_reserved": 0, "is_disabled": 0, "fusion_lon": 0.0, "lat": 38.87299216666667, "name": "d89aa19154511388a35a77a44aab7661", "bike_id": "d89aa19154511388a35a77a44aab7661", "lon": -77.01581166666666, "fusion_lat": 0.0, "rental_uris": {"android": "https://dc.lft.to/lastmile_qr_scan", "ios": "https://dc.lft.to/lastmile_qr_scan"}, "type": "electric_scooter"}, {"is_reserved": 0, "is_disabled": 0, "fusion_lon": 0.0, "lat": 38.8843925, "name": "6b89f0bca73926eac5e38f96e7eced60", "bike_id": "6b89f0bca73926eac5e38f96e7eced60", "lon": -76.9576735, "fusion_lat": 0.0, "rental_uris": {"android": "https://dc.lft.to/lastmile_qr_scan", "ios": "https://dc.lft.to/lastmile_qr_scan"}, "type": "electric_scooter"}, {"is_reserved": 0, "is_disabled": 0, "fusion_lon": 0.0, "lat": 38.90311033333333, "name": "da54eb13a36b7da6d5b1a7adcf749dbe", "bike_id": "da54eb13a36b7da6d5b1a7adcf749dbe", "lon": -76.97501133333333, "fusion_lat": 0.0, "rental_uris": {"android": "https://dc.lft.to/lastmile_qr_scan", "ios": "https://dc.lft.to/lastmile_qr_scan"}, "type": "electric_scooter"}, {"is_reserved": 0, "is_disabled": 0, "fusion_lon": 0.0, "lat": 38.88440516666667, "name": "9b248f72828d021ec09a8265eb75da71", "bike_id": "9b248f72828d021ec09a8265eb75da71", "lon": -76.99729483333333, "fusion_lat": 0.0, "rental_uris": {"android": "https://dc.lft.to/lastmile_qr_scan", "ios": "https://dc.lft.to/lastmile_qr_scan"}, "type": "electric_scooter"}, {"is_reserved": 0, "is_disabled": 0, "fusion_lon": 0.0, "lat": 38.91251483333333, "name": "62e65f0762b3cb2f4ef176fb3a2a9e42", "bike_id": "62e65f0762b3cb2f4ef176fb3a2a9e42", "lon": -77.01345116666667, "fusion_lat": 0.0, "rental_uris": {"android": "https://dc.lft.to/lastmile_qr_scan", "ios": "https://dc.lft.to/lastmile_qr_scan"}, "type": "electric_bike"}, {"is_reserved": 0, "is_disabled": 0, "fusion_lon": 0.0, "lat": 38.92507833333333, "name": "2a8932fd6b36afb54a8cc71fa1e27bc9", "bike_id": "2a8932fd6b36afb54a8cc71fa1e27bc9", "lon": -77.0258115, "fusion_lat": 0.0, "rental_uris": {"android": "https://dc.lft.to/lastmile_qr_scan", "ios": "https://dc.lft.to/lastmile_qr_scan"}, "type": "electric_scooter"}, {"is_reserved": 0, "is_disabled": 0, "fusion_lon": 0.0, "lat": 38.9198245, "name": "1a8602a8b42ceb97c1401f02989ff46a", "bike_id": "1a8602a8b42ceb97c1401f02989ff46a", "lon": -77.02175416666667, "fusion_lat": 0.0, "rental_uris": {"android": "https://dc.lft.to/lastmile_qr_scan", "ios": "https://dc.lft.to/lastmile_qr_scan"}, "type": "electric_scooter"}, {"is_reserved": 0, "is_disabled": 0, "fusion_lon": 0.0, "lat": 38.915733, "name": "e1f1fe4fb1481bf8875d3d59e5c7ae38", "bike_id": "e1f1fe4fb1481bf8875d3d59e5c7ae38", "lon": -77.067909, "fusion_lat": 0.0, "rental_uris": {"android": "https://dc.lft.to/lastmile_qr_scan", "ios": "https://dc.lft.to/lastmile_qr_scan"}, "type": "electric_scooter"}, {"is_reserved": 0, "is_disabled": 0, "fusion_lon": 0.0, "lat": 38.939821, "name": "3622e78218246f0cc4e51c916fdc95e9", "bike_id": "3622e78218246f0cc4e51c916fdc95e9", "lon": -77.03026633333333, "fusion_lat": 0.0, "rental_uris": {"android": "https://dc.lft.to/lastmile_qr_scan", "ios": "https://dc.lft.to/lastmile_qr_scan"}, "type": "electric_scooter"}, {"is_reserved": 0, "is_disabled": 0, "fusion_lon": 0.0, "lat": 38.934640333333334, "name": "3e61242225e43ba8e555d776db68f0da", "bike_id": "3e61242225e43ba8e555d776db68f0da", "lon": -77.05811933333334, "fusion_lat": 0.0, "rental_uris": {"android": "https://dc.lft.to/lastmile_qr_scan", "ios": "https://dc.lft.to/lastmile_qr_scan"}, "type": "electric_scooter"}, {"is_reserved": 0, "is_disabled": 0, "fusion_lon": 0.0, "lat": 38.9248445, "name": "ca53830294a8bebf72333bb100d1b4ad", "bike_id": "ca53830294a8bebf72333bb100d1b4ad", "lon": -77.03005033333334, "fusion_lat": 0.0, "rental_uris": {"android": "https://dc.lft.to/lastmile_qr_scan", "ios": "https://dc.lft.to/lastmile_qr_scan"}, "type": "electric_scooter"}, {"is_reserved": 0, "is_disabled": 0, "fusion_lon": 0.0, "lat": 38.901022166666664, "name": "6f4a87a57b41a9f64a86a81be23e8e67", "bike_id": "6f4a87a57b41a9f64a86a81be23e8e67", "lon": -77.01763966666667, "fusion_lat": 0.0, "rental_uris": {"android": "https://dc.lft.to/lastmile_qr_scan", "ios": "https://dc.lft.to/lastmile_qr_scan"}, "type": "electric_scooter"}, {"is_reserved": 0, "is_disabled": 0, "fusion_lon": 0.0, "lat": 38.95733166666667, "name": "1770a43dd1a142b864f83e9ea185eff0", "bike_id": "1770a43dd1a142b864f83e9ea185eff0", "lon": -77.024014, "fusion_lat": 0.0, "rental_uris": {"android": "https://dc.lft.to/lastmile_qr_scan", "ios": "https://dc.lft.to/lastmile_qr_scan"}, "type": "electric_scooter"}, {"is_reserved": 0, "is_disabled": 0, "fusion_lon": 0.0, "lat": 38.906871833333334, "name": "633754f778de13537717d3d63ec70c48", "bike_id": "633754f778de13537717d3d63ec70c48", "lon": -77.0269205, "fusion_lat": 0.0, "rental_uris": {"android": "https://dc.lft.to/lastmile_qr_scan", "ios": "https://dc.lft.to/lastmile_qr_scan"}, "type": "electric_scooter"}, {"is_reserved": 0, "is_disabled": 0, "fusion_lon": 0.0, "lat": 38.909584, "name": "0fb02f32957de530ce0c26409973449a", "bike_id": "0fb02f32957de530ce0c26409973449a", "lon": -77.0228225, "fusion_lat": 0.0, "rental_uris": {"android": "https://dc.lft.to/lastmile_qr_scan", "ios": "https://dc.lft.to/lastmile_qr_scan"}, "type": "electric_scooter"}, {"is_reserved": 0, "is_disabled": 0, "fusion_lon": 0.0, "lat": 38.923138, "name": "45aeece1928491756c65c229b79ec099", "bike_id": "45aeece1928491756c65c229b79ec099", "lon": -77.029092, "fusion_lat": 0.0, "rental_uris": {"android": "https://dc.lft.to/lastmile_qr_scan", "ios": "https://dc.lft.to/lastmile_qr_scan"}, "type": "electric_scooter"}, {"is_reserved": 0, "is_disabled": 0, "fusion_lon": 0.0, "lat": 38.95115533333333, "name": "6a7071aed722a83972d1c1dbb5e00d11", "bike_id": "6a7071aed722a83972d1c1dbb5e00d11", "lon": -77.088733, "fusion_lat": 0.0, "rental_uris": {"android": "https://dc.lft.to/lastmile_qr_scan", "ios": "https://dc.lft.to/lastmile_qr_scan"}, "type": "electric_bike"}, {"is_reserved": 0, "is_disabled": 0, "fusion_lon": 0.0, "lat": 38.937027, "name": "4fe5e94008e6977b0ff4d1ce162ebd8b", "bike_id": "4fe5e94008e6977b0ff4d1ce162ebd8b", "lon": -77.05615333333333, "fusion_lat": 0.0, "rental_uris": {"android": "https://dc.lft.to/lastmile_qr_scan", "ios": "https://dc.lft.to/lastmile_qr_scan"}, "type": "electric_scooter"}, {"is_reserved": 0, "is_disabled": 0, "fusion_lon": 0.0, "lat": 38.91917316666667, "name": "70e4878d6e0f46debf38f7def755bf91", "bike_id": "70e4878d6e0f46debf38f7def755bf91", "lon": -77.02618316666667, "fusion_lat": 0.0, "rental_uris": {"android": "https://dc.lft.to/lastmile_qr_scan", "ios": "https://dc.lft.to/lastmile_qr_scan"}, "type": "electric_scooter"}, {"is_reserved": 0, "is_disabled": 0, "fusion_lon": 0.0, "lat": 38.894934166666665, "name": "5752bf6169fa0549a8ab8052c3bd7e91", "bike_id": "5752bf6169fa0549a8ab8052c3bd7e91", "lon": -76.9489605, "fusion_lat": 0.0, "rental_uris": {"android": "https://dc.lft.to/lastmile_qr_scan", "ios": "https://dc.lft.to/lastmile_qr_scan"}, "type": "electric_scooter"}, {"is_reserved": 0, "is_disabled": 0, "fusion_lon": 0.0, "lat": 38.8971935, "name": "3902a462c374ab723e5b3362bc1045e9", "bike_id": "3902a462c374ab723e5b3362bc1045e9", "lon": -77.00802483333334, "fusion_lat": 0.0, "rental_uris": {"android": "https://dc.lft.to/lastmile_qr_scan", "ios": "https://dc.lft.to/lastmile_qr_scan"}, "type": "electric_scooter"}, {"is_reserved": 0, "is_disabled": 0, "fusion_lon": 0.0, "lat": 38.91589183333333, "name": "896c77c4e0dd3a7c984e372c028d28fd", "bike_id": "896c77c4e0dd3a7c984e372c028d28fd", "lon": -77.04482083333333, "fusion_lat": 0.0, "rental_uris": {"android": "https://dc.lft.to/lastmile_qr_scan", "ios": "https://dc.lft.to/lastmile_qr_scan"}, "type": "electric_scooter"}, {"is_reserved": 0, "is_disabled": 0, "fusion_lon": 0.0, "lat": 38.894840333333335, "name": "cf83fd6726b10b1d11256a00f1a780d7", "bike_id": "cf83fd6726b10b1d11256a00f1a780d7", "lon": -76.99502116666666, "fusion_lat": 0.0, "rental_uris": {"android": "https://dc.lft.to/lastmile_qr_scan", "ios": "https://dc.lft.to/lastmile_qr_scan"}, "type": "electric_scooter"}, {"is_reserved": 0, "is_disabled": 0, "fusion_lon": 0.0, "lat": 38.9232455, "name": "be7c29f548eb623a0a5759906963a0c9", "bike_id": "be7c29f548eb623a0a5759906963a0c9", "lon": -77.02966216666667, "fusion_lat": 0.0, "rental_uris": {"android": "https://dc.lft.to/lastmile_qr_scan", "ios": "https://dc.lft.to/lastmile_qr_scan"}, "type": "electric_scooter"}, {"is_reserved": 0, "is_disabled": 0, "fusion_lon": 0.0, "lat": 38.9248475, "name": "cd88fb8cbef0f68ffd96cf8dfc68da09", "bike_id": "cd88fb8cbef0f68ffd96cf8dfc68da09", "lon": -77.02277816666667, "fusion_lat": 0.0, "rental_uris": {"android": "https://dc.lft.to/lastmile_qr_scan", "ios": "https://dc.lft.to/lastmile_qr_scan"}, "type": "electric_scooter"}, {"is_reserved": 0, "is_disabled": 0, "fusion_lon": 0.0, "lat": 38.9331355, "name": "8472335f3ecf08a6fe27d7081ed39977", "bike_id": "8472335f3ecf08a6fe27d7081ed39977", "lon": -77.03622766666666, "fusion_lat": 0.0, "rental_uris": {"android": "https://dc.lft.to/lastmile_qr_scan", "ios": "https://dc.lft.to/lastmile_qr_scan"}, "type": "electric_scooter"}, {"is_reserved": 0, "is_disabled": 0, "fusion_lon": 0.0, "lat": 38.9066705, "name": "82745ade769a0372fe386cdb95b46f66", "bike_id": "82745ade769a0372fe386cdb95b46f66", "lon": -77.0270985, "fusion_lat": 0.0, "rental_uris": {"android": "https://dc.lft.to/lastmile_qr_scan", "ios": "https://dc.lft.to/lastmile_qr_scan"}, "type": "electric_scooter"}, {"is_reserved": 0, "is_disabled": 0, "fusion_lon": 0.0, "lat": 38.9208015, "name": "77908b53dcf23b15dac21b139da348c8", "bike_id": "77908b53dcf23b15dac21b139da348c8", "lon": -77.02303216666667, "fusion_lat": 0.0, "rental_uris": {"android": "https://dc.lft.to/lastmile_qr_scan", "ios": "https://dc.lft.to/lastmile_qr_scan"}, "type": "electric_scooter"}, {"is_reserved": 0, "is_disabled": 0, "fusion_lon": 0.0, "lat": 38.91324066666667, "name": "c4c8c0b8af04062f2f4a1af4852f6851", "bike_id": "c4c8c0b8af04062f2f4a1af4852f6851", "lon": -77.04549033333333, "fusion_lat": 0.0, "rental_uris": {"android": "https://dc.lft.to/lastmile_qr_scan", "ios": "https://dc.lft.to/lastmile_qr_scan"}, "type": "electric_scooter"}, {"is_reserved": 0, "is_disabled": 0, "fusion_lon": 0.0, "lat": 38.882363833333336, "name": "153535344706009328c8fd533278f2a7", "bike_id": "153535344706009328c8fd533278f2a7", "lon": -76.99500283333333, "fusion_lat": 0.0, "rental_uris": {"android": "https://dc.lft.to/lastmile_qr_scan", "ios": "https://dc.lft.to/lastmile_qr_scan"}, "type": "electric_scooter"}, {"is_reserved": 0, "is_disabled": 0, "fusion_lon": 0.0, "lat": 38.92083216666666, "name": "3a8706b025af914b0a1ce8cbca4c0189", "bike_id": "3a8706b025af914b0a1ce8cbca4c0189", "lon": -77.0253585, "fusion_lat": 0.0, "rental_uris": {"android": "https://dc.lft.to/lastmile_qr_scan", "ios": "https://dc.lft.to/lastmile_qr_scan"}, "type": "electric_scooter"}, {"is_reserved": 0, "is_disabled": 0, "fusion_lon": 0.0, "lat": 38.980203, "name": "2cf53309bc87bb9aa57faccce832ff4d", "bike_id": "2cf53309bc87bb9aa57faccce832ff4d", "lon": -76.9424345, "fusion_lat": 0.0, "rental_uris": {"android": "https://dc.lft.to/lastmile_qr_scan", "ios": "https://dc.lft.to/lastmile_qr_scan"}, "type": "electric_bike"}, {"is_reserved": 0, "is_disabled": 0, "fusion_lon": 0.0, "lat": 38.91417333333333, "name": "3a01deec4c6602d931677e9e5f324ea4", "bike_id": "3a01deec4c6602d931677e9e5f324ea4", "lon": -77.04502616666667, "fusion_lat": 0.0, "rental_uris": {"android": "https://dc.lft.to/lastmile_qr_scan", "ios": "https://dc.lft.to/lastmile_qr_scan"}, "type": "electric_scooter"}, {"is_reserved": 0, "is_disabled": 0, "fusion_lon": 0.0, "lat": 38.9111015, "name": "a288dcccb1dbb27ebff5af02bb77804c", "bike_id": "a288dcccb1dbb27ebff5af02bb77804c", "lon": -77.0116235, "fusion_lat": 0.0, "rental_uris": {"android": "https://dc.lft.to/lastmile_qr_scan", "ios": "https://dc.lft.to/lastmile_qr_scan"}, "type": "electric_scooter"}, {"is_reserved": 0, "is_disabled": 0, "fusion_lon": 0.0, "lat": 38.92277133333333, "name": "dbd7adb289b3626af5bf9fe4a87fc913", "bike_id": "dbd7adb289b3626af5bf9fe4a87fc913", "lon": -77.0340525, "fusion_lat": 0.0, "rental_uris": {"android": "https://dc.lft.to/lastmile_qr_scan", "ios": "https://dc.lft.to/lastmile_qr_scan"}, "type": "electric_scooter"}, {"is_reserved": 0, "is_disabled": 0, "fusion_lon": 0.0, "lat": 38.89214883333333, "name": "c5e47a652c59935cb1915e52b6326e52", "bike_id": "c5e47a652c59935cb1915e52b6326e52", "lon": -76.9795775, "fusion_lat": 0.0, "rental_uris": {"android": "https://dc.lft.to/lastmile_qr_scan", "ios": "https://dc.lft.to/lastmile_qr_scan"}, "type": "electric_scooter"}, {"is_reserved": 0, "is_disabled": 0, "fusion_lon": 0.0, "lat": 38.871770833333336, "name": "a7a774c27c3d1c92240484f494a6faee", "bike_id": "a7a774c27c3d1c92240484f494a6faee", "lon": -77.23395466666666, "fusion_lat": 0.0, "rental_uris": {"android": "https://dc.lft.to/lastmile_qr_scan", "ios": "https://dc.lft.to/lastmile_qr_scan"}, "type": "electric_bike"}, {"is_reserved": 0, "is_disabled": 0, "fusion_lon": 0.0, "lat": 38.906151666666666, "name": "7fd24b8bbe1f8f022ddac2b0a9bdc951", "bike_id": "7fd24b8bbe1f8f022ddac2b0a9bdc951", "lon": -77.050314, "fusion_lat": 0.0, "rental_uris": {"android": "https://dc.lft.to/lastmile_qr_scan", "ios": "https://dc.lft.to/lastmile_qr_scan"}, "type": "electric_scooter"}, {"is_reserved": 0, "is_disabled": 0, "fusion_lon": 0.0, "lat": 38.900366166666664, "name": "ef5d0539dc05e3f8524d6f67565e44d9", "bike_id": "ef5d0539dc05e3f8524d6f67565e44d9", "lon": -76.99846283333333, "fusion_lat": 0.0, "rental_uris": {"android": "https://dc.lft.to/lastmile_qr_scan", "ios": "https://dc.lft.to/lastmile_qr_scan"}, "type": "electric_scooter"}, {"is_reserved": 0, "is_disabled": 0, "fusion_lon": 0.0, "lat": 38.8757955, "name": "cfa15364a432644e1ec2a782bd10cf04", "bike_id": "cfa15364a432644e1ec2a782bd10cf04", "lon": -77.00580216666667, "fusion_lat": 0.0, "rental_uris": {"android": "https://dc.lft.to/lastmile_qr_scan", "ios": "https://dc.lft.to/lastmile_qr_scan"}, "type": "electric_scooter"}, {"is_reserved": 0, "is_disabled": 0, "fusion_lon": 0.0, "lat": 38.90443333333333, "name": "7bd88b182ccaa314fd8edd77aa975898", "bike_id": "7bd88b182ccaa314fd8edd77aa975898", "lon": -77.03453533333334, "fusion_lat": 0.0, "rental_uris": {"android": "https://dc.lft.to/lastmile_qr_scan", "ios": "https://dc.lft.to/lastmile_qr_scan"}, "type": "electric_scooter"}, {"is_reserved": 0, "is_disabled": 0, "fusion_lon": 0.0, "lat": 38.90392516666667, "name": "264f566b133f6d25dc0241e76d723b82", "bike_id": "264f566b133f6d25dc0241e76d723b82", "lon": -76.99012166666667, "fusion_lat": 0.0, "rental_uris": {"android": "https://dc.lft.to/lastmile_qr_scan", "ios": "https://dc.lft.to/lastmile_qr_scan"}, "type": "electric_scooter"}, {"is_reserved": 0, "is_disabled": 0, "fusion_lon": 0.0, "lat": 38.888582166666666, "name": "9d52e8ce3b549535f10dffeddfd2bc53", "bike_id": "9d52e8ce3b549535f10dffeddfd2bc53", "lon": -77.032378, "fusion_lat": 0.0, "rental_uris": {"android": "https://dc.lft.to/lastmile_qr_scan", "ios": "https://dc.lft.to/lastmile_qr_scan"}, "type": "electric_bike"}, {"is_reserved": 0, "is_disabled": 0, "fusion_lon": 0.0, "lat": 38.8090195, "name": "c85950bc5c90c68f5334f46a90f1bc19", "bike_id": "c85950bc5c90c68f5334f46a90f1bc19", "lon": -77.11559533333333, "fusion_lat": 0.0, "rental_uris": {"android": "https://dc.lft.to/lastmile_qr_scan", "ios": "https://dc.lft.to/lastmile_qr_scan"}, "type": "electric_bike"}, {"is_reserved": 0, "is_disabled": 0, "fusion_lon": 0.0, "lat": 38.927883333333334, "name": "5543f61271690dd788c175f2029d960a", "bike_id": "5543f61271690dd788c175f2029d960a", "lon": -77.02214416666666, "fusion_lat": 0.0, "rental_uris": {"android": "https://dc.lft.to/lastmile_qr_scan", "ios": "https://dc.lft.to/lastmile_qr_scan"}, "type": "electric_scooter"}, {"is_reserved": 0, "is_disabled": 0, "fusion_lon": 0.0, "lat": 38.91755366666667, "name": "69280511c0bf18ae71eabb51d37e8d3f", "bike_id": "69280511c0bf18ae71eabb51d37e8d3f", "lon": -77.00919033333334, "fusion_lat": 0.0, "rental_uris": {"android": "https://dc.lft.to/lastmile_qr_scan", "ios": "https://dc.lft.to/lastmile_qr_scan"}, "type": "electric_scooter"}, {"is_reserved": 0, "is_disabled": 0, "fusion_lon": 0.0, "lat": 38.900433, "name": "68fc0cb10289343e4b2f7418904b6e94", "bike_id": "68fc0cb10289343e4b2f7418904b6e94", "lon": -77.0021575, "fusion_lat": 0.0, "rental_uris": {"android": "https://dc.lft.to/lastmile_qr_scan", "ios": "https://dc.lft.to/lastmile_qr_scan"}, "type": "electric_scooter"}, {"is_reserved": 0, "is_disabled": 0, "fusion_lon": 0.0, "lat": 38.9186065, "name": "e7b685b602987ff32d2cbbf8662bbda7", "bike_id": "e7b685b602987ff32d2cbbf8662bbda7", "lon": -77.04482166666666, "fusion_lat": 0.0, "rental_uris": {"android": "https://dc.lft.to/lastmile_qr_scan", "ios": "https://dc.lft.to/lastmile_qr_scan"}, "type": "electric_scooter"}, {"is_reserved": 0, "is_disabled": 0, "fusion_lon": 0.0, "lat": 38.91557566666667, "name": "e38566d789b079c09164f52a6063fa3e", "bike_id": "e38566d789b079c09164f52a6063fa3e", "lon": -77.036777, "fusion_lat": 0.0, "rental_uris": {"android": "https://dc.lft.to/lastmile_qr_scan", "ios": "https://dc.lft.to/lastmile_qr_scan"}, "type": "electric_scooter"}, {"is_reserved": 0, "is_disabled": 0, "fusion_lon": 0.0, "lat": 38.867130333333336, "name": "820b32023363c1ff3c6e614a7a92a752", "bike_id": "820b32023363c1ff3c6e614a7a92a752", "lon": -77.01010766666667, "fusion_lat": 0.0, "rental_uris": {"android": "https://dc.lft.to/lastmile_qr_scan", "ios": "https://dc.lft.to/lastmile_qr_scan"}, "type": "electric_scooter"}, {"is_reserved": 0, "is_disabled": 0, "fusion_lon": 0.0, "lat": 38.93308233333333, "name": "1e0d3d3e5b375a797f3e4cfde61ccfb3", "bike_id": "1e0d3d3e5b375a797f3e4cfde61ccfb3", "lon": -77.030654, "fusion_lat": 0.0, "rental_uris": {"android": "https://dc.lft.to/lastmile_qr_scan", "ios": "https://dc.lft.to/lastmile_qr_scan"}, "type": "electric_scooter"}, {"is_reserved": 0, "is_disabled": 0, "fusion_lon": 0.0, "lat": 38.91662683333333, "name": "01bc328c5c717fa68d1db6bc6d19274f", "bike_id": "01bc328c5c717fa68d1db6bc6d19274f", "lon": -77.03859533333333, "fusion_lat": 0.0, "rental_uris": {"android": "https://dc.lft.to/lastmile_qr_scan", "ios": "https://dc.lft.to/lastmile_qr_scan"}, "type": "electric_scooter"}, {"is_reserved": 0, "is_disabled": 0, "fusion_lon": 0.0, "lat": 38.90279666666667, "name": "322ef79f92b786e95dde94be7699dba6", "bike_id": "322ef79f92b786e95dde94be7699dba6", "lon": -77.06020933333333, "fusion_lat": 0.0, "rental_uris": {"android": "https://dc.lft.to/lastmile_qr_scan", "ios": "https://dc.lft.to/lastmile_qr_scan"}, "type": "electric_scooter"}, {"is_reserved": 0, "is_disabled": 0, "fusion_lon": 0.0, "lat": 38.90717933333333, "name": "3aea5d6361a3d1cbc2db97cd4123a043", "bike_id": "3aea5d6361a3d1cbc2db97cd4123a043", "lon": -77.03225633333334, "fusion_lat": 0.0, "rental_uris": {"android": "https://dc.lft.to/lastmile_qr_scan", "ios": "https://dc.lft.to/lastmile_qr_scan"}, "type": "electric_scooter"}, {"is_reserved": 0, "is_disabled": 0, "fusion_lon": 0.0, "lat": 38.92468083333333, "name": "a7feaf0290da5ad42af087c14941520d", "bike_id": "a7feaf0290da5ad42af087c14941520d", "lon": -77.02722233333333, "fusion_lat": 0.0, "rental_uris": {"android": "https://dc.lft.to/lastmile_qr_scan", "ios": "https://dc.lft.to/lastmile_qr_scan"}, "type": "electric_scooter"}, {"is_reserved": 0, "is_disabled": 0, "fusion_lon": 0.0, "lat": 38.902696, "name": "a2f673ab47f38b50d228178a0f580fee", "bike_id": "a2f673ab47f38b50d228178a0f580fee", "lon": -77.01759116666666, "fusion_lat": 0.0, "rental_uris": {"android": "https://dc.lft.to/lastmile_qr_scan", "ios": "https://dc.lft.to/lastmile_qr_scan"}, "type": "electric_scooter"}, {"is_reserved": 0, "is_disabled": 0, "fusion_lon": 0.0, "lat": 38.935905166666664, "name": "8f2117918227268718ec0f0a4c2ff19a", "bike_id": "8f2117918227268718ec0f0a4c2ff19a", "lon": -77.05848116666667, "fusion_lat": 0.0, "rental_uris": {"android": "https://dc.lft.to/lastmile_qr_scan", "ios": "https://dc.lft.to/lastmile_qr_scan"}, "type": "electric_scooter"}, {"is_reserved": 0, "is_disabled": 0, "fusion_lon": 0.0, "lat": 38.887864666666665, "name": "a25b87fb50ded442d02a6d3734dd16c8", "bike_id": "a25b87fb50ded442d02a6d3734dd16c8", "lon": -77.01595816666666, "fusion_lat": 0.0, "rental_uris": {"android": "https://dc.lft.to/lastmile_qr_scan", "ios": "https://dc.lft.to/lastmile_qr_scan"}, "type": "electric_scooter"}, {"is_reserved": 0, "is_disabled": 0, "fusion_lon": 0.0, "lat": 38.8985215, "name": "9ab15f041cb2c1049c569c6f624beada", "bike_id": "9ab15f041cb2c1049c569c6f624beada", "lon": -76.93189066666666, "fusion_lat": 0.0, "rental_uris": {"android": "https://dc.lft.to/lastmile_qr_scan", "ios": "https://dc.lft.to/lastmile_qr_scan"}, "type": "electric_bike"}, {"is_reserved": 0, "is_disabled": 0, "fusion_lon": 0.0, "lat": 38.9535685, "name": "b1125ae4b90c31804ab163157686dc30", "bike_id": "b1125ae4b90c31804ab163157686dc30", "lon": -76.9808955, "fusion_lat": 0.0, "rental_uris": {"android": "https://dc.lft.to/lastmile_qr_scan", "ios": "https://dc.lft.to/lastmile_qr_scan"}, "type": "electric_bike"}, {"is_reserved": 0, "is_disabled": 0, "fusion_lon": 0.0, "lat": 38.923084333333335, "name": "0c33d0b8fb54f0b40fcd55cb58961c4b", "bike_id": "0c33d0b8fb54f0b40fcd55cb58961c4b", "lon": -77.03111516666667, "fusion_lat": 0.0, "rental_uris": {"android": "https://dc.lft.to/lastmile_qr_scan", "ios": "https://dc.lft.to/lastmile_qr_scan"}, "type": "electric_scooter"}, {"is_reserved": 0, "is_disabled": 0, "fusion_lon": 0.0, "lat": 38.88878733333333, "name": "e6984eb2ffd02ab8288470d4c8526afd", "bike_id": "e6984eb2ffd02ab8288470d4c8526afd", "lon": -76.98676916666666, "fusion_lat": 0.0, "rental_uris": {"android": "https://dc.lft.to/lastmile_qr_scan", "ios": "https://dc.lft.to/lastmile_qr_scan"}, "type": "electric_scooter"}, {"is_reserved": 0, "is_disabled": 0, "fusion_lon": 0.0, "lat": 38.901908166666665, "name": "c191b1b3f486356fd4bfc824a9aaaf31", "bike_id": "c191b1b3f486356fd4bfc824a9aaaf31", "lon": -76.9300565, "fusion_lat": 0.0, "rental_uris": {"android": "https://dc.lft.to/lastmile_qr_scan", "ios": "https://dc.lft.to/lastmile_qr_scan"}, "type": "electric_scooter"}, {"is_reserved": 0, "is_disabled": 0, "fusion_lon": 0.0, "lat": 38.898014333333336, "name": "5ff45873e1694ce15deeeba764ded478", "bike_id": "5ff45873e1694ce15deeeba764ded478", "lon": -77.02920183333333, "fusion_lat": 0.0, "rental_uris": {"android": "https://dc.lft.to/lastmile_qr_scan", "ios": "https://dc.lft.to/lastmile_qr_scan"}, "type": "electric_scooter"}, {"is_reserved": 0, "is_disabled": 0, "fusion_lon": 0.0, "lat": 38.90544333333333, "name": "a9683e673de933882f2d68c32eb23f37", "bike_id": "a9683e673de933882f2d68c32eb23f37", "lon": -77.006047, "fusion_lat": 0.0, "rental_uris": {"android": "https://dc.lft.to/lastmile_qr_scan", "ios": "https://dc.lft.to/lastmile_qr_scan"}, "type": "electric_scooter"}, {"is_reserved": 0, "is_disabled": 0, "fusion_lon": 0.0, "lat": 38.91712183333333, "name": "69eaa75c1e21269c4bc97eafdb4554be", "bike_id": "69eaa75c1e21269c4bc97eafdb4554be", "lon": -77.03220716666667, "fusion_lat": 0.0, "rental_uris": {"android": "https://dc.lft.to/lastmile_qr_scan", "ios": "https://dc.lft.to/lastmile_qr_scan"}, "type": "electric_scooter"}, {"is_reserved": 0, "is_disabled": 0, "fusion_lon": 0.0, "lat": 38.92468483333333, "name": "c99e532ed2d5d385746ed35b70a912e4", "bike_id": "c99e532ed2d5d385746ed35b70a912e4", "lon": -77.03834116666667, "fusion_lat": 0.0, "rental_uris": {"android": "https://dc.lft.to/lastmile_qr_scan", "ios": "https://dc.lft.to/lastmile_qr_scan"}, "type": "electric_scooter"}, {"is_reserved": 0, "is_disabled": 0, "fusion_lon": 0.0, "lat": 38.9198175, "name": "bbd5549d0e1cb90bfc2919d7a3b4f7af", "bike_id": "bbd5549d0e1cb90bfc2919d7a3b4f7af", "lon": -77.02166833333334, "fusion_lat": 0.0, "rental_uris": {"android": "https://dc.lft.to/lastmile_qr_scan", "ios": "https://dc.lft.to/lastmile_qr_scan"}, "type": "electric_scooter"}, {"is_reserved": 0, "is_disabled": 0, "fusion_lon": 0.0, "lat": 38.92202866666667, "name": "83213f758f2f5d85659bba6e82869adb", "bike_id": "83213f758f2f5d85659bba6e82869adb", "lon": -77.04322133333334, "fusion_lat": 0.0, "rental_uris": {"android": "https://dc.lft.to/lastmile_qr_scan", "ios": "https://dc.lft.to/lastmile_qr_scan"}, "type": "electric_scooter"}, {"is_reserved": 0, "is_disabled": 0, "fusion_lon": 0.0, "lat": 38.919851666666666, "name": "afaa5d0ccc533fd47c9aab5a35b3b04a", "bike_id": "afaa5d0ccc533fd47c9aab5a35b3b04a", "lon": -77.0218625, "fusion_lat": 0.0, "rental_uris": {"android": "https://dc.lft.to/lastmile_qr_scan", "ios": "https://dc.lft.to/lastmile_qr_scan"}, "type": "electric_scooter"}, {"is_reserved": 0, "is_disabled": 0, "fusion_lon": 0.0, "lat": 38.819185833333336, "name": "7251dd63c377fdf6580b8747e4aad45c", "bike_id": "7251dd63c377fdf6580b8747e4aad45c", "lon": -77.1266335, "fusion_lat": 0.0, "rental_uris": {"android": "https://dc.lft.to/lastmile_qr_scan", "ios": "https://dc.lft.to/lastmile_qr_scan"}, "type": "electric_bike"}, {"is_reserved": 0, "is_disabled": 0, "fusion_lon": 0.0, "lat": 38.907748166666664, "name": "01c5e3e336c3c9715389d8c22184293d", "bike_id": "01c5e3e336c3c9715389d8c22184293d", "lon": -77.0716615, "fusion_lat": 0.0, "rental_uris": {"android": "https://dc.lft.to/lastmile_qr_scan", "ios": "https://dc.lft.to/lastmile_qr_scan"}, "type": "electric_scooter"}, {"is_reserved": 0, "is_disabled": 0, "fusion_lon": 0.0, "lat": 38.90022616666667, "name": "970ea48512893015da943f2ad68298fe", "bike_id": "970ea48512893015da943f2ad68298fe", "lon": -77.012381, "fusion_lat": 0.0, "rental_uris": {"android": "https://dc.lft.to/lastmile_qr_scan", "ios": "https://dc.lft.to/lastmile_qr_scan"}, "type": "electric_scooter"}, {"is_reserved": 0, "is_disabled": 0, "fusion_lon": 0.0, "lat": 38.924744, "name": "e62e613b3f99003d5b3c7f44e678a722", "bike_id": "e62e613b3f99003d5b3c7f44e678a722", "lon": -77.02896216666667, "fusion_lat": 0.0, "rental_uris": {"android": "https://dc.lft.to/lastmile_qr_scan", "ios": "https://dc.lft.to/lastmile_qr_scan"}, "type": "electric_scooter"}, {"is_reserved": 0, "is_disabled": 0, "fusion_lon": 0.0, "lat": 38.9067295, "name": "b4ae616d60e962c62e7a6de9a4dee284", "bike_id": "b4ae616d60e962c62e7a6de9a4dee284", "lon": -77.03676616666667, "fusion_lat": 0.0, "rental_uris": {"android": "https://dc.lft.to/lastmile_qr_scan", "ios": "https://dc.lft.to/lastmile_qr_scan"}, "type": "electric_scooter"}, {"is_reserved": 0, "is_disabled": 0, "fusion_lon": 0.0, "lat": 38.93602416666667, "name": "0bf902b2baaef4f38fffbe56f588a799", "bike_id": "0bf902b2baaef4f38fffbe56f588a799", "lon": -77.03545433333333, "fusion_lat": 0.0, "rental_uris": {"android": "https://dc.lft.to/lastmile_qr_scan", "ios": "https://dc.lft.to/lastmile_qr_scan"}, "type": "electric_scooter"}, {"is_reserved": 0, "is_disabled": 0, "fusion_lon": 0.0, "lat": 38.92995483333333, "name": "9ed53fa7d8543c7d982bbab4e429e56a", "bike_id": "9ed53fa7d8543c7d982bbab4e429e56a", "lon": -77.03775516666667, "fusion_lat": 0.0, "rental_uris": {"android": "https://dc.lft.to/lastmile_qr_scan", "ios": "https://dc.lft.to/lastmile_qr_scan"}, "type": "electric_scooter"}, {"is_reserved": 0, "is_disabled": 0, "fusion_lon": 0.0, "lat": 38.892913166666666, "name": "96e974561b808733a94ebfeab61ad6b7", "bike_id": "96e974561b808733a94ebfeab61ad6b7", "lon": -76.976173, "fusion_lat": 0.0, "rental_uris": {"android": "https://dc.lft.to/lastmile_qr_scan", "ios": "https://dc.lft.to/lastmile_qr_scan"}, "type": "electric_bike"}, {"is_reserved": 0, "is_disabled": 0, "fusion_lon": 0.0, "lat": 38.89220916666667, "name": "860d5f9e685c246b8c8a409e773a0c8c", "bike_id": "860d5f9e685c246b8c8a409e773a0c8c", "lon": -77.02166266666667, "fusion_lat": 0.0, "rental_uris": {"android": "https://dc.lft.to/lastmile_qr_scan", "ios": "https://dc.lft.to/lastmile_qr_scan"}, "type": "electric_scooter"}, {"is_reserved": 0, "is_disabled": 0, "fusion_lon": 0.0, "lat": 38.9056505, "name": "ceda174018f7767f745e9ab605a90088", "bike_id": "ceda174018f7767f745e9ab605a90088", "lon": -77.03429266666667, "fusion_lat": 0.0, "rental_uris": {"android": "https://dc.lft.to/lastmile_qr_scan", "ios": "https://dc.lft.to/lastmile_qr_scan"}, "type": "electric_scooter"}, {"is_reserved": 0, "is_disabled": 0, "fusion_lon": 0.0, "lat": 38.903311333333335, "name": "2b814feeaca8efaf34fa4f09140f2415", "bike_id": "2b814feeaca8efaf34fa4f09140f2415", "lon": -77.02472183333333, "fusion_lat": 0.0, "rental_uris": {"android": "https://dc.lft.to/lastmile_qr_scan", "ios": "https://dc.lft.to/lastmile_qr_scan"}, "type": "electric_scooter"}, {"is_reserved": 0, "is_disabled": 0, "fusion_lon": 0.0, "lat": 38.909841166666666, "name": "e66082de481b732a00d9c06cc6483a63", "bike_id": "e66082de481b732a00d9c06cc6483a63", "lon": -77.042686, "fusion_lat": 0.0, "rental_uris": {"android": "https://dc.lft.to/lastmile_qr_scan", "ios": "https://dc.lft.to/lastmile_qr_scan"}, "type": "electric_scooter"}, {"is_reserved": 0, "is_disabled": 0, "fusion_lon": 0.0, "lat": 38.90033233333333, "name": "5b3024f97baef64e6302b484c3583b3f", "bike_id": "5b3024f97baef64e6302b484c3583b3f", "lon": -77.011842, "fusion_lat": 0.0, "rental_uris": {"android": "https://dc.lft.to/lastmile_qr_scan", "ios": "https://dc.lft.to/lastmile_qr_scan"}, "type": "electric_scooter"}, {"is_reserved": 0, "is_disabled": 0, "fusion_lon": 0.0, "lat": 38.9083655, "name": "18d110cd79476d9ae994743d545c585c", "bike_id": "18d110cd79476d9ae994743d545c585c", "lon": -77.035677, "fusion_lat": 0.0, "rental_uris": {"android": "https://dc.lft.to/lastmile_qr_scan", "ios": "https://dc.lft.to/lastmile_qr_scan"}, "type": "electric_scooter"}, {"is_reserved": 0, "is_disabled": 0, "fusion_lon": 0.0, "lat": 38.924740166666666, "name": "b22afa68b06769d7464c0a16e431cc24", "bike_id": "b22afa68b06769d7464c0a16e431cc24", "lon": -77.02191133333334, "fusion_lat": 0.0, "rental_uris": {"android": "https://dc.lft.to/lastmile_qr_scan", "ios": "https://dc.lft.to/lastmile_qr_scan"}, "type": "electric_scooter"}, {"is_reserved": 0, "is_disabled": 0, "fusion_lon": 0.0, "lat": 38.93860183333334, "name": "98dc5144006b324bfdd9b92206358c4e", "bike_id": "98dc5144006b324bfdd9b92206358c4e", "lon": -77.025209, "fusion_lat": 0.0, "rental_uris": {"android": "https://dc.lft.to/lastmile_qr_scan", "ios": "https://dc.lft.to/lastmile_qr_scan"}, "type": "electric_scooter"}, {"is_reserved": 0, "is_disabled": 0, "fusion_lon": 0.0, "lat": 38.904029, "name": "d293d73394ffff362cda64619534f184", "bike_id": "d293d73394ffff362cda64619534f184", "lon": -77.00436566666667, "fusion_lat": 0.0, "rental_uris": {"android": "https://dc.lft.to/lastmile_qr_scan", "ios": "https://dc.lft.to/lastmile_qr_scan"}, "type": "electric_scooter"}, {"is_reserved": 0, "is_disabled": 0, "fusion_lon": 0.0, "lat": 38.93248, "name": "baabc2c41e63b8a8b8a6a50e16489c78", "bike_id": "baabc2c41e63b8a8b8a6a50e16489c78", "lon": -77.03267183333334, "fusion_lat": 0.0, "rental_uris": {"android": "https://dc.lft.to/lastmile_qr_scan", "ios": "https://dc.lft.to/lastmile_qr_scan"}, "type": "electric_scooter"}, {"is_reserved": 0, "is_disabled": 0, "fusion_lon": 0.0, "lat": 38.901791333333335, "name": "6139d31a8fd026eca6d80e828e1b7b29", "bike_id": "6139d31a8fd026eca6d80e828e1b7b29", "lon": -76.98080216666666, "fusion_lat": 0.0, "rental_uris": {"android": "https://dc.lft.to/lastmile_qr_scan", "ios": "https://dc.lft.to/lastmile_qr_scan"}, "type": "electric_scooter"}, {"is_reserved": 0, "is_disabled": 0, "fusion_lon": 0.0, "lat": 38.9069795, "name": "65965f1c53d9d33826a2422545f7e735", "bike_id": "65965f1c53d9d33826a2422545f7e735", "lon": -77.02988966666666, "fusion_lat": 0.0, "rental_uris": {"android": "https://dc.lft.to/lastmile_qr_scan", "ios": "https://dc.lft.to/lastmile_qr_scan"}, "type": "electric_scooter"}, {"is_reserved": 0, "is_disabled": 0, "fusion_lon": 0.0, "lat": 38.9044055, "name": "30656ac6a3bb727b2258d154082d5014", "bike_id": "30656ac6a3bb727b2258d154082d5014", "lon": -77.036357, "fusion_lat": 0.0, "rental_uris": {"android": "https://dc.lft.to/lastmile_qr_scan", "ios": "https://dc.lft.to/lastmile_qr_scan"}, "type": "electric_scooter"}, {"is_reserved": 0, "is_disabled": 0, "fusion_lon": 0.0, "lat": 38.91711566666667, "name": "3bb993caea356caa78ed316e3b1caaf6", "bike_id": "3bb993caea356caa78ed316e3b1caaf6", "lon": -77.0321185, "fusion_lat": 0.0, "rental_uris": {"android": "https://dc.lft.to/lastmile_qr_scan", "ios": "https://dc.lft.to/lastmile_qr_scan"}, "type": "electric_scooter"}, {"is_reserved": 0, "is_disabled": 0, "fusion_lon": 0.0, "lat": 38.998977333333336, "name": "35d683edbcc34bac44536c3aa730e29c", "bike_id": "35d683edbcc34bac44536c3aa730e29c", "lon": -76.908587, "fusion_lat": 0.0, "rental_uris": {"android": "https://dc.lft.to/lastmile_qr_scan", "ios": "https://dc.lft.to/lastmile_qr_scan"}, "type": "electric_bike"}, {"is_reserved": 0, "is_disabled": 0, "fusion_lon": 0.0, "lat": 38.92761483333334, "name": "d93f1217305f371317364c03033b2b8b", "bike_id": "d93f1217305f371317364c03033b2b8b", "lon": -77.03205716666666, "fusion_lat": 0.0, "rental_uris": {"android": "https://dc.lft.to/lastmile_qr_scan", "ios": "https://dc.lft.to/lastmile_qr_scan"}, "type": "electric_scooter"}, {"is_reserved": 0, "is_disabled": 0, "fusion_lon": 0.0, "lat": 38.87033183333333, "name": "97fededfd8d4ff95ee54c3c0dfd0e3fe", "bike_id": "97fededfd8d4ff95ee54c3c0dfd0e3fe", "lon": -77.229153, "fusion_lat": 0.0, "rental_uris": {"android": "https://dc.lft.to/lastmile_qr_scan", "ios": "https://dc.lft.to/lastmile_qr_scan"}, "type": "electric_bike"}, {"is_reserved": 0, "is_disabled": 0, "fusion_lon": 0.0, "lat": 38.92785466666667, "name": "86d19780af3f79430559bc5c4d23be99", "bike_id": "86d19780af3f79430559bc5c4d23be99", "lon": -76.99624566666667, "fusion_lat": 0.0, "rental_uris": {"android": "https://dc.lft.to/lastmile_qr_scan", "ios": "https://dc.lft.to/lastmile_qr_scan"}, "type": "electric_scooter"}, {"is_reserved": 0, "is_disabled": 0, "fusion_lon": 0.0, "lat": 38.91706516666667, "name": "32fe74a8b065ba6bfede60f92acd200e", "bike_id": "32fe74a8b065ba6bfede60f92acd200e", "lon": -77.00514566666666, "fusion_lat": 0.0, "rental_uris": {"android": "https://dc.lft.to/lastmile_qr_scan", "ios": "https://dc.lft.to/lastmile_qr_scan"}, "type": "electric_scooter"}, {"is_reserved": 0, "is_disabled": 0, "fusion_lon": 0.0, "lat": 38.89481166666667, "name": "4e8257ca4d27022ae1aa9ef4ea1a6725", "bike_id": "4e8257ca4d27022ae1aa9ef4ea1a6725", "lon": -76.9943975, "fusion_lat": 0.0, "rental_uris": {"android": "https://dc.lft.to/lastmile_qr_scan", "ios": "https://dc.lft.to/lastmile_qr_scan"}, "type": "electric_scooter"}, {"is_reserved": 0, "is_disabled": 0, "fusion_lon": 0.0, "lat": 38.920744166666665, "name": "01bfca77600540a8c6114a3699fab953", "bike_id": "01bfca77600540a8c6114a3699fab953", "lon": -77.023089, "fusion_lat": 0.0, "rental_uris": {"android": "https://dc.lft.to/lastmile_qr_scan", "ios": "https://dc.lft.to/lastmile_qr_scan"}, "type": "electric_scooter"}, {"is_reserved": 0, "is_disabled": 0, "fusion_lon": 0.0, "lat": 38.9044, "name": "51c94e2173c55251763ac096be344d57", "bike_id": "51c94e2173c55251763ac096be344d57", "lon": -77.05322833333334, "fusion_lat": 0.0, "rental_uris": {"android": "https://dc.lft.to/lastmile_qr_scan", "ios": "https://dc.lft.to/lastmile_qr_scan"}, "type": "electric_scooter"}, {"is_reserved": 0, "is_disabled": 0, "fusion_lon": 0.0, "lat": 38.949824, "name": "175d6f4fa7e137012cf1ca07885e2056", "bike_id": "175d6f4fa7e137012cf1ca07885e2056", "lon": -77.06689, "fusion_lat": 0.0, "rental_uris": {"android": "https://dc.lft.to/lastmile_qr_scan", "ios": "https://dc.lft.to/lastmile_qr_scan"}, "type": "electric_scooter"}, {"is_reserved": 0, "is_disabled": 0, "fusion_lon": 0.0, "lat": 38.924422, "name": "5e17f26fe1b6b407082e38dbd3317bcf", "bike_id": "5e17f26fe1b6b407082e38dbd3317bcf", "lon": -77.02021316666666, "fusion_lat": 0.0, "rental_uris": {"android": "https://dc.lft.to/lastmile_qr_scan", "ios": "https://dc.lft.to/lastmile_qr_scan"}, "type": "electric_scooter"}, {"is_reserved": 0, "is_disabled": 0, "fusion_lon": 0.0, "lat": 38.892289166666664, "name": "adabe023d8ff866ad040535bc1ad31ec", "bike_id": "adabe023d8ff866ad040535bc1ad31ec", "lon": -77.03135766666666, "fusion_lat": 0.0, "rental_uris": {"android": "https://dc.lft.to/lastmile_qr_scan", "ios": "https://dc.lft.to/lastmile_qr_scan"}, "type": "electric_scooter"}, {"is_reserved": 0, "is_disabled": 0, "fusion_lon": 0.0, "lat": 38.923479666666665, "name": "5725e728f2a59e77c2a0f461f9fb53ee", "bike_id": "5725e728f2a59e77c2a0f461f9fb53ee", "lon": -77.043402, "fusion_lat": 0.0, "rental_uris": {"android": "https://dc.lft.to/lastmile_qr_scan", "ios": "https://dc.lft.to/lastmile_qr_scan"}, "type": "electric_scooter"}, {"is_reserved": 0, "is_disabled": 0, "fusion_lon": 0.0, "lat": 38.9003645, "name": "7efdcb07a9dd7ac8dd85f8d66fac8986", "bike_id": "7efdcb07a9dd7ac8dd85f8d66fac8986", "lon": -76.9883835, "fusion_lat": 0.0, "rental_uris": {"android": "https://dc.lft.to/lastmile_qr_scan", "ios": "https://dc.lft.to/lastmile_qr_scan"}, "type": "electric_scooter"}, {"is_reserved": 0, "is_disabled": 0, "fusion_lon": 0.0, "lat": 38.93857933333334, "name": "5d3c60c00893bb21f556c369e98a8a8f", "bike_id": "5d3c60c00893bb21f556c369e98a8a8f", "lon": -77.024682, "fusion_lat": 0.0, "rental_uris": {"android": "https://dc.lft.to/lastmile_qr_scan", "ios": "https://dc.lft.to/lastmile_qr_scan"}, "type": "electric_scooter"}, {"is_reserved": 0, "is_disabled": 0, "fusion_lon": 0.0, "lat": 38.905694, "name": "5ea86218b4f9dc3a6b0e35c578f6d2da", "bike_id": "5ea86218b4f9dc3a6b0e35c578f6d2da", "lon": -77.03970616666666, "fusion_lat": 0.0, "rental_uris": {"android": "https://dc.lft.to/lastmile_qr_scan", "ios": "https://dc.lft.to/lastmile_qr_scan"}, "type": "electric_scooter"}, {"is_reserved": 0, "is_disabled": 0, "fusion_lon": 0.0, "lat": 38.924247333333334, "name": "11d211ee3b2a42c6928c263cd46a479a", "bike_id": "11d211ee3b2a42c6928c263cd46a479a", "lon": -77.02112483333333, "fusion_lat": 0.0, "rental_uris": {"android": "https://dc.lft.to/lastmile_qr_scan", "ios": "https://dc.lft.to/lastmile_qr_scan"}, "type": "electric_scooter"}, {"is_reserved": 0, "is_disabled": 0, "fusion_lon": 0.0, "lat": 38.88124583333333, "name": "c6056de581f99d7b6ec60efc0b09d0ec", "bike_id": "c6056de581f99d7b6ec60efc0b09d0ec", "lon": -77.00453716666667, "fusion_lat": 0.0, "rental_uris": {"android": "https://dc.lft.to/lastmile_qr_scan", "ios": "https://dc.lft.to/lastmile_qr_scan"}, "type": "electric_scooter"}, {"is_reserved": 0, "is_disabled": 0, "fusion_lon": 0.0, "lat": 38.936029166666664, "name": "027c013f1e351e7b4b5b88f4b9468bd7", "bike_id": "027c013f1e351e7b4b5b88f4b9468bd7", "lon": -77.037866, "fusion_lat": 0.0, "rental_uris": {"android": "https://dc.lft.to/lastmile_qr_scan", "ios": "https://dc.lft.to/lastmile_qr_scan"}, "type": "electric_scooter"}, {"is_reserved": 0, "is_disabled": 0, "fusion_lon": 0.0, "lat": 38.894862333333336, "name": "8df79fe1097d60f18bf650bdd6603e4e", "bike_id": "8df79fe1097d60f18bf650bdd6603e4e", "lon": -77.02098416666666, "fusion_lat": 0.0, "rental_uris": {"android": "https://dc.lft.to/lastmile_qr_scan", "ios": "https://dc.lft.to/lastmile_qr_scan"}, "type": "electric_scooter"}, {"is_reserved": 0, "is_disabled": 0, "fusion_lon": 0.0, "lat": 38.915979166666666, "name": "48051582bb2b250bdb71c83f540a19f6", "bike_id": "48051582bb2b250bdb71c83f540a19f6", "lon": -77.036653, "fusion_lat": 0.0, "rental_uris": {"android": "https://dc.lft.to/lastmile_qr_scan", "ios": "https://dc.lft.to/lastmile_qr_scan"}, "type": "electric_scooter"}, {"is_reserved": 0, "is_disabled": 0, "fusion_lon": 0.0, "lat": 38.940939, "name": "d0b076df0f3a24d61bba7ef647288e47", "bike_id": "d0b076df0f3a24d61bba7ef647288e47", "lon": -77.02984183333334, "fusion_lat": 0.0, "rental_uris": {"android": "https://dc.lft.to/lastmile_qr_scan", "ios": "https://dc.lft.to/lastmile_qr_scan"}, "type": "electric_scooter"}, {"is_reserved": 0, "is_disabled": 0, "fusion_lon": 0.0, "lat": 38.896581, "name": "6e70768f8dfe5e9a851ec128fca74c83", "bike_id": "6e70768f8dfe5e9a851ec128fca74c83", "lon": -77.0433815, "fusion_lat": 0.0, "rental_uris": {"android": "https://dc.lft.to/lastmile_qr_scan", "ios": "https://dc.lft.to/lastmile_qr_scan"}, "type": "electric_scooter"}, {"is_reserved": 0, "is_disabled": 0, "fusion_lon": 0.0, "lat": 38.907995166666666, "name": "fa79e7eab60ca38b1ad4ade1d8a480d2", "bike_id": "fa79e7eab60ca38b1ad4ade1d8a480d2", "lon": -77.0318885, "fusion_lat": 0.0, "rental_uris": {"android": "https://dc.lft.to/lastmile_qr_scan", "ios": "https://dc.lft.to/lastmile_qr_scan"}, "type": "electric_scooter"}, {"is_reserved": 0, "is_disabled": 0, "fusion_lon": 0.0, "lat": 39.029196166666665, "name": "c715be44dea11625d000a6249ac8ab55", "bike_id": "c715be44dea11625d000a6249ac8ab55", "lon": -77.0136015, "fusion_lat": 0.0, "rental_uris": {"android": "https://dc.lft.to/lastmile_qr_scan", "ios": "https://dc.lft.to/lastmile_qr_scan"}, "type": "electric_bike"}, {"is_reserved": 0, "is_disabled": 0, "fusion_lon": 0.0, "lat": 38.8781085, "name": "a0541a09e6f2c0b21e313d26a96e3f23", "bike_id": "a0541a09e6f2c0b21e313d26a96e3f23", "lon": -76.98823833333333, "fusion_lat": 0.0, "rental_uris": {"android": "https://dc.lft.to/lastmile_qr_scan", "ios": "https://dc.lft.to/lastmile_qr_scan"}, "type": "electric_scooter"}, {"is_reserved": 0, "is_disabled": 0, "fusion_lon": 0.0, "lat": 38.8579995, "name": "a8fb6163212216bc2458ff1e490c87ab", "bike_id": "a8fb6163212216bc2458ff1e490c87ab", "lon": -76.98755933333334, "fusion_lat": 0.0, "rental_uris": {"android": "https://dc.lft.to/lastmile_qr_scan", "ios": "https://dc.lft.to/lastmile_qr_scan"}, "type": "electric_bike"}, {"is_reserved": 0, "is_disabled": 0, "fusion_lon": 0.0, "lat": 39.0016145, "name": "6155e3962193414aecfc7f08aa89ef1a", "bike_id": "6155e3962193414aecfc7f08aa89ef1a", "lon": -76.90247833333333, "fusion_lat": 0.0, "rental_uris": {"android": "https://dc.lft.to/lastmile_qr_scan", "ios": "https://dc.lft.to/lastmile_qr_scan"}, "type": "electric_bike"}, {"is_reserved": 0, "is_disabled": 0, "fusion_lon": 0.0, "lat": 38.922395333333334, "name": "ba68cbb8ccbce10aefa23adac9ade881", "bike_id": "ba68cbb8ccbce10aefa23adac9ade881", "lon": -77.03664566666667, "fusion_lat": 0.0, "rental_uris": {"android": "https://dc.lft.to/lastmile_qr_scan", "ios": "https://dc.lft.to/lastmile_qr_scan"}, "type": "electric_scooter"}, {"is_reserved": 0, "is_disabled": 0, "fusion_lon": 0.0, "lat": 38.93408266666667, "name": "0ef3b4a54bcc0983d7784646fe7aacbf", "bike_id": "0ef3b4a54bcc0983d7784646fe7aacbf", "lon": -77.0455325, "fusion_lat": 0.0, "rental_uris": {"android": "https://dc.lft.to/lastmile_qr_scan", "ios": "https://dc.lft.to/lastmile_qr_scan"}, "type": "electric_scooter"}, {"is_reserved": 0, "is_disabled": 0, "fusion_lon": 0.0, "lat": 38.87702516666667, "name": "b99ae18643975a3fdc6ae2642a49aa3b", "bike_id": "b99ae18643975a3fdc6ae2642a49aa3b", "lon": -77.01763616666666, "fusion_lat": 0.0, "rental_uris": {"android": "https://dc.lft.to/lastmile_qr_scan", "ios": "https://dc.lft.to/lastmile_qr_scan"}, "type": "electric_scooter"}, {"is_reserved": 0, "is_disabled": 0, "fusion_lon": 0.0, "lat": 38.92784983333333, "name": "f4c4384f4c66436a0001526e84f88fdb", "bike_id": "f4c4384f4c66436a0001526e84f88fdb", "lon": -77.031404, "fusion_lat": 0.0, "rental_uris": {"android": "https://dc.lft.to/lastmile_qr_scan", "ios": "https://dc.lft.to/lastmile_qr_scan"}, "type": "electric_scooter"}, {"is_reserved": 0, "is_disabled": 0, "fusion_lon": 0.0, "lat": 38.91679933333333, "name": "4a2f1fb516104be858be896ee8a5699c", "bike_id": "4a2f1fb516104be858be896ee8a5699c", "lon": -77.01729916666666, "fusion_lat": 0.0, "rental_uris": {"android": "https://dc.lft.to/lastmile_qr_scan", "ios": "https://dc.lft.to/lastmile_qr_scan"}, "type": "electric_scooter"}, {"is_reserved": 0, "is_disabled": 0, "fusion_lon": 0.0, "lat": 38.90384516666667, "name": "4d8a4fc3d716aafe8b2d82f09dd68c14", "bike_id": "4d8a4fc3d716aafe8b2d82f09dd68c14", "lon": -77.02624483333334, "fusion_lat": 0.0, "rental_uris": {"android": "https://dc.lft.to/lastmile_qr_scan", "ios": "https://dc.lft.to/lastmile_qr_scan"}, "type": "electric_scooter"}, {"is_reserved": 0, "is_disabled": 0, "fusion_lon": 0.0, "lat": 38.9056565, "name": "f3ceb7b9af9a808a445c7ab6a54cfa85", "bike_id": "f3ceb7b9af9a808a445c7ab6a54cfa85", "lon": -77.04072983333333, "fusion_lat": 0.0, "rental_uris": {"android": "https://dc.lft.to/lastmile_qr_scan", "ios": "https://dc.lft.to/lastmile_qr_scan"}, "type": "electric_scooter"}, {"is_reserved": 0, "is_disabled": 0, "fusion_lon": 0.0, "lat": 38.9165655, "name": "e9d69efb4f083e0eb1437ea0fe04860b", "bike_id": "e9d69efb4f083e0eb1437ea0fe04860b", "lon": -77.03204033333333, "fusion_lat": 0.0, "rental_uris": {"android": "https://dc.lft.to/lastmile_qr_scan", "ios": "https://dc.lft.to/lastmile_qr_scan"}, "type": "electric_scooter"}, {"is_reserved": 0, "is_disabled": 0, "fusion_lon": 0.0, "lat": 38.919744666666666, "name": "7a6b0bb6a03848e62c6635d6796039d7", "bike_id": "7a6b0bb6a03848e62c6635d6796039d7", "lon": -77.00114383333333, "fusion_lat": 0.0, "rental_uris": {"android": "https://dc.lft.to/lastmile_qr_scan", "ios": "https://dc.lft.to/lastmile_qr_scan"}, "type": "electric_scooter"}, {"is_reserved": 0, "is_disabled": 0, "fusion_lon": 0.0, "lat": 38.90018883333333, "name": "cd584aaea99503ea5811c9a341070244", "bike_id": "cd584aaea99503ea5811c9a341070244", "lon": -77.01236983333334, "fusion_lat": 0.0, "rental_uris": {"android": "https://dc.lft.to/lastmile_qr_scan", "ios": "https://dc.lft.to/lastmile_qr_scan"}, "type": "electric_scooter"}, {"is_reserved": 0, "is_disabled": 0, "fusion_lon": 0.0, "lat": 38.938546333333335, "name": "09e82819365d93c6dbf36a7b6e5ef9d8", "bike_id": "09e82819365d93c6dbf36a7b6e5ef9d8", "lon": -77.0247405, "fusion_lat": 0.0, "rental_uris": {"android": "https://dc.lft.to/lastmile_qr_scan", "ios": "https://dc.lft.to/lastmile_qr_scan"}, "type": "electric_scooter"}, {"is_reserved": 0, "is_disabled": 0, "fusion_lon": 0.0, "lat": 38.894888333333334, "name": "1c2fa56f7336afcbdf2df1fecef9e87e", "bike_id": "1c2fa56f7336afcbdf2df1fecef9e87e", "lon": -76.99503916666667, "fusion_lat": 0.0, "rental_uris": {"android": "https://dc.lft.to/lastmile_qr_scan", "ios": "https://dc.lft.to/lastmile_qr_scan"}, "type": "electric_scooter"}, {"is_reserved": 0, "is_disabled": 0, "fusion_lon": 0.0, "lat": 38.897539333333334, "name": "510c0b078f86e4dad5a11f345ea98e8c", "bike_id": "510c0b078f86e4dad5a11f345ea98e8c", "lon": -77.029005, "fusion_lat": 0.0, "rental_uris": {"android": "https://dc.lft.to/lastmile_qr_scan", "ios": "https://dc.lft.to/lastmile_qr_scan"}, "type": "electric_scooter"}, {"is_reserved": 0, "is_disabled": 0, "fusion_lon": 0.0, "lat": 38.926765333333336, "name": "2bb75363a5794c8fbd0fd51fe7ae6def", "bike_id": "2bb75363a5794c8fbd0fd51fe7ae6def", "lon": -77.0258605, "fusion_lat": 0.0, "rental_uris": {"android": "https://dc.lft.to/lastmile_qr_scan", "ios": "https://dc.lft.to/lastmile_qr_scan"}, "type": "electric_scooter"}, {"is_reserved": 0, "is_disabled": 0, "fusion_lon": 0.0, "lat": 38.88493533333333, "name": "546bdb3f06df17dbfc89bd5d725b8f7e", "bike_id": "546bdb3f06df17dbfc89bd5d725b8f7e", "lon": -77.023666, "fusion_lat": 0.0, "rental_uris": {"android": "https://dc.lft.to/lastmile_qr_scan", "ios": "https://dc.lft.to/lastmile_qr_scan"}, "type": "electric_scooter"}, {"is_reserved": 0, "is_disabled": 0, "fusion_lon": 0.0, "lat": 38.92681183333333, "name": "64e92aaff97ae4193e30c93154f79d97", "bike_id": "64e92aaff97ae4193e30c93154f79d97", "lon": -77.032344, "fusion_lat": 0.0, "rental_uris": {"android": "https://dc.lft.to/lastmile_qr_scan", "ios": "https://dc.lft.to/lastmile_qr_scan"}, "type": "electric_scooter"}, {"is_reserved": 0, "is_disabled": 0, "fusion_lon": 0.0, "lat": 38.9055965, "name": "70e98aedeafe1cb9a0fccf1daf9e1fc0", "bike_id": "70e98aedeafe1cb9a0fccf1daf9e1fc0", "lon": -77.00551316666666, "fusion_lat": 0.0, "rental_uris": {"android": "https://dc.lft.to/lastmile_qr_scan", "ios": "https://dc.lft.to/lastmile_qr_scan"}, "type": "electric_scooter"}, {"is_reserved": 0, "is_disabled": 0, "fusion_lon": 0.0, "lat": 38.926749666666666, "name": "c8f2d72851c0352465b18c0698bf6f65", "bike_id": "c8f2d72851c0352465b18c0698bf6f65", "lon": -77.02744166666666, "fusion_lat": 0.0, "rental_uris": {"android": "https://dc.lft.to/lastmile_qr_scan", "ios": "https://dc.lft.to/lastmile_qr_scan"}, "type": "electric_scooter"}, {"is_reserved": 0, "is_disabled": 0, "fusion_lon": 0.0, "lat": 38.90685283333333, "name": "cf95132fdee5d5f429576da2a47226f5", "bike_id": "cf95132fdee5d5f429576da2a47226f5", "lon": -77.02700383333334, "fusion_lat": 0.0, "rental_uris": {"android": "https://dc.lft.to/lastmile_qr_scan", "ios": "https://dc.lft.to/lastmile_qr_scan"}, "type": "electric_scooter"}, {"is_reserved": 0, "is_disabled": 0, "fusion_lon": 0.0, "lat": 38.929116666666665, "name": "8f65b3f85d16e4f30d3b51ba92d26188", "bike_id": "8f65b3f85d16e4f30d3b51ba92d26188", "lon": -77.032472, "fusion_lat": 0.0, "rental_uris": {"android": "https://dc.lft.to/lastmile_qr_scan", "ios": "https://dc.lft.to/lastmile_qr_scan"}, "type": "electric_scooter"}, {"is_reserved": 0, "is_disabled": 0, "fusion_lon": 0.0, "lat": 38.9160055, "name": "67eae7b1a84584b57d161a41263530a3", "bike_id": "67eae7b1a84584b57d161a41263530a3", "lon": -77.0490695, "fusion_lat": 0.0, "rental_uris": {"android": "https://dc.lft.to/lastmile_qr_scan", "ios": "https://dc.lft.to/lastmile_qr_scan"}, "type": "electric_scooter"}, {"is_reserved": 0, "is_disabled": 0, "fusion_lon": 0.0, "lat": 38.9179665, "name": "9d08d457d8b34a63ceebd7c7b242e985", "bike_id": "9d08d457d8b34a63ceebd7c7b242e985", "lon": -77.0402305, "fusion_lat": 0.0, "rental_uris": {"android": "https://dc.lft.to/lastmile_qr_scan", "ios": "https://dc.lft.to/lastmile_qr_scan"}, "type": "electric_scooter"}, {"is_reserved": 0, "is_disabled": 0, "fusion_lon": 0.0, "lat": 38.93314383333333, "name": "04a6d3ab6594becf6815c5884ef69e96", "bike_id": "04a6d3ab6594becf6815c5884ef69e96", "lon": -77.03191433333333, "fusion_lat": 0.0, "rental_uris": {"android": "https://dc.lft.to/lastmile_qr_scan", "ios": "https://dc.lft.to/lastmile_qr_scan"}, "type": "electric_scooter"}, {"is_reserved": 0, "is_disabled": 0, "fusion_lon": 0.0, "lat": 38.89256016666667, "name": "565c8eb76f2fea5de7353731b61d9d83", "bike_id": "565c8eb76f2fea5de7353731b61d9d83", "lon": -77.050245, "fusion_lat": 0.0, "rental_uris": {"android": "https://dc.lft.to/lastmile_qr_scan", "ios": "https://dc.lft.to/lastmile_qr_scan"}, "type": "electric_scooter"}, {"is_reserved": 0, "is_disabled": 0, "fusion_lon": 0.0, "lat": 38.884775833333336, "name": "c591c033b7db0aa43f906a085d1e0a58", "bike_id": "c591c033b7db0aa43f906a085d1e0a58", "lon": -77.03349816666666, "fusion_lat": 0.0, "rental_uris": {"android": "https://dc.lft.to/lastmile_qr_scan", "ios": "https://dc.lft.to/lastmile_qr_scan"}, "type": "electric_scooter"}, {"is_reserved": 0, "is_disabled": 0, "fusion_lon": 0.0, "lat": 38.87643833333333, "name": "f99a176dd222378e154d9defdeaa0b20", "bike_id": "f99a176dd222378e154d9defdeaa0b20", "lon": -76.9355025, "fusion_lat": 0.0, "rental_uris": {"android": "https://dc.lft.to/lastmile_qr_scan", "ios": "https://dc.lft.to/lastmile_qr_scan"}, "type": "electric_bike"}, {"is_reserved": 0, "is_disabled": 0, "fusion_lon": 0.0, "lat": 38.8960085, "name": "5f8357781ad4ce7f9615e3e3fcd57ad3", "bike_id": "5f8357781ad4ce7f9615e3e3fcd57ad3", "lon": -76.96782533333334, "fusion_lat": 0.0, "rental_uris": {"android": "https://dc.lft.to/lastmile_qr_scan", "ios": "https://dc.lft.to/lastmile_qr_scan"}, "type": "electric_bike"}, {"is_reserved": 0, "is_disabled": 0, "fusion_lon": 0.0, "lat": 38.92117283333333, "name": "8ade2710a9ed30cb424f3229f284d4b5", "bike_id": "8ade2710a9ed30cb424f3229f284d4b5", "lon": -77.0206755, "fusion_lat": 0.0, "rental_uris": {"android": "https://dc.lft.to/lastmile_qr_scan", "ios": "https://dc.lft.to/lastmile_qr_scan"}, "type": "electric_scooter"}, {"is_reserved": 0, "is_disabled": 0, "fusion_lon": 0.0, "lat": 38.8948125, "name": "b37dffcf82a524dba8547b8df8e4fc41", "bike_id": "b37dffcf82a524dba8547b8df8e4fc41", "lon": -76.99519316666667, "fusion_lat": 0.0, "rental_uris": {"android": "https://dc.lft.to/lastmile_qr_scan", "ios": "https://dc.lft.to/lastmile_qr_scan"}, "type": "electric_scooter"}, {"is_reserved": 0, "is_disabled": 0, "fusion_lon": 0.0, "lat": 38.884901166666666, "name": "e087792119c7953654215b99b7014dda", "bike_id": "e087792119c7953654215b99b7014dda", "lon": -77.01986983333333, "fusion_lat": 0.0, "rental_uris": {"android": "https://dc.lft.to/lastmile_qr_scan", "ios": "https://dc.lft.to/lastmile_qr_scan"}, "type": "electric_scooter"}, {"is_reserved": 0, "is_disabled": 0, "fusion_lon": 0.0, "lat": 38.90504133333334, "name": "b2192286497e801d83ef2f2d295ca18a", "bike_id": "b2192286497e801d83ef2f2d295ca18a", "lon": -77.0296625, "fusion_lat": 0.0, "rental_uris": {"android": "https://dc.lft.to/lastmile_qr_scan", "ios": "https://dc.lft.to/lastmile_qr_scan"}, "type": "electric_scooter"}, {"is_reserved": 0, "is_disabled": 0, "fusion_lon": 0.0, "lat": 38.8844015, "name": "8a69b818d0e19b580e69789d84f46679", "bike_id": "8a69b818d0e19b580e69789d84f46679", "lon": -76.95770366666666, "fusion_lat": 0.0, "rental_uris": {"android": "https://dc.lft.to/lastmile_qr_scan", "ios": "https://dc.lft.to/lastmile_qr_scan"}, "type": "electric_scooter"}, {"is_reserved": 0, "is_disabled": 0, "fusion_lon": 0.0, "lat": 38.87477033333333, "name": "91a70e82a6071b38902025731a58c9f7", "bike_id": "91a70e82a6071b38902025731a58c9f7", "lon": -76.96539116666666, "fusion_lat": 0.0, "rental_uris": {"android": "https://dc.lft.to/lastmile_qr_scan", "ios": "https://dc.lft.to/lastmile_qr_scan"}, "type": "electric_bike"}, {"is_reserved": 0, "is_disabled": 0, "fusion_lon": 0.0, "lat": 38.915556333333335, "name": "a93437ebf866cbbb49a60c5c0db53004", "bike_id": "a93437ebf866cbbb49a60c5c0db53004", "lon": -77.0204685, "fusion_lat": 0.0, "rental_uris": {"android": "https://dc.lft.to/lastmile_qr_scan", "ios": "https://dc.lft.to/lastmile_qr_scan"}, "type": "electric_scooter"}, {"is_reserved": 0, "is_disabled": 0, "fusion_lon": 0.0, "lat": 38.912144166666664, "name": "6e758d7794268f89b9ffa3ce0fba8a44", "bike_id": "6e758d7794268f89b9ffa3ce0fba8a44", "lon": -77.075967, "fusion_lat": 0.0, "rental_uris": {"android": "https://dc.lft.to/lastmile_qr_scan", "ios": "https://dc.lft.to/lastmile_qr_scan"}, "type": "electric_scooter"}, {"is_reserved": 0, "is_disabled": 0, "fusion_lon": 0.0, "lat": 38.87578233333333, "name": "9ffdb7b38954dbbfee706f91954e7223", "bike_id": "9ffdb7b38954dbbfee706f91954e7223", "lon": -77.00579416666666, "fusion_lat": 0.0, "rental_uris": {"android": "https://dc.lft.to/lastmile_qr_scan", "ios": "https://dc.lft.to/lastmile_qr_scan"}, "type": "electric_scooter"}, {"is_reserved": 0, "is_disabled": 0, "fusion_lon": 0.0, "lat": 38.895558, "name": "0d8e2f6826e14e765fe333f18c0e04b7", "bike_id": "0d8e2f6826e14e765fe333f18c0e04b7", "lon": -76.9489215, "fusion_lat": 0.0, "rental_uris": {"android": "https://dc.lft.to/lastmile_qr_scan", "ios": "https://dc.lft.to/lastmile_qr_scan"}, "type": "electric_scooter"}, {"is_reserved": 0, "is_disabled": 0, "fusion_lon": 0.0, "lat": 38.876841, "name": "fd8a0e6a9a2ac90a04eba004c2eec123", "bike_id": "fd8a0e6a9a2ac90a04eba004c2eec123", "lon": -77.00071883333334, "fusion_lat": 0.0, "rental_uris": {"android": "https://dc.lft.to/lastmile_qr_scan", "ios": "https://dc.lft.to/lastmile_qr_scan"}, "type": "electric_scooter"}, {"is_reserved": 0, "is_disabled": 0, "fusion_lon": 0.0, "lat": 38.859368333333336, "name": "22bb00125fcc9b86a09490971b8acf8e", "bike_id": "22bb00125fcc9b86a09490971b8acf8e", "lon": -76.98448483333334, "fusion_lat": 0.0, "rental_uris": {"android": "https://dc.lft.to/lastmile_qr_scan", "ios": "https://dc.lft.to/lastmile_qr_scan"}, "type": "electric_scooter"}, {"is_reserved": 0, "is_disabled": 0, "fusion_lon": 0.0, "lat": 38.899140333333335, "name": "8f30b3e08b4bbd67e259036455556ee9", "bike_id": "8f30b3e08b4bbd67e259036455556ee9", "lon": -77.02459266666666, "fusion_lat": 0.0, "rental_uris": {"android": "https://dc.lft.to/lastmile_qr_scan", "ios": "https://dc.lft.to/lastmile_qr_scan"}, "type": "electric_scooter"}, {"is_reserved": 0, "is_disabled": 0, "fusion_lon": 0.0, "lat": 38.9125665, "name": "a4c4b180d586b6caab3f8422f04cf96c", "bike_id": "a4c4b180d586b6caab3f8422f04cf96c", "lon": -77.00386866666666, "fusion_lat": 0.0, "rental_uris": {"android": "https://dc.lft.to/lastmile_qr_scan", "ios": "https://dc.lft.to/lastmile_qr_scan"}, "type": "electric_scooter"}, {"is_reserved": 0, "is_disabled": 0, "fusion_lon": 0.0, "lat": 38.948500833333334, "name": "1abbfeb1a53d459559f455bf917d41da", "bike_id": "1abbfeb1a53d459559f455bf917d41da", "lon": -77.0654005, "fusion_lat": 0.0, "rental_uris": {"android": "https://dc.lft.to/lastmile_qr_scan", "ios": "https://dc.lft.to/lastmile_qr_scan"}, "type": "electric_scooter"}, {"is_reserved": 0, "is_disabled": 0, "fusion_lon": 0.0, "lat": 38.901061, "name": "76c5a03a4c2ab16cb83c776cc52058a4", "bike_id": "76c5a03a4c2ab16cb83c776cc52058a4", "lon": -77.04878666666667, "fusion_lat": 0.0, "rental_uris": {"android": "https://dc.lft.to/lastmile_qr_scan", "ios": "https://dc.lft.to/lastmile_qr_scan"}, "type": "electric_scooter"}, {"is_reserved": 0, "is_disabled": 0, "fusion_lon": 0.0, "lat": 38.956867333333335, "name": "7243cebbeabc26b171b8c8e37cbb0411", "bike_id": "7243cebbeabc26b171b8c8e37cbb0411", "lon": -77.02243533333333, "fusion_lat": 0.0, "rental_uris": {"android": "https://dc.lft.to/lastmile_qr_scan", "ios": "https://dc.lft.to/lastmile_qr_scan"}, "type": "electric_scooter"}, {"is_reserved": 0, "is_disabled": 0, "fusion_lon": 0.0, "lat": 38.83294866666667, "name": "5e9484ddc859b7aad48132a1d1c92e45", "bike_id": "5e9484ddc859b7aad48132a1d1c92e45", "lon": -77.0841915, "fusion_lat": 0.0, "rental_uris": {"android": "https://dc.lft.to/lastmile_qr_scan", "ios": "https://dc.lft.to/lastmile_qr_scan"}, "type": "electric_bike"}, {"is_reserved": 0, "is_disabled": 0, "fusion_lon": 0.0, "lat": 38.89606166666667, "name": "f33138dd224dbd66a0d253779ebe9c9e", "bike_id": "f33138dd224dbd66a0d253779ebe9c9e", "lon": -76.9924415, "fusion_lat": 0.0, "rental_uris": {"android": "https://dc.lft.to/lastmile_qr_scan", "ios": "https://dc.lft.to/lastmile_qr_scan"}, "type": "electric_scooter"}, {"is_reserved": 0, "is_disabled": 0, "fusion_lon": 0.0, "lat": 38.893569, "name": "e7299799e2c112b2bcc7c7c05d220b40", "bike_id": "e7299799e2c112b2bcc7c7c05d220b40", "lon": -77.003398, "fusion_lat": 0.0, "rental_uris": {"android": "https://dc.lft.to/lastmile_qr_scan", "ios": "https://dc.lft.to/lastmile_qr_scan"}, "type": "electric_scooter"}, {"is_reserved": 0, "is_disabled": 0, "fusion_lon": 0.0, "lat": 38.914866333333336, "name": "d2e67a75f2ca752d7f50e4984bbcd80c", "bike_id": "d2e67a75f2ca752d7f50e4984bbcd80c", "lon": -77.032289, "fusion_lat": 0.0, "rental_uris": {"android": "https://dc.lft.to/lastmile_qr_scan", "ios": "https://dc.lft.to/lastmile_qr_scan"}, "type": "electric_scooter"}, {"is_reserved": 0, "is_disabled": 0, "fusion_lon": 0.0, "lat": 38.8358535, "name": "598ac1937eece8e4eedf8a3aba56d0fd", "bike_id": "598ac1937eece8e4eedf8a3aba56d0fd", "lon": -76.990302, "fusion_lat": 0.0, "rental_uris": {"android": "https://dc.lft.to/lastmile_qr_scan", "ios": "https://dc.lft.to/lastmile_qr_scan"}, "type": "electric_bike"}, {"is_reserved": 0, "is_disabled": 0, "fusion_lon": 0.0, "lat": 38.91897016666667, "name": "f63966727f2ff8cfe06579b204203fb4", "bike_id": "f63966727f2ff8cfe06579b204203fb4", "lon": -77.1017555, "fusion_lat": 0.0, "rental_uris": {"android": "https://dc.lft.to/lastmile_qr_scan", "ios": "https://dc.lft.to/lastmile_qr_scan"}, "type": "electric_bike"}, {"is_reserved": 0, "is_disabled": 0, "fusion_lon": 0.0, "lat": 38.9246325, "name": "bb7ab0293b60722703009d24807c6fb0", "bike_id": "bb7ab0293b60722703009d24807c6fb0", "lon": -77.02274483333333, "fusion_lat": 0.0, "rental_uris": {"android": "https://dc.lft.to/lastmile_qr_scan", "ios": "https://dc.lft.to/lastmile_qr_scan"}, "type": "electric_scooter"}, {"is_reserved": 0, "is_disabled": 0, "fusion_lon": 0.0, "lat": 38.90403333333333, "name": "3c8ce118697f60b59d3f9d9695dd5e86", "bike_id": "3c8ce118697f60b59d3f9d9695dd5e86", "lon": -77.02589266666666, "fusion_lat": 0.0, "rental_uris": {"android": "https://dc.lft.to/lastmile_qr_scan", "ios": "https://dc.lft.to/lastmile_qr_scan"}, "type": "electric_scooter"}, {"is_reserved": 0, "is_disabled": 0, "fusion_lon": 0.0, "lat": 38.93970066666667, "name": "59f34a6a944de40759bd1da105f0e2ce", "bike_id": "59f34a6a944de40759bd1da105f0e2ce", "lon": -77.03031083333333, "fusion_lat": 0.0, "rental_uris": {"android": "https://dc.lft.to/lastmile_qr_scan", "ios": "https://dc.lft.to/lastmile_qr_scan"}, "type": "electric_scooter"}, {"is_reserved": 0, "is_disabled": 0, "fusion_lon": 0.0, "lat": 38.907689166666664, "name": "2cd19aff505552f792ac2fcff10b6526", "bike_id": "2cd19aff505552f792ac2fcff10b6526", "lon": -77.03215966666667, "fusion_lat": 0.0, "rental_uris": {"android": "https://dc.lft.to/lastmile_qr_scan", "ios": "https://dc.lft.to/lastmile_qr_scan"}, "type": "electric_scooter"}, {"is_reserved": 0, "is_disabled": 0, "fusion_lon": 0.0, "lat": 38.963885833333336, "name": "054771adc5ac6436d2387ddb7645d9a6", "bike_id": "054771adc5ac6436d2387ddb7645d9a6", "lon": -77.02593783333333, "fusion_lat": 0.0, "rental_uris": {"android": "https://dc.lft.to/lastmile_qr_scan", "ios": "https://dc.lft.to/lastmile_qr_scan"}, "type": "electric_scooter"}, {"is_reserved": 0, "is_disabled": 0, "fusion_lon": 0.0, "lat": 38.90336116666667, "name": "9e541e5a5d6c86ec004c690a58c2ed7e", "bike_id": "9e541e5a5d6c86ec004c690a58c2ed7e", "lon": -76.976131, "fusion_lat": 0.0, "rental_uris": {"android": "https://dc.lft.to/lastmile_qr_scan", "ios": "https://dc.lft.to/lastmile_qr_scan"}, "type": "electric_scooter"}, {"is_reserved": 0, "is_disabled": 0, "fusion_lon": 0.0, "lat": 38.924447, "name": "f230cbc717dd12fde2d126c29794d6e3", "bike_id": "f230cbc717dd12fde2d126c29794d6e3", "lon": -77.02979483333333, "fusion_lat": 0.0, "rental_uris": {"android": "https://dc.lft.to/lastmile_qr_scan", "ios": "https://dc.lft.to/lastmile_qr_scan"}, "type": "electric_scooter"}, {"is_reserved": 0, "is_disabled": 0, "fusion_lon": 0.0, "lat": 38.92076433333333, "name": "59a5b26e41637cde58783f816805922a", "bike_id": "59a5b26e41637cde58783f816805922a", "lon": -77.0253695, "fusion_lat": 0.0, "rental_uris": {"android": "https://dc.lft.to/lastmile_qr_scan", "ios": "https://dc.lft.to/lastmile_qr_scan"}, "type": "electric_scooter"}, {"is_reserved": 0, "is_disabled": 0, "fusion_lon": 0.0, "lat": 38.93976283333333, "name": "1b59dd348d497d2d9f3bf1c9e61bb3f1", "bike_id": "1b59dd348d497d2d9f3bf1c9e61bb3f1", "lon": -76.98618233333333, "fusion_lat": 0.0, "rental_uris": {"android": "https://dc.lft.to/lastmile_qr_scan", "ios": "https://dc.lft.to/lastmile_qr_scan"}, "type": "electric_bike"}, {"is_reserved": 0, "is_disabled": 0, "fusion_lon": 0.0, "lat": 38.91427733333333, "name": "9a6583cd6e1989ebf52f5dda51522e95", "bike_id": "9a6583cd6e1989ebf52f5dda51522e95", "lon": -77.00941416666667, "fusion_lat": 0.0, "rental_uris": {"android": "https://dc.lft.to/lastmile_qr_scan", "ios": "https://dc.lft.to/lastmile_qr_scan"}, "type": "electric_scooter"}, {"is_reserved": 0, "is_disabled": 0, "fusion_lon": 0.0, "lat": 38.867196166666666, "name": "7c4fe32dda67be40f6de25c4af82ddae", "bike_id": "7c4fe32dda67be40f6de25c4af82ddae", "lon": -77.01012516666667, "fusion_lat": 0.0, "rental_uris": {"android": "https://dc.lft.to/lastmile_qr_scan", "ios": "https://dc.lft.to/lastmile_qr_scan"}, "type": "electric_scooter"}, {"is_reserved": 0, "is_disabled": 0, "fusion_lon": 0.0, "lat": 38.870679833333334, "name": "c0b5f0306b8f5364ee1a015f762ae0dd", "bike_id": "c0b5f0306b8f5364ee1a015f762ae0dd", "lon": -76.9800175, "fusion_lat": 0.0, "rental_uris": {"android": "https://dc.lft.to/lastmile_qr_scan", "ios": "https://dc.lft.to/lastmile_qr_scan"}, "type": "electric_scooter"}, {"is_reserved": 0, "is_disabled": 0, "fusion_lon": 0.0, "lat": 38.865671166666665, "name": "770f5d0d62b5ffe1def7380fe863ea8e", "bike_id": "770f5d0d62b5ffe1def7380fe863ea8e", "lon": -76.9748405, "fusion_lat": 0.0, "rental_uris": {"android": "https://dc.lft.to/lastmile_qr_scan", "ios": "https://dc.lft.to/lastmile_qr_scan"}, "type": "electric_bike"}, {"is_reserved": 0, "is_disabled": 0, "fusion_lon": 0.0, "lat": 38.824307833333336, "name": "d736ed910a7666bee511897c0b39e715", "bike_id": "d736ed910a7666bee511897c0b39e715", "lon": -77.12041333333333, "fusion_lat": 0.0, "rental_uris": {"android": "https://dc.lft.to/lastmile_qr_scan", "ios": "https://dc.lft.to/lastmile_qr_scan"}, "type": "electric_bike"}, {"is_reserved": 0, "is_disabled": 0, "fusion_lon": 0.0, "lat": 38.923318333333334, "name": "32d8933a3a88fc5d80960ebc670c193c", "bike_id": "32d8933a3a88fc5d80960ebc670c193c", "lon": -77.02962983333333, "fusion_lat": 0.0, "rental_uris": {"android": "https://dc.lft.to/lastmile_qr_scan", "ios": "https://dc.lft.to/lastmile_qr_scan"}, "type": "electric_scooter"}, {"is_reserved": 0, "is_disabled": 0, "fusion_lon": 0.0, "lat": 38.922344, "name": "c8a2f75a8a7baae05dac7798319d84fd", "bike_id": "c8a2f75a8a7baae05dac7798319d84fd", "lon": -77.04463233333334, "fusion_lat": 0.0, "rental_uris": {"android": "https://dc.lft.to/lastmile_qr_scan", "ios": "https://dc.lft.to/lastmile_qr_scan"}, "type": "electric_scooter"}, {"is_reserved": 0, "is_disabled": 0, "fusion_lon": 0.0, "lat": 38.9244325, "name": "fac8c3d07d7ad8bb6c1c533603f585b8", "bike_id": "fac8c3d07d7ad8bb6c1c533603f585b8", "lon": -77.04033483333333, "fusion_lat": 0.0, "rental_uris": {"android": "https://dc.lft.to/lastmile_qr_scan", "ios": "https://dc.lft.to/lastmile_qr_scan"}, "type": "electric_scooter"}, {"is_reserved": 0, "is_disabled": 0, "fusion_lon": 0.0, "lat": 38.90275783333333, "name": "a5128af854227824c6ab6716d0971088", "bike_id": "a5128af854227824c6ab6716d0971088", "lon": -77.0435565, "fusion_lat": 0.0, "rental_uris": {"android": "https://dc.lft.to/lastmile_qr_scan", "ios": "https://dc.lft.to/lastmile_qr_scan"}, "type": "electric_scooter"}, {"is_reserved": 0, "is_disabled": 0, "fusion_lon": 0.0, "lat": 38.93504016666667, "name": "56d2757a8a44892f3353f444ad1ea63d", "bike_id": "56d2757a8a44892f3353f444ad1ea63d", "lon": -77.0371125, "fusion_lat": 0.0, "rental_uris": {"android": "https://dc.lft.to/lastmile_qr_scan", "ios": "https://dc.lft.to/lastmile_qr_scan"}, "type": "electric_scooter"}, {"is_reserved": 0, "is_disabled": 0, "fusion_lon": 0.0, "lat": 38.894011166666665, "name": "33157f6802fd552e0691d8159758ace2", "bike_id": "33157f6802fd552e0691d8159758ace2", "lon": -76.86846066666666, "fusion_lat": 0.0, "rental_uris": {"android": "https://dc.lft.to/lastmile_qr_scan", "ios": "https://dc.lft.to/lastmile_qr_scan"}, "type": "electric_bike"}, {"is_reserved": 0, "is_disabled": 0, "fusion_lon": 0.0, "lat": 38.92107, "name": "b3b7dea2ba23a693de804611c34e57d8", "bike_id": "b3b7dea2ba23a693de804611c34e57d8", "lon": -77.03241716666666, "fusion_lat": 0.0, "rental_uris": {"android": "https://dc.lft.to/lastmile_qr_scan", "ios": "https://dc.lft.to/lastmile_qr_scan"}, "type": "electric_scooter"}, {"is_reserved": 0, "is_disabled": 0, "fusion_lon": 0.0, "lat": 38.876697666666665, "name": "20e19cefeb9ba0f74a4d315325446f23", "bike_id": "20e19cefeb9ba0f74a4d315325446f23", "lon": -77.0202835, "fusion_lat": 0.0, "rental_uris": {"android": "https://dc.lft.to/lastmile_qr_scan", "ios": "https://dc.lft.to/lastmile_qr_scan"}, "type": "electric_scooter"}, {"is_reserved": 0, "is_disabled": 0, "fusion_lon": 0.0, "lat": 38.92015083333333, "name": "e3b1677fd6be2a86653f244b9aa0b463", "bike_id": "e3b1677fd6be2a86653f244b9aa0b463", "lon": -77.04399383333333, "fusion_lat": 0.0, "rental_uris": {"android": "https://dc.lft.to/lastmile_qr_scan", "ios": "https://dc.lft.to/lastmile_qr_scan"}, "type": "electric_scooter"}, {"is_reserved": 0, "is_disabled": 0, "fusion_lon": 0.0, "lat": 38.9170845, "name": "cb301d92fcb9a19d7dad1f8f904a6911", "bike_id": "cb301d92fcb9a19d7dad1f8f904a6911", "lon": -77.03215216666666, "fusion_lat": 0.0, "rental_uris": {"android": "https://dc.lft.to/lastmile_qr_scan", "ios": "https://dc.lft.to/lastmile_qr_scan"}, "type": "electric_scooter"}, {"is_reserved": 0, "is_disabled": 0, "fusion_lon": 0.0, "lat": 38.93666666666667, "name": "c17b4f4e17164ec03388373bfd5bf723", "bike_id": "c17b4f4e17164ec03388373bfd5bf723", "lon": -77.03692633333333, "fusion_lat": 0.0, "rental_uris": {"android": "https://dc.lft.to/lastmile_qr_scan", "ios": "https://dc.lft.to/lastmile_qr_scan"}, "type": "electric_scooter"}, {"is_reserved": 0, "is_disabled": 0, "fusion_lon": 0.0, "lat": 38.927966833333336, "name": "d4eeea1f44a418935ab91faf8ba85f4c", "bike_id": "d4eeea1f44a418935ab91faf8ba85f4c", "lon": -77.02975316666667, "fusion_lat": 0.0, "rental_uris": {"android": "https://dc.lft.to/lastmile_qr_scan", "ios": "https://dc.lft.to/lastmile_qr_scan"}, "type": "electric_scooter"}, {"is_reserved": 0, "is_disabled": 0, "fusion_lon": 0.0, "lat": 38.897225, "name": "95fd48771d7ce38d6ac1c5876817d82a", "bike_id": "95fd48771d7ce38d6ac1c5876817d82a", "lon": -77.03112633333333, "fusion_lat": 0.0, "rental_uris": {"android": "https://dc.lft.to/lastmile_qr_scan", "ios": "https://dc.lft.to/lastmile_qr_scan"}, "type": "electric_scooter"},