{"data": {"bikes": [{"fusion_lat": 0.0, "type": "electric_scooter", "name": "65fd53d0099715dccaa37dfeac2c793a", "fusion_lon": 0.0, "bike_id": "65fd53d0099715dccaa37dfeac2c793a", "is_reserved": 0, "rental_uris": {"android": "https://dc.lft.to/lastmile_qr_scan", "ios": "https://dc.lft.to/lastmile_qr_scan"}, "lat": 38.862354333333336, "is_disabled": 0, "lon": -76.994852}, {"fusion_lat": 0.0, "type": "electric_scooter", "name": "9585383e40c4a26485bf0c24d7edbf8b", "fusion_lon": 0.0, "bike_id": "9585383e40c4a26485bf0c24d7edbf8b", "is_reserved": 0, "rental_uris": {"android": "https://dc.lft.to/lastmile_qr_scan", "ios": "https://dc.lft.to/lastmile_qr_scan"}, "lat": 38.902745833333334, "is_disabled": 0, "lon": -77.0533535}, {"fusion_lat": 0.0, "type": "electric_scooter", "name": "3e5a96e03f291134f5d697d669c715fe", "fusion_lon": 0.0, "bike_id": "3e5a96e03f291134f5d697d669c715fe", "is_reserved": 0, "rental_uris": {"android": "https://dc.lft.to/lastmile_qr_scan", "ios": "https://dc.lft.to/lastmile_qr_scan"}, "lat": 38.89219533333333, "is_disabled": 0, "lon": -77.02630433333333}, {"fusion_lat": 0.0, "type": "electric_scooter", "name": "01470773d4eadd3ebe8ba32fd36f228a", "fusion_lon": 0.0, "bike_id": "01470773d4eadd3ebe8ba32fd36f228a", "is_reserved": 0, "rental_uris": {"android": "https://dc.lft.to/lastmile_qr_scan", "ios": "https://dc.lft.to/lastmile_qr_scan"}, "lat": 38.92090433333333, "is_disabled": 0, "lon": -77.04376066666667}, {"fusion_lat": 0.0, "type": "electric_scooter", "name": "5f8666c4926005dae02d924702830179", "fusion_lon": 0.0, "bike_id": "5f8666c4926005dae02d924702830179", "is_reserved": 0, "rental_uris": {"android": "https://dc.lft.to/lastmile_qr_scan", "ios": "https://dc.lft.to/lastmile_qr_scan"}, "lat": 38.93437483333334, "is_disabled": 0, "lon": -76.998792}, {"fusion_lat": 0.0, "type": "electric_scooter", "name": "bcedd0c17ea974503488db77606b038c", "fusion_lon": 0.0, "bike_id": "bcedd0c17ea974503488db77606b038c", "is_reserved": 0, "rental_uris": {"android": "https://dc.lft.to/lastmile_qr_scan", "ios": "https://dc.lft.to/lastmile_qr_scan"}, "lat": 38.911327166666666, "is_disabled": 0, "lon": -77.0365815}, {"fusion_lat": 0.0, "type": "electric_scooter", "name": "463ec573dcb838dd0db3ec338e1325ff", "fusion_lon": 0.0, "bike_id": "463ec573dcb838dd0db3ec338e1325ff", "is_reserved": 0, "rental_uris": {"android": "https://dc.lft.to/lastmile_qr_scan", "ios": "https://dc.lft.to/lastmile_qr_scan"}, "lat": 38.924694333333335, "is_disabled": 0, "lon": -77.03534183333333}, {"fusion_lat": 0.0, "type": "electric_scooter", "name": "a4f86589e139707285359c36db9dd75d", "fusion_lon": 0.0, "bike_id": "a4f86589e139707285359c36db9dd75d", "is_reserved": 0, "rental_uris": {"android": "https://dc.lft.to/lastmile_qr_scan", "ios": "https://dc.lft.to/lastmile_qr_scan"}, "lat": 38.94448466666667, "is_disabled": 0, "lon": -77.02802433333333}, {"fusion_lat": 0.0, "type": "electric_scooter", "name": "ed46cc6f7e4931b27f337b1747bf8019", "fusion_lon": 0.0, "bike_id": "ed46cc6f7e4931b27f337b1747bf8019", "is_reserved": 0, "rental_uris": {"android": "https://dc.lft.to/lastmile_qr_scan", "ios": "https://dc.lft.to/lastmile_qr_scan"}, "lat": 38.914704666666665, "is_disabled": 0, "lon": -77.06940816666666}, {"fusion_lat": 0.0, "type": "electric_scooter", "name": "29b9f732c734d98135633fe1b266f4c6", "fusion_lon": 0.0, "bike_id": "29b9f732c734d98135633fe1b266f4c6", "is_reserved": 0, "rental_uris": {"android": "https://dc.lft.to/lastmile_qr_scan", "ios": "https://dc.lft.to/lastmile_qr_scan"}, "lat": 38.949871, "is_disabled": 0, "lon": -77.027052}, {"fusion_lat": 0.0, "type": "electric_scooter", "name": "9cf2354cb29443f8dd292f01bebb031c", "fusion_lon": 0.0, "bike_id": "9cf2354cb29443f8dd292f01bebb031c", "is_reserved": 0, "rental_uris": {"android": "https://dc.lft.to/lastmile_qr_scan", "ios": "https://dc.lft.to/lastmile_qr_scan"}, "lat": 38.88606633333333, "is_disabled": 0, "lon": -77.001345}, {"fusion_lat": 0.0, "type": "electric_scooter", "name": "018f66adc3f6686041be0e1dbce16fcc", "fusion_lon": 0.0, "bike_id": "018f66adc3f6686041be0e1dbce16fcc", "is_reserved": 0, "rental_uris": {"android": "https://dc.lft.to/lastmile_qr_scan", "ios": "https://dc.lft.to/lastmile_qr_scan"}, "lat": 38.88712816666666, "is_disabled": 0, "lon": -77.02203}, {"fusion_lat": 0.0, "type": "electric_bike", "name": "ad3f4b950b66998af4ffc6dd23e2ae7f", "fusion_lon": 0.0, "bike_id": "ad3f4b950b66998af4ffc6dd23e2ae7f", "is_reserved": 0, "rental_uris": {"android": "https://dc.lft.to/lastmile_qr_scan", "ios": "https://dc.lft.to/lastmile_qr_scan"}, "lat": 38.981552, "is_disabled": 0, "lon": -77.02641883333334}, {"fusion_lat": 0.0, "type": "electric_bike", "name": "5bc79efcaade9bc833f4bf2caf3da8ef", "fusion_lon": 0.0, "bike_id": "5bc79efcaade9bc833f4bf2caf3da8ef", "is_reserved": 0, "rental_uris": {"android": "https://dc.lft.to/lastmile_qr_scan", "ios": "https://dc.lft.to/lastmile_qr_scan"}, "lat": 38.85933766666667, "is_disabled": 0, "lon": -77.11825616666667}, {"fusion_lat": 0.0, "type": "electric_scooter", "name": "94f6d71a9c0e037b4bfa2e98456ff713", "fusion_lon": 0.0, "bike_id": "94f6d71a9c0e037b4bfa2e98456ff713", "is_reserved": 0, "rental_uris": {"android": "https://dc.lft.to/lastmile_qr_scan", "ios": "https://dc.lft.to/lastmile_qr_scan"}, "lat": 38.864742, "is_disabled": 0, "lon": -76.98228533333334}, {"fusion_lat": 0.0, "type": "electric_scooter", "name": "b10d500c5961d2c83970d2d2759f8e13", "fusion_lon": 0.0, "bike_id": "b10d500c5961d2c83970d2d2759f8e13", "is_reserved": 0, "rental_uris": {"android": "https://dc.lft.to/lastmile_qr_scan", "ios": "https://dc.lft.to/lastmile_qr_scan"}, "lat": 38.92146266666666, "is_disabled": 0, "lon": -77.03376483333334}, {"fusion_lat": 0.0, "type": "electric_scooter", "name": "19839a4e42bab775f2060efc4762c958", "fusion_lon": 0.0, "bike_id": "19839a4e42bab775f2060efc4762c958", "is_reserved": 0, "rental_uris": {"android": "https://dc.lft.to/lastmile_qr_scan", "ios": "https://dc.lft.to/lastmile_qr_scan"}, "lat": 38.913613, "is_disabled": 0, "lon": -77.04565216666667}, {"fusion_lat": 0.0, "type": "electric_scooter", "name": "cae4b36603f42526c4ea83c782bb57fe", "fusion_lon": 0.0, "bike_id": "cae4b36603f42526c4ea83c782bb57fe", "is_reserved": 0, "rental_uris": {"android": "https://dc.lft.to/lastmile_qr_scan", "ios": "https://dc.lft.to/lastmile_qr_scan"}, "lat": 38.8771585, "is_disabled": 0, "lon": -77.01763516666666}, {"fusion_lat": 0.0, "type": "electric_scooter", "name": "2e6180d0f31e79888512c0b2e335935a", "fusion_lon": 0.0, "bike_id": "2e6180d0f31e79888512c0b2e335935a", "is_reserved": 0, "rental_uris": {"android": "https://dc.lft.to/lastmile_qr_scan", "ios": "https://dc.lft.to/lastmile_qr_scan"}, "lat": 38.90243233333333, "is_disabled": 0, "lon": -77.0394505}, {"fusion_lat": 0.0, "type": "electric_scooter", "name": "d0e435fe98d6f73ddf71ba5df37d4a7c", "fusion_lon": 0.0, "bike_id": "d0e435fe98d6f73ddf71ba5df37d4a7c", "is_reserved": 0, "rental_uris": {"android": "https://dc.lft.to/lastmile_qr_scan", "ios": "https://dc.lft.to/lastmile_qr_scan"}, "lat": 38.907287833333335, "is_disabled": 0, "lon": -77.03456783333333}, {"fusion_lat": 0.0, "type": "electric_scooter", "name": "1367e9d2ccac15371f5b58959994b8d0", "fusion_lon": 0.0, "bike_id": "1367e9d2ccac15371f5b58959994b8d0", "is_reserved": 0, "rental_uris": {"android": "https://dc.lft.to/lastmile_qr_scan", "ios": "https://dc.lft.to/lastmile_qr_scan"}, "lat": 38.905561666666664, "is_disabled": 0, "lon": -77.04700083333333}, {"fusion_lat": 0.0, "type": "electric_scooter", "name": "d110f5729a4179cbdfa190bf3a498a0e", "fusion_lon": 0.0, "bike_id": "d110f5729a4179cbdfa190bf3a498a0e", "is_reserved": 0, "rental_uris": {"android": "https://dc.lft.to/lastmile_qr_scan", "ios": "https://dc.lft.to/lastmile_qr_scan"}, "lat": 38.91184483333333, "is_disabled": 0, "lon": -77.03523083333333}, {"fusion_lat": 0.0, "type": "electric_scooter", "name": "e360654f5853bbcfd6a84ac5998758ac", "fusion_lon": 0.0, "bike_id": "e360654f5853bbcfd6a84ac5998758ac", "is_reserved": 0, "rental_uris": {"android": "https://dc.lft.to/lastmile_qr_scan", "ios": "https://dc.lft.to/lastmile_qr_scan"}, "lat": 38.916435166666666, "is_disabled": 0, "lon": -77.02174583333333}, {"fusion_lat": 0.0, "type": "electric_scooter", "name": "fd1dcac1514eb426a3a73ac7cbafa4e7", "fusion_lon": 0.0, "bike_id": "fd1dcac1514eb426a3a73ac7cbafa4e7", "is_reserved": 0, "rental_uris": {"android": "https://dc.lft.to/lastmile_qr_scan", "ios": "https://dc.lft.to/lastmile_qr_scan"}, "lat": 38.92479133333333, "is_disabled": 0, "lon": -77.0214235}, {"fusion_lat": 0.0, "type": "electric_scooter", "name": "6ede84acc3107dcb3e8e22b6592b0b4d", "fusion_lon": 0.0, "bike_id": "6ede84acc3107dcb3e8e22b6592b0b4d", "is_reserved": 0, "rental_uris": {"android": "https://dc.lft.to/lastmile_qr_scan", "ios": "https://dc.lft.to/lastmile_qr_scan"}, "lat": 38.849941666666666, "is_disabled": 0, "lon": -76.9834735}, {"fusion_lat": 0.0, "type": "electric_scooter", "name": "602d882d515dc7e55140f54a9379d103", "fusion_lon": 0.0, "bike_id": "602d882d515dc7e55140f54a9379d103", "is_reserved": 0, "rental_uris": {"android": "https://dc.lft.to/lastmile_qr_scan", "ios": "https://dc.lft.to/lastmile_qr_scan"}, "lat": 38.90965283333333, "is_disabled": 0, "lon": -77.046939}, {"fusion_lat": 0.0, "type": "electric_scooter", "name": "cbb4a7850f6ae94c9025325760df416b", "fusion_lon": 0.0, "bike_id": "cbb4a7850f6ae94c9025325760df416b", "is_reserved": 0, "rental_uris": {"android": "https://dc.lft.to/lastmile_qr_scan", "ios": "https://dc.lft.to/lastmile_qr_scan"}, "lat": 38.892238, "is_disabled": 0, "lon": -77.04896016666666}, {"fusion_lat": 0.0, "type": "electric_scooter", "name": "a0a5c81fa1a9cfd84b3de1cb18796dea", "fusion_lon": 0.0, "bike_id": "a0a5c81fa1a9cfd84b3de1cb18796dea", "is_reserved": 0, "rental_uris": {"android": "https://dc.lft.to/lastmile_qr_scan", "ios": "https://dc.lft.to/lastmile_qr_scan"}, "lat": 38.90957183333333, "is_disabled": 0, "lon": -77.03208983333333}, {"fusion_lat": 0.0, "type": "electric_scooter", "name": "31cf459eb782c7ed540d6cee3d90c034", "fusion_lon": 0.0, "bike_id": "31cf459eb782c7ed540d6cee3d90c034", "is_reserved": 0, "rental_uris": {"android": "https://dc.lft.to/lastmile_qr_scan", "ios": "https://dc.lft.to/lastmile_qr_scan"}, "lat": 38.919018, "is_disabled": 0, "lon": -77.029692}, {"fusion_lat": 0.0, "type": "electric_scooter", "name": "181dfe6cc5ab796b5c527defaf2a42d0", "fusion_lon": 0.0, "bike_id": "181dfe6cc5ab796b5c527defaf2a42d0", "is_reserved": 0, "rental_uris": {"android": "https://dc.lft.to/lastmile_qr_scan", "ios": "https://dc.lft.to/lastmile_qr_scan"}, "lat": 38.913074333333334, "is_disabled": 0, "lon": -77.038545}, {"fusion_lat": 0.0, "type": "electric_scooter", "name": "c0ed7a2ce1b9ed90b2f7a20c5d6642bb", "fusion_lon": 0.0, "bike_id": "c0ed7a2ce1b9ed90b2f7a20c5d6642bb", "is_reserved": 0, "rental_uris": {"android": "https://dc.lft.to/lastmile_qr_scan", "ios": "https://dc.lft.to/lastmile_qr_scan"}, "lat": 38.908847, "is_disabled": 0, "lon": -76.998516}, {"fusion_lat": 0.0, "type": "electric_scooter", "name": "964bb0667cfa0382ae553a28401f31b6", "fusion_lon": 0.0, "bike_id": "964bb0667cfa0382ae553a28401f31b6", "is_reserved": 0, "rental_uris": {"android": "https://dc.lft.to/lastmile_qr_scan", "ios": "https://dc.lft.to/lastmile_qr_scan"}, "lat": 38.9017845, "is_disabled": 0, "lon": -76.9286425}, {"fusion_lat": 0.0, "type": "electric_scooter", "name": "df57591529570ea0ec1bc02fd5dcef79", "fusion_lon": 0.0, "bike_id": "df57591529570ea0ec1bc02fd5dcef79", "is_reserved": 0, "rental_uris": {"android": "https://dc.lft.to/lastmile_qr_scan", "ios": "https://dc.lft.to/lastmile_qr_scan"}, "lat": 38.8668455, "is_disabled": 0, "lon": -76.98593716666667}, {"fusion_lat": 0.0, "type": "electric_scooter", "name": "ddbf411de47d0c0e22fd00839c6f35aa", "fusion_lon": 0.0, "bike_id": "ddbf411de47d0c0e22fd00839c6f35aa", "is_reserved": 0, "rental_uris": {"android": "https://dc.lft.to/lastmile_qr_scan", "ios": "https://dc.lft.to/lastmile_qr_scan"}, "lat": 38.8872275, "is_disabled": 0, "lon": -77.02816266666666}, {"fusion_lat": 0.0, "type": "electric_bike", "name": "b05ac586295e1e2821ab660c0a54479e", "fusion_lon": 0.0, "bike_id": "b05ac586295e1e2821ab660c0a54479e", "is_reserved": 0, "rental_uris": {"android": "https://dc.lft.to/lastmile_qr_scan", "ios": "https://dc.lft.to/lastmile_qr_scan"}, "lat": 39.052822666666664, "is_disabled": 0, "lon": -77.08063133333333}, {"fusion_lat": 0.0, "type": "electric_scooter", "name": "ab2dd88c36aca04a8f58b05957a584ce", "fusion_lon": 0.0, "bike_id": "ab2dd88c36aca04a8f58b05957a584ce", "is_reserved": 0, "rental_uris": {"android": "https://dc.lft.to/lastmile_qr_scan", "ios": "https://dc.lft.to/lastmile_qr_scan"}, "lat": 38.90248783333333, "is_disabled": 0, "lon": -76.99556233333334}, {"fusion_lat": 0.0, "type": "electric_scooter", "name": "4fd82c45d4fcbf00bd3370b3a0d5c01e", "fusion_lon": 0.0, "bike_id": "4fd82c45d4fcbf00bd3370b3a0d5c01e", "is_reserved": 0, "rental_uris": {"android": "https://dc.lft.to/lastmile_qr_scan", "ios": "https://dc.lft.to/lastmile_qr_scan"}, "lat": 38.931212, "is_disabled": 0, "lon": -77.028232}, {"fusion_lat": 0.0, "type": "electric_scooter", "name": "76bcd3e2cf08057dfae3471cfa27f9fa", "fusion_lon": 0.0, "bike_id": "76bcd3e2cf08057dfae3471cfa27f9fa", "is_reserved": 0, "rental_uris": {"android": "https://dc.lft.to/lastmile_qr_scan", "ios": "https://dc.lft.to/lastmile_qr_scan"}, "lat": 38.87698283333334, "is_disabled": 0, "lon": -77.00417633333333}, {"fusion_lat": 0.0, "type": "electric_scooter", "name": "02f43ff8d48a237bce6cee8a90ded18b", "fusion_lon": 0.0, "bike_id": "02f43ff8d48a237bce6cee8a90ded18b", "is_reserved": 0, "rental_uris": {"android": "https://dc.lft.to/lastmile_qr_scan", "ios": "https://dc.lft.to/lastmile_qr_scan"}, "lat": 38.920449166666664, "is_disabled": 0, "lon": -77.01675533333334}, {"fusion_lat": 0.0, "type": "electric_bike", "name": "856f6ace20c6ff908dea028a22e45099", "fusion_lon": 0.0, "bike_id": "856f6ace20c6ff908dea028a22e45099", "is_reserved": 0, "rental_uris": {"android": "https://dc.lft.to/lastmile_qr_scan", "ios": "https://dc.lft.to/lastmile_qr_scan"}, "lat": 38.9610365, "is_disabled": 0, "lon": -76.9281445}, {"fusion_lat": 0.0, "type": "electric_scooter", "name": "4b5d9350e65c2e69531ed597ef8e7323", "fusion_lon": 0.0, "bike_id": "4b5d9350e65c2e69531ed597ef8e7323", "is_reserved": 0, "rental_uris": {"android": "https://dc.lft.to/lastmile_qr_scan", "ios": "https://dc.lft.to/lastmile_qr_scan"}, "lat": 38.9110545, "is_disabled": 0, "lon": -77.04476183333334}, {"fusion_lat": 0.0, "type": "electric_scooter", "name": "af14d8f42312606d255faba642152eee", "fusion_lon": 0.0, "bike_id": "af14d8f42312606d255faba642152eee", "is_reserved": 0, "rental_uris": {"android": "https://dc.lft.to/lastmile_qr_scan", "ios": "https://dc.lft.to/lastmile_qr_scan"}, "lat": 38.8719575, "is_disabled": 0, "lon": -77.01072733333334}, {"fusion_lat": 0.0, "type": "electric_scooter", "name": "ce17c61c2359110acd9bd4eba696c3a8", "fusion_lon": 0.0, "bike_id": "ce17c61c2359110acd9bd4eba696c3a8", "is_reserved": 0, "rental_uris": {"android": "https://dc.lft.to/lastmile_qr_scan", "ios": "https://dc.lft.to/lastmile_qr_scan"}, "lat": 38.8973905, "is_disabled": 0, "lon": -77.04363816666667}, {"fusion_lat": 0.0, "type": "electric_scooter", "name": "7cee8124807a56cb0f008639e01aba7a", "fusion_lon": 0.0, "bike_id": "7cee8124807a56cb0f008639e01aba7a", "is_reserved": 0, "rental_uris": {"android": "https://dc.lft.to/lastmile_qr_scan", "ios": "https://dc.lft.to/lastmile_qr_scan"}, "lat": 38.98448916666667, "is_disabled": 0, "lon": -77.02641683333333}, {"fusion_lat": 0.0, "type": "electric_scooter", "name": "51a8c1a1ae3a61905c56626860332ba2", "fusion_lon": 0.0, "bike_id": "51a8c1a1ae3a61905c56626860332ba2", "is_reserved": 0, "rental_uris": {"android": "https://dc.lft.to/lastmile_qr_scan", "ios": "https://dc.lft.to/lastmile_qr_scan"}, "lat": 38.9085855, "is_disabled": 0, "lon": -77.04567883333333}, {"fusion_lat": 0.0, "type": "electric_scooter", "name": "97f65331f8667eeed7cb1593cc878608", "fusion_lon": 0.0, "bike_id": "97f65331f8667eeed7cb1593cc878608", "is_reserved": 0, "rental_uris": {"android": "https://dc.lft.to/lastmile_qr_scan", "ios": "https://dc.lft.to/lastmile_qr_scan"}, "lat": 38.86994966666666, "is_disabled": 0, "lon": -76.97583683333333}, {"fusion_lat": 0.0, "type": "electric_scooter", "name": "06f5778338f914de7cc9ff5a1da0822a", "fusion_lon": 0.0, "bike_id": "06f5778338f914de7cc9ff5a1da0822a", "is_reserved": 0, "rental_uris": {"android": "https://dc.lft.to/lastmile_qr_scan", "ios": "https://dc.lft.to/lastmile_qr_scan"}, "lat": 38.933609, "is_disabled": 0, "lon": -77.0572905}, {"fusion_lat": 0.0, "type": "electric_scooter", "name": "3d030b3927bc93909379eb2204cb7752", "fusion_lon": 0.0, "bike_id": "3d030b3927bc93909379eb2204cb7752", "is_reserved": 0, "rental_uris": {"android": "https://dc.lft.to/lastmile_qr_scan", "ios": "https://dc.lft.to/lastmile_qr_scan"}, "lat": 38.90342716666667, "is_disabled": 0, "lon": -77.03896066666667}, {"fusion_lat": 0.0, "type": "electric_scooter", "name": "911e42b06eff614e724a59b654ed59af", "fusion_lon": 0.0, "bike_id": "911e42b06eff614e724a59b654ed59af", "is_reserved": 0, "rental_uris": {"android": "https://dc.lft.to/lastmile_qr_scan", "ios": "https://dc.lft.to/lastmile_qr_scan"}, "lat": 38.8770455, "is_disabled": 0, "lon": -77.00415033333333}, {"fusion_lat": 0.0, "type": "electric_scooter", "name": "92878eca71df3fb6ef59f6ba1ac7ccc3", "fusion_lon": 0.0, "bike_id": "92878eca71df3fb6ef59f6ba1ac7ccc3", "is_reserved": 0, "rental_uris": {"android": "https://dc.lft.to/lastmile_qr_scan", "ios": "https://dc.lft.to/lastmile_qr_scan"}, "lat": 38.902308, "is_disabled": 0, "lon": -77.02695}, {"fusion_lat": 0.0, "type": "electric_scooter", "name": "d837d729513f98a8ccb8a798254febb8", "fusion_lon": 0.0, "bike_id": "d837d729513f98a8ccb8a798254febb8", "is_reserved": 0, "rental_uris": {"android": "https://dc.lft.to/lastmile_qr_scan", "ios": "https://dc.lft.to/lastmile_qr_scan"}, "lat": 38.912905333333335, "is_disabled": 0, "lon": -77.04548183333333}, {"fusion_lat": 0.0, "type": "electric_scooter", "name": "5e1b39362aca9aee294bd2f94069428d", "fusion_lon": 0.0, "bike_id": "5e1b39362aca9aee294bd2f94069428d", "is_reserved": 0, "rental_uris": {"android": "https://dc.lft.to/lastmile_qr_scan", "ios": "https://dc.lft.to/lastmile_qr_scan"}, "lat": 38.9022965, "is_disabled": 0, "lon": -77.04384116666667}, {"fusion_lat": 0.0, "type": "electric_scooter", "name": "8bbfd3cf9be4f238e929e9a395b0a65e", "fusion_lon": 0.0, "bike_id": "8bbfd3cf9be4f238e929e9a395b0a65e", "is_reserved": 0, "rental_uris": {"android": "https://dc.lft.to/lastmile_qr_scan", "ios": "https://dc.lft.to/lastmile_qr_scan"}, "lat": 38.905812, "is_disabled": 0, "lon": -77.04363683333334}, {"fusion_lat": 0.0, "type": "electric_bike", "name": "c1df23bd36de3b916453285abb575c66", "fusion_lon": 0.0, "bike_id": "c1df23bd36de3b916453285abb575c66", "is_reserved": 0, "rental_uris": {"android": "https://dc.lft.to/lastmile_qr_scan", "ios": "https://dc.lft.to/lastmile_qr_scan"}, "lat": 38.8887795, "is_disabled": 0, "lon": -77.08174866666667}, {"fusion_lat": 0.0, "type": "electric_scooter", "name": "c929efec81bda98f2c26d6226d137f44", "fusion_lon": 0.0, "bike_id": "c929efec81bda98f2c26d6226d137f44", "is_reserved": 0, "rental_uris": {"android": "https://dc.lft.to/lastmile_qr_scan", "ios": "https://dc.lft.to/lastmile_qr_scan"}, "lat": 38.953328166666665, "is_disabled": 0, "lon": -76.99968966666667}, {"fusion_lat": 0.0, "type": "electric_scooter", "name": "81ff596f1317cf9ad950ba4aee42be4a", "fusion_lon": 0.0, "bike_id": "81ff596f1317cf9ad950ba4aee42be4a", "is_reserved": 0, "rental_uris": {"android": "https://dc.lft.to/lastmile_qr_scan", "ios": "https://dc.lft.to/lastmile_qr_scan"}, "lat": 38.8768855, "is_disabled": 0, "lon": -77.00300866666667}, {"fusion_lat": 0.0, "type": "electric_scooter", "name": "98e121dca4a5e1a931bd5db5e761d899", "fusion_lon": 0.0, "bike_id": "98e121dca4a5e1a931bd5db5e761d899", "is_reserved": 0, "rental_uris": {"android": "https://dc.lft.to/lastmile_qr_scan", "ios": "https://dc.lft.to/lastmile_qr_scan"}, "lat": 38.916131, "is_disabled": 0, "lon": -77.03200433333333}, {"fusion_lat": 0.0, "type": "electric_scooter", "name": "f0c7c7cb04976cba4339485aa4365e10", "fusion_lon": 0.0, "bike_id": "f0c7c7cb04976cba4339485aa4365e10", "is_reserved": 0, "rental_uris": {"android": "https://dc.lft.to/lastmile_qr_scan", "ios": "https://dc.lft.to/lastmile_qr_scan"}, "lat": 38.907839333333335, "is_disabled": 0, "lon": -77.0385235}, {"fusion_lat": 0.0, "type": "electric_scooter", "name": "8037f431aaffabb5ee2ef8db08398e10", "fusion_lon": 0.0, "bike_id": "8037f431aaffabb5ee2ef8db08398e10", "is_reserved": 0, "rental_uris": {"android": "https://dc.lft.to/lastmile_qr_scan", "ios": "https://dc.lft.to/lastmile_qr_scan"}, "lat": 38.911720333333335, "is_disabled": 0, "lon": -77.049193}, {"fusion_lat": 0.0, "type": "electric_scooter", "name": "f444c8cb17a4d81984c1aae104aa3e39", "fusion_lon": 0.0, "bike_id": "f444c8cb17a4d81984c1aae104aa3e39", "is_reserved": 0, "rental_uris": {"android": "https://dc.lft.to/lastmile_qr_scan", "ios": "https://dc.lft.to/lastmile_qr_scan"}, "lat": 38.8921885, "is_disabled": 0, "lon": -77.04503283333334}, {"fusion_lat": 0.0, "type": "electric_scooter", "name": "4864fa6bbbabb6aac6c53959fc02ee9e", "fusion_lon": 0.0, "bike_id": "4864fa6bbbabb6aac6c53959fc02ee9e", "is_reserved": 0, "rental_uris": {"android": "https://dc.lft.to/lastmile_qr_scan", "ios": "https://dc.lft.to/lastmile_qr_scan"}, "lat": 38.90503666666667, "is_disabled": 0, "lon": -76.979238}, {"fusion_lat": 0.0, "type": "electric_scooter", "name": "0429c3be5b01326be1a3978a227c16b5", "fusion_lon": 0.0, "bike_id": "0429c3be5b01326be1a3978a227c16b5", "is_reserved": 0, "rental_uris": {"android": "https://dc.lft.to/lastmile_qr_scan", "ios": "https://dc.lft.to/lastmile_qr_scan"}, "lat": 38.8874525, "is_disabled": 0, "lon": -77.00878283333333}, {"fusion_lat": 0.0, "type": "electric_scooter", "name": "9f025a4c1f9ee78a4b636192a37c1893", "fusion_lon": 0.0, "bike_id": "9f025a4c1f9ee78a4b636192a37c1893", "is_reserved": 0, "rental_uris": {"android": "https://dc.lft.to/lastmile_qr_scan", "ios": "https://dc.lft.to/lastmile_qr_scan"}, "lat": 38.9055355, "is_disabled": 0, "lon": -76.973876}, {"fusion_lat": 0.0, "type": "electric_scooter", "name": "146959e2aa8afcd9849cf484d2a06438", "fusion_lon": 0.0, "bike_id": "146959e2aa8afcd9849cf484d2a06438", "is_reserved": 0, "rental_uris": {"android": "https://dc.lft.to/lastmile_qr_scan", "ios": "https://dc.lft.to/lastmile_qr_scan"}, "lat": 38.923582833333334, "is_disabled": 0, "lon": -77.05048733333334}, {"fusion_lat": 0.0, "type": "electric_scooter", "name": "0e544ccd1f2c3f6fa9bd1408eca0e795", "fusion_lon": 0.0, "bike_id": "0e544ccd1f2c3f6fa9bd1408eca0e795", "is_reserved": 0, "rental_uris": {"android": "https://dc.lft.to/lastmile_qr_scan", "ios": "https://dc.lft.to/lastmile_qr_scan"}, "lat": 38.893216, "is_disabled": 0, "lon": -76.943841}, {"fusion_lat": 0.0, "type": "electric_scooter", "name": "2ecb8481537d944a541269c1f9c939af", "fusion_lon": 0.0, "bike_id": "2ecb8481537d944a541269c1f9c939af", "is_reserved": 0, "rental_uris": {"android": "https://dc.lft.to/lastmile_qr_scan", "ios": "https://dc.lft.to/lastmile_qr_scan"}, "lat": 38.903656833333336, "is_disabled": 0, "lon": -77.03662066666666}, {"fusion_lat": 0.0, "type": "electric_scooter", "name": "5fbbce430133f197c64057f3449d39e7", "fusion_lon": 0.0, "bike_id": "5fbbce430133f197c64057f3449d39e7", "is_reserved": 0, "rental_uris": {"android": "https://dc.lft.to/lastmile_qr_scan", "ios": "https://dc.lft.to/lastmile_qr_scan"}, "lat": 38.8989365, "is_disabled": 0, "lon": -77.043425}, {"fusion_lat": 0.0, "type": "electric_scooter", "name": "963aca1fcdd8850ac5cca233bac8de7b", "fusion_lon": 0.0, "bike_id": "963aca1fcdd8850ac5cca233bac8de7b", "is_reserved": 0, "rental_uris": {"android": "https://dc.lft.to/lastmile_qr_scan", "ios": "https://dc.lft.to/lastmile_qr_scan"}, "lat": 38.89228283333333, "is_disabled": 0, "lon": -77.02800133333334}, {"fusion_lat": 0.0, "type": "electric_bike", "name": "2ce0b30a60e84344ae6abec3d99be907", "fusion_lon": 0.0, "bike_id": "2ce0b30a60e84344ae6abec3d99be907", "is_reserved": 0, "rental_uris": {"android": "https://dc.lft.to/lastmile_qr_scan", "ios": "https://dc.lft.to/lastmile_qr_scan"}, "lat": 38.8542635, "is_disabled": 0, "lon": -77.120763}, {"fusion_lat": 0.0, "type": "electric_scooter", "name": "e1d9f529a119725a1654193a6fde6ed4", "fusion_lon": 0.0, "bike_id": "e1d9f529a119725a1654193a6fde6ed4", "is_reserved": 0, "rental_uris": {"android": "https://dc.lft.to/lastmile_qr_scan", "ios": "https://dc.lft.to/lastmile_qr_scan"}, "lat": 38.89725033333333, "is_disabled": 0, "lon": -77.00331083333333}, {"fusion_lat": 0.0, "type": "electric_scooter", "name": "65eed386e38bdda7062279b4f57a3131", "fusion_lon": 0.0, "bike_id": "65eed386e38bdda7062279b4f57a3131", "is_reserved": 0, "rental_uris": {"android": "https://dc.lft.to/lastmile_qr_scan", "ios": "https://dc.lft.to/lastmile_qr_scan"}, "lat": 38.905067833333334, "is_disabled": 0, "lon": -76.99428533333334}, {"fusion_lat": 0.0, "type": "electric_scooter", "name": "a9c9ef768c30a6b70def5c0221741f99", "fusion_lon": 0.0, "bike_id": "a9c9ef768c30a6b70def5c0221741f99", "is_reserved": 0, "rental_uris": {"android": "https://dc.lft.to/lastmile_qr_scan", "ios": "https://dc.lft.to/lastmile_qr_scan"}, "lat": 38.89916516666667, "is_disabled": 0, "lon": -76.9338315}, {"fusion_lat": 0.0, "type": "electric_scooter", "name": "e46d901c723f22b37d35a61a967d9cb1", "fusion_lon": 0.0, "bike_id": "e46d901c723f22b37d35a61a967d9cb1", "is_reserved": 0, "rental_uris": {"android": "https://dc.lft.to/lastmile_qr_scan", "ios": "https://dc.lft.to/lastmile_qr_scan"}, "lat": 38.9219375, "is_disabled": 0, "lon": -77.07312916666666}, {"fusion_lat": 0.0, "type": "electric_scooter", "name": "64dce232389342df8a67b81387318d10", "fusion_lon": 0.0, "bike_id": "64dce232389342df8a67b81387318d10", "is_reserved": 0, "rental_uris": {"android": "https://dc.lft.to/lastmile_qr_scan", "ios": "https://dc.lft.to/lastmile_qr_scan"}, "lat": 38.902251666666665, "is_disabled": 0, "lon": -77.02640983333333}, {"fusion_lat": 0.0, "type": "electric_scooter", "name": "e7720c450b132b2ac5c14cdc83bffbeb", "fusion_lon": 0.0, "bike_id": "e7720c450b132b2ac5c14cdc83bffbeb", "is_reserved": 0, "rental_uris": {"android": "https://dc.lft.to/lastmile_qr_scan", "ios": "https://dc.lft.to/lastmile_qr_scan"}, "lat": 38.89603133333333, "is_disabled": 0, "lon": -77.05440783333333}, {"fusion_lat": 0.0, "type": "electric_scooter", "name": "1e3c3aa2b02d8dd21bb0b38817b2b301", "fusion_lon": 0.0, "bike_id": "1e3c3aa2b02d8dd21bb0b38817b2b301", "is_reserved": 0, "rental_uris": {"android": "https://dc.lft.to/lastmile_qr_scan", "ios": "https://dc.lft.to/lastmile_qr_scan"}, "lat": 38.91226616666667, "is_disabled": 0, "lon": -77.02272616666667}, {"fusion_lat": 0.0, "type": "electric_bike", "name": "4b7f129921a1553d01885cd55edbf2a4", "fusion_lon": 0.0, "bike_id": "4b7f129921a1553d01885cd55edbf2a4", "is_reserved": 0, "rental_uris": {"android": "https://dc.lft.to/lastmile_qr_scan", "ios": "https://dc.lft.to/lastmile_qr_scan"}, "lat": 38.89349716666667, "is_disabled": 0, "lon": -77.18739683333334}, {"fusion_lat": 0.0, "type": "electric_scooter", "name": "0367e9157c5c7b7cc5005cc7aba4b40e", "fusion_lon": 0.0, "bike_id": "0367e9157c5c7b7cc5005cc7aba4b40e", "is_reserved": 0, "rental_uris": {"android": "https://dc.lft.to/lastmile_qr_scan", "ios": "https://dc.lft.to/lastmile_qr_scan"}, "lat": 38.93536366666667, "is_disabled": 0, "lon": -77.05829283333334}, {"fusion_lat": 0.0, "type": "electric_scooter", "name": "4a52e2fbac9ae966fca48437918f6073", "fusion_lon": 0.0, "bike_id": "4a52e2fbac9ae966fca48437918f6073", "is_reserved": 0, "rental_uris": {"android": "https://dc.lft.to/lastmile_qr_scan", "ios": "https://dc.lft.to/lastmile_qr_scan"}, "lat": 38.9008125, "is_disabled": 0, "lon": -76.9936975}, {"fusion_lat": 0.0, "type": "electric_scooter", "name": "c0a372e9a1c87869c24e8754a57780bc", "fusion_lon": 0.0, "bike_id": "c0a372e9a1c87869c24e8754a57780bc", "is_reserved": 0, "rental_uris": {"android": "https://dc.lft.to/lastmile_qr_scan", "ios": "https://dc.lft.to/lastmile_qr_scan"}, "lat": 38.92569866666667, "is_disabled": 0, "lon": -77.02843166666666}, {"fusion_lat": 0.0, "type": "electric_scooter", "name": "5975233d19dfb1d90214a1d1014a46ff", "fusion_lon": 0.0, "bike_id": "5975233d19dfb1d90214a1d1014a46ff", "is_reserved": 0, "rental_uris": {"android": "https://dc.lft.to/lastmile_qr_scan", "ios": "https://dc.lft.to/lastmile_qr_scan"}, "lat": 38.89497383333333, "is_disabled": 0, "lon": -77.0094955}, {"fusion_lat": 0.0, "type": "electric_scooter", "name": "eb61b15fefdcc97ba47ae34e26c1c4a2", "fusion_lon": 0.0, "bike_id": "eb61b15fefdcc97ba47ae34e26c1c4a2", "is_reserved": 0, "rental_uris": {"android": "https://dc.lft.to/lastmile_qr_scan", "ios": "https://dc.lft.to/lastmile_qr_scan"}, "lat": 38.917215666666664, "is_disabled": 0, "lon": -77.029704}, {"fusion_lat": 0.0, "type": "electric_scooter", "name": "45ec7009d514f74efc3d9c3b6642363d", "fusion_lon": 0.0, "bike_id": "45ec7009d514f74efc3d9c3b6642363d", "is_reserved": 0, "rental_uris": {"android": "https://dc.lft.to/lastmile_qr_scan", "ios": "https://dc.lft.to/lastmile_qr_scan"}, "lat": 38.941803666666665, "is_disabled": 0, "lon": -77.02530483333334}, {"fusion_lat": 0.0, "type": "electric_scooter", "name": "87a0b8ea57876586c983099f293ef9c9", "fusion_lon": 0.0, "bike_id": "87a0b8ea57876586c983099f293ef9c9", "is_reserved": 0, "rental_uris": {"android": "https://dc.lft.to/lastmile_qr_scan", "ios": "https://dc.lft.to/lastmile_qr_scan"}, "lat": 38.891917666666664, "is_disabled": 0, "lon": -77.02625316666666}, {"fusion_lat": 0.0, "type": "electric_scooter", "name": "5ddc28627dec8d0f44202271cb3b5c3b", "fusion_lon": 0.0, "bike_id": "5ddc28627dec8d0f44202271cb3b5c3b", "is_reserved": 0, "rental_uris": {"android": "https://dc.lft.to/lastmile_qr_scan", "ios": "https://dc.lft.to/lastmile_qr_scan"}, "lat": 38.908101, "is_disabled": 0, "lon": -77.0385855}, {"fusion_lat": 0.0, "type": "electric_scooter", "name": "b3e19e7d692380c834406f723c42eecf", "fusion_lon": 0.0, "bike_id": "b3e19e7d692380c834406f723c42eecf", "is_reserved": 0, "rental_uris": {"android": "https://dc.lft.to/lastmile_qr_scan", "ios": "https://dc.lft.to/lastmile_qr_scan"}, "lat": 38.923642, "is_disabled": 0, "lon": -77.01919133333334}, {"fusion_lat": 0.0, "type": "electric_bike", "name": "d52882eea401dc3010a481d33e4a50b6", "fusion_lon": 0.0, "bike_id": "d52882eea401dc3010a481d33e4a50b6", "is_reserved": 0, "rental_uris": {"android": "https://dc.lft.to/lastmile_qr_scan", "ios": "https://dc.lft.to/lastmile_qr_scan"}, "lat": 38.88908166666667, "is_disabled": 0, "lon": -76.94797133333333}, {"fusion_lat": 0.0, "type": "electric_scooter", "name": "cfb36ac75c76612dd703f48ee55cf54d", "fusion_lon": 0.0, "bike_id": "cfb36ac75c76612dd703f48ee55cf54d", "is_reserved": 0, "rental_uris": {"android": "https://dc.lft.to/lastmile_qr_scan", "ios": "https://dc.lft.to/lastmile_qr_scan"}, "lat": 38.905631666666665, "is_disabled": 0, "lon": -77.0427565}, {"fusion_lat": 0.0, "type": "electric_scooter", "name": "590696100cf73d2423c6097a9c24255c", "fusion_lon": 0.0, "bike_id": "590696100cf73d2423c6097a9c24255c", "is_reserved": 0, "rental_uris": {"android": "https://dc.lft.to/lastmile_qr_scan", "ios": "https://dc.lft.to/lastmile_qr_scan"}, "lat": 38.887667, "is_disabled": 0, "lon": -76.95580183333334}, {"fusion_lat": 0.0, "type": "electric_scooter", "name": "138c07f54992f351f0ef753e4c3e77bf", "fusion_lon": 0.0, "bike_id": "138c07f54992f351f0ef753e4c3e77bf", "is_reserved": 0, "rental_uris": {"android": "https://dc.lft.to/lastmile_qr_scan", "ios": "https://dc.lft.to/lastmile_qr_scan"}, "lat": 38.923305666666664, "is_disabled": 0, "lon": -77.0195175}, {"fusion_lat": 0.0, "type": "electric_scooter", "name": "5569f37666442b8586c4c58acab9eaed", "fusion_lon": 0.0, "bike_id": "5569f37666442b8586c4c58acab9eaed", "is_reserved": 0, "rental_uris": {"android": "https://dc.lft.to/lastmile_qr_scan", "ios": "https://dc.lft.to/lastmile_qr_scan"}, "lat": 38.901485, "is_disabled": 0, "lon": -77.0281005}, {"fusion_lat": 0.0, "type": "electric_scooter", "name": "251dfc1cbf1e87827a611eb1ab1d76d9", "fusion_lon": 0.0, "bike_id": "251dfc1cbf1e87827a611eb1ab1d76d9", "is_reserved": 0, "rental_uris": {"android": "https://dc.lft.to/lastmile_qr_scan", "ios": "https://dc.lft.to/lastmile_qr_scan"}, "lat": 38.933974666666664, "is_disabled": 0, "lon": -77.02209166666667}, {"fusion_lat": 0.0, "type": "electric_scooter", "name": "5f136d9ae8ff342a3462b91f58135910", "fusion_lon": 0.0, "bike_id": "5f136d9ae8ff342a3462b91f58135910", "is_reserved": 0, "rental_uris": {"android": "https://dc.lft.to/lastmile_qr_scan", "ios": "https://dc.lft.to/lastmile_qr_scan"}, "lat": 38.87455583333333, "is_disabled": 0, "lon": -77.00540866666667}, {"fusion_lat": 0.0, "type": "electric_scooter", "name": "c258c1a595f58bef5168879b800f078f", "fusion_lon": 0.0, "bike_id": "c258c1a595f58bef5168879b800f078f", "is_reserved": 0, "rental_uris": {"android": "https://dc.lft.to/lastmile_qr_scan", "ios": "https://dc.lft.to/lastmile_qr_scan"}, "lat": 38.90807983333333, "is_disabled": 0, "lon": -77.03854266666667}, {"fusion_lat": 0.0, "type": "electric_scooter", "name": "c83a13f02e100fe7616ff4178eee3210", "fusion_lon": 0.0, "bike_id": "c83a13f02e100fe7616ff4178eee3210", "is_reserved": 0, "rental_uris": {"android": "https://dc.lft.to/lastmile_qr_scan", "ios": "https://dc.lft.to/lastmile_qr_scan"}, "lat": 38.8929625, "is_disabled": 0, "lon": -77.01232883333333}, {"fusion_lat": 0.0, "type": "electric_scooter", "name": "64f742e5ffa22c8cc5c1c3632471468b", "fusion_lon": 0.0, "bike_id": "64f742e5ffa22c8cc5c1c3632471468b", "is_reserved": 0, "rental_uris": {"android": "https://dc.lft.to/lastmile_qr_scan", "ios": "https://dc.lft.to/lastmile_qr_scan"}, "lat": 38.924845166666664, "is_disabled": 0, "lon": -77.05757}, {"fusion_lat": 0.0, "type": "electric_scooter", "name": "09fef4cc9d5e5bf4fda44062d1d92b1f", "fusion_lon": 0.0, "bike_id": "09fef4cc9d5e5bf4fda44062d1d92b1f", "is_reserved": 0, "rental_uris": {"android": "https://dc.lft.to/lastmile_qr_scan", "ios": "https://dc.lft.to/lastmile_qr_scan"}, "lat": 38.86369916666666, "is_disabled": 0, "lon": -76.9905795}, {"fusion_lat": 0.0, "type": "electric_scooter", "name": "edf17bbffad74f4c06bc5eee809b5467", "fusion_lon": 0.0, "bike_id": "edf17bbffad74f4c06bc5eee809b5467", "is_reserved": 0, "rental_uris": {"android": "https://dc.lft.to/lastmile_qr_scan", "ios": "https://dc.lft.to/lastmile_qr_scan"}, "lat": 38.921062, "is_disabled": 0, "lon": -77.03329866666667}, {"fusion_lat": 0.0, "type": "electric_scooter", "name": "f864b42ae6a8f04b87c5546771d6c75e", "fusion_lon": 0.0, "bike_id": "f864b42ae6a8f04b87c5546771d6c75e", "is_reserved": 0, "rental_uris": {"android": "https://dc.lft.to/lastmile_qr_scan", "ios": "https://dc.lft.to/lastmile_qr_scan"}, "lat": 38.892212666666666, "is_disabled": 0, "lon": -77.04379416666667}, {"fusion_lat": 0.0, "type": "electric_scooter", "name": "258eabdca6c612abfc2065fa677016d1", "fusion_lon": 0.0, "bike_id": "258eabdca6c612abfc2065fa677016d1", "is_reserved": 0, "rental_uris": {"android": "https://dc.lft.to/lastmile_qr_scan", "ios": "https://dc.lft.to/lastmile_qr_scan"}, "lat": 38.86646866666667, "is_disabled": 0, "lon": -76.9851235}, {"fusion_lat": 0.0, "type": "electric_scooter", "name": "a47bd22a246b278cb430d24121831c85", "fusion_lon": 0.0, "bike_id": "a47bd22a246b278cb430d24121831c85", "is_reserved": 0, "rental_uris": {"android": "https://dc.lft.to/lastmile_qr_scan", "ios": "https://dc.lft.to/lastmile_qr_scan"}, "lat": 38.956800666666666, "is_disabled": 0, "lon": -77.03261083333334}, {"fusion_lat": 0.0, "type": "electric_scooter", "name": "0c130f65e888859eba6a3694d0c953ad", "fusion_lon": 0.0, "bike_id": "0c130f65e888859eba6a3694d0c953ad", "is_reserved": 0, "rental_uris": {"android": "https://dc.lft.to/lastmile_qr_scan", "ios": "https://dc.lft.to/lastmile_qr_scan"}, "lat": 38.92999116666667, "is_disabled": 0, "lon": -77.013019}, {"fusion_lat": 0.0, "type": "electric_scooter", "name": "bb6aa429b3f7153c7395c38b279d7483", "fusion_lon": 0.0, "bike_id": "bb6aa429b3f7153c7395c38b279d7483", "is_reserved": 0, "rental_uris": {"android": "https://dc.lft.to/lastmile_qr_scan", "ios": "https://dc.lft.to/lastmile_qr_scan"}, "lat": 38.91799733333333, "is_disabled": 0, "lon": -77.02708533333333}, {"fusion_lat": 0.0, "type": "electric_scooter", "name": "a360ce570fab6cd271f9b7c4e32b9208", "fusion_lon": 0.0, "bike_id": "a360ce570fab6cd271f9b7c4e32b9208", "is_reserved": 0, "rental_uris": {"android": "https://dc.lft.to/lastmile_qr_scan", "ios": "https://dc.lft.to/lastmile_qr_scan"}, "lat": 38.91924933333333, "is_disabled": 0, "lon": -77.03427183333334}, {"fusion_lat": 0.0, "type": "electric_scooter", "name": "0673865302794f94b80f6df866842e95", "fusion_lon": 0.0, "bike_id": "0673865302794f94b80f6df866842e95", "is_reserved": 0, "rental_uris": {"android": "https://dc.lft.to/lastmile_qr_scan", "ios": "https://dc.lft.to/lastmile_qr_scan"}, "lat": 38.90958466666667, "is_disabled": 0, "lon": -77.0461745}, {"fusion_lat": 0.0, "type": "electric_scooter", "name": "5ef91339999ca66d90a367fd88136ac1", "fusion_lon": 0.0, "bike_id": "5ef91339999ca66d90a367fd88136ac1", "is_reserved": 0, "rental_uris": {"android": "https://dc.lft.to/lastmile_qr_scan", "ios": "https://dc.lft.to/lastmile_qr_scan"}, "lat": 38.920409666666664, "is_disabled": 0, "lon": -77.02429516666666}, {"fusion_lat": 0.0, "type": "electric_scooter", "name": "bca8131615405d28051a5ea95d1f9fd8", "fusion_lon": 0.0, "bike_id": "bca8131615405d28051a5ea95d1f9fd8", "is_reserved": 0, "rental_uris": {"android": "https://dc.lft.to/lastmile_qr_scan", "ios": "https://dc.lft.to/lastmile_qr_scan"}, "lat": 38.901181333333334, "is_disabled": 0, "lon": -77.02202133333333}, {"fusion_lat": 0.0, "type": "electric_scooter", "name": "5cc520726f054f1e0a7a4b7388112abf", "fusion_lon": 0.0, "bike_id": "5cc520726f054f1e0a7a4b7388112abf", "is_reserved": 0, "rental_uris": {"android": "https://dc.lft.to/lastmile_qr_scan", "ios": "https://dc.lft.to/lastmile_qr_scan"}, "lat": 38.90775416666666, "is_disabled": 0, "lon": -77.07244783333333}, {"fusion_lat": 0.0, "type": "electric_scooter", "name": "7610fc3455acc9d7aeada605ff9591c6", "fusion_lon": 0.0, "bike_id": "7610fc3455acc9d7aeada605ff9591c6", "is_reserved": 0, "rental_uris": {"android": "https://dc.lft.to/lastmile_qr_scan", "ios": "https://dc.lft.to/lastmile_qr_scan"}, "lat": 38.90160683333333, "is_disabled": 0, "lon": -77.06018266666666}, {"fusion_lat": 0.0, "type": "electric_scooter", "name": "ccbeb78c4a39fb6a5ca1d0e89bcd7a17", "fusion_lon": 0.0, "bike_id": "ccbeb78c4a39fb6a5ca1d0e89bcd7a17", "is_reserved": 0, "rental_uris": {"android": "https://dc.lft.to/lastmile_qr_scan", "ios": "https://dc.lft.to/lastmile_qr_scan"}, "lat": 38.928665333333335, "is_disabled": 0, "lon": -77.013997}, {"fusion_lat": 0.0, "type": "electric_bike", "name": "8992a4d789a436fe2da75973544ca488", "fusion_lon": 0.0, "bike_id": "8992a4d789a436fe2da75973544ca488", "is_reserved": 0, "rental_uris": {"android": "https://dc.lft.to/lastmile_qr_scan", "ios": "https://dc.lft.to/lastmile_qr_scan"}, "lat": 38.87276466666667, "is_disabled": 0, "lon": -77.23332883333333}, {"fusion_lat": 0.0, "type": "electric_scooter", "name": "1a912105ffad0401e9e5cdbfa92ec3ad", "fusion_lon": 0.0, "bike_id": "1a912105ffad0401e9e5cdbfa92ec3ad", "is_reserved": 0, "rental_uris": {"android": "https://dc.lft.to/lastmile_qr_scan", "ios": "https://dc.lft.to/lastmile_qr_scan"}, "lat": 38.9010705, "is_disabled": 0, "lon": -77.04996183333333}, {"fusion_lat": 0.0, "type": "electric_scooter", "name": "1f0890022154aa475bff063a67f4ca3a", "fusion_lon": 0.0, "bike_id": "1f0890022154aa475bff063a67f4ca3a", "is_reserved": 0, "rental_uris": {"android": "https://dc.lft.to/lastmile_qr_scan", "ios": "https://dc.lft.to/lastmile_qr_scan"}, "lat": 38.892292166666664, "is_disabled": 0, "lon": -77.050031}, {"fusion_lat": 0.0, "type": "electric_scooter", "name": "15a86b10c91ae636371aa2cc6791b7b3", "fusion_lon": 0.0, "bike_id": "15a86b10c91ae636371aa2cc6791b7b3", "is_reserved": 0, "rental_uris": {"android": "https://dc.lft.to/lastmile_qr_scan", "ios": "https://dc.lft.to/lastmile_qr_scan"}, "lat": 38.898383, "is_disabled": 0, "lon": -76.9463815}, {"fusion_lat": 0.0, "type": "electric_scooter", "name": "3a7a26592cec50c32321acee00aaca45", "fusion_lon": 0.0, "bike_id": "3a7a26592cec50c32321acee00aaca45", "is_reserved": 0, "rental_uris": {"android": "https://dc.lft.to/lastmile_qr_scan", "ios": "https://dc.lft.to/lastmile_qr_scan"}, "lat": 38.90511333333333, "is_disabled": 0, "lon": -77.06887033333334}, {"fusion_lat": 0.0, "type": "electric_scooter", "name": "e9b48d2ba2ed3095f4314fff5a6578d7", "fusion_lon": 0.0, "bike_id": "e9b48d2ba2ed3095f4314fff5a6578d7", "is_reserved": 0, "rental_uris": {"android": "https://dc.lft.to/lastmile_qr_scan", "ios": "https://dc.lft.to/lastmile_qr_scan"}, "lat": 38.90408383333333, "is_disabled": 0, "lon": -77.0466}, {"fusion_lat": 0.0, "type": "electric_bike", "name": "ae38fe6ee6765c9d54cecbe48be8130c", "fusion_lon": 0.0, "bike_id": "ae38fe6ee6765c9d54cecbe48be8130c", "is_reserved": 0, "rental_uris": {"android": "https://dc.lft.to/lastmile_qr_scan", "ios": "https://dc.lft.to/lastmile_qr_scan"}, "lat": 38.945120333333335, "is_disabled": 0, "lon": -77.00677383333333}, {"fusion_lat": 0.0, "type": "electric_bike", "name": "a0b5bcdddd8aa4a45207ef6796afa6d4", "fusion_lon": 0.0, "bike_id": "a0b5bcdddd8aa4a45207ef6796afa6d4", "is_reserved": 0, "rental_uris": {"android": "https://dc.lft.to/lastmile_qr_scan", "ios": "https://dc.lft.to/lastmile_qr_scan"}, "lat": 38.949708333333334, "is_disabled": 0, "lon": -77.0738305}, {"fusion_lat": 0.0, "type": "electric_scooter", "name": "7d6d0e9fe7ee987d09cb7b077b483e9b", "fusion_lon": 0.0, "bike_id": "7d6d0e9fe7ee987d09cb7b077b483e9b", "is_reserved": 0, "rental_uris": {"android": "https://dc.lft.to/lastmile_qr_scan", "ios": "https://dc.lft.to/lastmile_qr_scan"}, "lat": 38.90947383333334, "is_disabled": 0, "lon": -77.03203316666666}, {"fusion_lat": 0.0, "type": "electric_scooter", "name": "2175e60893da39576435c523368fc03a", "fusion_lon": 0.0, "bike_id": "2175e60893da39576435c523368fc03a", "is_reserved": 0, "rental_uris": {"android": "https://dc.lft.to/lastmile_qr_scan", "ios": "https://dc.lft.to/lastmile_qr_scan"}, "lat": 38.9095875, "is_disabled": 0, "lon": -77.04121816666667}, {"fusion_lat": 0.0, "type": "electric_scooter", "name": "a7b5e0287ff6937975f73c6dabba405b", "fusion_lon": 0.0, "bike_id": "a7b5e0287ff6937975f73c6dabba405b", "is_reserved": 0, "rental_uris": {"android": "https://dc.lft.to/lastmile_qr_scan", "ios": "https://dc.lft.to/lastmile_qr_scan"}, "lat": 38.916883, "is_disabled": 0, "lon": -77.0425665}, {"fusion_lat": 0.0, "type": "electric_scooter", "name": "caf4b2da81e66593863156a430bc43ee", "fusion_lon": 0.0, "bike_id": "caf4b2da81e66593863156a430bc43ee", "is_reserved": 0, "rental_uris": {"android": "https://dc.lft.to/lastmile_qr_scan", "ios": "https://dc.lft.to/lastmile_qr_scan"}, "lat": 38.89966733333333, "is_disabled": 0, "lon": -77.0160695}, {"fusion_lat": 0.0, "type": "electric_scooter", "name": "e806cb8e70c3148ba09d08cffc0e0391", "fusion_lon": 0.0, "bike_id": "e806cb8e70c3148ba09d08cffc0e0391", "is_reserved": 0, "rental_uris": {"android": "https://dc.lft.to/lastmile_qr_scan", "ios": "https://dc.lft.to/lastmile_qr_scan"}, "lat": 38.9297015, "is_disabled": 0, "lon": -77.05504683333334}, {"fusion_lat": 0.0, "type": "electric_scooter", "name": "15954e728da3ca019784e2606f4fd84a", "fusion_lon": 0.0, "bike_id": "15954e728da3ca019784e2606f4fd84a", "is_reserved": 0, "rental_uris": {"android": "https://dc.lft.to/lastmile_qr_scan", "ios": "https://dc.lft.to/lastmile_qr_scan"}, "lat": 38.906543666666664, "is_disabled": 0, "lon": -77.031561}, {"fusion_lat": 0.0, "type": "electric_scooter", "name": "5957a7acbdce7043ada75924a097dc31", "fusion_lon": 0.0, "bike_id": "5957a7acbdce7043ada75924a097dc31", "is_reserved": 0, "rental_uris": {"android": "https://dc.lft.to/lastmile_qr_scan", "ios": "https://dc.lft.to/lastmile_qr_scan"}, "lat": 38.897709666666664, "is_disabled": 0, "lon": -77.04017966666666}, {"fusion_lat": 0.0, "type": "electric_scooter", "name": "136cfc1ed9e6d0656185458dd98bf589", "fusion_lon": 0.0, "bike_id": "136cfc1ed9e6d0656185458dd98bf589", "is_reserved": 0, "rental_uris": {"android": "https://dc.lft.to/lastmile_qr_scan", "ios": "https://dc.lft.to/lastmile_qr_scan"}, "lat": 38.92929566666667, "is_disabled": 0, "lon": -77.037614}, {"fusion_lat": 0.0, "type": "electric_scooter", "name": "f768fd50a6317d643400f1c7825762ea", "fusion_lon": 0.0, "bike_id": "f768fd50a6317d643400f1c7825762ea", "is_reserved": 0, "rental_uris": {"android": "https://dc.lft.to/lastmile_qr_scan", "ios": "https://dc.lft.to/lastmile_qr_scan"}, "lat": 38.924177, "is_disabled": 0, "lon": -77.0200795}, {"fusion_lat": 0.0, "type": "electric_scooter", "name": "ab4b613ade187f8e5aa1c536f238e1c1", "fusion_lon": 0.0, "bike_id": "ab4b613ade187f8e5aa1c536f238e1c1", "is_reserved": 0, "rental_uris": {"android": "https://dc.lft.to/lastmile_qr_scan", "ios": "https://dc.lft.to/lastmile_qr_scan"}, "lat": 38.89973533333333, "is_disabled": 0, "lon": -77.01573}, {"fusion_lat": 0.0, "type": "electric_bike", "name": "fa2e802bc890c6f7bd05a6e8d5f1e3d8", "fusion_lon": 0.0, "bike_id": "fa2e802bc890c6f7bd05a6e8d5f1e3d8", "is_reserved": 0, "rental_uris": {"android": "https://dc.lft.to/lastmile_qr_scan", "ios": "https://dc.lft.to/lastmile_qr_scan"}, "lat": 38.945500833333334, "is_disabled": 0, "lon": -76.89538066666667}, {"fusion_lat": 0.0, "type": "electric_scooter", "name": "c5b7e60d4585029a4d134b0773e7a8f3", "fusion_lon": 0.0, "bike_id": "c5b7e60d4585029a4d134b0773e7a8f3", "is_reserved": 0, "rental_uris": {"android": "https://dc.lft.to/lastmile_qr_scan", "ios": "https://dc.lft.to/lastmile_qr_scan"}, "lat": 38.9032725, "is_disabled": 0, "lon": -77.02060083333333}, {"fusion_lat": 0.0, "type": "electric_scooter", "name": "b682c28bb10a15cda949f15cea0e34cc", "fusion_lon": 0.0, "bike_id": "b682c28bb10a15cda949f15cea0e34cc", "is_reserved": 0, "rental_uris": {"android": "https://dc.lft.to/lastmile_qr_scan", "ios": "https://dc.lft.to/lastmile_qr_scan"}, "lat": 38.9215705, "is_disabled": 0, "lon": -77.0205635}, {"fusion_lat": 0.0, "type": "electric_scooter", "name": "53e330af8451be9294f5104c361e9b7c", "fusion_lon": 0.0, "bike_id": "53e330af8451be9294f5104c361e9b7c", "is_reserved": 0, "rental_uris": {"android": "https://dc.lft.to/lastmile_qr_scan", "ios": "https://dc.lft.to/lastmile_qr_scan"}, "lat": 38.9426225, "is_disabled": 0, "lon": -77.02843383333334}, {"fusion_lat": 0.0, "type": "electric_scooter", "name": "2d8a793d3ae1db5f5ab38b28b6728684", "fusion_lon": 0.0, "bike_id": "2d8a793d3ae1db5f5ab38b28b6728684", "is_reserved": 0, "rental_uris": {"android": "https://dc.lft.to/lastmile_qr_scan", "ios": "https://dc.lft.to/lastmile_qr_scan"}, "lat": 38.8861085, "is_disabled": 0, "lon": -76.99656066666667}, {"fusion_lat": 0.0, "type": "electric_scooter", "name": "bdeb95156e17cebb08f4f3c8703e43ff", "fusion_lon": 0.0, "bike_id": "bdeb95156e17cebb08f4f3c8703e43ff", "is_reserved": 0, "rental_uris": {"android": "https://dc.lft.to/lastmile_qr_scan", "ios": "https://dc.lft.to/lastmile_qr_scan"}, "lat": 38.9060035, "is_disabled": 0, "lon": -77.04332816666667}, {"fusion_lat": 0.0, "type": "electric_scooter", "name": "653749a5428d61dc6bae346a82964001", "fusion_lon": 0.0, "bike_id": "653749a5428d61dc6bae346a82964001", "is_reserved": 0, "rental_uris": {"android": "https://dc.lft.to/lastmile_qr_scan", "ios": "https://dc.lft.to/lastmile_qr_scan"}, "lat": 38.91481133333333, "is_disabled": 0, "lon": -77.02565016666667}, {"fusion_lat": 0.0, "type": "electric_scooter", "name": "89f89a345872794bb608468a6f9c1934", "fusion_lon": 0.0, "bike_id": "89f89a345872794bb608468a6f9c1934", "is_reserved": 0, "rental_uris": {"android": "https://dc.lft.to/lastmile_qr_scan", "ios": "https://dc.lft.to/lastmile_qr_scan"}, "lat": 38.960227833333335, "is_disabled": 0, "lon": -77.00049133333333}, {"fusion_lat": 0.0, "type": "electric_scooter", "name": "f610401ef4097c293c86ceb45aef769a", "fusion_lon": 0.0, "bike_id": "f610401ef4097c293c86ceb45aef769a", "is_reserved": 0, "rental_uris": {"android": "https://dc.lft.to/lastmile_qr_scan", "ios": "https://dc.lft.to/lastmile_qr_scan"}, "lat": 38.908403666666665, "is_disabled": 0, "lon": -77.02693}, {"fusion_lat": 0.0, "type": "electric_scooter", "name": "fa570fc88924ff24a9647e14a90900d1", "fusion_lon": 0.0, "bike_id": "fa570fc88924ff24a9647e14a90900d1", "is_reserved": 0, "rental_uris": {"android": "https://dc.lft.to/lastmile_qr_scan", "ios": "https://dc.lft.to/lastmile_qr_scan"}, "lat": 38.892194833333335, "is_disabled": 0, "lon": -77.02368916666667}, {"fusion_lat": 0.0, "type": "electric_scooter", "name": "f5d1a6105e35bbdd11c9f8af7513d172", "fusion_lon": 0.0, "bike_id": "f5d1a6105e35bbdd11c9f8af7513d172", "is_reserved": 0, "rental_uris": {"android": "https://dc.lft.to/lastmile_qr_scan", "ios": "https://dc.lft.to/lastmile_qr_scan"}, "lat": 38.901144333333335, "is_disabled": 0, "lon": -77.03213566666666}, {"fusion_lat": 0.0, "type": "electric_scooter", "name": "e70b32469f78a2fd5d8ca0ee24324839", "fusion_lon": 0.0, "bike_id": "e70b32469f78a2fd5d8ca0ee24324839", "is_reserved": 0, "rental_uris": {"android": "https://dc.lft.to/lastmile_qr_scan", "ios": "https://dc.lft.to/lastmile_qr_scan"}, "lat": 38.90576983333333, "is_disabled": 0, "lon": -77.04355683333333}, {"fusion_lat": 0.0, "type": "electric_bike", "name": "aaa105f4c7d8f013bac585d204345dee", "fusion_lon": 0.0, "bike_id": "aaa105f4c7d8f013bac585d204345dee", "is_reserved": 0, "rental_uris": {"android": "https://dc.lft.to/lastmile_qr_scan", "ios": "https://dc.lft.to/lastmile_qr_scan"}, "lat": 38.8648605, "is_disabled": 0, "lon": -76.97745766666667}, {"fusion_lat": 0.0, "type": "electric_bike", "name": "b7f017ce8f66560c28ce783bd32083f1", "fusion_lon": 0.0, "bike_id": "b7f017ce8f66560c28ce783bd32083f1", "is_reserved": 0, "rental_uris": {"android": "https://dc.lft.to/lastmile_qr_scan", "ios": "https://dc.lft.to/lastmile_qr_scan"}, "lat": 38.931695500000004, "is_disabled": 0, "lon": -76.88407633333334}, {"fusion_lat": 0.0, "type": "electric_bike", "name": "a07a585b980a8272511c0319edf24b59", "fusion_lon": 0.0, "bike_id": "a07a585b980a8272511c0319edf24b59", "is_reserved": 0, "rental_uris": {"android": "https://dc.lft.to/lastmile_qr_scan", "ios": "https://dc.lft.to/lastmile_qr_scan"}, "lat": 38.95439866666667, "is_disabled": 0, "lon": -76.98911433333333}, {"fusion_lat": 0.0, "type": "electric_scooter", "name": "01b6cf7c6af86032d8bac675e4765b9f", "fusion_lon": 0.0, "bike_id": "01b6cf7c6af86032d8bac675e4765b9f", "is_reserved": 0, "rental_uris": {"android": "https://dc.lft.to/lastmile_qr_scan", "ios": "https://dc.lft.to/lastmile_qr_scan"}, "lat": 38.8860985, "is_disabled": 0, "lon": -76.995132}, {"fusion_lat": 0.0, "type": "electric_bike", "name": "fe32d95fe6c979fa5bd6b71e8015f99c", "fusion_lon": 0.0, "bike_id": "fe32d95fe6c979fa5bd6b71e8015f99c", "is_reserved": 0, "rental_uris": {"android": "https://dc.lft.to/lastmile_qr_scan", "ios": "https://dc.lft.to/lastmile_qr_scan"}, "lat": 39.05499316666667, "is_disabled": 0, "lon": -77.04647983333334}, {"fusion_lat": 0.0, "type": "electric_bike", "name": "3b978d570b7035772c6225bfe721067c", "fusion_lon": 0.0, "bike_id": "3b978d570b7035772c6225bfe721067c", "is_reserved": 0, "rental_uris": {"android": "https://dc.lft.to/lastmile_qr_scan", "ios": "https://dc.lft.to/lastmile_qr_scan"}, "lat": 38.929640666666664, "is_disabled": 0, "lon": -77.18562183333333}, {"fusion_lat": 0.0, "type": "electric_scooter", "name": "edee5ef1863468f6940318f3b0e095d4", "fusion_lon": 0.0, "bike_id": "edee5ef1863468f6940318f3b0e095d4", "is_reserved": 0, "rental_uris": {"android": "https://dc.lft.to/lastmile_qr_scan", "ios": "https://dc.lft.to/lastmile_qr_scan"}, "lat": 38.90859916666667, "is_disabled": 0, "lon": -77.01353716666667}, {"fusion_lat": 0.0, "type": "electric_bike", "name": "01244cc8d48a343999560cc1b5c04f3e", "fusion_lon": 0.0, "bike_id": "01244cc8d48a343999560cc1b5c04f3e", "is_reserved": 0, "rental_uris": {"android": "https://dc.lft.to/lastmile_qr_scan", "ios": "https://dc.lft.to/lastmile_qr_scan"}, "lat": 38.96900733333333, "is_disabled": 0, "lon": -76.99492583333333}, {"fusion_lat": 0.0, "type": "electric_scooter", "name": "89f0421e5b2d33bb1037f2db589d02e1", "fusion_lon": 0.0, "bike_id": "89f0421e5b2d33bb1037f2db589d02e1", "is_reserved": 0, "rental_uris": {"android": "https://dc.lft.to/lastmile_qr_scan", "ios": "https://dc.lft.to/lastmile_qr_scan"}, "lat": 38.902666833333335, "is_disabled": 0, "lon": -77.030031}, {"fusion_lat": 0.0, "type": "electric_scooter", "name": "151782cb48659aa32b80c1abfc39f975", "fusion_lon": 0.0, "bike_id": "151782cb48659aa32b80c1abfc39f975", "is_reserved": 0, "rental_uris": {"android": "https://dc.lft.to/lastmile_qr_scan", "ios": "https://dc.lft.to/lastmile_qr_scan"}, "lat": 38.91279883333333, "is_disabled": 0, "lon": -77.02243166666666}, {"fusion_lat": 0.0, "type": "electric_scooter", "name": "a25f17a0b6587dbd1e3a670361f21ecc", "fusion_lon": 0.0, "bike_id": "a25f17a0b6587dbd1e3a670361f21ecc", "is_reserved": 0, "rental_uris": {"android": "https://dc.lft.to/lastmile_qr_scan", "ios": "https://dc.lft.to/lastmile_qr_scan"}, "lat": 38.907777, "is_disabled": 0, "lon": -77.03589183333334}, {"fusion_lat": 0.0, "type": "electric_scooter", "name": "40d7398c285a339b61043ee70284cd9a", "fusion_lon": 0.0, "bike_id": "40d7398c285a339b61043ee70284cd9a", "is_reserved": 0, "rental_uris": {"android": "https://dc.lft.to/lastmile_qr_scan", "ios": "https://dc.lft.to/lastmile_qr_scan"}, "lat": 38.917014333333334, "is_disabled": 0, "lon": -77.03422583333334}, {"fusion_lat": 0.0, "type": "electric_bike", "name": "41cf89385e6529feeb1ed6e0b0190819", "fusion_lon": 0.0, "bike_id": "41cf89385e6529feeb1ed6e0b0190819", "is_reserved": 0, "rental_uris": {"android": "https://dc.lft.to/lastmile_qr_scan", "ios": "https://dc.lft.to/lastmile_qr_scan"}, "lat": 38.96318466666666, "is_disabled": 0, "lon": -76.9735975}, {"fusion_lat": 0.0, "type": "electric_scooter", "name": "47b2e292cd3f42d54c5ed669671f87c9", "fusion_lon": 0.0, "bike_id": "47b2e292cd3f42d54c5ed669671f87c9", "is_reserved": 0, "rental_uris": {"android": "https://dc.lft.to/lastmile_qr_scan", "ios": "https://dc.lft.to/lastmile_qr_scan"}, "lat": 38.90744566666667, "is_disabled": 0, "lon": -77.04155416666667}, {"fusion_lat": 0.0, "type": "electric_scooter", "name": "429decc3c797c12e648b5ff8edf23c93", "fusion_lon": 0.0, "bike_id": "429decc3c797c12e648b5ff8edf23c93", "is_reserved": 0, "rental_uris": {"android": "https://dc.lft.to/lastmile_qr_scan", "ios": "https://dc.lft.to/lastmile_qr_scan"}, "lat": 38.908637, "is_disabled": 0, "lon": -77.08589383333333}, {"fusion_lat": 0.0, "type": "electric_scooter", "name": "1186150586906f137d57c1a5bc72be97", "fusion_lon": 0.0, "bike_id": "1186150586906f137d57c1a5bc72be97", "is_reserved": 0, "rental_uris": {"android": "https://dc.lft.to/lastmile_qr_scan", "ios": "https://dc.lft.to/lastmile_qr_scan"}, "lat": 38.924257833333336, "is_disabled": 0, "lon": -77.05181633333333}, {"fusion_lat": 0.0, "type": "electric_scooter", "name": "8de843f09ae693b2d86dcd9215705d9b", "fusion_lon": 0.0, "bike_id": "8de843f09ae693b2d86dcd9215705d9b", "is_reserved": 0, "rental_uris": {"android": "https://dc.lft.to/lastmile_qr_scan", "ios": "https://dc.lft.to/lastmile_qr_scan"}, "lat": 38.900317, "is_disabled": 0, "lon": -77.01194833333334}, {"fusion_lat": 0.0, "type": "electric_scooter", "name": "e8426479ece8a71f82ae2e1acbb11cc5", "fusion_lon": 0.0, "bike_id": "e8426479ece8a71f82ae2e1acbb11cc5", "is_reserved": 0, "rental_uris": {"android": "https://dc.lft.to/lastmile_qr_scan", "ios": "https://dc.lft.to/lastmile_qr_scan"}, "lat": 38.88751216666667, "is_disabled": 0, "lon": -77.0316185}, {"fusion_lat": 0.0, "type": "electric_scooter", "name": "8ac1b0218de02e08f8d720a7f4c405fb", "fusion_lon": 0.0, "bike_id": "8ac1b0218de02e08f8d720a7f4c405fb", "is_reserved": 0, "rental_uris": {"android": "https://dc.lft.to/lastmile_qr_scan", "ios": "https://dc.lft.to/lastmile_qr_scan"}, "lat": 38.892343333333336, "is_disabled": 0, "lon": -77.0238475}, {"fusion_lat": 0.0, "type": "electric_scooter", "name": "7d835cf41f0ca560c21b7809b2cb506e", "fusion_lon": 0.0, "bike_id": "7d835cf41f0ca560c21b7809b2cb506e", "is_reserved": 0, "rental_uris": {"android": "https://dc.lft.to/lastmile_qr_scan", "ios": "https://dc.lft.to/lastmile_qr_scan"}, "lat": 38.9014355, "is_disabled": 0, "lon": -77.02945066666666}, {"fusion_lat": 0.0, "type": "electric_scooter", "name": "8dce4f238c3411fee478126c3353eb77", "fusion_lon": 0.0, "bike_id": "8dce4f238c3411fee478126c3353eb77", "is_reserved": 0, "rental_uris": {"android": "https://dc.lft.to/lastmile_qr_scan", "ios": "https://dc.lft.to/lastmile_qr_scan"}, "lat": 38.910970666666664, "is_disabled": 0, "lon": -77.044832}, {"fusion_lat": 0.0, "type": "electric_scooter", "name": "ee2c8a8005ef3f8a0eac2e910a83a6ed", "fusion_lon": 0.0, "bike_id": "ee2c8a8005ef3f8a0eac2e910a83a6ed", "is_reserved": 0, "rental_uris": {"android": "https://dc.lft.to/lastmile_qr_scan", "ios": "https://dc.lft.to/lastmile_qr_scan"}, "lat": 38.90025266666667, "is_disabled": 0, "lon": -77.04394383333333}, {"fusion_lat": 0.0, "type": "electric_scooter", "name": "3f0fed34b34216961f1b0c2d65c7632c", "fusion_lon": 0.0, "bike_id": "3f0fed34b34216961f1b0c2d65c7632c", "is_reserved": 0, "rental_uris": {"android": "https://dc.lft.to/lastmile_qr_scan", "ios": "https://dc.lft.to/lastmile_qr_scan"}, "lat": 38.903369833333336, "is_disabled": 0, "lon": -77.03152433333334}, {"fusion_lat": 0.0, "type": "electric_scooter", "name": "a392fd7d4762bfa8dcd351f890ed81eb", "fusion_lon": 0.0, "bike_id": "a392fd7d4762bfa8dcd351f890ed81eb", "is_reserved": 0, "rental_uris": {"android": "https://dc.lft.to/lastmile_qr_scan", "ios": "https://dc.lft.to/lastmile_qr_scan"}, "lat": 38.8932295, "is_disabled": 0, "lon": -77.04673033333333}, {"fusion_lat": 0.0, "type": "electric_scooter", "name": "adb39de8af3f97b6260e48fae06ac3e0", "fusion_lon": 0.0, "bike_id": "adb39de8af3f97b6260e48fae06ac3e0", "is_reserved": 0, "rental_uris": {"android": "https://dc.lft.to/lastmile_qr_scan", "ios": "https://dc.lft.to/lastmile_qr_scan"}, "lat": 38.899893166666665, "is_disabled": 0, "lon": -77.00124633333333}, {"fusion_lat": 0.0, "type": "electric_scooter", "name": "64aab6c7aeab57c01100086d7f01db4e", "fusion_lon": 0.0, "bike_id": "64aab6c7aeab57c01100086d7f01db4e", "is_reserved": 0, "rental_uris": {"android": "https://dc.lft.to/lastmile_qr_scan", "ios": "https://dc.lft.to/lastmile_qr_scan"}, "lat": 38.9395685, "is_disabled": 0, "lon": -77.02492033333333}, {"fusion_lat": 0.0, "type": "electric_scooter", "name": "f26855bf35e1e4be5af4128fca447140", "fusion_lon": 0.0, "bike_id": "f26855bf35e1e4be5af4128fca447140", "is_reserved": 0, "rental_uris": {"android": "https://dc.lft.to/lastmile_qr_scan", "ios": "https://dc.lft.to/lastmile_qr_scan"}, "lat": 38.995871, "is_disabled": 0, "lon": -77.03204016666666}, {"fusion_lat": 0.0, "type": "electric_scooter", "name": "a634d57de5e8b1df7f079c9aa473c24f", "fusion_lon": 0.0, "bike_id": "a634d57de5e8b1df7f079c9aa473c24f", "is_reserved": 0, "rental_uris": {"android": "https://dc.lft.to/lastmile_qr_scan", "ios": "https://dc.lft.to/lastmile_qr_scan"}, "lat": 38.92820366666667, "is_disabled": 0, "lon": -77.02151666666667}, {"fusion_lat": 0.0, "type": "electric_scooter", "name": "e1e9c3c1c6a08ef5f1201b55045b0f84", "fusion_lon": 0.0, "bike_id": "e1e9c3c1c6a08ef5f1201b55045b0f84", "is_reserved": 0, "rental_uris": {"android": "https://dc.lft.to/lastmile_qr_scan", "ios": "https://dc.lft.to/lastmile_qr_scan"}, "lat": 38.903794500000004, "is_disabled": 0, "lon": -77.03841866666667}, {"fusion_lat": 0.0, "type": "electric_scooter", "name": "81a66eba15507847e177db4227d199b5", "fusion_lon": 0.0, "bike_id": "81a66eba15507847e177db4227d199b5", "is_reserved": 0, "rental_uris": {"android": "https://dc.lft.to/lastmile_qr_scan", "ios": "https://dc.lft.to/lastmile_qr_scan"}, "lat": 38.8833155, "is_disabled": 0, "lon": -77.0173835}, {"fusion_lat": 0.0, "type": "electric_scooter", "name": "ed3c65bd5c5907aea72e3281e3ed4468", "fusion_lon": 0.0, "bike_id": "ed3c65bd5c5907aea72e3281e3ed4468", "is_reserved": 0, "rental_uris": {"android": "https://dc.lft.to/lastmile_qr_scan", "ios": "https://dc.lft.to/lastmile_qr_scan"}, "lat": 38.904703833333336, "is_disabled": 0, "lon": -76.98054316666666}, {"fusion_lat": 0.0, "type": "electric_scooter", "name": "368198e7a4a10f50556449cf157b8ca7", "fusion_lon": 0.0, "bike_id": "368198e7a4a10f50556449cf157b8ca7", "is_reserved": 0, "rental_uris": {"android": "https://dc.lft.to/lastmile_qr_scan", "ios": "https://dc.lft.to/lastmile_qr_scan"}, "lat": 38.89902983333333, "is_disabled": 0, "lon": -76.9335465}, {"fusion_lat": 0.0, "type": "electric_scooter", "name": "6cf8ecf705b5127fdc1f93dd141ce63e", "fusion_lon": 0.0, "bike_id": "6cf8ecf705b5127fdc1f93dd141ce63e", "is_reserved": 0, "rental_uris": {"android": "https://dc.lft.to/lastmile_qr_scan", "ios": "https://dc.lft.to/lastmile_qr_scan"}, "lat": 38.86236783333333, "is_disabled": 0, "lon": -76.99489133333333}, {"fusion_lat": 0.0, "type": "electric_scooter", "name": "1ca42b96916f5ba8bc86fbbb5b28d79d", "fusion_lon": 0.0, "bike_id": "1ca42b96916f5ba8bc86fbbb5b28d79d", "is_reserved": 0, "rental_uris": {"android": "https://dc.lft.to/lastmile_qr_scan", "ios": "https://dc.lft.to/lastmile_qr_scan"}, "lat": 38.903530333333336, "is_disabled": 0, "lon": -77.03303966666667}, {"fusion_lat": 0.0, "type": "electric_scooter", "name": "92e1aa6b2276f79e891a700c8e04cf4f", "fusion_lon": 0.0, "bike_id": "92e1aa6b2276f79e891a700c8e04cf4f", "is_reserved": 0, "rental_uris": {"android": "https://dc.lft.to/lastmile_qr_scan", "ios": "https://dc.lft.to/lastmile_qr_scan"}, "lat": 38.905817666666664, "is_disabled": 0, "lon": -77.02589866666666}, {"fusion_lat": 0.0, "type": "electric_scooter", "name": "151e7ec8bd35114b442435113f92ef5f", "fusion_lon": 0.0, "bike_id": "151e7ec8bd35114b442435113f92ef5f", "is_reserved": 0, "rental_uris": {"android": "https://dc.lft.to/lastmile_qr_scan", "ios": "https://dc.lft.to/lastmile_qr_scan"}, "lat": 38.921011666666665, "is_disabled": 0, "lon": -77.07187583333334}, {"fusion_lat": 0.0, "type": "electric_scooter", "name": "9bbff2b61a354457b5a325225bf60172", "fusion_lon": 0.0, "bike_id": "9bbff2b61a354457b5a325225bf60172", "is_reserved": 0, "rental_uris": {"android": "https://dc.lft.to/lastmile_qr_scan", "ios": "https://dc.lft.to/lastmile_qr_scan"}, "lat": 38.938820666666665, "is_disabled": 0, "lon": -77.02483033333333}, {"fusion_lat": 0.0, "type": "electric_scooter", "name": "323c65db056fc263495b527249a64883", "fusion_lon": 0.0, "bike_id": "323c65db056fc263495b527249a64883", "is_reserved": 0, "rental_uris": {"android": "https://dc.lft.to/lastmile_qr_scan", "ios": "https://dc.lft.to/lastmile_qr_scan"}, "lat": 38.90788583333333, "is_disabled": 0, "lon": -77.03801933333334}, {"fusion_lat": 0.0, "type": "electric_scooter", "name": "ec71caaeb2f888556166f51c9d1f6112", "fusion_lon": 0.0, "bike_id": "ec71caaeb2f888556166f51c9d1f6112", "is_reserved": 0, "rental_uris": {"android": "https://dc.lft.to/lastmile_qr_scan", "ios": "https://dc.lft.to/lastmile_qr_scan"}, "lat": 38.91928266666667, "is_disabled": 0, "lon": -77.04155266666666}, {"fusion_lat": 0.0, "type": "electric_scooter", "name": "b25ca1c0121aef2745cac9ccb08800fa", "fusion_lon": 0.0, "bike_id": "b25ca1c0121aef2745cac9ccb08800fa", "is_reserved": 0, "rental_uris": {"android": "https://dc.lft.to/lastmile_qr_scan", "ios": "https://dc.lft.to/lastmile_qr_scan"}, "lat": 38.90308016666667, "is_disabled": 0, "lon": -77.03175566666667}, {"fusion_lat": 0.0, "type": "electric_scooter", "name": "9b3c8df13e3a4bcfbb918d6d4ff54b0e", "fusion_lon": 0.0, "bike_id": "9b3c8df13e3a4bcfbb918d6d4ff54b0e", "is_reserved": 0, "rental_uris": {"android": "https://dc.lft.to/lastmile_qr_scan", "ios": "https://dc.lft.to/lastmile_qr_scan"}, "lat": 38.9019965, "is_disabled": 0, "lon": -76.97852816666666}, {"fusion_lat": 0.0, "type": "electric_scooter", "name": "e14fdfd03e9080557e97321b5aad683c", "fusion_lon": 0.0, "bike_id": "e14fdfd03e9080557e97321b5aad683c", "is_reserved": 0, "rental_uris": {"android": "https://dc.lft.to/lastmile_qr_scan", "ios": "https://dc.lft.to/lastmile_qr_scan"}, "lat": 38.88528633333333, "is_disabled": 0, "lon": -77.021983}, {"fusion_lat": 0.0, "type": "electric_scooter", "name": "ef414881a898ec27cabb4020236a41c2", "fusion_lon": 0.0, "bike_id": "ef414881a898ec27cabb4020236a41c2", "is_reserved": 0, "rental_uris": {"android": "https://dc.lft.to/lastmile_qr_scan", "ios": "https://dc.lft.to/lastmile_qr_scan"}, "lat": 38.91118433333333, "is_disabled": 0, "lon": -77.04366883333333}, {"fusion_lat": 0.0, "type": "electric_scooter", "name": "df5bdac6096be31ea23b60fec2ca9c16", "fusion_lon": 0.0, "bike_id": "df5bdac6096be31ea23b60fec2ca9c16", "is_reserved": 0, "rental_uris": {"android": "https://dc.lft.to/lastmile_qr_scan", "ios": "https://dc.lft.to/lastmile_qr_scan"}, "lat": 38.9341805, "is_disabled": 0, "lon": -77.044133}, {"fusion_lat": 0.0, "type": "electric_scooter", "name": "f2d81bb87072f71a2dd01249ce4e398c", "fusion_lon": 0.0, "bike_id": "f2d81bb87072f71a2dd01249ce4e398c", "is_reserved": 0, "rental_uris": {"android": "https://dc.lft.to/lastmile_qr_scan", "ios": "https://dc.lft.to/lastmile_qr_scan"}, "lat": 38.8936705, "is_disabled": 0, "lon": -76.9499545}, {"fusion_lat": 0.0, "type": "electric_scooter", "name": "1dd370b44519361c5791ad64db2b0192", "fusion_lon": 0.0, "bike_id": "1dd370b44519361c5791ad64db2b0192", "is_reserved": 0, "rental_uris": {"android": "https://dc.lft.to/lastmile_qr_scan", "ios": "https://dc.lft.to/lastmile_qr_scan"}, "lat": 38.89977566666666, "is_disabled": 0, "lon": -77.045101}, {"fusion_lat": 0.0, "type": "electric_scooter", "name": "89db843e01aecef71255913fd21ee7f3", "fusion_lon": 0.0, "bike_id": "89db843e01aecef71255913fd21ee7f3", "is_reserved": 0, "rental_uris": {"android": "https://dc.lft.to/lastmile_qr_scan", "ios": "https://dc.lft.to/lastmile_qr_scan"}, "lat": 38.900749166666664, "is_disabled": 0, "lon": -77.0467955}, {"fusion_lat": 0.0, "type": "electric_bike", "name": "6614ff31c95c8b4393541d4ecea16e8e", "fusion_lon": 0.0, "bike_id": "6614ff31c95c8b4393541d4ecea16e8e", "is_reserved": 0, "rental_uris": {"android": "https://dc.lft.to/lastmile_qr_scan", "ios": "https://dc.lft.to/lastmile_qr_scan"}, "lat": 38.8291035, "is_disabled": 0, "lon": -76.99778466666666}, {"fusion_lat": 0.0, "type": "electric_scooter", "name": "4b51a7aeb78c1dbe9f294998fe1a928c", "fusion_lon": 0.0, "bike_id": "4b51a7aeb78c1dbe9f294998fe1a928c", "is_reserved": 0, "rental_uris": {"android": "https://dc.lft.to/lastmile_qr_scan", "ios": "https://dc.lft.to/lastmile_qr_scan"}, "lat": 38.92109633333333, "is_disabled": 0, "lon": -77.02049516666666}, {"fusion_lat": 0.0, "type": "electric_scooter", "name": "1e9c65939fe08bd1743d4bdaa092ad4f", "fusion_lon": 0.0, "bike_id": "1e9c65939fe08bd1743d4bdaa092ad4f", "is_reserved": 0, "rental_uris": {"android": "https://dc.lft.to/lastmile_qr_scan", "ios": "https://dc.lft.to/lastmile_qr_scan"}, "lat": 38.90029033333333, "is_disabled": 0, "lon": -77.01194083333333}, {"fusion_lat": 0.0, "type": "electric_scooter", "name": "b68abbf9eb7c99b330e2c36671305da9", "fusion_lon": 0.0, "bike_id": "b68abbf9eb7c99b330e2c36671305da9", "is_reserved": 0, "rental_uris": {"android": "https://dc.lft.to/lastmile_qr_scan", "ios": "https://dc.lft.to/lastmile_qr_scan"}, "lat": 38.898956166666665, "is_disabled": 0, "lon": -77.039335}, {"fusion_lat": 0.0, "type": "electric_scooter", "name": "b2618ecf3896592d8cdee98d10667821", "fusion_lon": 0.0, "bike_id": "b2618ecf3896592d8cdee98d10667821", "is_reserved": 0, "rental_uris": {"android": "https://dc.lft.to/lastmile_qr_scan", "ios": "https://dc.lft.to/lastmile_qr_scan"}, "lat": 38.904267, "is_disabled": 0, "lon": -77.05321933333333}, {"fusion_lat": 0.0, "type": "electric_scooter", "name": "0e28b264b878ae1b815a79e9f0fce9da", "fusion_lon": 0.0, "bike_id": "0e28b264b878ae1b815a79e9f0fce9da", "is_reserved": 0, "rental_uris": {"android": "https://dc.lft.to/lastmile_qr_scan", "ios": "https://dc.lft.to/lastmile_qr_scan"}, "lat": 38.9512385, "is_disabled": 0, "lon": -76.98669433333333}, {"fusion_lat": 0.0, "type": "electric_scooter", "name": "c676d2e8d988ed789fcf8595768b8647", "fusion_lon": 0.0, "bike_id": "c676d2e8d988ed789fcf8595768b8647", "is_reserved": 0, "rental_uris": {"android": "https://dc.lft.to/lastmile_qr_scan", "ios": "https://dc.lft.to/lastmile_qr_scan"}, "lat": 38.925161833333334, "is_disabled": 0, "lon": -77.05042066666667}, {"fusion_lat": 0.0, "type": "electric_scooter", "name": "8d4c49697ba660b6e3462d2d5adc9c51", "fusion_lon": 0.0, "bike_id": "8d4c49697ba660b6e3462d2d5adc9c51", "is_reserved": 0, "rental_uris": {"android": "https://dc.lft.to/lastmile_qr_scan", "ios": "https://dc.lft.to/lastmile_qr_scan"}, "lat": 38.89229366666667, "is_disabled": 0, "lon": -77.02804866666666}, {"fusion_lat": 0.0, "type": "electric_scooter", "name": "828c24e411b910f1fc790a560f06e3b1", "fusion_lon": 0.0, "bike_id": "828c24e411b910f1fc790a560f06e3b1", "is_reserved": 0, "rental_uris": {"android": "https://dc.lft.to/lastmile_qr_scan", "ios": "https://dc.lft.to/lastmile_qr_scan"}, "lat": 38.909766, "is_disabled": 0, "lon": -77.03413433333333}, {"fusion_lat": 0.0, "type": "electric_scooter", "name": "79adcf6786815347437258d3129715a5", "fusion_lon": 0.0, "bike_id": "79adcf6786815347437258d3129715a5", "is_reserved": 0, "rental_uris": {"android": "https://dc.lft.to/lastmile_qr_scan", "ios": "https://dc.lft.to/lastmile_qr_scan"}, "lat": 38.897543166666665, "is_disabled": 0, "lon": -77.03295416666667}, {"fusion_lat": 0.0, "type": "electric_scooter", "name": "714967ff80be0edcba8435e087faf537", "fusion_lon": 0.0, "bike_id": "714967ff80be0edcba8435e087faf537", "is_reserved": 0, "rental_uris": {"android": "https://dc.lft.to/lastmile_qr_scan", "ios": "https://dc.lft.to/lastmile_qr_scan"}, "lat": 38.8973485, "is_disabled": 0, "lon": -77.02454416666667}, {"fusion_lat": 0.0, "type": "electric_scooter", "name": "ddc59e9ee408af7f1a5b957cb427ba3e", "fusion_lon": 0.0, "bike_id": "ddc59e9ee408af7f1a5b957cb427ba3e", "is_reserved": 0, "rental_uris": {"android": "https://dc.lft.to/lastmile_qr_scan", "ios": "https://dc.lft.to/lastmile_qr_scan"}, "lat": 38.89235933333333, "is_disabled": 0, "lon": -77.04160766666666}, {"fusion_lat": 0.0, "type": "electric_scooter", "name": "f8480153d28f98b33f7721478bfc5eef", "fusion_lon": 0.0, "bike_id": "f8480153d28f98b33f7721478bfc5eef", "is_reserved": 0, "rental_uris": {"android": "https://dc.lft.to/lastmile_qr_scan", "ios": "https://dc.lft.to/lastmile_qr_scan"}, "lat": 38.902635, "is_disabled": 0, "lon": -77.03438933333334}, {"fusion_lat": 0.0, "type": "electric_scooter", "name": "e9d45768aeb1ad01b7681bdf0f8d7b9d", "fusion_lon": 0.0, "bike_id": "e9d45768aeb1ad01b7681bdf0f8d7b9d", "is_reserved": 0, "rental_uris": {"android": "https://dc.lft.to/lastmile_qr_scan", "ios": "https://dc.lft.to/lastmile_qr_scan"}, "lat": 38.851749, "is_disabled": 0, "lon": -76.9957955}, {"fusion_lat": 0.0, "type": "electric_scooter", "name": "aec304974b671c3f247cff8393b1573c", "fusion_lon": 0.0, "bike_id": "aec304974b671c3f247cff8393b1573c", "is_reserved": 0, "rental_uris": {"android": "https://dc.lft.to/lastmile_qr_scan", "ios": "https://dc.lft.to/lastmile_qr_scan"}, "lat": 38.91190133333333, "is_disabled": 0, "lon": -77.00102133333333}, {"fusion_lat": 0.0, "type": "electric_scooter", "name": "5a0ef6f3f47920a13859c0798e7b0593", "fusion_lon": 0.0, "bike_id": "5a0ef6f3f47920a13859c0798e7b0593", "is_reserved": 0, "rental_uris": {"android": "https://dc.lft.to/lastmile_qr_scan", "ios": "https://dc.lft.to/lastmile_qr_scan"}, "lat": 38.90715483333334, "is_disabled": 0, "lon": -77.04219766666667}, {"fusion_lat": 0.0, "type": "electric_scooter", "name": "1ded212a1f9b05f62b5643804b0e1a07", "fusion_lon": 0.0, "bike_id": "1ded212a1f9b05f62b5643804b0e1a07", "is_reserved": 0, "rental_uris": {"android": "https://dc.lft.to/lastmile_qr_scan", "ios": "https://dc.lft.to/lastmile_qr_scan"}, "lat": 38.931627166666665, "is_disabled": 0, "lon": -77.056059}, {"fusion_lat": 0.0, "type": "electric_bike", "name": "4d03a7f11398ea37bf03c207e4b79997", "fusion_lon": 0.0, "bike_id": "4d03a7f11398ea37bf03c207e4b79997", "is_reserved": 0, "rental_uris": {"android": "https://dc.lft.to/lastmile_qr_scan", "ios": "https://dc.lft.to/lastmile_qr_scan"}, "lat": 38.8956145, "is_disabled": 0, "lon": -77.12728816666667}, {"fusion_lat": 0.0, "type": "electric_scooter", "name": "01b11a5e9a9ff9fe1ac64bf1dda1764d", "fusion_lon": 0.0, "bike_id": "01b11a5e9a9ff9fe1ac64bf1dda1764d", "is_reserved": 0, "rental_uris": {"android": "https://dc.lft.to/lastmile_qr_scan", "ios": "https://dc.lft.to/lastmile_qr_scan"}, "lat": 38.892214833333334, "is_disabled": 0, "lon": -77.04261916666667}, {"fusion_lat": 0.0, "type": "electric_scooter", "name": "6c017ef497a9f1d0dbafef13b430fc78", "fusion_lon": 0.0, "bike_id": "6c017ef497a9f1d0dbafef13b430fc78", "is_reserved": 0, "rental_uris": {"android": "https://dc.lft.to/lastmile_qr_scan", "ios": "https://dc.lft.to/lastmile_qr_scan"}, "lat": 38.940982, "is_disabled": 0, "lon": -77.02106666666667}, {"fusion_lat": 0.0, "type": "electric_scooter", "name": "769461be4b923f0b5caa0d427f8a6a4f", "fusion_lon": 0.0, "bike_id": "769461be4b923f0b5caa0d427f8a6a4f", "is_reserved": 0, "rental_uris": {"android": "https://dc.lft.to/lastmile_qr_scan", "ios": "https://dc.lft.to/lastmile_qr_scan"}, "lat": 38.894523, "is_disabled": 0, "lon": -76.99830716666666}, {"fusion_lat": 0.0, "type": "electric_scooter", "name": "91179c8555fe3b8852edea05b1e38121", "fusion_lon": 0.0, "bike_id": "91179c8555fe3b8852edea05b1e38121", "is_reserved": 0, "rental_uris": {"android": "https://dc.lft.to/lastmile_qr_scan", "ios": "https://dc.lft.to/lastmile_qr_scan"}, "lat": 38.89097316666667, "is_disabled": 0, "lon": -77.00283883333333}, {"fusion_lat": 0.0, "type": "electric_scooter", "name": "020e97277973b5cf50f828bd516ed059", "fusion_lon": 0.0, "bike_id": "020e97277973b5cf50f828bd516ed059", "is_reserved": 0, "rental_uris": {"android": "https://dc.lft.to/lastmile_qr_scan", "ios": "https://dc.lft.to/lastmile_qr_scan"}, "lat": 38.934043, "is_disabled": 0, "lon": -77.04132966666667}, {"fusion_lat": 0.0, "type": "electric_scooter", "name": "a943f2a35ffd370558e54dc3d1620786", "fusion_lon": 0.0, "bike_id": "a943f2a35ffd370558e54dc3d1620786", "is_reserved": 0, "rental_uris": {"android": "https://dc.lft.to/lastmile_qr_scan", "ios": "https://dc.lft.to/lastmile_qr_scan"}, "lat": 38.901354, "is_disabled": 0, "lon": -77.04774816666666}, {"fusion_lat": 0.0, "type": "electric_scooter", "name": "05e6cb08c33efd6e02e5ef43ee1c63d1", "fusion_lon": 0.0, "bike_id": "05e6cb08c33efd6e02e5ef43ee1c63d1", "is_reserved": 0, "rental_uris": {"android": "https://dc.lft.to/lastmile_qr_scan", "ios": "https://dc.lft.to/lastmile_qr_scan"}, "lat": 38.924603833333336, "is_disabled": 0, "lon": -77.05754866666666}, {"fusion_lat": 0.0, "type": "electric_scooter", "name": "3565603cdd666fae845b5f61465db2f5", "fusion_lon": 0.0, "bike_id": "3565603cdd666fae845b5f61465db2f5", "is_reserved": 0, "rental_uris": {"android": "https://dc.lft.to/lastmile_qr_scan", "ios": "https://dc.lft.to/lastmile_qr_scan"}, "lat": 38.9163275, "is_disabled": 0, "lon": -77.04146416666667}, {"fusion_lat": 0.0, "type": "electric_scooter", "name": "3ca49ae66ed89b44fd6c7265d925dbce", "fusion_lon": 0.0, "bike_id": "3ca49ae66ed89b44fd6c7265d925dbce", "is_reserved": 0, "rental_uris": {"android": "https://dc.lft.to/lastmile_qr_scan", "ios": "https://dc.lft.to/lastmile_qr_scan"}, "lat": 38.918546166666665, "is_disabled": 0, "lon": -77.04591133333334}, {"fusion_lat": 0.0, "type": "electric_scooter", "name": "0332d17873dc6effdb606cc829047588", "fusion_lon": 0.0, "bike_id": "0332d17873dc6effdb606cc829047588", "is_reserved": 0, "rental_uris": {"android": "https://dc.lft.to/lastmile_qr_scan", "ios": "https://dc.lft.to/lastmile_qr_scan"}, "lat": 38.919927333333334, "is_disabled": 0, "lon": -77.02205183333334}, {"fusion_lat": 0.0, "type": "electric_scooter", "name": "5b3253aba4e8a75e4f8ce9b922837dfd", "fusion_lon": 0.0, "bike_id": "5b3253aba4e8a75e4f8ce9b922837dfd", "is_reserved": 0, "rental_uris": {"android": "https://dc.lft.to/lastmile_qr_scan", "ios": "https://dc.lft.to/lastmile_qr_scan"}, "lat": 38.92049733333333, "is_disabled": 0, "lon": -77.03658083333333}, {"fusion_lat": 0.0, "type": "electric_scooter", "name": "ff5e3825b2b8e24e6a28d0a80b205a29", "fusion_lon": 0.0, "bike_id": "ff5e3825b2b8e24e6a28d0a80b205a29", "is_reserved": 0, "rental_uris": {"android": "https://dc.lft.to/lastmile_qr_scan", "ios": "https://dc.lft.to/lastmile_qr_scan"}, "lat": 38.9050405, "is_disabled": 0, "lon": -77.040623}, {"fusion_lat": 0.0, "type": "electric_scooter", "name": "e0a8d1c70b0a2c1c412b25b54a9efdc1", "fusion_lon": 0.0, "bike_id": "e0a8d1c70b0a2c1c412b25b54a9efdc1", "is_reserved": 0, "rental_uris": {"android": "https://dc.lft.to/lastmile_qr_scan", "ios": "https://dc.lft.to/lastmile_qr_scan"}, "lat": 38.8942815, "is_disabled": 0, "lon": -76.94879883333333}, {"fusion_lat": 0.0, "type": "electric_scooter", "name": "26cf3288cb7afd70dfc922050de211a5", "fusion_lon": 0.0, "bike_id": "26cf3288cb7afd70dfc922050de211a5", "is_reserved": 0, "rental_uris": {"android": "https://dc.lft.to/lastmile_qr_scan", "ios": "https://dc.lft.to/lastmile_qr_scan"}, "lat": 38.92193133333333, "is_disabled": 0, "lon": -77.04235016666667}, {"fusion_lat": 0.0, "type": "electric_scooter", "name": "dc2de635c0c13896371e160f98948dce", "fusion_lon": 0.0, "bike_id": "dc2de635c0c13896371e160f98948dce", "is_reserved": 0, "rental_uris": {"android": "https://dc.lft.to/lastmile_qr_scan", "ios": "https://dc.lft.to/lastmile_qr_scan"}, "lat": 38.910064, "is_disabled": 0, "lon": -76.99386}, {"fusion_lat": 0.0, "type": "electric_scooter", "name": "c8f102706062df55ab9a5e917c2a4e77", "fusion_lon": 0.0, "bike_id": "c8f102706062df55ab9a5e917c2a4e77", "is_reserved": 0, "rental_uris": {"android": "https://dc.lft.to/lastmile_qr_scan", "ios": "https://dc.lft.to/lastmile_qr_scan"}, "lat": 38.86373966666667, "is_disabled": 0, "lon": -76.99054783333334}, {"fusion_lat": 0.0, "type": "electric_scooter", "name": "63bc3f9677710fcadc8d70b80b0d8023", "fusion_lon": 0.0, "bike_id": "63bc3f9677710fcadc8d70b80b0d8023", "is_reserved": 0, "rental_uris": {"android": "https://dc.lft.to/lastmile_qr_scan", "ios": "https://dc.lft.to/lastmile_qr_scan"}, "lat": 38.907135833333335, "is_disabled": 0, "lon": -77.0238115}, {"fusion_lat": 0.0, "type": "electric_scooter", "name": "d9a39f47a9edeee09d10be1019001336", "fusion_lon": 0.0, "bike_id": "d9a39f47a9edeee09d10be1019001336", "is_reserved": 0, "rental_uris": {"android": "https://dc.lft.to/lastmile_qr_scan", "ios": "https://dc.lft.to/lastmile_qr_scan"}, "lat": 38.900037, "is_disabled": 0, "lon": -77.00661533333333}, {"fusion_lat": 0.0, "type": "electric_scooter", "name": "500cc59a485fcd44edb319b26263da2f", "fusion_lon": 0.0, "bike_id": "500cc59a485fcd44edb319b26263da2f", "is_reserved": 0, "rental_uris": {"android": "https://dc.lft.to/lastmile_qr_scan", "ios": "https://dc.lft.to/lastmile_qr_scan"}, "lat": 38.905025, "is_disabled": 0, "lon": -77.046609}, {"fusion_lat": 0.0, "type": "electric_bike", "name": "389203deddb250753d6472564ff61743", "fusion_lon": 0.0, "bike_id": "389203deddb250753d6472564ff61743", "is_reserved": 0, "rental_uris": {"android": "https://dc.lft.to/lastmile_qr_scan", "ios": "https://dc.lft.to/lastmile_qr_scan"}, "lat": 38.96959066666667, "is_disabled": 0, "lon": -76.9574495}, {"fusion_lat": 0.0, "type": "electric_scooter", "name": "b4a71a3c8852fd24e9487c590710118b", "fusion_lon": 0.0, "bike_id": "b4a71a3c8852fd24e9487c590710118b", "is_reserved": 0, "rental_uris": {"android": "https://dc.lft.to/lastmile_qr_scan", "ios": "https://dc.lft.to/lastmile_qr_scan"}, "lat": 38.90512416666667, "is_disabled": 0, "lon": -77.04820316666667}, {"fusion_lat": 0.0, "type": "electric_scooter", "name": "1cafa31f91ef3df6a8c09ece0ad7d4a1", "fusion_lon": 0.0, "bike_id": "1cafa31f91ef3df6a8c09ece0ad7d4a1", "is_reserved": 0, "rental_uris": {"android": "https://dc.lft.to/lastmile_qr_scan", "ios": "https://dc.lft.to/lastmile_qr_scan"}, "lat": 38.884079666666665, "is_disabled": 0, "lon": -77.0178625}, {"fusion_lat": 0.0, "type": "electric_scooter", "name": "9b274bb2c117c1ba85f05f57f54f996a", "fusion_lon": 0.0, "bike_id": "9b274bb2c117c1ba85f05f57f54f996a", "is_reserved": 0, "rental_uris": {"android": "https://dc.lft.to/lastmile_qr_scan", "ios": "https://dc.lft.to/lastmile_qr_scan"}, "lat": 38.90142183333333, "is_disabled": 0, "lon": -77.029392}, {"fusion_lat": 0.0, "type": "electric_scooter", "name": "6508b195f03d5e08047807916a6ab6a0", "fusion_lon": 0.0, "bike_id": "6508b195f03d5e08047807916a6ab6a0", "is_reserved": 0, "rental_uris": {"android": "https://dc.lft.to/lastmile_qr_scan", "ios": "https://dc.lft.to/lastmile_qr_scan"}, "lat": 38.93883316666667, "is_disabled": 0, "lon": -77.02465666666667}, {"fusion_lat": 0.0, "type": "electric_scooter", "name": "16be77b5666476dd4953bcdc207a5137", "fusion_lon": 0.0, "bike_id": "16be77b5666476dd4953bcdc207a5137", "is_reserved": 0, "rental_uris": {"android": "https://dc.lft.to/lastmile_qr_scan", "ios": "https://dc.lft.to/lastmile_qr_scan"}, "lat": 38.898449166666666, "is_disabled": 0, "lon": -77.03346966666666}, {"fusion_lat": 0.0, "type": "electric_scooter", "name": "1532ab88b2ff124007d50f577f9d9d71", "fusion_lon": 0.0, "bike_id": "1532ab88b2ff124007d50f577f9d9d71", "is_reserved": 0, "rental_uris": {"android": "https://dc.lft.to/lastmile_qr_scan", "ios": "https://dc.lft.to/lastmile_qr_scan"}, "lat": 38.86008116666667, "is_disabled": 0, "lon": -76.98509633333333}, {"fusion_lat": 0.0, "type": "electric_scooter", "name": "0ad935381c41191576b5412dace79131", "fusion_lon": 0.0, "bike_id": "0ad935381c41191576b5412dace79131", "is_reserved": 0, "rental_uris": {"android": "https://dc.lft.to/lastmile_qr_scan", "ios": "https://dc.lft.to/lastmile_qr_scan"}, "lat": 38.903063, "is_disabled": 0, "lon": -77.041628}, {"fusion_lat": 0.0, "type": "electric_scooter", "name": "ea7801c025789eca8a1c4e424a3366bd", "fusion_lon": 0.0, "bike_id": "ea7801c025789eca8a1c4e424a3366bd", "is_reserved": 0, "rental_uris": {"android": "https://dc.lft.to/lastmile_qr_scan", "ios": "https://dc.lft.to/lastmile_qr_scan"}, "lat": 38.8922, "is_disabled": 0, "lon": -77.02776133333333}, {"fusion_lat": 0.0, "type": "electric_scooter", "name": "c172f4c620c1c69d07b09ccadc994ab6", "fusion_lon": 0.0, "bike_id": "c172f4c620c1c69d07b09ccadc994ab6", "is_reserved": 0, "rental_uris": {"android": "https://dc.lft.to/lastmile_qr_scan", "ios": "https://dc.lft.to/lastmile_qr_scan"}, "lat": 38.891635, "is_disabled": 0, "lon": -76.95184716666667}, {"fusion_lat": 0.0, "type": "electric_scooter", "name": "4268c28906547cfa25a8243628f1371e", "fusion_lon": 0.0, "bike_id": "4268c28906547cfa25a8243628f1371e", "is_reserved": 0, "rental_uris": {"android": "https://dc.lft.to/lastmile_qr_scan", "ios": "https://dc.lft.to/lastmile_qr_scan"}, "lat": 38.88739916666667, "is_disabled": 0, "lon": -77.03162483333334}, {"fusion_lat": 0.0, "type": "electric_bike", "name": "bc1a2355125fb088612cb35eb890eec2", "fusion_lon": 0.0, "bike_id": "bc1a2355125fb088612cb35eb890eec2", "is_reserved": 0, "rental_uris": {"android": "https://dc.lft.to/lastmile_qr_scan", "ios": "https://dc.lft.to/lastmile_qr_scan"}, "lat": 38.79509733333333, "is_disabled": 0, "lon": -77.00694666666666}, {"fusion_lat": 0.0, "type": "electric_scooter", "name": "2575ae098347bb85c1dabeee8fb8b226", "fusion_lon": 0.0, "bike_id": "2575ae098347bb85c1dabeee8fb8b226", "is_reserved": 0, "rental_uris": {"android": "https://dc.lft.to/lastmile_qr_scan", "ios": "https://dc.lft.to/lastmile_qr_scan"}, "lat": 38.892269, "is_disabled": 0, "lon": -77.0317035}, {"fusion_lat": 0.0, "type": "electric_scooter", "name": "cb5d5d253296beb0560cce230b6ddaee", "fusion_lon": 0.0, "bike_id": "cb5d5d253296beb0560cce230b6ddaee", "is_reserved": 0, "rental_uris": {"android": "https://dc.lft.to/lastmile_qr_scan", "ios": "https://dc.lft.to/lastmile_qr_scan"}, "lat": 38.90107066666667, "is_disabled": 0, "lon": -77.044788}, {"fusion_lat": 0.0, "type": "electric_scooter", "name": "9f67b1c11650224fbd0ea4352dbfafe3", "fusion_lon": 0.0, "bike_id": "9f67b1c11650224fbd0ea4352dbfafe3", "is_reserved": 0, "rental_uris": {"android": "https://dc.lft.to/lastmile_qr_scan", "ios": "https://dc.lft.to/lastmile_qr_scan"}, "lat": 38.91727733333333, "is_disabled": 0, "lon": -77.03207416666666}, {"fusion_lat": 0.0, "type": "electric_scooter", "name": "6d212008d072a1e1e3389fcee55156a2", "fusion_lon": 0.0, "bike_id": "6d212008d072a1e1e3389fcee55156a2", "is_reserved": 0, "rental_uris": {"android": "https://dc.lft.to/lastmile_qr_scan", "ios": "https://dc.lft.to/lastmile_qr_scan"}, "lat": 38.9077365, "is_disabled": 0, "lon": -77.03506283333333}, {"fusion_lat": 0.0, "type": "electric_scooter", "name": "5d2a6477157516204c4e3fbec25a408d", "fusion_lon": 0.0, "bike_id": "5d2a6477157516204c4e3fbec25a408d", "is_reserved": 0, "rental_uris": {"android": "https://dc.lft.to/lastmile_qr_scan", "ios": "https://dc.lft.to/lastmile_qr_scan"}, "lat": 38.89316783333334, "is_disabled": 0, "lon": -77.01789333333333}, {"fusion_lat": 0.0, "type": "electric_scooter", "name": "055e2af84775b2fe8c73f77b335faa66", "fusion_lon": 0.0, "bike_id": "055e2af84775b2fe8c73f77b335faa66", "is_reserved": 0, "rental_uris": {"android": "https://dc.lft.to/lastmile_qr_scan", "ios": "https://dc.lft.to/lastmile_qr_scan"}, "lat": 38.942035833333335, "is_disabled": 0, "lon": -77.025121}, {"fusion_lat": 0.0, "type": "electric_bike", "name": "ea9446bcd840cc2d4dbbf925a4558ccf", "fusion_lon": 0.0, "bike_id": "ea9446bcd840cc2d4dbbf925a4558ccf", "is_reserved": 0, "rental_uris": {"android": "https://dc.lft.to/lastmile_qr_scan", "ios": "https://dc.lft.to/lastmile_qr_scan"}, "lat": 38.95650216666667, "is_disabled": 0, "lon": -77.02263183333334}, {"fusion_lat": 0.0, "type": "electric_scooter", "name": "7f87302ca09cd24ce037dc7a8a3bd520", "fusion_lon": 0.0, "bike_id": "7f87302ca09cd24ce037dc7a8a3bd520", "is_reserved": 0, "rental_uris": {"android": "https://dc.lft.to/lastmile_qr_scan", "ios": "https://dc.lft.to/lastmile_qr_scan"}, "lat": 38.90532016666667, "is_disabled": 0, "lon": -77.05042933333333}, {"fusion_lat": 0.0, "type": "electric_scooter", "name": "fff62f998dac64527100d55e5857d8cd", "fusion_lon": 0.0, "bike_id": "fff62f998dac64527100d55e5857d8cd", "is_reserved": 0, "rental_uris": {"android": "https://dc.lft.to/lastmile_qr_scan", "ios": "https://dc.lft.to/lastmile_qr_scan"}, "lat": 38.904697, "is_disabled": 0, "lon": -77.03894466666667}, {"fusion_lat": 0.0, "type": "electric_scooter", "name": "655d40f321b612519a2329791ecd1585", "fusion_lon": 0.0, "bike_id": "655d40f321b612519a2329791ecd1585", "is_reserved": 0, "rental_uris": {"android": "https://dc.lft.to/lastmile_qr_scan", "ios": "https://dc.lft.to/lastmile_qr_scan"}, "lat": 38.866951666666665, "is_disabled": 0, "lon": -76.98709016666666}, {"fusion_lat": 0.0, "type": "electric_scooter", "name": "a1de7d55d3f37962a28c14bad3e37715", "fusion_lon": 0.0, "bike_id": "a1de7d55d3f37962a28c14bad3e37715", "is_reserved": 0, "rental_uris": {"android": "https://dc.lft.to/lastmile_qr_scan", "ios": "https://dc.lft.to/lastmile_qr_scan"}, "lat": 38.82377066666667, "is_disabled": 0, "lon": -77.0118195}, {"fusion_lat": 0.0, "type": "electric_bike", "name": "3ce1b99557ef5a85e3e55465cbdcf24a", "fusion_lon": 0.0, "bike_id": "3ce1b99557ef5a85e3e55465cbdcf24a", "is_reserved": 0, "rental_uris": {"android": "https://dc.lft.to/lastmile_qr_scan", "ios": "https://dc.lft.to/lastmile_qr_scan"}, "lat": 38.8804325, "is_disabled": 0, "lon": -77.01126333333333}, {"fusion_lat": 0.0, "type": "electric_scooter", "name": "c0fd101fd80efe936849fa5dbce1e130", "fusion_lon": 0.0, "bike_id": "c0fd101fd80efe936849fa5dbce1e130", "is_reserved": 0, "rental_uris": {"android": "https://dc.lft.to/lastmile_qr_scan", "ios": "https://dc.lft.to/lastmile_qr_scan"}, "lat": 38.867331166666666, "is_disabled": 0, "lon": -76.9878285}, {"fusion_lat": 0.0, "type": "electric_scooter", "name": "2eb21ea18a6b75af9405901ed29c1069", "fusion_lon": 0.0, "bike_id": "2eb21ea18a6b75af9405901ed29c1069", "is_reserved": 0, "rental_uris": {"android": "https://dc.lft.to/lastmile_qr_scan", "ios": "https://dc.lft.to/lastmile_qr_scan"}, "lat": 38.911085, "is_disabled": 0, "lon": -77.04500816666666}, {"fusion_lat": 0.0, "type": "electric_scooter", "name": "298892723d890dddf93c90da5ba6e316", "fusion_lon": 0.0, "bike_id": "298892723d890dddf93c90da5ba6e316", "is_reserved": 0, "rental_uris": {"android": "https://dc.lft.to/lastmile_qr_scan", "ios": "https://dc.lft.to/lastmile_qr_scan"}, "lat": 38.93185883333334, "is_disabled": 0, "lon": -77.03839716666667}, {"fusion_lat": 0.0, "type": "electric_scooter", "name": "2f4c54c943a00b21e952b46b2dcb29e6", "fusion_lon": 0.0, "bike_id": "2f4c54c943a00b21e952b46b2dcb29e6", "is_reserved": 0, "rental_uris": {"android": "https://dc.lft.to/lastmile_qr_scan", "ios": "https://dc.lft.to/lastmile_qr_scan"}, "lat": 38.9307415, "is_disabled": 0, "lon": -77.03474733333333}, {"fusion_lat": 0.0, "type": "electric_scooter", "name": "f65e4cd4026314fb1a5e1b4304b8ea28", "fusion_lon": 0.0, "bike_id": "f65e4cd4026314fb1a5e1b4304b8ea28", "is_reserved": 0, "rental_uris": {"android": "https://dc.lft.to/lastmile_qr_scan", "ios": "https://dc.lft.to/lastmile_qr_scan"}, "lat": 38.9267035, "is_disabled": 0, "lon": -77.015146}, {"fusion_lat": 0.0, "type": "electric_scooter", "name": "5cb8123cb63e23fe103d898184638925", "fusion_lon": 0.0, "bike_id": "5cb8123cb63e23fe103d898184638925", "is_reserved": 0, "rental_uris": {"android": "https://dc.lft.to/lastmile_qr_scan", "ios": "https://dc.lft.to/lastmile_qr_scan"}, "lat": 38.87039866666667, "is_disabled": 0, "lon": -77.00968}, {"fusion_lat": 0.0, "type": "electric_scooter", "name": "fb45e847172578b4db7c6463fad7c19e", "fusion_lon": 0.0, "bike_id": "fb45e847172578b4db7c6463fad7c19e", "is_reserved": 0, "rental_uris": {"android": "https://dc.lft.to/lastmile_qr_scan", "ios": "https://dc.lft.to/lastmile_qr_scan"}, "lat": 38.892192333333334, "is_disabled": 0, "lon": -77.01370083333333}, {"fusion_lat": 0.0, "type": "electric_scooter", "name": "b53ec8cac1c4ab067edf1e68afabe66a", "fusion_lon": 0.0, "bike_id": "b53ec8cac1c4ab067edf1e68afabe66a", "is_reserved": 0, "rental_uris": {"android": "https://dc.lft.to/lastmile_qr_scan", "ios": "https://dc.lft.to/lastmile_qr_scan"}, "lat": 38.92613933333333, "is_disabled": 0, "lon": -77.02163166666666}, {"fusion_lat": 0.0, "type": "electric_scooter", "name": "0f15a07548a22011c524ad420c6cc8ec", "fusion_lon": 0.0, "bike_id": "0f15a07548a22011c524ad420c6cc8ec", "is_reserved": 0, "rental_uris": {"android": "https://dc.lft.to/lastmile_qr_scan", "ios": "https://dc.lft.to/lastmile_qr_scan"}, "lat": 38.84313916666667, "is_disabled": 0, "lon": -76.999346}, {"fusion_lat": 0.0, "type": "electric_scooter", "name": "9b804b71c72f30a1da249654884f7c8d", "fusion_lon": 0.0, "bike_id": "9b804b71c72f30a1da249654884f7c8d", "is_reserved": 0, "rental_uris": {"android": "https://dc.lft.to/lastmile_qr_scan", "ios": "https://dc.lft.to/lastmile_qr_scan"}, "lat": 38.8669865, "is_disabled": 0, "lon": -76.9870915}, {"fusion_lat": 0.0, "type": "electric_scooter", "name": "b03d21bbca704f4c9d115affb715244f", "fusion_lon": 0.0, "bike_id": "b03d21bbca704f4c9d115affb715244f", "is_reserved": 0, "rental_uris": {"android": "https://dc.lft.to/lastmile_qr_scan", "ios": "https://dc.lft.to/lastmile_qr_scan"}, "lat": 38.86877833333333, "is_disabled": 0, "lon": -76.98235566666666}, {"fusion_lat": 0.0, "type": "electric_scooter", "name": "93cc51265d756f57742945c338336684", "fusion_lon": 0.0, "bike_id": "93cc51265d756f57742945c338336684", "is_reserved": 0, "rental_uris": {"android": "https://dc.lft.to/lastmile_qr_scan", "ios": "https://dc.lft.to/lastmile_qr_scan"}, "lat": 38.910460666666665, "is_disabled": 0, "lon": -77.0435375}, {"fusion_lat": 0.0, "type": "electric_scooter", "name": "66883d31fe0b32282d84a73c8f589773", "fusion_lon": 0.0, "bike_id": "66883d31fe0b32282d84a73c8f589773", "is_reserved": 0, "rental_uris": {"android": "https://dc.lft.to/lastmile_qr_scan", "ios": "https://dc.lft.to/lastmile_qr_scan"}, "lat": 38.89223283333333, "is_disabled": 0, "lon": -77.043337}, {"fusion_lat": 0.0, "type": "electric_scooter", "name": "e08c1af616a042a105ee1595bb160a58", "fusion_lon": 0.0, "bike_id": "e08c1af616a042a105ee1595bb160a58", "is_reserved": 0, "rental_uris": {"android": "https://dc.lft.to/lastmile_qr_scan", "ios": "https://dc.lft.to/lastmile_qr_scan"}, "lat": 38.910084166666664, "is_disabled": 0, "lon": -77.00551683333333}, {"fusion_lat": 0.0, "type": "electric_scooter", "name": "85305a02dbe0cef9c86612b872a37c67", "fusion_lon": 0.0, "bike_id": "85305a02dbe0cef9c86612b872a37c67", "is_reserved": 0, "rental_uris": {"android": "https://dc.lft.to/lastmile_qr_scan", "ios": "https://dc.lft.to/lastmile_qr_scan"}, "lat": 38.899379333333336, "is_disabled": 0, "lon": -77.018215}, {"fusion_lat": 0.0, "type": "electric_bike", "name": "5e51c598d8e3ff637c2f06ba84ab231a", "fusion_lon": 0.0, "bike_id": "5e51c598d8e3ff637c2f06ba84ab231a", "is_reserved": 0, "rental_uris": {"android": "https://dc.lft.to/lastmile_qr_scan", "ios": "https://dc.lft.to/lastmile_qr_scan"}, "lat": 38.97839066666667, "is_disabled": 0, "lon": -76.9288505}, {"fusion_lat": 0.0, "type": "electric_scooter", "name": "da6ddd46bf9ffd4770ad7ebdf7875845", "fusion_lon": 0.0, "bike_id": "da6ddd46bf9ffd4770ad7ebdf7875845", "is_reserved": 0, "rental_uris": {"android": "https://dc.lft.to/lastmile_qr_scan", "ios": "https://dc.lft.to/lastmile_qr_scan"}, "lat": 38.8878895, "is_disabled": 0, "lon": -76.95540016666666}, {"fusion_lat": 0.0, "type": "electric_scooter", "name": "0ac45fb3e208d13a994850ca831f37ca", "fusion_lon": 0.0, "bike_id": "0ac45fb3e208d13a994850ca831f37ca", "is_reserved": 0, "rental_uris": {"android": "https://dc.lft.to/lastmile_qr_scan", "ios": "https://dc.lft.to/lastmile_qr_scan"}, "lat": 38.89220316666667, "is_disabled": 0, "lon": -77.0423815}, {"fusion_lat": 0.0, "type": "electric_bike", "name": "074424a68ed6e81fc74ad48c7586ca46", "fusion_lon": 0.0, "bike_id": "074424a68ed6e81fc74ad48c7586ca46", "is_reserved": 0, "rental_uris": {"android": "https://dc.lft.to/lastmile_qr_scan", "ios": "https://dc.lft.to/lastmile_qr_scan"}, "lat": 38.881691000000004, "is_disabled": 0, "lon": -77.1148225}, {"fusion_lat": 0.0, "type": "electric_scooter", "name": "82f861e290a25bb8f983c5b0990cba81", "fusion_lon": 0.0, "bike_id": "82f861e290a25bb8f983c5b0990cba81", "is_reserved": 0, "rental_uris": {"android": "https://dc.lft.to/lastmile_qr_scan", "ios": "https://dc.lft.to/lastmile_qr_scan"}, "lat": 38.90069233333333, "is_disabled": 0, "lon": -77.0487005}, {"fusion_lat": 0.0, "type": "electric_bike", "name": "3da8b4c009cbfa30851ab1a6dce99c1d", "fusion_lon": 0.0, "bike_id": "3da8b4c009cbfa30851ab1a6dce99c1d", "is_reserved": 0, "rental_uris": {"android": "https://dc.lft.to/lastmile_qr_scan", "ios": "https://dc.lft.to/lastmile_qr_scan"}, "lat": 38.907928, "is_disabled": 0, "lon": -77.07161683333334}, {"fusion_lat": 0.0, "type": "electric_scooter", "name": "39d057f6d2e078756a90008ccbc316e9", "fusion_lon": 0.0, "bike_id": "39d057f6d2e078756a90008ccbc316e9", "is_reserved": 0, "rental_uris": {"android": "https://dc.lft.to/lastmile_qr_scan", "ios": "https://dc.lft.to/lastmile_qr_scan"}, "lat": 38.92394183333333, "is_disabled": 0, "lon": -77.03537883333334}, {"fusion_lat": 0.0, "type": "electric_scooter", "name": "4e1eae6e646110c12e0d696084b78df5", "fusion_lon": 0.0, "bike_id": "4e1eae6e646110c12e0d696084b78df5", "is_reserved": 0, "rental_uris": {"android": "https://dc.lft.to/lastmile_qr_scan", "ios": "https://dc.lft.to/lastmile_qr_scan"}, "lat": 38.911190166666664, "is_disabled": 0, "lon": -77.0652445}, {"fusion_lat": 0.0, "type": "electric_scooter", "name": "068cc209433d181fc7c03627b9694861", "fusion_lon": 0.0, "bike_id": "068cc209433d181fc7c03627b9694861", "is_reserved": 0, "rental_uris": {"android": "https://dc.lft.to/lastmile_qr_scan", "ios": "https://dc.lft.to/lastmile_qr_scan"}, "lat": 38.904132, "is_disabled": 0, "lon": -77.029549}, {"fusion_lat": 0.0, "type": "electric_bike", "name": "b82c86916465185e5408efcf70378e1e", "fusion_lon": 0.0, "bike_id": "b82c86916465185e5408efcf70378e1e", "is_reserved": 0, "rental_uris": {"android": "https://dc.lft.to/lastmile_qr_scan", "ios": "https://dc.lft.to/lastmile_qr_scan"}, "lat": 38.8980925, "is_disabled": 0, "lon": -76.99077016666666}, {"fusion_lat": 0.0, "type": "electric_scooter", "name": "cd0babfa75d38a79abbeae117618da88", "fusion_lon": 0.0, "bike_id": "cd0babfa75d38a79abbeae117618da88", "is_reserved": 0, "rental_uris": {"android": "https://dc.lft.to/lastmile_qr_scan", "ios": "https://dc.lft.to/lastmile_qr_scan"}, "lat": 38.92151716666667, "is_disabled": 0, "lon": -77.0209155}, {"fusion_lat": 0.0, "type": "electric_scooter", "name": "80ce95b143206fd31e89420bd9d77246", "fusion_lon": 0.0, "bike_id": "80ce95b143206fd31e89420bd9d77246", "is_reserved": 0, "rental_uris": {"android": "https://dc.lft.to/lastmile_qr_scan", "ios": "https://dc.lft.to/lastmile_qr_scan"}, "lat": 38.900799, "is_disabled": 0, "lon": -77.02693616666667}, {"fusion_lat": 0.0, "type": "electric_scooter", "name": "f43d95d3a78036777e9eed92978af734", "fusion_lon": 0.0, "bike_id": "f43d95d3a78036777e9eed92978af734", "is_reserved": 0, "rental_uris": {"android": "https://dc.lft.to/lastmile_qr_scan", "ios": "https://dc.lft.to/lastmile_qr_scan"}, "lat": 38.851957166666665, "is_disabled": 0, "lon": -76.97073666666667}, {"fusion_lat": 0.0, "type": "electric_scooter", "name": "bf3a3a631fadbd035df9e2433ffe6dbf", "fusion_lon": 0.0, "bike_id": "bf3a3a631fadbd035df9e2433ffe6dbf", "is_reserved": 0, "rental_uris": {"android": "https://dc.lft.to/lastmile_qr_scan", "ios": "https://dc.lft.to/lastmile_qr_scan"}, "lat": 38.93383083333333, "is_disabled": 0, "lon": -77.03551983333334}, {"fusion_lat": 0.0, "type": "electric_scooter", "name": "0d87334311952ed46f45ba48e9ea4b69", "fusion_lon": 0.0, "bike_id": "0d87334311952ed46f45ba48e9ea4b69", "is_reserved": 0, "rental_uris": {"android": "https://dc.lft.to/lastmile_qr_scan", "ios": "https://dc.lft.to/lastmile_qr_scan"}, "lat": 38.89561966666667, "is_disabled": 0, "lon": -77.046743}, {"fusion_lat": 0.0, "type": "electric_scooter", "name": "5d47d9434b74f8291075fa39800144ed", "fusion_lon": 0.0, "bike_id": "5d47d9434b74f8291075fa39800144ed", "is_reserved": 0, "rental_uris": {"android": "https://dc.lft.to/lastmile_qr_scan", "ios": "https://dc.lft.to/lastmile_qr_scan"}, "lat": 38.9200205, "is_disabled": 0, "lon": -77.021336}, {"fusion_lat": 0.0, "type": "electric_scooter", "name": "f02168f83109514cf6934f8cee34a3f5", "fusion_lon": 0.0, "bike_id": "f02168f83109514cf6934f8cee34a3f5", "is_reserved": 0, "rental_uris": {"android": "https://dc.lft.to/lastmile_qr_scan", "ios": "https://dc.lft.to/lastmile_qr_scan"}, "lat": 38.902320333333336, "is_disabled": 0, "lon": -77.04498916666667}, {"fusion_lat": 0.0, "type": "electric_scooter", "name": "0639278fa75bf9c8e16c191e1b44b42a", "fusion_lon": 0.0, "bike_id": "0639278fa75bf9c8e16c191e1b44b42a", "is_reserved": 0, "rental_uris": {"android": "https://dc.lft.to/lastmile_qr_scan", "ios": "https://dc.lft.to/lastmile_qr_scan"}, "lat": 38.893979, "is_disabled": 0, "lon": -76.94628933333334}, {"fusion_lat": 0.0, "type": "electric_scooter", "name": "260908f9a0ab982f32750ccce1fce93c", "fusion_lon": 0.0, "bike_id": "260908f9a0ab982f32750ccce1fce93c", "is_reserved": 0, "rental_uris": {"android": "https://dc.lft.to/lastmile_qr_scan", "ios": "https://dc.lft.to/lastmile_qr_scan"}, "lat": 38.892281, "is_disabled": 0, "lon": -77.03187283333334},