{"data": {"bikes": [{"name": "75dc8738ac076fb263fd966d0fc0f242", "lon": -77.0330435, "lat": 38.95642933333333, "type": "electric_scooter", "fusion_lon": 0.0, "is_reserved": 0, "bike_id": "75dc8738ac076fb263fd966d0fc0f242", "fusion_lat": 0.0, "is_disabled": 0, "rental_uris": {"ios": "https://dc.lft.to/lastmile_qr_scan", "android": "https://dc.lft.to/lastmile_qr_scan"}}, {"name": "0559fb70947fbc85020b9b0916bc1a5a", "lon": -76.929945, "lat": 38.90189216666667, "type": "electric_scooter", "fusion_lon": 0.0, "is_reserved": 0, "bike_id": "0559fb70947fbc85020b9b0916bc1a5a", "fusion_lat": 0.0, "is_disabled": 0, "rental_uris": {"ios": "https://dc.lft.to/lastmile_qr_scan", "android": "https://dc.lft.to/lastmile_qr_scan"}}, {"name": "a937b6ac8c5f4eb8b35a0aff98a806e7", "lon": -77.0467205, "lat": 38.90676416666667, "type": "electric_scooter", "fusion_lon": 0.0, "is_reserved": 0, "bike_id": "a937b6ac8c5f4eb8b35a0aff98a806e7", "fusion_lat": 0.0, "is_disabled": 0, "rental_uris": {"ios": "https://dc.lft.to/lastmile_qr_scan", "android": "https://dc.lft.to/lastmile_qr_scan"}}, {"name": "bfdc8c44a764ae1ddc2136be2ccc2660", "lon": -77.03214233333334, "lat": 38.914297833333336, "type": "electric_scooter", "fusion_lon": 0.0, "is_reserved": 0, "bike_id": "bfdc8c44a764ae1ddc2136be2ccc2660", "fusion_lat": 0.0, "is_disabled": 0, "rental_uris": {"ios": "https://dc.lft.to/lastmile_qr_scan", "android": "https://dc.lft.to/lastmile_qr_scan"}}, {"name": "5d9f809f573ce734010520979fc7ad52", "lon": -77.03539633333334, "lat": 38.923211, "type": "electric_scooter", "fusion_lon": 0.0, "is_reserved": 0, "bike_id": "5d9f809f573ce734010520979fc7ad52", "fusion_lat": 0.0, "is_disabled": 0, "rental_uris": {"ios": "https://dc.lft.to/lastmile_qr_scan", "android": "https://dc.lft.to/lastmile_qr_scan"}}, {"name": "28fb91746fe586c5d9218ef6946759fa", "lon": -77.1090585, "lat": 39.05203766666666, "type": "electric_bike", "fusion_lon": 0.0, "is_reserved": 0, "bike_id": "28fb91746fe586c5d9218ef6946759fa", "fusion_lat": 0.0, "is_disabled": 0, "rental_uris": {"ios": "https://dc.lft.to/lastmile_qr_scan", "android": "https://dc.lft.to/lastmile_qr_scan"}}, {"name": "034fb6b2956ce72a8e7f7093d6871e23", "lon": -76.9729705, "lat": 38.903224, "type": "electric_scooter", "fusion_lon": 0.0, "is_reserved": 0, "bike_id": "034fb6b2956ce72a8e7f7093d6871e23", "fusion_lat": 0.0, "is_disabled": 0, "rental_uris": {"ios": "https://dc.lft.to/lastmile_qr_scan", "android": "https://dc.lft.to/lastmile_qr_scan"}}, {"name": "1a5874252fa16eed2eec8407693821ba", "lon": -77.02490366666666, "lat": 38.919212, "type": "electric_bike", "fusion_lon": 0.0, "is_reserved": 0, "bike_id": "1a5874252fa16eed2eec8407693821ba", "fusion_lat": 0.0, "is_disabled": 0, "rental_uris": {"ios": "https://dc.lft.to/lastmile_qr_scan", "android": "https://dc.lft.to/lastmile_qr_scan"}}, {"name": "624be1cba8a4fd6c9cd387d8150f1f08", "lon": -77.04283916666667, "lat": 38.91413583333333, "type": "electric_scooter", "fusion_lon": 0.0, "is_reserved": 0, "bike_id": "624be1cba8a4fd6c9cd387d8150f1f08", "fusion_lat": 0.0, "is_disabled": 0, "rental_uris": {"ios": "https://dc.lft.to/lastmile_qr_scan", "android": "https://dc.lft.to/lastmile_qr_scan"}}, {"name": "14c66e2e64272c98b4e8b15512eec573", "lon": -77.00597216666667, "lat": 38.898156166666666, "type": "electric_bike", "fusion_lon": 0.0, "is_reserved": 0, "bike_id": "14c66e2e64272c98b4e8b15512eec573", "fusion_lat": 0.0, "is_disabled": 0, "rental_uris": {"ios": "https://dc.lft.to/lastmile_qr_scan", "android": "https://dc.lft.to/lastmile_qr_scan"}}, {"name": "758da2b3a3e2ab2a254d993fe0614628", "lon": -77.04863366666666, "lat": 38.9096135, "type": "electric_scooter", "fusion_lon": 0.0, "is_reserved": 0, "bike_id": "758da2b3a3e2ab2a254d993fe0614628", "fusion_lat": 0.0, "is_disabled": 0, "rental_uris": {"ios": "https://dc.lft.to/lastmile_qr_scan", "android": "https://dc.lft.to/lastmile_qr_scan"}}, {"name": "73f820991f8e2be109a4c0fa364a202c", "lon": -77.02482133333334, "lat": 38.9188985, "type": "electric_bike", "fusion_lon": 0.0, "is_reserved": 0, "bike_id": "73f820991f8e2be109a4c0fa364a202c", "fusion_lat": 0.0, "is_disabled": 0, "rental_uris": {"ios": "https://dc.lft.to/lastmile_qr_scan", "android": "https://dc.lft.to/lastmile_qr_scan"}}, {"name": "7b06a8bf4b8eb52be185bd61c394c139", "lon": -77.0177545, "lat": 38.91995633333333, "type": "electric_scooter", "fusion_lon": 0.0, "is_reserved": 0, "bike_id": "7b06a8bf4b8eb52be185bd61c394c139", "fusion_lat": 0.0, "is_disabled": 0, "rental_uris": {"ios": "https://dc.lft.to/lastmile_qr_scan", "android": "https://dc.lft.to/lastmile_qr_scan"}}, {"name": "402569670fc2d923fb2999f63ee2312c", "lon": -77.0239685, "lat": 38.90956, "type": "electric_scooter", "fusion_lon": 0.0, "is_reserved": 0, "bike_id": "402569670fc2d923fb2999f63ee2312c", "fusion_lat": 0.0, "is_disabled": 0, "rental_uris": {"ios": "https://dc.lft.to/lastmile_qr_scan", "android": "https://dc.lft.to/lastmile_qr_scan"}}, {"name": "f5b3d0d4adc8710635c42289ddea2ed4", "lon": -77.03473266666667, "lat": 38.90587933333333, "type": "electric_scooter", "fusion_lon": 0.0, "is_reserved": 0, "bike_id": "f5b3d0d4adc8710635c42289ddea2ed4", "fusion_lat": 0.0, "is_disabled": 0, "rental_uris": {"ios": "https://dc.lft.to/lastmile_qr_scan", "android": "https://dc.lft.to/lastmile_qr_scan"}}, {"name": "f28ced039729c877f4bbcade0651a876", "lon": -76.98887233333333, "lat": 38.866521, "type": "electric_scooter", "fusion_lon": 0.0, "is_reserved": 0, "bike_id": "f28ced039729c877f4bbcade0651a876", "fusion_lat": 0.0, "is_disabled": 0, "rental_uris": {"ios": "https://dc.lft.to/lastmile_qr_scan", "android": "https://dc.lft.to/lastmile_qr_scan"}}, {"name": "3d5b5c854ef8f813c4e5fc59c3f6dbc3", "lon": -76.93755116666667, "lat": 38.89042233333333, "type": "electric_scooter", "fusion_lon": 0.0, "is_reserved": 0, "bike_id": "3d5b5c854ef8f813c4e5fc59c3f6dbc3", "fusion_lat": 0.0, "is_disabled": 0, "rental_uris": {"ios": "https://dc.lft.to/lastmile_qr_scan", "android": "https://dc.lft.to/lastmile_qr_scan"}}, {"name": "4ef3a90bfe1dfb76c486042abe01c010", "lon": -77.04802883333333, "lat": 38.892234, "type": "electric_scooter", "fusion_lon": 0.0, "is_reserved": 0, "bike_id": "4ef3a90bfe1dfb76c486042abe01c010", "fusion_lat": 0.0, "is_disabled": 0, "rental_uris": {"ios": "https://dc.lft.to/lastmile_qr_scan", "android": "https://dc.lft.to/lastmile_qr_scan"}}, {"name": "ddba50f81cf6b9baf8841b00e63e02cb", "lon": -77.042163, "lat": 38.9207925, "type": "electric_bike", "fusion_lon": 0.0, "is_reserved": 0, "bike_id": "ddba50f81cf6b9baf8841b00e63e02cb", "fusion_lat": 0.0, "is_disabled": 0, "rental_uris": {"ios": "https://dc.lft.to/lastmile_qr_scan", "android": "https://dc.lft.to/lastmile_qr_scan"}}, {"name": "f3c726ca32b2e76eacd747dbdc769356", "lon": -77.0431385, "lat": 38.926649833333336, "type": "electric_scooter", "fusion_lon": 0.0, "is_reserved": 0, "bike_id": "f3c726ca32b2e76eacd747dbdc769356", "fusion_lat": 0.0, "is_disabled": 0, "rental_uris": {"ios": "https://dc.lft.to/lastmile_qr_scan", "android": "https://dc.lft.to/lastmile_qr_scan"}}, {"name": "21d8dfb14385970164b4492ee3115e0d", "lon": -77.0407225, "lat": 38.91799283333334, "type": "electric_scooter", "fusion_lon": 0.0, "is_reserved": 0, "bike_id": "21d8dfb14385970164b4492ee3115e0d", "fusion_lat": 0.0, "is_disabled": 0, "rental_uris": {"ios": "https://dc.lft.to/lastmile_qr_scan", "android": "https://dc.lft.to/lastmile_qr_scan"}}, {"name": "944edc67278c35711c89b5b721d7967e", "lon": -76.992734, "lat": 38.88640083333333, "type": "electric_scooter", "fusion_lon": 0.0, "is_reserved": 0, "bike_id": "944edc67278c35711c89b5b721d7967e", "fusion_lat": 0.0, "is_disabled": 0, "rental_uris": {"ios": "https://dc.lft.to/lastmile_qr_scan", "android": "https://dc.lft.to/lastmile_qr_scan"}}, {"name": "c8bf796da17e96a80161e93b17175ff3", "lon": -77.02395816666667, "lat": 38.896219, "type": "electric_scooter", "fusion_lon": 0.0, "is_reserved": 0, "bike_id": "c8bf796da17e96a80161e93b17175ff3", "fusion_lat": 0.0, "is_disabled": 0, "rental_uris": {"ios": "https://dc.lft.to/lastmile_qr_scan", "android": "https://dc.lft.to/lastmile_qr_scan"}}, {"name": "98c1aeea12bcfb545ce975eb2daea0be", "lon": -77.03207366666666, "lat": 38.91356116666667, "type": "electric_scooter", "fusion_lon": 0.0, "is_reserved": 0, "bike_id": "98c1aeea12bcfb545ce975eb2daea0be", "fusion_lat": 0.0, "is_disabled": 0, "rental_uris": {"ios": "https://dc.lft.to/lastmile_qr_scan", "android": "https://dc.lft.to/lastmile_qr_scan"}}, {"name": "ab18e8ebc93aaca43fc0eb978367f064", "lon": -77.03866983333333, "lat": 38.915560666666664, "type": "electric_scooter", "fusion_lon": 0.0, "is_reserved": 0, "bike_id": "ab18e8ebc93aaca43fc0eb978367f064", "fusion_lat": 0.0, "is_disabled": 0, "rental_uris": {"ios": "https://dc.lft.to/lastmile_qr_scan", "android": "https://dc.lft.to/lastmile_qr_scan"}}, {"name": "0e4b9cd295be5bf828f9d808d99aef08", "lon": -77.02949333333333, "lat": 38.89922583333333, "type": "electric_scooter", "fusion_lon": 0.0, "is_reserved": 0, "bike_id": "0e4b9cd295be5bf828f9d808d99aef08", "fusion_lat": 0.0, "is_disabled": 0, "rental_uris": {"ios": "https://dc.lft.to/lastmile_qr_scan", "android": "https://dc.lft.to/lastmile_qr_scan"}}, {"name": "9d0e64a94bd0e0ae8ee3b2f5028e3777", "lon": -77.02514366666666, "lat": 38.93094416666667, "type": "electric_scooter", "fusion_lon": 0.0, "is_reserved": 0, "bike_id": "9d0e64a94bd0e0ae8ee3b2f5028e3777", "fusion_lat": 0.0, "is_disabled": 0, "rental_uris": {"ios": "https://dc.lft.to/lastmile_qr_scan", "android": "https://dc.lft.to/lastmile_qr_scan"}}, {"name": "c5a9c7a97e1661d99ed3de0b7abc7f66", "lon": -77.03212466666666, "lat": 38.892246, "type": "electric_scooter", "fusion_lon": 0.0, "is_reserved": 0, "bike_id": "c5a9c7a97e1661d99ed3de0b7abc7f66", "fusion_lat": 0.0, "is_disabled": 0, "rental_uris": {"ios": "https://dc.lft.to/lastmile_qr_scan", "android": "https://dc.lft.to/lastmile_qr_scan"}}, {"name": "294e0ef9d2c8a31f51ebdbb33e42565d", "lon": -76.99608616666667, "lat": 38.88639833333333, "type": "electric_scooter", "fusion_lon": 0.0, "is_reserved": 0, "bike_id": "294e0ef9d2c8a31f51ebdbb33e42565d", "fusion_lat": 0.0, "is_disabled": 0, "rental_uris": {"ios": "https://dc.lft.to/lastmile_qr_scan", "android": "https://dc.lft.to/lastmile_qr_scan"}}, {"name": "681fbcc5bd75027aaffccaeea3528673", "lon": -77.02553833333333, "lat": 38.9248155, "type": "electric_scooter", "fusion_lon": 0.0, "is_reserved": 0, "bike_id": "681fbcc5bd75027aaffccaeea3528673", "fusion_lat": 0.0, "is_disabled": 0, "rental_uris": {"ios": "https://dc.lft.to/lastmile_qr_scan", "android": "https://dc.lft.to/lastmile_qr_scan"}}, {"name": "15b31382eb8577c4ca5cc88e90a90576", "lon": -76.98302116666666, "lat": 38.90529183333334, "type": "electric_scooter", "fusion_lon": 0.0, "is_reserved": 0, "bike_id": "15b31382eb8577c4ca5cc88e90a90576", "fusion_lat": 0.0, "is_disabled": 0, "rental_uris": {"ios": "https://dc.lft.to/lastmile_qr_scan", "android": "https://dc.lft.to/lastmile_qr_scan"}}, {"name": "11d1895d3e03bf8d445e790052776ed0", "lon": -77.0367475, "lat": 38.93645933333333, "type": "electric_scooter", "fusion_lon": 0.0, "is_reserved": 0, "bike_id": "11d1895d3e03bf8d445e790052776ed0", "fusion_lat": 0.0, "is_disabled": 0, "rental_uris": {"ios": "https://dc.lft.to/lastmile_qr_scan", "android": "https://dc.lft.to/lastmile_qr_scan"}}, {"name": "b0ef53a28e1d5231f4df3f7d08a14473", "lon": -77.02583666666666, "lat": 38.920355, "type": "electric_scooter", "fusion_lon": 0.0, "is_reserved": 0, "bike_id": "b0ef53a28e1d5231f4df3f7d08a14473", "fusion_lat": 0.0, "is_disabled": 0, "rental_uris": {"ios": "https://dc.lft.to/lastmile_qr_scan", "android": "https://dc.lft.to/lastmile_qr_scan"}}, {"name": "fa4454847082aa45796ef59eb38570a8", "lon": -77.0383405, "lat": 38.911236333333335, "type": "electric_scooter", "fusion_lon": 0.0, "is_reserved": 0, "bike_id": "fa4454847082aa45796ef59eb38570a8", "fusion_lat": 0.0, "is_disabled": 0, "rental_uris": {"ios": "https://dc.lft.to/lastmile_qr_scan", "android": "https://dc.lft.to/lastmile_qr_scan"}}, {"name": "c16de35892dcc70360d72545e8a03850", "lon": -77.0038095, "lat": 38.83608983333333, "type": "electric_bike", "fusion_lon": 0.0, "is_reserved": 0, "bike_id": "c16de35892dcc70360d72545e8a03850", "fusion_lat": 0.0, "is_disabled": 0, "rental_uris": {"ios": "https://dc.lft.to/lastmile_qr_scan", "android": "https://dc.lft.to/lastmile_qr_scan"}}, {"name": "0f7cebe7fd04f81c1e8e19161db18651", "lon": -77.01399333333333, "lat": 38.881249333333336, "type": "electric_scooter", "fusion_lon": 0.0, "is_reserved": 0, "bike_id": "0f7cebe7fd04f81c1e8e19161db18651", "fusion_lat": 0.0, "is_disabled": 0, "rental_uris": {"ios": "https://dc.lft.to/lastmile_qr_scan", "android": "https://dc.lft.to/lastmile_qr_scan"}}, {"name": "4a889c4930597c8ada3e97f3ebcf364f", "lon": -77.01437683333333, "lat": 38.919606, "type": "electric_scooter", "fusion_lon": 0.0, "is_reserved": 0, "bike_id": "4a889c4930597c8ada3e97f3ebcf364f", "fusion_lat": 0.0, "is_disabled": 0, "rental_uris": {"ios": "https://dc.lft.to/lastmile_qr_scan", "android": "https://dc.lft.to/lastmile_qr_scan"}}, {"name": "17e446667962beed2e586a5288e89b48", "lon": -77.04138816666666, "lat": 38.930740666666665, "type": "electric_scooter", "fusion_lon": 0.0, "is_reserved": 0, "bike_id": "17e446667962beed2e586a5288e89b48", "fusion_lat": 0.0, "is_disabled": 0, "rental_uris": {"ios": "https://dc.lft.to/lastmile_qr_scan", "android": "https://dc.lft.to/lastmile_qr_scan"}}, {"name": "0f3dada90b79edf194e8ece202aecf04", "lon": -77.04625716666666, "lat": 38.919288333333334, "type": "electric_scooter", "fusion_lon": 0.0, "is_reserved": 0, "bike_id": "0f3dada90b79edf194e8ece202aecf04", "fusion_lat": 0.0, "is_disabled": 0, "rental_uris": {"ios": "https://dc.lft.to/lastmile_qr_scan", "android": "https://dc.lft.to/lastmile_qr_scan"}}, {"name": "a7cd0d9054bb158eb0b30286def2c12c", "lon": -76.98239133333334, "lat": 38.90205916666667, "type": "electric_scooter", "fusion_lon": 0.0, "is_reserved": 0, "bike_id": "a7cd0d9054bb158eb0b30286def2c12c", "fusion_lat": 0.0, "is_disabled": 0, "rental_uris": {"ios": "https://dc.lft.to/lastmile_qr_scan", "android": "https://dc.lft.to/lastmile_qr_scan"}}, {"name": "b2358886354fa54d206c28678240a1e3", "lon": -77.0231985, "lat": 38.90738066666667, "type": "electric_scooter", "fusion_lon": 0.0, "is_reserved": 0, "bike_id": "b2358886354fa54d206c28678240a1e3", "fusion_lat": 0.0, "is_disabled": 0, "rental_uris": {"ios": "https://dc.lft.to/lastmile_qr_scan", "android": "https://dc.lft.to/lastmile_qr_scan"}}, {"name": "b7103e7e5af3d1fd5a622cad2a0072e4", "lon": -77.02564016666666, "lat": 38.924772833333336, "type": "electric_scooter", "fusion_lon": 0.0, "is_reserved": 0, "bike_id": "b7103e7e5af3d1fd5a622cad2a0072e4", "fusion_lat": 0.0, "is_disabled": 0, "rental_uris": {"ios": "https://dc.lft.to/lastmile_qr_scan", "android": "https://dc.lft.to/lastmile_qr_scan"}}, {"name": "689fd23e9d3cfc7bff43c39bd650a038", "lon": -77.04498433333333, "lat": 38.91935566666667, "type": "electric_scooter", "fusion_lon": 0.0, "is_reserved": 0, "bike_id": "689fd23e9d3cfc7bff43c39bd650a038", "fusion_lat": 0.0, "is_disabled": 0, "rental_uris": {"ios": "https://dc.lft.to/lastmile_qr_scan", "android": "https://dc.lft.to/lastmile_qr_scan"}}, {"name": "87a476ea42ea71c0acb06ffbfd6c7318", "lon": -77.01109566666666, "lat": 38.9035205, "type": "electric_scooter", "fusion_lon": 0.0, "is_reserved": 0, "bike_id": "87a476ea42ea71c0acb06ffbfd6c7318", "fusion_lat": 0.0, "is_disabled": 0, "rental_uris": {"ios": "https://dc.lft.to/lastmile_qr_scan", "android": "https://dc.lft.to/lastmile_qr_scan"}}, {"name": "58df69b86e26d06672e5229c5019a8e9", "lon": -77.09255666666667, "lat": 38.94161783333333, "type": "electric_scooter", "fusion_lon": 0.0, "is_reserved": 0, "bike_id": "58df69b86e26d06672e5229c5019a8e9", "fusion_lat": 0.0, "is_disabled": 0, "rental_uris": {"ios": "https://dc.lft.to/lastmile_qr_scan", "android": "https://dc.lft.to/lastmile_qr_scan"}}, {"name": "72b332046293470e693a2bd99d56a8e9", "lon": -77.03124016666666, "lat": 38.9155945, "type": "electric_scooter", "fusion_lon": 0.0, "is_reserved": 0, "bike_id": "72b332046293470e693a2bd99d56a8e9", "fusion_lat": 0.0, "is_disabled": 0, "rental_uris": {"ios": "https://dc.lft.to/lastmile_qr_scan", "android": "https://dc.lft.to/lastmile_qr_scan"}}, {"name": "9f7bec4752c6f1ebcd60466d8f66937a", "lon": -77.0268695, "lat": 38.90240933333333, "type": "electric_scooter", "fusion_lon": 0.0, "is_reserved": 0, "bike_id": "9f7bec4752c6f1ebcd60466d8f66937a", "fusion_lat": 0.0, "is_disabled": 0, "rental_uris": {"ios": "https://dc.lft.to/lastmile_qr_scan", "android": "https://dc.lft.to/lastmile_qr_scan"}}, {"name": "a70a99d5935af36d35328e553daa378a", "lon": -76.9758355, "lat": 38.84031383333333, "type": "electric_bike", "fusion_lon": 0.0, "is_reserved": 0, "bike_id": "a70a99d5935af36d35328e553daa378a", "fusion_lat": 0.0, "is_disabled": 0, "rental_uris": {"ios": "https://dc.lft.to/lastmile_qr_scan", "android": "https://dc.lft.to/lastmile_qr_scan"}}, {"name": "ac0f766d930590e4cc0f71f8ab06f29c", "lon": -77.03732416666666, "lat": 38.935737333333336, "type": "electric_scooter", "fusion_lon": 0.0, "is_reserved": 0, "bike_id": "ac0f766d930590e4cc0f71f8ab06f29c", "fusion_lat": 0.0, "is_disabled": 0, "rental_uris": {"ios": "https://dc.lft.to/lastmile_qr_scan", "android": "https://dc.lft.to/lastmile_qr_scan"}}, {"name": "979a45f67fb66020ea2e92f077893b55", "lon": -77.04908066666667, "lat": 38.90082316666667, "type": "electric_scooter", "fusion_lon": 0.0, "is_reserved": 0, "bike_id": "979a45f67fb66020ea2e92f077893b55", "fusion_lat": 0.0, "is_disabled": 0, "rental_uris": {"ios": "https://dc.lft.to/lastmile_qr_scan", "android": "https://dc.lft.to/lastmile_qr_scan"}}, {"name": "5176b5bf4ccb6216b25fdc4a4990aefa", "lon": -77.04939133333333, "lat": 38.9097745, "type": "electric_scooter", "fusion_lon": 0.0, "is_reserved": 0, "bike_id": "5176b5bf4ccb6216b25fdc4a4990aefa", "fusion_lat": 0.0, "is_disabled": 0, "rental_uris": {"ios": "https://dc.lft.to/lastmile_qr_scan", "android": "https://dc.lft.to/lastmile_qr_scan"}}, {"name": "abfd07c5ce95baddcdc8cc17be3ef05a", "lon": -77.005066, "lat": 38.916915833333334, "type": "electric_scooter", "fusion_lon": 0.0, "is_reserved": 0, "bike_id": "abfd07c5ce95baddcdc8cc17be3ef05a", "fusion_lat": 0.0, "is_disabled": 0, "rental_uris": {"ios": "https://dc.lft.to/lastmile_qr_scan", "android": "https://dc.lft.to/lastmile_qr_scan"}}, {"name": "82a02f45dff9fb09199f3409409a6d4a", "lon": -77.03274, "lat": 38.916261666666664, "type": "electric_scooter", "fusion_lon": 0.0, "is_reserved": 0, "bike_id": "82a02f45dff9fb09199f3409409a6d4a", "fusion_lat": 0.0, "is_disabled": 0, "rental_uris": {"ios": "https://dc.lft.to/lastmile_qr_scan", "android": "https://dc.lft.to/lastmile_qr_scan"}}, {"name": "b999ff0ae1b3d85c8e17921544ea9b25", "lon": -77.02225883333334, "lat": 38.9569145, "type": "electric_bike", "fusion_lon": 0.0, "is_reserved": 0, "bike_id": "b999ff0ae1b3d85c8e17921544ea9b25", "fusion_lat": 0.0, "is_disabled": 0, "rental_uris": {"ios": "https://dc.lft.to/lastmile_qr_scan", "android": "https://dc.lft.to/lastmile_qr_scan"}}, {"name": "76041b32d717ebdeb635f0092f00c372", "lon": -77.02506416666667, "lat": 38.92072266666667, "type": "electric_scooter", "fusion_lon": 0.0, "is_reserved": 0, "bike_id": "76041b32d717ebdeb635f0092f00c372", "fusion_lat": 0.0, "is_disabled": 0, "rental_uris": {"ios": "https://dc.lft.to/lastmile_qr_scan", "android": "https://dc.lft.to/lastmile_qr_scan"}}, {"name": "31eb53b67bcf4ebd385f3d123dac193d", "lon": -77.04599466666667, "lat": 38.9170035, "type": "electric_scooter", "fusion_lon": 0.0, "is_reserved": 0, "bike_id": "31eb53b67bcf4ebd385f3d123dac193d", "fusion_lat": 0.0, "is_disabled": 0, "rental_uris": {"ios": "https://dc.lft.to/lastmile_qr_scan", "android": "https://dc.lft.to/lastmile_qr_scan"}}, {"name": "99668d2b3ad96e542769632a340cd3f9", "lon": -77.09524966666666, "lat": 38.83815083333333, "type": "electric_bike", "fusion_lon": 0.0, "is_reserved": 0, "bike_id": "99668d2b3ad96e542769632a340cd3f9", "fusion_lat": 0.0, "is_disabled": 0, "rental_uris": {"ios": "https://dc.lft.to/lastmile_qr_scan", "android": "https://dc.lft.to/lastmile_qr_scan"}}, {"name": "cf46f366c78a87a65bd724f989f515e3", "lon": -76.99413516666667, "lat": 38.9211195, "type": "electric_scooter", "fusion_lon": 0.0, "is_reserved": 0, "bike_id": "cf46f366c78a87a65bd724f989f515e3", "fusion_lat": 0.0, "is_disabled": 0, "rental_uris": {"ios": "https://dc.lft.to/lastmile_qr_scan", "android": "https://dc.lft.to/lastmile_qr_scan"}}, {"name": "afc15a85978391deac96f8970b07090d", "lon": -77.00238816666666, "lat": 38.9571775, "type": "electric_scooter", "fusion_lon": 0.0, "is_reserved": 0, "bike_id": "afc15a85978391deac96f8970b07090d", "fusion_lat": 0.0, "is_disabled": 0, "rental_uris": {"ios": "https://dc.lft.to/lastmile_qr_scan", "android": "https://dc.lft.to/lastmile_qr_scan"}}, {"name": "2a501dbd0dd2717add41cb6ada63e0b8", "lon": -77.01088316666667, "lat": 38.89514633333334, "type": "electric_scooter", "fusion_lon": 0.0, "is_reserved": 0, "bike_id": "2a501dbd0dd2717add41cb6ada63e0b8", "fusion_lat": 0.0, "is_disabled": 0, "rental_uris": {"ios": "https://dc.lft.to/lastmile_qr_scan", "android": "https://dc.lft.to/lastmile_qr_scan"}}, {"name": "8d60e8adc5a5d1140b382bb512bac5d1", "lon": -77.04004833333333, "lat": 38.912651833333335, "type": "electric_scooter", "fusion_lon": 0.0, "is_reserved": 0, "bike_id": "8d60e8adc5a5d1140b382bb512bac5d1", "fusion_lat": 0.0, "is_disabled": 0, "rental_uris": {"ios": "https://dc.lft.to/lastmile_qr_scan", "android": "https://dc.lft.to/lastmile_qr_scan"}}, {"name": "cd86782d9a85628f515bd753f1b00070", "lon": -77.03206333333333, "lat": 38.914244333333336, "type": "electric_scooter", "fusion_lon": 0.0, "is_reserved": 0, "bike_id": "cd86782d9a85628f515bd753f1b00070", "fusion_lat": 0.0, "is_disabled": 0, "rental_uris": {"ios": "https://dc.lft.to/lastmile_qr_scan", "android": "https://dc.lft.to/lastmile_qr_scan"}}, {"name": "a43489ac214735e1bdde2e48f459f9e2", "lon": -77.03859816666667, "lat": 38.90784716666667, "type": "electric_scooter", "fusion_lon": 0.0, "is_reserved": 0, "bike_id": "a43489ac214735e1bdde2e48f459f9e2", "fusion_lat": 0.0, "is_disabled": 0, "rental_uris": {"ios": "https://dc.lft.to/lastmile_qr_scan", "android": "https://dc.lft.to/lastmile_qr_scan"}}, {"name": "8c989dccb2b1ead8a0615cd5bdf655f2", "lon": -77.03859666666666, "lat": 38.915538833333336, "type": "electric_scooter", "fusion_lon": 0.0, "is_reserved": 0, "bike_id": "8c989dccb2b1ead8a0615cd5bdf655f2", "fusion_lat": 0.0, "is_disabled": 0, "rental_uris": {"ios": "https://dc.lft.to/lastmile_qr_scan", "android": "https://dc.lft.to/lastmile_qr_scan"}}, {"name": "de741f3c9247dbe2ba9b0e1feefa1641", "lon": -77.031, "lat": 38.92858866666667, "type": "electric_scooter", "fusion_lon": 0.0, "is_reserved": 0, "bike_id": "de741f3c9247dbe2ba9b0e1feefa1641", "fusion_lat": 0.0, "is_disabled": 0, "rental_uris": {"ios": "https://dc.lft.to/lastmile_qr_scan", "android": "https://dc.lft.to/lastmile_qr_scan"}}, {"name": "c53634072b6628b620e6580b40077c30", "lon": -76.9962255, "lat": 38.900371666666665, "type": "electric_scooter", "fusion_lon": 0.0, "is_reserved": 0, "bike_id": "c53634072b6628b620e6580b40077c30", "fusion_lat": 0.0, "is_disabled": 0, "rental_uris": {"ios": "https://dc.lft.to/lastmile_qr_scan", "android": "https://dc.lft.to/lastmile_qr_scan"}}, {"name": "2980b7cca2d10be925560758faf030e1", "lon": -76.97558033333334, "lat": 38.924604, "type": "electric_bike", "fusion_lon": 0.0, "is_reserved": 0, "bike_id": "2980b7cca2d10be925560758faf030e1", "fusion_lat": 0.0, "is_disabled": 0, "rental_uris": {"ios": "https://dc.lft.to/lastmile_qr_scan", "android": "https://dc.lft.to/lastmile_qr_scan"}}, {"name": "4661241c843beef5706e1fa1c4b6cf5d", "lon": -77.0249655, "lat": 38.906378833333335, "type": "electric_scooter", "fusion_lon": 0.0, "is_reserved": 0, "bike_id": "4661241c843beef5706e1fa1c4b6cf5d", "fusion_lat": 0.0, "is_disabled": 0, "rental_uris": {"ios": "https://dc.lft.to/lastmile_qr_scan", "android": "https://dc.lft.to/lastmile_qr_scan"}}, {"name": "7773e4ac302ddf29717b7905161294ad", "lon": -77.02181766666666, "lat": 38.924994166666664, "type": "electric_scooter", "fusion_lon": 0.0, "is_reserved": 0, "bike_id": "7773e4ac302ddf29717b7905161294ad", "fusion_lat": 0.0, "is_disabled": 0, "rental_uris": {"ios": "https://dc.lft.to/lastmile_qr_scan", "android": "https://dc.lft.to/lastmile_qr_scan"}}, {"name": "a74ed16eb77aa6f5c44fa7c18284296b", "lon": -77.04834366666667, "lat": 38.9111465, "type": "electric_scooter", "fusion_lon": 0.0, "is_reserved": 0, "bike_id": "a74ed16eb77aa6f5c44fa7c18284296b", "fusion_lat": 0.0, "is_disabled": 0, "rental_uris": {"ios": "https://dc.lft.to/lastmile_qr_scan", "android": "https://dc.lft.to/lastmile_qr_scan"}}, {"name": "cc8a0a1797d1f35f374d1d69fbb19638", "lon": -77.0428965, "lat": 38.905755166666665, "type": "electric_scooter", "fusion_lon": 0.0, "is_reserved": 0, "bike_id": "cc8a0a1797d1f35f374d1d69fbb19638", "fusion_lat": 0.0, "is_disabled": 0, "rental_uris": {"ios": "https://dc.lft.to/lastmile_qr_scan", "android": "https://dc.lft.to/lastmile_qr_scan"}}, {"name": "59019a3f54bbba415d599109dc4e9033", "lon": -77.227994, "lat": 38.910166833333335, "type": "electric_bike", "fusion_lon": 0.0, "is_reserved": 0, "bike_id": "59019a3f54bbba415d599109dc4e9033", "fusion_lat": 0.0, "is_disabled": 0, "rental_uris": {"ios": "https://dc.lft.to/lastmile_qr_scan", "android": "https://dc.lft.to/lastmile_qr_scan"}}, {"name": "d34aef1b16e07322d79f192dc345ef03", "lon": -77.00200533333333, "lat": 38.9023765, "type": "electric_scooter", "fusion_lon": 0.0, "is_reserved": 0, "bike_id": "d34aef1b16e07322d79f192dc345ef03", "fusion_lat": 0.0, "is_disabled": 0, "rental_uris": {"ios": "https://dc.lft.to/lastmile_qr_scan", "android": "https://dc.lft.to/lastmile_qr_scan"}}, {"name": "a3e2165594b31e3a8a6afa742486e8c9", "lon": -77.04560366666666, "lat": 38.924185666666666, "type": "electric_scooter", "fusion_lon": 0.0, "is_reserved": 0, "bike_id": "a3e2165594b31e3a8a6afa742486e8c9", "fusion_lat": 0.0, "is_disabled": 0, "rental_uris": {"ios": "https://dc.lft.to/lastmile_qr_scan", "android": "https://dc.lft.to/lastmile_qr_scan"}}, {"name": "7087547aacda92f0631a211037919bb9", "lon": -77.03617633333333, "lat": 38.9068345, "type": "electric_scooter", "fusion_lon": 0.0, "is_reserved": 0, "bike_id": "7087547aacda92f0631a211037919bb9", "fusion_lat": 0.0, "is_disabled": 0, "rental_uris": {"ios": "https://dc.lft.to/lastmile_qr_scan", "android": "https://dc.lft.to/lastmile_qr_scan"}}, {"name": "2ab600b3f132119baf13621613850ff0", "lon": -77.04116583333334, "lat": 38.91065866666667, "type": "electric_scooter", "fusion_lon": 0.0, "is_reserved": 0, "bike_id": "2ab600b3f132119baf13621613850ff0", "fusion_lat": 0.0, "is_disabled": 0, "rental_uris": {"ios": "https://dc.lft.to/lastmile_qr_scan", "android": "https://dc.lft.to/lastmile_qr_scan"}}, {"name": "e1cfdd4aa4115789d45334727329e4ba", "lon": -77.01738866666666, "lat": 38.9037195, "type": "electric_scooter", "fusion_lon": 0.0, "is_reserved": 0, "bike_id": "e1cfdd4aa4115789d45334727329e4ba", "fusion_lat": 0.0, "is_disabled": 0, "rental_uris": {"ios": "https://dc.lft.to/lastmile_qr_scan", "android": "https://dc.lft.to/lastmile_qr_scan"}}, {"name": "5c4c32cf5fa50ebea1d91e2856619ab8", "lon": -77.01415716666666, "lat": 38.906594166666665, "type": "electric_scooter", "fusion_lon": 0.0, "is_reserved": 0, "bike_id": "5c4c32cf5fa50ebea1d91e2856619ab8", "fusion_lat": 0.0, "is_disabled": 0, "rental_uris": {"ios": "https://dc.lft.to/lastmile_qr_scan", "android": "https://dc.lft.to/lastmile_qr_scan"}}, {"name": "3286c4e33acbb93b085b6e19bdf94a9c", "lon": -77.03403, "lat": 38.928680166666666, "type": "electric_scooter", "fusion_lon": 0.0, "is_reserved": 0, "bike_id": "3286c4e33acbb93b085b6e19bdf94a9c", "fusion_lat": 0.0, "is_disabled": 0, "rental_uris": {"ios": "https://dc.lft.to/lastmile_qr_scan", "android": "https://dc.lft.to/lastmile_qr_scan"}}, {"name": "1225b67ac9d119d99064179b188ab395", "lon": -77.0239065, "lat": 38.919629666666665, "type": "electric_scooter", "fusion_lon": 0.0, "is_reserved": 0, "bike_id": "1225b67ac9d119d99064179b188ab395", "fusion_lat": 0.0, "is_disabled": 0, "rental_uris": {"ios": "https://dc.lft.to/lastmile_qr_scan", "android": "https://dc.lft.to/lastmile_qr_scan"}}, {"name": "52d9759e9423192e6b272a11c1aa3e00", "lon": -77.01759083333333, "lat": 38.876909833333336, "type": "electric_scooter", "fusion_lon": 0.0, "is_reserved": 0, "bike_id": "52d9759e9423192e6b272a11c1aa3e00", "fusion_lat": 0.0, "is_disabled": 0, "rental_uris": {"ios": "https://dc.lft.to/lastmile_qr_scan", "android": "https://dc.lft.to/lastmile_qr_scan"}}, {"name": "0ba4541278b47d004056069c839ae8ba", "lon": -77.02863166666667, "lat": 38.99904516666667, "type": "electric_bike", "fusion_lon": 0.0, "is_reserved": 0, "bike_id": "0ba4541278b47d004056069c839ae8ba", "fusion_lat": 0.0, "is_disabled": 0, "rental_uris": {"ios": "https://dc.lft.to/lastmile_qr_scan", "android": "https://dc.lft.to/lastmile_qr_scan"}}, {"name": "642c9ee1a98f17b0960f8f35268915bb", "lon": -76.95652733333333, "lat": 38.8961365, "type": "electric_scooter", "fusion_lon": 0.0, "is_reserved": 0, "bike_id": "642c9ee1a98f17b0960f8f35268915bb", "fusion_lat": 0.0, "is_disabled": 0, "rental_uris": {"ios": "https://dc.lft.to/lastmile_qr_scan", "android": "https://dc.lft.to/lastmile_qr_scan"}}, {"name": "02ecac1b7f251553e81bfe143279afa2", "lon": -77.04652883333333, "lat": 39.05499416666667, "type": "electric_bike", "fusion_lon": 0.0, "is_reserved": 0, "bike_id": "02ecac1b7f251553e81bfe143279afa2", "fusion_lat": 0.0, "is_disabled": 0, "rental_uris": {"ios": "https://dc.lft.to/lastmile_qr_scan", "android": "https://dc.lft.to/lastmile_qr_scan"}}, {"name": "5a78a7bb7a76488d0f03f325eaed3dee", "lon": -77.04733616666667, "lat": 38.913380833333335, "type": "electric_scooter", "fusion_lon": 0.0, "is_reserved": 0, "bike_id": "5a78a7bb7a76488d0f03f325eaed3dee", "fusion_lat": 0.0, "is_disabled": 0, "rental_uris": {"ios": "https://dc.lft.to/lastmile_qr_scan", "android": "https://dc.lft.to/lastmile_qr_scan"}}, {"name": "b57fc59cec133477dcfd18d42e4977ce", "lon": -77.01739483333333, "lat": 38.90373866666667, "type": "electric_scooter", "fusion_lon": 0.0, "is_reserved": 0, "bike_id": "b57fc59cec133477dcfd18d42e4977ce", "fusion_lat": 0.0, "is_disabled": 0, "rental_uris": {"ios": "https://dc.lft.to/lastmile_qr_scan", "android": "https://dc.lft.to/lastmile_qr_scan"}}, {"name": "908c34fb335194c40d79d044158557c2", "lon": -77.00986683333333, "lat": 38.87291916666667, "type": "electric_scooter", "fusion_lon": 0.0, "is_reserved": 0, "bike_id": "908c34fb335194c40d79d044158557c2", "fusion_lat": 0.0, "is_disabled": 0, "rental_uris": {"ios": "https://dc.lft.to/lastmile_qr_scan", "android": "https://dc.lft.to/lastmile_qr_scan"}}, {"name": "d229c3959ea526e24eaf0980cf149b4c", "lon": -77.03422566666667, "lat": 38.912561333333336, "type": "electric_scooter", "fusion_lon": 0.0, "is_reserved": 0, "bike_id": "d229c3959ea526e24eaf0980cf149b4c", "fusion_lat": 0.0, "is_disabled": 0, "rental_uris": {"ios": "https://dc.lft.to/lastmile_qr_scan", "android": "https://dc.lft.to/lastmile_qr_scan"}}, {"name": "d0975d8b5380f7a68463fc62fdf2e972", "lon": -77.07325133333333, "lat": 38.927285166666664, "type": "electric_bike", "fusion_lon": 0.0, "is_reserved": 0, "bike_id": "d0975d8b5380f7a68463fc62fdf2e972", "fusion_lat": 0.0, "is_disabled": 0, "rental_uris": {"ios": "https://dc.lft.to/lastmile_qr_scan", "android": "https://dc.lft.to/lastmile_qr_scan"}}, {"name": "215e7d6f7714dd114e70978896d7117d", "lon": -76.973482, "lat": 38.849668666666666, "type": "electric_scooter", "fusion_lon": 0.0, "is_reserved": 0, "bike_id": "215e7d6f7714dd114e70978896d7117d", "fusion_lat": 0.0, "is_disabled": 0, "rental_uris": {"ios": "https://dc.lft.to/lastmile_qr_scan", "android": "https://dc.lft.to/lastmile_qr_scan"}}, {"name": "8fb0ef9b8ba15682bae3f054dc0667a4", "lon": -77.03864666666666, "lat": 38.915518166666665, "type": "electric_scooter", "fusion_lon": 0.0, "is_reserved": 0, "bike_id": "8fb0ef9b8ba15682bae3f054dc0667a4", "fusion_lat": 0.0, "is_disabled": 0, "rental_uris": {"ios": "https://dc.lft.to/lastmile_qr_scan", "android": "https://dc.lft.to/lastmile_qr_scan"}}, {"name": "32281871ee8ff434c06e619032c45704", "lon": -77.03083766666667, "lat": 38.90439, "type": "electric_scooter", "fusion_lon": 0.0, "is_reserved": 0, "bike_id": "32281871ee8ff434c06e619032c45704", "fusion_lat": 0.0, "is_disabled": 0, "rental_uris": {"ios": "https://dc.lft.to/lastmile_qr_scan", "android": "https://dc.lft.to/lastmile_qr_scan"}}, {"name": "00e18b8fc28cdfc5ca9307f49ebadb7f", "lon": -77.031705, "lat": 38.9077405, "type": "electric_scooter", "fusion_lon": 0.0, "is_reserved": 0, "bike_id": "00e18b8fc28cdfc5ca9307f49ebadb7f", "fusion_lat": 0.0, "is_disabled": 0, "rental_uris": {"ios": "https://dc.lft.to/lastmile_qr_scan", "android": "https://dc.lft.to/lastmile_qr_scan"}}, {"name": "5956c88d1f1bdbb6637de9e910c70732", "lon": -76.9987175, "lat": 38.90029466666667, "type": "electric_scooter", "fusion_lon": 0.0, "is_reserved": 0, "bike_id": "5956c88d1f1bdbb6637de9e910c70732", "fusion_lat": 0.0, "is_disabled": 0, "rental_uris": {"ios": "https://dc.lft.to/lastmile_qr_scan", "android": "https://dc.lft.to/lastmile_qr_scan"}}, {"name": "bcc2741e5b68b7937f1a9139e9687f6c", "lon": -76.98559633333333, "lat": 38.899465166666666, "type": "electric_scooter", "fusion_lon": 0.0, "is_reserved": 0, "bike_id": "bcc2741e5b68b7937f1a9139e9687f6c", "fusion_lat": 0.0, "is_disabled": 0, "rental_uris": {"ios": "https://dc.lft.to/lastmile_qr_scan", "android": "https://dc.lft.to/lastmile_qr_scan"}}, {"name": "f8bb7aa05daa14427ee0dfaa3104ae0c", "lon": -77.02440383333334, "lat": 38.9028285, "type": "electric_scooter", "fusion_lon": 0.0, "is_reserved": 0, "bike_id": "f8bb7aa05daa14427ee0dfaa3104ae0c", "fusion_lat": 0.0, "is_disabled": 0, "rental_uris": {"ios": "https://dc.lft.to/lastmile_qr_scan", "android": "https://dc.lft.to/lastmile_qr_scan"}}, {"name": "1aaca81ef5676611b789176a0df2284f", "lon": -77.03249866666667, "lat": 38.9059305, "type": "electric_scooter", "fusion_lon": 0.0, "is_reserved": 0, "bike_id": "1aaca81ef5676611b789176a0df2284f", "fusion_lat": 0.0, "is_disabled": 0, "rental_uris": {"ios": "https://dc.lft.to/lastmile_qr_scan", "android": "https://dc.lft.to/lastmile_qr_scan"}}, {"name": "5623b95d3210407520494bd7a6672253", "lon": -77.03207833333333, "lat": 38.895874166666665, "type": "electric_scooter", "fusion_lon": 0.0, "is_reserved": 0, "bike_id": "5623b95d3210407520494bd7a6672253", "fusion_lat": 0.0, "is_disabled": 0, "rental_uris": {"ios": "https://dc.lft.to/lastmile_qr_scan", "android": "https://dc.lft.to/lastmile_qr_scan"}}, {"name": "4b016967870a32aa36dc7a3d2107279c", "lon": -77.05858816666667, "lat": 38.936072, "type": "electric_scooter", "fusion_lon": 0.0, "is_reserved": 0, "bike_id": "4b016967870a32aa36dc7a3d2107279c", "fusion_lat": 0.0, "is_disabled": 0, "rental_uris": {"ios": "https://dc.lft.to/lastmile_qr_scan", "android": "https://dc.lft.to/lastmile_qr_scan"}}, {"name": "7b55542f013b8c7734a8523f99c076c0", "lon": -77.005968, "lat": 38.87545466666667, "type": "electric_scooter", "fusion_lon": 0.0, "is_reserved": 0, "bike_id": "7b55542f013b8c7734a8523f99c076c0", "fusion_lat": 0.0, "is_disabled": 0, "rental_uris": {"ios": "https://dc.lft.to/lastmile_qr_scan", "android": "https://dc.lft.to/lastmile_qr_scan"}}, {"name": "6895a5b42749e1449cb6a98acb321258", "lon": -77.01297, "lat": 38.900699833333334, "type": "electric_scooter", "fusion_lon": 0.0, "is_reserved": 0, "bike_id": "6895a5b42749e1449cb6a98acb321258", "fusion_lat": 0.0, "is_disabled": 0, "rental_uris": {"ios": "https://dc.lft.to/lastmile_qr_scan", "android": "https://dc.lft.to/lastmile_qr_scan"}}, {"name": "895c2712c19c8504abe5c2d809772d33", "lon": -76.99350283333334, "lat": 38.914845, "type": "electric_scooter", "fusion_lon": 0.0, "is_reserved": 0, "bike_id": "895c2712c19c8504abe5c2d809772d33", "fusion_lat": 0.0, "is_disabled": 0, "rental_uris": {"ios": "https://dc.lft.to/lastmile_qr_scan", "android": "https://dc.lft.to/lastmile_qr_scan"}}, {"name": "fb6834eb0f60d143af07bcf52e56779f", "lon": -77.03261633333334, "lat": 38.938806166666666, "type": "electric_scooter", "fusion_lon": 0.0, "is_reserved": 0, "bike_id": "fb6834eb0f60d143af07bcf52e56779f", "fusion_lat": 0.0, "is_disabled": 0, "rental_uris": {"ios": "https://dc.lft.to/lastmile_qr_scan", "android": "https://dc.lft.to/lastmile_qr_scan"}}, {"name": "998faa8efa23844de8ec268f963fddf5", "lon": -77.05252083333333, "lat": 38.92380033333333, "type": "electric_scooter", "fusion_lon": 0.0, "is_reserved": 0, "bike_id": "998faa8efa23844de8ec268f963fddf5", "fusion_lat": 0.0, "is_disabled": 0, "rental_uris": {"ios": "https://dc.lft.to/lastmile_qr_scan", "android": "https://dc.lft.to/lastmile_qr_scan"}}, {"name": "524989662d064891e6ed31c4a7d204b0", "lon": -77.04123933333334, "lat": 38.916352833333335, "type": "electric_scooter", "fusion_lon": 0.0, "is_reserved": 0, "bike_id": "524989662d064891e6ed31c4a7d204b0", "fusion_lat": 0.0, "is_disabled": 0, "rental_uris": {"ios": "https://dc.lft.to/lastmile_qr_scan", "android": "https://dc.lft.to/lastmile_qr_scan"}}, {"name": "31e014a9e0610c6f12ad43555280b70b", "lon": -77.075805, "lat": 38.93863283333334, "type": "electric_scooter", "fusion_lon": 0.0, "is_reserved": 0, "bike_id": "31e014a9e0610c6f12ad43555280b70b", "fusion_lat": 0.0, "is_disabled": 0, "rental_uris": {"ios": "https://dc.lft.to/lastmile_qr_scan", "android": "https://dc.lft.to/lastmile_qr_scan"}}, {"name": "7640cf038efe11b37f9673eb2a055f9d", "lon": -77.03705433333333, "lat": 38.92775183333333, "type": "electric_scooter", "fusion_lon": 0.0, "is_reserved": 0, "bike_id": "7640cf038efe11b37f9673eb2a055f9d", "fusion_lat": 0.0, "is_disabled": 0, "rental_uris": {"ios": "https://dc.lft.to/lastmile_qr_scan", "android": "https://dc.lft.to/lastmile_qr_scan"}}, {"name": "dcf2329428dfd7564d4e7ee7843dc2af", "lon": -76.98885116666666, "lat": 38.904779, "type": "electric_scooter", "fusion_lon": 0.0, "is_reserved": 0, "bike_id": "dcf2329428dfd7564d4e7ee7843dc2af", "fusion_lat": 0.0, "is_disabled": 0, "rental_uris": {"ios": "https://dc.lft.to/lastmile_qr_scan", "android": "https://dc.lft.to/lastmile_qr_scan"}}, {"name": "63bc498ff76cc23fd0237607a130c099", "lon": -76.98105, "lat": 38.8773155, "type": "electric_bike", "fusion_lon": 0.0, "is_reserved": 0, "bike_id": "63bc498ff76cc23fd0237607a130c099", "fusion_lat": 0.0, "is_disabled": 0, "rental_uris": {"ios": "https://dc.lft.to/lastmile_qr_scan", "android": "https://dc.lft.to/lastmile_qr_scan"}}, {"name": "eac01b2d275e3159ef710a37f5f9e118", "lon": -77.02720466666666, "lat": 38.949553, "type": "electric_scooter", "fusion_lon": 0.0, "is_reserved": 0, "bike_id": "eac01b2d275e3159ef710a37f5f9e118", "fusion_lat": 0.0, "is_disabled": 0, "rental_uris": {"ios": "https://dc.lft.to/lastmile_qr_scan", "android": "https://dc.lft.to/lastmile_qr_scan"}}, {"name": "baefcc33b173c86c7eb0655e00f0e4f5", "lon": -77.0159585, "lat": 38.949383833333336, "type": "electric_scooter", "fusion_lon": 0.0, "is_reserved": 0, "bike_id": "baefcc33b173c86c7eb0655e00f0e4f5", "fusion_lat": 0.0, "is_disabled": 0, "rental_uris": {"ios": "https://dc.lft.to/lastmile_qr_scan", "android": "https://dc.lft.to/lastmile_qr_scan"}}, {"name": "131ae1d57219746c64fadbe32a350477", "lon": -77.02385683333334, "lat": 38.908466, "type": "electric_scooter", "fusion_lon": 0.0, "is_reserved": 0, "bike_id": "131ae1d57219746c64fadbe32a350477", "fusion_lat": 0.0, "is_disabled": 0, "rental_uris": {"ios": "https://dc.lft.to/lastmile_qr_scan", "android": "https://dc.lft.to/lastmile_qr_scan"}}, {"name": "6f0dba3bbb561d14c32bc74cac79733b", "lon": -77.03798816666666, "lat": 38.925064666666664, "type": "electric_scooter", "fusion_lon": 0.0, "is_reserved": 0, "bike_id": "6f0dba3bbb561d14c32bc74cac79733b", "fusion_lat": 0.0, "is_disabled": 0, "rental_uris": {"ios": "https://dc.lft.to/lastmile_qr_scan", "android": "https://dc.lft.to/lastmile_qr_scan"}}, {"name": "a7aad1a850115a1b3efac15b0ca09850", "lon": -76.972343, "lat": 38.854565666666666, "type": "electric_bike", "fusion_lon": 0.0, "is_reserved": 0, "bike_id": "a7aad1a850115a1b3efac15b0ca09850", "fusion_lat": 0.0, "is_disabled": 0, "rental_uris": {"ios": "https://dc.lft.to/lastmile_qr_scan", "android": "https://dc.lft.to/lastmile_qr_scan"}}, {"name": "3af35b9e85460321e0b5d026324062f4", "lon": -77.0532045, "lat": 38.92798283333333, "type": "electric_scooter", "fusion_lon": 0.0, "is_reserved": 0, "bike_id": "3af35b9e85460321e0b5d026324062f4", "fusion_lat": 0.0, "is_disabled": 0, "rental_uris": {"ios": "https://dc.lft.to/lastmile_qr_scan", "android": "https://dc.lft.to/lastmile_qr_scan"}}, {"name": "ac3253a8e75b3700f25f621b67bd5f63", "lon": -77.00775066666667, "lat": 38.92666366666667, "type": "electric_scooter", "fusion_lon": 0.0, "is_reserved": 0, "bike_id": "ac3253a8e75b3700f25f621b67bd5f63", "fusion_lat": 0.0, "is_disabled": 0, "rental_uris": {"ios": "https://dc.lft.to/lastmile_qr_scan", "android": "https://dc.lft.to/lastmile_qr_scan"}}, {"name": "4e136044cf5cae5ebce200b754d8b438", "lon": -76.9852495, "lat": 38.86658033333333, "type": "electric_scooter", "fusion_lon": 0.0, "is_reserved": 0, "bike_id": "4e136044cf5cae5ebce200b754d8b438", "fusion_lat": 0.0, "is_disabled": 0, "rental_uris": {"ios": "https://dc.lft.to/lastmile_qr_scan", "android": "https://dc.lft.to/lastmile_qr_scan"}}, {"name": "c34433e77f75e7e24853c195e6b093bb", "lon": -77.01455116666666, "lat": 38.917736833333336, "type": "electric_scooter", "fusion_lon": 0.0, "is_reserved": 0, "bike_id": "c34433e77f75e7e24853c195e6b093bb", "fusion_lat": 0.0, "is_disabled": 0, "rental_uris": {"ios": "https://dc.lft.to/lastmile_qr_scan", "android": "https://dc.lft.to/lastmile_qr_scan"}}, {"name": "ef410ffc8a590f53199691cdcfa77cae", "lon": -77.0342405, "lat": 38.96615883333333, "type": "electric_bike", "fusion_lon": 0.0, "is_reserved": 0, "bike_id": "ef410ffc8a590f53199691cdcfa77cae", "fusion_lat": 0.0, "is_disabled": 0, "rental_uris": {"ios": "https://dc.lft.to/lastmile_qr_scan", "android": "https://dc.lft.to/lastmile_qr_scan"}}, {"name": "0e94a3b68bca68508e5dc07883e4a9fb", "lon": -77.035162, "lat": 38.9215585, "type": "electric_scooter", "fusion_lon": 0.0, "is_reserved": 0, "bike_id": "0e94a3b68bca68508e5dc07883e4a9fb", "fusion_lat": 0.0, "is_disabled": 0, "rental_uris": {"ios": "https://dc.lft.to/lastmile_qr_scan", "android": "https://dc.lft.to/lastmile_qr_scan"}}, {"name": "a448d3428aee0774265cfb8d579116f9", "lon": -77.030167, "lat": 38.90497666666667, "type": "electric_scooter", "fusion_lon": 0.0, "is_reserved": 0, "bike_id": "a448d3428aee0774265cfb8d579116f9", "fusion_lat": 0.0, "is_disabled": 0, "rental_uris": {"ios": "https://dc.lft.to/lastmile_qr_scan", "android": "https://dc.lft.to/lastmile_qr_scan"}}, {"name": "42fc1825ec0a26ef36fa3c7123b93847", "lon": -76.99413833333334, "lat": 38.92121566666667, "type": "electric_scooter", "fusion_lon": 0.0, "is_reserved": 0, "bike_id": "42fc1825ec0a26ef36fa3c7123b93847", "fusion_lat": 0.0, "is_disabled": 0, "rental_uris": {"ios": "https://dc.lft.to/lastmile_qr_scan", "android": "https://dc.lft.to/lastmile_qr_scan"}}, {"name": "f7596f14be0f28f7696d1e5b8729a262", "lon": -77.043347, "lat": 38.89524983333333, "type": "electric_scooter", "fusion_lon": 0.0, "is_reserved": 0, "bike_id": "f7596f14be0f28f7696d1e5b8729a262", "fusion_lat": 0.0, "is_disabled": 0, "rental_uris": {"ios": "https://dc.lft.to/lastmile_qr_scan", "android": "https://dc.lft.to/lastmile_qr_scan"}}, {"name": "53ad1800691d3ff026d756385602c4c1", "lon": -77.049273, "lat": 39.02934483333333, "type": "electric_bike", "fusion_lon": 0.0, "is_reserved": 0, "bike_id": "53ad1800691d3ff026d756385602c4c1", "fusion_lat": 0.0, "is_disabled": 0, "rental_uris": {"ios": "https://dc.lft.to/lastmile_qr_scan", "android": "https://dc.lft.to/lastmile_qr_scan"}}, {"name": "0ad2e0e08b291026fba4c0b72f6b7834", "lon": -77.0442065, "lat": 38.921325333333336, "type": "electric_scooter", "fusion_lon": 0.0, "is_reserved": 0, "bike_id": "0ad2e0e08b291026fba4c0b72f6b7834", "fusion_lat": 0.0, "is_disabled": 0, "rental_uris": {"ios": "https://dc.lft.to/lastmile_qr_scan", "android": "https://dc.lft.to/lastmile_qr_scan"}}, {"name": "ea86a12f54fb54fc49b296308dda117d", "lon": -77.027305, "lat": 38.91562733333333, "type": "electric_scooter", "fusion_lon": 0.0, "is_reserved": 0, "bike_id": "ea86a12f54fb54fc49b296308dda117d", "fusion_lat": 0.0, "is_disabled": 0, "rental_uris": {"ios": "https://dc.lft.to/lastmile_qr_scan", "android": "https://dc.lft.to/lastmile_qr_scan"}}, {"name": "6584170db9ca23c8b6821e689457af90", "lon": -76.99460016666667, "lat": 38.9082395, "type": "electric_scooter", "fusion_lon": 0.0, "is_reserved": 0, "bike_id": "6584170db9ca23c8b6821e689457af90", "fusion_lat": 0.0, "is_disabled": 0, "rental_uris": {"ios": "https://dc.lft.to/lastmile_qr_scan", "android": "https://dc.lft.to/lastmile_qr_scan"}}, {"name": "9fcfc6c186f2badcfe86e7cb313e2a77", "lon": -77.03029366666667, "lat": 38.931148666666665, "type": "electric_scooter", "fusion_lon": 0.0, "is_reserved": 0, "bike_id": "9fcfc6c186f2badcfe86e7cb313e2a77", "fusion_lat": 0.0, "is_disabled": 0, "rental_uris": {"ios": "https://dc.lft.to/lastmile_qr_scan", "android": "https://dc.lft.to/lastmile_qr_scan"}}, {"name": "33b9b2dd176d021698747e1fe54a6b05", "lon": -76.99802833333334, "lat": 38.9084985, "type": "electric_scooter", "fusion_lon": 0.0, "is_reserved": 0, "bike_id": "33b9b2dd176d021698747e1fe54a6b05", "fusion_lat": 0.0, "is_disabled": 0, "rental_uris": {"ios": "https://dc.lft.to/lastmile_qr_scan", "android": "https://dc.lft.to/lastmile_qr_scan"}}, {"name": "46f75d4006e99da87a06eba36a68a453", "lon": -76.981568, "lat": 38.922656333333336, "type": "electric_bike", "fusion_lon": 0.0, "is_reserved": 0, "bike_id": "46f75d4006e99da87a06eba36a68a453", "fusion_lat": 0.0, "is_disabled": 0, "rental_uris": {"ios": "https://dc.lft.to/lastmile_qr_scan", "android": "https://dc.lft.to/lastmile_qr_scan"}}, {"name": "9a7cdbb67e13e00d23c473f6fe573227", "lon": -77.0399765, "lat": 38.914168833333335, "type": "electric_scooter", "fusion_lon": 0.0, "is_reserved": 0, "bike_id": "9a7cdbb67e13e00d23c473f6fe573227", "fusion_lat": 0.0, "is_disabled": 0, "rental_uris": {"ios": "https://dc.lft.to/lastmile_qr_scan", "android": "https://dc.lft.to/lastmile_qr_scan"}}, {"name": "39cc499ddb3e94df96f6839c90c29789", "lon": -77.025246, "lat": 38.914769666666665, "type": "electric_scooter", "fusion_lon": 0.0, "is_reserved": 0, "bike_id": "39cc499ddb3e94df96f6839c90c29789", "fusion_lat": 0.0, "is_disabled": 0, "rental_uris": {"ios": "https://dc.lft.to/lastmile_qr_scan", "android": "https://dc.lft.to/lastmile_qr_scan"}}, {"name": "ab7b3fdaf093fefd4b858bef9f7e599d", "lon": -77.1207805, "lat": 38.854184333333336, "type": "electric_bike", "fusion_lon": 0.0, "is_reserved": 0, "bike_id": "ab7b3fdaf093fefd4b858bef9f7e599d", "fusion_lat": 0.0, "is_disabled": 0, "rental_uris": {"ios": "https://dc.lft.to/lastmile_qr_scan", "android": "https://dc.lft.to/lastmile_qr_scan"}}, {"name": "f1c179c440192b4f9d4676f387826f23", "lon": -77.0283385, "lat": 38.88619766666667, "type": "electric_scooter", "fusion_lon": 0.0, "is_reserved": 0, "bike_id": "f1c179c440192b4f9d4676f387826f23", "fusion_lat": 0.0, "is_disabled": 0, "rental_uris": {"ios": "https://dc.lft.to/lastmile_qr_scan", "android": "https://dc.lft.to/lastmile_qr_scan"}}, {"name": "0c81d43b8269b32ffd5e47c7566d6a72", "lon": -76.9825395, "lat": 38.904554833333336, "type": "electric_scooter", "fusion_lon": 0.0, "is_reserved": 0, "bike_id": "0c81d43b8269b32ffd5e47c7566d6a72", "fusion_lat": 0.0, "is_disabled": 0, "rental_uris": {"ios": "https://dc.lft.to/lastmile_qr_scan", "android": "https://dc.lft.to/lastmile_qr_scan"}}, {"name": "49ccd672755f8781574f8e458c46a8cb", "lon": -77.07260066666667, "lat": 38.93519916666666, "type": "electric_scooter", "fusion_lon": 0.0, "is_reserved": 0, "bike_id": "49ccd672755f8781574f8e458c46a8cb", "fusion_lat": 0.0, "is_disabled": 0, "rental_uris": {"ios": "https://dc.lft.to/lastmile_qr_scan", "android": "https://dc.lft.to/lastmile_qr_scan"}}, {"name": "21a98f74b0f49a664225de9d0452ad57", "lon": -77.006484, "lat": 38.91160466666667, "type": "electric_scooter", "fusion_lon": 0.0, "is_reserved": 0, "bike_id": "21a98f74b0f49a664225de9d0452ad57", "fusion_lat": 0.0, "is_disabled": 0, "rental_uris": {"ios": "https://dc.lft.to/lastmile_qr_scan", "android": "https://dc.lft.to/lastmile_qr_scan"}}, {"name": "3d6975d3c0effbc89b1b240412596b70", "lon": -77.06329866666667, "lat": 38.94423, "type": "electric_scooter", "fusion_lon": 0.0, "is_reserved": 0, "bike_id": "3d6975d3c0effbc89b1b240412596b70", "fusion_lat": 0.0, "is_disabled": 0, "rental_uris": {"ios": "https://dc.lft.to/lastmile_qr_scan", "android": "https://dc.lft.to/lastmile_qr_scan"}}, {"name": "31f7ab74d3851379ffd2f5c40a3cbf3c", "lon": -77.0182295, "lat": 38.922198, "type": "electric_scooter", "fusion_lon": 0.0, "is_reserved": 0, "bike_id": "31f7ab74d3851379ffd2f5c40a3cbf3c", "fusion_lat": 0.0, "is_disabled": 0, "rental_uris": {"ios": "https://dc.lft.to/lastmile_qr_scan", "android": "https://dc.lft.to/lastmile_qr_scan"}}, {"name": "5be1f9e3551797d4cd29b61a74adaaec", "lon": -77.03866416666666, "lat": 38.915517, "type": "electric_scooter", "fusion_lon": 0.0, "is_reserved": 0, "bike_id": "5be1f9e3551797d4cd29b61a74adaaec", "fusion_lat": 0.0, "is_disabled": 0, "rental_uris": {"ios": "https://dc.lft.to/lastmile_qr_scan", "android": "https://dc.lft.to/lastmile_qr_scan"}}, {"name": "40f259e9302934010179c07bc246e208", "lon": -76.99026066666667, "lat": 38.902921, "type": "electric_scooter", "fusion_lon": 0.0, "is_reserved": 0, "bike_id": "40f259e9302934010179c07bc246e208", "fusion_lat": 0.0, "is_disabled": 0, "rental_uris": {"ios": "https://dc.lft.to/lastmile_qr_scan", "android": "https://dc.lft.to/lastmile_qr_scan"}}, {"name": "0b42f9242a5e24987c18339c11c0ecef", "lon": -77.02683566666667, "lat": 38.89609383333333, "type": "electric_scooter", "fusion_lon": 0.0, "is_reserved": 0, "bike_id": "0b42f9242a5e24987c18339c11c0ecef", "fusion_lat": 0.0, "is_disabled": 0, "rental_uris": {"ios": "https://dc.lft.to/lastmile_qr_scan", "android": "https://dc.lft.to/lastmile_qr_scan"}}, {"name": "7021542ebbc23896d6c32956b8e3e041", "lon": -77.03441466666666, "lat": 38.91014716666667, "type": "electric_scooter", "fusion_lon": 0.0, "is_reserved": 0, "bike_id": "7021542ebbc23896d6c32956b8e3e041", "fusion_lat": 0.0, "is_disabled": 0, "rental_uris": {"ios": "https://dc.lft.to/lastmile_qr_scan", "android": "https://dc.lft.to/lastmile_qr_scan"}}, {"name": "c1cedc4f64bb611dc7e9e8e34de057b4", "lon": -77.0239265, "lat": 38.9165915, "type": "electric_scooter", "fusion_lon": 0.0, "is_reserved": 0, "bike_id": "c1cedc4f64bb611dc7e9e8e34de057b4", "fusion_lat": 0.0, "is_disabled": 0, "rental_uris": {"ios": "https://dc.lft.to/lastmile_qr_scan", "android": "https://dc.lft.to/lastmile_qr_scan"}}, {"name": "2fce042a1b8659d43e12fc048219ae0f", "lon": -77.03709583333334, "lat": 38.9204055, "type": "electric_bike", "fusion_lon": 0.0, "is_reserved": 0, "bike_id": "2fce042a1b8659d43e12fc048219ae0f", "fusion_lat": 0.0, "is_disabled": 0, "rental_uris": {"ios": "https://dc.lft.to/lastmile_qr_scan", "android": "https://dc.lft.to/lastmile_qr_scan"}}, {"name": "0422c018f3e170d1b507030cc3a9988c", "lon": -77.00076283333334, "lat": 38.901506, "type": "electric_scooter", "fusion_lon": 0.0, "is_reserved": 0, "bike_id": "0422c018f3e170d1b507030cc3a9988c", "fusion_lat": 0.0, "is_disabled": 0, "rental_uris": {"ios": "https://dc.lft.to/lastmile_qr_scan", "android": "https://dc.lft.to/lastmile_qr_scan"}}, {"name": "e9c274eb410299a8e235d77a05c3ed4d", "lon": -77.02964716666666, "lat": 38.93981516666667, "type": "electric_scooter", "fusion_lon": 0.0, "is_reserved": 0, "bike_id": "e9c274eb410299a8e235d77a05c3ed4d", "fusion_lat": 0.0, "is_disabled": 0, "rental_uris": {"ios": "https://dc.lft.to/lastmile_qr_scan", "android": "https://dc.lft.to/lastmile_qr_scan"}}, {"name": "5775a572a6a2ef2ee14cc044137982ce", "lon": -77.0259375, "lat": 38.96395283333333, "type": "electric_scooter", "fusion_lon": 0.0, "is_reserved": 0, "bike_id": "5775a572a6a2ef2ee14cc044137982ce", "fusion_lat": 0.0, "is_disabled": 0, "rental_uris": {"ios": "https://dc.lft.to/lastmile_qr_scan", "android": "https://dc.lft.to/lastmile_qr_scan"}}, {"name": "76bbd0d3376ae217dff8c9bd7b255a95", "lon": -77.01608883333333, "lat": 38.89963783333334, "type": "electric_scooter", "fusion_lon": 0.0, "is_reserved": 0, "bike_id": "76bbd0d3376ae217dff8c9bd7b255a95", "fusion_lat": 0.0, "is_disabled": 0, "rental_uris": {"ios": "https://dc.lft.to/lastmile_qr_scan", "android": "https://dc.lft.to/lastmile_qr_scan"}}, {"name": "7eaf3fe2a70f281233c768420a378c4d", "lon": -77.0608065, "lat": 38.88587233333333, "type": "electric_bike", "fusion_lon": 0.0, "is_reserved": 0, "bike_id": "7eaf3fe2a70f281233c768420a378c4d", "fusion_lat": 0.0, "is_disabled": 0, "rental_uris": {"ios": "https://dc.lft.to/lastmile_qr_scan", "android": "https://dc.lft.to/lastmile_qr_scan"}}, {"name": "8070d626ac8b1ec72bb9bc4aa6f826c5", "lon": -77.13103316666667, "lat": 39.024372666666665, "type": "electric_bike", "fusion_lon": 0.0, "is_reserved": 0, "bike_id": "8070d626ac8b1ec72bb9bc4aa6f826c5", "fusion_lat": 0.0, "is_disabled": 0, "rental_uris": {"ios": "https://dc.lft.to/lastmile_qr_scan", "android": "https://dc.lft.to/lastmile_qr_scan"}}, {"name": "c1b284e1a2e7dc387621c8cfbd0f3c17", "lon": -77.0947285, "lat": 39.030461833333334, "type": "electric_bike", "fusion_lon": 0.0, "is_reserved": 0, "bike_id": "c1b284e1a2e7dc387621c8cfbd0f3c17", "fusion_lat": 0.0, "is_disabled": 0, "rental_uris": {"ios": "https://dc.lft.to/lastmile_qr_scan", "android": "https://dc.lft.to/lastmile_qr_scan"}}, {"name": "189dfc7328f963c2c5a6b73063e9ae75", "lon": -77.01184083333334, "lat": 38.90022716666667, "type": "electric_scooter", "fusion_lon": 0.0, "is_reserved": 0, "bike_id": "189dfc7328f963c2c5a6b73063e9ae75", "fusion_lat": 0.0, "is_disabled": 0, "rental_uris": {"ios": "https://dc.lft.to/lastmile_qr_scan", "android": "https://dc.lft.to/lastmile_qr_scan"}}, {"name": "4e41eb3d449a1b8cade5734f7b3781a4", "lon": -77.02750666666667, "lat": 38.951708833333335, "type": "electric_scooter", "fusion_lon": 0.0, "is_reserved": 0, "bike_id": "4e41eb3d449a1b8cade5734f7b3781a4", "fusion_lat": 0.0, "is_disabled": 0, "rental_uris": {"ios": "https://dc.lft.to/lastmile_qr_scan", "android": "https://dc.lft.to/lastmile_qr_scan"}}, {"name": "835d3f21986cb6447c915be34ccc5caf", "lon": -77.1185235, "lat": 38.877332833333334, "type": "electric_bike", "fusion_lon": 0.0, "is_reserved": 0, "bike_id": "835d3f21986cb6447c915be34ccc5caf", "fusion_lat": 0.0, "is_disabled": 0, "rental_uris": {"ios": "https://dc.lft.to/lastmile_qr_scan", "android": "https://dc.lft.to/lastmile_qr_scan"}}, {"name": "8c74f02064bb50339f4b33e35e528906", "lon": -77.03845783333334, "lat": 38.91642916666667, "type": "electric_scooter", "fusion_lon": 0.0, "is_reserved": 0, "bike_id": "8c74f02064bb50339f4b33e35e528906", "fusion_lat": 0.0, "is_disabled": 0, "rental_uris": {"ios": "https://dc.lft.to/lastmile_qr_scan", "android": "https://dc.lft.to/lastmile_qr_scan"}}, {"name": "580a15a7ef2178cd11b07a8ffd8994e2", "lon": -77.020978, "lat": 38.931149, "type": "electric_scooter", "fusion_lon": 0.0, "is_reserved": 0, "bike_id": "580a15a7ef2178cd11b07a8ffd8994e2", "fusion_lat": 0.0, "is_disabled": 0, "rental_uris": {"ios": "https://dc.lft.to/lastmile_qr_scan", "android": "https://dc.lft.to/lastmile_qr_scan"}}, {"name": "e9409920a93795059d11cf6c7ab70340", "lon": -76.93541166666667, "lat": 38.95185033333333, "type": "electric_bike", "fusion_lon": 0.0, "is_reserved": 0, "bike_id": "e9409920a93795059d11cf6c7ab70340", "fusion_lat": 0.0, "is_disabled": 0, "rental_uris": {"ios": "https://dc.lft.to/lastmile_qr_scan", "android": "https://dc.lft.to/lastmile_qr_scan"}}, {"name": "cb7b97ce8b0a2155ff3d7a1dd73cf1d1", "lon": -77.046903, "lat": 38.89224733333333, "type": "electric_scooter", "fusion_lon": 0.0, "is_reserved": 0, "bike_id": "cb7b97ce8b0a2155ff3d7a1dd73cf1d1", "fusion_lat": 0.0, "is_disabled": 0, "rental_uris": {"ios": "https://dc.lft.to/lastmile_qr_scan", "android": "https://dc.lft.to/lastmile_qr_scan"}}, {"name": "d7fa622a5a19b9e8eb61d898dafdc151", "lon": -77.00198733333333, "lat": 38.90791433333333, "type": "electric_scooter", "fusion_lon": 0.0, "is_reserved": 0, "bike_id": "d7fa622a5a19b9e8eb61d898dafdc151", "fusion_lat": 0.0, "is_disabled": 0, "rental_uris": {"ios": "https://dc.lft.to/lastmile_qr_scan", "android": "https://dc.lft.to/lastmile_qr_scan"}}, {"name": "d8429f07a427549fd6541b236758061c", "lon": -76.98968933333333, "lat": 38.88218883333333, "type": "electric_bike", "fusion_lon": 0.0, "is_reserved": 0, "bike_id": "d8429f07a427549fd6541b236758061c", "fusion_lat": 0.0, "is_disabled": 0, "rental_uris": {"ios": "https://dc.lft.to/lastmile_qr_scan", "android": "https://dc.lft.to/lastmile_qr_scan"}}, {"name": "43ec4fbf6cde585a47eaf81358f68e25", "lon": -77.013567, "lat": 38.869696166666664, "type": "electric_scooter", "fusion_lon": 0.0, "is_reserved": 0, "bike_id": "43ec4fbf6cde585a47eaf81358f68e25", "fusion_lat": 0.0, "is_disabled": 0, "rental_uris": {"ios": "https://dc.lft.to/lastmile_qr_scan", "android": "https://dc.lft.to/lastmile_qr_scan"}}, {"name": "9d471dbe0443cd49a74911f5d68f0957", "lon": -76.99871783333333, "lat": 38.900317, "type": "electric_scooter", "fusion_lon": 0.0, "is_reserved": 0, "bike_id": "9d471dbe0443cd49a74911f5d68f0957", "fusion_lat": 0.0, "is_disabled": 0, "rental_uris": {"ios": "https://dc.lft.to/lastmile_qr_scan", "android": "https://dc.lft.to/lastmile_qr_scan"}}, {"name": "49e1e6d768198e2febd54a3f3466d940", "lon": -77.007564, "lat": 38.92678216666667, "type": "electric_scooter", "fusion_lon": 0.0, "is_reserved": 0, "bike_id": "49e1e6d768198e2febd54a3f3466d940", "fusion_lat": 0.0, "is_disabled": 0, "rental_uris": {"ios": "https://dc.lft.to/lastmile_qr_scan", "android": "https://dc.lft.to/lastmile_qr_scan"}}, {"name": "5377b4fe640f736217b47577d79a59a4", "lon": -77.02364483333334, "lat": 38.902172, "type": "electric_scooter", "fusion_lon": 0.0, "is_reserved": 0, "bike_id": "5377b4fe640f736217b47577d79a59a4", "fusion_lat": 0.0, "is_disabled": 0, "rental_uris": {"ios": "https://dc.lft.to/lastmile_qr_scan", "android": "https://dc.lft.to/lastmile_qr_scan"}}, {"name": "66543a4aeeca1a19eb10b6b0544f5fc6", "lon": -77.00209183333334, "lat": 38.924550833333335, "type": "electric_scooter", "fusion_lon": 0.0, "is_reserved": 0, "bike_id": "66543a4aeeca1a19eb10b6b0544f5fc6", "fusion_lat": 0.0, "is_disabled": 0, "rental_uris": {"ios": "https://dc.lft.to/lastmile_qr_scan", "android": "https://dc.lft.to/lastmile_qr_scan"}}, {"name": "3143fe672c2ffe4c2ed8952feb8f3a93", "lon": -77.05125266666667, "lat": 38.92346783333333, "type": "electric_scooter", "fusion_lon": 0.0, "is_reserved": 0, "bike_id": "3143fe672c2ffe4c2ed8952feb8f3a93", "fusion_lat": 0.0, "is_disabled": 0, "rental_uris": {"ios": "https://dc.lft.to/lastmile_qr_scan", "android": "https://dc.lft.to/lastmile_qr_scan"}}, {"name": "19aa106c54ae9099080d49d29dad5bda", "lon": -77.021947, "lat": 38.90576316666667, "type": "electric_scooter", "fusion_lon": 0.0, "is_reserved": 0, "bike_id": "19aa106c54ae9099080d49d29dad5bda", "fusion_lat": 0.0, "is_disabled": 0, "rental_uris": {"ios": "https://dc.lft.to/lastmile_qr_scan", "android": "https://dc.lft.to/lastmile_qr_scan"}}, {"name": "784c36c007b7c5666524af43066c47b7", "lon": -77.0481525, "lat": 38.910411833333335, "type": "electric_scooter", "fusion_lon": 0.0, "is_reserved": 0, "bike_id": "784c36c007b7c5666524af43066c47b7", "fusion_lat": 0.0, "is_disabled": 0, "rental_uris": {"ios": "https://dc.lft.to/lastmile_qr_scan", "android": "https://dc.lft.to/lastmile_qr_scan"}}, {"name": "b39d07b945404eade7378747b6c5f08d", "lon": -76.99803533333333, "lat": 38.885672666666665, "type": "electric_scooter", "fusion_lon": 0.0, "is_reserved": 0, "bike_id": "b39d07b945404eade7378747b6c5f08d", "fusion_lat": 0.0, "is_disabled": 0, "rental_uris": {"ios": "https://dc.lft.to/lastmile_qr_scan", "android": "https://dc.lft.to/lastmile_qr_scan"}}, {"name": "14c20a358b4652da16e705a2d9183af5", "lon": -77.02698583333333, "lat": 38.906908666666666, "type": "electric_scooter", "fusion_lon": 0.0, "is_reserved": 0, "bike_id": "14c20a358b4652da16e705a2d9183af5", "fusion_lat": 0.0, "is_disabled": 0, "rental_uris": {"ios": "https://dc.lft.to/lastmile_qr_scan", "android": "https://dc.lft.to/lastmile_qr_scan"}}, {"name": "9af0f226f152258a9d6626bb536e3482", "lon": -77.02426183333333, "lat": 38.920468, "type": "electric_scooter", "fusion_lon": 0.0, "is_reserved": 0, "bike_id": "9af0f226f152258a9d6626bb536e3482", "fusion_lat": 0.0, "is_disabled": 0, "rental_uris": {"ios": "https://dc.lft.to/lastmile_qr_scan", "android": "https://dc.lft.to/lastmile_qr_scan"}}, {"name": "b8f62a2679fca56349471753cd82dd83", "lon": -77.03177216666667, "lat": 38.907751, "type": "electric_scooter", "fusion_lon": 0.0, "is_reserved": 0, "bike_id": "b8f62a2679fca56349471753cd82dd83", "fusion_lat": 0.0, "is_disabled": 0, "rental_uris": {"ios": "https://dc.lft.to/lastmile_qr_scan", "android": "https://dc.lft.to/lastmile_qr_scan"}}, {"name": "421e20f9f754a06864e4ab2cfde735c0", "lon": -77.02380816666667, "lat": 38.916535833333334, "type": "electric_scooter", "fusion_lon": 0.0, "is_reserved": 0, "bike_id": "421e20f9f754a06864e4ab2cfde735c0", "fusion_lat": 0.0, "is_disabled": 0, "rental_uris": {"ios": "https://dc.lft.to/lastmile_qr_scan", "android": "https://dc.lft.to/lastmile_qr_scan"}}, {"name": "f245dbaed2a6889d1937562f74bf8e26", "lon": -77.021987, "lat": 38.91398733333333, "type": "electric_scooter", "fusion_lon": 0.0, "is_reserved": 0, "bike_id": "f245dbaed2a6889d1937562f74bf8e26", "fusion_lat": 0.0, "is_disabled": 0, "rental_uris": {"ios": "https://dc.lft.to/lastmile_qr_scan", "android": "https://dc.lft.to/lastmile_qr_scan"}}, {"name": "95d79bad8d976601097096be99a1ff47", "lon": -76.997045, "lat": 38.844286333333336, "type": "electric_scooter", "fusion_lon": 0.0, "is_reserved": 0, "bike_id": "95d79bad8d976601097096be99a1ff47", "fusion_lat": 0.0, "is_disabled": 0, "rental_uris": {"ios": "https://dc.lft.to/lastmile_qr_scan", "android": "https://dc.lft.to/lastmile_qr_scan"}}, {"name": "b9f2b252fd6752655626e985674e558e", "lon": -77.006124, "lat": 38.8754455, "type": "electric_scooter", "fusion_lon": 0.0, "is_reserved": 0, "bike_id": "b9f2b252fd6752655626e985674e558e", "fusion_lat": 0.0, "is_disabled": 0, "rental_uris": {"ios": "https://dc.lft.to/lastmile_qr_scan", "android": "https://dc.lft.to/lastmile_qr_scan"}}, {"name": "4bb262fb6740ca61b0f5d60472c12012", "lon": -77.03586316666667, "lat": 38.9192785, "type": "electric_bike", "fusion_lon": 0.0, "is_reserved": 0, "bike_id": "4bb262fb6740ca61b0f5d60472c12012", "fusion_lat": 0.0, "is_disabled": 0, "rental_uris": {"ios": "https://dc.lft.to/lastmile_qr_scan", "android": "https://dc.lft.to/lastmile_qr_scan"}}, {"name": "a883efb5a1ef8e030f2182f9327d5d38", "lon": -76.988375, "lat": 38.89258266666667, "type": "electric_scooter", "fusion_lon": 0.0, "is_reserved": 0, "bike_id": "a883efb5a1ef8e030f2182f9327d5d38", "fusion_lat": 0.0, "is_disabled": 0, "rental_uris": {"ios": "https://dc.lft.to/lastmile_qr_scan", "android": "https://dc.lft.to/lastmile_qr_scan"}}, {"name": "6e8b37ac138e52d15121a310a43c35e4", "lon": -77.02698083333334, "lat": 38.904251, "type": "electric_scooter", "fusion_lon": 0.0, "is_reserved": 0, "bike_id": "6e8b37ac138e52d15121a310a43c35e4", "fusion_lat": 0.0, "is_disabled": 0, "rental_uris": {"ios": "https://dc.lft.to/lastmile_qr_scan", "android": "https://dc.lft.to/lastmile_qr_scan"}}, {"name": "bb202e8deb132232f5f1e6d603dc89f4", "lon": -77.0484885, "lat": 38.91959466666667, "type": "electric_scooter", "fusion_lon": 0.0, "is_reserved": 0, "bike_id": "bb202e8deb132232f5f1e6d603dc89f4", "fusion_lat": 0.0, "is_disabled": 0, "rental_uris": {"ios": "https://dc.lft.to/lastmile_qr_scan", "android": "https://dc.lft.to/lastmile_qr_scan"}}, {"name": "c2c018f35ec10bba281c33ac77b078c6", "lon": -77.02297616666667, "lat": 38.92809033333333, "type": "electric_scooter", "fusion_lon": 0.0, "is_reserved": 0, "bike_id": "c2c018f35ec10bba281c33ac77b078c6", "fusion_lat": 0.0, "is_disabled": 0, "rental_uris": {"ios": "https://dc.lft.to/lastmile_qr_scan", "android": "https://dc.lft.to/lastmile_qr_scan"}}, {"name": "5432999276c02af60dacbfccd0c1305d", "lon": -77.00441333333333, "lat": 38.87672333333333, "type": "electric_scooter", "fusion_lon": 0.0, "is_reserved": 0, "bike_id": "5432999276c02af60dacbfccd0c1305d", "fusion_lat": 0.0, "is_disabled": 0, "rental_uris": {"ios": "https://dc.lft.to/lastmile_qr_scan", "android": "https://dc.lft.to/lastmile_qr_scan"}}, {"name": "50726ce170104e2f1b49da514cd08f90", "lon": -77.03844716666667, "lat": 38.912023, "type": "electric_scooter", "fusion_lon": 0.0, "is_reserved": 0, "bike_id": "50726ce170104e2f1b49da514cd08f90", "fusion_lat": 0.0, "is_disabled": 0, "rental_uris": {"ios": "https://dc.lft.to/lastmile_qr_scan", "android": "https://dc.lft.to/lastmile_qr_scan"}}, {"name": "3306874f5bf55fee9d88cc01f8843a47", "lon": -76.96527316666666, "lat": 38.876305333333335, "type": "electric_scooter", "fusion_lon": 0.0, "is_reserved": 0, "bike_id": "3306874f5bf55fee9d88cc01f8843a47", "fusion_lat": 0.0, "is_disabled": 0, "rental_uris": {"ios": "https://dc.lft.to/lastmile_qr_scan", "android": "https://dc.lft.to/lastmile_qr_scan"}}, {"name": "722dfaa5e5b12ee5a0f05850b1ace2b8", "lon": -77.011355, "lat": 38.9158705, "type": "electric_scooter", "fusion_lon": 0.0, "is_reserved": 0, "bike_id": "722dfaa5e5b12ee5a0f05850b1ace2b8", "fusion_lat": 0.0, "is_disabled": 0, "rental_uris": {"ios": "https://dc.lft.to/lastmile_qr_scan", "android": "https://dc.lft.to/lastmile_qr_scan"}}, {"name": "0a9ca25ba41f34b97f525cd5a1c59a3b", "lon": -76.96524666666667, "lat": 38.876294333333334, "type": "electric_scooter", "fusion_lon": 0.0, "is_reserved": 0, "bike_id": "0a9ca25ba41f34b97f525cd5a1c59a3b", "fusion_lat": 0.0, "is_disabled": 0, "rental_uris": {"ios": "https://dc.lft.to/lastmile_qr_scan", "android": "https://dc.lft.to/lastmile_qr_scan"}}, {"name": "46b627d25db2185c6dc91fcc60f9c1ff", "lon": -77.040557, "lat": 38.91116016666667, "type": "electric_scooter", "fusion_lon": 0.0, "is_reserved": 0, "bike_id": "46b627d25db2185c6dc91fcc60f9c1ff", "fusion_lat": 0.0, "is_disabled": 0, "rental_uris": {"ios": "https://dc.lft.to/lastmile_qr_scan", "android": "https://dc.lft.to/lastmile_qr_scan"}}, {"name": "d1361c6098d9adf38ab529ffdc94ee7c", "lon": -76.970116, "lat": 38.863687, "type": "electric_bike", "fusion_lon": 0.0, "is_reserved": 0, "bike_id": "d1361c6098d9adf38ab529ffdc94ee7c", "fusion_lat": 0.0, "is_disabled": 0, "rental_uris": {"ios": "https://dc.lft.to/lastmile_qr_scan", "android": "https://dc.lft.to/lastmile_qr_scan"}}, {"name": "3ae7a1ad90d5db0f5cb43d7d673b6240", "lon": -76.93733483333334, "lat": 38.89017916666667, "type": "electric_scooter", "fusion_lon": 0.0, "is_reserved": 0, "bike_id": "3ae7a1ad90d5db0f5cb43d7d673b6240", "fusion_lat": 0.0, "is_disabled": 0, "rental_uris": {"ios": "https://dc.lft.to/lastmile_qr_scan", "android": "https://dc.lft.to/lastmile_qr_scan"}}, {"name": "9a7e837c4064df69f0a4d4a3d9b41882", "lon": -77.00215066666667, "lat": 38.91104816666667, "type": "electric_scooter", "fusion_lon": 0.0, "is_reserved": 0, "bike_id": "9a7e837c4064df69f0a4d4a3d9b41882", "fusion_lat": 0.0, "is_disabled": 0, "rental_uris": {"ios": "https://dc.lft.to/lastmile_qr_scan", "android": "https://dc.lft.to/lastmile_qr_scan"}}, {"name": "4a89d5052822401f7788bc7be7e1cf10", "lon": -77.1179745, "lat": 38.873726, "type": "electric_bike", "fusion_lon": 0.0, "is_reserved": 0, "bike_id": "4a89d5052822401f7788bc7be7e1cf10", "fusion_lat": 0.0, "is_disabled": 0, "rental_uris": {"ios": "https://dc.lft.to/lastmile_qr_scan", "android": "https://dc.lft.to/lastmile_qr_scan"}}, {"name": "daa039edb19a9a3d900a23e4fba90d64", "lon": -76.99925783333333, "lat": 38.9002085, "type": "electric_scooter", "fusion_lon": 0.0, "is_reserved": 0, "bike_id": "daa039edb19a9a3d900a23e4fba90d64", "fusion_lat": 0.0, "is_disabled": 0, "rental_uris": {"ios": "https://dc.lft.to/lastmile_qr_scan", "android": "https://dc.lft.to/lastmile_qr_scan"}}, {"name": "fed974ec50cf2c064f6b029f7009c8ad", "lon": -77.027176, "lat": 38.90141716666667, "type": "electric_scooter", "fusion_lon": 0.0, "is_reserved": 0, "bike_id": "fed974ec50cf2c064f6b029f7009c8ad", "fusion_lat": 0.0, "is_disabled": 0, "rental_uris": {"ios": "https://dc.lft.to/lastmile_qr_scan", "android": "https://dc.lft.to/lastmile_qr_scan"}}, {"name": "1fdca31d11d32d365c95fc899f671e1e", "lon": -77.00711783333334, "lat": 38.88491533333333, "type": "electric_scooter", "fusion_lon": 0.0, "is_reserved": 0, "bike_id": "1fdca31d11d32d365c95fc899f671e1e", "fusion_lat": 0.0, "is_disabled": 0, "rental_uris": {"ios": "https://dc.lft.to/lastmile_qr_scan", "android": "https://dc.lft.to/lastmile_qr_scan"}}, {"name": "9328f4a7b4b2aa72bc2a9d1e56a516a0", "lon": -76.98615416666667, "lat": 38.93827916666667, "type": "electric_scooter", "fusion_lon": 0.0, "is_reserved": 0, "bike_id": "9328f4a7b4b2aa72bc2a9d1e56a516a0", "fusion_lat": 0.0, "is_disabled": 0, "rental_uris": {"ios": "https://dc.lft.to/lastmile_qr_scan", "android": "https://dc.lft.to/lastmile_qr_scan"}}, {"name": "ba1d6bc201fde80fd9a5c8e61bfa1be3", "lon": -77.00567466666666, "lat": 38.88505816666667, "type": "electric_scooter", "fusion_lon": 0.0, "is_reserved": 0, "bike_id": "ba1d6bc201fde80fd9a5c8e61bfa1be3", "fusion_lat": 0.0, "is_disabled": 0, "rental_uris": {"ios": "https://dc.lft.to/lastmile_qr_scan", "android": "https://dc.lft.to/lastmile_qr_scan"}}, {"name": "0f10f59334364178699a1bb8f7cf2b00", "lon": -77.027231, "lat": 38.906830666666664, "type": "electric_scooter", "fusion_lon": 0.0, "is_reserved": 0, "bike_id": "0f10f59334364178699a1bb8f7cf2b00", "fusion_lat": 0.0, "is_disabled": 0, "rental_uris": {"ios": "https://dc.lft.to/lastmile_qr_scan", "android": "https://dc.lft.to/lastmile_qr_scan"}}, {"name": "4400c5e494f716fe5a4f2772962f8a8a", "lon": -77.1347395, "lat": 38.853616, "type": "electric_bike", "fusion_lon": 0.0, "is_reserved": 0, "bike_id": "4400c5e494f716fe5a4f2772962f8a8a", "fusion_lat": 0.0, "is_disabled": 0, "rental_uris": {"ios": "https://dc.lft.to/lastmile_qr_scan", "android": "https://dc.lft.to/lastmile_qr_scan"}}, {"name": "a08712dc8a50a868b97fefb23cd9458b", "lon": -77.03077383333333, "lat": 38.89753433333333, "type": "electric_scooter", "fusion_lon": 0.0, "is_reserved": 0, "bike_id": "a08712dc8a50a868b97fefb23cd9458b", "fusion_lat": 0.0, "is_disabled": 0, "rental_uris": {"ios": "https://dc.lft.to/lastmile_qr_scan", "android": "https://dc.lft.to/lastmile_qr_scan"}}, {"name": "c8b7539e7cd33e1ca98e76c5129216d3", "lon": -77.01123216666667, "lat": 38.895436833333335, "type": "electric_scooter", "fusion_lon": 0.0, "is_reserved": 0, "bike_id": "c8b7539e7cd33e1ca98e76c5129216d3", "fusion_lat": 0.0, "is_disabled": 0, "rental_uris": {"ios": "https://dc.lft.to/lastmile_qr_scan", "android": "https://dc.lft.to/lastmile_qr_scan"}}, {"name": "0c634cbe4106edda576bf537b5f61299", "lon": -77.03590883333334, "lat": 38.9162725, "type": "electric_scooter", "fusion_lon": 0.0, "is_reserved": 0, "bike_id": "0c634cbe4106edda576bf537b5f61299", "fusion_lat": 0.0, "is_disabled": 0, "rental_uris": {"ios": "https://dc.lft.to/lastmile_qr_scan", "android": "https://dc.lft.to/lastmile_qr_scan"}}, {"name": "5b9e51abd27d50c5ce018d1636d50dd1", "lon": -77.03403166666666, "lat": 38.93124916666667, "type": "electric_scooter", "fusion_lon": 0.0, "is_reserved": 0, "bike_id": "5b9e51abd27d50c5ce018d1636d50dd1", "fusion_lat": 0.0, "is_disabled": 0, "rental_uris": {"ios": "https://dc.lft.to/lastmile_qr_scan", "android": "https://dc.lft.to/lastmile_qr_scan"}}, {"name": "f61619b7f67a91ffce31bddcc4abf742", "lon": -77.042122, "lat": 38.911167166666665, "type": "electric_scooter", "fusion_lon": 0.0, "is_reserved": 0, "bike_id": "f61619b7f67a91ffce31bddcc4abf742", "fusion_lat": 0.0, "is_disabled": 0, "rental_uris": {"ios": "https://dc.lft.to/lastmile_qr_scan", "android": "https://dc.lft.to/lastmile_qr_scan"}}, {"name": "44a10c36c0c4db5f61b0ced6635b48cb", "lon": -77.0383105, "lat": 38.9111835, "type": "electric_scooter", "fusion_lon": 0.0, "is_reserved": 0, "bike_id": "44a10c36c0c4db5f61b0ced6635b48cb", "fusion_lat": 0.0, "is_disabled": 0, "rental_uris": {"ios": "https://dc.lft.to/lastmile_qr_scan", "android": "https://dc.lft.to/lastmile_qr_scan"}}, {"name": "ad29eb63a79bbfeda034fe7548843c53", "lon": -77.02734283333334, "lat": 38.92764066666667, "type": "electric_scooter", "fusion_lon": 0.0, "is_reserved": 0, "bike_id": "ad29eb63a79bbfeda034fe7548843c53", "fusion_lat": 0.0, "is_disabled": 0, "rental_uris": {"ios": "https://dc.lft.to/lastmile_qr_scan", "android": "https://dc.lft.to/lastmile_qr_scan"}}, {"name": "08ce7503c20facf0c2f41cb1698acdea", "lon": -77.0206795, "lat": 38.912547333333336, "type": "electric_bike", "fusion_lon": 0.0, "is_reserved": 0, "bike_id": "08ce7503c20facf0c2f41cb1698acdea", "fusion_lat": 0.0, "is_disabled": 0, "rental_uris": {"ios": "https://dc.lft.to/lastmile_qr_scan", "android": "https://dc.lft.to/lastmile_qr_scan"}}, {"name": "40b1430409aa670e3671a94494655ea7", "lon": -77.0113515, "lat": 38.880394, "type": "electric_scooter", "fusion_lon": 0.0, "is_reserved": 0, "bike_id": "40b1430409aa670e3671a94494655ea7", "fusion_lat": 0.0, "is_disabled": 0, "rental_uris": {"ios": "https://dc.lft.to/lastmile_qr_scan", "android": "https://dc.lft.to/lastmile_qr_scan"}}, {"name": "b38dff48fff964c46bedc0ce9097d9fa", "lon": -77.0505835, "lat": 38.900887833333336, "type": "electric_scooter", "fusion_lon": 0.0, "is_reserved": 0, "bike_id": "b38dff48fff964c46bedc0ce9097d9fa", "fusion_lat": 0.0, "is_disabled": 0, "rental_uris": {"ios": "https://dc.lft.to/lastmile_qr_scan", "android": "https://dc.lft.to/lastmile_qr_scan"}}, {"name": "ebd48e2c29484fc3cfdd7091165c31cf", "lon": -77.03984916666667, "lat": 38.917605, "type": "electric_scooter", "fusion_lon": 0.0, "is_reserved": 0, "bike_id": "ebd48e2c29484fc3cfdd7091165c31cf", "fusion_lat": 0.0, "is_disabled": 0, "rental_uris": {"ios": "https://dc.lft.to/lastmile_qr_scan", "android": "https://dc.lft.to/lastmile_qr_scan"}}, {"name": "bfb52edac7906838080673d5485174a0", "lon": -77.032642, "lat": 38.93720616666667, "type": "electric_scooter", "fusion_lon": 0.0, "is_reserved": 0, "bike_id": "bfb52edac7906838080673d5485174a0", "fusion_lat": 0.0, "is_disabled": 0, "rental_uris": {"ios": "https://dc.lft.to/lastmile_qr_scan", "android": "https://dc.lft.to/lastmile_qr_scan"}}, {"name": "9c42cef1f1fbf0391a20c390588b1cc6", "lon": -76.98665733333333, "lat": 38.90252016666667, "type": "electric_scooter", "fusion_lon": 0.0, "is_reserved": 0, "bike_id": "9c42cef1f1fbf0391a20c390588b1cc6", "fusion_lat": 0.0, "is_disabled": 0, "rental_uris": {"ios": "https://dc.lft.to/lastmile_qr_scan", "android": "https://dc.lft.to/lastmile_qr_scan"}}, {"name": "5bed894bbd86eedd91f43c4c6538470f", "lon": -77.00061533333333, "lat": 38.876630666666664, "type": "electric_scooter", "fusion_lon": 0.0, "is_reserved": 0, "bike_id": "5bed894bbd86eedd91f43c4c6538470f", "fusion_lat": 0.0, "is_disabled": 0, "rental_uris": {"ios": "https://dc.lft.to/lastmile_qr_scan", "android": "https://dc.lft.to/lastmile_qr_scan"}}, {"name": "9d854e13e5342e8e965334aa7799d1be", "lon": -77.00798966666666, "lat": 38.89721333333333, "type": "electric_scooter", "fusion_lon": 0.0, "is_reserved": 0, "bike_id": "9d854e13e5342e8e965334aa7799d1be", "fusion_lat": 0.0, "is_disabled": 0, "rental_uris": {"ios": "https://dc.lft.to/lastmile_qr_scan", "android": "https://dc.lft.to/lastmile_qr_scan"}}, {"name": "282113950bf22b9473be069b6b21eb43", "lon": -77.0332805, "lat": 38.921637, "type": "electric_scooter", "fusion_lon": 0.0, "is_reserved": 0, "bike_id": "282113950bf22b9473be069b6b21eb43", "fusion_lat": 0.0, "is_disabled": 0, "rental_uris": {"ios": "https://dc.lft.to/lastmile_qr_scan", "android": "https://dc.lft.to/lastmile_qr_scan"}}, {"name": "82f467b3039488f3b207e67324e4a5bb", "lon": -76.98696933333333, "lat": 38.862503833333335, "type": "electric_scooter", "fusion_lon": 0.0, "is_reserved": 0, "bike_id": "82f467b3039488f3b207e67324e4a5bb", "fusion_lat": 0.0, "is_disabled": 0, "rental_uris": {"ios": "https://dc.lft.to/lastmile_qr_scan", "android": "https://dc.lft.to/lastmile_qr_scan"}}, {"name": "45598e3f438d623162529f0d8d246e9c", "lon": -77.0228245, "lat": 38.90961316666667, "type": "electric_scooter", "fusion_lon": 0.0, "is_reserved": 0, "bike_id": "45598e3f438d623162529f0d8d246e9c", "fusion_lat": 0.0, "is_disabled": 0, "rental_uris": {"ios": "https://dc.lft.to/lastmile_qr_scan", "android": "https://dc.lft.to/lastmile_qr_scan"}}, {"name": "04e969e9cfb3474375ed454480172765", "lon": -77.0020245, "lat": 38.895429666666665, "type": "electric_scooter", "fusion_lon": 0.0, "is_reserved": 0, "bike_id": "04e969e9cfb3474375ed454480172765", "fusion_lat": 0.0, "is_disabled": 0, "rental_uris": {"ios": "https://dc.lft.to/lastmile_qr_scan", "android": "https://dc.lft.to/lastmile_qr_scan"}}, {"name": "2b350d64def282df315f40586e76aa51", "lon": -77.05861083333333, "lat": 38.936045166666666, "type": "electric_scooter", "fusion_lon": 0.0, "is_reserved": 0, "bike_id": "2b350d64def282df315f40586e76aa51", "fusion_lat": 0.0, "is_disabled": 0, "rental_uris": {"ios": "https://dc.lft.to/lastmile_qr_scan", "android": "https://dc.lft.to/lastmile_qr_scan"}}, {"name": "c22d6640b4ac35d89d4d57feb1aa03f9", "lon": -76.99361033333334, "lat": 38.92840016666667, "type": "electric_scooter", "fusion_lon": 0.0, "is_reserved": 0, "bike_id": "c22d6640b4ac35d89d4d57feb1aa03f9", "fusion_lat": 0.0, "is_disabled": 0, "rental_uris": {"ios": "https://dc.lft.to/lastmile_qr_scan", "android": "https://dc.lft.to/lastmile_qr_scan"}}, {"name": "4c5dd5d1831d1292cb18520a11f61313", "lon": -77.02981633333333, "lat": 38.9369955, "type": "electric_bike", "fusion_lon": 0.0, "is_reserved": 0, "bike_id": "4c5dd5d1831d1292cb18520a11f61313", "fusion_lat": 0.0, "is_disabled": 0, "rental_uris": {"ios": "https://dc.lft.to/lastmile_qr_scan", "android": "https://dc.lft.to/lastmile_qr_scan"}}, {"name": "06b0cba2e11541e68844c3bfff9676d9", "lon": -77.02980066666667, "lat": 38.921996666666665, "type": "electric_scooter", "fusion_lon": 0.0, "is_reserved": 0, "bike_id": "06b0cba2e11541e68844c3bfff9676d9", "fusion_lat": 0.0, "is_disabled": 0, "rental_uris": {"ios": "https://dc.lft.to/lastmile_qr_scan", "android": "https://dc.lft.to/lastmile_qr_scan"}}, {"name": "1930b8183afc4235c68b2b1ec90872ae", "lon": -77.043284, "lat": 38.8922465, "type": "electric_scooter", "fusion_lon": 0.0, "is_reserved": 0, "bike_id": "1930b8183afc4235c68b2b1ec90872ae", "fusion_lat": 0.0, "is_disabled": 0, "rental_uris": {"ios": "https://dc.lft.to/lastmile_qr_scan", "android": "https://dc.lft.to/lastmile_qr_scan"}}, {"name": "0857635e1fba18320ce333ec46a7bcf4", "lon": -77.0384005, "lat": 38.907234333333335, "type": "electric_scooter", "fusion_lon": 0.0, "is_reserved": 0, "bike_id": "0857635e1fba18320ce333ec46a7bcf4", "fusion_lat": 0.0, "is_disabled": 0, "rental_uris": {"ios": "https://dc.lft.to/lastmile_qr_scan", "android": "https://dc.lft.to/lastmile_qr_scan"}}, {"name": "1e1837c7a85074afea7006882cdeb623", "lon": -77.03451516666667, "lat": 38.921466, "type": "electric_scooter", "fusion_lon": 0.0, "is_reserved": 0, "bike_id": "1e1837c7a85074afea7006882cdeb623", "fusion_lat": 0.0, "is_disabled": 0, "rental_uris": {"ios": "https://dc.lft.to/lastmile_qr_scan", "android": "https://dc.lft.to/lastmile_qr_scan"}}, {"name": "0a9e8f5e1b18701331bcac95dea8c23a", "lon": -77.0311505, "lat": 38.8947745, "type": "electric_scooter", "fusion_lon": 0.0, "is_reserved": 0, "bike_id": "0a9e8f5e1b18701331bcac95dea8c23a", "fusion_lat": 0.0, "is_disabled": 0, "rental_uris": {"ios": "https://dc.lft.to/lastmile_qr_scan", "android": "https://dc.lft.to/lastmile_qr_scan"}}, {"name": "5ce65710ef3d53b03d492e847244e3c4", "lon": -77.01134533333334, "lat": 38.88527466666667, "type": "electric_scooter", "fusion_lon": 0.0, "is_reserved": 0, "bike_id": "5ce65710ef3d53b03d492e847244e3c4", "fusion_lat": 0.0, "is_disabled": 0, "rental_uris": {"ios": "https://dc.lft.to/lastmile_qr_scan", "android": "https://dc.lft.to/lastmile_qr_scan"}}, {"name": "b3599c7138de3e0f4f614af9150e7351", "lon": -77.026158, "lat": 38.91708633333333, "type": "electric_scooter", "fusion_lon": 0.0, "is_reserved": 0, "bike_id": "b3599c7138de3e0f4f614af9150e7351", "fusion_lat": 0.0, "is_disabled": 0, "rental_uris": {"ios": "https://dc.lft.to/lastmile_qr_scan", "android": "https://dc.lft.to/lastmile_qr_scan"}}, {"name": "91068a54fd3fa3711ffdd47c2e91a55b", "lon": -77.04504183333333, "lat": 38.90376533333333, "type": "electric_scooter", "fusion_lon": 0.0, "is_reserved": 0, "bike_id": "91068a54fd3fa3711ffdd47c2e91a55b", "fusion_lat": 0.0, "is_disabled": 0, "rental_uris": {"ios": "https://dc.lft.to/lastmile_qr_scan", "android": "https://dc.lft.to/lastmile_qr_scan"}}, {"name": "75ff3a4373a92a5c4c763858397eed3c", "lon": -76.9962565, "lat": 38.884905, "type": "electric_scooter", "fusion_lon": 0.0, "is_reserved": 0, "bike_id": "75ff3a4373a92a5c4c763858397eed3c", "fusion_lat": 0.0, "is_disabled": 0, "rental_uris": {"ios": "https://dc.lft.to/lastmile_qr_scan", "android": "https://dc.lft.to/lastmile_qr_scan"}}, {"name": "f7fb4970c5e3c125f9e1d1d31f42148b", "lon": -77.11759716666667, "lat": 39.04916766666667, "type": "electric_bike", "fusion_lon": 0.0, "is_reserved": 0, "bike_id": "f7fb4970c5e3c125f9e1d1d31f42148b", "fusion_lat": 0.0, "is_disabled": 0, "rental_uris": {"ios": "https://dc.lft.to/lastmile_qr_scan", "android": "https://dc.lft.to/lastmile_qr_scan"}}, {"name": "3aa507c50dd5b1d202dc9bacb8352ba5", "lon": -77.04878483333333, "lat": 38.906445, "type": "electric_scooter", "fusion_lon": 0.0, "is_reserved": 0, "bike_id": "3aa507c50dd5b1d202dc9bacb8352ba5", "fusion_lat": 0.0, "is_disabled": 0, "rental_uris": {"ios": "https://dc.lft.to/lastmile_qr_scan", "android": "https://dc.lft.to/lastmile_qr_scan"}}, {"name": "ba8f6dd613be6edda1819bdd72168338", "lon": -77.0217755, "lat": 38.9429325, "type": "electric_scooter", "fusion_lon": 0.0, "is_reserved": 0, "bike_id": "ba8f6dd613be6edda1819bdd72168338", "fusion_lat": 0.0, "is_disabled": 0, "rental_uris": {"ios": "https://dc.lft.to/lastmile_qr_scan", "android": "https://dc.lft.to/lastmile_qr_scan"}}, {"name": "34fd073f55ffc890e8ac15db5e2a489c", "lon": -77.027777, "lat": 38.939587, "type": "electric_bike", "fusion_lon": 0.0, "is_reserved": 0, "bike_id": "34fd073f55ffc890e8ac15db5e2a489c", "fusion_lat": 0.0, "is_disabled": 0, "rental_uris": {"ios": "https://dc.lft.to/lastmile_qr_scan", "android": "https://dc.lft.to/lastmile_qr_scan"}}, {"name": "822f1aec5ed21e48de7ea8fbf7d1a6d3", "lon": -77.01916466666667, "lat": 38.92378433333333, "type": "electric_scooter", "fusion_lon": 0.0, "is_reserved": 0, "bike_id": "822f1aec5ed21e48de7ea8fbf7d1a6d3", "fusion_lat": 0.0, "is_disabled": 0, "rental_uris": {"ios": "https://dc.lft.to/lastmile_qr_scan", "android": "https://dc.lft.to/lastmile_qr_scan"}}, {"name": "78aa16eb2ba354e662b128655ad8e18b", "lon": -77.13146083333334, "lat": 38.861692833333336, "type": "electric_bike", "fusion_lon": 0.0, "is_reserved": 0, "bike_id": "78aa16eb2ba354e662b128655ad8e18b", "fusion_lat": 0.0, "is_disabled": 0, "rental_uris": {"ios": "https://dc.lft.to/lastmile_qr_scan", "android": "https://dc.lft.to/lastmile_qr_scan"}}, {"name": "c0c50f59518a8622f1fe203323f7f2eb", "lon": -77.0513745, "lat": 38.9038275, "type": "electric_scooter", "fusion_lon": 0.0, "is_reserved": 0, "bike_id": "c0c50f59518a8622f1fe203323f7f2eb", "fusion_lat": 0.0, "is_disabled": 0, "rental_uris": {"ios": "https://dc.lft.to/lastmile_qr_scan", "android": "https://dc.lft.to/lastmile_qr_scan"}}, {"name": "ca03341caa417813f250d251854ef300", "lon": -77.04888, "lat": 38.9057805, "type": "electric_scooter", "fusion_lon": 0.0, "is_reserved": 0, "bike_id": "ca03341caa417813f250d251854ef300", "fusion_lat": 0.0, "is_disabled": 0, "rental_uris": {"ios": "https://dc.lft.to/lastmile_qr_scan", "android": "https://dc.lft.to/lastmile_qr_scan"}}, {"name": "08e540a6faa3ef443524e935f7876abb", "lon": -76.99910016666666, "lat": 38.924618333333335, "type": "electric_scooter", "fusion_lon": 0.0, "is_reserved": 0, "bike_id": "08e540a6faa3ef443524e935f7876abb", "fusion_lat": 0.0, "is_disabled": 0, "rental_uris": {"ios": "https://dc.lft.to/lastmile_qr_scan", "android": "https://dc.lft.to/lastmile_qr_scan"}}, {"name": "33feb66072a879fda9589edf84fdcb79", "lon": -77.0550235, "lat": 38.936586166666665, "type": "electric_scooter", "fusion_lon": 0.0, "is_reserved": 0, "bike_id": "33feb66072a879fda9589edf84fdcb79", "fusion_lat": 0.0, "is_disabled": 0, "rental_uris": {"ios": "https://dc.lft.to/lastmile_qr_scan", "android": "https://dc.lft.to/lastmile_qr_scan"}}, {"name": "7179613b9ac6244d30bb660c10860ab3", "lon": -77.04312683333333, "lat": 38.88108483333333, "type": "electric_scooter", "fusion_lon": 0.0, "is_reserved": 0, "bike_id": "7179613b9ac6244d30bb660c10860ab3", "fusion_lat": 0.0, "is_disabled": 0, "rental_uris": {"ios": "https://dc.lft.to/lastmile_qr_scan", "android": "https://dc.lft.to/lastmile_qr_scan"}}, {"name": "33bf8e03f2d89b9e4912d50224627c25", "lon": -77.0413895, "lat": 38.922943833333335, "type": "electric_scooter", "fusion_lon": 0.0, "is_reserved": 0, "bike_id": "33bf8e03f2d89b9e4912d50224627c25", "fusion_lat": 0.0, "is_disabled": 0, "rental_uris": {"ios": "https://dc.lft.to/lastmile_qr_scan", "android": "https://dc.lft.to/lastmile_qr_scan"}}, {"name": "a9f8af17322404641ff74e7ea239e6e9", "lon": -77.03514616666666, "lat": 38.96201816666667, "type": "electric_bike", "fusion_lon": 0.0, "is_reserved": 0, "bike_id": "a9f8af17322404641ff74e7ea239e6e9", "fusion_lat": 0.0, "is_disabled": 0, "rental_uris": {"ios": "https://dc.lft.to/lastmile_qr_scan", "android": "https://dc.lft.to/lastmile_qr_scan"}}, {"name": "7b66fa85aac9452e3ba42abd33aabe67", "lon": -77.01816833333334, "lat": 38.923685166666665, "type": "electric_scooter", "fusion_lon": 0.0, "is_reserved": 0, "bike_id": "7b66fa85aac9452e3ba42abd33aabe67", "fusion_lat": 0.0, "is_disabled": 0, "rental_uris": {"ios": "https://dc.lft.to/lastmile_qr_scan", "android": "https://dc.lft.to/lastmile_qr_scan"}}, {"name": "7b30d681c1292973449886b4a7f7911b", "lon": -77.04751816666666, "lat": 38.91664383333333, "type": "electric_scooter", "fusion_lon": 0.0, "is_reserved": 0, "bike_id": "7b30d681c1292973449886b4a7f7911b", "fusion_lat": 0.0, "is_disabled": 0, "rental_uris": {"ios": "https://dc.lft.to/lastmile_qr_scan", "android": "https://dc.lft.to/lastmile_qr_scan"}}, {"name": "acdf6f6d4f47a4a73159554e700eff6f", "lon": -76.99032616666666, "lat": 38.89851683333333, "type": "electric_scooter", "fusion_lon": 0.0, "is_reserved": 0, "bike_id": "acdf6f6d4f47a4a73159554e700eff6f", "fusion_lat": 0.0, "is_disabled": 0, "rental_uris": {"ios": "https://dc.lft.to/lastmile_qr_scan", "android": "https://dc.lft.to/lastmile_qr_scan"}}, {"name": "418f4e49e792287c68ee558ca57c4196", "lon": -77.03527383333333, "lat": 38.90068383333333, "type": "electric_scooter", "fusion_lon": 0.0, "is_reserved": 0, "bike_id": "418f4e49e792287c68ee558ca57c4196", "fusion_lat": 0.0, "is_disabled": 0, "rental_uris": {"ios": "https://dc.lft.to/lastmile_qr_scan", "android": "https://dc.lft.to/lastmile_qr_scan"}}, {"name": "67007d75e0728bdede3bacfefc72b600", "lon": -77.007427, "lat": 38.898366833333334, "type": "electric_scooter", "fusion_lon": 0.0, "is_reserved": 0, "bike_id": "67007d75e0728bdede3bacfefc72b600", "fusion_lat": 0.0, "is_disabled": 0, "rental_uris": {"ios": "https://dc.lft.to/lastmile_qr_scan", "android": "https://dc.lft.to/lastmile_qr_scan"}}, {"name": "44ea86fd3dc653f85dd0d548bc14a617", "lon": -77.021855, "lat": 38.911393, "type": "electric_scooter", "fusion_lon": 0.0, "is_reserved": 0, "bike_id": "44ea86fd3dc653f85dd0d548bc14a617", "fusion_lat": 0.0, "is_disabled": 0, "rental_uris": {"ios": "https://dc.lft.to/lastmile_qr_scan", "android": "https://dc.lft.to/lastmile_qr_scan"}}, {"name": "fd56fc9eea425f1b5c3c96fefd70646f", "lon": -77.0362155, "lat": 38.92855183333333, "type": "electric_scooter", "fusion_lon": 0.0, "is_reserved": 0, "bike_id": "fd56fc9eea425f1b5c3c96fefd70646f", "fusion_lat": 0.0, "is_disabled": 0, "rental_uris": {"ios": "https://dc.lft.to/lastmile_qr_scan", "android": "https://dc.lft.to/lastmile_qr_scan"}}, {"name": "adc0271baef83e31ed0e15f476c0027b", "lon": -77.04170983333333, "lat": 38.91986, "type": "electric_scooter", "fusion_lon": 0.0, "is_reserved": 0, "bike_id": "adc0271baef83e31ed0e15f476c0027b", "fusion_lat": 0.0, "is_disabled": 0, "rental_uris": {"ios": "https://dc.lft.to/lastmile_qr_scan", "android": "https://dc.lft.to/lastmile_qr_scan"}}, {"name": "2fa0a7510848bbe61e2fc767bc87ca64", "lon": -77.00756716666666, "lat": 38.91027366666667, "type": "electric_scooter", "fusion_lon": 0.0, "is_reserved": 0, "bike_id": "2fa0a7510848bbe61e2fc767bc87ca64", "fusion_lat": 0.0, "is_disabled": 0, "rental_uris": {"ios": "https://dc.lft.to/lastmile_qr_scan", "android": "https://dc.lft.to/lastmile_qr_scan"}}, {"name": "0203d6640852fc270a3ce906b195b209", "lon": -77.0586305, "lat": 38.93611516666667, "type": "electric_scooter", "fusion_lon": 0.0, "is_reserved": 0, "bike_id": "0203d6640852fc270a3ce906b195b209", "fusion_lat": 0.0, "is_disabled": 0, "rental_uris": {"ios": "https://dc.lft.to/lastmile_qr_scan", "android": "https://dc.lft.to/lastmile_qr_scan"}}, {"name": "06ced5d6c3b25dcb7f4f60145ee54a9d", "lon": -77.04577116666667, "lat": 38.913353, "type": "electric_scooter", "fusion_lon": 0.0, "is_reserved": 0, "bike_id": "06ced5d6c3b25dcb7f4f60145ee54a9d", "fusion_lat": 0.0, "is_disabled": 0, "rental_uris": {"ios": "https://dc.lft.to/lastmile_qr_scan", "android": "https://dc.lft.to/lastmile_qr_scan"}}, {"name": "dafbeab9bf937292c804e106aa2fe587", "lon": -77.043504, "lat": 38.91353516666667, "type": "electric_scooter", "fusion_lon": 0.0, "is_reserved": 0, "bike_id": "dafbeab9bf937292c804e106aa2fe587", "fusion_lat": 0.0, "is_disabled": 0, "rental_uris": {"ios": "https://dc.lft.to/lastmile_qr_scan", "android": "https://dc.lft.to/lastmile_qr_scan"}}, {"name": "f4db2f8f55e6de7a831697ec55217fd9", "lon": -77.0239455, "lat": 38.9174365, "type": "electric_scooter", "fusion_lon": 0.0, "is_reserved": 0, "bike_id": "f4db2f8f55e6de7a831697ec55217fd9", "fusion_lat": 0.0, "is_disabled": 0, "rental_uris": {"ios": "https://dc.lft.to/lastmile_qr_scan", "android": "https://dc.lft.to/lastmile_qr_scan"}}, {"name": "7e5547511c3536aa8c155771851c3534", "lon": -77.04544783333333, "lat": 38.934167333333335, "type": "electric_scooter", "fusion_lon": 0.0, "is_reserved": 0, "bike_id": "7e5547511c3536aa8c155771851c3534", "fusion_lat": 0.0, "is_disabled": 0, "rental_uris": {"ios": "https://dc.lft.to/lastmile_qr_scan", "android": "https://dc.lft.to/lastmile_qr_scan"}}, {"name": "168b76b9da5edda3f288c1540099136f", "lon": -77.00104416666667, "lat": 38.90768683333334, "type": "electric_scooter", "fusion_lon": 0.0, "is_reserved": 0, "bike_id": "168b76b9da5edda3f288c1540099136f", "fusion_lat": 0.0, "is_disabled": 0, "rental_uris": {"ios": "https://dc.lft.to/lastmile_qr_scan", "android": "https://dc.lft.to/lastmile_qr_scan"}}, {"name": "57362fe4a3e9d07f332636e8e6a89e81", "lon": -77.00602166666667, "lat": 38.87546833333333, "type": "electric_scooter", "fusion_lon": 0.0, "is_reserved": 0, "bike_id": "57362fe4a3e9d07f332636e8e6a89e81", "fusion_lat": 0.0, "is_disabled": 0, "rental_uris": {"ios": "https://dc.lft.to/lastmile_qr_scan", "android": "https://dc.lft.to/lastmile_qr_scan"}}, {"name": "d49a3beaa0237b942f8bb92bc2b9cd3d", "lon": -77.039452, "lat": 38.91756816666667, "type": "electric_scooter", "fusion_lon": 0.0, "is_reserved": 0, "bike_id": "d49a3beaa0237b942f8bb92bc2b9cd3d", "fusion_lat": 0.0, "is_disabled": 0, "rental_uris": {"ios": "https://dc.lft.to/lastmile_qr_scan", "android": "https://dc.lft.to/lastmile_qr_scan"}}, {"name": "b61308d02de6adf3075eb373cafde4be", "lon": -77.02947233333333, "lat": 38.928615666666666, "type": "electric_scooter", "fusion_lon": 0.0, "is_reserved": 0, "bike_id": "b61308d02de6adf3075eb373cafde4be", "fusion_lat": 0.0, "is_disabled": 0, "rental_uris": {"ios": "https://dc.lft.to/lastmile_qr_scan", "android": "https://dc.lft.to/lastmile_qr_scan"}}, {"name": "eb9b990d46bc4eb5949e535eea7766fb", "lon": -77.04351966666667, "lat": 38.910469, "type": "electric_scooter", "fusion_lon": 0.0, "is_reserved": 0, "bike_id": "eb9b990d46bc4eb5949e535eea7766fb", "fusion_lat": 0.0, "is_disabled": 0, "rental_uris": {"ios": "https://dc.lft.to/lastmile_qr_scan", "android": "https://dc.lft.to/lastmile_qr_scan"}}, {"name": "7f9837d7918ff7ce8f49235907996abb", "lon": -77.0390615, "lat": 38.918299166666664, "type": "electric_scooter", "fusion_lon": 0.0, "is_reserved": 0, "bike_id": "7f9837d7918ff7ce8f49235907996abb", "fusion_lat": 0.0, "is_disabled": 0, "rental_uris": {"ios": "https://dc.lft.to/lastmile_qr_scan", "android": "https://dc.lft.to/lastmile_qr_scan"}}, {"name": "69bb8f655cea11be4819f27069c2a651", "lon": -77.02466416666667, "lat": 38.938893666666665, "type": "electric_bike", "fusion_lon": 0.0, "is_reserved": 0, "bike_id": "69bb8f655cea11be4819f27069c2a651", "fusion_lat": 0.0, "is_disabled": 0, "rental_uris": {"ios": "https://dc.lft.to/lastmile_qr_scan", "android": "https://dc.lft.to/lastmile_qr_scan"}}, {"name": "26514dd9bbef02b9824b498ef0426179", "lon": -77.0354675, "lat": 38.91714116666667, "type": "electric_scooter", "fusion_lon": 0.0, "is_reserved": 0, "bike_id": "26514dd9bbef02b9824b498ef0426179", "fusion_lat": 0.0, "is_disabled": 0, "rental_uris": {"ios": "https://dc.lft.to/lastmile_qr_scan", "android": "https://dc.lft.to/lastmile_qr_scan"}}, {"name": "f5c2b3df0604c1b97f91af59502da10f", "lon": -77.03825966666666, "lat": 38.9313255, "type": "electric_scooter", "fusion_lon": 0.0, "is_reserved": 0, "bike_id": "f5c2b3df0604c1b97f91af59502da10f", "fusion_lat": 0.0, "is_disabled": 0, "rental_uris": {"ios": "https://dc.lft.to/lastmile_qr_scan", "android": "https://dc.lft.to/lastmile_qr_scan"}}, {"name": "468743eff5568af41f601e8a06293fc9", "lon": -77.032176, "lat": 38.91791716666667, "type": "electric_scooter", "fusion_lon": 0.0, "is_reserved": 0, "bike_id": "468743eff5568af41f601e8a06293fc9", "fusion_lat": 0.0, "is_disabled": 0, "rental_uris": {"ios": "https://dc.lft.to/lastmile_qr_scan", "android": "https://dc.lft.to/lastmile_qr_scan"}}, {"name": "0f6f15783111ddf6e9dd0004de4ff6d4", "lon": -76.965322, "lat": 38.87629966666667, "type": "electric_scooter", "fusion_lon": 0.0, "is_reserved": 0, "bike_id": "0f6f15783111ddf6e9dd0004de4ff6d4", "fusion_lat": 0.0, "is_disabled": 0, "rental_uris": {"ios": "https://dc.lft.to/lastmile_qr_scan", "android": "https://dc.lft.to/lastmile_qr_scan"}}, {"name": "a8f174ab6fe31830f95d9449c93cdffb", "lon": -77.00193133333333, "lat": 38.900729, "type": "electric_scooter", "fusion_lon": 0.0, "is_reserved": 0, "bike_id": "a8f174ab6fe31830f95d9449c93cdffb", "fusion_lat": 0.0, "is_disabled": 0, "rental_uris": {"ios": "https://dc.lft.to/lastmile_qr_scan", "android": "https://dc.lft.to/lastmile_qr_scan"}}, {"name": "3f56f80df9a0043b901300ef07dcedd9", "lon": -77.0387345, "lat": 38.93425766666667, "type": "electric_scooter", "fusion_lon": 0.0, "is_reserved": 0, "bike_id": "3f56f80df9a0043b901300ef07dcedd9", "fusion_lat": 0.0, "is_disabled": 0, "rental_uris": {"ios": "https://dc.lft.to/lastmile_qr_scan", "android": "https://dc.lft.to/lastmile_qr_scan"}}, {"name": "297d1d7a8db22150435f3e677bf8f001", "lon": -77.004386, "lat": 38.9123905, "type": "electric_scooter", "fusion_lon": 0.0, "is_reserved": 0, "bike_id": "297d1d7a8db22150435f3e677bf8f001", "fusion_lat": 0.0, "is_disabled": 0, "rental_uris": {"ios": "https://dc.lft.to/lastmile_qr_scan", "android": "https://dc.lft.to/lastmile_qr_scan"}}, {"name": "fd1c17dd2d1257633d6b9ed088dee70b", "lon": -77.0058205, "lat": 38.9056915, "type": "electric_scooter", "fusion_lon": 0.0, "is_reserved": 0, "bike_id": "fd1c17dd2d1257633d6b9ed088dee70b", "fusion_lat": 0.0, "is_disabled": 0, "rental_uris": {"ios": "https://dc.lft.to/lastmile_qr_scan", "android": "https://dc.lft.to/lastmile_qr_scan"}}, {"name": "5b531c0b38b7ceea104b99ddccebdfef", "lon": -77.01071483333334, "lat": 38.90728883333333, "type": "electric_scooter", "fusion_lon": 0.0, "is_reserved": 0, "bike_id": "5b531c0b38b7ceea104b99ddccebdfef", "fusion_lat": 0.0, "is_disabled": 0, "rental_uris": {"ios": "https://dc.lft.to/lastmile_qr_scan", "android": "https://dc.lft.to/lastmile_qr_scan"}}, {"name": "37b66f25daad382d2bc61498ac689dc9", "lon": -77.061604, "lat": 38.913059833333335, "type": "electric_scooter", "fusion_lon": 0.0, "is_reserved": 0, "bike_id": "37b66f25daad382d2bc61498ac689dc9", "fusion_lat": 0.0, "is_disabled": 0, "rental_uris": {"ios": "https://dc.lft.to/lastmile_qr_scan", "android": "https://dc.lft.to/lastmile_qr_scan"}}, {"name": "ea9b0d19aa28ee49ff4e1b04a661588f", "lon": -77.02393466666666, "lat": 38.92757816666666, "type": "electric_bike", "fusion_lon": 0.0, "is_reserved": 0, "bike_id": "ea9b0d19aa28ee49ff4e1b04a661588f", "fusion_lat": 0.0, "is_disabled": 0, "rental_uris": {"ios": "https://dc.lft.to/lastmile_qr_scan", "android": "https://dc.lft.to/lastmile_qr_scan"}}, {"name": "d3e284d66d9f8933e01182641846aac0", "lon": -77.0363645, "lat": 38.92747633333333, "type": "electric_scooter", "fusion_lon": 0.0, "is_reserved": 0, "bike_id": "d3e284d66d9f8933e01182641846aac0", "fusion_lat": 0.0, "is_disabled": 0, "rental_uris": {"ios": "https://dc.lft.to/lastmile_qr_scan", "android": "https://dc.lft.to/lastmile_qr_scan"}}, {"name": "799d8887aa1af525bf252b2436d295dc", "lon": -77.11048766666667, "lat": 38.87081533333333, "type": "electric_bike", "fusion_lon": 0.0, "is_reserved": 0, "bike_id": "799d8887aa1af525bf252b2436d295dc", "fusion_lat": 0.0, "is_disabled": 0, "rental_uris": {"ios": "https://dc.lft.to/lastmile_qr_scan", "android": "https://dc.lft.to/lastmile_qr_scan"}}, {"name": "8fa6af95ab5a78e4336840884dc179fb", "lon": -76.996256, "lat": 38.9009435, "type": "electric_scooter", "fusion_lon": 0.0, "is_reserved": 0, "bike_id": "8fa6af95ab5a78e4336840884dc179fb", "fusion_lat": 0.0, "is_disabled": 0, "rental_uris": {"ios": "https://dc.lft.to/lastmile_qr_scan", "android": "https://dc.lft.to/lastmile_qr_scan"}}, {"name": "104c8132aeb23896a55a8caa83a720ec", "lon": -76.93195633333333, "lat": 38.8988005, "type": "electric_scooter", "fusion_lon": 0.0, "is_reserved": 0, "bike_id": "104c8132aeb23896a55a8caa83a720ec", "fusion_lat": 0.0, "is_disabled": 0, "rental_uris": {"ios": "https://dc.lft.to/lastmile_qr_scan", "android": "https://dc.lft.to/lastmile_qr_scan"}}, {"name": "ca364c05adf59aa676591e5ab5f6e6e9", "lon": -77.1161615, "lat": 38.854969, "type": "electric_bike", "fusion_lon": 0.0, "is_reserved": 0, "bike_id": "ca364c05adf59aa676591e5ab5f6e6e9", "fusion_lat": 0.0, "is_disabled": 0, "rental_uris": {"ios": "https://dc.lft.to/lastmile_qr_scan", "android": "https://dc.lft.to/lastmile_qr_scan"}}, {"name": "cb12746877eea32f357ab9fb2613f179", "lon": -77.040917, "lat": 38.9239395, "type": "electric_scooter", "fusion_lon": 0.0, "is_reserved": 0, "bike_id": "cb12746877eea32f357ab9fb2613f179", "fusion_lat": 0.0, "is_disabled": 0, "rental_uris": {"ios": "https://dc.lft.to/lastmile_qr_scan", "android": "https://dc.lft.to/lastmile_qr_scan"}}, {"name": "1f58564fa2987f175b6a39e4b79f27f3", "lon": -77.0270025, "lat": 38.92882816666667, "type": "electric_scooter", "fusion_lon": 0.0, "is_reserved": 0, "bike_id": "1f58564fa2987f175b6a39e4b79f27f3", "fusion_lat": 0.0, "is_disabled": 0, "rental_uris": {"ios": "https://dc.lft.to/lastmile_qr_scan", "android": "https://dc.lft.to/lastmile_qr_scan"}},