{"data": {"bikes": [{"fusion_lon": 0.0, "bike_id": "4c3e7b08238f6e66f564166d6ff27493", "is_disabled": 0, "is_reserved": 0, "lat": 38.87149633333333, "name": "4c3e7b08238f6e66f564166d6ff27493", "rental_uris": {"ios": "https://dc.lft.to/lastmile_qr_scan", "android": "https://dc.lft.to/lastmile_qr_scan"}, "type": "electric_scooter", "fusion_lat": 0.0, "lon": -77.00582866666667}, {"fusion_lon": 0.0, "bike_id": "526103d171b88d687fb9ecc182ce62f3", "is_disabled": 0, "is_reserved": 0, "lat": 38.9127145, "name": "526103d171b88d687fb9ecc182ce62f3", "rental_uris": {"ios": "https://dc.lft.to/lastmile_qr_scan", "android": "https://dc.lft.to/lastmile_qr_scan"}, "type": "electric_scooter", "fusion_lat": 0.0, "lon": -77.0387105}, {"fusion_lon": 0.0, "bike_id": "db69f8855438bafbab0843171bcb3dff", "is_disabled": 0, "is_reserved": 0, "lat": 38.856471666666664, "name": "db69f8855438bafbab0843171bcb3dff", "rental_uris": {"ios": "https://dc.lft.to/lastmile_qr_scan", "android": "https://dc.lft.to/lastmile_qr_scan"}, "type": "electric_bike", "fusion_lat": 0.0, "lon": -77.08533233333333}, {"fusion_lon": 0.0, "bike_id": "6718672ef13beef3f4f334c77b9c0e0b", "is_disabled": 0, "is_reserved": 0, "lat": 38.905817, "name": "6718672ef13beef3f4f334c77b9c0e0b", "rental_uris": {"ios": "https://dc.lft.to/lastmile_qr_scan", "android": "https://dc.lft.to/lastmile_qr_scan"}, "type": "electric_scooter", "fusion_lat": 0.0, "lon": -77.03436783333333}, {"fusion_lon": 0.0, "bike_id": "6b45ae1f1b6835521ff5c7bead5b1560", "is_disabled": 0, "is_reserved": 0, "lat": 38.91705433333333, "name": "6b45ae1f1b6835521ff5c7bead5b1560", "rental_uris": {"ios": "https://dc.lft.to/lastmile_qr_scan", "android": "https://dc.lft.to/lastmile_qr_scan"}, "type": "electric_scooter", "fusion_lat": 0.0, "lon": -77.05081433333334}, {"fusion_lon": 0.0, "bike_id": "05012ee76f6cbcc0530305e4a902540c", "is_disabled": 0, "is_reserved": 0, "lat": 38.8792615, "name": "05012ee76f6cbcc0530305e4a902540c", "rental_uris": {"ios": "https://dc.lft.to/lastmile_qr_scan", "android": "https://dc.lft.to/lastmile_qr_scan"}, "type": "electric_scooter", "fusion_lat": 0.0, "lon": -77.01325216666666}, {"fusion_lon": 0.0, "bike_id": "62fddf6a147ecfc449e2b04c4c4c47db", "is_disabled": 0, "is_reserved": 0, "lat": 38.89791483333333, "name": "62fddf6a147ecfc449e2b04c4c4c47db", "rental_uris": {"ios": "https://dc.lft.to/lastmile_qr_scan", "android": "https://dc.lft.to/lastmile_qr_scan"}, "type": "electric_scooter", "fusion_lat": 0.0, "lon": -77.011959}, {"fusion_lon": 0.0, "bike_id": "c126be12a68ea753c00ad18e9696f295", "is_disabled": 0, "is_reserved": 0, "lat": 38.920314, "name": "c126be12a68ea753c00ad18e9696f295", "rental_uris": {"ios": "https://dc.lft.to/lastmile_qr_scan", "android": "https://dc.lft.to/lastmile_qr_scan"}, "type": "electric_scooter", "fusion_lat": 0.0, "lon": -77.04194916666667}, {"fusion_lon": 0.0, "bike_id": "a93053dcc00d8e288d66d89959ae3ebe", "is_disabled": 0, "is_reserved": 0, "lat": 38.909495, "name": "a93053dcc00d8e288d66d89959ae3ebe", "rental_uris": {"ios": "https://dc.lft.to/lastmile_qr_scan", "android": "https://dc.lft.to/lastmile_qr_scan"}, "type": "electric_scooter", "fusion_lat": 0.0, "lon": -76.985406}, {"fusion_lon": 0.0, "bike_id": "bf0d0ba02a8cf19b302c21fbbae503ae", "is_disabled": 0, "is_reserved": 0, "lat": 38.898413, "name": "bf0d0ba02a8cf19b302c21fbbae503ae", "rental_uris": {"ios": "https://dc.lft.to/lastmile_qr_scan", "android": "https://dc.lft.to/lastmile_qr_scan"}, "type": "electric_scooter", "fusion_lat": 0.0, "lon": -77.02279433333334}, {"fusion_lon": 0.0, "bike_id": "566d0e652c922479badf293179aea5f6", "is_disabled": 0, "is_reserved": 0, "lat": 38.93537583333333, "name": "566d0e652c922479badf293179aea5f6", "rental_uris": {"ios": "https://dc.lft.to/lastmile_qr_scan", "android": "https://dc.lft.to/lastmile_qr_scan"}, "type": "electric_scooter", "fusion_lat": 0.0, "lon": -77.02344883333333}, {"fusion_lon": 0.0, "bike_id": "ce218cce42a058549bf0fbbc56660d29", "is_disabled": 0, "is_reserved": 0, "lat": 38.923758666666664, "name": "ce218cce42a058549bf0fbbc56660d29", "rental_uris": {"ios": "https://dc.lft.to/lastmile_qr_scan", "android": "https://dc.lft.to/lastmile_qr_scan"}, "type": "electric_scooter", "fusion_lat": 0.0, "lon": -77.03162016666667}, {"fusion_lon": 0.0, "bike_id": "3233d1c09d929d237592bd011750f12e", "is_disabled": 0, "is_reserved": 0, "lat": 38.9250615, "name": "3233d1c09d929d237592bd011750f12e", "rental_uris": {"ios": "https://dc.lft.to/lastmile_qr_scan", "android": "https://dc.lft.to/lastmile_qr_scan"}, "type": "electric_scooter", "fusion_lat": 0.0, "lon": -77.021657}, {"fusion_lon": 0.0, "bike_id": "fb36ac7d341b2010cf0325154b44881f", "is_disabled": 0, "is_reserved": 0, "lat": 38.915664666666665, "name": "fb36ac7d341b2010cf0325154b44881f", "rental_uris": {"ios": "https://dc.lft.to/lastmile_qr_scan", "android": "https://dc.lft.to/lastmile_qr_scan"}, "type": "electric_scooter", "fusion_lat": 0.0, "lon": -77.04620333333334}, {"fusion_lon": 0.0, "bike_id": "28f64fea8cf0721be834b40405733c3f", "is_disabled": 0, "is_reserved": 0, "lat": 38.887366, "name": "28f64fea8cf0721be834b40405733c3f", "rental_uris": {"ios": "https://dc.lft.to/lastmile_qr_scan", "android": "https://dc.lft.to/lastmile_qr_scan"}, "type": "electric_scooter", "fusion_lat": 0.0, "lon": -77.03174583333333}, {"fusion_lon": 0.0, "bike_id": "44aeacaa9370e557ec16865c02a68ca9", "is_disabled": 0, "is_reserved": 0, "lat": 38.900161, "name": "44aeacaa9370e557ec16865c02a68ca9", "rental_uris": {"ios": "https://dc.lft.to/lastmile_qr_scan", "android": "https://dc.lft.to/lastmile_qr_scan"}, "type": "electric_scooter", "fusion_lat": 0.0, "lon": -76.98602733333334}, {"fusion_lon": 0.0, "bike_id": "889ed6224ca903125ce10125a53314b9", "is_disabled": 0, "is_reserved": 0, "lat": 38.89851433333333, "name": "889ed6224ca903125ce10125a53314b9", "rental_uris": {"ios": "https://dc.lft.to/lastmile_qr_scan", "android": "https://dc.lft.to/lastmile_qr_scan"}, "type": "electric_scooter", "fusion_lat": 0.0, "lon": -77.02272383333333}, {"fusion_lon": 0.0, "bike_id": "3baaead186f82ebbc68691eb0ae6f7d9", "is_disabled": 0, "is_reserved": 0, "lat": 38.898483166666665, "name": "3baaead186f82ebbc68691eb0ae6f7d9", "rental_uris": {"ios": "https://dc.lft.to/lastmile_qr_scan", "android": "https://dc.lft.to/lastmile_qr_scan"}, "type": "electric_scooter", "fusion_lat": 0.0, "lon": -76.93204816666666}, {"fusion_lon": 0.0, "bike_id": "eb1e2ba3c43c7bf72552781940e49cf3", "is_disabled": 0, "is_reserved": 0, "lat": 38.93586166666667, "name": "eb1e2ba3c43c7bf72552781940e49cf3", "rental_uris": {"ios": "https://dc.lft.to/lastmile_qr_scan", "android": "https://dc.lft.to/lastmile_qr_scan"}, "type": "electric_scooter", "fusion_lat": 0.0, "lon": -77.07431083333333}, {"fusion_lon": 0.0, "bike_id": "0d178e1214c3d5c9a18587fcfd51f90e", "is_disabled": 0, "is_reserved": 0, "lat": 38.92973516666667, "name": "0d178e1214c3d5c9a18587fcfd51f90e", "rental_uris": {"ios": "https://dc.lft.to/lastmile_qr_scan", "android": "https://dc.lft.to/lastmile_qr_scan"}, "type": "electric_scooter", "fusion_lat": 0.0, "lon": -77.0164195}, {"fusion_lon": 0.0, "bike_id": "5128f56fa572fb4d94a88924c2313a5d", "is_disabled": 0, "is_reserved": 0, "lat": 38.928546, "name": "5128f56fa572fb4d94a88924c2313a5d", "rental_uris": {"ios": "https://dc.lft.to/lastmile_qr_scan", "android": "https://dc.lft.to/lastmile_qr_scan"}, "type": "electric_scooter", "fusion_lat": 0.0, "lon": -77.0138975}, {"fusion_lon": 0.0, "bike_id": "e697b6cae03498f5796740f765629e8e", "is_disabled": 0, "is_reserved": 0, "lat": 38.882415, "name": "e697b6cae03498f5796740f765629e8e", "rental_uris": {"ios": "https://dc.lft.to/lastmile_qr_scan", "android": "https://dc.lft.to/lastmile_qr_scan"}, "type": "electric_scooter", "fusion_lat": 0.0, "lon": -76.9333555}, {"fusion_lon": 0.0, "bike_id": "123f3f88a2ac6858398624c03269d2a7", "is_disabled": 0, "is_reserved": 0, "lat": 38.918678666666665, "name": "123f3f88a2ac6858398624c03269d2a7", "rental_uris": {"ios": "https://dc.lft.to/lastmile_qr_scan", "android": "https://dc.lft.to/lastmile_qr_scan"}, "type": "electric_scooter", "fusion_lat": 0.0, "lon": -77.0416055}, {"fusion_lon": 0.0, "bike_id": "7b4a5db02850955d9ae3c535cd230e29", "is_disabled": 0, "is_reserved": 0, "lat": 38.8724845, "name": "7b4a5db02850955d9ae3c535cd230e29", "rental_uris": {"ios": "https://dc.lft.to/lastmile_qr_scan", "android": "https://dc.lft.to/lastmile_qr_scan"}, "type": "electric_scooter", "fusion_lat": 0.0, "lon": -76.9772545}, {"fusion_lon": 0.0, "bike_id": "cb9deb041322c5282a50907509118201", "is_disabled": 0, "is_reserved": 0, "lat": 38.896225, "name": "cb9deb041322c5282a50907509118201", "rental_uris": {"ios": "https://dc.lft.to/lastmile_qr_scan", "android": "https://dc.lft.to/lastmile_qr_scan"}, "type": "electric_scooter", "fusion_lat": 0.0, "lon": -76.998507}, {"fusion_lon": 0.0, "bike_id": "d4b5b581b6072c537b449a01b7a99632", "is_disabled": 0, "is_reserved": 0, "lat": 38.90429816666666, "name": "d4b5b581b6072c537b449a01b7a99632", "rental_uris": {"ios": "https://dc.lft.to/lastmile_qr_scan", "android": "https://dc.lft.to/lastmile_qr_scan"}, "type": "electric_scooter", "fusion_lat": 0.0, "lon": -77.0536095}, {"fusion_lon": 0.0, "bike_id": "7d8d25e0d09fef418c653d15485ee12c", "is_disabled": 0, "is_reserved": 0, "lat": 38.893720333333334, "name": "7d8d25e0d09fef418c653d15485ee12c", "rental_uris": {"ios": "https://dc.lft.to/lastmile_qr_scan", "android": "https://dc.lft.to/lastmile_qr_scan"}, "type": "electric_scooter", "fusion_lat": 0.0, "lon": -77.02059783333333}, {"fusion_lon": 0.0, "bike_id": "c426894a8657916b10f1d61dbdb57eab", "is_disabled": 0, "is_reserved": 0, "lat": 38.913419833333336, "name": "c426894a8657916b10f1d61dbdb57eab", "rental_uris": {"ios": "https://dc.lft.to/lastmile_qr_scan", "android": "https://dc.lft.to/lastmile_qr_scan"}, "type": "electric_scooter", "fusion_lat": 0.0, "lon": -77.042373}, {"fusion_lon": 0.0, "bike_id": "a51d86c28937da16bad03c9fbdef6d54", "is_disabled": 0, "is_reserved": 0, "lat": 38.900964333333334, "name": "a51d86c28937da16bad03c9fbdef6d54", "rental_uris": {"ios": "https://dc.lft.to/lastmile_qr_scan", "android": "https://dc.lft.to/lastmile_qr_scan"}, "type": "electric_bike", "fusion_lat": 0.0, "lon": -76.983444}, {"fusion_lon": 0.0, "bike_id": "2ebab3fd63099e7ab2280dfb1f3b44e1", "is_disabled": 0, "is_reserved": 0, "lat": 38.92595683333333, "name": "2ebab3fd63099e7ab2280dfb1f3b44e1", "rental_uris": {"ios": "https://dc.lft.to/lastmile_qr_scan", "android": "https://dc.lft.to/lastmile_qr_scan"}, "type": "electric_scooter", "fusion_lat": 0.0, "lon": -77.02493833333334}, {"fusion_lon": 0.0, "bike_id": "b77b15072a270522f7fbc1e2e63c7702", "is_disabled": 0, "is_reserved": 0, "lat": 38.9088835, "name": "b77b15072a270522f7fbc1e2e63c7702", "rental_uris": {"ios": "https://dc.lft.to/lastmile_qr_scan", "android": "https://dc.lft.to/lastmile_qr_scan"}, "type": "electric_scooter", "fusion_lat": 0.0, "lon": -77.04390683333334}, {"fusion_lon": 0.0, "bike_id": "f4994c0cb54b7130e16adbe7e038f64d", "is_disabled": 0, "is_reserved": 0, "lat": 38.94552383333333, "name": "f4994c0cb54b7130e16adbe7e038f64d", "rental_uris": {"ios": "https://dc.lft.to/lastmile_qr_scan", "android": "https://dc.lft.to/lastmile_qr_scan"}, "type": "electric_scooter", "fusion_lat": 0.0, "lon": -77.0641175}, {"fusion_lon": 0.0, "bike_id": "b5587c01583f2849f8c6947de3cd26df", "is_disabled": 0, "is_reserved": 0, "lat": 38.924140333333334, "name": "b5587c01583f2849f8c6947de3cd26df", "rental_uris": {"ios": "https://dc.lft.to/lastmile_qr_scan", "android": "https://dc.lft.to/lastmile_qr_scan"}, "type": "electric_scooter", "fusion_lat": 0.0, "lon": -77.02276916666666}, {"fusion_lon": 0.0, "bike_id": "acf5e751918ef602805be2a36d214c3e", "is_disabled": 0, "is_reserved": 0, "lat": 38.86201, "name": "acf5e751918ef602805be2a36d214c3e", "rental_uris": {"ios": "https://dc.lft.to/lastmile_qr_scan", "android": "https://dc.lft.to/lastmile_qr_scan"}, "type": "electric_scooter", "fusion_lat": 0.0, "lon": -76.99462083333333}, {"fusion_lon": 0.0, "bike_id": "865df87569fbae00653be08ac6f225af", "is_disabled": 0, "is_reserved": 0, "lat": 38.90767, "name": "865df87569fbae00653be08ac6f225af", "rental_uris": {"ios": "https://dc.lft.to/lastmile_qr_scan", "android": "https://dc.lft.to/lastmile_qr_scan"}, "type": "electric_scooter", "fusion_lat": 0.0, "lon": -77.041683}, {"fusion_lon": 0.0, "bike_id": "697dafbf59de1795395acc7457325b51", "is_disabled": 0, "is_reserved": 0, "lat": 38.8999965, "name": "697dafbf59de1795395acc7457325b51", "rental_uris": {"ios": "https://dc.lft.to/lastmile_qr_scan", "android": "https://dc.lft.to/lastmile_qr_scan"}, "type": "electric_scooter", "fusion_lat": 0.0, "lon": -76.99852283333334}, {"fusion_lon": 0.0, "bike_id": "93433a233a0fa2e0f936545e7b65c92a", "is_disabled": 0, "is_reserved": 0, "lat": 38.9463355, "name": "93433a233a0fa2e0f936545e7b65c92a", "rental_uris": {"ios": "https://dc.lft.to/lastmile_qr_scan", "android": "https://dc.lft.to/lastmile_qr_scan"}, "type": "electric_scooter", "fusion_lat": 0.0, "lon": -77.02273216666667}, {"fusion_lon": 0.0, "bike_id": "307748b62fe2df63bf87f97939c245e6", "is_disabled": 0, "is_reserved": 0, "lat": 38.936910166666664, "name": "307748b62fe2df63bf87f97939c245e6", "rental_uris": {"ios": "https://dc.lft.to/lastmile_qr_scan", "android": "https://dc.lft.to/lastmile_qr_scan"}, "type": "electric_bike", "fusion_lat": 0.0, "lon": -77.05644366666667}, {"fusion_lon": 0.0, "bike_id": "7edcf7435b11930be148853dc2f62940", "is_disabled": 0, "is_reserved": 0, "lat": 38.909944833333334, "name": "7edcf7435b11930be148853dc2f62940", "rental_uris": {"ios": "https://dc.lft.to/lastmile_qr_scan", "android": "https://dc.lft.to/lastmile_qr_scan"}, "type": "electric_scooter", "fusion_lat": 0.0, "lon": -77.00465516666667}, {"fusion_lon": 0.0, "bike_id": "13a5e727a98b68b0c8cc1f0bdbbeab35", "is_disabled": 0, "is_reserved": 0, "lat": 38.928038666666666, "name": "13a5e727a98b68b0c8cc1f0bdbbeab35", "rental_uris": {"ios": "https://dc.lft.to/lastmile_qr_scan", "android": "https://dc.lft.to/lastmile_qr_scan"}, "type": "electric_bike", "fusion_lat": 0.0, "lon": -77.22946333333333}, {"fusion_lon": 0.0, "bike_id": "4f33afafe6fd8375986c01f061d6f146", "is_disabled": 0, "is_reserved": 0, "lat": 38.8921885, "name": "4f33afafe6fd8375986c01f061d6f146", "rental_uris": {"ios": "https://dc.lft.to/lastmile_qr_scan", "android": "https://dc.lft.to/lastmile_qr_scan"}, "type": "electric_scooter", "fusion_lat": 0.0, "lon": -77.03175583333334}, {"fusion_lon": 0.0, "bike_id": "6e276a8bed58ebf01cd0ab1cf38058bf", "is_disabled": 0, "is_reserved": 0, "lat": 38.9242535, "name": "6e276a8bed58ebf01cd0ab1cf38058bf", "rental_uris": {"ios": "https://dc.lft.to/lastmile_qr_scan", "android": "https://dc.lft.to/lastmile_qr_scan"}, "type": "electric_scooter", "fusion_lat": 0.0, "lon": -77.044801}, {"fusion_lon": 0.0, "bike_id": "5f0743fec980782159b2e17d6cf6ef96", "is_disabled": 0, "is_reserved": 0, "lat": 38.8133195, "name": "5f0743fec980782159b2e17d6cf6ef96", "rental_uris": {"ios": "https://dc.lft.to/lastmile_qr_scan", "android": "https://dc.lft.to/lastmile_qr_scan"}, "type": "electric_bike", "fusion_lat": 0.0, "lon": -77.050865}, {"fusion_lon": 0.0, "bike_id": "718ef16e8de07ee2ba0bd2dddfc0db48", "is_disabled": 0, "is_reserved": 0, "lat": 38.883965333333336, "name": "718ef16e8de07ee2ba0bd2dddfc0db48", "rental_uris": {"ios": "https://dc.lft.to/lastmile_qr_scan", "android": "https://dc.lft.to/lastmile_qr_scan"}, "type": "electric_scooter", "fusion_lat": 0.0, "lon": -77.04456916666666}, {"fusion_lon": 0.0, "bike_id": "6eead265d95b1fb810f8f45d25490a43", "is_disabled": 0, "is_reserved": 0, "lat": 38.9240995, "name": "6eead265d95b1fb810f8f45d25490a43", "rental_uris": {"ios": "https://dc.lft.to/lastmile_qr_scan", "android": "https://dc.lft.to/lastmile_qr_scan"}, "type": "electric_scooter", "fusion_lat": 0.0, "lon": -77.0363765}, {"fusion_lon": 0.0, "bike_id": "126408d6c2155057412ef802a5612489", "is_disabled": 0, "is_reserved": 0, "lat": 38.89971633333333, "name": "126408d6c2155057412ef802a5612489", "rental_uris": {"ios": "https://dc.lft.to/lastmile_qr_scan", "android": "https://dc.lft.to/lastmile_qr_scan"}, "type": "electric_scooter", "fusion_lat": 0.0, "lon": -77.047195}, {"fusion_lon": 0.0, "bike_id": "1be3647cc5e2e522f189624905f4a4aa", "is_disabled": 0, "is_reserved": 0, "lat": 38.9096095, "name": "1be3647cc5e2e522f189624905f4a4aa", "rental_uris": {"ios": "https://dc.lft.to/lastmile_qr_scan", "android": "https://dc.lft.to/lastmile_qr_scan"}, "type": "electric_scooter", "fusion_lat": 0.0, "lon": -77.03341083333333}, {"fusion_lon": 0.0, "bike_id": "6a0c158df53be73501a46bf64b3f8dd0", "is_disabled": 0, "is_reserved": 0, "lat": 38.9148625, "name": "6a0c158df53be73501a46bf64b3f8dd0", "rental_uris": {"ios": "https://dc.lft.to/lastmile_qr_scan", "android": "https://dc.lft.to/lastmile_qr_scan"}, "type": "electric_scooter", "fusion_lat": 0.0, "lon": -77.02212716666666}, {"fusion_lon": 0.0, "bike_id": "d68f26e376ceec35863cacceef62832b", "is_disabled": 0, "is_reserved": 0, "lat": 38.907856333333335, "name": "d68f26e376ceec35863cacceef62832b", "rental_uris": {"ios": "https://dc.lft.to/lastmile_qr_scan", "android": "https://dc.lft.to/lastmile_qr_scan"}, "type": "electric_scooter", "fusion_lat": 0.0, "lon": -77.01079166666666}, {"fusion_lon": 0.0, "bike_id": "c7fb4e9c7c39f6e53b57eb300eb98ece", "is_disabled": 0, "is_reserved": 0, "lat": 38.911926, "name": "c7fb4e9c7c39f6e53b57eb300eb98ece", "rental_uris": {"ios": "https://dc.lft.to/lastmile_qr_scan", "android": "https://dc.lft.to/lastmile_qr_scan"}, "type": "electric_scooter", "fusion_lat": 0.0, "lon": -77.018144}, {"fusion_lon": 0.0, "bike_id": "c0858987aef1d5c78d86ca38e8280973", "is_disabled": 0, "is_reserved": 0, "lat": 38.908516, "name": "c0858987aef1d5c78d86ca38e8280973", "rental_uris": {"ios": "https://dc.lft.to/lastmile_qr_scan", "android": "https://dc.lft.to/lastmile_qr_scan"}, "type": "electric_scooter", "fusion_lat": 0.0, "lon": -77.02393216666667}, {"fusion_lon": 0.0, "bike_id": "0201d6807bbc5230ac2166d7a9918b7a", "is_disabled": 0, "is_reserved": 0, "lat": 38.917049666666664, "name": "0201d6807bbc5230ac2166d7a9918b7a", "rental_uris": {"ios": "https://dc.lft.to/lastmile_qr_scan", "android": "https://dc.lft.to/lastmile_qr_scan"}, "type": "electric_scooter", "fusion_lat": 0.0, "lon": -77.0347445}, {"fusion_lon": 0.0, "bike_id": "62636c3156b132fdf8ede805f7778b4b", "is_disabled": 0, "is_reserved": 0, "lat": 38.96387516666667, "name": "62636c3156b132fdf8ede805f7778b4b", "rental_uris": {"ios": "https://dc.lft.to/lastmile_qr_scan", "android": "https://dc.lft.to/lastmile_qr_scan"}, "type": "electric_scooter", "fusion_lat": 0.0, "lon": -77.027683}, {"fusion_lon": 0.0, "bike_id": "3332bb45587253baf31912f3eab04e55", "is_disabled": 0, "is_reserved": 0, "lat": 38.8360685, "name": "3332bb45587253baf31912f3eab04e55", "rental_uris": {"ios": "https://dc.lft.to/lastmile_qr_scan", "android": "https://dc.lft.to/lastmile_qr_scan"}, "type": "electric_bike", "fusion_lat": 0.0, "lon": -77.00374933333333}, {"fusion_lon": 0.0, "bike_id": "e5492f17db35f2128484589f4bd6d3b6", "is_disabled": 0, "is_reserved": 0, "lat": 38.92018933333333, "name": "e5492f17db35f2128484589f4bd6d3b6", "rental_uris": {"ios": "https://dc.lft.to/lastmile_qr_scan", "android": "https://dc.lft.to/lastmile_qr_scan"}, "type": "electric_scooter", "fusion_lat": 0.0, "lon": -77.04396883333334}, {"fusion_lon": 0.0, "bike_id": "055186f0868d9d70c3299dd4a82a89a5", "is_disabled": 0, "is_reserved": 0, "lat": 38.91604433333333, "name": "055186f0868d9d70c3299dd4a82a89a5", "rental_uris": {"ios": "https://dc.lft.to/lastmile_qr_scan", "android": "https://dc.lft.to/lastmile_qr_scan"}, "type": "electric_scooter", "fusion_lat": 0.0, "lon": -77.02969616666667}, {"fusion_lon": 0.0, "bike_id": "fdc05905e675a44485dbe18d02375e79", "is_disabled": 0, "is_reserved": 0, "lat": 38.9563485, "name": "fdc05905e675a44485dbe18d02375e79", "rental_uris": {"ios": "https://dc.lft.to/lastmile_qr_scan", "android": "https://dc.lft.to/lastmile_qr_scan"}, "type": "electric_scooter", "fusion_lat": 0.0, "lon": -77.024274}, {"fusion_lon": 0.0, "bike_id": "a15a417c6f800f410316d93efa3fb1da", "is_disabled": 0, "is_reserved": 0, "lat": 38.83382666666667, "name": "a15a417c6f800f410316d93efa3fb1da", "rental_uris": {"ios": "https://dc.lft.to/lastmile_qr_scan", "android": "https://dc.lft.to/lastmile_qr_scan"}, "type": "electric_scooter", "fusion_lat": 0.0, "lon": -77.00302216666667}, {"fusion_lon": 0.0, "bike_id": "c93cdd6f2d3760693b6fa5af5468f8a2", "is_disabled": 0, "is_reserved": 0, "lat": 38.9230175, "name": "c93cdd6f2d3760693b6fa5af5468f8a2", "rental_uris": {"ios": "https://dc.lft.to/lastmile_qr_scan", "android": "https://dc.lft.to/lastmile_qr_scan"}, "type": "electric_scooter", "fusion_lat": 0.0, "lon": -77.03507866666666}, {"fusion_lon": 0.0, "bike_id": "2253a295f37112bcf547281e75210257", "is_disabled": 0, "is_reserved": 0, "lat": 38.916906166666664, "name": "2253a295f37112bcf547281e75210257", "rental_uris": {"ios": "https://dc.lft.to/lastmile_qr_scan", "android": "https://dc.lft.to/lastmile_qr_scan"}, "type": "electric_scooter", "fusion_lat": 0.0, "lon": -77.022964}, {"fusion_lon": 0.0, "bike_id": "a0f6ffc453f54bd123f0be5e997fe5b7", "is_disabled": 0, "is_reserved": 0, "lat": 38.90743616666666, "name": "a0f6ffc453f54bd123f0be5e997fe5b7", "rental_uris": {"ios": "https://dc.lft.to/lastmile_qr_scan", "android": "https://dc.lft.to/lastmile_qr_scan"}, "type": "electric_scooter", "fusion_lat": 0.0, "lon": -77.0456355}, {"fusion_lon": 0.0, "bike_id": "dca77b74d55df591c441d0e07f2f48bc", "is_disabled": 0, "is_reserved": 0, "lat": 38.925349, "name": "dca77b74d55df591c441d0e07f2f48bc", "rental_uris": {"ios": "https://dc.lft.to/lastmile_qr_scan", "android": "https://dc.lft.to/lastmile_qr_scan"}, "type": "electric_scooter", "fusion_lat": 0.0, "lon": -77.04260433333333}, {"fusion_lon": 0.0, "bike_id": "6ccf4e82aee3eb902b5e6d82e3fe5f5a", "is_disabled": 0, "is_reserved": 0, "lat": 38.92550816666667, "name": "6ccf4e82aee3eb902b5e6d82e3fe5f5a", "rental_uris": {"ios": "https://dc.lft.to/lastmile_qr_scan", "android": "https://dc.lft.to/lastmile_qr_scan"}, "type": "electric_scooter", "fusion_lat": 0.0, "lon": -76.9720705}, {"fusion_lon": 0.0, "bike_id": "7b848214929a1840cca223887397d686", "is_disabled": 0, "is_reserved": 0, "lat": 38.966853, "name": "7b848214929a1840cca223887397d686", "rental_uris": {"ios": "https://dc.lft.to/lastmile_qr_scan", "android": "https://dc.lft.to/lastmile_qr_scan"}, "type": "electric_bike", "fusion_lat": 0.0, "lon": -77.02283316666667}, {"fusion_lon": 0.0, "bike_id": "4d5de54b1a3ab5cccc1a49419cfcfa4c", "is_disabled": 0, "is_reserved": 0, "lat": 38.898874, "name": "4d5de54b1a3ab5cccc1a49419cfcfa4c", "rental_uris": {"ios": "https://dc.lft.to/lastmile_qr_scan", "android": "https://dc.lft.to/lastmile_qr_scan"}, "type": "electric_scooter", "fusion_lat": 0.0, "lon": -76.93173983333334}, {"fusion_lon": 0.0, "bike_id": "ae04d748568a390af8ea8b38b719b3da", "is_disabled": 0, "is_reserved": 0, "lat": 38.92157483333333, "name": "ae04d748568a390af8ea8b38b719b3da", "rental_uris": {"ios": "https://dc.lft.to/lastmile_qr_scan", "android": "https://dc.lft.to/lastmile_qr_scan"}, "type": "electric_scooter", "fusion_lat": 0.0, "lon": -77.03441366666667}, {"fusion_lon": 0.0, "bike_id": "be2da0a8ecb7a0a07432c9d129c91dec", "is_disabled": 0, "is_reserved": 0, "lat": 38.91841083333333, "name": "be2da0a8ecb7a0a07432c9d129c91dec", "rental_uris": {"ios": "https://dc.lft.to/lastmile_qr_scan", "android": "https://dc.lft.to/lastmile_qr_scan"}, "type": "electric_scooter", "fusion_lat": 0.0, "lon": -77.02300866666667}, {"fusion_lon": 0.0, "bike_id": "7fbb52a70e77d9a3ea08de8123383ca1", "is_disabled": 0, "is_reserved": 0, "lat": 38.905055833333336, "name": "7fbb52a70e77d9a3ea08de8123383ca1", "rental_uris": {"ios": "https://dc.lft.to/lastmile_qr_scan", "android": "https://dc.lft.to/lastmile_qr_scan"}, "type": "electric_scooter", "fusion_lat": 0.0, "lon": -77.02949766666667}, {"fusion_lon": 0.0, "bike_id": "bb7bc4c2679fde95c817ccd34f1acbab", "is_disabled": 0, "is_reserved": 0, "lat": 38.92576733333333, "name": "bb7bc4c2679fde95c817ccd34f1acbab", "rental_uris": {"ios": "https://dc.lft.to/lastmile_qr_scan", "android": "https://dc.lft.to/lastmile_qr_scan"}, "type": "electric_scooter", "fusion_lat": 0.0, "lon": -77.0288365}, {"fusion_lon": 0.0, "bike_id": "63ba8c6904f0e153b477ca2b4b92ab4c", "is_disabled": 0, "is_reserved": 0, "lat": 38.87508916666667, "name": "63ba8c6904f0e153b477ca2b4b92ab4c", "rental_uris": {"ios": "https://dc.lft.to/lastmile_qr_scan", "android": "https://dc.lft.to/lastmile_qr_scan"}, "type": "electric_scooter", "fusion_lat": 0.0, "lon": -76.97659416666667}, {"fusion_lon": 0.0, "bike_id": "c11b3b589fc6237706eb9565c808a534", "is_disabled": 0, "is_reserved": 0, "lat": 38.8707185, "name": "c11b3b589fc6237706eb9565c808a534", "rental_uris": {"ios": "https://dc.lft.to/lastmile_qr_scan", "android": "https://dc.lft.to/lastmile_qr_scan"}, "type": "electric_scooter", "fusion_lat": 0.0, "lon": -76.9794115}, {"fusion_lon": 0.0, "bike_id": "9ae8486d658ab1aa8dbdbde6269d0c22", "is_disabled": 0, "is_reserved": 0, "lat": 38.87532233333334, "name": "9ae8486d658ab1aa8dbdbde6269d0c22", "rental_uris": {"ios": "https://dc.lft.to/lastmile_qr_scan", "android": "https://dc.lft.to/lastmile_qr_scan"}, "type": "electric_scooter", "fusion_lat": 0.0, "lon": -77.0005595}, {"fusion_lon": 0.0, "bike_id": "540ea6de980e6a39d807ab3c5bfe9b13", "is_disabled": 0, "is_reserved": 0, "lat": 38.830665833333335, "name": "540ea6de980e6a39d807ab3c5bfe9b13", "rental_uris": {"ios": "https://dc.lft.to/lastmile_qr_scan", "android": "https://dc.lft.to/lastmile_qr_scan"}, "type": "electric_bike", "fusion_lat": 0.0, "lon": -77.040794}, {"fusion_lon": 0.0, "bike_id": "b1646c419bf1f45f8f50d0ab694d8ecb", "is_disabled": 0, "is_reserved": 0, "lat": 38.911351333333336, "name": "b1646c419bf1f45f8f50d0ab694d8ecb", "rental_uris": {"ios": "https://dc.lft.to/lastmile_qr_scan", "android": "https://dc.lft.to/lastmile_qr_scan"}, "type": "electric_bike", "fusion_lat": 0.0, "lon": -77.065727}, {"fusion_lon": 0.0, "bike_id": "5b00eeb0e8d609f1ad19cff0b6959380", "is_disabled": 0, "is_reserved": 0, "lat": 38.920638833333335, "name": "5b00eeb0e8d609f1ad19cff0b6959380", "rental_uris": {"ios": "https://dc.lft.to/lastmile_qr_scan", "android": "https://dc.lft.to/lastmile_qr_scan"}, "type": "electric_scooter", "fusion_lat": 0.0, "lon": -77.07888333333334}, {"fusion_lon": 0.0, "bike_id": "3e745941f54b0faf7952316fa9347e5b", "is_disabled": 0, "is_reserved": 0, "lat": 38.89980533333333, "name": "3e745941f54b0faf7952316fa9347e5b", "rental_uris": {"ios": "https://dc.lft.to/lastmile_qr_scan", "android": "https://dc.lft.to/lastmile_qr_scan"}, "type": "electric_scooter", "fusion_lat": 0.0, "lon": -77.0264625}, {"fusion_lon": 0.0, "bike_id": "cc3d0fff60e982ca524d4d5ee5f2f5d4", "is_disabled": 0, "is_reserved": 0, "lat": 38.909481166666666, "name": "cc3d0fff60e982ca524d4d5ee5f2f5d4", "rental_uris": {"ios": "https://dc.lft.to/lastmile_qr_scan", "android": "https://dc.lft.to/lastmile_qr_scan"}, "type": "electric_scooter", "fusion_lat": 0.0, "lon": -76.93589716666666}, {"fusion_lon": 0.0, "bike_id": "3511b7e827e5779e13062d5a4067f339", "is_disabled": 0, "is_reserved": 0, "lat": 38.91437283333333, "name": "3511b7e827e5779e13062d5a4067f339", "rental_uris": {"ios": "https://dc.lft.to/lastmile_qr_scan", "android": "https://dc.lft.to/lastmile_qr_scan"}, "type": "electric_scooter", "fusion_lat": 0.0, "lon": -77.02204816666666}, {"fusion_lon": 0.0, "bike_id": "1f93eca23f5a055c120a46fe42b54d2d", "is_disabled": 0, "is_reserved": 0, "lat": 38.90818216666667, "name": "1f93eca23f5a055c120a46fe42b54d2d", "rental_uris": {"ios": "https://dc.lft.to/lastmile_qr_scan", "android": "https://dc.lft.to/lastmile_qr_scan"}, "type": "electric_scooter", "fusion_lat": 0.0, "lon": -77.063661}, {"fusion_lon": 0.0, "bike_id": "f1092d838ac9be1cb489b8cbd4e2c231", "is_disabled": 0, "is_reserved": 0, "lat": 38.909594, "name": "f1092d838ac9be1cb489b8cbd4e2c231", "rental_uris": {"ios": "https://dc.lft.to/lastmile_qr_scan", "android": "https://dc.lft.to/lastmile_qr_scan"}, "type": "electric_scooter", "fusion_lat": 0.0, "lon": -77.02798916666667}, {"fusion_lon": 0.0, "bike_id": "cd9a17cf991f3e30979d89daf5aae280", "is_disabled": 0, "is_reserved": 0, "lat": 38.920928, "name": "cd9a17cf991f3e30979d89daf5aae280", "rental_uris": {"ios": "https://dc.lft.to/lastmile_qr_scan", "android": "https://dc.lft.to/lastmile_qr_scan"}, "type": "electric_scooter", "fusion_lat": 0.0, "lon": -77.0181945}, {"fusion_lon": 0.0, "bike_id": "e8042b082e46caf1b23527512644244d", "is_disabled": 0, "is_reserved": 0, "lat": 38.8973215, "name": "e8042b082e46caf1b23527512644244d", "rental_uris": {"ios": "https://dc.lft.to/lastmile_qr_scan", "android": "https://dc.lft.to/lastmile_qr_scan"}, "type": "electric_scooter", "fusion_lat": 0.0, "lon": -77.04991733333334}, {"fusion_lon": 0.0, "bike_id": "e017bfd41be700bb84e7e2835e7b3430", "is_disabled": 0, "is_reserved": 0, "lat": 38.91565583333333, "name": "e017bfd41be700bb84e7e2835e7b3430", "rental_uris": {"ios": "https://dc.lft.to/lastmile_qr_scan", "android": "https://dc.lft.to/lastmile_qr_scan"}, "type": "electric_scooter", "fusion_lat": 0.0, "lon": -77.03192533333333}, {"fusion_lon": 0.0, "bike_id": "afcb53c97cdac1d0fa796204d339b413", "is_disabled": 0, "is_reserved": 0, "lat": 38.929651666666665, "name": "afcb53c97cdac1d0fa796204d339b413", "rental_uris": {"ios": "https://dc.lft.to/lastmile_qr_scan", "android": "https://dc.lft.to/lastmile_qr_scan"}, "type": "electric_scooter", "fusion_lat": 0.0, "lon": -77.03184383333334}, {"fusion_lon": 0.0, "bike_id": "0d5c39492cd59060cdc6c7f1275bf5c9", "is_disabled": 0, "is_reserved": 0, "lat": 38.904771333333336, "name": "0d5c39492cd59060cdc6c7f1275bf5c9", "rental_uris": {"ios": "https://dc.lft.to/lastmile_qr_scan", "android": "https://dc.lft.to/lastmile_qr_scan"}, "type": "electric_scooter", "fusion_lat": 0.0, "lon": -77.0168425}, {"fusion_lon": 0.0, "bike_id": "df8a49b08c976edc2e458ec9a5102528", "is_disabled": 0, "is_reserved": 0, "lat": 38.90258816666667, "name": "df8a49b08c976edc2e458ec9a5102528", "rental_uris": {"ios": "https://dc.lft.to/lastmile_qr_scan", "android": "https://dc.lft.to/lastmile_qr_scan"}, "type": "electric_scooter", "fusion_lat": 0.0, "lon": -77.04018233333333}, {"fusion_lon": 0.0, "bike_id": "097e295b8f835de517097b2d1794cf01", "is_disabled": 0, "is_reserved": 0, "lat": 38.92012883333334, "name": "097e295b8f835de517097b2d1794cf01", "rental_uris": {"ios": "https://dc.lft.to/lastmile_qr_scan", "android": "https://dc.lft.to/lastmile_qr_scan"}, "type": "electric_scooter", "fusion_lat": 0.0, "lon": -77.02174166666667}, {"fusion_lon": 0.0, "bike_id": "1dac3f90a68d38d4f446a8ff912feca6", "is_disabled": 0, "is_reserved": 0, "lat": 38.931667833333336, "name": "1dac3f90a68d38d4f446a8ff912feca6", "rental_uris": {"ios": "https://dc.lft.to/lastmile_qr_scan", "android": "https://dc.lft.to/lastmile_qr_scan"}, "type": "electric_scooter", "fusion_lat": 0.0, "lon": -77.05611066666667}, {"fusion_lon": 0.0, "bike_id": "001ecfad2b8e6cb89d6a19fd5d690471", "is_disabled": 0, "is_reserved": 0, "lat": 39.084308666666665, "name": "001ecfad2b8e6cb89d6a19fd5d690471", "rental_uris": {"ios": "https://dc.lft.to/lastmile_qr_scan", "android": "https://dc.lft.to/lastmile_qr_scan"}, "type": "electric_bike", "fusion_lat": 0.0, "lon": -76.95136116666667}, {"fusion_lon": 0.0, "bike_id": "aed38d1bd7681366258e1bd6e11f7370", "is_disabled": 0, "is_reserved": 0, "lat": 38.906256166666665, "name": "aed38d1bd7681366258e1bd6e11f7370", "rental_uris": {"ios": "https://dc.lft.to/lastmile_qr_scan", "android": "https://dc.lft.to/lastmile_qr_scan"}, "type": "electric_scooter", "fusion_lat": 0.0, "lon": -77.0269255}, {"fusion_lon": 0.0, "bike_id": "61903246c9a876e504a417e01823b5b0", "is_disabled": 0, "is_reserved": 0, "lat": 38.923903, "name": "61903246c9a876e504a417e01823b5b0", "rental_uris": {"ios": "https://dc.lft.to/lastmile_qr_scan", "android": "https://dc.lft.to/lastmile_qr_scan"}, "type": "electric_scooter", "fusion_lat": 0.0, "lon": -77.04305716666667}, {"fusion_lon": 0.0, "bike_id": "345810057f67563d88beb43bbeea9759", "is_disabled": 0, "is_reserved": 0, "lat": 38.91751, "name": "345810057f67563d88beb43bbeea9759", "rental_uris": {"ios": "https://dc.lft.to/lastmile_qr_scan", "android": "https://dc.lft.to/lastmile_qr_scan"}, "type": "electric_scooter", "fusion_lat": 0.0, "lon": -77.04155966666667}, {"fusion_lon": 0.0, "bike_id": "9aaf9ab6133967de70fbcf7690c89681", "is_disabled": 0, "is_reserved": 0, "lat": 38.89328883333334, "name": "9aaf9ab6133967de70fbcf7690c89681", "rental_uris": {"ios": "https://dc.lft.to/lastmile_qr_scan", "android": "https://dc.lft.to/lastmile_qr_scan"}, "type": "electric_scooter", "fusion_lat": 0.0, "lon": -76.93928866666667}, {"fusion_lon": 0.0, "bike_id": "cc80948ba9a2acdeda021bb8e8dd9b94", "is_disabled": 0, "is_reserved": 0, "lat": 38.9225055, "name": "cc80948ba9a2acdeda021bb8e8dd9b94", "rental_uris": {"ios": "https://dc.lft.to/lastmile_qr_scan", "android": "https://dc.lft.to/lastmile_qr_scan"}, "type": "electric_scooter", "fusion_lat": 0.0, "lon": -77.07702216666667}, {"fusion_lon": 0.0, "bike_id": "608a8eea2b72236d9117d57b4a7f60db", "is_disabled": 0, "is_reserved": 0, "lat": 38.881166666666665, "name": "608a8eea2b72236d9117d57b4a7f60db", "rental_uris": {"ios": "https://dc.lft.to/lastmile_qr_scan", "android": "https://dc.lft.to/lastmile_qr_scan"}, "type": "electric_scooter", "fusion_lat": 0.0, "lon": -77.0166535}, {"fusion_lon": 0.0, "bike_id": "df3a759a06c02b531ab56eb5b0220323", "is_disabled": 0, "is_reserved": 0, "lat": 38.875813666666666, "name": "df3a759a06c02b531ab56eb5b0220323", "rental_uris": {"ios": "https://dc.lft.to/lastmile_qr_scan", "android": "https://dc.lft.to/lastmile_qr_scan"}, "type": "electric_bike", "fusion_lat": 0.0, "lon": -77.234121}, {"fusion_lon": 0.0, "bike_id": "284a7198e8f7ab6d072168d56f7b2142", "is_disabled": 0, "is_reserved": 0, "lat": 38.89617366666667, "name": "284a7198e8f7ab6d072168d56f7b2142", "rental_uris": {"ios": "https://dc.lft.to/lastmile_qr_scan", "android": "https://dc.lft.to/lastmile_qr_scan"}, "type": "electric_scooter", "fusion_lat": 0.0, "lon": -77.0261265}, {"fusion_lon": 0.0, "bike_id": "8080dd1fcd2fb9de7f634a844e2b239d", "is_disabled": 0, "is_reserved": 0, "lat": 38.8874865, "name": "8080dd1fcd2fb9de7f634a844e2b239d", "rental_uris": {"ios": "https://dc.lft.to/lastmile_qr_scan", "android": "https://dc.lft.to/lastmile_qr_scan"}, "type": "electric_scooter", "fusion_lat": 0.0, "lon": -77.0285505}, {"fusion_lon": 0.0, "bike_id": "7df1afdda3864e0c3356d058959c90d9", "is_disabled": 0, "is_reserved": 0, "lat": 38.916915333333336, "name": "7df1afdda3864e0c3356d058959c90d9", "rental_uris": {"ios": "https://dc.lft.to/lastmile_qr_scan", "android": "https://dc.lft.to/lastmile_qr_scan"}, "type": "electric_scooter", "fusion_lat": 0.0, "lon": -77.04016116666666}, {"fusion_lon": 0.0, "bike_id": "3757d24c8138dcc908a697f48c085667", "is_disabled": 0, "is_reserved": 0, "lat": 38.900370833333334, "name": "3757d24c8138dcc908a697f48c085667", "rental_uris": {"ios": "https://dc.lft.to/lastmile_qr_scan", "android": "https://dc.lft.to/lastmile_qr_scan"}, "type": "electric_scooter", "fusion_lat": 0.0, "lon": -76.988352}, {"fusion_lon": 0.0, "bike_id": "4d795e36b236feb9bb13ae53cfd760a6", "is_disabled": 0, "is_reserved": 0, "lat": 38.944619833333334, "name": "4d795e36b236feb9bb13ae53cfd760a6", "rental_uris": {"ios": "https://dc.lft.to/lastmile_qr_scan", "android": "https://dc.lft.to/lastmile_qr_scan"}, "type": "electric_scooter", "fusion_lat": 0.0, "lon": -77.02637283333334}, {"fusion_lon": 0.0, "bike_id": "3fc9ed84be0118b5ee8b66821fe286be", "is_disabled": 0, "is_reserved": 0, "lat": 38.90364683333333, "name": "3fc9ed84be0118b5ee8b66821fe286be", "rental_uris": {"ios": "https://dc.lft.to/lastmile_qr_scan", "android": "https://dc.lft.to/lastmile_qr_scan"}, "type": "electric_scooter", "fusion_lat": 0.0, "lon": -76.99834483333333}, {"fusion_lon": 0.0, "bike_id": "26d0b5691c4f4e43d7c68dc535309d85", "is_disabled": 0, "is_reserved": 0, "lat": 38.92617516666667, "name": "26d0b5691c4f4e43d7c68dc535309d85", "rental_uris": {"ios": "https://dc.lft.to/lastmile_qr_scan", "android": "https://dc.lft.to/lastmile_qr_scan"}, "type": "electric_scooter", "fusion_lat": 0.0, "lon": -76.990569}, {"fusion_lon": 0.0, "bike_id": "a27de3c9f4a46cc02e62380a32d44101", "is_disabled": 0, "is_reserved": 0, "lat": 38.920323833333335, "name": "a27de3c9f4a46cc02e62380a32d44101", "rental_uris": {"ios": "https://dc.lft.to/lastmile_qr_scan", "android": "https://dc.lft.to/lastmile_qr_scan"}, "type": "electric_scooter", "fusion_lat": 0.0, "lon": -76.98486816666667}, {"fusion_lon": 0.0, "bike_id": "3c03ca904139690ce917c36f85a1854c", "is_disabled": 0, "is_reserved": 0, "lat": 38.899618833333335, "name": "3c03ca904139690ce917c36f85a1854c", "rental_uris": {"ios": "https://dc.lft.to/lastmile_qr_scan", "android": "https://dc.lft.to/lastmile_qr_scan"}, "type": "electric_scooter", "fusion_lat": 0.0, "lon": -77.047251}, {"fusion_lon": 0.0, "bike_id": "23978912fbd05723e6d9776db335b24d", "is_disabled": 0, "is_reserved": 0, "lat": 38.90170633333334, "name": "23978912fbd05723e6d9776db335b24d", "rental_uris": {"ios": "https://dc.lft.to/lastmile_qr_scan", "android": "https://dc.lft.to/lastmile_qr_scan"}, "type": "electric_scooter", "fusion_lat": 0.0, "lon": -76.98062566666667}, {"fusion_lon": 0.0, "bike_id": "aef0f1cf6903aab1b5637a2ad3674157", "is_disabled": 0, "is_reserved": 0, "lat": 38.91328716666666, "name": "aef0f1cf6903aab1b5637a2ad3674157", "rental_uris": {"ios": "https://dc.lft.to/lastmile_qr_scan", "android": "https://dc.lft.to/lastmile_qr_scan"}, "type": "electric_scooter", "fusion_lat": 0.0, "lon": -77.01366416666667}, {"fusion_lon": 0.0, "bike_id": "c7eb89afe3e2b9857ea5d6850844ee53", "is_disabled": 0, "is_reserved": 0, "lat": 38.91478166666667, "name": "c7eb89afe3e2b9857ea5d6850844ee53", "rental_uris": {"ios": "https://dc.lft.to/lastmile_qr_scan", "android": "https://dc.lft.to/lastmile_qr_scan"}, "type": "electric_scooter", "fusion_lat": 0.0, "lon": -77.02196366666666}, {"fusion_lon": 0.0, "bike_id": "905621e8f3407cef3584b3867acbfbdf", "is_disabled": 0, "is_reserved": 0, "lat": 38.90862766666667, "name": "905621e8f3407cef3584b3867acbfbdf", "rental_uris": {"ios": "https://dc.lft.to/lastmile_qr_scan", "android": "https://dc.lft.to/lastmile_qr_scan"}, "type": "electric_scooter", "fusion_lat": 0.0, "lon": -77.02307166666667}, {"fusion_lon": 0.0, "bike_id": "361a78e6acb9af586e7db99e6e03e01f", "is_disabled": 0, "is_reserved": 0, "lat": 38.91107316666667, "name": "361a78e6acb9af586e7db99e6e03e01f", "rental_uris": {"ios": "https://dc.lft.to/lastmile_qr_scan", "android": "https://dc.lft.to/lastmile_qr_scan"}, "type": "electric_scooter", "fusion_lat": 0.0, "lon": -77.0180415}, {"fusion_lon": 0.0, "bike_id": "1af6fce81ce8596699e0b0ada8bb306b", "is_disabled": 0, "is_reserved": 0, "lat": 38.92012616666667, "name": "1af6fce81ce8596699e0b0ada8bb306b", "rental_uris": {"ios": "https://dc.lft.to/lastmile_qr_scan", "android": "https://dc.lft.to/lastmile_qr_scan"}, "type": "electric_scooter", "fusion_lat": 0.0, "lon": -77.071226}, {"fusion_lon": 0.0, "bike_id": "28cc8db418611aa965d5ecddc58d388c", "is_disabled": 0, "is_reserved": 0, "lat": 38.831586333333334, "name": "28cc8db418611aa965d5ecddc58d388c", "rental_uris": {"ios": "https://dc.lft.to/lastmile_qr_scan", "android": "https://dc.lft.to/lastmile_qr_scan"}, "type": "electric_bike", "fusion_lat": 0.0, "lon": -76.99571066666667}, {"fusion_lon": 0.0, "bike_id": "e0c20060840f60ef99b160623eb8ad7f", "is_disabled": 0, "is_reserved": 0, "lat": 38.94358533333333, "name": "e0c20060840f60ef99b160623eb8ad7f", "rental_uris": {"ios": "https://dc.lft.to/lastmile_qr_scan", "android": "https://dc.lft.to/lastmile_qr_scan"}, "type": "electric_scooter", "fusion_lat": 0.0, "lon": -77.02978316666666}, {"fusion_lon": 0.0, "bike_id": "6cefe4a3258e6c20705286bd19b313d0", "is_disabled": 0, "is_reserved": 0, "lat": 38.899837833333336, "name": "6cefe4a3258e6c20705286bd19b313d0", "rental_uris": {"ios": "https://dc.lft.to/lastmile_qr_scan", "android": "https://dc.lft.to/lastmile_qr_scan"}, "type": "electric_scooter", "fusion_lat": 0.0, "lon": -77.02648816666667}, {"fusion_lon": 0.0, "bike_id": "b4afa31be07614bb8f231f270331c13a", "is_disabled": 0, "is_reserved": 0, "lat": 38.91538766666667, "name": "b4afa31be07614bb8f231f270331c13a", "rental_uris": {"ios": "https://dc.lft.to/lastmile_qr_scan", "android": "https://dc.lft.to/lastmile_qr_scan"}, "type": "electric_scooter", "fusion_lat": 0.0, "lon": -77.07545133333333}, {"fusion_lon": 0.0, "bike_id": "2520461461207b32f553476884968f3e", "is_disabled": 0, "is_reserved": 0, "lat": 38.88547466666667, "name": "2520461461207b32f553476884968f3e", "rental_uris": {"ios": "https://dc.lft.to/lastmile_qr_scan", "android": "https://dc.lft.to/lastmile_qr_scan"}, "type": "electric_scooter", "fusion_lat": 0.0, "lon": -77.0201615}, {"fusion_lon": 0.0, "bike_id": "0fa876f4011e98ac4a91bf7f176fa988", "is_disabled": 0, "is_reserved": 0, "lat": 38.94154966666667, "name": "0fa876f4011e98ac4a91bf7f176fa988", "rental_uris": {"ios": "https://dc.lft.to/lastmile_qr_scan", "android": "https://dc.lft.to/lastmile_qr_scan"}, "type": "electric_bike", "fusion_lat": 0.0, "lon": -77.00198783333333}, {"fusion_lon": 0.0, "bike_id": "587aaae8ecf311081f3686953a330424", "is_disabled": 0, "is_reserved": 0, "lat": 38.91150116666667, "name": "587aaae8ecf311081f3686953a330424", "rental_uris": {"ios": "https://dc.lft.to/lastmile_qr_scan", "android": "https://dc.lft.to/lastmile_qr_scan"}, "type": "electric_scooter", "fusion_lat": 0.0, "lon": -76.98731583333333}, {"fusion_lon": 0.0, "bike_id": "46c70472ca34c247d3a09d8eded008d6", "is_disabled": 0, "is_reserved": 0, "lat": 38.9118685, "name": "46c70472ca34c247d3a09d8eded008d6", "rental_uris": {"ios": "https://dc.lft.to/lastmile_qr_scan", "android": "https://dc.lft.to/lastmile_qr_scan"}, "type": "electric_scooter", "fusion_lat": 0.0, "lon": -77.06615233333333}, {"fusion_lon": 0.0, "bike_id": "799a05d6584a68f97b5847b7cd994067", "is_disabled": 0, "is_reserved": 0, "lat": 38.9142085, "name": "799a05d6584a68f97b5847b7cd994067", "rental_uris": {"ios": "https://dc.lft.to/lastmile_qr_scan", "android": "https://dc.lft.to/lastmile_qr_scan"}, "type": "electric_scooter", "fusion_lat": 0.0, "lon": -77.066844}, {"fusion_lon": 0.0, "bike_id": "528c800346ceb8207a66bb1d6afbf999", "is_disabled": 0, "is_reserved": 0, "lat": 38.91468066666667, "name": "528c800346ceb8207a66bb1d6afbf999", "rental_uris": {"ios": "https://dc.lft.to/lastmile_qr_scan", "android": "https://dc.lft.to/lastmile_qr_scan"}, "type": "electric_scooter", "fusion_lat": 0.0, "lon": -77.0388075}, {"fusion_lon": 0.0, "bike_id": "470f7ae5d62c4c963230190fce6fe450", "is_disabled": 0, "is_reserved": 0, "lat": 38.921027, "name": "470f7ae5d62c4c963230190fce6fe450", "rental_uris": {"ios": "https://dc.lft.to/lastmile_qr_scan", "android": "https://dc.lft.to/lastmile_qr_scan"}, "type": "electric_scooter", "fusion_lat": 0.0, "lon": -77.046891}, {"fusion_lon": 0.0, "bike_id": "4061fb128bd3ca742ad22d70ec98df80", "is_disabled": 0, "is_reserved": 0, "lat": 38.9985805, "name": "4061fb128bd3ca742ad22d70ec98df80", "rental_uris": {"ios": "https://dc.lft.to/lastmile_qr_scan", "android": "https://dc.lft.to/lastmile_qr_scan"}, "type": "electric_bike", "fusion_lat": 0.0, "lon": -76.91088833333333}, {"fusion_lon": 0.0, "bike_id": "d3f17dc5004d2a1b14415a4bc671b15e", "is_disabled": 0, "is_reserved": 0, "lat": 38.908134, "name": "d3f17dc5004d2a1b14415a4bc671b15e", "rental_uris": {"ios": "https://dc.lft.to/lastmile_qr_scan", "android": "https://dc.lft.to/lastmile_qr_scan"}, "type": "electric_scooter", "fusion_lat": 0.0, "lon": -77.029723}, {"fusion_lon": 0.0, "bike_id": "331c4a112f13a0b76710a90ed58946c1", "is_disabled": 0, "is_reserved": 0, "lat": 38.90837283333333, "name": "331c4a112f13a0b76710a90ed58946c1", "rental_uris": {"ios": "https://dc.lft.to/lastmile_qr_scan", "android": "https://dc.lft.to/lastmile_qr_scan"}, "type": "electric_scooter", "fusion_lat": 0.0, "lon": -76.9918705}, {"fusion_lon": 0.0, "bike_id": "46817e7deb3657e32f1a95fc203e5cb6", "is_disabled": 0, "is_reserved": 0, "lat": 38.86623633333333, "name": "46817e7deb3657e32f1a95fc203e5cb6", "rental_uris": {"ios": "https://dc.lft.to/lastmile_qr_scan", "android": "https://dc.lft.to/lastmile_qr_scan"}, "type": "electric_bike", "fusion_lat": 0.0, "lon": -76.945712}, {"fusion_lon": 0.0, "bike_id": "bd4b152a27212507ef5fbaae63ff875f", "is_disabled": 0, "is_reserved": 0, "lat": 38.90519883333333, "name": "bd4b152a27212507ef5fbaae63ff875f", "rental_uris": {"ios": "https://dc.lft.to/lastmile_qr_scan", "android": "https://dc.lft.to/lastmile_qr_scan"}, "type": "electric_scooter", "fusion_lat": 0.0, "lon": -77.05135683333333}, {"fusion_lon": 0.0, "bike_id": "93e3cfb6e5baf6bd724670287bcc6bf3", "is_disabled": 0, "is_reserved": 0, "lat": 38.924147, "name": "93e3cfb6e5baf6bd724670287bcc6bf3", "rental_uris": {"ios": "https://dc.lft.to/lastmile_qr_scan", "android": "https://dc.lft.to/lastmile_qr_scan"}, "type": "electric_scooter", "fusion_lat": 0.0, "lon": -77.0213215}, {"fusion_lon": 0.0, "bike_id": "0f373506a25c2ba3de2ee1ab41d07b95", "is_disabled": 0, "is_reserved": 0, "lat": 38.921063333333336, "name": "0f373506a25c2ba3de2ee1ab41d07b95", "rental_uris": {"ios": "https://dc.lft.to/lastmile_qr_scan", "android": "https://dc.lft.to/lastmile_qr_scan"}, "type": "electric_scooter", "fusion_lat": 0.0, "lon": -77.01763383333333}, {"fusion_lon": 0.0, "bike_id": "ae6a205935b3e09bf9ac578e89069a63", "is_disabled": 0, "is_reserved": 0, "lat": 38.91869666666667, "name": "ae6a205935b3e09bf9ac578e89069a63", "rental_uris": {"ios": "https://dc.lft.to/lastmile_qr_scan", "android": "https://dc.lft.to/lastmile_qr_scan"}, "type": "electric_bike", "fusion_lat": 0.0, "lon": -77.01640733333333}, {"fusion_lon": 0.0, "bike_id": "9d7f45747a5fc4cdb7416b354fb93797", "is_disabled": 0, "is_reserved": 0, "lat": 38.920106833333335, "name": "9d7f45747a5fc4cdb7416b354fb93797", "rental_uris": {"ios": "https://dc.lft.to/lastmile_qr_scan", "android": "https://dc.lft.to/lastmile_qr_scan"}, "type": "electric_scooter", "fusion_lat": 0.0, "lon": -77.02174516666666}, {"fusion_lon": 0.0, "bike_id": "6f57f083fbf52b9b32a7ae2d13f6ad01", "is_disabled": 0, "is_reserved": 0, "lat": 38.8916595, "name": "6f57f083fbf52b9b32a7ae2d13f6ad01", "rental_uris": {"ios": "https://dc.lft.to/lastmile_qr_scan", "android": "https://dc.lft.to/lastmile_qr_scan"}, "type": "electric_scooter", "fusion_lat": 0.0, "lon": -76.99152733333334}, {"fusion_lon": 0.0, "bike_id": "dbd1264c6f392d654ba106d05c00589f", "is_disabled": 0, "is_reserved": 0, "lat": 38.9171705, "name": "dbd1264c6f392d654ba106d05c00589f", "rental_uris": {"ios": "https://dc.lft.to/lastmile_qr_scan", "android": "https://dc.lft.to/lastmile_qr_scan"}, "type": "electric_scooter", "fusion_lat": 0.0, "lon": -77.091994}, {"fusion_lon": 0.0, "bike_id": "f0bb75520a5b802f7cf9cc477ab69add", "is_disabled": 0, "is_reserved": 0, "lat": 38.90072983333334, "name": "f0bb75520a5b802f7cf9cc477ab69add", "rental_uris": {"ios": "https://dc.lft.to/lastmile_qr_scan", "android": "https://dc.lft.to/lastmile_qr_scan"}, "type": "electric_scooter", "fusion_lat": 0.0, "lon": -77.0458985}, {"fusion_lon": 0.0, "bike_id": "d63b3f47044c064fe1928897d1b15021", "is_disabled": 0, "is_reserved": 0, "lat": 38.881516500000004, "name": "d63b3f47044c064fe1928897d1b15021", "rental_uris": {"ios": "https://dc.lft.to/lastmile_qr_scan", "android": "https://dc.lft.to/lastmile_qr_scan"}, "type": "electric_bike", "fusion_lat": 0.0, "lon": -77.01301116666667}, {"fusion_lon": 0.0, "bike_id": "04b157f4e1c3509fdac1438c3f6d0d42", "is_disabled": 0, "is_reserved": 0, "lat": 38.953612666666665, "name": "04b157f4e1c3509fdac1438c3f6d0d42", "rental_uris": {"ios": "https://dc.lft.to/lastmile_qr_scan", "android": "https://dc.lft.to/lastmile_qr_scan"}, "type": "electric_bike", "fusion_lat": 0.0, "lon": -76.98092416666667}, {"fusion_lon": 0.0, "bike_id": "2c3fdec1cd77e12fa940540e38f23213", "is_disabled": 0, "is_reserved": 0, "lat": 38.922465833333334, "name": "2c3fdec1cd77e12fa940540e38f23213", "rental_uris": {"ios": "https://dc.lft.to/lastmile_qr_scan", "android": "https://dc.lft.to/lastmile_qr_scan"}, "type": "electric_scooter", "fusion_lat": 0.0, "lon": -77.00829633333333}, {"fusion_lon": 0.0, "bike_id": "b0ff67871674b551a26fc58836634e2e", "is_disabled": 0, "is_reserved": 0, "lat": 38.90295116666667, "name": "b0ff67871674b551a26fc58836634e2e", "rental_uris": {"ios": "https://dc.lft.to/lastmile_qr_scan", "android": "https://dc.lft.to/lastmile_qr_scan"}, "type": "electric_scooter", "fusion_lat": 0.0, "lon": -77.0469865}, {"fusion_lon": 0.0, "bike_id": "289a5befec1d526ff84ce47faa60eb32", "is_disabled": 0, "is_reserved": 0, "lat": 38.92115883333334, "name": "289a5befec1d526ff84ce47faa60eb32", "rental_uris": {"ios": "https://dc.lft.to/lastmile_qr_scan", "android": "https://dc.lft.to/lastmile_qr_scan"}, "type": "electric_scooter", "fusion_lat": 0.0, "lon": -77.03665383333333}, {"fusion_lon": 0.0, "bike_id": "c11cb04b9a06d484df4908907efc9014", "is_disabled": 0, "is_reserved": 0, "lat": 38.88190216666667, "name": "c11cb04b9a06d484df4908907efc9014", "rental_uris": {"ios": "https://dc.lft.to/lastmile_qr_scan", "android": "https://dc.lft.to/lastmile_qr_scan"}, "type": "electric_scooter", "fusion_lat": 0.0, "lon": -77.02098383333333}, {"fusion_lon": 0.0, "bike_id": "0ddb5d6ccbf4e03f4e5d4a4961c2ee3e", "is_disabled": 0, "is_reserved": 0, "lat": 38.8948525, "name": "0ddb5d6ccbf4e03f4e5d4a4961c2ee3e", "rental_uris": {"ios": "https://dc.lft.to/lastmile_qr_scan", "android": "https://dc.lft.to/lastmile_qr_scan"}, "type": "electric_scooter", "fusion_lat": 0.0, "lon": -77.05508133333333}, {"fusion_lon": 0.0, "bike_id": "9424a59b2f3eeb2f5001da262eb21b51", "is_disabled": 0, "is_reserved": 0, "lat": 38.9086495, "name": "9424a59b2f3eeb2f5001da262eb21b51", "rental_uris": {"ios": "https://dc.lft.to/lastmile_qr_scan", "android": "https://dc.lft.to/lastmile_qr_scan"}, "type": "electric_scooter", "fusion_lat": 0.0, "lon": -77.0184015}, {"fusion_lon": 0.0, "bike_id": "11fd37e02550113df431bdf5dede21f5", "is_disabled": 0, "is_reserved": 0, "lat": 38.89246383333333, "name": "11fd37e02550113df431bdf5dede21f5", "rental_uris": {"ios": "https://dc.lft.to/lastmile_qr_scan", "android": "https://dc.lft.to/lastmile_qr_scan"}, "type": "electric_scooter", "fusion_lat": 0.0, "lon": -77.0318025}, {"fusion_lon": 0.0, "bike_id": "a83c734a3f5f388b0c2e6bcaf6a41c95", "is_disabled": 0, "is_reserved": 0, "lat": 38.8975445, "name": "a83c734a3f5f388b0c2e6bcaf6a41c95", "rental_uris": {"ios": "https://dc.lft.to/lastmile_qr_scan", "android": "https://dc.lft.to/lastmile_qr_scan"}, "type": "electric_scooter", "fusion_lat": 0.0, "lon": -77.02464333333333}, {"fusion_lon": 0.0, "bike_id": "484ee8055f82f39032778cf7ca508ca6", "is_disabled": 0, "is_reserved": 0, "lat": 38.89734966666666, "name": "484ee8055f82f39032778cf7ca508ca6", "rental_uris": {"ios": "https://dc.lft.to/lastmile_qr_scan", "android": "https://dc.lft.to/lastmile_qr_scan"}, "type": "electric_scooter", "fusion_lat": 0.0, "lon": -77.0261355}, {"fusion_lon": 0.0, "bike_id": "d122c6d8172e2c2743d0e95e56cfd00e", "is_disabled": 0, "is_reserved": 0, "lat": 38.92499216666667, "name": "d122c6d8172e2c2743d0e95e56cfd00e", "rental_uris": {"ios": "https://dc.lft.to/lastmile_qr_scan", "android": "https://dc.lft.to/lastmile_qr_scan"}, "type": "electric_scooter", "fusion_lat": 0.0, "lon": -77.03926033333333}, {"fusion_lon": 0.0, "bike_id": "f9b873e3185d1c4ce39741647af0c430", "is_disabled": 0, "is_reserved": 0, "lat": 38.89233983333333, "name": "f9b873e3185d1c4ce39741647af0c430", "rental_uris": {"ios": "https://dc.lft.to/lastmile_qr_scan", "android": "https://dc.lft.to/lastmile_qr_scan"}, "type": "electric_scooter", "fusion_lat": 0.0, "lon": -77.02414466666667}, {"fusion_lon": 0.0, "bike_id": "d3a60cf83dda6bdb7d4b5a446590d8fe", "is_disabled": 0, "is_reserved": 0, "lat": 38.89740066666667, "name": "d3a60cf83dda6bdb7d4b5a446590d8fe", "rental_uris": {"ios": "https://dc.lft.to/lastmile_qr_scan", "android": "https://dc.lft.to/lastmile_qr_scan"}, "type": "electric_scooter", "fusion_lat": 0.0, "lon": -76.99214333333333}, {"fusion_lon": 0.0, "bike_id": "79d85aa84c04e780f374e3414dec8d4b", "is_disabled": 0, "is_reserved": 0, "lat": 38.91418483333333, "name": "79d85aa84c04e780f374e3414dec8d4b", "rental_uris": {"ios": "https://dc.lft.to/lastmile_qr_scan", "android": "https://dc.lft.to/lastmile_qr_scan"}, "type": "electric_scooter", "fusion_lat": 0.0, "lon": -77.02215983333333}, {"fusion_lon": 0.0, "bike_id": "467bcca4ad9e890d50836302bcda43cb", "is_disabled": 0, "is_reserved": 0, "lat": 38.914748333333335, "name": "467bcca4ad9e890d50836302bcda43cb", "rental_uris": {"ios": "https://dc.lft.to/lastmile_qr_scan", "android": "https://dc.lft.to/lastmile_qr_scan"}, "type": "electric_scooter", "fusion_lat": 0.0, "lon": -77.00887216666666}, {"fusion_lon": 0.0, "bike_id": "9b5c5795833b76007da9f9c85fba09df", "is_disabled": 0, "is_reserved": 0, "lat": 38.9004245, "name": "9b5c5795833b76007da9f9c85fba09df", "rental_uris": {"ios": "https://dc.lft.to/lastmile_qr_scan", "android": "https://dc.lft.to/lastmile_qr_scan"}, "type": "electric_scooter", "fusion_lat": 0.0, "lon": -77.01681616666667}, {"fusion_lon": 0.0, "bike_id": "f366ff1532b57e56393977345ef9775b", "is_disabled": 0, "is_reserved": 0, "lat": 38.90829566666667, "name": "f366ff1532b57e56393977345ef9775b", "rental_uris": {"ios": "https://dc.lft.to/lastmile_qr_scan", "android": "https://dc.lft.to/lastmile_qr_scan"}, "type": "electric_scooter", "fusion_lat": 0.0, "lon": -77.03913016666667}, {"fusion_lon": 0.0, "bike_id": "42e5efdce803a8582ad6363243d470af", "is_disabled": 0, "is_reserved": 0, "lat": 38.8998625, "name": "42e5efdce803a8582ad6363243d470af", "rental_uris": {"ios": "https://dc.lft.to/lastmile_qr_scan", "android": "https://dc.lft.to/lastmile_qr_scan"}, "type": "electric_scooter", "fusion_lat": 0.0, "lon": -77.02607283333333}, {"fusion_lon": 0.0, "bike_id": "1a90359f1c7f0c86508b013df014ca56", "is_disabled": 0, "is_reserved": 0, "lat": 38.89997616666667, "name": "1a90359f1c7f0c86508b013df014ca56", "rental_uris": {"ios": "https://dc.lft.to/lastmile_qr_scan", "android": "https://dc.lft.to/lastmile_qr_scan"}, "type": "electric_scooter", "fusion_lat": 0.0, "lon": -76.99012316666666}, {"fusion_lon": 0.0, "bike_id": "e13c913fc16dfb735d36221d0a2f5dc5", "is_disabled": 0, "is_reserved": 0, "lat": 38.920983166666666, "name": "e13c913fc16dfb735d36221d0a2f5dc5", "rental_uris": {"ios": "https://dc.lft.to/lastmile_qr_scan", "android": "https://dc.lft.to/lastmile_qr_scan"}, "type": "electric_scooter", "fusion_lat": 0.0, "lon": -77.08192316666667}, {"fusion_lon": 0.0, "bike_id": "a0675bb577f719217b0621a289e5566f", "is_disabled": 0, "is_reserved": 0, "lat": 38.896359, "name": "a0675bb577f719217b0621a289e5566f", "rental_uris": {"ios": "https://dc.lft.to/lastmile_qr_scan", "android": "https://dc.lft.to/lastmile_qr_scan"}, "type": "electric_scooter", "fusion_lat": 0.0, "lon": -77.02199383333334}, {"fusion_lon": 0.0, "bike_id": "32d855090bb772ef2d73783e2a2d0251", "is_disabled": 0, "is_reserved": 0, "lat": 38.90573416666667, "name": "32d855090bb772ef2d73783e2a2d0251", "rental_uris": {"ios": "https://dc.lft.to/lastmile_qr_scan", "android": "https://dc.lft.to/lastmile_qr_scan"}, "type": "electric_scooter", "fusion_lat": 0.0, "lon": -77.005848}, {"fusion_lon": 0.0, "bike_id": "2c69207e90cb10221e7002aeb5a6791d", "is_disabled": 0, "is_reserved": 0, "lat": 38.913327, "name": "2c69207e90cb10221e7002aeb5a6791d", "rental_uris": {"ios": "https://dc.lft.to/lastmile_qr_scan", "android": "https://dc.lft.to/lastmile_qr_scan"}, "type": "electric_scooter", "fusion_lat": 0.0, "lon": -77.01467666666667}, {"fusion_lon": 0.0, "bike_id": "4d9abef200ba69e6474be1e6eb0c7388", "is_disabled": 0, "is_reserved": 0, "lat": 38.910172333333335, "name": "4d9abef200ba69e6474be1e6eb0c7388", "rental_uris": {"ios": "https://dc.lft.to/lastmile_qr_scan", "android": "https://dc.lft.to/lastmile_qr_scan"}, "type": "electric_scooter", "fusion_lat": 0.0, "lon": -77.05279266666666}, {"fusion_lon": 0.0, "bike_id": "0139686862a9035e810ede9dbfe132f4", "is_disabled": 0, "is_reserved": 0, "lat": 38.9050015, "name": "0139686862a9035e810ede9dbfe132f4", "rental_uris": {"ios": "https://dc.lft.to/lastmile_qr_scan", "android": "https://dc.lft.to/lastmile_qr_scan"}, "type": "electric_scooter", "fusion_lat": 0.0, "lon": -77.01995516666666}, {"fusion_lon": 0.0, "bike_id": "8d4921665069d68a925aa8334036ed6e", "is_disabled": 0, "is_reserved": 0, "lat": 38.91686816666667, "name": "8d4921665069d68a925aa8334036ed6e", "rental_uris": {"ios": "https://dc.lft.to/lastmile_qr_scan", "android": "https://dc.lft.to/lastmile_qr_scan"}, "type": "electric_scooter", "fusion_lat": 0.0, "lon": -77.01751633333333}, {"fusion_lon": 0.0, "bike_id": "023df78c07ad09572f2663ce35a36227", "is_disabled": 0, "is_reserved": 0, "lat": 38.9224265, "name": "023df78c07ad09572f2663ce35a36227", "rental_uris": {"ios": "https://dc.lft.to/lastmile_qr_scan", "android": "https://dc.lft.to/lastmile_qr_scan"}, "type": "electric_scooter", "fusion_lat": 0.0, "lon": -77.02811466666667}, {"fusion_lon": 0.0, "bike_id": "ba4b1bd8b9594c62f3cb51b08f319567", "is_disabled": 0, "is_reserved": 0, "lat": 38.930757, "name": "ba4b1bd8b9594c62f3cb51b08f319567", "rental_uris": {"ios": "https://dc.lft.to/lastmile_qr_scan", "android": "https://dc.lft.to/lastmile_qr_scan"}, "type": "electric_scooter", "fusion_lat": 0.0, "lon": -77.021619}, {"fusion_lon": 0.0, "bike_id": "c919464b1ca76e72827f8f5acfcea7f0", "is_disabled": 0, "is_reserved": 0, "lat": 38.908348, "name": "c919464b1ca76e72827f8f5acfcea7f0", "rental_uris": {"ios": "https://dc.lft.to/lastmile_qr_scan", "android": "https://dc.lft.to/lastmile_qr_scan"}, "type": "electric_scooter", "fusion_lat": 0.0, "lon": -76.934731}, {"fusion_lon": 0.0, "bike_id": "dcb99243919f588c61d472a761efbe39", "is_disabled": 0, "is_reserved": 0, "lat": 39.00648533333333, "name": "dcb99243919f588c61d472a761efbe39", "rental_uris": {"ios": "https://dc.lft.to/lastmile_qr_scan", "android": "https://dc.lft.to/lastmile_qr_scan"}, "type": "electric_bike", "fusion_lat": 0.0, "lon": -76.9002255}, {"fusion_lon": 0.0, "bike_id": "3e4409bec43d9ccc887a14d4e07a7e51", "is_disabled": 0, "is_reserved": 0, "lat": 38.92705466666666, "name": "3e4409bec43d9ccc887a14d4e07a7e51", "rental_uris": {"ios": "https://dc.lft.to/lastmile_qr_scan", "android": "https://dc.lft.to/lastmile_qr_scan"}, "type": "electric_scooter", "fusion_lat": 0.0, "lon": -76.9950425}, {"fusion_lon": 0.0, "bike_id": "bbd8c00b8038ad0a59344cadfae8717a", "is_disabled": 0, "is_reserved": 0, "lat": 38.905260166666665, "name": "bbd8c00b8038ad0a59344cadfae8717a", "rental_uris": {"ios": "https://dc.lft.to/lastmile_qr_scan", "android": "https://dc.lft.to/lastmile_qr_scan"}, "type": "electric_scooter", "fusion_lat": 0.0, "lon": -77.01712166666667}, {"fusion_lon": 0.0, "bike_id": "50e9d6d8706447e8f70fbf0118e65f63", "is_disabled": 0, "is_reserved": 0, "lat": 38.927164166666664, "name": "50e9d6d8706447e8f70fbf0118e65f63", "rental_uris": {"ios": "https://dc.lft.to/lastmile_qr_scan", "android": "https://dc.lft.to/lastmile_qr_scan"}, "type": "electric_scooter", "fusion_lat": 0.0, "lon": -77.0229195}, {"fusion_lon": 0.0, "bike_id": "756902f73e6094549b6cf2d308f62b24", "is_disabled": 0, "is_reserved": 0, "lat": 38.88273066666667, "name": "756902f73e6094549b6cf2d308f62b24", "rental_uris": {"ios": "https://dc.lft.to/lastmile_qr_scan", "android": "https://dc.lft.to/lastmile_qr_scan"}, "type": "electric_scooter", "fusion_lat": 0.0, "lon": -76.93556616666666}, {"fusion_lon": 0.0, "bike_id": "12beb36f099559f5fbc297f4fb2ad08b", "is_disabled": 0, "is_reserved": 0, "lat": 38.8524695, "name": "12beb36f099559f5fbc297f4fb2ad08b", "rental_uris": {"ios": "https://dc.lft.to/lastmile_qr_scan", "android": "https://dc.lft.to/lastmile_qr_scan"}, "type": "electric_bike", "fusion_lat": 0.0, "lon": -77.11410483333333}, {"fusion_lon": 0.0, "bike_id": "94124824675af1c1ca8a8f7365d30bd7", "is_disabled": 0, "is_reserved": 0, "lat": 38.8960895, "name": "94124824675af1c1ca8a8f7365d30bd7", "rental_uris": {"ios": "https://dc.lft.to/lastmile_qr_scan", "android": "https://dc.lft.to/lastmile_qr_scan"}, "type": "electric_scooter", "fusion_lat": 0.0, "lon": -76.999594}, {"fusion_lon": 0.0, "bike_id": "c36b4400cd673e7e7df546beb6c52e4e", "is_disabled": 0, "is_reserved": 0, "lat": 38.878853166666666, "name": "c36b4400cd673e7e7df546beb6c52e4e", "rental_uris": {"ios": "https://dc.lft.to/lastmile_qr_scan", "android": "https://dc.lft.to/lastmile_qr_scan"}, "type": "electric_scooter", "fusion_lat": 0.0, "lon": -77.02272683333334}, {"fusion_lon": 0.0, "bike_id": "56c730caecdd501b9d695dace48d1523", "is_disabled": 0, "is_reserved": 0, "lat": 38.91749816666667, "name": "56c730caecdd501b9d695dace48d1523", "rental_uris": {"ios": "https://dc.lft.to/lastmile_qr_scan", "android": "https://dc.lft.to/lastmile_qr_scan"}, "type": "electric_scooter", "fusion_lat": 0.0, "lon": -77.04156966666666}, {"fusion_lon": 0.0, "bike_id": "0162bf403246047ffc092784cfa9c70d", "is_disabled": 0, "is_reserved": 0, "lat": 38.90398366666667, "name": "0162bf403246047ffc092784cfa9c70d", "rental_uris": {"ios": "https://dc.lft.to/lastmile_qr_scan", "android": "https://dc.lft.to/lastmile_qr_scan"}, "type": "electric_scooter", "fusion_lat": 0.0, "lon": -77.00427433333333}, {"fusion_lon": 0.0, "bike_id": "f48f11af6ecb04b0d1038e6ff1e0e328", "is_disabled": 0, "is_reserved": 0, "lat": 38.9071295, "name": "f48f11af6ecb04b0d1038e6ff1e0e328", "rental_uris": {"ios": "https://dc.lft.to/lastmile_qr_scan", "android": "https://dc.lft.to/lastmile_qr_scan"}, "type": "electric_bike", "fusion_lat": 0.0, "lon": -77.0200115}, {"fusion_lon": 0.0, "bike_id": "a41f028987cf80283086e5fba9222859", "is_disabled": 0, "is_reserved": 0, "lat": 38.919359666666665, "name": "a41f028987cf80283086e5fba9222859", "rental_uris": {"ios": "https://dc.lft.to/lastmile_qr_scan", "android": "https://dc.lft.to/lastmile_qr_scan"}, "type": "electric_scooter", "fusion_lat": 0.0, "lon": -77.02514483333333}, {"fusion_lon": 0.0, "bike_id": "535c2ff6bdf23af505fa3202d1d8941c", "is_disabled": 0, "is_reserved": 0, "lat": 38.8760875, "name": "535c2ff6bdf23af505fa3202d1d8941c", "rental_uris": {"ios": "https://dc.lft.to/lastmile_qr_scan", "android": "https://dc.lft.to/lastmile_qr_scan"}, "type": "electric_scooter", "fusion_lat": 0.0, "lon": -77.00667066666666}, {"fusion_lon": 0.0, "bike_id": "2e29795abde8d982fb93fc2eb17a7364", "is_disabled": 0, "is_reserved": 0, "lat": 38.90263133333333, "name": "2e29795abde8d982fb93fc2eb17a7364", "rental_uris": {"ios": "https://dc.lft.to/lastmile_qr_scan", "android": "https://dc.lft.to/lastmile_qr_scan"}, "type": "electric_scooter", "fusion_lat": 0.0, "lon": -77.0032875}, {"fusion_lon": 0.0, "bike_id": "e3e8100acf8dfe96688118f43f18eca9", "is_disabled": 0, "is_reserved": 0, "lat": 38.922037833333334, "name": "e3e8100acf8dfe96688118f43f18eca9", "rental_uris": {"ios": "https://dc.lft.to/lastmile_qr_scan", "android": "https://dc.lft.to/lastmile_qr_scan"}, "type": "electric_scooter", "fusion_lat": 0.0, "lon": -77.01845783333333}, {"fusion_lon": 0.0, "bike_id": "c9b0eb53e805259752833136f3c60910", "is_disabled": 0, "is_reserved": 0, "lat": 38.924169, "name": "c9b0eb53e805259752833136f3c60910", "rental_uris": {"ios": "https://dc.lft.to/lastmile_qr_scan", "android": "https://dc.lft.to/lastmile_qr_scan"}, "type": "electric_scooter", "fusion_lat": 0.0, "lon": -77.021297}, {"fusion_lon": 0.0, "bike_id": "d9b511a4e600e513af7395b193c77ab2", "is_disabled": 0, "is_reserved": 0, "lat": 38.924621, "name": "d9b511a4e600e513af7395b193c77ab2", "rental_uris": {"ios": "https://dc.lft.to/lastmile_qr_scan", "android": "https://dc.lft.to/lastmile_qr_scan"}, "type": "electric_scooter", "fusion_lat": 0.0, "lon": -77.0219475}, {"fusion_lon": 0.0, "bike_id": "46b80e941157febe5096d931267f5d83", "is_disabled": 0, "is_reserved": 0, "lat": 38.83272383333333, "name": "46b80e941157febe5096d931267f5d83", "rental_uris": {"ios": "https://dc.lft.to/lastmile_qr_scan", "android": "https://dc.lft.to/lastmile_qr_scan"}, "type": "electric_bike", "fusion_lat": 0.0, "lon": -77.08365666666667}, {"fusion_lon": 0.0, "bike_id": "cde44fce452e8b7431d1ae5145feb0e7", "is_disabled": 0, "is_reserved": 0, "lat": 38.9156225, "name": "cde44fce452e8b7431d1ae5145feb0e7", "rental_uris": {"ios": "https://dc.lft.to/lastmile_qr_scan", "android": "https://dc.lft.to/lastmile_qr_scan"}, "type": "electric_scooter", "fusion_lat": 0.0, "lon": -77.0334385}, {"fusion_lon": 0.0, "bike_id": "59f17591312e06623b8ea3234cc9d056", "is_disabled": 0, "is_reserved": 0, "lat": 38.871666, "name": "59f17591312e06623b8ea3234cc9d056", "rental_uris": {"ios": "https://dc.lft.to/lastmile_qr_scan", "android": "https://dc.lft.to/lastmile_qr_scan"}, "type": "electric_scooter", "fusion_lat": 0.0, "lon": -77.0063525}, {"fusion_lon": 0.0, "bike_id": "e92bd7ecfd11796c2c0a288d23b841f7", "is_disabled": 0, "is_reserved": 0, "lat": 38.920456333333334, "name": "e92bd7ecfd11796c2c0a288d23b841f7", "rental_uris": {"ios": "https://dc.lft.to/lastmile_qr_scan", "android": "https://dc.lft.to/lastmile_qr_scan"}, "type": "electric_scooter", "fusion_lat": 0.0, "lon": -77.01666316666666}, {"fusion_lon": 0.0, "bike_id": "a5fe1c65c37e513fa2cdfcb4af1274fd", "is_disabled": 0, "is_reserved": 0, "lat": 38.9385245, "name": "a5fe1c65c37e513fa2cdfcb4af1274fd", "rental_uris": {"ios": "https://dc.lft.to/lastmile_qr_scan", "android": "https://dc.lft.to/lastmile_qr_scan"}, "type": "electric_scooter", "fusion_lat": 0.0, "lon": -77.07464283333333}, {"fusion_lon": 0.0, "bike_id": "fa657e08acc1948cba9666496b0b1887", "is_disabled": 0, "is_reserved": 0, "lat": 38.921197166666666, "name": "fa657e08acc1948cba9666496b0b1887", "rental_uris": {"ios": "https://dc.lft.to/lastmile_qr_scan", "android": "https://dc.lft.to/lastmile_qr_scan"}, "type": "electric_scooter", "fusion_lat": 0.0, "lon": -77.03933483333333}, {"fusion_lon": 0.0, "bike_id": "2d44d70eb2434472f46af6a94cd9858d", "is_disabled": 0, "is_reserved": 0, "lat": 38.90164383333333, "name": "2d44d70eb2434472f46af6a94cd9858d", "rental_uris": {"ios": "https://dc.lft.to/lastmile_qr_scan", "android": "https://dc.lft.to/lastmile_qr_scan"}, "type": "electric_scooter", "fusion_lat": 0.0, "lon": -76.984563}, {"fusion_lon": 0.0, "bike_id": "0e7ce9933d0ad232d29483c3c1618901", "is_disabled": 0, "is_reserved": 0, "lat": 38.904412, "name": "0e7ce9933d0ad232d29483c3c1618901", "rental_uris": {"ios": "https://dc.lft.to/lastmile_qr_scan", "android": "https://dc.lft.to/lastmile_qr_scan"}, "type": "electric_scooter", "fusion_lat": 0.0, "lon": -76.9969815}, {"fusion_lon": 0.0, "bike_id": "a66f0dc7909db6e6788abe342dd91551", "is_disabled": 0, "is_reserved": 0, "lat": 38.87529583333333, "name": "a66f0dc7909db6e6788abe342dd91551", "rental_uris": {"ios": "https://dc.lft.to/lastmile_qr_scan", "android": "https://dc.lft.to/lastmile_qr_scan"}, "type": "electric_scooter", "fusion_lat": 0.0, "lon": -77.008852}, {"fusion_lon": 0.0, "bike_id": "4440f18df08451cbadf015f45c92b3e3", "is_disabled": 0, "is_reserved": 0, "lat": 38.90271833333333, "name": "4440f18df08451cbadf015f45c92b3e3", "rental_uris": {"ios": "https://dc.lft.to/lastmile_qr_scan", "android": "https://dc.lft.to/lastmile_qr_scan"}, "type": "electric_scooter", "fusion_lat": 0.0, "lon": -77.02780666666666}, {"fusion_lon": 0.0, "bike_id": "fd9c9a5de212b59a8657b2c105179805", "is_disabled": 0, "is_reserved": 0, "lat": 38.915944333333336, "name": "fd9c9a5de212b59a8657b2c105179805", "rental_uris": {"ios": "https://dc.lft.to/lastmile_qr_scan", "android": "https://dc.lft.to/lastmile_qr_scan"}, "type": "electric_scooter", "fusion_lat": 0.0, "lon": -77.03215133333333}, {"fusion_lon": 0.0, "bike_id": "1e47c01001c4dcba2202074875a84606", "is_disabled": 0, "is_reserved": 0, "lat": 38.924418833333334, "name": "1e47c01001c4dcba2202074875a84606", "rental_uris": {"ios": "https://dc.lft.to/lastmile_qr_scan", "android": "https://dc.lft.to/lastmile_qr_scan"}, "type": "electric_scooter", "fusion_lat": 0.0, "lon": -77.020334}, {"fusion_lon": 0.0, "bike_id": "838f828eae8c63a48330f645596a895c", "is_disabled": 0, "is_reserved": 0, "lat": 38.916052666666666, "name": "838f828eae8c63a48330f645596a895c", "rental_uris": {"ios": "https://dc.lft.to/lastmile_qr_scan", "android": "https://dc.lft.to/lastmile_qr_scan"}, "type": "electric_scooter", "fusion_lat": 0.0, "lon": -77.02395016666667}, {"fusion_lon": 0.0, "bike_id": "25759ba88f6f25bd246fd77d95c40773", "is_disabled": 0, "is_reserved": 0, "lat": 38.915622166666665, "name": "25759ba88f6f25bd246fd77d95c40773", "rental_uris": {"ios": "https://dc.lft.to/lastmile_qr_scan", "android": "https://dc.lft.to/lastmile_qr_scan"}, "type": "electric_scooter", "fusion_lat": 0.0, "lon": -77.00703466666667}, {"fusion_lon": 0.0, "bike_id": "d42d900769310b674a8a6db967ba0b49", "is_disabled": 0, "is_reserved": 0, "lat": 38.89887216666666, "name": "d42d900769310b674a8a6db967ba0b49", "rental_uris": {"ios": "https://dc.lft.to/lastmile_qr_scan", "android": "https://dc.lft.to/lastmile_qr_scan"}, "type": "electric_scooter", "fusion_lat": 0.0, "lon": -77.0529845}, {"fusion_lon": 0.0, "bike_id": "79449e8c918ea0c61694766ca094221c", "is_disabled": 0, "is_reserved": 0, "lat": 38.8835985, "name": "79449e8c918ea0c61694766ca094221c", "rental_uris": {"ios": "https://dc.lft.to/lastmile_qr_scan", "android": "https://dc.lft.to/lastmile_qr_scan"}, "type": "electric_scooter", "fusion_lat": 0.0, "lon": -76.95770116666667}, {"fusion_lon": 0.0, "bike_id": "4b2b6cef49fda1c47e8a6371bd11bb72", "is_disabled": 0, "is_reserved": 0, "lat": 38.87443483333333, "name": "4b2b6cef49fda1c47e8a6371bd11bb72", "rental_uris": {"ios": "https://dc.lft.to/lastmile_qr_scan", "android": "https://dc.lft.to/lastmile_qr_scan"}, "type": "electric_scooter", "fusion_lat": 0.0, "lon": -77.00057866666667}, {"fusion_lon": 0.0, "bike_id": "32813e3aa356e490251c6779e335e682", "is_disabled": 0, "is_reserved": 0, "lat": 38.92655833333333, "name": "32813e3aa356e490251c6779e335e682", "rental_uris": {"ios": "https://dc.lft.to/lastmile_qr_scan", "android": "https://dc.lft.to/lastmile_qr_scan"}, "type": "electric_scooter", "fusion_lat": 0.0, "lon": -77.033039}, {"fusion_lon": 0.0, "bike_id": "e45cdf702529563f1e40764a9e2c2ecb", "is_disabled": 0, "is_reserved": 0, "lat": 38.9241505, "name": "e45cdf702529563f1e40764a9e2c2ecb", "rental_uris": {"ios": "https://dc.lft.to/lastmile_qr_scan", "android": "https://dc.lft.to/lastmile_qr_scan"}, "type": "electric_scooter", "fusion_lat": 0.0, "lon": -77.02260816666667}, {"fusion_lon": 0.0, "bike_id": "57de1c362115ca720d76d5370875ad98", "is_disabled": 0, "is_reserved": 0, "lat": 38.90847133333333, "name": "57de1c362115ca720d76d5370875ad98", "rental_uris": {"ios": "https://dc.lft.to/lastmile_qr_scan", "android": "https://dc.lft.to/lastmile_qr_scan"}, "type": "electric_scooter", "fusion_lat": 0.0, "lon": -77.00406133333334}, {"fusion_lon": 0.0, "bike_id": "cee41cb26a6fb0569634964bf5b123f3", "is_disabled": 0, "is_reserved": 0, "lat": 38.896707166666666, "name": "cee41cb26a6fb0569634964bf5b123f3", "rental_uris": {"ios": "https://dc.lft.to/lastmile_qr_scan", "android": "https://dc.lft.to/lastmile_qr_scan"}, "type": "electric_scooter", "fusion_lat": 0.0, "lon": -76.9321505}, {"fusion_lon": 0.0, "bike_id": "d02796f8f8153d8fd268e8f6056c9608", "is_disabled": 0, "is_reserved": 0, "lat": 38.8793885, "name": "d02796f8f8153d8fd268e8f6056c9608", "rental_uris": {"ios": "https://dc.lft.to/lastmile_qr_scan", "android": "https://dc.lft.to/lastmile_qr_scan"}, "type": "electric_bike", "fusion_lat": 0.0, "lon": -77.01370183333333}, {"fusion_lon": 0.0, "bike_id": "971faa3c12e7176408401ffb60dbe651", "is_disabled": 0, "is_reserved": 0, "lat": 38.920716666666664, "name": "971faa3c12e7176408401ffb60dbe651", "rental_uris": {"ios": "https://dc.lft.to/lastmile_qr_scan", "android": "https://dc.lft.to/lastmile_qr_scan"}, "type": "electric_scooter", "fusion_lat": 0.0, "lon": -77.02396566666667}, {"fusion_lon": 0.0, "bike_id": "87b2d0f4eeba69e9844934f4ce659118", "is_disabled": 0, "is_reserved": 0, "lat": 38.923594, "name": "87b2d0f4eeba69e9844934f4ce659118", "rental_uris": {"ios": "https://dc.lft.to/lastmile_qr_scan", "android": "https://dc.lft.to/lastmile_qr_scan"}, "type": "electric_scooter", "fusion_lat": 0.0, "lon": -77.03367533333333}, {"fusion_lon": 0.0, "bike_id": "fd1a080799ec5d0808577f69779c965c", "is_disabled": 0, "is_reserved": 0, "lat": 38.921224, "name": "fd1a080799ec5d0808577f69779c965c", "rental_uris": {"ios": "https://dc.lft.to/lastmile_qr_scan", "android": "https://dc.lft.to/lastmile_qr_scan"}, "type": "electric_scooter", "fusion_lat": 0.0, "lon": -77.03660733333334}, {"fusion_lon": 0.0, "bike_id": "b546b7cff8ddb5ee1abadcb00d30ca04", "is_disabled": 0, "is_reserved": 0, "lat": 38.931288333333335, "name": "b546b7cff8ddb5ee1abadcb00d30ca04", "rental_uris": {"ios": "https://dc.lft.to/lastmile_qr_scan", "android": "https://dc.lft.to/lastmile_qr_scan"}, "type": "electric_scooter", "fusion_lat": 0.0, "lon": -77.02268633333334}, {"fusion_lon": 0.0, "bike_id": "b4875827370b2cca72b378d5a8cd34e1", "is_disabled": 0, "is_reserved": 0, "lat": 38.8982505, "name": "b4875827370b2cca72b378d5a8cd34e1", "rental_uris": {"ios": "https://dc.lft.to/lastmile_qr_scan", "android": "https://dc.lft.to/lastmile_qr_scan"}, "type": "electric_scooter", "fusion_lat": 0.0, "lon": -76.94653333333333}, {"fusion_lon": 0.0, "bike_id": "b40d36701433d031e518aab6ebd0f3a0", "is_disabled": 0, "is_reserved": 0, "lat": 38.92553216666667, "name": "b40d36701433d031e518aab6ebd0f3a0", "rental_uris": {"ios": "https://dc.lft.to/lastmile_qr_scan", "android": "https://dc.lft.to/lastmile_qr_scan"}, "type": "electric_scooter", "fusion_lat": 0.0, "lon": -77.05298733333333}, {"fusion_lon": 0.0, "bike_id": "73b032b2f1682a25eb785ee5fc5fb59f", "is_disabled": 0, "is_reserved": 0, "lat": 39.026231, "name": "73b032b2f1682a25eb785ee5fc5fb59f", "rental_uris": {"ios": "https://dc.lft.to/lastmile_qr_scan", "android": "https://dc.lft.to/lastmile_qr_scan"}, "type": "electric_bike", "fusion_lat": 0.0, "lon": -77.03877983333334}, {"fusion_lon": 0.0, "bike_id": "878fe5e78186f8dd47331e681c09d5bb", "is_disabled": 0, "is_reserved": 0, "lat": 38.89781416666667, "name": "878fe5e78186f8dd47331e681c09d5bb", "rental_uris": {"ios": "https://dc.lft.to/lastmile_qr_scan", "android": "https://dc.lft.to/lastmile_qr_scan"}, "type": "electric_scooter", "fusion_lat": 0.0, "lon": -77.027417}, {"fusion_lon": 0.0, "bike_id": "633cb80908ffdcc8967cbcc2b699d565", "is_disabled": 0, "is_reserved": 0, "lat": 38.91309483333333, "name": "633cb80908ffdcc8967cbcc2b699d565", "rental_uris": {"ios": "https://dc.lft.to/lastmile_qr_scan", "android": "https://dc.lft.to/lastmile_qr_scan"}, "type": "electric_scooter", "fusion_lat": 0.0, "lon": -77.02857433333334}, {"fusion_lon": 0.0, "bike_id": "043806a7e215391743406779f09f980f", "is_disabled": 0, "is_reserved": 0, "lat": 38.899263166666664, "name": "043806a7e215391743406779f09f980f", "rental_uris": {"ios": "https://dc.lft.to/lastmile_qr_scan", "android": "https://dc.lft.to/lastmile_qr_scan"}, "type": "electric_scooter", "fusion_lat": 0.0, "lon": -76.94579433333334}, {"fusion_lon": 0.0, "bike_id": "b0f0544be38fdc896628f3da4841aa2c", "is_disabled": 0, "is_reserved": 0, "lat": 38.9073135, "name": "b0f0544be38fdc896628f3da4841aa2c", "rental_uris": {"ios": "https://dc.lft.to/lastmile_qr_scan", "android": "https://dc.lft.to/lastmile_qr_scan"}, "type": "electric_scooter", "fusion_lat": 0.0, "lon": -77.00505233333334}, {"fusion_lon": 0.0, "bike_id": "adf057ad7a879e21d731f967532a2023", "is_disabled": 0, "is_reserved": 0, "lat": 38.9876585, "name": "adf057ad7a879e21d731f967532a2023", "rental_uris": {"ios": "https://dc.lft.to/lastmile_qr_scan", "android": "https://dc.lft.to/lastmile_qr_scan"}, "type": "electric_bike", "fusion_lat": 0.0, "lon": -77.02647166666667}, {"fusion_lon": 0.0, "bike_id": "5237fd78ece3f541496dd9da7d93433c", "is_disabled": 0, "is_reserved": 0, "lat": 38.91715116666666, "name": "5237fd78ece3f541496dd9da7d93433c", "rental_uris": {"ios": "https://dc.lft.to/lastmile_qr_scan", "android": "https://dc.lft.to/lastmile_qr_scan"}, "type": "electric_scooter", "fusion_lat": 0.0, "lon": -77.03246783333333}, {"fusion_lon": 0.0, "bike_id": "350a11cedb05bd7c3e4c81dd135c9562", "is_disabled": 0, "is_reserved": 0, "lat": 38.92487166666667, "name": "350a11cedb05bd7c3e4c81dd135c9562", "rental_uris": {"ios": "https://dc.lft.to/lastmile_qr_scan", "android": "https://dc.lft.to/lastmile_qr_scan"}, "type": "electric_scooter", "fusion_lat": 0.0, "lon": -77.03183116666666}, {"fusion_lon": 0.0, "bike_id": "397ed9cbdd75026f86f9c8cec2db8b2f", "is_disabled": 0, "is_reserved": 0, "lat": 38.95624383333333, "name": "397ed9cbdd75026f86f9c8cec2db8b2f", "rental_uris": {"ios": "https://dc.lft.to/lastmile_qr_scan", "android": "https://dc.lft.to/lastmile_qr_scan"}, "type": "electric_bike", "fusion_lat": 0.0, "lon": -76.93869883333333}, {"fusion_lon": 0.0, "bike_id": "8b4c13674d3fa1f14a40fb3032bed593", "is_disabled": 0, "is_reserved": 0, "lat": 38.9045375, "name": "8b4c13674d3fa1f14a40fb3032bed593", "rental_uris": {"ios": "https://dc.lft.to/lastmile_qr_scan", "android": "https://dc.lft.to/lastmile_qr_scan"}, "type": "electric_scooter", "fusion_lat": 0.0, "lon": -76.982505}, {"fusion_lon": 0.0, "bike_id": "42d456d5738ed0aef1711261a027a652", "is_disabled": 0, "is_reserved": 0, "lat": 38.857826333333335, "name": "42d456d5738ed0aef1711261a027a652", "rental_uris": {"ios": "https://dc.lft.to/lastmile_qr_scan", "android": "https://dc.lft.to/lastmile_qr_scan"}, "type": "electric_bike", "fusion_lat": 0.0, "lon": -76.98753833333333}, {"fusion_lon": 0.0, "bike_id": "99125d504fdeef88a25aaedeada5a7bd", "is_disabled": 0, "is_reserved": 0, "lat": 38.92866733333334, "name": "99125d504fdeef88a25aaedeada5a7bd", "rental_uris": {"ios": "https://dc.lft.to/lastmile_qr_scan", "android": "https://dc.lft.to/lastmile_qr_scan"}, "type": "electric_scooter", "fusion_lat": 0.0, "lon": -77.02728316666666}, {"fusion_lon": 0.0, "bike_id": "195bc6e1b046580ed440c7fcfc97df9e", "is_disabled": 0, "is_reserved": 0, "lat": 38.9744235, "name": "195bc6e1b046580ed440c7fcfc97df9e", "rental_uris": {"ios": "https://dc.lft.to/lastmile_qr_scan", "android": "https://dc.lft.to/lastmile_qr_scan"}, "type": "electric_bike", "fusion_lat": 0.0, "lon": -77.09613533333334}, {"fusion_lon": 0.0, "bike_id": "d63b68a2a9370c8b8ff934df917c5de1", "is_disabled": 0, "is_reserved": 0, "lat": 38.8544795, "name": "d63b68a2a9370c8b8ff934df917c5de1", "rental_uris": {"ios": "https://dc.lft.to/lastmile_qr_scan", "android": "https://dc.lft.to/lastmile_qr_scan"}, "type": "electric_scooter", "fusion_lat": 0.0, "lon": -76.98612783333333}, {"fusion_lon": 0.0, "bike_id": "95a40b1bd9777d46fe53a6ed72c1d862", "is_disabled": 0, "is_reserved": 0, "lat": 38.924196333333335, "name": "95a40b1bd9777d46fe53a6ed72c1d862", "rental_uris": {"ios": "https://dc.lft.to/lastmile_qr_scan", "android": "https://dc.lft.to/lastmile_qr_scan"}, "type": "electric_scooter", "fusion_lat": 0.0, "lon": -77.02008516666666}, {"fusion_lon": 0.0, "bike_id": "bc7d2ca0318ccecb7721f45c0ad730fb", "is_disabled": 0, "is_reserved": 0, "lat": 38.91917983333333, "name": "bc7d2ca0318ccecb7721f45c0ad730fb", "rental_uris": {"ios": "https://dc.lft.to/lastmile_qr_scan", "android": "https://dc.lft.to/lastmile_qr_scan"}, "type": "electric_scooter", "fusion_lat": 0.0, "lon": -77.03420966666667}, {"fusion_lon": 0.0, "bike_id": "d46d5841b90a6ce00840854e7af96fea", "is_disabled": 0, "is_reserved": 0, "lat": 38.93120833333333, "name": "d46d5841b90a6ce00840854e7af96fea", "rental_uris": {"ios": "https://dc.lft.to/lastmile_qr_scan", "android": "https://dc.lft.to/lastmile_qr_scan"}, "type": "electric_scooter", "fusion_lat": 0.0, "lon": -77.07863033333334}, {"fusion_lon": 0.0, "bike_id": "039f76827ab1060d5abd49e6a9786c40", "is_disabled": 0, "is_reserved": 0, "lat": 38.9176685, "name": "039f76827ab1060d5abd49e6a9786c40", "rental_uris": {"ios": "https://dc.lft.to/lastmile_qr_scan", "android": "https://dc.lft.to/lastmile_qr_scan"}, "type": "electric_scooter", "fusion_lat": 0.0, "lon": -77.003445}, {"fusion_lon": 0.0, "bike_id": "f9f1de9f3e898ec06db3bbc841837ff6", "is_disabled": 0, "is_reserved": 0, "lat": 38.900638666666666, "name": "f9f1de9f3e898ec06db3bbc841837ff6", "rental_uris": {"ios": "https://dc.lft.to/lastmile_qr_scan", "android": "https://dc.lft.to/lastmile_qr_scan"}, "type": "electric_scooter", "fusion_lat": 0.0, "lon": -77.05044183333334}, {"fusion_lon": 0.0, "bike_id": "c4f9b9dc671336a2fb0a56f2b60344b7", "is_disabled": 0, "is_reserved": 0, "lat": 38.9118825, "name": "c4f9b9dc671336a2fb0a56f2b60344b7", "rental_uris": {"ios": "https://dc.lft.to/lastmile_qr_scan", "android": "https://dc.lft.to/lastmile_qr_scan"}, "type": "electric_scooter", "fusion_lat": 0.0, "lon": -77.03226366666667}, {"fusion_lon": 0.0, "bike_id": "ee87337e2234c4621a85668659008c69", "is_disabled": 0, "is_reserved": 0, "lat": 38.89242433333333, "name": "ee87337e2234c4621a85668659008c69", "rental_uris": {"ios": "https://dc.lft.to/lastmile_qr_scan", "android": "https://dc.lft.to/lastmile_qr_scan"}, "type": "electric_scooter", "fusion_lat": 0.0, "lon": -76.9521365}, {"fusion_lon": 0.0, "bike_id": "a03daa84b80ff05e77e6c02d4109b1a7", "is_disabled": 0, "is_reserved": 0, "lat": 38.914769, "name": "a03daa84b80ff05e77e6c02d4109b1a7", "rental_uris": {"ios": "https://dc.lft.to/lastmile_qr_scan", "android": "https://dc.lft.to/lastmile_qr_scan"}, "type": "electric_scooter", "fusion_lat": 0.0, "lon": -77.02194766666666}, {"fusion_lon": 0.0, "bike_id": "a13ed79225e4b2682b1cb7098782ba94", "is_disabled": 0, "is_reserved": 0, "lat": 38.9373185, "name": "a13ed79225e4b2682b1cb7098782ba94", "rental_uris": {"ios": "https://dc.lft.to/lastmile_qr_scan", "android": "https://dc.lft.to/lastmile_qr_scan"}, "type": "electric_scooter", "fusion_lat": 0.0, "lon": -77.07355466666667}, {"fusion_lon": 0.0, "bike_id": "dc83d521c87feae4628d3b692aa27c00", "is_disabled": 0, "is_reserved": 0, "lat": 38.888761333333335, "name": "dc83d521c87feae4628d3b692aa27c00", "rental_uris": {"ios": "https://dc.lft.to/lastmile_qr_scan", "android": "https://dc.lft.to/lastmile_qr_scan"}, "type": "electric_scooter", "fusion_lat": 0.0, "lon": -76.99032666666666}, {"fusion_lon": 0.0, "bike_id": "f1a2100acc1aa5841d3be20e9b7b74c1", "is_disabled": 0, "is_reserved": 0, "lat": 38.902180666666666, "name": "f1a2100acc1aa5841d3be20e9b7b74c1", "rental_uris": {"ios": "https://dc.lft.to/lastmile_qr_scan", "android": "https://dc.lft.to/lastmile_qr_scan"}, "type": "electric_scooter", "fusion_lat": 0.0, "lon": -77.02183166666667}, {"fusion_lon": 0.0, "bike_id": "76287ec8889a07198d4f09a8ec05559e", "is_disabled": 0, "is_reserved": 0, "lat": 38.9247135, "name": "76287ec8889a07198d4f09a8ec05559e", "rental_uris": {"ios": "https://dc.lft.to/lastmile_qr_scan", "android": "https://dc.lft.to/lastmile_qr_scan"}, "type": "electric_scooter", "fusion_lat": 0.0, "lon": -77.02217783333333}, {"fusion_lon": 0.0, "bike_id": "45100ef987c60d0fe85b0b0354635fa3", "is_disabled": 0, "is_reserved": 0, "lat": 38.90008683333333, "name": "45100ef987c60d0fe85b0b0354635fa3", "rental_uris": {"ios": "https://dc.lft.to/lastmile_qr_scan", "android": "https://dc.lft.to/lastmile_qr_scan"}, "type": "electric_scooter", "fusion_lat": 0.0, "lon": -76.99353866666667}, {"fusion_lon": 0.0, "bike_id": "d9a808b716e282c1689202d3180a94f7", "is_disabled": 0, "is_reserved": 0, "lat": 38.895387666666664, "name": "d9a808b716e282c1689202d3180a94f7", "rental_uris": {"ios": "https://dc.lft.to/lastmile_qr_scan", "android": "https://dc.lft.to/lastmile_qr_scan"}, "type": "electric_scooter", "fusion_lat": 0.0, "lon": -77.03182033333333}, {"fusion_lon": 0.0, "bike_id": "7be50abd09723f3d6f36987cd6faf969", "is_disabled": 0, "is_reserved": 0, "lat": 38.90648516666667, "name": "7be50abd09723f3d6f36987cd6faf969", "rental_uris": {"ios": "https://dc.lft.to/lastmile_qr_scan", "android": "https://dc.lft.to/lastmile_qr_scan"}, "type": "electric_scooter", "fusion_lat": 0.0, "lon": -77.05324916666666}, {"fusion_lon": 0.0, "bike_id": "98672720b5030ea42c7f6c23b935246b", "is_disabled": 0, "is_reserved": 0, "lat": 38.8988455, "name": "98672720b5030ea42c7f6c23b935246b", "rental_uris": {"ios": "https://dc.lft.to/lastmile_qr_scan", "android": "https://dc.lft.to/lastmile_qr_scan"}, "type": "electric_scooter", "fusion_lat": 0.0, "lon": -77.02040333333333}, {"fusion_lon": 0.0, "bike_id": "64721c50af949ef8c5172f69a24dc65e", "is_disabled": 0, "is_reserved": 0, "lat": 38.925972, "name": "64721c50af949ef8c5172f69a24dc65e", "rental_uris": {"ios": "https://dc.lft.to/lastmile_qr_scan", "android": "https://dc.lft.to/lastmile_qr_scan"}, "type": "electric_bike", "fusion_lat": 0.0, "lon": -77.03328183333333}, {"fusion_lon": 0.0, "bike_id": "916548643b567e08b6e4fb90c85deccc", "is_disabled": 0, "is_reserved": 0, "lat": 38.926137, "name": "916548643b567e08b6e4fb90c85deccc", "rental_uris": {"ios": "https://dc.lft.to/lastmile_qr_scan", "android": "https://dc.lft.to/lastmile_qr_scan"}, "type": "electric_scooter", "fusion_lat": 0.0, "lon": -77.02162516666667}, {"fusion_lon": 0.0, "bike_id": "4daa09864387404ba43aead2f4744f81", "is_disabled": 0, "is_reserved": 0, "lat": 38.902302166666665, "name": "4daa09864387404ba43aead2f4744f81", "rental_uris": {"ios": "https://dc.lft.to/lastmile_qr_scan", "android": "https://dc.lft.to/lastmile_qr_scan"}, "type": "electric_scooter", "fusion_lat": 0.0, "lon": -77.0481055}, {"fusion_lon": 0.0, "bike_id": "eff5e692a21f6f980c7254af511a42f4", "is_disabled": 0, "is_reserved": 0, "lat": 38.916773, "name": "eff5e692a21f6f980c7254af511a42f4", "rental_uris": {"ios": "https://dc.lft.to/lastmile_qr_scan", "android": "https://dc.lft.to/lastmile_qr_scan"}, "type": "electric_scooter", "fusion_lat": 0.0, "lon": -77.026057}, {"fusion_lon": 0.0, "bike_id": "6a3a47800340506b2bda4c2fef4b1e50", "is_disabled": 0, "is_reserved": 0, "lat": 38.819415, "name": "6a3a47800340506b2bda4c2fef4b1e50", "rental_uris": {"ios": "https://dc.lft.to/lastmile_qr_scan", "android": "https://dc.lft.to/lastmile_qr_scan"}, "type": "electric_bike", "fusion_lat": 0.0, "lon": -77.00203616666667}, {"fusion_lon": 0.0, "bike_id": "1bd3b509aaf2381453afa49a63b35560", "is_disabled": 0, "is_reserved": 0, "lat": 38.914636, "name": "1bd3b509aaf2381453afa49a63b35560", "rental_uris": {"ios": "https://dc.lft.to/lastmile_qr_scan", "android": "https://dc.lft.to/lastmile_qr_scan"}, "type": "electric_scooter", "fusion_lat": 0.0, "lon": -77.002126}, {"fusion_lon": 0.0, "bike_id": "87caf806a21c650403f7e8e1b39a7aa6", "is_disabled": 0, "is_reserved": 0, "lat": 38.913382166666665, "name": "87caf806a21c650403f7e8e1b39a7aa6", "rental_uris": {"ios": "https://dc.lft.to/lastmile_qr_scan", "android": "https://dc.lft.to/lastmile_qr_scan"}, "type": "electric_scooter", "fusion_lat": 0.0, "lon": -77.00333516666667}, {"fusion_lon": 0.0, "bike_id": "5a073d37a95f1999b1485d8b4c9e9e0e", "is_disabled": 0, "is_reserved": 0, "lat": 38.899972166666664, "name": "5a073d37a95f1999b1485d8b4c9e9e0e", "rental_uris": {"ios": "https://dc.lft.to/lastmile_qr_scan", "android": "https://dc.lft.to/lastmile_qr_scan"}, "type": "electric_scooter", "fusion_lat": 0.0, "lon": -77.02593116666667}, {"fusion_lon": 0.0, "bike_id": "1b69ae84cb402ed6539b1f54ef303d0b", "is_disabled": 0, "is_reserved": 0, "lat": 38.903806, "name": "1b69ae84cb402ed6539b1f54ef303d0b", "rental_uris": {"ios": "https://dc.lft.to/lastmile_qr_scan", "android": "https://dc.lft.to/lastmile_qr_scan"}, "type": "electric_scooter", "fusion_lat": 0.0, "lon": -77.04822016666667}, {"fusion_lon": 0.0, "bike_id": "1be18d38b5a5efe30ceaa6f468094779", "is_disabled": 0, "is_reserved": 0, "lat": 38.9154245, "name": "1be18d38b5a5efe30ceaa6f468094779", "rental_uris": {"ios": "https://dc.lft.to/lastmile_qr_scan", "android": "https://dc.lft.to/lastmile_qr_scan"}, "type": "electric_scooter", "fusion_lat": 0.0, "lon": -77.04421066666667}, {"fusion_lon": 0.0, "bike_id": "6db9d1a7eb05f9f1179a2edc0c209466", "is_disabled": 0, "is_reserved": 0, "lat": 38.9320305, "name": "6db9d1a7eb05f9f1179a2edc0c209466", "rental_uris": {"ios": "https://dc.lft.to/lastmile_qr_scan", "android": "https://dc.lft.to/lastmile_qr_scan"}, "type": "electric_scooter", "fusion_lat": 0.0, "lon": -77.01874766666667}, {"fusion_lon": 0.0, "bike_id": "99c08255de802b0c94f9ce8acb18aebb", "is_disabled": 0, "is_reserved": 0, "lat": 38.890325, "name": "99c08255de802b0c94f9ce8acb18aebb", "rental_uris": {"ios": "https://dc.lft.to/lastmile_qr_scan", "android": "https://dc.lft.to/lastmile_qr_scan"}, "type": "electric_scooter", "fusion_lat": 0.0, "lon": -76.94462233333333}, {"fusion_lon": 0.0, "bike_id": "75c4067d30852cc6e92e5a79df2ec4d4", "is_disabled": 0, "is_reserved": 0, "lat": 38.932144, "name": "75c4067d30852cc6e92e5a79df2ec4d4", "rental_uris": {"ios": "https://dc.lft.to/lastmile_qr_scan", "android": "https://dc.lft.to/lastmile_qr_scan"}, "type": "electric_scooter", "fusion_lat": 0.0, "lon": -77.0266605}, {"fusion_lon": 0.0, "bike_id": "792703bafe100df2ef66bdad6fe0ca8c", "is_disabled": 0, "is_reserved": 0, "lat": 38.902249, "name": "792703bafe100df2ef66bdad6fe0ca8c", "rental_uris": {"ios": "https://dc.lft.to/lastmile_qr_scan", "android": "https://dc.lft.to/lastmile_qr_scan"}, "type": "electric_scooter", "fusion_lat": 0.0, "lon": -77.05124383333333}, {"fusion_lon": 0.0, "bike_id": "662298d26db09375d9fdfb2ab4080be9", "is_disabled": 0, "is_reserved": 0, "lat": 38.92567066666667, "name": "662298d26db09375d9fdfb2ab4080be9", "rental_uris": {"ios": "https://dc.lft.to/lastmile_qr_scan", "android": "https://dc.lft.to/lastmile_qr_scan"}, "type": "electric_scooter", "fusion_lat": 0.0, "lon": -77.03784466666667}, {"fusion_lon": 0.0, "bike_id": "48c6def5336bdd67fae3d23d31b59bbb", "is_disabled": 0, "is_reserved": 0, "lat": 38.92321666666667, "name": "48c6def5336bdd67fae3d23d31b59bbb", "rental_uris": {"ios": "https://dc.lft.to/lastmile_qr_scan", "android": "https://dc.lft.to/lastmile_qr_scan"}, "type": "electric_scooter", "fusion_lat": 0.0, "lon": -77.0290335}, {"fusion_lon": 0.0, "bike_id": "ab626803719ea8758db3effa96f74787", "is_disabled": 0, "is_reserved": 0, "lat": 38.931007, "name": "ab626803719ea8758db3effa96f74787", "rental_uris": {"ios": "https://dc.lft.to/lastmile_qr_scan", "android": "https://dc.lft.to/lastmile_qr_scan"}, "type": "electric_scooter", "fusion_lat": 0.0, "lon": -77.0255955}, {"fusion_lon": 0.0, "bike_id": "bb0971974f1f4519c8f4f9b5a8ba59d7", "is_disabled": 0, "is_reserved": 0, "lat": 38.901925166666665, "name": "bb0971974f1f4519c8f4f9b5a8ba59d7", "rental_uris": {"ios": "https://dc.lft.to/lastmile_qr_scan", "android": "https://dc.lft.to/lastmile_qr_scan"}, "type": "electric_scooter", "fusion_lat": 0.0, "lon": -76.9767355}, {"fusion_lon": 0.0, "bike_id": "9bd2f7d02b35e18121174c69eb88c73b", "is_disabled": 0, "is_reserved": 0, "lat": 38.933405, "name": "9bd2f7d02b35e18121174c69eb88c73b", "rental_uris": {"ios": "https://dc.lft.to/lastmile_qr_scan", "android": "https://dc.lft.to/lastmile_qr_scan"}, "type": "electric_scooter", "fusion_lat": 0.0, "lon": -77.05707}, {"fusion_lon": 0.0, "bike_id": "060aff9546dc4ae2596ad6b09ab72bac", "is_disabled": 0, "is_reserved": 0, "lat": 38.914286, "name": "060aff9546dc4ae2596ad6b09ab72bac", "rental_uris": {"ios": "https://dc.lft.to/lastmile_qr_scan", "android": "https://dc.lft.to/lastmile_qr_scan"}, "type": "electric_scooter", "fusion_lat": 0.0, "lon": -77.03206166666666}, {"fusion_lon": 0.0, "bike_id": "751669585372ab632c650771dc5209f9", "is_disabled": 0, "is_reserved": 0, "lat": 38.92369083333333, "name": "751669585372ab632c650771dc5209f9", "rental_uris": {"ios": "https://dc.lft.to/lastmile_qr_scan", "android": "https://dc.lft.to/lastmile_qr_scan"}, "type": "electric_scooter", "fusion_lat": 0.0, "lon": -77.02131933333334}, {"fusion_lon": 0.0, "bike_id": "a11ac0faa6da617468d0bcabf87588a7", "is_disabled": 0, "is_reserved": 0, "lat": 38.91268133333333, "name": "a11ac0faa6da617468d0bcabf87588a7", "rental_uris": {"ios": "https://dc.lft.to/lastmile_qr_scan", "android": "https://dc.lft.to/lastmile_qr_scan"}, "type": "electric_scooter", "fusion_lat": 0.0, "lon": -77.0222745}, {"fusion_lon": 0.0, "bike_id": "9a16f4e345579a587eff9b7c014d5589", "is_disabled": 0, "is_reserved": 0, "lat": 38.9275065, "name": "9a16f4e345579a587eff9b7c014d5589", "rental_uris": {"ios": "https://dc.lft.to/lastmile_qr_scan", "android": "https://dc.lft.to/lastmile_qr_scan"}, "type": "electric_scooter", "fusion_lat": 0.0, "lon": -77.03555216666666}, {"fusion_lon": 0.0, "bike_id": "a760d757bee3531ba50923e49b7098ad", "is_disabled": 0, "is_reserved": 0, "lat": 38.905583166666666, "name": "a760d757bee3531ba50923e49b7098ad", "rental_uris": {"ios": "https://dc.lft.to/lastmile_qr_scan", "android": "https://dc.lft.to/lastmile_qr_scan"}, "type": "electric_scooter", "fusion_lat": 0.0, "lon": -77.029867}, {"fusion_lon": 0.0, "bike_id": "e8645eeb0f9f5ee9e2595fc2b15494c7", "is_disabled": 0, "is_reserved": 0, "lat": 38.89511433333333, "name": "e8645eeb0f9f5ee9e2595fc2b15494c7", "rental_uris": {"ios": "https://dc.lft.to/lastmile_qr_scan", "android": "https://dc.lft.to/lastmile_qr_scan"}, "type": "electric_scooter", "fusion_lat": 0.0, "lon": -76.94894083333334}, {"fusion_lon": 0.0, "bike_id": "d69a111ac00f23b5879cae9d69c1abce", "is_disabled": 0, "is_reserved": 0, "lat": 38.8728715, "name": "d69a111ac00f23b5879cae9d69c1abce", "rental_uris": {"ios": "https://dc.lft.to/lastmile_qr_scan", "android": "https://dc.lft.to/lastmile_qr_scan"}, "type": "electric_scooter", "fusion_lat": 0.0, "lon": -77.00986183333333}, {"fusion_lon": 0.0, "bike_id": "52866c75eb74a5b8d7cabf7aa25b011a", "is_disabled": 0, "is_reserved": 0, "lat": 39.03475, "name": "52866c75eb74a5b8d7cabf7aa25b011a", "rental_uris": {"ios": "https://dc.lft.to/lastmile_qr_scan", "android": "https://dc.lft.to/lastmile_qr_scan"}, "type": "electric_bike", "fusion_lat": 0.0, "lon": -77.0410125}, {"fusion_lon": 0.0, "bike_id": "883ec30672ee908ee62d30589b8b1e06", "is_disabled": 0, "is_reserved": 0, "lat": 38.880675833333335, "name": "883ec30672ee908ee62d30589b8b1e06", "rental_uris": {"ios": "https://dc.lft.to/lastmile_qr_scan", "android": "https://dc.lft.to/lastmile_qr_scan"}, "type": "electric_scooter", "fusion_lat": 0.0, "lon": -77.02553516666667}, {"fusion_lon": 0.0, "bike_id": "eaf329610a486974265b0f032b26dd2d", "is_disabled": 0, "is_reserved": 0, "lat": 38.899298333333334, "name": "eaf329610a486974265b0f032b26dd2d", "rental_uris": {"ios": "https://dc.lft.to/lastmile_qr_scan", "android": "https://dc.lft.to/lastmile_qr_scan"}, "type": "electric_scooter", "fusion_lat": 0.0, "lon": -76.9376005}, {"fusion_lon": 0.0, "bike_id": "7937e265b475cd226d75afbd69628ddf", "is_disabled": 0, "is_reserved": 0, "lat": 38.893377666666666, "name": "7937e265b475cd226d75afbd69628ddf", "rental_uris": {"ios": "https://dc.lft.to/lastmile_qr_scan", "android": "https://dc.lft.to/lastmile_qr_scan"}, "type": "electric_scooter", "fusion_lat": 0.0, "lon": -76.99385166666667}, {"fusion_lon": 0.0, "bike_id": "04e64b5cd06640c7b524edd16eebb384", "is_disabled": 0, "is_reserved": 0, "lat": 38.905635833333335, "name": "04e64b5cd06640c7b524edd16eebb384", "rental_uris": {"ios": "https://dc.lft.to/lastmile_qr_scan", "android": "https://dc.lft.to/lastmile_qr_scan"}, "type": "electric_scooter", "fusion_lat": 0.0, "lon": -77.03447733333333}, {"fusion_lon": 0.0, "bike_id": "532a82bb89483894a149da171803ca83", "is_disabled": 0, "is_reserved": 0, "lat": 38.93608016666667, "name": "532a82bb89483894a149da171803ca83", "rental_uris": {"ios": "https://dc.lft.to/lastmile_qr_scan", "android": "https://dc.lft.to/lastmile_qr_scan"}, "type": "electric_bike", "fusion_lat": 0.0, "lon": -77.0022075}, {"fusion_lon": 0.0, "bike_id": "58768407a820f3cc2239746fe2f1e402", "is_disabled": 0, "is_reserved": 0, "lat": 38.9203915, "name": "58768407a820f3cc2239746fe2f1e402", "rental_uris": {"ios": "https://dc.lft.to/lastmile_qr_scan", "android": "https://dc.lft.to/lastmile_qr_scan"}, "type": "electric_bike", "fusion_lat": 0.0, "lon": -76.9795365}, {"fusion_lon": 0.0, "bike_id": "7a68222b55e7a8fb3adad034b1942183", "is_disabled": 0, "is_reserved": 0, "lat": 38.952522, "name": "7a68222b55e7a8fb3adad034b1942183", "rental_uris": {"ios": "https://dc.lft.to/lastmile_qr_scan", "android": "https://dc.lft.to/lastmile_qr_scan"}, "type": "electric_bike", "fusion_lat": 0.0, "lon": -77.09631833333333}, {"fusion_lon": 0.0, "bike_id": "788664c77449520602a6a4024997980c", "is_disabled": 0, "is_reserved": 0, "lat": 38.84289283333333, "name": "788664c77449520602a6a4024997980c", "rental_uris": {"ios": "https://dc.lft.to/lastmile_qr_scan", "android": "https://dc.lft.to/lastmile_qr_scan"}, "type": "electric_bike", "fusion_lat": 0.0, "lon": -77.06356683333334}, {"fusion_lon": 0.0, "bike_id": "801913adedf045f7fbafaa04cb70b8dc", "is_disabled": 0, "is_reserved": 0, "lat": 38.913708666666665, "name": "801913adedf045f7fbafaa04cb70b8dc", "rental_uris": {"ios": "https://dc.lft.to/lastmile_qr_scan", "android": "https://dc.lft.to/lastmile_qr_scan"}, "type": "electric_scooter", "fusion_lat": 0.0, "lon": -77.0218935}, {"fusion_lon": 0.0, "bike_id": "9b2b4c508c74035eb5b2b4bc1dcdfd9f", "is_disabled": 0, "is_reserved": 0, "lat": 38.921088833333336, "name": "9b2b4c508c74035eb5b2b4bc1dcdfd9f", "rental_uris": {"ios": "https://dc.lft.to/lastmile_qr_scan", "android": "https://dc.lft.to/lastmile_qr_scan"}, "type": "electric_scooter", "fusion_lat": 0.0, "lon": -77.04206883333333}, {"fusion_lon": 0.0, "bike_id": "42358e616dcb17ab61c04acde548ba99", "is_disabled": 0, "is_reserved": 0, "lat": 38.9653185, "name": "42358e616dcb17ab61c04acde548ba99", "rental_uris": {"ios": "https://dc.lft.to/lastmile_qr_scan", "android": "https://dc.lft.to/lastmile_qr_scan"}, "type": "electric_bike", "fusion_lat": 0.0, "lon": -77.03423616666667}, {"fusion_lon": 0.0, "bike_id": "45ba350a0fe8e0cc96fbe7dbaf8dd507", "is_disabled": 0, "is_reserved": 0, "lat": 38.91624516666667, "name": "45ba350a0fe8e0cc96fbe7dbaf8dd507", "rental_uris": {"ios": "https://dc.lft.to/lastmile_qr_scan", "android": "https://dc.lft.to/lastmile_qr_scan"}, "type": "electric_scooter", "fusion_lat": 0.0, "lon": -77.00497433333334}, {"fusion_lon": 0.0, "bike_id": "42b0e4f6edcbc15ed2ef7e42b7e7f50a", "is_disabled": 0, "is_reserved": 0, "lat": 38.943058, "name": "42b0e4f6edcbc15ed2ef7e42b7e7f50a", "rental_uris": {"ios": "https://dc.lft.to/lastmile_qr_scan", "android": "https://dc.lft.to/lastmile_qr_scan"}, "type": "electric_scooter", "fusion_lat": 0.0, "lon": -77.0295455}, {"fusion_lon": 0.0, "bike_id": "9e2caa44d5a25d55c01f05af32d96a28", "is_disabled": 0, "is_reserved": 0, "lat": 38.899196333333336, "name": "9e2caa44d5a25d55c01f05af32d96a28", "rental_uris": {"ios": "https://dc.lft.to/lastmile_qr_scan", "android": "https://dc.lft.to/lastmile_qr_scan"}, "type": "electric_scooter", "fusion_lat": 0.0, "lon": -77.00376}, {"fusion_lon": 0.0, "bike_id": "d3d100267d68e99839f6825518400564", "is_disabled": 0, "is_reserved": 0, "lat": 38.93587183333333, "name": "d3d100267d68e99839f6825518400564", "rental_uris": {"ios": "https://dc.lft.to/lastmile_qr_scan", "android": "https://dc.lft.to/lastmile_qr_scan"}, "type": "electric_scooter", "fusion_lat": 0.0, "lon": -77.028461}, {"fusion_lon": 0.0, "bike_id": "24ac3390c6764ec616143f3eba65e48b", "is_disabled": 0, "is_reserved": 0, "lat": 38.915108333333336, "name": "24ac3390c6764ec616143f3eba65e48b", "rental_uris": {"ios": "https://dc.lft.to/lastmile_qr_scan", "android": "https://dc.lft.to/lastmile_qr_scan"}, "type": "electric_scooter", "fusion_lat": 0.0, "lon": -77.03821533333333}, {"fusion_lon": 0.0, "bike_id": "b2aeaa7a8537e0bde34f344730d3174f", "is_disabled": 0, "is_reserved": 0, "lat": 38.89965, "name": "b2aeaa7a8537e0bde34f344730d3174f", "rental_uris": {"ios": "https://dc.lft.to/lastmile_qr_scan", "android": "https://dc.lft.to/lastmile_qr_scan"},