{"data": {"bikes": [{"lat": 38.863739333333335, "fusion_lat": 0.0, "type": "electric_scooter", "bike_id": "6c2546c0ae44f15b34d8e1ba0c7fc200", "is_reserved": 0, "rental_uris": {"ios": "https://dc.lft.to/lastmile_qr_scan", "android": "https://dc.lft.to/lastmile_qr_scan"}, "is_disabled": 0, "lon": -76.99062066666667, "name": "6c2546c0ae44f15b34d8e1ba0c7fc200", "fusion_lon": 0.0}, {"lat": 38.883741, "fusion_lat": 0.0, "type": "electric_scooter", "bike_id": "e33653e2bd9d0d4b9c9c7137bb023eda", "is_reserved": 0, "rental_uris": {"ios": "https://dc.lft.to/lastmile_qr_scan", "android": "https://dc.lft.to/lastmile_qr_scan"}, "is_disabled": 0, "lon": -76.995232, "name": "e33653e2bd9d0d4b9c9c7137bb023eda", "fusion_lon": 0.0}, {"lat": 38.913172333333335, "fusion_lat": 0.0, "type": "electric_bike", "bike_id": "218c34e43da6e1b94b6a2f42d4aecb00", "is_reserved": 0, "rental_uris": {"ios": "https://dc.lft.to/lastmile_qr_scan", "android": "https://dc.lft.to/lastmile_qr_scan"}, "is_disabled": 0, "lon": -77.223127, "name": "218c34e43da6e1b94b6a2f42d4aecb00", "fusion_lon": 0.0}, {"lat": 38.891984666666666, "fusion_lat": 0.0, "type": "electric_scooter", "bike_id": "d768ce7ad6f161132e24c779a6c4e8ed", "is_reserved": 0, "rental_uris": {"ios": "https://dc.lft.to/lastmile_qr_scan", "android": "https://dc.lft.to/lastmile_qr_scan"}, "is_disabled": 0, "lon": -77.0029595, "name": "d768ce7ad6f161132e24c779a6c4e8ed", "fusion_lon": 0.0}, {"lat": 38.9084805, "fusion_lat": 0.0, "type": "electric_scooter", "bike_id": "2baceeba11f45fcbef8363945de0d5ad", "is_reserved": 0, "rental_uris": {"ios": "https://dc.lft.to/lastmile_qr_scan", "android": "https://dc.lft.to/lastmile_qr_scan"}, "is_disabled": 0, "lon": -76.99798916666667, "name": "2baceeba11f45fcbef8363945de0d5ad", "fusion_lon": 0.0}, {"lat": 38.919222166666664, "fusion_lat": 0.0, "type": "electric_scooter", "bike_id": "4039529351fd901d22aa988673c9a5b4", "is_reserved": 0, "rental_uris": {"ios": "https://dc.lft.to/lastmile_qr_scan", "android": "https://dc.lft.to/lastmile_qr_scan"}, "is_disabled": 0, "lon": -77.04249833333333, "name": "4039529351fd901d22aa988673c9a5b4", "fusion_lon": 0.0}, {"lat": 38.921047333333334, "fusion_lat": 0.0, "type": "electric_scooter", "bike_id": "be39e2ae351e2f6d71a21ab2b6cc21d9", "is_reserved": 0, "rental_uris": {"ios": "https://dc.lft.to/lastmile_qr_scan", "android": "https://dc.lft.to/lastmile_qr_scan"}, "is_disabled": 0, "lon": -77.030478, "name": "be39e2ae351e2f6d71a21ab2b6cc21d9", "fusion_lon": 0.0}, {"lat": 38.866788666666665, "fusion_lat": 0.0, "type": "electric_scooter", "bike_id": "0cb4daca7cb5beed71be925116c27b0d", "is_reserved": 0, "rental_uris": {"ios": "https://dc.lft.to/lastmile_qr_scan", "android": "https://dc.lft.to/lastmile_qr_scan"}, "is_disabled": 0, "lon": -76.98561, "name": "0cb4daca7cb5beed71be925116c27b0d", "fusion_lon": 0.0}, {"lat": 38.8977055, "fusion_lat": 0.0, "type": "electric_scooter", "bike_id": "12818503c1fa683523d4cf9f8e2b61b7", "is_reserved": 0, "rental_uris": {"ios": "https://dc.lft.to/lastmile_qr_scan", "android": "https://dc.lft.to/lastmile_qr_scan"}, "is_disabled": 0, "lon": -77.00898233333334, "name": "12818503c1fa683523d4cf9f8e2b61b7", "fusion_lon": 0.0}, {"lat": 38.90475266666667, "fusion_lat": 0.0, "type": "electric_scooter", "bike_id": "93bbdb829fa1fd33486fe556ab41d824", "is_reserved": 0, "rental_uris": {"ios": "https://dc.lft.to/lastmile_qr_scan", "android": "https://dc.lft.to/lastmile_qr_scan"}, "is_disabled": 0, "lon": -77.05349316666667, "name": "93bbdb829fa1fd33486fe556ab41d824", "fusion_lon": 0.0}, {"lat": 38.912675666666665, "fusion_lat": 0.0, "type": "electric_scooter", "bike_id": "248c4e9e9d5ff9ae837f9f78aed3ac03", "is_reserved": 0, "rental_uris": {"ios": "https://dc.lft.to/lastmile_qr_scan", "android": "https://dc.lft.to/lastmile_qr_scan"}, "is_disabled": 0, "lon": -77.025169, "name": "248c4e9e9d5ff9ae837f9f78aed3ac03", "fusion_lon": 0.0}, {"lat": 38.931845833333334, "fusion_lat": 0.0, "type": "electric_scooter", "bike_id": "efcee059beeb670cc997a18c09d0c140", "is_reserved": 0, "rental_uris": {"ios": "https://dc.lft.to/lastmile_qr_scan", "android": "https://dc.lft.to/lastmile_qr_scan"}, "is_disabled": 0, "lon": -77.0388005, "name": "efcee059beeb670cc997a18c09d0c140", "fusion_lon": 0.0}, {"lat": 38.902758, "fusion_lat": 0.0, "type": "electric_scooter", "bike_id": "e52a434a64e02348557d92a04e8ec057", "is_reserved": 0, "rental_uris": {"ios": "https://dc.lft.to/lastmile_qr_scan", "android": "https://dc.lft.to/lastmile_qr_scan"}, "is_disabled": 0, "lon": -77.03937083333334, "name": "e52a434a64e02348557d92a04e8ec057", "fusion_lon": 0.0}, {"lat": 38.9126635, "fusion_lat": 0.0, "type": "electric_scooter", "bike_id": "f16dc048199ec1aa8f680191953a40d2", "is_reserved": 0, "rental_uris": {"ios": "https://dc.lft.to/lastmile_qr_scan", "android": "https://dc.lft.to/lastmile_qr_scan"}, "is_disabled": 0, "lon": -77.0390055, "name": "f16dc048199ec1aa8f680191953a40d2", "fusion_lon": 0.0}, {"lat": 38.893702166666664, "fusion_lat": 0.0, "type": "electric_scooter", "bike_id": "7de9680e49e065fda987006e042a6eb5", "is_reserved": 0, "rental_uris": {"ios": "https://dc.lft.to/lastmile_qr_scan", "android": "https://dc.lft.to/lastmile_qr_scan"}, "is_disabled": 0, "lon": -77.02013183333334, "name": "7de9680e49e065fda987006e042a6eb5", "fusion_lon": 0.0}, {"lat": 38.8824545, "fusion_lat": 0.0, "type": "electric_bike", "bike_id": "f33ce2e350afeb6c15d4b58638331937", "is_reserved": 0, "rental_uris": {"ios": "https://dc.lft.to/lastmile_qr_scan", "android": "https://dc.lft.to/lastmile_qr_scan"}, "is_disabled": 0, "lon": -76.9625445, "name": "f33ce2e350afeb6c15d4b58638331937", "fusion_lon": 0.0}, {"lat": 38.908276666666666, "fusion_lat": 0.0, "type": "electric_scooter", "bike_id": "6e9cf084603860be78214d11cd5352f5", "is_reserved": 0, "rental_uris": {"ios": "https://dc.lft.to/lastmile_qr_scan", "android": "https://dc.lft.to/lastmile_qr_scan"}, "is_disabled": 0, "lon": -76.93450283333334, "name": "6e9cf084603860be78214d11cd5352f5", "fusion_lon": 0.0}, {"lat": 38.90787566666667, "fusion_lat": 0.0, "type": "electric_scooter", "bike_id": "2d7ea8cfbae5c9d1e75423e9bc72291f", "is_reserved": 0, "rental_uris": {"ios": "https://dc.lft.to/lastmile_qr_scan", "android": "https://dc.lft.to/lastmile_qr_scan"}, "is_disabled": 0, "lon": -77.03206616666667, "name": "2d7ea8cfbae5c9d1e75423e9bc72291f", "fusion_lon": 0.0}, {"lat": 38.90590616666667, "fusion_lat": 0.0, "type": "electric_scooter", "bike_id": "19449c959a2c07ec015c3cddebef0851", "is_reserved": 0, "rental_uris": {"ios": "https://dc.lft.to/lastmile_qr_scan", "android": "https://dc.lft.to/lastmile_qr_scan"}, "is_disabled": 0, "lon": -77.02201366666667, "name": "19449c959a2c07ec015c3cddebef0851", "fusion_lon": 0.0}, {"lat": 38.90092166666667, "fusion_lat": 0.0, "type": "electric_scooter", "bike_id": "1afccf30bb66367f1e85682a14d58c08", "is_reserved": 0, "rental_uris": {"ios": "https://dc.lft.to/lastmile_qr_scan", "android": "https://dc.lft.to/lastmile_qr_scan"}, "is_disabled": 0, "lon": -76.97639966666667, "name": "1afccf30bb66367f1e85682a14d58c08", "fusion_lon": 0.0}, {"lat": 38.924980166666664, "fusion_lat": 0.0, "type": "electric_scooter", "bike_id": "576db0e247740a9c7abdfdd3260e4c01", "is_reserved": 0, "rental_uris": {"ios": "https://dc.lft.to/lastmile_qr_scan", "android": "https://dc.lft.to/lastmile_qr_scan"}, "is_disabled": 0, "lon": -77.02186166666667, "name": "576db0e247740a9c7abdfdd3260e4c01", "fusion_lon": 0.0}, {"lat": 38.86503283333333, "fusion_lat": 0.0, "type": "electric_scooter", "bike_id": "32fadcdc66ae74b69dc9618ad859da17", "is_reserved": 0, "rental_uris": {"ios": "https://dc.lft.to/lastmile_qr_scan", "android": "https://dc.lft.to/lastmile_qr_scan"}, "is_disabled": 0, "lon": -76.990036, "name": "32fadcdc66ae74b69dc9618ad859da17", "fusion_lon": 0.0}, {"lat": 38.922196, "fusion_lat": 0.0, "type": "electric_scooter", "bike_id": "9d2272215b360f111543533998d9a6bc", "is_reserved": 0, "rental_uris": {"ios": "https://dc.lft.to/lastmile_qr_scan", "android": "https://dc.lft.to/lastmile_qr_scan"}, "is_disabled": 0, "lon": -77.032897, "name": "9d2272215b360f111543533998d9a6bc", "fusion_lon": 0.0}, {"lat": 38.91262966666667, "fusion_lat": 0.0, "type": "electric_scooter", "bike_id": "a10b84a525ede6db6473c550ebcf50c6", "is_reserved": 0, "rental_uris": {"ios": "https://dc.lft.to/lastmile_qr_scan", "android": "https://dc.lft.to/lastmile_qr_scan"}, "is_disabled": 0, "lon": -77.038991, "name": "a10b84a525ede6db6473c550ebcf50c6", "fusion_lon": 0.0}, {"lat": 38.9167595, "fusion_lat": 0.0, "type": "electric_scooter", "bike_id": "68d6e9bc103c569fd62a510627190725", "is_reserved": 0, "rental_uris": {"ios": "https://dc.lft.to/lastmile_qr_scan", "android": "https://dc.lft.to/lastmile_qr_scan"}, "is_disabled": 0, "lon": -77.05651533333334, "name": "68d6e9bc103c569fd62a510627190725", "fusion_lon": 0.0}, {"lat": 38.92892416666667, "fusion_lat": 0.0, "type": "electric_scooter", "bike_id": "42cce347670c6e941771f4ff4a459e80", "is_reserved": 0, "rental_uris": {"ios": "https://dc.lft.to/lastmile_qr_scan", "android": "https://dc.lft.to/lastmile_qr_scan"}, "is_disabled": 0, "lon": -77.03255383333334, "name": "42cce347670c6e941771f4ff4a459e80", "fusion_lon": 0.0}, {"lat": 38.91875116666667, "fusion_lat": 0.0, "type": "electric_scooter", "bike_id": "cc17f66733263f31a4023a2594a60459", "is_reserved": 0, "rental_uris": {"ios": "https://dc.lft.to/lastmile_qr_scan", "android": "https://dc.lft.to/lastmile_qr_scan"}, "is_disabled": 0, "lon": -77.02964533333333, "name": "cc17f66733263f31a4023a2594a60459", "fusion_lon": 0.0}, {"lat": 38.94529883333333, "fusion_lat": 0.0, "type": "electric_scooter", "bike_id": "c5146c73247d916f62b8d076d320fa61", "is_reserved": 0, "rental_uris": {"ios": "https://dc.lft.to/lastmile_qr_scan", "android": "https://dc.lft.to/lastmile_qr_scan"}, "is_disabled": 0, "lon": -77.02088783333333, "name": "c5146c73247d916f62b8d076d320fa61", "fusion_lon": 0.0}, {"lat": 38.921558833333336, "fusion_lat": 0.0, "type": "electric_scooter", "bike_id": "6d0578ec7f0c5c6bb20dae926e0edc3f", "is_reserved": 0, "rental_uris": {"ios": "https://dc.lft.to/lastmile_qr_scan", "android": "https://dc.lft.to/lastmile_qr_scan"}, "is_disabled": 0, "lon": -77.0325835, "name": "6d0578ec7f0c5c6bb20dae926e0edc3f", "fusion_lon": 0.0}, {"lat": 38.92430616666667, "fusion_lat": 0.0, "type": "electric_scooter", "bike_id": "43df32d79e5bf6daacfd6f5212a7815d", "is_reserved": 0, "rental_uris": {"ios": "https://dc.lft.to/lastmile_qr_scan", "android": "https://dc.lft.to/lastmile_qr_scan"}, "is_disabled": 0, "lon": -77.04245716666667, "name": "43df32d79e5bf6daacfd6f5212a7815d", "fusion_lon": 0.0}, {"lat": 38.9171925, "fusion_lat": 0.0, "type": "electric_scooter", "bike_id": "c5ca01c3c5ad113c64d4a3eac49f3154", "is_reserved": 0, "rental_uris": {"ios": "https://dc.lft.to/lastmile_qr_scan", "android": "https://dc.lft.to/lastmile_qr_scan"}, "is_disabled": 0, "lon": -77.0297715, "name": "c5ca01c3c5ad113c64d4a3eac49f3154", "fusion_lon": 0.0}, {"lat": 38.90535883333333, "fusion_lat": 0.0, "type": "electric_scooter", "bike_id": "e17c4d466850ef9c41a31a5df4fcabb1", "is_reserved": 0, "rental_uris": {"ios": "https://dc.lft.to/lastmile_qr_scan", "android": "https://dc.lft.to/lastmile_qr_scan"}, "is_disabled": 0, "lon": -77.02215916666667, "name": "e17c4d466850ef9c41a31a5df4fcabb1", "fusion_lon": 0.0}, {"lat": 38.90838383333333, "fusion_lat": 0.0, "type": "electric_scooter", "bike_id": "36c66fe4bb84ea631102a599c1700bb1", "is_reserved": 0, "rental_uris": {"ios": "https://dc.lft.to/lastmile_qr_scan", "android": "https://dc.lft.to/lastmile_qr_scan"}, "is_disabled": 0, "lon": -77.04363866666667, "name": "36c66fe4bb84ea631102a599c1700bb1", "fusion_lon": 0.0}, {"lat": 38.907554833333336, "fusion_lat": 0.0, "type": "electric_scooter", "bike_id": "186d10d800c495cc9c9baf99577a1e9e", "is_reserved": 0, "rental_uris": {"ios": "https://dc.lft.to/lastmile_qr_scan", "android": "https://dc.lft.to/lastmile_qr_scan"}, "is_disabled": 0, "lon": -77.00145133333334, "name": "186d10d800c495cc9c9baf99577a1e9e", "fusion_lon": 0.0}, {"lat": 38.9043045, "fusion_lat": 0.0, "type": "electric_scooter", "bike_id": "39b96fbd787684b2e86222da87af95fd", "is_reserved": 0, "rental_uris": {"ios": "https://dc.lft.to/lastmile_qr_scan", "android": "https://dc.lft.to/lastmile_qr_scan"}, "is_disabled": 0, "lon": -77.02409016666667, "name": "39b96fbd787684b2e86222da87af95fd", "fusion_lon": 0.0}, {"lat": 38.90897733333333, "fusion_lat": 0.0, "type": "electric_scooter", "bike_id": "113508c2cc0ccabcc7ce3ecbce798dfa", "is_reserved": 0, "rental_uris": {"ios": "https://dc.lft.to/lastmile_qr_scan", "android": "https://dc.lft.to/lastmile_qr_scan"}, "is_disabled": 0, "lon": -77.0728105, "name": "113508c2cc0ccabcc7ce3ecbce798dfa", "fusion_lon": 0.0}, {"lat": 38.9836175, "fusion_lat": 0.0, "type": "electric_bike", "bike_id": "2257fb932618475ac3573770402a6493", "is_reserved": 0, "rental_uris": {"ios": "https://dc.lft.to/lastmile_qr_scan", "android": "https://dc.lft.to/lastmile_qr_scan"}, "is_disabled": 0, "lon": -76.972149, "name": "2257fb932618475ac3573770402a6493", "fusion_lon": 0.0}, {"lat": 38.862406666666665, "fusion_lat": 0.0, "type": "electric_scooter", "bike_id": "ee8300964c37af01de1624382fb96a5f", "is_reserved": 0, "rental_uris": {"ios": "https://dc.lft.to/lastmile_qr_scan", "android": "https://dc.lft.to/lastmile_qr_scan"}, "is_disabled": 0, "lon": -76.99495, "name": "ee8300964c37af01de1624382fb96a5f", "fusion_lon": 0.0}, {"lat": 38.8314525, "fusion_lat": 0.0, "type": "electric_scooter", "bike_id": "4af93463942432bc8ec2e18bbc33b8b5", "is_reserved": 0, "rental_uris": {"ios": "https://dc.lft.to/lastmile_qr_scan", "android": "https://dc.lft.to/lastmile_qr_scan"}, "is_disabled": 0, "lon": -77.05136183333333, "name": "4af93463942432bc8ec2e18bbc33b8b5", "fusion_lon": 0.0}, {"lat": 38.957535, "fusion_lat": 0.0, "type": "electric_scooter", "bike_id": "06402f8a8e150a621fe7f86c8682441a", "is_reserved": 0, "rental_uris": {"ios": "https://dc.lft.to/lastmile_qr_scan", "android": "https://dc.lft.to/lastmile_qr_scan"}, "is_disabled": 0, "lon": -77.02071516666666, "name": "06402f8a8e150a621fe7f86c8682441a", "fusion_lon": 0.0}, {"lat": 38.936739, "fusion_lat": 0.0, "type": "electric_scooter", "bike_id": "ba06877a3ddc6bf7b53efd9e2982c81c", "is_reserved": 0, "rental_uris": {"ios": "https://dc.lft.to/lastmile_qr_scan", "android": "https://dc.lft.to/lastmile_qr_scan"}, "is_disabled": 0, "lon": -77.03564383333334, "name": "ba06877a3ddc6bf7b53efd9e2982c81c", "fusion_lon": 0.0}, {"lat": 38.91048883333333, "fusion_lat": 0.0, "type": "electric_bike", "bike_id": "f67bcb3d850c574f24fa01550fa53dcf", "is_reserved": 0, "rental_uris": {"ios": "https://dc.lft.to/lastmile_qr_scan", "android": "https://dc.lft.to/lastmile_qr_scan"}, "is_disabled": 0, "lon": -77.04133883333333, "name": "f67bcb3d850c574f24fa01550fa53dcf", "fusion_lon": 0.0}, {"lat": 38.9038765, "fusion_lat": 0.0, "type": "electric_scooter", "bike_id": "d1436b592f5b1cc45bf35d609597a52a", "is_reserved": 0, "rental_uris": {"ios": "https://dc.lft.to/lastmile_qr_scan", "android": "https://dc.lft.to/lastmile_qr_scan"}, "is_disabled": 0, "lon": -77.03009366666667, "name": "d1436b592f5b1cc45bf35d609597a52a", "fusion_lon": 0.0}, {"lat": 38.9021745, "fusion_lat": 0.0, "type": "electric_scooter", "bike_id": "d7ffc912822e2603e544f2f68b26ff12", "is_reserved": 0, "rental_uris": {"ios": "https://dc.lft.to/lastmile_qr_scan", "android": "https://dc.lft.to/lastmile_qr_scan"}, "is_disabled": 0, "lon": -77.044139, "name": "d7ffc912822e2603e544f2f68b26ff12", "fusion_lon": 0.0}, {"lat": 38.9074705, "fusion_lat": 0.0, "type": "electric_scooter", "bike_id": "0e754e68a1dcd363a718d1c7f7b4d41b", "is_reserved": 0, "rental_uris": {"ios": "https://dc.lft.to/lastmile_qr_scan", "android": "https://dc.lft.to/lastmile_qr_scan"}, "is_disabled": 0, "lon": -77.031735, "name": "0e754e68a1dcd363a718d1c7f7b4d41b", "fusion_lon": 0.0}, {"lat": 38.87872383333333, "fusion_lat": 0.0, "type": "electric_scooter", "bike_id": "67b196af7dee12b7a1690a52d5944b78", "is_reserved": 0, "rental_uris": {"ios": "https://dc.lft.to/lastmile_qr_scan", "android": "https://dc.lft.to/lastmile_qr_scan"}, "is_disabled": 0, "lon": -77.02311666666667, "name": "67b196af7dee12b7a1690a52d5944b78", "fusion_lon": 0.0}, {"lat": 38.92346283333333, "fusion_lat": 0.0, "type": "electric_scooter", "bike_id": "f579cf1f226c4e7c6050a8b75cbdb970", "is_reserved": 0, "rental_uris": {"ios": "https://dc.lft.to/lastmile_qr_scan", "android": "https://dc.lft.to/lastmile_qr_scan"}, "is_disabled": 0, "lon": -77.05083616666667, "name": "f579cf1f226c4e7c6050a8b75cbdb970", "fusion_lon": 0.0}, {"lat": 38.916315833333336, "fusion_lat": 0.0, "type": "electric_scooter", "bike_id": "4b50ead41f104e832a46aee359d44ed3", "is_reserved": 0, "rental_uris": {"ios": "https://dc.lft.to/lastmile_qr_scan", "android": "https://dc.lft.to/lastmile_qr_scan"}, "is_disabled": 0, "lon": -77.03184566666667, "name": "4b50ead41f104e832a46aee359d44ed3", "fusion_lon": 0.0}, {"lat": 38.924163, "fusion_lat": 0.0, "type": "electric_scooter", "bike_id": "88da1313f2ac12f096994f258a649903", "is_reserved": 0, "rental_uris": {"ios": "https://dc.lft.to/lastmile_qr_scan", "android": "https://dc.lft.to/lastmile_qr_scan"}, "is_disabled": 0, "lon": -77.050643, "name": "88da1313f2ac12f096994f258a649903", "fusion_lon": 0.0}, {"lat": 38.90014, "fusion_lat": 0.0, "type": "electric_scooter", "bike_id": "2a3b34b0a498dd7721857c7c339796e9", "is_reserved": 0, "rental_uris": {"ios": "https://dc.lft.to/lastmile_qr_scan", "android": "https://dc.lft.to/lastmile_qr_scan"}, "is_disabled": 0, "lon": -76.98008466666667, "name": "2a3b34b0a498dd7721857c7c339796e9", "fusion_lon": 0.0}, {"lat": 38.907801, "fusion_lat": 0.0, "type": "electric_bike", "bike_id": "3713d181d13a4f2c1adcfc58fc224d1f", "is_reserved": 0, "rental_uris": {"ios": "https://dc.lft.to/lastmile_qr_scan", "android": "https://dc.lft.to/lastmile_qr_scan"}, "is_disabled": 0, "lon": -77.06377316666666, "name": "3713d181d13a4f2c1adcfc58fc224d1f", "fusion_lon": 0.0}, {"lat": 38.99534633333333, "fusion_lat": 0.0, "type": "electric_bike", "bike_id": "20941d2951c97c47a6f46e2f3aec4f58", "is_reserved": 0, "rental_uris": {"ios": "https://dc.lft.to/lastmile_qr_scan", "android": "https://dc.lft.to/lastmile_qr_scan"}, "is_disabled": 0, "lon": -77.06941483333334, "name": "20941d2951c97c47a6f46e2f3aec4f58", "fusion_lon": 0.0}, {"lat": 38.895035166666666, "fusion_lat": 0.0, "type": "electric_scooter", "bike_id": "b82a766d476cefdca2eaf0fc60b2b642", "is_reserved": 0, "rental_uris": {"ios": "https://dc.lft.to/lastmile_qr_scan", "android": "https://dc.lft.to/lastmile_qr_scan"}, "is_disabled": 0, "lon": -76.93477033333333, "name": "b82a766d476cefdca2eaf0fc60b2b642", "fusion_lon": 0.0}, {"lat": 38.91111166666666, "fusion_lat": 0.0, "type": "electric_scooter", "bike_id": "0da4a4a58c473c547a762d73ed2a6edf", "is_reserved": 0, "rental_uris": {"ios": "https://dc.lft.to/lastmile_qr_scan", "android": "https://dc.lft.to/lastmile_qr_scan"}, "is_disabled": 0, "lon": -77.03838316666666, "name": "0da4a4a58c473c547a762d73ed2a6edf", "fusion_lon": 0.0}, {"lat": 38.905695, "fusion_lat": 0.0, "type": "electric_scooter", "bike_id": "89c2506ced576b8b24e23affe078a5d5", "is_reserved": 0, "rental_uris": {"ios": "https://dc.lft.to/lastmile_qr_scan", "android": "https://dc.lft.to/lastmile_qr_scan"}, "is_disabled": 0, "lon": -77.03427783333333, "name": "89c2506ced576b8b24e23affe078a5d5", "fusion_lon": 0.0}, {"lat": 38.9024755, "fusion_lat": 0.0, "type": "electric_scooter", "bike_id": "b8848e91dd22d8bb255109710f3339da", "is_reserved": 0, "rental_uris": {"ios": "https://dc.lft.to/lastmile_qr_scan", "android": "https://dc.lft.to/lastmile_qr_scan"}, "is_disabled": 0, "lon": -77.04349116666667, "name": "b8848e91dd22d8bb255109710f3339da", "fusion_lon": 0.0}, {"lat": 38.922413, "fusion_lat": 0.0, "type": "electric_scooter", "bike_id": "5f6d4c655f52f53da0b05c28ae786fde", "is_reserved": 0, "rental_uris": {"ios": "https://dc.lft.to/lastmile_qr_scan", "android": "https://dc.lft.to/lastmile_qr_scan"}, "is_disabled": 0, "lon": -77.0335505, "name": "5f6d4c655f52f53da0b05c28ae786fde", "fusion_lon": 0.0}, {"lat": 38.88223966666666, "fusion_lat": 0.0, "type": "electric_bike", "bike_id": "1cfc4b8b8701d00379c643b54e0084d1", "is_reserved": 0, "rental_uris": {"ios": "https://dc.lft.to/lastmile_qr_scan", "android": "https://dc.lft.to/lastmile_qr_scan"}, "is_disabled": 0, "lon": -77.1171685, "name": "1cfc4b8b8701d00379c643b54e0084d1", "fusion_lon": 0.0}, {"lat": 38.866848166666664, "fusion_lat": 0.0, "type": "electric_scooter", "bike_id": "a9bb9e45658e6e16910f61467336d170", "is_reserved": 0, "rental_uris": {"ios": "https://dc.lft.to/lastmile_qr_scan", "android": "https://dc.lft.to/lastmile_qr_scan"}, "is_disabled": 0, "lon": -76.98565583333334, "name": "a9bb9e45658e6e16910f61467336d170", "fusion_lon": 0.0}, {"lat": 38.90819833333333, "fusion_lat": 0.0, "type": "electric_scooter", "bike_id": "6313702ee13663443286996ada143fdb", "is_reserved": 0, "rental_uris": {"ios": "https://dc.lft.to/lastmile_qr_scan", "android": "https://dc.lft.to/lastmile_qr_scan"}, "is_disabled": 0, "lon": -77.03947966666667, "name": "6313702ee13663443286996ada143fdb", "fusion_lon": 0.0}, {"lat": 38.91604616666667, "fusion_lat": 0.0, "type": "electric_scooter", "bike_id": "f449baa6fd77696c001613f3381c72f6", "is_reserved": 0, "rental_uris": {"ios": "https://dc.lft.to/lastmile_qr_scan", "android": "https://dc.lft.to/lastmile_qr_scan"}, "is_disabled": 0, "lon": -77.0484415, "name": "f449baa6fd77696c001613f3381c72f6", "fusion_lon": 0.0}, {"lat": 38.92397533333333, "fusion_lat": 0.0, "type": "electric_scooter", "bike_id": "86b9ce855e0aba8e57573033c2cf9b60", "is_reserved": 0, "rental_uris": {"ios": "https://dc.lft.to/lastmile_qr_scan", "android": "https://dc.lft.to/lastmile_qr_scan"}, "is_disabled": 0, "lon": -77.021469, "name": "86b9ce855e0aba8e57573033c2cf9b60", "fusion_lon": 0.0}, {"lat": 38.872992833333335, "fusion_lat": 0.0, "type": "electric_scooter", "bike_id": "4b10be75408ff182edb11f0a339b14c3", "is_reserved": 0, "rental_uris": {"ios": "https://dc.lft.to/lastmile_qr_scan", "android": "https://dc.lft.to/lastmile_qr_scan"}, "is_disabled": 0, "lon": -77.00983316666667, "name": "4b10be75408ff182edb11f0a339b14c3", "fusion_lon": 0.0}, {"lat": 38.898411, "fusion_lat": 0.0, "type": "electric_scooter", "bike_id": "85e99adc7249a9c5dfd87d21bacdb787", "is_reserved": 0, "rental_uris": {"ios": "https://dc.lft.to/lastmile_qr_scan", "android": "https://dc.lft.to/lastmile_qr_scan"}, "is_disabled": 0, "lon": -77.03343666666666, "name": "85e99adc7249a9c5dfd87d21bacdb787", "fusion_lon": 0.0}, {"lat": 38.880582833333335, "fusion_lat": 0.0, "type": "electric_bike", "bike_id": "0768956b30ef9917a1a2a79fc74b2a54", "is_reserved": 0, "rental_uris": {"ios": "https://dc.lft.to/lastmile_qr_scan", "android": "https://dc.lft.to/lastmile_qr_scan"}, "is_disabled": 0, "lon": -76.96233466666666, "name": "0768956b30ef9917a1a2a79fc74b2a54", "fusion_lon": 0.0}, {"lat": 38.9097035, "fusion_lat": 0.0, "type": "electric_scooter", "bike_id": "e4c9720d019a7267099a747d23bf17cc", "is_reserved": 0, "rental_uris": {"ios": "https://dc.lft.to/lastmile_qr_scan", "android": "https://dc.lft.to/lastmile_qr_scan"}, "is_disabled": 0, "lon": -77.0343585, "name": "e4c9720d019a7267099a747d23bf17cc", "fusion_lon": 0.0}, {"lat": 38.904857, "fusion_lat": 0.0, "type": "electric_scooter", "bike_id": "92c94c589f099c6e0e20009a662fa1a2", "is_reserved": 0, "rental_uris": {"ios": "https://dc.lft.to/lastmile_qr_scan", "android": "https://dc.lft.to/lastmile_qr_scan"}, "is_disabled": 0, "lon": -77.03832716666666, "name": "92c94c589f099c6e0e20009a662fa1a2", "fusion_lon": 0.0}, {"lat": 38.923115833333334, "fusion_lat": 0.0, "type": "electric_scooter", "bike_id": "462da37a91e667e182ee5ce4a1d73bb0", "is_reserved": 0, "rental_uris": {"ios": "https://dc.lft.to/lastmile_qr_scan", "android": "https://dc.lft.to/lastmile_qr_scan"}, "is_disabled": 0, "lon": -77.0275615, "name": "462da37a91e667e182ee5ce4a1d73bb0", "fusion_lon": 0.0}, {"lat": 38.94205983333333, "fusion_lat": 0.0, "type": "electric_scooter", "bike_id": "5dd0086e787bf9044b66382d668f3974", "is_reserved": 0, "rental_uris": {"ios": "https://dc.lft.to/lastmile_qr_scan", "android": "https://dc.lft.to/lastmile_qr_scan"}, "is_disabled": 0, "lon": -77.02517183333333, "name": "5dd0086e787bf9044b66382d668f3974", "fusion_lon": 0.0}, {"lat": 38.915216, "fusion_lat": 0.0, "type": "electric_scooter", "bike_id": "6ec27fc70d111193d0cb5a8c5ce54e93", "is_reserved": 0, "rental_uris": {"ios": "https://dc.lft.to/lastmile_qr_scan", "android": "https://dc.lft.to/lastmile_qr_scan"}, "is_disabled": 0, "lon": -77.03195433333333, "name": "6ec27fc70d111193d0cb5a8c5ce54e93", "fusion_lon": 0.0}, {"lat": 38.915654333333336, "fusion_lat": 0.0, "type": "electric_scooter", "bike_id": "03a4cf3c8c81d6ef5718dc84a43f926e", "is_reserved": 0, "rental_uris": {"ios": "https://dc.lft.to/lastmile_qr_scan", "android": "https://dc.lft.to/lastmile_qr_scan"}, "is_disabled": 0, "lon": -77.03943016666666, "name": "03a4cf3c8c81d6ef5718dc84a43f926e", "fusion_lon": 0.0}, {"lat": 38.87614083333333, "fusion_lat": 0.0, "type": "electric_scooter", "bike_id": "8fef91cd757978d1aac8a421b06bd72f", "is_reserved": 0, "rental_uris": {"ios": "https://dc.lft.to/lastmile_qr_scan", "android": "https://dc.lft.to/lastmile_qr_scan"}, "is_disabled": 0, "lon": -77.00055783333333, "name": "8fef91cd757978d1aac8a421b06bd72f", "fusion_lon": 0.0}, {"lat": 38.869560666666665, "fusion_lat": 0.0, "type": "electric_scooter", "bike_id": "589b8e94a5b75640ddf0afa00b8fb732", "is_reserved": 0, "rental_uris": {"ios": "https://dc.lft.to/lastmile_qr_scan", "android": "https://dc.lft.to/lastmile_qr_scan"}, "is_disabled": 0, "lon": -76.9817495, "name": "589b8e94a5b75640ddf0afa00b8fb732", "fusion_lon": 0.0}, {"lat": 38.863519833333335, "fusion_lat": 0.0, "type": "electric_scooter", "bike_id": "19df2a3306328458c3f71f25abc8dc9f", "is_reserved": 0, "rental_uris": {"ios": "https://dc.lft.to/lastmile_qr_scan", "android": "https://dc.lft.to/lastmile_qr_scan"}, "is_disabled": 0, "lon": -76.98703766666667, "name": "19df2a3306328458c3f71f25abc8dc9f", "fusion_lon": 0.0}, {"lat": 38.91011533333333, "fusion_lat": 0.0, "type": "electric_bike", "bike_id": "603de57b144ba3aaf0d5ac5e0e462be5", "is_reserved": 0, "rental_uris": {"ios": "https://dc.lft.to/lastmile_qr_scan", "android": "https://dc.lft.to/lastmile_qr_scan"}, "is_disabled": 0, "lon": -77.22797883333334, "name": "603de57b144ba3aaf0d5ac5e0e462be5", "fusion_lon": 0.0}, {"lat": 38.893214, "fusion_lat": 0.0, "type": "electric_scooter", "bike_id": "c0da1cda18b0b6b8c3bbdc1d36ed18cd", "is_reserved": 0, "rental_uris": {"ios": "https://dc.lft.to/lastmile_qr_scan", "android": "https://dc.lft.to/lastmile_qr_scan"}, "is_disabled": 0, "lon": -77.04875266666667, "name": "c0da1cda18b0b6b8c3bbdc1d36ed18cd", "fusion_lon": 0.0}, {"lat": 38.8728015, "fusion_lat": 0.0, "type": "electric_bike", "bike_id": "431580120428ae5f46ae159b3211d127", "is_reserved": 0, "rental_uris": {"ios": "https://dc.lft.to/lastmile_qr_scan", "android": "https://dc.lft.to/lastmile_qr_scan"}, "is_disabled": 0, "lon": -77.233178, "name": "431580120428ae5f46ae159b3211d127", "fusion_lon": 0.0}, {"lat": 38.92361116666667, "fusion_lat": 0.0, "type": "electric_scooter", "bike_id": "f7fcdb88f813c4276055267172be8950", "is_reserved": 0, "rental_uris": {"ios": "https://dc.lft.to/lastmile_qr_scan", "android": "https://dc.lft.to/lastmile_qr_scan"}, "is_disabled": 0, "lon": -77.0424015, "name": "f7fcdb88f813c4276055267172be8950", "fusion_lon": 0.0}, {"lat": 38.949181, "fusion_lat": 0.0, "type": "electric_bike", "bike_id": "b2c6b922704d166ee481a6a24628957e", "is_reserved": 0, "rental_uris": {"ios": "https://dc.lft.to/lastmile_qr_scan", "android": "https://dc.lft.to/lastmile_qr_scan"}, "is_disabled": 0, "lon": -77.00793266666666, "name": "b2c6b922704d166ee481a6a24628957e", "fusion_lon": 0.0}, {"lat": 38.902109833333334, "fusion_lat": 0.0, "type": "electric_scooter", "bike_id": "88bdfd195eeee9e05925bdfa863b183e", "is_reserved": 0, "rental_uris": {"ios": "https://dc.lft.to/lastmile_qr_scan", "android": "https://dc.lft.to/lastmile_qr_scan"}, "is_disabled": 0, "lon": -77.02167366666667, "name": "88bdfd195eeee9e05925bdfa863b183e", "fusion_lon": 0.0}, {"lat": 38.90961583333333, "fusion_lat": 0.0, "type": "electric_scooter", "bike_id": "ebc59dc8c12318585774922ffc5aaebf", "is_reserved": 0, "rental_uris": {"ios": "https://dc.lft.to/lastmile_qr_scan", "android": "https://dc.lft.to/lastmile_qr_scan"}, "is_disabled": 0, "lon": -77.02688333333333, "name": "ebc59dc8c12318585774922ffc5aaebf", "fusion_lon": 0.0}, {"lat": 38.936362333333335, "fusion_lat": 0.0, "type": "electric_scooter", "bike_id": "80fef0e6d5c8c6f5251af55b87776b15", "is_reserved": 0, "rental_uris": {"ios": "https://dc.lft.to/lastmile_qr_scan", "android": "https://dc.lft.to/lastmile_qr_scan"}, "is_disabled": 0, "lon": -77.0588655, "name": "80fef0e6d5c8c6f5251af55b87776b15", "fusion_lon": 0.0}, {"lat": 38.91656566666666, "fusion_lat": 0.0, "type": "electric_scooter", "bike_id": "cfd5f44c7333e050616a28dc8537004a", "is_reserved": 0, "rental_uris": {"ios": "https://dc.lft.to/lastmile_qr_scan", "android": "https://dc.lft.to/lastmile_qr_scan"}, "is_disabled": 0, "lon": -77.02972116666666, "name": "cfd5f44c7333e050616a28dc8537004a", "fusion_lon": 0.0}, {"lat": 38.8624445, "fusion_lat": 0.0, "type": "electric_scooter", "bike_id": "605aca9ebb35531575bd99cd4be5ab22", "is_reserved": 0, "rental_uris": {"ios": "https://dc.lft.to/lastmile_qr_scan", "android": "https://dc.lft.to/lastmile_qr_scan"}, "is_disabled": 0, "lon": -76.9949945, "name": "605aca9ebb35531575bd99cd4be5ab22", "fusion_lon": 0.0}, {"lat": 38.90426466666667, "fusion_lat": 0.0, "type": "electric_scooter", "bike_id": "10c83f1ea03785d59d3ff3d4e00ff01b", "is_reserved": 0, "rental_uris": {"ios": "https://dc.lft.to/lastmile_qr_scan", "android": "https://dc.lft.to/lastmile_qr_scan"}, "is_disabled": 0, "lon": -77.049836, "name": "10c83f1ea03785d59d3ff3d4e00ff01b", "fusion_lon": 0.0}, {"lat": 38.876622, "fusion_lat": 0.0, "type": "electric_scooter", "bike_id": "82453b3d78689134cf62d34d29423c36", "is_reserved": 0, "rental_uris": {"ios": "https://dc.lft.to/lastmile_qr_scan", "android": "https://dc.lft.to/lastmile_qr_scan"}, "is_disabled": 0, "lon": -77.018276, "name": "82453b3d78689134cf62d34d29423c36", "fusion_lon": 0.0}, {"lat": 38.89546833333333, "fusion_lat": 0.0, "type": "electric_scooter", "bike_id": "cf0c5172c7daf196efd89d16c5cd5968", "is_reserved": 0, "rental_uris": {"ios": "https://dc.lft.to/lastmile_qr_scan", "android": "https://dc.lft.to/lastmile_qr_scan"}, "is_disabled": 0, "lon": -77.0110095, "name": "cf0c5172c7daf196efd89d16c5cd5968", "fusion_lon": 0.0}, {"lat": 38.905534333333335, "fusion_lat": 0.0, "type": "electric_scooter", "bike_id": "047b2deb6f49eac45ff67edb7fd5bb17", "is_reserved": 0, "rental_uris": {"ios": "https://dc.lft.to/lastmile_qr_scan", "android": "https://dc.lft.to/lastmile_qr_scan"}, "is_disabled": 0, "lon": -76.9962135, "name": "047b2deb6f49eac45ff67edb7fd5bb17", "fusion_lon": 0.0}, {"lat": 38.92008166666667, "fusion_lat": 0.0, "type": "electric_scooter", "bike_id": "8121cb3cf555e91066c9c200f6d31bfe", "is_reserved": 0, "rental_uris": {"ios": "https://dc.lft.to/lastmile_qr_scan", "android": "https://dc.lft.to/lastmile_qr_scan"}, "is_disabled": 0, "lon": -77.03894683333333, "name": "8121cb3cf555e91066c9c200f6d31bfe", "fusion_lon": 0.0}, {"lat": 38.90425316666666, "fusion_lat": 0.0, "type": "electric_scooter", "bike_id": "9e52887103d325289d8debfae87ce465", "is_reserved": 0, "rental_uris": {"ios": "https://dc.lft.to/lastmile_qr_scan", "android": "https://dc.lft.to/lastmile_qr_scan"}, "is_disabled": 0, "lon": -77.04371666666667, "name": "9e52887103d325289d8debfae87ce465", "fusion_lon": 0.0}, {"lat": 38.87736116666667, "fusion_lat": 0.0, "type": "electric_bike", "bike_id": "608f7c607b1fbfd2fd5fa4528118b7bb", "is_reserved": 0, "rental_uris": {"ios": "https://dc.lft.to/lastmile_qr_scan", "android": "https://dc.lft.to/lastmile_qr_scan"}, "is_disabled": 0, "lon": -77.11852516666667, "name": "608f7c607b1fbfd2fd5fa4528118b7bb", "fusion_lon": 0.0}, {"lat": 38.91880716666667, "fusion_lat": 0.0, "type": "electric_scooter", "bike_id": "6eb97b6480b1e92114cb17fc52d7dd83", "is_reserved": 0, "rental_uris": {"ios": "https://dc.lft.to/lastmile_qr_scan", "android": "https://dc.lft.to/lastmile_qr_scan"}, "is_disabled": 0, "lon": -77.02455233333333, "name": "6eb97b6480b1e92114cb17fc52d7dd83", "fusion_lon": 0.0}, {"lat": 38.80426466666667, "fusion_lat": 0.0, "type": "electric_bike", "bike_id": "b09308d0a4b390369d8adae28bda146f", "is_reserved": 0, "rental_uris": {"ios": "https://dc.lft.to/lastmile_qr_scan", "android": "https://dc.lft.to/lastmile_qr_scan"}, "is_disabled": 0, "lon": -77.055711, "name": "b09308d0a4b390369d8adae28bda146f", "fusion_lon": 0.0}, {"lat": 38.9788605, "fusion_lat": 0.0, "type": "electric_bike", "bike_id": "507418960d40f52a91ffc28d5166abab", "is_reserved": 0, "rental_uris": {"ios": "https://dc.lft.to/lastmile_qr_scan", "android": "https://dc.lft.to/lastmile_qr_scan"}, "is_disabled": 0, "lon": -77.0603135, "name": "507418960d40f52a91ffc28d5166abab", "fusion_lon": 0.0}, {"lat": 38.90502216666667, "fusion_lat": 0.0, "type": "electric_scooter", "bike_id": "b30ad211ec9dd349d0e799228be4540d", "is_reserved": 0, "rental_uris": {"ios": "https://dc.lft.to/lastmile_qr_scan", "android": "https://dc.lft.to/lastmile_qr_scan"}, "is_disabled": 0, "lon": -77.0611425, "name": "b30ad211ec9dd349d0e799228be4540d", "fusion_lon": 0.0}, {"lat": 38.9132695, "fusion_lat": 0.0, "type": "electric_scooter", "bike_id": "0594f40f516bd21abfe797bf8f30fff9", "is_reserved": 0, "rental_uris": {"ios": "https://dc.lft.to/lastmile_qr_scan", "android": "https://dc.lft.to/lastmile_qr_scan"}, "is_disabled": 0, "lon": -77.03188366666667, "name": "0594f40f516bd21abfe797bf8f30fff9", "fusion_lon": 0.0}, {"lat": 38.91247833333333, "fusion_lat": 0.0, "type": "electric_scooter", "bike_id": "89b43cbad1cce013ef891fc9657ace7c", "is_reserved": 0, "rental_uris": {"ios": "https://dc.lft.to/lastmile_qr_scan", "android": "https://dc.lft.to/lastmile_qr_scan"}, "is_disabled": 0, "lon": -77.03416616666667, "name": "89b43cbad1cce013ef891fc9657ace7c", "fusion_lon": 0.0}, {"lat": 38.90695633333333, "fusion_lat": 0.0, "type": "electric_scooter", "bike_id": "e5de9e7df309f0c56becb191cc616f39", "is_reserved": 0, "rental_uris": {"ios": "https://dc.lft.to/lastmile_qr_scan", "android": "https://dc.lft.to/lastmile_qr_scan"}, "is_disabled": 0, "lon": -77.02598766666667, "name": "e5de9e7df309f0c56becb191cc616f39", "fusion_lon": 0.0}, {"lat": 38.9098135, "fusion_lat": 0.0, "type": "electric_scooter", "bike_id": "073428fd104b8a71fc8dc3b2f245872b", "is_reserved": 0, "rental_uris": {"ios": "https://dc.lft.to/lastmile_qr_scan", "android": "https://dc.lft.to/lastmile_qr_scan"}, "is_disabled": 0, "lon": -77.03440566666667, "name": "073428fd104b8a71fc8dc3b2f245872b", "fusion_lon": 0.0}, {"lat": 38.905651, "fusion_lat": 0.0, "type": "electric_scooter", "bike_id": "99f6b07d3439499b122baab01c1a5add", "is_reserved": 0, "rental_uris": {"ios": "https://dc.lft.to/lastmile_qr_scan", "android": "https://dc.lft.to/lastmile_qr_scan"}, "is_disabled": 0, "lon": -77.03993816666667, "name": "99f6b07d3439499b122baab01c1a5add", "fusion_lon": 0.0}, {"lat": 38.907267, "fusion_lat": 0.0, "type": "electric_scooter", "bike_id": "78c21f9aa960e309d1264e108a617aac", "is_reserved": 0, "rental_uris": {"ios": "https://dc.lft.to/lastmile_qr_scan", "android": "https://dc.lft.to/lastmile_qr_scan"}, "is_disabled": 0, "lon": -77.02546483333333, "name": "78c21f9aa960e309d1264e108a617aac", "fusion_lon": 0.0}, {"lat": 38.878487, "fusion_lat": 0.0, "type": "electric_scooter", "bike_id": "4e21fc25707fc946c5cc27a54706514c", "is_reserved": 0, "rental_uris": {"ios": "https://dc.lft.to/lastmile_qr_scan", "android": "https://dc.lft.to/lastmile_qr_scan"}, "is_disabled": 0, "lon": -77.008146, "name": "4e21fc25707fc946c5cc27a54706514c", "fusion_lon": 0.0}, {"lat": 38.89007133333333, "fusion_lat": 0.0, "type": "electric_scooter", "bike_id": "d32c7cdb5cb486141d700f1566e24b48", "is_reserved": 0, "rental_uris": {"ios": "https://dc.lft.to/lastmile_qr_scan", "android": "https://dc.lft.to/lastmile_qr_scan"}, "is_disabled": 0, "lon": -77.03321833333334, "name": "d32c7cdb5cb486141d700f1566e24b48", "fusion_lon": 0.0}, {"lat": 38.897316000000004, "fusion_lat": 0.0, "type": "electric_scooter", "bike_id": "317420ecb7c7ceab4e2659ef2f05392c", "is_reserved": 0, "rental_uris": {"ios": "https://dc.lft.to/lastmile_qr_scan", "android": "https://dc.lft.to/lastmile_qr_scan"}, "is_disabled": 0, "lon": -77.0098015, "name": "317420ecb7c7ceab4e2659ef2f05392c", "fusion_lon": 0.0}, {"lat": 38.909384, "fusion_lat": 0.0, "type": "electric_scooter", "bike_id": "bb6b073d9b68d55d525cdb04aff74f5d", "is_reserved": 0, "rental_uris": {"ios": "https://dc.lft.to/lastmile_qr_scan", "android": "https://dc.lft.to/lastmile_qr_scan"}, "is_disabled": 0, "lon": -77.02703633333333, "name": "bb6b073d9b68d55d525cdb04aff74f5d", "fusion_lon": 0.0}, {"lat": 38.896087666666666, "fusion_lat": 0.0, "type": "electric_scooter", "bike_id": "ae8e5f491c651b637a56b2adf3edd441", "is_reserved": 0, "rental_uris": {"ios": "https://dc.lft.to/lastmile_qr_scan", "android": "https://dc.lft.to/lastmile_qr_scan"}, "is_disabled": 0, "lon": -77.05055333333334, "name": "ae8e5f491c651b637a56b2adf3edd441", "fusion_lon": 0.0}, {"lat": 38.89775916666667, "fusion_lat": 0.0, "type": "electric_scooter", "bike_id": "b0fc6f558de64b518a033eb22623b4c3", "is_reserved": 0, "rental_uris": {"ios": "https://dc.lft.to/lastmile_qr_scan", "android": "https://dc.lft.to/lastmile_qr_scan"}, "is_disabled": 0, "lon": -77.05478466666666, "name": "b0fc6f558de64b518a033eb22623b4c3", "fusion_lon": 0.0}, {"lat": 38.9288465, "fusion_lat": 0.0, "type": "electric_scooter", "bike_id": "a01008bf1544ece1c0866193af6c975f", "is_reserved": 0, "rental_uris": {"ios": "https://dc.lft.to/lastmile_qr_scan", "android": "https://dc.lft.to/lastmile_qr_scan"}, "is_disabled": 0, "lon": -77.03349083333333, "name": "a01008bf1544ece1c0866193af6c975f", "fusion_lon": 0.0}, {"lat": 38.9052645, "fusion_lat": 0.0, "type": "electric_scooter", "bike_id": "a8b35d2b20ad674db0de2967d4c248ac", "is_reserved": 0, "rental_uris": {"ios": "https://dc.lft.to/lastmile_qr_scan", "android": "https://dc.lft.to/lastmile_qr_scan"}, "is_disabled": 0, "lon": -77.06606433333333, "name": "a8b35d2b20ad674db0de2967d4c248ac", "fusion_lon": 0.0}, {"lat": 38.87485816666667, "fusion_lat": 0.0, "type": "electric_scooter", "bike_id": "b17a324fae3105e9e35872021a9904f2", "is_reserved": 0, "rental_uris": {"ios": "https://dc.lft.to/lastmile_qr_scan", "android": "https://dc.lft.to/lastmile_qr_scan"}, "is_disabled": 0, "lon": -76.99979166666667, "name": "b17a324fae3105e9e35872021a9904f2", "fusion_lon": 0.0}, {"lat": 38.921500333333334, "fusion_lat": 0.0, "type": "electric_scooter", "bike_id": "a668a249bde1a676bc97fb760fcf7f4c", "is_reserved": 0, "rental_uris": {"ios": "https://dc.lft.to/lastmile_qr_scan", "android": "https://dc.lft.to/lastmile_qr_scan"}, "is_disabled": 0, "lon": -77.03500366666667, "name": "a668a249bde1a676bc97fb760fcf7f4c", "fusion_lon": 0.0}, {"lat": 38.90034283333333, "fusion_lat": 0.0, "type": "electric_scooter", "bike_id": "2fab7aff08fed72b5d29f5144c496685", "is_reserved": 0, "rental_uris": {"ios": "https://dc.lft.to/lastmile_qr_scan", "android": "https://dc.lft.to/lastmile_qr_scan"}, "is_disabled": 0, "lon": -76.99937733333333, "name": "2fab7aff08fed72b5d29f5144c496685", "fusion_lon": 0.0}, {"lat": 38.908684, "fusion_lat": 0.0, "type": "electric_scooter", "bike_id": "b26f7fb33e98013dc12515038d92addd", "is_reserved": 0, "rental_uris": {"ios": "https://dc.lft.to/lastmile_qr_scan", "android": "https://dc.lft.to/lastmile_qr_scan"}, "is_disabled": 0, "lon": -77.03224083333333, "name": "b26f7fb33e98013dc12515038d92addd", "fusion_lon": 0.0}, {"lat": 38.905281, "fusion_lat": 0.0, "type": "electric_scooter", "bike_id": "ed95e659f8bbd7384701cd65b4a3fdea", "is_reserved": 0, "rental_uris": {"ios": "https://dc.lft.to/lastmile_qr_scan", "android": "https://dc.lft.to/lastmile_qr_scan"}, "is_disabled": 0, "lon": -77.03092666666667, "name": "ed95e659f8bbd7384701cd65b4a3fdea", "fusion_lon": 0.0}, {"lat": 38.89863916666667, "fusion_lat": 0.0, "type": "electric_scooter", "bike_id": "c0782a282ead5a74b7c5ed5c3ed5c393", "is_reserved": 0, "rental_uris": {"ios": "https://dc.lft.to/lastmile_qr_scan", "android": "https://dc.lft.to/lastmile_qr_scan"}, "is_disabled": 0, "lon": -76.927518, "name": "c0782a282ead5a74b7c5ed5c3ed5c393", "fusion_lon": 0.0}, {"lat": 38.855395, "fusion_lat": 0.0, "type": "electric_scooter", "bike_id": "d321f15f5c1b3fe68937f6d6acb15e57", "is_reserved": 0, "rental_uris": {"ios": "https://dc.lft.to/lastmile_qr_scan", "android": "https://dc.lft.to/lastmile_qr_scan"}, "is_disabled": 0, "lon": -76.9841925, "name": "d321f15f5c1b3fe68937f6d6acb15e57", "fusion_lon": 0.0}, {"lat": 38.95941666666667, "fusion_lat": 0.0, "type": "electric_scooter", "bike_id": "be180d2f0b5c6828d8d2abce1d713d6f", "is_reserved": 0, "rental_uris": {"ios": "https://dc.lft.to/lastmile_qr_scan", "android": "https://dc.lft.to/lastmile_qr_scan"}, "is_disabled": 0, "lon": -77.03054816666666, "name": "be180d2f0b5c6828d8d2abce1d713d6f", "fusion_lon": 0.0}, {"lat": 38.924654, "fusion_lat": 0.0, "type": "electric_scooter", "bike_id": "90d4061c02a77668992d87c7de19db55", "is_reserved": 0, "rental_uris": {"ios": "https://dc.lft.to/lastmile_qr_scan", "android": "https://dc.lft.to/lastmile_qr_scan"}, "is_disabled": 0, "lon": -77.039981, "name": "90d4061c02a77668992d87c7de19db55", "fusion_lon": 0.0}, {"lat": 38.90083933333333, "fusion_lat": 0.0, "type": "electric_scooter", "bike_id": "eed7c2a4eb74d041086b09fac10fb9bc", "is_reserved": 0, "rental_uris": {"ios": "https://dc.lft.to/lastmile_qr_scan", "android": "https://dc.lft.to/lastmile_qr_scan"}, "is_disabled": 0, "lon": -76.93017016666667, "name": "eed7c2a4eb74d041086b09fac10fb9bc", "fusion_lon": 0.0}, {"lat": 38.929709833333334, "fusion_lat": 0.0, "type": "electric_scooter", "bike_id": "78c6653e9ee2531ea0d314a1b925ac82", "is_reserved": 0, "rental_uris": {"ios": "https://dc.lft.to/lastmile_qr_scan", "android": "https://dc.lft.to/lastmile_qr_scan"}, "is_disabled": 0, "lon": -77.016871, "name": "78c6653e9ee2531ea0d314a1b925ac82", "fusion_lon": 0.0}, {"lat": 38.910491666666665, "fusion_lat": 0.0, "type": "electric_scooter", "bike_id": "2cae0ce4bab1e2e34e7f3f404e060d7d", "is_reserved": 0, "rental_uris": {"ios": "https://dc.lft.to/lastmile_qr_scan", "android": "https://dc.lft.to/lastmile_qr_scan"}, "is_disabled": 0, "lon": -77.03125633333333, "name": "2cae0ce4bab1e2e34e7f3f404e060d7d", "fusion_lon": 0.0}, {"lat": 38.9290405, "fusion_lat": 0.0, "type": "electric_scooter", "bike_id": "1dfb70ccc5161ef8c00a3291f1c5deac", "is_reserved": 0, "rental_uris": {"ios": "https://dc.lft.to/lastmile_qr_scan", "android": "https://dc.lft.to/lastmile_qr_scan"}, "is_disabled": 0, "lon": -77.02750883333333, "name": "1dfb70ccc5161ef8c00a3291f1c5deac", "fusion_lon": 0.0}, {"lat": 38.87067116666667, "fusion_lat": 0.0, "type": "electric_scooter", "bike_id": "8c510d5d8b954119619473a4786e3f91", "is_reserved": 0, "rental_uris": {"ios": "https://dc.lft.to/lastmile_qr_scan", "android": "https://dc.lft.to/lastmile_qr_scan"}, "is_disabled": 0, "lon": -76.98914983333333, "name": "8c510d5d8b954119619473a4786e3f91", "fusion_lon": 0.0}, {"lat": 38.920195166666666, "fusion_lat": 0.0, "type": "electric_scooter", "bike_id": "5d6e913e489147cf4d0184c3e22933c9", "is_reserved": 0, "rental_uris": {"ios": "https://dc.lft.to/lastmile_qr_scan", "android": "https://dc.lft.to/lastmile_qr_scan"}, "is_disabled": 0, "lon": -77.04197416666666, "name": "5d6e913e489147cf4d0184c3e22933c9", "fusion_lon": 0.0}, {"lat": 38.920330166666666, "fusion_lat": 0.0, "type": "electric_scooter", "bike_id": "ac896ed0d796e91a07e45e5c0b071647", "is_reserved": 0, "rental_uris": {"ios": "https://dc.lft.to/lastmile_qr_scan", "android": "https://dc.lft.to/lastmile_qr_scan"}, "is_disabled": 0, "lon": -77.025844, "name": "ac896ed0d796e91a07e45e5c0b071647", "fusion_lon": 0.0}, {"lat": 38.9126635, "fusion_lat": 0.0, "type": "electric_scooter", "bike_id": "d7f5a85c8ee8b3c21c29d0bdd1b52bb9", "is_reserved": 0, "rental_uris": {"ios": "https://dc.lft.to/lastmile_qr_scan", "android": "https://dc.lft.to/lastmile_qr_scan"}, "is_disabled": 0, "lon": -77.03898166666667, "name": "d7f5a85c8ee8b3c21c29d0bdd1b52bb9", "fusion_lon": 0.0}, {"lat": 38.911062, "fusion_lat": 0.0, "type": "electric_scooter", "bike_id": "70ac21b89e24124e8b99c14f08898f55", "is_reserved": 0, "rental_uris": {"ios": "https://dc.lft.to/lastmile_qr_scan", "android": "https://dc.lft.to/lastmile_qr_scan"}, "is_disabled": 0, "lon": -77.04308366666666, "name": "70ac21b89e24124e8b99c14f08898f55", "fusion_lon": 0.0}, {"lat": 38.892291166666666, "fusion_lat": 0.0, "type": "electric_scooter", "bike_id": "a9c6ea4a47df7fec73def5ba3c5ba0d6", "is_reserved": 0, "rental_uris": {"ios": "https://dc.lft.to/lastmile_qr_scan", "android": "https://dc.lft.to/lastmile_qr_scan"}, "is_disabled": 0, "lon": -77.02515083333333, "name": "a9c6ea4a47df7fec73def5ba3c5ba0d6", "fusion_lon": 0.0}, {"lat": 38.917666, "fusion_lat": 0.0, "type": "electric_scooter", "bike_id": "043eebafc65c074abfe034eca2ac407e", "is_reserved": 0, "rental_uris": {"ios": "https://dc.lft.to/lastmile_qr_scan", "android": "https://dc.lft.to/lastmile_qr_scan"}, "is_disabled": 0, "lon": -77.04061966666667, "name": "043eebafc65c074abfe034eca2ac407e", "fusion_lon": 0.0}, {"lat": 38.923065, "fusion_lat": 0.0, "type": "electric_scooter", "bike_id": "ed2112a0115818c0392f1d5504ad9845", "is_reserved": 0, "rental_uris": {"ios": "https://dc.lft.to/lastmile_qr_scan", "android": "https://dc.lft.to/lastmile_qr_scan"}, "is_disabled": 0, "lon": -77.03115733333334, "name": "ed2112a0115818c0392f1d5504ad9845", "fusion_lon": 0.0}, {"lat": 38.8966635, "fusion_lat": 0.0, "type": "electric_scooter", "bike_id": "e5a1c0871891b8a41d37f417ad973963", "is_reserved": 0, "rental_uris": {"ios": "https://dc.lft.to/lastmile_qr_scan", "android": "https://dc.lft.to/lastmile_qr_scan"}, "is_disabled": 0, "lon": -76.98813683333333, "name": "e5a1c0871891b8a41d37f417ad973963", "fusion_lon": 0.0}, {"lat": 38.90036633333333, "fusion_lat": 0.0, "type": "electric_scooter", "bike_id": "9007a85b6e177f2746aa5685cc50fdf6", "is_reserved": 0, "rental_uris": {"ios": "https://dc.lft.to/lastmile_qr_scan", "android": "https://dc.lft.to/lastmile_qr_scan"}, "is_disabled": 0, "lon": -77.00091616666667, "name": "9007a85b6e177f2746aa5685cc50fdf6", "fusion_lon": 0.0}, {"lat": 38.91624, "fusion_lat": 0.0, "type": "electric_scooter", "bike_id": "3562f1b9ecb763135fd69c113a3cec69", "is_reserved": 0, "rental_uris": {"ios": "https://dc.lft.to/lastmile_qr_scan", "android": "https://dc.lft.to/lastmile_qr_scan"}, "is_disabled": 0, "lon": -77.0385465, "name": "3562f1b9ecb763135fd69c113a3cec69", "fusion_lon": 0.0}, {"lat": 38.92303783333333, "fusion_lat": 0.0, "type": "electric_scooter", "bike_id": "224ae6f6aa32a3cbc3506f446c647e7e", "is_reserved": 0, "rental_uris": {"ios": "https://dc.lft.to/lastmile_qr_scan", "android": "https://dc.lft.to/lastmile_qr_scan"}, "is_disabled": 0, "lon": -77.03911783333334, "name": "224ae6f6aa32a3cbc3506f446c647e7e", "fusion_lon": 0.0}, {"lat": 38.913687833333334, "fusion_lat": 0.0, "type": "electric_scooter", "bike_id": "ec5205de797317567cc25b7cb8cf15a9", "is_reserved": 0, "rental_uris": {"ios": "https://dc.lft.to/lastmile_qr_scan", "android": "https://dc.lft.to/lastmile_qr_scan"}, "is_disabled": 0, "lon": -77.04488016666667, "name": "ec5205de797317567cc25b7cb8cf15a9", "fusion_lon": 0.0}, {"lat": 38.921024333333335, "fusion_lat": 0.0, "type": "electric_scooter", "bike_id": "766370a9dbb32d9e1d63a9c31723af85", "is_reserved": 0, "rental_uris": {"ios": "https://dc.lft.to/lastmile_qr_scan", "android": "https://dc.lft.to/lastmile_qr_scan"}, "is_disabled": 0, "lon": -77.0304805, "name": "766370a9dbb32d9e1d63a9c31723af85", "fusion_lon": 0.0}, {"lat": 38.9170665, "fusion_lat": 0.0, "type": "electric_bike", "bike_id": "d1ccb6f31f252a6d23f43bc90cc26de4", "is_reserved": 0, "rental_uris": {"ios": "https://dc.lft.to/lastmile_qr_scan", "android": "https://dc.lft.to/lastmile_qr_scan"}, "is_disabled": 0, "lon": -77.04294933333334, "name": "d1ccb6f31f252a6d23f43bc90cc26de4", "fusion_lon": 0.0}, {"lat": 38.90334816666667, "fusion_lat": 0.0, "type": "electric_scooter", "bike_id": "126308c00029355dae41bf0b5b519792", "is_reserved": 0, "rental_uris": {"ios": "https://dc.lft.to/lastmile_qr_scan", "android": "https://dc.lft.to/lastmile_qr_scan"}, "is_disabled": 0, "lon": -76.97590966666667, "name": "126308c00029355dae41bf0b5b519792", "fusion_lon": 0.0}, {"lat": 38.90680366666667, "fusion_lat": 0.0, "type": "electric_scooter", "bike_id": "1aaf5f9fafc353ead27ae2d4acac3201", "is_reserved": 0, "rental_uris": {"ios": "https://dc.lft.to/lastmile_qr_scan", "android": "https://dc.lft.to/lastmile_qr_scan"}, "is_disabled": 0, "lon": -77.07166566666666, "name": "1aaf5f9fafc353ead27ae2d4acac3201", "fusion_lon": 0.0}, {"lat": 38.9293645, "fusion_lat": 0.0, "type": "electric_scooter", "bike_id": "49e28e96fd7fae96f5b5401051f0b597", "is_reserved": 0, "rental_uris": {"ios": "https://dc.lft.to/lastmile_qr_scan", "android": "https://dc.lft.to/lastmile_qr_scan"}, "is_disabled": 0, "lon": -77.01997133333333, "name": "49e28e96fd7fae96f5b5401051f0b597", "fusion_lon": 0.0}, {"lat": 38.858922, "fusion_lat": 0.0, "type": "electric_scooter", "bike_id": "27ed898fecec08d37ceecea233641506", "is_reserved": 0, "rental_uris": {"ios": "https://dc.lft.to/lastmile_qr_scan", "android": "https://dc.lft.to/lastmile_qr_scan"}, "is_disabled": 0, "lon": -76.99725466666666, "name": "27ed898fecec08d37ceecea233641506", "fusion_lon": 0.0}, {"lat": 38.91684733333334, "fusion_lat": 0.0, "type": "electric_scooter", "bike_id": "4420ef7805e2c0089459d12dc2c43479", "is_reserved": 0, "rental_uris": {"ios": "https://dc.lft.to/lastmile_qr_scan", "android": "https://dc.lft.to/lastmile_qr_scan"}, "is_disabled": 0, "lon": -77.02979283333333, "name": "4420ef7805e2c0089459d12dc2c43479", "fusion_lon": 0.0}, {"lat": 38.917092833333335, "fusion_lat": 0.0, "type": "electric_scooter", "bike_id": "9f47795dfba93853490c86fed4834e44", "is_reserved": 0, "rental_uris": {"ios": "https://dc.lft.to/lastmile_qr_scan", "android": "https://dc.lft.to/lastmile_qr_scan"}, "is_disabled": 0, "lon": -77.03449316666666, "name": "9f47795dfba93853490c86fed4834e44", "fusion_lon": 0.0}, {"lat": 38.885418666666666, "fusion_lat": 0.0, "type": "electric_scooter", "bike_id": "6192c12fabd99cc8fbd93ac97879d8b5", "is_reserved": 0, "rental_uris": {"ios": "https://dc.lft.to/lastmile_qr_scan", "android": "https://dc.lft.to/lastmile_qr_scan"}, "is_disabled": 0, "lon": -77.021924, "name": "6192c12fabd99cc8fbd93ac97879d8b5", "fusion_lon": 0.0}, {"lat": 38.89950866666667, "fusion_lat": 0.0, "type": "electric_bike", "bike_id": "c417d2726d288a41764743f17f7e3049", "is_reserved": 0, "rental_uris": {"ios": "https://dc.lft.to/lastmile_qr_scan", "android": "https://dc.lft.to/lastmile_qr_scan"}, "is_disabled": 0, "lon": -76.985503, "name": "c417d2726d288a41764743f17f7e3049", "fusion_lon": 0.0}, {"lat": 38.9110375, "fusion_lat": 0.0, "type": "electric_scooter", "bike_id": "0e755501722726ff97d71fbf03cdb945", "is_reserved": 0, "rental_uris": {"ios": "https://dc.lft.to/lastmile_qr_scan", "android": "https://dc.lft.to/lastmile_qr_scan"}, "is_disabled": 0, "lon": -77.02507066666666, "name": "0e755501722726ff97d71fbf03cdb945", "fusion_lon": 0.0}, {"lat": 38.8991585, "fusion_lat": 0.0, "type": "electric_scooter", "bike_id": "a60c3cba7d4b172250eabe78deb6720c", "is_reserved": 0, "rental_uris": {"ios": "https://dc.lft.to/lastmile_qr_scan", "android": "https://dc.lft.to/lastmile_qr_scan"}, "is_disabled": 0, "lon": -76.9506735, "name": "a60c3cba7d4b172250eabe78deb6720c", "fusion_lon": 0.0}, {"lat": 38.916370666666666, "fusion_lat": 0.0, "type": "electric_scooter", "bike_id": "68102fb33e46731c81705b5031f7ad84", "is_reserved": 0, "rental_uris": {"ios": "https://dc.lft.to/lastmile_qr_scan", "android": "https://dc.lft.to/lastmile_qr_scan"}, "is_disabled": 0, "lon": -77.03977283333333, "name": "68102fb33e46731c81705b5031f7ad84", "fusion_lon": 0.0}, {"lat": 38.862344, "fusion_lat": 0.0, "type": "electric_scooter", "bike_id": "2102a3bac735f011fd630ce6242bb1fb", "is_reserved": 0, "rental_uris": {"ios": "https://dc.lft.to/lastmile_qr_scan", "android": "https://dc.lft.to/lastmile_qr_scan"}, "is_disabled": 0, "lon": -76.99518683333334, "name": "2102a3bac735f011fd630ce6242bb1fb", "fusion_lon": 0.0}, {"lat": 38.91987733333333, "fusion_lat": 0.0, "type": "electric_scooter", "bike_id": "4658afea54c08c1d725465e33449db20", "is_reserved": 0, "rental_uris": {"ios": "https://dc.lft.to/lastmile_qr_scan", "android": "https://dc.lft.to/lastmile_qr_scan"}, "is_disabled": 0, "lon": -76.973047, "name": "4658afea54c08c1d725465e33449db20", "fusion_lon": 0.0}, {"lat": 38.9072235, "fusion_lat": 0.0, "type": "electric_scooter", "bike_id": "bd39ff070aad3ae7eecd776808c591ee", "is_reserved": 0, "rental_uris": {"ios": "https://dc.lft.to/lastmile_qr_scan", "android": "https://dc.lft.to/lastmile_qr_scan"}, "is_disabled": 0, "lon": -77.03356033333333, "name": "bd39ff070aad3ae7eecd776808c591ee", "fusion_lon": 0.0}, {"lat": 38.9210995, "fusion_lat": 0.0, "type": "electric_scooter", "bike_id": "95d47c7550ec519702da7db9d7b2b92c", "is_reserved": 0, "rental_uris": {"ios": "https://dc.lft.to/lastmile_qr_scan", "android": "https://dc.lft.to/lastmile_qr_scan"}, "is_disabled": 0, "lon": -77.03330766666667, "name": "95d47c7550ec519702da7db9d7b2b92c", "fusion_lon": 0.0}, {"lat": 38.902364, "fusion_lat": 0.0, "type": "electric_scooter", "bike_id": "907e4db7af1d57e2712715bfbc30d68c", "is_reserved": 0, "rental_uris": {"ios": "https://dc.lft.to/lastmile_qr_scan", "android": "https://dc.lft.to/lastmile_qr_scan"}, "is_disabled": 0, "lon": -76.9741165, "name": "907e4db7af1d57e2712715bfbc30d68c", "fusion_lon": 0.0}, {"lat": 38.9114625, "fusion_lat": 0.0, "type": "electric_scooter", "bike_id": "9e11a601597cfd4ee2836c2f51841458", "is_reserved": 0, "rental_uris": {"ios": "https://dc.lft.to/lastmile_qr_scan", "android": "https://dc.lft.to/lastmile_qr_scan"}, "is_disabled": 0, "lon": -77.0385295, "name": "9e11a601597cfd4ee2836c2f51841458", "fusion_lon": 0.0}, {"lat": 38.89521366666666, "fusion_lat": 0.0, "type": "electric_scooter", "bike_id": "60cca1b4152fdcff680ce783b53387a8", "is_reserved": 0, "rental_uris": {"ios": "https://dc.lft.to/lastmile_qr_scan", "android": "https://dc.lft.to/lastmile_qr_scan"}, "is_disabled": 0, "lon": -76.98821433333333, "name": "60cca1b4152fdcff680ce783b53387a8", "fusion_lon": 0.0}, {"lat": 38.935336666666664, "fusion_lat": 0.0, "type": "electric_scooter", "bike_id": "8103189941926cdff5cae9e43e1907c7", "is_reserved": 0, "rental_uris": {"ios": "https://dc.lft.to/lastmile_qr_scan", "android": "https://dc.lft.to/lastmile_qr_scan"}, "is_disabled": 0, "lon": -77.0544725, "name": "8103189941926cdff5cae9e43e1907c7", "fusion_lon": 0.0}, {"lat": 38.85176633333333, "fusion_lat": 0.0, "type": "electric_scooter", "bike_id": "f6e1a25b76e49b1a3c82326471fd3652", "is_reserved": 0, "rental_uris": {"ios": "https://dc.lft.to/lastmile_qr_scan", "android": "https://dc.lft.to/lastmile_qr_scan"}, "is_disabled": 0, "lon": -76.995803, "name": "f6e1a25b76e49b1a3c82326471fd3652", "fusion_lon": 0.0}, {"lat": 38.923632166666664, "fusion_lat": 0.0, "type": "electric_scooter", "bike_id": "7b85b6065a654f84ca1272c101b2ee58", "is_reserved": 0, "rental_uris": {"ios": "https://dc.lft.to/lastmile_qr_scan", "android": "https://dc.lft.to/lastmile_qr_scan"}, "is_disabled": 0, "lon": -77.05077233333333, "name": "7b85b6065a654f84ca1272c101b2ee58", "fusion_lon": 0.0}, {"lat": 38.87458266666667, "fusion_lat": 0.0, "type": "electric_scooter", "bike_id": "6561108db28471b529fdf824128edf7f", "is_reserved": 0, "rental_uris": {"ios": "https://dc.lft.to/lastmile_qr_scan", "android": "https://dc.lft.to/lastmile_qr_scan"}, "is_disabled": 0, "lon": -77.0054265, "name": "6561108db28471b529fdf824128edf7f", "fusion_lon": 0.0}, {"lat": 38.8921975, "fusion_lat": 0.0, "type": "electric_scooter", "bike_id": "512201890c4fbf23e5741143a91828a5", "is_reserved": 0, "rental_uris": {"ios": "https://dc.lft.to/lastmile_qr_scan", "android": "https://dc.lft.to/lastmile_qr_scan"}, "is_disabled": 0, "lon": -77.0437615, "name": "512201890c4fbf23e5741143a91828a5", "fusion_lon": 0.0}, {"lat": 38.9079345, "fusion_lat": 0.0, "type": "electric_scooter", "bike_id": "e6a650f899766c18e50deabc6b128521", "is_reserved": 0, "rental_uris": {"ios": "https://dc.lft.to/lastmile_qr_scan", "android": "https://dc.lft.to/lastmile_qr_scan"}, "is_disabled": 0, "lon": -77.038233, "name": "e6a650f899766c18e50deabc6b128521", "fusion_lon": 0.0}, {"lat": 38.9250005, "fusion_lat": 0.0, "type": "electric_scooter", "bike_id": "6c844bb35b35220568915a3b54adf54d", "is_reserved": 0, "rental_uris": {"ios": "https://dc.lft.to/lastmile_qr_scan", "android": "https://dc.lft.to/lastmile_qr_scan"}, "is_disabled": 0, "lon": -77.00889366666667, "name": "6c844bb35b35220568915a3b54adf54d", "fusion_lon": 0.0}, {"lat": 38.91485516666667, "fusion_lat": 0.0, "type": "electric_scooter", "bike_id": "07288488fe31acfa126fc32bfd11a1d4", "is_reserved": 0, "rental_uris": {"ios": "https://dc.lft.to/lastmile_qr_scan", "android": "https://dc.lft.to/lastmile_qr_scan"}, "is_disabled": 0, "lon": -76.985822, "name": "07288488fe31acfa126fc32bfd11a1d4", "fusion_lon": 0.0}, {"lat": 38.90788633333333, "fusion_lat": 0.0, "type": "electric_scooter", "bike_id": "dfc3d069b135bbd85b4c9dc843de9b79", "is_reserved": 0, "rental_uris": {"ios": "https://dc.lft.to/lastmile_qr_scan", "android": "https://dc.lft.to/lastmile_qr_scan"}, "is_disabled": 0, "lon": -77.038269, "name": "dfc3d069b135bbd85b4c9dc843de9b79", "fusion_lon": 0.0}, {"lat": 38.90827483333333, "fusion_lat": 0.0, "type": "electric_scooter", "bike_id": "6026908801eb1d1f0b46ad45d8bdd8c2", "is_reserved": 0, "rental_uris": {"ios": "https://dc.lft.to/lastmile_qr_scan", "android": "https://dc.lft.to/lastmile_qr_scan"}, "is_disabled": 0, "lon": -77.00212416666666, "name": "6026908801eb1d1f0b46ad45d8bdd8c2", "fusion_lon": 0.0}, {"lat": 38.9022325, "fusion_lat": 0.0, "type": "electric_scooter", "bike_id": "50e1fb6ae8fe473966f9552863aed8c3", "is_reserved": 0, "rental_uris": {"ios": "https://dc.lft.to/lastmile_qr_scan", "android": "https://dc.lft.to/lastmile_qr_scan"}, "is_disabled": 0, "lon": -77.02382566666667, "name": "50e1fb6ae8fe473966f9552863aed8c3", "fusion_lon": 0.0}, {"lat": 38.951507, "fusion_lat": 0.0, "type": "electric_scooter", "bike_id": "86c6546af9e8b8529770179318ba5d28", "is_reserved": 0, "rental_uris": {"ios": "https://dc.lft.to/lastmile_qr_scan", "android": "https://dc.lft.to/lastmile_qr_scan"}, "is_disabled": 0, "lon": -77.018676, "name": "86c6546af9e8b8529770179318ba5d28", "fusion_lon": 0.0}, {"lat": 38.901095833333336, "fusion_lat": 0.0, "type": "electric_scooter", "bike_id": "2f545c24f04d4821f4f07602c73a32c0", "is_reserved": 0, "rental_uris": {"ios": "https://dc.lft.to/lastmile_qr_scan", "android": "https://dc.lft.to/lastmile_qr_scan"}, "is_disabled": 0, "lon": -77.01873416666666, "name": "2f545c24f04d4821f4f07602c73a32c0", "fusion_lon": 0.0}, {"lat": 38.921745, "fusion_lat": 0.0, "type": "electric_scooter", "bike_id": "a082d5c4fcbd7e0e3aaca6f4e663e173", "is_reserved": 0, "rental_uris": {"ios": "https://dc.lft.to/lastmile_qr_scan", "android": "https://dc.lft.to/lastmile_qr_scan"}, "is_disabled": 0, "lon": -77.0435105, "name": "a082d5c4fcbd7e0e3aaca6f4e663e173", "fusion_lon": 0.0}, {"lat": 38.893236333333334, "fusion_lat": 0.0, "type": "electric_scooter", "bike_id": "62a196f2103388c22fe9567b0ddca0c6", "is_reserved": 0, "rental_uris": {"ios": "https://dc.lft.to/lastmile_qr_scan", "android": "https://dc.lft.to/lastmile_qr_scan"}, "is_disabled": 0, "lon": -77.04875766666666, "name": "62a196f2103388c22fe9567b0ddca0c6", "fusion_lon": 0.0}, {"lat": 38.87415216666667, "fusion_lat": 0.0, "type": "electric_scooter", "bike_id": "8620c23af8b15b0533678e3b4dbe8df5", "is_reserved": 0, "rental_uris": {"ios": "https://dc.lft.to/lastmile_qr_scan", "android": "https://dc.lft.to/lastmile_qr_scan"}, "is_disabled": 0, "lon": -76.97115883333333, "name": "8620c23af8b15b0533678e3b4dbe8df5", "fusion_lon": 0.0}, {"lat": 38.902124, "fusion_lat": 0.0, "type": "electric_scooter", "bike_id": "1a5d4cdb8b6beeccdebd0ed5ee8a9604", "is_reserved": 0, "rental_uris": {"ios": "https://dc.lft.to/lastmile_qr_scan", "android": "https://dc.lft.to/lastmile_qr_scan"}, "is_disabled": 0, "lon": -77.023768, "name": "1a5d4cdb8b6beeccdebd0ed5ee8a9604", "fusion_lon": 0.0}, {"lat": 38.923829, "fusion_lat": 0.0, "type": "electric_scooter", "bike_id": "c2c2608b40a57b49242bee0ce101c95c", "is_reserved": 0, "rental_uris": {"ios": "https://dc.lft.to/lastmile_qr_scan", "android": "https://dc.lft.to/lastmile_qr_scan"}, "is_disabled": 0, "lon": -77.030604, "name": "c2c2608b40a57b49242bee0ce101c95c", "fusion_lon": 0.0}, {"lat": 38.91637516666667, "fusion_lat": 0.0, "type": "electric_scooter", "bike_id": "0d6e43a86960d5a48eb6fbbda0f563cd", "is_reserved": 0, "rental_uris": {"ios": "https://dc.lft.to/lastmile_qr_scan", "android": "https://dc.lft.to/lastmile_qr_scan"}, "is_disabled": 0, "lon": -77.042439, "name": "0d6e43a86960d5a48eb6fbbda0f563cd", "fusion_lon": 0.0}, {"lat": 38.8552195, "fusion_lat": 0.0, "type": "electric_bike", "bike_id": "35fb0510b6bda3e57034a09f891b00fc", "is_reserved": 0, "rental_uris": {"ios": "https://dc.lft.to/lastmile_qr_scan", "android": "https://dc.lft.to/lastmile_qr_scan"}, "is_disabled": 0, "lon": -77.1201685, "name": "35fb0510b6bda3e57034a09f891b00fc", "fusion_lon": 0.0}, {"lat": 38.908644833333334, "fusion_lat": 0.0, "type": "electric_scooter", "bike_id": "695dece2598b2538fc195909496b8c92", "is_reserved": 0, "rental_uris": {"ios": "https://dc.lft.to/lastmile_qr_scan", "android": "https://dc.lft.to/lastmile_qr_scan"}, "is_disabled": 0, "lon": -77.02417316666667, "name": "695dece2598b2538fc195909496b8c92", "fusion_lon": 0.0}, {"lat": 38.88612766666667, "fusion_lat": 0.0, "type": "electric_scooter", "bike_id": "66bb693d1c7d8b204c6b50b66872ed3c", "is_reserved": 0, "rental_uris": {"ios": "https://dc.lft.to/lastmile_qr_scan", "android": "https://dc.lft.to/lastmile_qr_scan"}, "is_disabled": 0, "lon": -76.9951045, "name": "66bb693d1c7d8b204c6b50b66872ed3c", "fusion_lon": 0.0}, {"lat": 38.9237025, "fusion_lat": 0.0, "type": "electric_scooter", "bike_id": "0163a9b96d6334e62161084465606192", "is_reserved": 0, "rental_uris": {"ios": "https://dc.lft.to/lastmile_qr_scan", "android": "https://dc.lft.to/lastmile_qr_scan"}, "is_disabled": 0, "lon": -77.04104966666667, "name": "0163a9b96d6334e62161084465606192", "fusion_lon": 0.0}, {"lat": 38.92871366666667, "fusion_lat": 0.0, "type": "electric_scooter", "bike_id": "fdd073585357e248fd6171cd4988278e", "is_reserved": 0, "rental_uris": {"ios": "https://dc.lft.to/lastmile_qr_scan", "android": "https://dc.lft.to/lastmile_qr_scan"}, "is_disabled": 0, "lon": -77.027277, "name": "fdd073585357e248fd6171cd4988278e", "fusion_lon": 0.0}, {"lat": 38.92851983333333, "fusion_lat": 0.0, "type": "electric_scooter", "bike_id": "c7a0cb507dd2682f482c997639cf95c3", "is_reserved": 0, "rental_uris": {"ios": "https://dc.lft.to/lastmile_qr_scan", "android": "https://dc.lft.to/lastmile_qr_scan"}, "is_disabled": 0, "lon": -77.033003, "name": "c7a0cb507dd2682f482c997639cf95c3", "fusion_lon": 0.0}, {"lat": 38.9126415, "fusion_lat": 0.0, "type": "electric_scooter", "bike_id": "009630d85e1d15712e7dfe68c1ab87ff", "is_reserved": 0, "rental_uris": {"ios": "https://dc.lft.to/lastmile_qr_scan", "android": "https://dc.lft.to/lastmile_qr_scan"}, "is_disabled": 0, "lon": -77.04555083333334, "name": "009630d85e1d15712e7dfe68c1ab87ff", "fusion_lon": 0.0}, {"lat": 38.91758216666667, "fusion_lat": 0.0, "type": "electric_scooter", "bike_id": "9bb74dee8d7aa19bee1f0a0ea537fe09", "is_reserved": 0, "rental_uris": {"ios": "https://dc.lft.to/lastmile_qr_scan", "android": "https://dc.lft.to/lastmile_qr_scan"}, "is_disabled": 0, "lon": -77.0160835, "name": "9bb74dee8d7aa19bee1f0a0ea537fe09", "fusion_lon": 0.0}, {"lat": 38.99329, "fusion_lat": 0.0, "type": "electric_bike", "bike_id": "7c31e1f36d02c5f231d967d384f497cd", "is_reserved": 0, "rental_uris": {"ios": "https://dc.lft.to/lastmile_qr_scan", "android": "https://dc.lft.to/lastmile_qr_scan"}, "is_disabled": 0, "lon": -76.94612716666667, "name": "7c31e1f36d02c5f231d967d384f497cd", "fusion_lon": 0.0}, {"lat": 38.88347366666667, "fusion_lat": 0.0, "type": "electric_scooter", "bike_id": "c03f10ec344773db7930a38077a43d32", "is_reserved": 0, "rental_uris": {"ios": "https://dc.lft.to/lastmile_qr_scan", "android": "https://dc.lft.to/lastmile_qr_scan"}, "is_disabled": 0, "lon": -77.017465, "name": "c03f10ec344773db7930a38077a43d32", "fusion_lon": 0.0}, {"lat": 38.902914333333335, "fusion_lat": 0.0, "type": "electric_scooter", "bike_id": "0c7c0854b8a28e78deb339af18f471fe", "is_reserved": 0, "rental_uris": {"ios": "https://dc.lft.to/lastmile_qr_scan", "android": "https://dc.lft.to/lastmile_qr_scan"}, "is_disabled": 0, "lon": -77.04880033333333, "name": "0c7c0854b8a28e78deb339af18f471fe", "fusion_lon": 0.0}, {"lat": 38.912021333333335, "fusion_lat": 0.0, "type": "electric_scooter", "bike_id": "d2ab9748bcb56d797bfd5479c414ac03", "is_reserved": 0, "rental_uris": {"ios": "https://dc.lft.to/lastmile_qr_scan", "android": "https://dc.lft.to/lastmile_qr_scan"}, "is_disabled": 0, "lon": -77.007173, "name": "d2ab9748bcb56d797bfd5479c414ac03", "fusion_lon": 0.0}, {"lat": 38.89995533333333, "fusion_lat": 0.0, "type": "electric_scooter", "bike_id": "d2ff2dc839e48cd0cccf7bf9101c173d", "is_reserved": 0, "rental_uris": {"ios": "https://dc.lft.to/lastmile_qr_scan", "android": "https://dc.lft.to/lastmile_qr_scan"}, "is_disabled": 0, "lon": -77.02614083333333, "name": "d2ff2dc839e48cd0cccf7bf9101c173d", "fusion_lon": 0.0}, {"lat": 38.935426666666665, "fusion_lat": 0.0, "type": "electric_scooter", "bike_id": "e48d2fa3f6a5850069f633b9cc68c109", "is_reserved": 0, "rental_uris": {"ios": "https://dc.lft.to/lastmile_qr_scan", "android": "https://dc.lft.to/lastmile_qr_scan"}, "is_disabled": 0, "lon": -77.0586785, "name": "e48d2fa3f6a5850069f633b9cc68c109", "fusion_lon": 0.0}, {"lat": 38.91693633333333, "fusion_lat": 0.0, "type": "electric_scooter", "bike_id": "653a9de34a6e14f4fffff6cf6d1100c7", "is_reserved": 0, "rental_uris": {"ios": "https://dc.lft.to/lastmile_qr_scan", "android": "https://dc.lft.to/lastmile_qr_scan"}, "is_disabled": 0, "lon": -77.031554, "name": "653a9de34a6e14f4fffff6cf6d1100c7", "fusion_lon": 0.0}, {"lat": 38.9231845, "fusion_lat": 0.0, "type": "electric_scooter", "bike_id": "3dbd2a6498842986bc4a58939d0730ba", "is_reserved": 0, "rental_uris": {"ios": "https://dc.lft.to/lastmile_qr_scan", "android": "https://dc.lft.to/lastmile_qr_scan"}, "is_disabled": 0, "lon": -77.04108383333333, "name": "3dbd2a6498842986bc4a58939d0730ba", "fusion_lon": 0.0}, {"lat": 38.91265083333333, "fusion_lat": 0.0, "type": "electric_scooter", "bike_id": "14220d5193d3e341ba1d406e86adacfd", "is_reserved": 0, "rental_uris": {"ios": "https://dc.lft.to/lastmile_qr_scan", "android": "https://dc.lft.to/lastmile_qr_scan"}, "is_disabled": 0, "lon": -77.016946, "name": "14220d5193d3e341ba1d406e86adacfd", "fusion_lon": 0.0}, {"lat": 38.9695815, "fusion_lat": 0.0, "type": "electric_bike", "bike_id": "e888b94582de395e32dd7f215eb10c7f", "is_reserved": 0, "rental_uris": {"ios": "https://dc.lft.to/lastmile_qr_scan", "android": "https://dc.lft.to/lastmile_qr_scan"}, "is_disabled": 0, "lon": -76.95750916666667, "name": "e888b94582de395e32dd7f215eb10c7f", "fusion_lon": 0.0}, {"lat": 38.89560433333333, "fusion_lat": 0.0, "type": "electric_scooter", "bike_id": "5e1e033a56b721e2b1374e7070531c83", "is_reserved": 0, "rental_uris": {"ios": "https://dc.lft.to/lastmile_qr_scan", "android": "https://dc.lft.to/lastmile_qr_scan"}, "is_disabled": 0, "lon": -77.0467855, "name": "5e1e033a56b721e2b1374e7070531c83", "fusion_lon": 0.0}, {"lat": 38.92027266666667, "fusion_lat": 0.0, "type": "electric_scooter", "bike_id": "f49f743b3337d3f886ec8ceec0ade6b2", "is_reserved": 0, "rental_uris": {"ios": "https://dc.lft.to/lastmile_qr_scan", "android": "https://dc.lft.to/lastmile_qr_scan"}, "is_disabled": 0, "lon": -77.01864516666667, "name": "f49f743b3337d3f886ec8ceec0ade6b2", "fusion_lon": 0.0}, {"lat": 38.930825, "fusion_lat": 0.0, "type": "electric_scooter", "bike_id": "577fc6398b837431dd4b556fba8f45c5", "is_reserved": 0, "rental_uris": {"ios": "https://dc.lft.to/lastmile_qr_scan", "android": "https://dc.lft.to/lastmile_qr_scan"}, "is_disabled": 0, "lon": -76.9961435, "name": "577fc6398b837431dd4b556fba8f45c5", "fusion_lon": 0.0}, {"lat": 38.864746, "fusion_lat": 0.0, "type": "electric_scooter", "bike_id": "76318d9a2db22e1254f0d13e76c44268", "is_reserved": 0, "rental_uris": {"ios": "https://dc.lft.to/lastmile_qr_scan", "android": "https://dc.lft.to/lastmile_qr_scan"}, "is_disabled": 0, "lon": -76.9773955, "name": "76318d9a2db22e1254f0d13e76c44268", "fusion_lon": 0.0}, {"lat": 38.8935685, "fusion_lat": 0.0, "type": "electric_scooter", "bike_id": "e2c554c1a30b34c7e098a6e647ebf1c4", "is_reserved": 0, "rental_uris": {"ios": "https://dc.lft.to/lastmile_qr_scan", "android": "https://dc.lft.to/lastmile_qr_scan"}, "is_disabled": 0, "lon": -76.94936233333334, "name": "e2c554c1a30b34c7e098a6e647ebf1c4", "fusion_lon": 0.0}, {"lat": 38.92409966666666, "fusion_lat": 0.0, "type": "electric_scooter", "bike_id": "c192540113e74fcf79711083cbd3c743", "is_reserved": 0, "rental_uris": {"ios": "https://dc.lft.to/lastmile_qr_scan", "android": "https://dc.lft.to/lastmile_qr_scan"}, "is_disabled": 0, "lon": -77.0200735, "name": "c192540113e74fcf79711083cbd3c743", "fusion_lon": 0.0}, {"lat": 38.9168495, "fusion_lat": 0.0, "type": "electric_scooter", "bike_id": "b7b0c54508f898e529cf7caa8740adc5", "is_reserved": 0, "rental_uris": {"ios": "https://dc.lft.to/lastmile_qr_scan", "android": "https://dc.lft.to/lastmile_qr_scan"}, "is_disabled": 0, "lon": -77.02698333333333, "name": "b7b0c54508f898e529cf7caa8740adc5", "fusion_lon": 0.0}, {"lat": 38.91570016666667, "fusion_lat": 0.0, "type": "electric_scooter", "bike_id": "1e662002610c028bf012632dd11fcf2f", "is_reserved": 0, "rental_uris": {"ios": "https://dc.lft.to/lastmile_qr_scan", "android": "https://dc.lft.to/lastmile_qr_scan"}, "is_disabled": 0, "lon": -77.04496333333333, "name": "1e662002610c028bf012632dd11fcf2f", "fusion_lon": 0.0}, {"lat": 38.9212195, "fusion_lat": 0.0, "type": "electric_scooter", "bike_id": "9b96c55221bfed48e8a07c30461f2270", "is_reserved": 0, "rental_uris": {"ios": "https://dc.lft.to/lastmile_qr_scan", "android": "https://dc.lft.to/lastmile_qr_scan"}, "is_disabled": 0, "lon": -77.012125, "name": "9b96c55221bfed48e8a07c30461f2270", "fusion_lon": 0.0}, {"lat": 38.906559333333334, "fusion_lat": 0.0, "type": "electric_scooter", "bike_id": "c430162c654e4d62a42d30088002345c", "is_reserved": 0, "rental_uris": {"ios": "https://dc.lft.to/lastmile_qr_scan", "android": "https://dc.lft.to/lastmile_qr_scan"}, "is_disabled": 0, "lon": -77.04886283333333, "name": "c430162c654e4d62a42d30088002345c", "fusion_lon": 0.0}, {"lat": 38.9205555, "fusion_lat": 0.0, "type": "electric_scooter", "bike_id": "5578549f88dcd28e53c40b1277858b32", "is_reserved": 0, "rental_uris": {"ios": "https://dc.lft.to/lastmile_qr_scan", "android": "https://dc.lft.to/lastmile_qr_scan"}, "is_disabled": 0, "lon": -77.02401166666667, "name": "5578549f88dcd28e53c40b1277858b32", "fusion_lon": 0.0}, {"lat": 38.90368983333333, "fusion_lat": 0.0, "type": "electric_scooter", "bike_id": "101a28f0deb560e8fe0d82e87839c3fa", "is_reserved": 0, "rental_uris": {"ios": "https://dc.lft.to/lastmile_qr_scan", "android": "https://dc.lft.to/lastmile_qr_scan"}, "is_disabled": 0, "lon": -77.040903, "name": "101a28f0deb560e8fe0d82e87839c3fa", "fusion_lon": 0.0}, {"lat": 38.9287635, "fusion_lat": 0.0, "type": "electric_scooter", "bike_id": "01550a2c48d104be9e0ff61bf84d8267", "is_reserved": 0, "rental_uris": {"ios": "https://dc.lft.to/lastmile_qr_scan", "android": "https://dc.lft.to/lastmile_qr_scan"}, "is_disabled": 0, "lon": -77.01233633333334, "name": "01550a2c48d104be9e0ff61bf84d8267", "fusion_lon": 0.0}, {"lat": 38.90270533333333, "fusion_lat": 0.0, "type": "electric_scooter", "bike_id": "1aee9f3fc6834679116008b6c9ec9790", "is_reserved": 0, "rental_uris": {"ios": "https://dc.lft.to/lastmile_qr_scan", "android": "https://dc.lft.to/lastmile_qr_scan"}, "is_disabled": 0, "lon": -77.0340155, "name": "1aee9f3fc6834679116008b6c9ec9790", "fusion_lon": 0.0}, {"lat": 38.909738, "fusion_lat": 0.0, "type": "electric_scooter", "bike_id": "df71cf209b2c5f3d85d41feeb171c14e", "is_reserved": 0, "rental_uris": {"ios": "https://dc.lft.to/lastmile_qr_scan", "android": "https://dc.lft.to/lastmile_qr_scan"}, "is_disabled": 0, "lon": -77.03327633333333, "name": "df71cf209b2c5f3d85d41feeb171c14e", "fusion_lon": 0.0}, {"lat": 39.014815, "fusion_lat": 0.0, "type": "electric_bike", "bike_id": "52bb2485b21d6e756bd38feb8cd274af", "is_reserved": 0, "rental_uris": {"ios": "https://dc.lft.to/lastmile_qr_scan", "android": "https://dc.lft.to/lastmile_qr_scan"}, "is_disabled": 0, "lon": -77.05494833333333, "name": "52bb2485b21d6e756bd38feb8cd274af", "fusion_lon": 0.0}, {"lat": 38.929392666666665, "fusion_lat": 0.0, "type": "electric_scooter", "bike_id": "8f5e74ad499868d120a96e2b200241bd", "is_reserved": 0, "rental_uris": {"ios": "https://dc.lft.to/lastmile_qr_scan", "android": "https://dc.lft.to/lastmile_qr_scan"}, "is_disabled": 0, "lon": -77.03286966666667, "name": "8f5e74ad499868d120a96e2b200241bd", "fusion_lon": 0.0}, {"lat": 38.8889005, "fusion_lat": 0.0, "type": "electric_scooter", "bike_id": "c44c8f3db907dffa67c2bf1c6a1e98d6", "is_reserved": 0, "rental_uris": {"ios": "https://dc.lft.to/lastmile_qr_scan", "android": "https://dc.lft.to/lastmile_qr_scan"}, "is_disabled": 0, "lon": -76.9477995, "name": "c44c8f3db907dffa67c2bf1c6a1e98d6", "fusion_lon": 0.0}, {"lat": 38.8887395, "fusion_lat": 0.0, "type": "electric_scooter", "bike_id": "82b526330c115ddc36af1f1d550f91f0", "is_reserved": 0, "rental_uris": {"ios": "https://dc.lft.to/lastmile_qr_scan", "android": "https://dc.lft.to/lastmile_qr_scan"}, "is_disabled": 0, "lon": -77.0285625, "name": "82b526330c115ddc36af1f1d550f91f0", "fusion_lon": 0.0}, {"lat": 38.924145, "fusion_lat": 0.0, "type": "electric_scooter", "bike_id": "160295e4cf96935b0c4f3294870fd482", "is_reserved": 0, "rental_uris": {"ios": "https://dc.lft.to/lastmile_qr_scan", "android": "https://dc.lft.to/lastmile_qr_scan"}, "is_disabled": 0, "lon": -77.050641, "name": "160295e4cf96935b0c4f3294870fd482", "fusion_lon": 0.0}, {"lat": 38.900272666666666, "fusion_lat": 0.0, "type": "electric_scooter", "bike_id": "7fb8f4db4ebd06314e08b134d9021acb", "is_reserved": 0, "rental_uris": {"ios": "https://dc.lft.to/lastmile_qr_scan", "android": "https://dc.lft.to/lastmile_qr_scan"}, "is_disabled": 0, "lon": -77.00202933333334, "name": "7fb8f4db4ebd06314e08b134d9021acb", "fusion_lon": 0.0}, {"lat": 38.890598, "fusion_lat": 0.0, "type": "electric_bike", "bike_id": "3a2f40d5e2531f6763b1dc966e4e9b0c", "is_reserved": 0, "rental_uris": {"ios": "https://dc.lft.to/lastmile_qr_scan", "android": "https://dc.lft.to/lastmile_qr_scan"}, "is_disabled": 0, "lon": -77.0230455, "name": "3a2f40d5e2531f6763b1dc966e4e9b0c", "fusion_lon": 0.0}, {"lat": 38.906262166666664, "fusion_lat": 0.0, "type": "electric_scooter", "bike_id": "c635e14658126b4daeb0379ac9f9a8ae", "is_reserved": 0, "rental_uris": {"ios": "https://dc.lft.to/lastmile_qr_scan", "android": "https://dc.lft.to/lastmile_qr_scan"}, "is_disabled": 0, "lon": -77.04657166666667, "name": "c635e14658126b4daeb0379ac9f9a8ae", "fusion_lon": 0.0}, {"lat": 38.87207883333333, "fusion_lat": 0.0, "type": "electric_scooter", "bike_id": "0197e11dd5798eef298f4a5f930bcd25", "is_reserved": 0, "rental_uris": {"ios": "https://dc.lft.to/lastmile_qr_scan", "android": "https://dc.lft.to/lastmile_qr_scan"}, "is_disabled": 0, "lon": -77.0096885, "name": "0197e11dd5798eef298f4a5f930bcd25", "fusion_lon": 0.0}, {"lat": 38.930999, "fusion_lat": 0.0, "type": "electric_scooter", "bike_id": "cae7f858bf5cd7537e139d2893ce6414", "is_reserved": 0, "rental_uris": {"ios": "https://dc.lft.to/lastmile_qr_scan", "android": "https://dc.lft.to/lastmile_qr_scan"}, "is_disabled": 0, "lon": -77.02476083333333, "name": "cae7f858bf5cd7537e139d2893ce6414", "fusion_lon": 0.0}, {"lat": 38.90089716666667, "fusion_lat": 0.0, "type": "electric_scooter", "bike_id": "b8fda42cebc78daf58f6c86f67cc8cee", "is_reserved": 0, "rental_uris": {"ios": "https://dc.lft.to/lastmile_qr_scan", "android": "https://dc.lft.to/lastmile_qr_scan"}, "is_disabled": 0, "lon": -76.983339, "name": "b8fda42cebc78daf58f6c86f67cc8cee", "fusion_lon": 0.0}, {"lat": 38.942631, "fusion_lat": 0.0, "type": "electric_bike", "bike_id": "48e684569aa25e84f5879474320f2c39", "is_reserved": 0, "rental_uris": {"ios": "https://dc.lft.to/lastmile_qr_scan", "android": "https://dc.lft.to/lastmile_qr_scan"}, "is_disabled": 0, "lon": -77.02839, "name": "48e684569aa25e84f5879474320f2c39", "fusion_lon": 0.0}, {"lat": 38.884846, "fusion_lat": 0.0, "type": "electric_scooter", "bike_id": "bd912bd15c4b59df961f4c75d3036178", "is_reserved": 0, "rental_uris": {"ios": "https://dc.lft.to/lastmile_qr_scan", "android": "https://dc.lft.to/lastmile_qr_scan"}, "is_disabled": 0, "lon": -77.00921333333334, "name": "bd912bd15c4b59df961f4c75d3036178", "fusion_lon": 0.0}, {"lat": 38.89308533333333, "fusion_lat": 0.0, "type": "electric_scooter", "bike_id": "1151018e248c518bf22cb8786fee8400", "is_reserved": 0, "rental_uris": {"ios": "https://dc.lft.to/lastmile_qr_scan", "android": "https://dc.lft.to/lastmile_qr_scan"}, "is_disabled": 0, "lon": -77.017959, "name": "1151018e248c518bf22cb8786fee8400", "fusion_lon": 0.0}, {"lat": 38.91030766666667, "fusion_lat": 0.0, "type": "electric_scooter", "bike_id": "9ecc277e342346800953c21604753c93", "is_reserved": 0, "rental_uris": {"ios": "https://dc.lft.to/lastmile_qr_scan", "android": "https://dc.lft.to/lastmile_qr_scan"}, "is_disabled": 0, "lon": -77.0075895, "name": "9ecc277e342346800953c21604753c93", "fusion_lon": 0.0}, {"lat": 38.97676116666667, "fusion_lat": 0.0, "type": "electric_scooter", "bike_id": "dc2873027ae8b4768f933c19bddc1906", "is_reserved": 0, "rental_uris": {"ios": "https://dc.lft.to/lastmile_qr_scan", "android": "https://dc.lft.to/lastmile_qr_scan"}, "is_disabled": 0, "lon": -77.0165605, "name": "dc2873027ae8b4768f933c19bddc1906", "fusion_lon": 0.0}, {"lat": 38.93226216666667, "fusion_lat": 0.0, "type": "electric_scooter", "bike_id": "f98ecce7fefb3a4d4ecf2499f8cb9b03", "is_reserved": 0, "rental_uris": {"ios": "https://dc.lft.to/lastmile_qr_scan", "android": "https://dc.lft.to/lastmile_qr_scan"}, "is_disabled": 0, "lon": -77.03869683333333, "name": "f98ecce7fefb3a4d4ecf2499f8cb9b03", "fusion_lon": 0.0}, {"lat": 38.796086833333334, "fusion_lat": 0.0, "type": "electric_bike", "bike_id": "94bc2b216bcb68edffe14a9a815b766f", "is_reserved": 0, "rental_uris": {"ios": "https://dc.lft.to/lastmile_qr_scan", "android": "https://dc.lft.to/lastmile_qr_scan"}, "is_disabled": 0, "lon": -76.9974055, "name": "94bc2b216bcb68edffe14a9a815b766f", "fusion_lon": 0.0}, {"lat": 38.931314, "fusion_lat": 0.0, "type": "electric_scooter", "bike_id": "e64fd83414277069b346eb738b6666eb", "is_reserved": 0, "rental_uris": {"ios": "https://dc.lft.to/lastmile_qr_scan", "android": "https://dc.lft.to/lastmile_qr_scan"}, "is_disabled": 0, "lon": -77.03313516666667, "name": "e64fd83414277069b346eb738b6666eb", "fusion_lon": 0.0}, {"lat": 38.902749, "fusion_lat": 0.0, "type": "electric_scooter", "bike_id": "1a7c87e36031e3f08b0ea922896942c3", "is_reserved": 0, "rental_uris": {"ios": "https://dc.lft.to/lastmile_qr_scan", "android": "https://dc.lft.to/lastmile_qr_scan"}, "is_disabled": 0, "lon": -77.03970616666666, "name": "1a7c87e36031e3f08b0ea922896942c3", "fusion_lon": 0.0}, {"lat": 38.90151, "fusion_lat": 0.0, "type": "electric_scooter", "bike_id": "3646756f5509dfcf4235c7da5daa73d2", "is_reserved": 0, "rental_uris": {"ios": "https://dc.lft.to/lastmile_qr_scan", "android": "https://dc.lft.to/lastmile_qr_scan"}, "is_disabled": 0, "lon": -76.92138333333334, "name": "3646756f5509dfcf4235c7da5daa73d2", "fusion_lon": 0.0}, {"lat": 38.8472945, "fusion_lat": 0.0, "type": "electric_bike", "bike_id": "5657f2a5c1bfa878c459bba5f2935b6e", "is_reserved": 0, "rental_uris": {"ios": "https://dc.lft.to/lastmile_qr_scan", "android": "https://dc.lft.to/lastmile_qr_scan"}, "is_disabled": 0, "lon": -77.119882, "name": "5657f2a5c1bfa878c459bba5f2935b6e", "fusion_lon": 0.0}, {"lat": 38.862428333333334, "fusion_lat": 0.0, "type": "electric_scooter", "bike_id": "19ba0cf07e9e4a9d3d158ce599d1fca7", "is_reserved": 0, "rental_uris": {"ios": "https://dc.lft.to/lastmile_qr_scan", "android": "https://dc.lft.to/lastmile_qr_scan"}, "is_disabled": 0, "lon": -76.99493633333333, "name": "19ba0cf07e9e4a9d3d158ce599d1fca7", "fusion_lon": 0.0}, {"lat": 38.90075483333333, "fusion_lat": 0.0, "type": "electric_scooter", "bike_id": "ad929a4b1c935c2ce41f04e41c6cb36c", "is_reserved": 0, "rental_uris": {"ios": "https://dc.lft.to/lastmile_qr_scan", "android": "https://dc.lft.to/lastmile_qr_scan"}, "is_disabled": 0, "lon": -77.04335966666666, "name": "ad929a4b1c935c2ce41f04e41c6cb36c", "fusion_lon": 0.0}, {"lat": 38.89975533333333, "fusion_lat": 0.0, "type": "electric_scooter", "bike_id": "472d84d55f6168af41e9f69cccea9e16", "is_reserved": 0, "rental_uris": {"ios": "https://dc.lft.to/lastmile_qr_scan", "android": "https://dc.lft.to/lastmile_qr_scan"}, "is_disabled": 0, "lon": -77.00674066666667, "name": "472d84d55f6168af41e9f69cccea9e16", "fusion_lon": 0.0}, {"lat": 38.92338266666667, "fusion_lat": 0.0, "type": "electric_scooter", "bike_id": "e7a6d273d6d2706cdddd9f08ac252c5a", "is_reserved": 0, "rental_uris": {"ios": "https://dc.lft.to/lastmile_qr_scan", "android": "https://dc.lft.to/lastmile_qr_scan"}, "is_disabled": 0, "lon": -77.05248166666667, "name": "e7a6d273d6d2706cdddd9f08ac252c5a", "fusion_lon": 0.0}, {"lat": 38.92475966666667, "fusion_lat": 0.0, "type": "electric_scooter", "bike_id": "adbbd9f714981214ccffc7a186e239f9", "is_reserved": 0, "rental_uris": {"ios": "https://dc.lft.to/lastmile_qr_scan", "android": "https://dc.lft.to/lastmile_qr_scan"}, "is_disabled": 0, "lon": -77.02150183333333, "name": "adbbd9f714981214ccffc7a186e239f9", "fusion_lon": 0.0}, {"lat": 38.87626783333333, "fusion_lat": 0.0, "type": "electric_scooter", "bike_id": "6e06aa354d166a15941d00347e082913", "is_reserved": 0, "rental_uris": {"ios": "https://dc.lft.to/lastmile_qr_scan", "android": "https://dc.lft.to/lastmile_qr_scan"}, "is_disabled": 0, "lon": -77.014486, "name": "6e06aa354d166a15941d00347e082913", "fusion_lon": 0.0}, {"lat": 38.89224866666667, "fusion_lat": 0.0, "type": "electric_scooter", "bike_id": "a3e0acafa14b1ad17fb3bff92cc74786", "is_reserved": 0, "rental_uris": {"ios": "https://dc.lft.to/lastmile_qr_scan", "android": "https://dc.lft.to/lastmile_qr_scan"}, "is_disabled": 0, "lon": -77.01284283333334, "name": "a3e0acafa14b1ad17fb3bff92cc74786", "fusion_lon": 0.0}, {"lat": 38.90340616666667, "fusion_lat": 0.0, "type": "electric_scooter", "bike_id": "18f15add6e0541ddac7f474e9c04d544", "is_reserved": 0, "rental_uris": {"ios": "https://dc.lft.to/lastmile_qr_scan", "android": "https://dc.lft.to/lastmile_qr_scan"}, "is_disabled": 0, "lon": -76.97585116666667, "name": "18f15add6e0541ddac7f474e9c04d544", "fusion_lon": 0.0}, {"lat": 38.899063, "fusion_lat": 0.0, "type": "electric_scooter", "bike_id": "b5476fcfc8683c794bcf19680d0c30ce", "is_reserved": 0, "rental_uris": {"ios": "https://dc.lft.to/lastmile_qr_scan", "android": "https://dc.lft.to/lastmile_qr_scan"}, "is_disabled": 0, "lon": -76.933791, "name": "b5476fcfc8683c794bcf19680d0c30ce", "fusion_lon": 0.0}, {"lat": 38.93061983333333, "fusion_lat": 0.0, "type": "electric_scooter", "bike_id": "aea41ce6ba8bc41bb2cf9e892ce4a33d", "is_reserved": 0, "rental_uris": {"ios": "https://dc.lft.to/lastmile_qr_scan", "android": "https://dc.lft.to/lastmile_qr_scan"}, "is_disabled": 0, "lon": -77.03818933333334, "name": "aea41ce6ba8bc41bb2cf9e892ce4a33d", "fusion_lon": 0.0}, {"lat": 38.90245216666667, "fusion_lat": 0.0, "type": "electric_scooter", "bike_id": "8077e702f65d9435c6bd99700a882355", "is_reserved": 0, "rental_uris": {"ios": "https://dc.lft.to/lastmile_qr_scan", "android": "https://dc.lft.to/lastmile_qr_scan"}, "is_disabled": 0, "lon": -77.02815466666667, "name": "8077e702f65d9435c6bd99700a882355", "fusion_lon": 0.0}, {"lat": 38.909432, "fusion_lat": 0.0, "type": "electric_scooter", "bike_id": "bd78778e7d5b16a03489fac7bd0f2e14", "is_reserved": 0, "rental_uris": {"ios": "https://dc.lft.to/lastmile_qr_scan", "android": "https://dc.lft.to/lastmile_qr_scan"}, "is_disabled": 0, "lon": -77.03193183333333, "name": "bd78778e7d5b16a03489fac7bd0f2e14", "fusion_lon": 0.0}, {"lat": 38.90388766666667, "fusion_lat": 0.0, "type": "electric_scooter", "bike_id": "720222dcef7ad6424f9cfdf74d1d54ca", "is_reserved": 0, "rental_uris": {"ios": "https://dc.lft.to/lastmile_qr_scan", "android": "https://dc.lft.to/lastmile_qr_scan"}, "is_disabled": 0, "lon": -77.04494216666667, "name": "720222dcef7ad6424f9cfdf74d1d54ca", "fusion_lon": 0.0}, {"lat": 38.90793033333333, "fusion_lat": 0.0, "type": "electric_scooter", "bike_id": "b890c6a8a82a9a20aa951c6ac1c5e43e", "is_reserved": 0, "rental_uris": {"ios": "https://dc.lft.to/lastmile_qr_scan", "android": "https://dc.lft.to/lastmile_qr_scan"}, "is_disabled": 0, "lon": -77.01113633333334, "name": "b890c6a8a82a9a20aa951c6ac1c5e43e", "fusion_lon": 0.0}, {"lat": 38.93385716666667, "fusion_lat": 0.0, "type": "electric_scooter", "bike_id": "e82ba52a69723559b659d4cc11b351bc", "is_reserved": 0, "rental_uris": {"ios": "https://dc.lft.to/lastmile_qr_scan", "android": "https://dc.lft.to/lastmile_qr_scan"}, "is_disabled": 0, "lon": -77.0309835, "name": "e82ba52a69723559b659d4cc11b351bc", "fusion_lon": 0.0}, {"lat": 38.903804666666666, "fusion_lat": 0.0, "type": "electric_scooter", "bike_id": "e4926949c64a2578cc4660c23e6c88ed", "is_reserved": 0, "rental_uris": {"ios": "https://dc.lft.to/lastmile_qr_scan", "android": "https://dc.lft.to/lastmile_qr_scan"}, "is_disabled": 0, "lon": -77.0450245, "name": "e4926949c64a2578cc4660c23e6c88ed", "fusion_lon": 0.0}, {"lat": 38.8968305, "fusion_lat": 0.0, "type": "electric_scooter", "bike_id": "3490fd185966843380d4088300a8d054", "is_reserved": 0, "rental_uris": {"ios": "https://dc.lft.to/lastmile_qr_scan", "android": "https://dc.lft.to/lastmile_qr_scan"}, "is_disabled": 0, "lon": -77.03226766666667, "name": "3490fd185966843380d4088300a8d054", "fusion_lon": 0.0}, {"lat": 38.89357, "fusion_lat": 0.0, "type": "electric_scooter", "bike_id": "8bd15332f2cc759622b7f52470d37e18", "is_reserved": 0, "rental_uris": {"ios": "https://dc.lft.to/lastmile_qr_scan", "android": "https://dc.lft.to/lastmile_qr_scan"}, "is_disabled": 0, "lon": -77.0033685, "name": "8bd15332f2cc759622b7f52470d37e18", "fusion_lon": 0.0}, {"lat": 38.9057235, "fusion_lat": 0.0, "type": "electric_scooter", "bike_id": "52075879bf6f981022b642c51f08dbf1", "is_reserved": 0, "rental_uris": {"ios": "https://dc.lft.to/lastmile_qr_scan", "android": "https://dc.lft.to/lastmile_qr_scan"}, "is_disabled": 0, "lon": -77.034518, "name": "52075879bf6f981022b642c51f08dbf1", "fusion_lon": 0.0}, {"lat": 38.933593333333334, "fusion_lat": 0.0, "type": "electric_scooter", "bike_id": "323e2647d36b6b8f76905c55f84e3f0b", "is_reserved": 0, "rental_uris": {"ios": "https://dc.lft.to/lastmile_qr_scan", "android": "https://dc.lft.to/lastmile_qr_scan"}, "is_disabled": 0, "lon": -77.0885945, "name": "323e2647d36b6b8f76905c55f84e3f0b", "fusion_lon": 0.0}, {"lat": 38.8984655, "fusion_lat": 0.0, "type": "electric_scooter", "bike_id": "5bf76cf8bd778c054da6a9fcc114f08c", "is_reserved": 0, "rental_uris": {"ios": "https://dc.lft.to/lastmile_qr_scan", "android": "https://dc.lft.to/lastmile_qr_scan"}, "is_disabled": 0, "lon": -77.033246, "name": "5bf76cf8bd778c054da6a9fcc114f08c", "fusion_lon": 0.0}, {"lat": 38.935357, "fusion_lat": 0.0, "type": "electric_scooter", "bike_id": "e7067ac370b651a54c0ce59d25456c16", "is_reserved": 0, "rental_uris": {"ios": "https://dc.lft.to/lastmile_qr_scan", "android": "https://dc.lft.to/lastmile_qr_scan"}, "is_disabled": 0, "lon": -77.05826333333333, "name": "e7067ac370b651a54c0ce59d25456c16", "fusion_lon": 0.0}, {"lat": 38.914151833333335, "fusion_lat": 0.0, "type": "electric_scooter", "bike_id": "a2958239810305042ac241c010047244", "is_reserved": 0, "rental_uris": {"ios": "https://dc.lft.to/lastmile_qr_scan", "android": "https://dc.lft.to/lastmile_qr_scan"}, "is_disabled": 0, "lon": -77.02229783333334, "name": "a2958239810305042ac241c010047244", "fusion_lon": 0.0}, {"lat": 38.90210966666667, "fusion_lat": 0.0, "type": "electric_scooter", "bike_id": "314b5313de13cd303ecc22e0867f1f66", "is_reserved": 0, "rental_uris": {"ios": "https://dc.lft.to/lastmile_qr_scan", "android": "https://dc.lft.to/lastmile_qr_scan"}, "is_disabled": 0, "lon": -77.02370483333333, "name": "314b5313de13cd303ecc22e0867f1f66", "fusion_lon": 0.0}, {"lat": 38.92889516666666, "fusion_lat": 0.0, "type": "electric_bike", "bike_id": "a08b9bd8e26932c05f2008e385b4bebf", "is_reserved": 0, "rental_uris": {"ios": "https://dc.lft.to/lastmile_qr_scan", "android": "https://dc.lft.to/lastmile_qr_scan"}, "is_disabled": 0, "lon": -77.0839895, "name": "a08b9bd8e26932c05f2008e385b4bebf", "fusion_lon": 0.0}, {"lat": 38.90516083333333, "fusion_lat": 0.0, "type": "electric_scooter", "bike_id": "d6c9bba902982bf17017b1817a1c136d", "is_reserved": 0, "rental_uris": {"ios": "https://dc.lft.to/lastmile_qr_scan", "android": "https://dc.lft.to/lastmile_qr_scan"}, "is_disabled": 0, "lon": -77.00218633333333, "name": "d6c9bba902982bf17017b1817a1c136d", "fusion_lon": 0.0}, {"lat": 38.90636466666667, "fusion_lat": 0.0, "type": "electric_scooter", "bike_id": "e5bcb72d42fce13ede3c327f98fff1a0", "is_reserved": 0, "rental_uris": {"ios": "https://dc.lft.to/lastmile_qr_scan", "android": "https://dc.lft.to/lastmile_qr_scan"}, "is_disabled": 0, "lon": -77.01012183333333, "name": "e5bcb72d42fce13ede3c327f98fff1a0", "fusion_lon": 0.0}, {"lat": 38.9326655, "fusion_lat": 0.0, "type": "electric_scooter", "bike_id": "82e115ecc872e3227f5ac4de374c3d58", "is_reserved": 0, "rental_uris": {"ios": "https://dc.lft.to/lastmile_qr_scan", "android": "https://dc.lft.to/lastmile_qr_scan"}, "is_disabled": 0, "lon": -77.0191825, "name": "82e115ecc872e3227f5ac4de374c3d58", "fusion_lon": 0.0}, {"lat": 38.938838833333335, "fusion_lat": 0.0, "type": "electric_scooter", "bike_id": "24477c1bfbe62b0dda94a3112f49fd21", "is_reserved": 0, "rental_uris": {"ios": "https://dc.lft.to/lastmile_qr_scan", "android": "https://dc.lft.to/lastmile_qr_scan"}, "is_disabled": 0, "lon": -77.02463716666666, "name": "24477c1bfbe62b0dda94a3112f49fd21", "fusion_lon": 0.0}, {"lat": 38.952477333333334, "fusion_lat": 0.0, "type": "electric_bike", "bike_id": "e47482578d7ac3622c389293fa053df7", "is_reserved": 0, "rental_uris": {"ios": "https://dc.lft.to/lastmile_qr_scan", "android": "https://dc.lft.to/lastmile_qr_scan"}, "is_disabled": 0, "lon": -76.97674866666667, "name": "e47482578d7ac3622c389293fa053df7", "fusion_lon": 0.0}, {"lat": 38.920818833333335, "fusion_lat": 0.0, "type": "electric_scooter", "bike_id": "08ea2eb26976863ac8bc229c63ddda75", "is_reserved": 0, "rental_uris": {"ios": "https://dc.lft.to/lastmile_qr_scan", "android": "https://dc.lft.to/lastmile_qr_scan"}, "is_disabled": 0, "lon": -77.024019, "name": "08ea2eb26976863ac8bc229c63ddda75", "fusion_lon": 0.0}, {"lat": 38.92114883333333, "fusion_lat": 0.0, "type": "electric_scooter", "bike_id": "a3b25208bd38a373888fd229fe2a3aea", "is_reserved": 0, "rental_uris": {"ios": "https://dc.lft.to/lastmile_qr_scan", "android": "https://dc.lft.to/lastmile_qr_scan"}, "is_disabled": 0, "lon": -77.04376166666667, "name": "a3b25208bd38a373888fd229fe2a3aea", "fusion_lon": 0.0}, {"lat": 38.87470483333333, "fusion_lat": 0.0, "type": "electric_scooter", "bike_id": "4884dc4a3fad3e9bfd729c3f0df20c4f", "is_reserved": 0, "rental_uris": {"ios": "https://dc.lft.to/lastmile_qr_scan", "android": "https://dc.lft.to/lastmile_qr_scan"}, "is_disabled": 0, "lon": -77.00560233333333, "name": "4884dc4a3fad3e9bfd729c3f0df20c4f", "fusion_lon": 0.0}, {"lat": 38.912691833333334, "fusion_lat": 0.0, "type": "electric_scooter", "bike_id": "ef55d861238b1b283e6f17859c338826", "is_reserved": 0, "rental_uris": {"ios": "https://dc.lft.to/lastmile_qr_scan", "android": "https://dc.lft.to/lastmile_qr_scan"}, "is_disabled": 0, "lon": -77.03827016666666, "name": "ef55d861238b1b283e6f17859c338826", "fusion_lon": 0.0}, {"lat": 38.92972683333333, "fusion_lat": 0.0, "type": "electric_scooter", "bike_id": "42b16a25f90466b47c853bed9f828a01", "is_reserved": 0, "rental_uris": {"ios": "https://dc.lft.to/lastmile_qr_scan", "android": "https://dc.lft.to/lastmile_qr_scan"}, "is_disabled": 0, "lon": -77.02950183333333, "name": "42b16a25f90466b47c853bed9f828a01", "fusion_lon": 0.0}, {"lat": 38.83808966666667, "fusion_lat": 0.0, "type": "electric_bike", "bike_id": "1245fd685b1a91ffa18ebf4c0f9436a7", "is_reserved": 0, "rental_uris": {"ios": "https://dc.lft.to/lastmile_qr_scan", "android": "https://dc.lft.to/lastmile_qr_scan"}, "is_disabled": 0, "lon": -77.09523216666666, "name": "1245fd685b1a91ffa18ebf4c0f9436a7", "fusion_lon": 0.0}, {"lat": 38.89346416666667, "fusion_lat": 0.0, "type": "electric_scooter", "bike_id": "b5dfb5a23885393fea790acd960e7fa7", "is_reserved": 0, "rental_uris": {"ios": "https://dc.lft.to/lastmile_qr_scan", "android": "https://dc.lft.to/lastmile_qr_scan"}, "is_disabled": 0, "lon": -77.017203, "name": "b5dfb5a23885393fea790acd960e7fa7", "fusion_lon": 0.0}, {"lat": 38.85767966666667, "fusion_lat": 0.0, "type": "electric_bike", "bike_id": "5b93da5b982cef00fa3b88b3b34a9d94", "is_reserved": 0, "rental_uris": {"ios": "https://dc.lft.to/lastmile_qr_scan", "android": "https://dc.lft.to/lastmile_qr_scan"}, "is_disabled": 0, "lon": -76.98764116666666, "name": "5b93da5b982cef00fa3b88b3b34a9d94", "fusion_lon": 0.0}, {"lat": 38.908133666666664, "fusion_lat": 0.0, "type": "electric_scooter", "bike_id": "b44d471c2af6871b7770f12b82b8a202", "is_reserved": 0, "rental_uris": {"ios": "https://dc.lft.to/lastmile_qr_scan", "android": "https://dc.lft.to/lastmile_qr_scan"}, "is_disabled": 0, "lon": -77.03649866666666, "name": "b44d471c2af6871b7770f12b82b8a202", "fusion_lon": 0.0}, {"lat": 38.95528866666667, "fusion_lat": 0.0, "type": "electric_scooter", "bike_id": "373b950981a7562a252f920d42918791", "is_reserved": 0, "rental_uris": {"ios": "https://dc.lft.to/lastmile_qr_scan", "android": "https://dc.lft.to/lastmile_qr_scan"}, "is_disabled": 0, "lon": -77.0277915, "name": "373b950981a7562a252f920d42918791", "fusion_lon": 0.0}, {"lat": 38.91779866666667, "fusion_lat": 0.0, "type": "electric_scooter", "bike_id": "8637f7bc9874c9c86d8f4e633b1719de", "is_reserved": 0, "rental_uris": {"ios": "https://dc.lft.to/lastmile_qr_scan", "android": "https://dc.lft.to/lastmile_qr_scan"}, "is_disabled": 0, "lon": -77.02374466666667, "name": "8637f7bc9874c9c86d8f4e633b1719de", "fusion_lon": 0.0}, {"lat": 38.909937666666664, "fusion_lat": 0.0, "type": "electric_scooter", "bike_id": "83d2edea257acbc4a40cb7b49003f535", "is_reserved": 0, "rental_uris": {"ios": "https://dc.lft.to/lastmile_qr_scan", "android": "https://dc.lft.to/lastmile_qr_scan"}, "is_disabled": 0, "lon": -77.04426133333334, "name": "83d2edea257acbc4a40cb7b49003f535", "fusion_lon": 0.0}, {"lat": 38.898907333333334, "fusion_lat": 0.0, "type": "electric_scooter", "bike_id": "e8b6bb57b9d4495e5a5e78383ed84c27", "is_reserved": 0, "rental_uris": {"ios": "https://dc.lft.to/lastmile_qr_scan", "android": "https://dc.lft.to/lastmile_qr_scan"}, "is_disabled": 0, "lon": -76.9770895, "name": "e8b6bb57b9d4495e5a5e78383ed84c27", "fusion_lon": 0.0}, {"lat": 38.910961, "fusion_lat": 0.0, "type": "electric_scooter", "bike_id": "28195f1c398ec6c444901738abe50ea4", "is_reserved": 0, "rental_uris": {"ios": "https://dc.lft.to/lastmile_qr_scan", "android": "https://dc.lft.to/lastmile_qr_scan"}, "is_disabled": 0, "lon": -77.03841683333333, "name": "28195f1c398ec6c444901738abe50ea4", "fusion_lon": 0.0}, {"lat": 38.90083633333333, "fusion_lat": 0.0, "type": "electric_scooter", "bike_id": "bfc806712f91210d76250fc13f130ed0", "is_reserved": 0, "rental_uris": {"ios": "https://dc.lft.to/lastmile_qr_scan", "android": "https://dc.lft.to/lastmile_qr_scan"}, "is_disabled": 0, "lon": -77.04764283333333, "name": "bfc806712f91210d76250fc13f130ed0", "fusion_lon": 0.0}, {"lat": 38.8976955, "fusion_lat": 0.0, "type": "electric_scooter", "bike_id": "8c022d432ebff65c9d583493f55c1710", "is_reserved": 0, "rental_uris": {"ios": "https://dc.lft.to/lastmile_qr_scan", "android": "https://dc.lft.to/lastmile_qr_scan"}, "is_disabled": 0, "lon": -77.01225333333333, "name": "8c022d432ebff65c9d583493f55c1710", "fusion_lon": 0.0}, {"lat": 38.9137645, "fusion_lat": 0.0, "type": "electric_scooter", "bike_id": "d80d673c8f3cd5b813c1190d97dee946", "is_reserved": 0, "rental_uris": {"ios": "https://dc.lft.to/lastmile_qr_scan", "android": "https://dc.lft.to/lastmile_qr_scan"}, "is_disabled": 0, "lon": -77.04137183333333, "name": "d80d673c8f3cd5b813c1190d97dee946", "fusion_lon": 0.0}, {"lat": 38.9646895, "fusion_lat": 0.0, "type": "electric_bike", "bike_id": "844f1b661a86acbdcc59b456e9d0de20", "is_reserved": 0, "rental_uris": {"ios": "https://dc.lft.to/lastmile_qr_scan", "android": "https://dc.lft.to/lastmile_qr_scan"}, "is_disabled": 0, "lon": -77.0356035, "name": "844f1b661a86acbdcc59b456e9d0de20", "fusion_lon": 0.0}, {"lat": 38.90827183333333, "fusion_lat": 0.0, "type": "electric_scooter", "bike_id": "8dc4c267a4986f538322c11a23dcd509", "is_reserved": 0, "rental_uris": {"ios": "https://dc.lft.to/lastmile_qr_scan", "android": "https://dc.lft.to/lastmile_qr_scan"}, "is_disabled": 0, "lon": -76.94158133333333, "name": "8dc4c267a4986f538322c11a23dcd509", "fusion_lon": 0.0}, {"lat": 38.90160066666667, "fusion_lat": 0.0, "type": "electric_scooter", "bike_id": "79475982ed05ce7e5ef366bf7c406d81", "is_reserved": 0, "rental_uris": {"ios": "https://dc.lft.to/lastmile_qr_scan", "android": "https://dc.lft.to/lastmile_qr_scan"}, "is_disabled": 0, "lon": -77.06016, "name": "79475982ed05ce7e5ef366bf7c406d81", "fusion_lon": 0.0}, {"lat": 38.872769, "fusion_lat": 0.0, "type": "electric_bike", "bike_id": "294f8d80705f24eeec967536db5c9374", "is_reserved": 0, "rental_uris": {"ios": "https://dc.lft.to/lastmile_qr_scan", "android": "https://dc.lft.to/lastmile_qr_scan"}, "is_disabled": 0, "lon": -77.2333095, "name": "294f8d80705f24eeec967536db5c9374", "fusion_lon": 0.0}, {"lat": 38.907477666666665, "fusion_lat": 0.0, "type": "electric_scooter", "bike_id": "baafd1856f48898ddd8465a9c7010f5d", "is_reserved": 0, "rental_uris": {"ios": "https://dc.lft.to/lastmile_qr_scan", "android": "https://dc.lft.to/lastmile_qr_scan"}, "is_disabled": 0, "lon": -77.03472016666667, "name": "baafd1856f48898ddd8465a9c7010f5d", "fusion_lon": 0.0}, {"lat": 38.900262833333336, "fusion_lat": 0.0, "type": "electric_scooter", "bike_id": "644af227a84fa6290e8bffb31f52d624", "is_reserved": 0, "rental_uris": {"ios": "https://dc.lft.to/lastmile_qr_scan", "android": "https://dc.lft.to/lastmile_qr_scan"}, "is_disabled": 0, "lon": -77.0069175, "name": "644af227a84fa6290e8bffb31f52d624", "fusion_lon": 0.0}, {"lat": 38.92906766666667, "fusion_lat": 0.0, "type": "electric_scooter", "bike_id": "cc3954aaa6e6c1250b8ab43b243ba7bb", "is_reserved": 0, "rental_uris": {"ios": "https://dc.lft.to/lastmile_qr_scan", "android": "https://dc.lft.to/lastmile_qr_scan"}, "is_disabled": 0, "lon": -77.01672133333334, "name": "cc3954aaa6e6c1250b8ab43b243ba7bb", "fusion_lon": 0.0},