{"data": {"bikes": [{"fusion_lat": 0.0, "name": "2b6d0ded902b94706b8f8c6b0797ab69", "is_disabled": 0, "rental_uris": {"android": "https://dc.lft.to/lastmile_qr_scan", "ios": "https://dc.lft.to/lastmile_qr_scan"}, "fusion_lon": 0.0, "lat": 38.92260116666667, "bike_id": "2b6d0ded902b94706b8f8c6b0797ab69", "type": "electric_bike", "is_reserved": 0, "lon": -77.070289}, {"fusion_lat": 0.0, "name": "1554fc0196a7e8fd1d2655e84da615e9", "is_disabled": 0, "rental_uris": {"android": "https://dc.lft.to/lastmile_qr_scan", "ios": "https://dc.lft.to/lastmile_qr_scan"}, "fusion_lon": 0.0, "lat": 38.90959216666667, "bike_id": "1554fc0196a7e8fd1d2655e84da615e9", "type": "electric_scooter", "is_reserved": 0, "lon": -77.03933533333333}, {"fusion_lat": 0.0, "name": "e28806d80fabadbe062be5be2cc0ee24", "is_disabled": 0, "rental_uris": {"android": "https://dc.lft.to/lastmile_qr_scan", "ios": "https://dc.lft.to/lastmile_qr_scan"}, "fusion_lon": 0.0, "lat": 38.89016016666667, "bike_id": "e28806d80fabadbe062be5be2cc0ee24", "type": "electric_scooter", "is_reserved": 0, "lon": -76.93740816666667}, {"fusion_lat": 0.0, "name": "710f80f5e17d69d401bb80a6592a2a37", "is_disabled": 0, "rental_uris": {"android": "https://dc.lft.to/lastmile_qr_scan", "ios": "https://dc.lft.to/lastmile_qr_scan"}, "fusion_lon": 0.0, "lat": 38.924594, "bike_id": "710f80f5e17d69d401bb80a6592a2a37", "type": "electric_scooter", "is_reserved": 0, "lon": -77.02411316666667}, {"fusion_lat": 0.0, "name": "640b5afdfc86f9a05365d97d03be2df5", "is_disabled": 0, "rental_uris": {"android": "https://dc.lft.to/lastmile_qr_scan", "ios": "https://dc.lft.to/lastmile_qr_scan"}, "fusion_lon": 0.0, "lat": 38.92026833333333, "bike_id": "640b5afdfc86f9a05365d97d03be2df5", "type": "electric_scooter", "is_reserved": 0, "lon": -77.03069266666667}, {"fusion_lat": 0.0, "name": "07eb4b2f505ab58a6656f18d73293fe3", "is_disabled": 0, "rental_uris": {"android": "https://dc.lft.to/lastmile_qr_scan", "ios": "https://dc.lft.to/lastmile_qr_scan"}, "fusion_lon": 0.0, "lat": 38.8922425, "bike_id": "07eb4b2f505ab58a6656f18d73293fe3", "type": "electric_scooter", "is_reserved": 0, "lon": -77.03223133333333}, {"fusion_lat": 0.0, "name": "a333744d622a22e804cf82900e0bc9b9", "is_disabled": 0, "rental_uris": {"android": "https://dc.lft.to/lastmile_qr_scan", "ios": "https://dc.lft.to/lastmile_qr_scan"}, "fusion_lon": 0.0, "lat": 38.91420733333333, "bike_id": "a333744d622a22e804cf82900e0bc9b9", "type": "electric_scooter", "is_reserved": 0, "lon": -77.03174533333333}, {"fusion_lat": 0.0, "name": "c9572341c893e09417dd9b453d2263f5", "is_disabled": 0, "rental_uris": {"android": "https://dc.lft.to/lastmile_qr_scan", "ios": "https://dc.lft.to/lastmile_qr_scan"}, "fusion_lon": 0.0, "lat": 38.90145233333333, "bike_id": "c9572341c893e09417dd9b453d2263f5", "type": "electric_scooter", "is_reserved": 0, "lon": -77.0387335}, {"fusion_lat": 0.0, "name": "e972580c6b67f370e827debf2136b417", "is_disabled": 0, "rental_uris": {"android": "https://dc.lft.to/lastmile_qr_scan", "ios": "https://dc.lft.to/lastmile_qr_scan"}, "fusion_lon": 0.0, "lat": 38.918163666666665, "bike_id": "e972580c6b67f370e827debf2136b417", "type": "electric_scooter", "is_reserved": 0, "lon": -77.0328355}, {"fusion_lat": 0.0, "name": "65528d4444ce972ce7fadb69451e0e8d", "is_disabled": 0, "rental_uris": {"android": "https://dc.lft.to/lastmile_qr_scan", "ios": "https://dc.lft.to/lastmile_qr_scan"}, "fusion_lon": 0.0, "lat": 38.92073766666667, "bike_id": "65528d4444ce972ce7fadb69451e0e8d", "type": "electric_scooter", "is_reserved": 0, "lon": -77.02847783333333}, {"fusion_lat": 0.0, "name": "2b2c34b374f982c3ff1d4f9d9d5a7c6f", "is_disabled": 0, "rental_uris": {"android": "https://dc.lft.to/lastmile_qr_scan", "ios": "https://dc.lft.to/lastmile_qr_scan"}, "fusion_lon": 0.0, "lat": 38.934645333333336, "bike_id": "2b2c34b374f982c3ff1d4f9d9d5a7c6f", "type": "electric_scooter", "is_reserved": 0, "lon": -77.0578235}, {"fusion_lat": 0.0, "name": "5b73a8424bd85edb57a46ce1884841bc", "is_disabled": 0, "rental_uris": {"android": "https://dc.lft.to/lastmile_qr_scan", "ios": "https://dc.lft.to/lastmile_qr_scan"}, "fusion_lon": 0.0, "lat": 38.929247, "bike_id": "5b73a8424bd85edb57a46ce1884841bc", "type": "electric_scooter", "is_reserved": 0, "lon": -77.032765}, {"fusion_lat": 0.0, "name": "293b11980c7f572407575a088f6c4479", "is_disabled": 0, "rental_uris": {"android": "https://dc.lft.to/lastmile_qr_scan", "ios": "https://dc.lft.to/lastmile_qr_scan"}, "fusion_lon": 0.0, "lat": 38.96752566666667, "bike_id": "293b11980c7f572407575a088f6c4479", "type": "electric_bike", "is_reserved": 0, "lon": -77.02803066666667}, {"fusion_lat": 0.0, "name": "3fac80461f3d9adb65b33624fcf78d2e", "is_disabled": 0, "rental_uris": {"android": "https://dc.lft.to/lastmile_qr_scan", "ios": "https://dc.lft.to/lastmile_qr_scan"}, "fusion_lon": 0.0, "lat": 38.88751833333333, "bike_id": "3fac80461f3d9adb65b33624fcf78d2e", "type": "electric_scooter", "is_reserved": 0, "lon": -77.02190133333333}, {"fusion_lat": 0.0, "name": "68db597fea121444a6ee002e59719ac7", "is_disabled": 0, "rental_uris": {"android": "https://dc.lft.to/lastmile_qr_scan", "ios": "https://dc.lft.to/lastmile_qr_scan"}, "fusion_lon": 0.0, "lat": 38.91554766666667, "bike_id": "68db597fea121444a6ee002e59719ac7", "type": "electric_scooter", "is_reserved": 0, "lon": -77.03245133333333}, {"fusion_lat": 0.0, "name": "d32ee1c5d59b062dbdf6b5af6e0c7c14", "is_disabled": 0, "rental_uris": {"android": "https://dc.lft.to/lastmile_qr_scan", "ios": "https://dc.lft.to/lastmile_qr_scan"}, "fusion_lon": 0.0, "lat": 38.892338333333335, "bike_id": "d32ee1c5d59b062dbdf6b5af6e0c7c14", "type": "electric_scooter", "is_reserved": 0, "lon": -77.01714966666667}, {"fusion_lat": 0.0, "name": "c0ef1c5fb5332c9920fab542c6fc96eb", "is_disabled": 0, "rental_uris": {"android": "https://dc.lft.to/lastmile_qr_scan", "ios": "https://dc.lft.to/lastmile_qr_scan"}, "fusion_lon": 0.0, "lat": 38.8861515, "bike_id": "c0ef1c5fb5332c9920fab542c6fc96eb", "type": "electric_scooter", "is_reserved": 0, "lon": -77.01559816666666}, {"fusion_lat": 0.0, "name": "cd76d1c84e2e46562e36656adf2ef154", "is_disabled": 0, "rental_uris": {"android": "https://dc.lft.to/lastmile_qr_scan", "ios": "https://dc.lft.to/lastmile_qr_scan"}, "fusion_lon": 0.0, "lat": 38.8816475, "bike_id": "cd76d1c84e2e46562e36656adf2ef154", "type": "electric_scooter", "is_reserved": 0, "lon": -77.027688}, {"fusion_lat": 0.0, "name": "40175f9d7b845c02e1475e5a42562026", "is_disabled": 0, "rental_uris": {"android": "https://dc.lft.to/lastmile_qr_scan", "ios": "https://dc.lft.to/lastmile_qr_scan"}, "fusion_lon": 0.0, "lat": 38.909732, "bike_id": "40175f9d7b845c02e1475e5a42562026", "type": "electric_scooter", "is_reserved": 0, "lon": -77.00893133333334}, {"fusion_lat": 0.0, "name": "5617310ace35f664f892467013dd7ece", "is_disabled": 0, "rental_uris": {"android": "https://dc.lft.to/lastmile_qr_scan", "ios": "https://dc.lft.to/lastmile_qr_scan"}, "fusion_lon": 0.0, "lat": 38.85458783333333, "bike_id": "5617310ace35f664f892467013dd7ece", "type": "electric_scooter", "is_reserved": 0, "lon": -76.972256}, {"fusion_lat": 0.0, "name": "ffca34dd57a3d7c1f9b55a39ea829b18", "is_disabled": 0, "rental_uris": {"android": "https://dc.lft.to/lastmile_qr_scan", "ios": "https://dc.lft.to/lastmile_qr_scan"}, "fusion_lon": 0.0, "lat": 38.963785, "bike_id": "ffca34dd57a3d7c1f9b55a39ea829b18", "type": "electric_scooter", "is_reserved": 0, "lon": -77.02049266666667}, {"fusion_lat": 0.0, "name": "677cf2c8edba97a0277e905601743efa", "is_disabled": 0, "rental_uris": {"android": "https://dc.lft.to/lastmile_qr_scan", "ios": "https://dc.lft.to/lastmile_qr_scan"}, "fusion_lon": 0.0, "lat": 38.8847765, "bike_id": "677cf2c8edba97a0277e905601743efa", "type": "electric_scooter", "is_reserved": 0, "lon": -76.996001}, {"fusion_lat": 0.0, "name": "8f28960798f42f3b9f76f4364dca22dc", "is_disabled": 0, "rental_uris": {"android": "https://dc.lft.to/lastmile_qr_scan", "ios": "https://dc.lft.to/lastmile_qr_scan"}, "fusion_lon": 0.0, "lat": 38.928514166666666, "bike_id": "8f28960798f42f3b9f76f4364dca22dc", "type": "electric_scooter", "is_reserved": 0, "lon": -77.02439233333334}, {"fusion_lat": 0.0, "name": "05931d00da0f975e84b8a872351c4b40", "is_disabled": 0, "rental_uris": {"android": "https://dc.lft.to/lastmile_qr_scan", "ios": "https://dc.lft.to/lastmile_qr_scan"}, "fusion_lon": 0.0, "lat": 38.921356833333334, "bike_id": "05931d00da0f975e84b8a872351c4b40", "type": "electric_scooter", "is_reserved": 0, "lon": -77.00963}, {"fusion_lat": 0.0, "name": "4739a45dbdb2a1c83001ef80cd9df6e0", "is_disabled": 0, "rental_uris": {"android": "https://dc.lft.to/lastmile_qr_scan", "ios": "https://dc.lft.to/lastmile_qr_scan"}, "fusion_lon": 0.0, "lat": 38.91716, "bike_id": "4739a45dbdb2a1c83001ef80cd9df6e0", "type": "electric_scooter", "is_reserved": 0, "lon": -77.03185416666666}, {"fusion_lat": 0.0, "name": "85c2a97dce01849ceb1ac9abce2ad18a", "is_disabled": 0, "rental_uris": {"android": "https://dc.lft.to/lastmile_qr_scan", "ios": "https://dc.lft.to/lastmile_qr_scan"}, "fusion_lon": 0.0, "lat": 38.88767816666667, "bike_id": "85c2a97dce01849ceb1ac9abce2ad18a", "type": "electric_scooter", "is_reserved": 0, "lon": -76.9774855}, {"fusion_lat": 0.0, "name": "9b0b926164f50ba0e8351744305280ce", "is_disabled": 0, "rental_uris": {"android": "https://dc.lft.to/lastmile_qr_scan", "ios": "https://dc.lft.to/lastmile_qr_scan"}, "fusion_lon": 0.0, "lat": 38.91020983333333, "bike_id": "9b0b926164f50ba0e8351744305280ce", "type": "electric_scooter", "is_reserved": 0, "lon": -77.038571}, {"fusion_lat": 0.0, "name": "895189c4f116aee7214fd303d3025356", "is_disabled": 0, "rental_uris": {"android": "https://dc.lft.to/lastmile_qr_scan", "ios": "https://dc.lft.to/lastmile_qr_scan"}, "fusion_lon": 0.0, "lat": 38.873745, "bike_id": "895189c4f116aee7214fd303d3025356", "type": "electric_scooter", "is_reserved": 0, "lon": -77.0009765}, {"fusion_lat": 0.0, "name": "e545dca138aaba4ee15561eff19cf332", "is_disabled": 0, "rental_uris": {"android": "https://dc.lft.to/lastmile_qr_scan", "ios": "https://dc.lft.to/lastmile_qr_scan"}, "fusion_lon": 0.0, "lat": 38.88127433333333, "bike_id": "e545dca138aaba4ee15561eff19cf332", "type": "electric_scooter", "is_reserved": 0, "lon": -76.99283}, {"fusion_lat": 0.0, "name": "d842971c4afc1631fa2e319c86962083", "is_disabled": 0, "rental_uris": {"android": "https://dc.lft.to/lastmile_qr_scan", "ios": "https://dc.lft.to/lastmile_qr_scan"}, "fusion_lon": 0.0, "lat": 38.901781, "bike_id": "d842971c4afc1631fa2e319c86962083", "type": "electric_scooter", "is_reserved": 0, "lon": -76.94144066666667}, {"fusion_lat": 0.0, "name": "8aa7cd07ee2db67e2083e40bb93296aa", "is_disabled": 0, "rental_uris": {"android": "https://dc.lft.to/lastmile_qr_scan", "ios": "https://dc.lft.to/lastmile_qr_scan"}, "fusion_lon": 0.0, "lat": 38.920372666666665, "bike_id": "8aa7cd07ee2db67e2083e40bb93296aa", "type": "electric_bike", "is_reserved": 0, "lon": -76.979514}, {"fusion_lat": 0.0, "name": "cdbdb7d923860af43790c3bcd456be84", "is_disabled": 0, "rental_uris": {"android": "https://dc.lft.to/lastmile_qr_scan", "ios": "https://dc.lft.to/lastmile_qr_scan"}, "fusion_lon": 0.0, "lat": 38.89518966666667, "bike_id": "cdbdb7d923860af43790c3bcd456be84", "type": "electric_scooter", "is_reserved": 0, "lon": -76.98082566666666}, {"fusion_lat": 0.0, "name": "105662961f191a8d6a3367d95d45d247", "is_disabled": 0, "rental_uris": {"android": "https://dc.lft.to/lastmile_qr_scan", "ios": "https://dc.lft.to/lastmile_qr_scan"}, "fusion_lon": 0.0, "lat": 38.9573485, "bike_id": "105662961f191a8d6a3367d95d45d247", "type": "electric_scooter", "is_reserved": 0, "lon": -77.024026}, {"fusion_lat": 0.0, "name": "13f5f9b488b6adc453f7fb8bd01fc8fc", "is_disabled": 0, "rental_uris": {"android": "https://dc.lft.to/lastmile_qr_scan", "ios": "https://dc.lft.to/lastmile_qr_scan"}, "fusion_lon": 0.0, "lat": 38.935222833333334, "bike_id": "13f5f9b488b6adc453f7fb8bd01fc8fc", "type": "electric_scooter", "is_reserved": 0, "lon": -77.08702316666667}, {"fusion_lat": 0.0, "name": "31e49359b71bcd366395cd896b586b08", "is_disabled": 0, "rental_uris": {"android": "https://dc.lft.to/lastmile_qr_scan", "ios": "https://dc.lft.to/lastmile_qr_scan"}, "fusion_lon": 0.0, "lat": 38.90894733333333, "bike_id": "31e49359b71bcd366395cd896b586b08", "type": "electric_scooter", "is_reserved": 0, "lon": -77.022766}, {"fusion_lat": 0.0, "name": "210726fa21a811a5f731929cb628560d", "is_disabled": 0, "rental_uris": {"android": "https://dc.lft.to/lastmile_qr_scan", "ios": "https://dc.lft.to/lastmile_qr_scan"}, "fusion_lon": 0.0, "lat": 38.9002525, "bike_id": "210726fa21a811a5f731929cb628560d", "type": "electric_scooter", "is_reserved": 0, "lon": -77.0117895}, {"fusion_lat": 0.0, "name": "f19eaf4f03b89e5a653eb38db7802c2f", "is_disabled": 0, "rental_uris": {"android": "https://dc.lft.to/lastmile_qr_scan", "ios": "https://dc.lft.to/lastmile_qr_scan"}, "fusion_lon": 0.0, "lat": 38.907230166666665, "bike_id": "f19eaf4f03b89e5a653eb38db7802c2f", "type": "electric_scooter", "is_reserved": 0, "lon": -77.04296966666666}, {"fusion_lat": 0.0, "name": "ed3a8b6bd69c669189d02c0c14c3ded3", "is_disabled": 0, "rental_uris": {"android": "https://dc.lft.to/lastmile_qr_scan", "ios": "https://dc.lft.to/lastmile_qr_scan"}, "fusion_lon": 0.0, "lat": 38.93060633333333, "bike_id": "ed3a8b6bd69c669189d02c0c14c3ded3", "type": "electric_scooter", "is_reserved": 0, "lon": -77.03954666666667}, {"fusion_lat": 0.0, "name": "c0d4c44d298e961bc4647547579e1468", "is_disabled": 0, "rental_uris": {"android": "https://dc.lft.to/lastmile_qr_scan", "ios": "https://dc.lft.to/lastmile_qr_scan"}, "fusion_lon": 0.0, "lat": 38.91830216666666, "bike_id": "c0d4c44d298e961bc4647547579e1468", "type": "electric_scooter", "is_reserved": 0, "lon": -77.02402483333333}, {"fusion_lat": 0.0, "name": "c83f652e31405f8e32a6b927862868b2", "is_disabled": 0, "rental_uris": {"android": "https://dc.lft.to/lastmile_qr_scan", "ios": "https://dc.lft.to/lastmile_qr_scan"}, "fusion_lon": 0.0, "lat": 38.8996645, "bike_id": "c83f652e31405f8e32a6b927862868b2", "type": "electric_bike", "is_reserved": 0, "lon": -76.98673333333333}, {"fusion_lat": 0.0, "name": "25208554d6e78aae3c3ac2a7efddf543", "is_disabled": 0, "rental_uris": {"android": "https://dc.lft.to/lastmile_qr_scan", "ios": "https://dc.lft.to/lastmile_qr_scan"}, "fusion_lon": 0.0, "lat": 38.876576666666665, "bike_id": "25208554d6e78aae3c3ac2a7efddf543", "type": "electric_scooter", "is_reserved": 0, "lon": -77.00129083333333}, {"fusion_lat": 0.0, "name": "9fc42d9fb48b4d979de54843522a90f4", "is_disabled": 0, "rental_uris": {"android": "https://dc.lft.to/lastmile_qr_scan", "ios": "https://dc.lft.to/lastmile_qr_scan"}, "fusion_lon": 0.0, "lat": 38.94204516666667, "bike_id": "9fc42d9fb48b4d979de54843522a90f4", "type": "electric_bike", "is_reserved": 0, "lon": -77.01827416666667}, {"fusion_lat": 0.0, "name": "f355007b0e5362f041f00c6d4bbac3da", "is_disabled": 0, "rental_uris": {"android": "https://dc.lft.to/lastmile_qr_scan", "ios": "https://dc.lft.to/lastmile_qr_scan"}, "fusion_lon": 0.0, "lat": 38.93066566666667, "bike_id": "f355007b0e5362f041f00c6d4bbac3da", "type": "electric_scooter", "is_reserved": 0, "lon": -77.02978183333333}, {"fusion_lat": 0.0, "name": "723a739eae24d9aa9505dbfd151b28f0", "is_disabled": 0, "rental_uris": {"android": "https://dc.lft.to/lastmile_qr_scan", "ios": "https://dc.lft.to/lastmile_qr_scan"}, "fusion_lon": 0.0, "lat": 38.86266916666667, "bike_id": "723a739eae24d9aa9505dbfd151b28f0", "type": "electric_bike", "is_reserved": 0, "lon": -76.98351833333334}, {"fusion_lat": 0.0, "name": "f88b42d422dd7266c77eddb389e27feb", "is_disabled": 0, "rental_uris": {"android": "https://dc.lft.to/lastmile_qr_scan", "ios": "https://dc.lft.to/lastmile_qr_scan"}, "fusion_lon": 0.0, "lat": 38.93143416666667, "bike_id": "f88b42d422dd7266c77eddb389e27feb", "type": "electric_scooter", "is_reserved": 0, "lon": -77.03833383333334}, {"fusion_lat": 0.0, "name": "c10b9d49921dce22bf8f6e5e9e51fd1a", "is_disabled": 0, "rental_uris": {"android": "https://dc.lft.to/lastmile_qr_scan", "ios": "https://dc.lft.to/lastmile_qr_scan"}, "fusion_lon": 0.0, "lat": 38.913948500000004, "bike_id": "c10b9d49921dce22bf8f6e5e9e51fd1a", "type": "electric_scooter", "is_reserved": 0, "lon": -77.04175683333334}, {"fusion_lat": 0.0, "name": "74297b3c9a86b8186ac3c7d216efcd86", "is_disabled": 0, "rental_uris": {"android": "https://dc.lft.to/lastmile_qr_scan", "ios": "https://dc.lft.to/lastmile_qr_scan"}, "fusion_lon": 0.0, "lat": 38.881539833333335, "bike_id": "74297b3c9a86b8186ac3c7d216efcd86", "type": "electric_scooter", "is_reserved": 0, "lon": -77.027545}, {"fusion_lat": 0.0, "name": "626242d0234dd349dbe6a1f2c8dca0d7", "is_disabled": 0, "rental_uris": {"android": "https://dc.lft.to/lastmile_qr_scan", "ios": "https://dc.lft.to/lastmile_qr_scan"}, "fusion_lon": 0.0, "lat": 38.919804666666664, "bike_id": "626242d0234dd349dbe6a1f2c8dca0d7", "type": "electric_scooter", "is_reserved": 0, "lon": -77.04176383333333}, {"fusion_lat": 0.0, "name": "4af4550d69b356bbf1694b58ace73d8b", "is_disabled": 0, "rental_uris": {"android": "https://dc.lft.to/lastmile_qr_scan", "ios": "https://dc.lft.to/lastmile_qr_scan"}, "fusion_lon": 0.0, "lat": 38.930429833333335, "bike_id": "4af4550d69b356bbf1694b58ace73d8b", "type": "electric_scooter", "is_reserved": 0, "lon": -77.03608733333333}, {"fusion_lat": 0.0, "name": "a6dace1f05dc29ee8f91fec4f991a717", "is_disabled": 0, "rental_uris": {"android": "https://dc.lft.to/lastmile_qr_scan", "ios": "https://dc.lft.to/lastmile_qr_scan"}, "fusion_lon": 0.0, "lat": 38.9361255, "bike_id": "a6dace1f05dc29ee8f91fec4f991a717", "type": "electric_scooter", "is_reserved": 0, "lon": -77.036658}, {"fusion_lat": 0.0, "name": "25f41f8dc1e8d5f1a98a1db84f3c9843", "is_disabled": 0, "rental_uris": {"android": "https://dc.lft.to/lastmile_qr_scan", "ios": "https://dc.lft.to/lastmile_qr_scan"}, "fusion_lon": 0.0, "lat": 38.87179916666667, "bike_id": "25f41f8dc1e8d5f1a98a1db84f3c9843", "type": "electric_scooter", "is_reserved": 0, "lon": -77.00619}, {"fusion_lat": 0.0, "name": "0d5a99bca4e7132e3731f2edf1905a79", "is_disabled": 0, "rental_uris": {"android": "https://dc.lft.to/lastmile_qr_scan", "ios": "https://dc.lft.to/lastmile_qr_scan"}, "fusion_lon": 0.0, "lat": 38.9056305, "bike_id": "0d5a99bca4e7132e3731f2edf1905a79", "type": "electric_scooter", "is_reserved": 0, "lon": -77.01313616666667}, {"fusion_lat": 0.0, "name": "47d705ad16ab6a0261b1cfffca1c8144", "is_disabled": 0, "rental_uris": {"android": "https://dc.lft.to/lastmile_qr_scan", "ios": "https://dc.lft.to/lastmile_qr_scan"}, "fusion_lon": 0.0, "lat": 38.929746333333334, "bike_id": "47d705ad16ab6a0261b1cfffca1c8144", "type": "electric_scooter", "is_reserved": 0, "lon": -77.03246633333333}, {"fusion_lat": 0.0, "name": "5435ce44915613f1b9c5d6ac95ba1311", "is_disabled": 0, "rental_uris": {"android": "https://dc.lft.to/lastmile_qr_scan", "ios": "https://dc.lft.to/lastmile_qr_scan"}, "fusion_lon": 0.0, "lat": 38.857970333333334, "bike_id": "5435ce44915613f1b9c5d6ac95ba1311", "type": "electric_bike", "is_reserved": 0, "lon": -77.12014083333334}, {"fusion_lat": 0.0, "name": "687a6a12c9f8e567531440e52a3406e3", "is_disabled": 0, "rental_uris": {"android": "https://dc.lft.to/lastmile_qr_scan", "ios": "https://dc.lft.to/lastmile_qr_scan"}, "fusion_lon": 0.0, "lat": 38.905255, "bike_id": "687a6a12c9f8e567531440e52a3406e3", "type": "electric_scooter", "is_reserved": 0, "lon": -77.0576865}, {"fusion_lat": 0.0, "name": "616dabeb3425c016f4b196d0a2fd263b", "is_disabled": 0, "rental_uris": {"android": "https://dc.lft.to/lastmile_qr_scan", "ios": "https://dc.lft.to/lastmile_qr_scan"}, "fusion_lon": 0.0, "lat": 38.96809366666667, "bike_id": "616dabeb3425c016f4b196d0a2fd263b", "type": "electric_bike", "is_reserved": 0, "lon": -76.955186}, {"fusion_lat": 0.0, "name": "cefce390bbf9e2ec22e3177e2978cbdf", "is_disabled": 0, "rental_uris": {"android": "https://dc.lft.to/lastmile_qr_scan", "ios": "https://dc.lft.to/lastmile_qr_scan"}, "fusion_lon": 0.0, "lat": 38.794702, "bike_id": "cefce390bbf9e2ec22e3177e2978cbdf", "type": "electric_bike", "is_reserved": 0, "lon": -76.992481}, {"fusion_lat": 0.0, "name": "b59371366b3fb5f96d4f9ebb618e7e6a", "is_disabled": 0, "rental_uris": {"android": "https://dc.lft.to/lastmile_qr_scan", "ios": "https://dc.lft.to/lastmile_qr_scan"}, "fusion_lon": 0.0, "lat": 38.93585133333333, "bike_id": "b59371366b3fb5f96d4f9ebb618e7e6a", "type": "electric_scooter", "is_reserved": 0, "lon": -77.02449183333333}, {"fusion_lat": 0.0, "name": "f98ff048c9165dcd292264d5e0303ed3", "is_disabled": 0, "rental_uris": {"android": "https://dc.lft.to/lastmile_qr_scan", "ios": "https://dc.lft.to/lastmile_qr_scan"}, "fusion_lon": 0.0, "lat": 38.9075285, "bike_id": "f98ff048c9165dcd292264d5e0303ed3", "type": "electric_scooter", "is_reserved": 0, "lon": -77.06311416666667}, {"fusion_lat": 0.0, "name": "121d53f0a07acccb7d558ab89a03871a", "is_disabled": 0, "rental_uris": {"android": "https://dc.lft.to/lastmile_qr_scan", "ios": "https://dc.lft.to/lastmile_qr_scan"}, "fusion_lon": 0.0, "lat": 38.900535166666664, "bike_id": "121d53f0a07acccb7d558ab89a03871a", "type": "electric_scooter", "is_reserved": 0, "lon": -77.05628033333333}, {"fusion_lat": 0.0, "name": "332a6e28e8003485718ceed613a0604f", "is_disabled": 0, "rental_uris": {"android": "https://dc.lft.to/lastmile_qr_scan", "ios": "https://dc.lft.to/lastmile_qr_scan"}, "fusion_lon": 0.0, "lat": 38.902835833333334, "bike_id": "332a6e28e8003485718ceed613a0604f", "type": "electric_scooter", "is_reserved": 0, "lon": -77.03478616666666}, {"fusion_lat": 0.0, "name": "854e4e5387a1a9b4b0b28be93edc3424", "is_disabled": 0, "rental_uris": {"android": "https://dc.lft.to/lastmile_qr_scan", "ios": "https://dc.lft.to/lastmile_qr_scan"}, "fusion_lon": 0.0, "lat": 38.91903033333333, "bike_id": "854e4e5387a1a9b4b0b28be93edc3424", "type": "electric_scooter", "is_reserved": 0, "lon": -77.02753783333333}, {"fusion_lat": 0.0, "name": "d14e616d939a026257c036b5564a7314", "is_disabled": 0, "rental_uris": {"android": "https://dc.lft.to/lastmile_qr_scan", "ios": "https://dc.lft.to/lastmile_qr_scan"}, "fusion_lon": 0.0, "lat": 38.897319333333336, "bike_id": "d14e616d939a026257c036b5564a7314", "type": "electric_scooter", "is_reserved": 0, "lon": -76.946972}, {"fusion_lat": 0.0, "name": "e6cfceb0d74e5614d44f951aac41d65f", "is_disabled": 0, "rental_uris": {"android": "https://dc.lft.to/lastmile_qr_scan", "ios": "https://dc.lft.to/lastmile_qr_scan"}, "fusion_lon": 0.0, "lat": 38.91754316666667, "bike_id": "e6cfceb0d74e5614d44f951aac41d65f", "type": "electric_scooter", "is_reserved": 0, "lon": -77.02703666666666}, {"fusion_lat": 0.0, "name": "42606b21441026b0a991a8337402f874", "is_disabled": 0, "rental_uris": {"android": "https://dc.lft.to/lastmile_qr_scan", "ios": "https://dc.lft.to/lastmile_qr_scan"}, "fusion_lon": 0.0, "lat": 38.91816583333333, "bike_id": "42606b21441026b0a991a8337402f874", "type": "electric_bike", "is_reserved": 0, "lon": -77.0247925}, {"fusion_lat": 0.0, "name": "6f249f7a004e023df2f56951b731830e", "is_disabled": 0, "rental_uris": {"android": "https://dc.lft.to/lastmile_qr_scan", "ios": "https://dc.lft.to/lastmile_qr_scan"}, "fusion_lon": 0.0, "lat": 38.900378833333335, "bike_id": "6f249f7a004e023df2f56951b731830e", "type": "electric_scooter", "is_reserved": 0, "lon": -77.05820733333333}, {"fusion_lat": 0.0, "name": "cd7ce64d99a121e3ca8e2528bf7a1649", "is_disabled": 0, "rental_uris": {"android": "https://dc.lft.to/lastmile_qr_scan", "ios": "https://dc.lft.to/lastmile_qr_scan"}, "fusion_lon": 0.0, "lat": 38.916037, "bike_id": "cd7ce64d99a121e3ca8e2528bf7a1649", "type": "electric_scooter", "is_reserved": 0, "lon": -77.0320945}, {"fusion_lat": 0.0, "name": "9f57f949e047feab51dae5c87dd4cae5", "is_disabled": 0, "rental_uris": {"android": "https://dc.lft.to/lastmile_qr_scan", "ios": "https://dc.lft.to/lastmile_qr_scan"}, "fusion_lon": 0.0, "lat": 38.91548683333333, "bike_id": "9f57f949e047feab51dae5c87dd4cae5", "type": "electric_scooter", "is_reserved": 0, "lon": -77.0120265}, {"fusion_lat": 0.0, "name": "9f129ae4c8091ca018e18a9eb733fe4d", "is_disabled": 0, "rental_uris": {"android": "https://dc.lft.to/lastmile_qr_scan", "ios": "https://dc.lft.to/lastmile_qr_scan"}, "fusion_lon": 0.0, "lat": 38.897888333333334, "bike_id": "9f129ae4c8091ca018e18a9eb733fe4d", "type": "electric_scooter", "is_reserved": 0, "lon": -77.03335116666666}, {"fusion_lat": 0.0, "name": "d82b036fb8d526a9336c855c83d2a75b", "is_disabled": 0, "rental_uris": {"android": "https://dc.lft.to/lastmile_qr_scan", "ios": "https://dc.lft.to/lastmile_qr_scan"}, "fusion_lon": 0.0, "lat": 38.9057545, "bike_id": "d82b036fb8d526a9336c855c83d2a75b", "type": "electric_scooter", "is_reserved": 0, "lon": -77.03839366666666}, {"fusion_lat": 0.0, "name": "376ce4ce1c2f9b6fb8244f6b679f0703", "is_disabled": 0, "rental_uris": {"android": "https://dc.lft.to/lastmile_qr_scan", "ios": "https://dc.lft.to/lastmile_qr_scan"}, "fusion_lon": 0.0, "lat": 38.906172166666664, "bike_id": "376ce4ce1c2f9b6fb8244f6b679f0703", "type": "electric_scooter", "is_reserved": 0, "lon": -77.02409433333334}, {"fusion_lat": 0.0, "name": "b36523917e16d4bb1f27eb13c421d59f", "is_disabled": 0, "rental_uris": {"android": "https://dc.lft.to/lastmile_qr_scan", "ios": "https://dc.lft.to/lastmile_qr_scan"}, "fusion_lon": 0.0, "lat": 38.87335066666667, "bike_id": "b36523917e16d4bb1f27eb13c421d59f", "type": "electric_bike", "is_reserved": 0, "lon": -77.08213716666667}, {"fusion_lat": 0.0, "name": "367474411dd3fd95ea612adfe269ab4d", "is_disabled": 0, "rental_uris": {"android": "https://dc.lft.to/lastmile_qr_scan", "ios": "https://dc.lft.to/lastmile_qr_scan"}, "fusion_lon": 0.0, "lat": 38.919278166666665, "bike_id": "367474411dd3fd95ea612adfe269ab4d", "type": "electric_scooter", "is_reserved": 0, "lon": -77.07086166666667}, {"fusion_lat": 0.0, "name": "0eed6602f0640c483a557840fc58a3c8", "is_disabled": 0, "rental_uris": {"android": "https://dc.lft.to/lastmile_qr_scan", "ios": "https://dc.lft.to/lastmile_qr_scan"}, "fusion_lon": 0.0, "lat": 38.92132483333334, "bike_id": "0eed6602f0640c483a557840fc58a3c8", "type": "electric_scooter", "is_reserved": 0, "lon": -77.04430666666667}, {"fusion_lat": 0.0, "name": "2a69913995e61266acf64e481d96f70d", "is_disabled": 0, "rental_uris": {"android": "https://dc.lft.to/lastmile_qr_scan", "ios": "https://dc.lft.to/lastmile_qr_scan"}, "fusion_lon": 0.0, "lat": 38.910211, "bike_id": "2a69913995e61266acf64e481d96f70d", "type": "electric_scooter", "is_reserved": 0, "lon": -77.00915533333334}, {"fusion_lat": 0.0, "name": "e96b50a215eee9ca5b61608244ba1106", "is_disabled": 0, "rental_uris": {"android": "https://dc.lft.to/lastmile_qr_scan", "ios": "https://dc.lft.to/lastmile_qr_scan"}, "fusion_lon": 0.0, "lat": 38.917131166666664, "bike_id": "e96b50a215eee9ca5b61608244ba1106", "type": "electric_scooter", "is_reserved": 0, "lon": -77.03355266666667}, {"fusion_lat": 0.0, "name": "40873ce0e6362e6753a160db44cdeb6e", "is_disabled": 0, "rental_uris": {"android": "https://dc.lft.to/lastmile_qr_scan", "ios": "https://dc.lft.to/lastmile_qr_scan"}, "fusion_lon": 0.0, "lat": 38.80023516666667, "bike_id": "40873ce0e6362e6753a160db44cdeb6e", "type": "electric_bike", "is_reserved": 0, "lon": -77.05478716666667}, {"fusion_lat": 0.0, "name": "e18b1a5240e24183d25de1d454d4e1c5", "is_disabled": 0, "rental_uris": {"android": "https://dc.lft.to/lastmile_qr_scan", "ios": "https://dc.lft.to/lastmile_qr_scan"}, "fusion_lon": 0.0, "lat": 38.904767, "bike_id": "e18b1a5240e24183d25de1d454d4e1c5", "type": "electric_scooter", "is_reserved": 0, "lon": -77.043482}, {"fusion_lat": 0.0, "name": "508987acd8c594dbb2d2fc8137aaa565", "is_disabled": 0, "rental_uris": {"android": "https://dc.lft.to/lastmile_qr_scan", "ios": "https://dc.lft.to/lastmile_qr_scan"}, "fusion_lon": 0.0, "lat": 38.933033, "bike_id": "508987acd8c594dbb2d2fc8137aaa565", "type": "electric_scooter", "is_reserved": 0, "lon": -77.03251216666666}, {"fusion_lat": 0.0, "name": "94fa253aee9859c2ac3e7b5dea152bf9", "is_disabled": 0, "rental_uris": {"android": "https://dc.lft.to/lastmile_qr_scan", "ios": "https://dc.lft.to/lastmile_qr_scan"}, "fusion_lon": 0.0, "lat": 38.87634216666667, "bike_id": "94fa253aee9859c2ac3e7b5dea152bf9", "type": "electric_scooter", "is_reserved": 0, "lon": -77.00948866666667}, {"fusion_lat": 0.0, "name": "e059588fd6bd79e7d7350f7a5adf36a2", "is_disabled": 0, "rental_uris": {"android": "https://dc.lft.to/lastmile_qr_scan", "ios": "https://dc.lft.to/lastmile_qr_scan"}, "fusion_lon": 0.0, "lat": 38.918144833333336, "bike_id": "e059588fd6bd79e7d7350f7a5adf36a2", "type": "electric_scooter", "is_reserved": 0, "lon": -77.033406}, {"fusion_lat": 0.0, "name": "65084049cd47acc91e04ba5ebd1ffdc4", "is_disabled": 0, "rental_uris": {"android": "https://dc.lft.to/lastmile_qr_scan", "ios": "https://dc.lft.to/lastmile_qr_scan"}, "fusion_lon": 0.0, "lat": 38.916691, "bike_id": "65084049cd47acc91e04ba5ebd1ffdc4", "type": "electric_scooter", "is_reserved": 0, "lon": -77.02415816666667}, {"fusion_lat": 0.0, "name": "dbc70b170223599ea26e86f6ff2ef862", "is_disabled": 0, "rental_uris": {"android": "https://dc.lft.to/lastmile_qr_scan", "ios": "https://dc.lft.to/lastmile_qr_scan"}, "fusion_lon": 0.0, "lat": 38.919132, "bike_id": "dbc70b170223599ea26e86f6ff2ef862", "type": "electric_scooter", "is_reserved": 0, "lon": -77.0121375}, {"fusion_lat": 0.0, "name": "c3354e3ee77c0ea9f97f373bce345401", "is_disabled": 0, "rental_uris": {"android": "https://dc.lft.to/lastmile_qr_scan", "ios": "https://dc.lft.to/lastmile_qr_scan"}, "fusion_lon": 0.0, "lat": 38.87943516666667, "bike_id": "c3354e3ee77c0ea9f97f373bce345401", "type": "electric_scooter", "is_reserved": 0, "lon": -77.02370733333333}, {"fusion_lat": 0.0, "name": "432b2b691a5ae4423553a5c655093e9b", "is_disabled": 0, "rental_uris": {"android": "https://dc.lft.to/lastmile_qr_scan", "ios": "https://dc.lft.to/lastmile_qr_scan"}, "fusion_lon": 0.0, "lat": 38.92606816666667, "bike_id": "432b2b691a5ae4423553a5c655093e9b", "type": "electric_scooter", "is_reserved": 0, "lon": -77.02222716666667}, {"fusion_lat": 0.0, "name": "24b6bcd8f4de677334548a6de18decad", "is_disabled": 0, "rental_uris": {"android": "https://dc.lft.to/lastmile_qr_scan", "ios": "https://dc.lft.to/lastmile_qr_scan"}, "fusion_lon": 0.0, "lat": 38.940158833333335, "bike_id": "24b6bcd8f4de677334548a6de18decad", "type": "electric_scooter", "is_reserved": 0, "lon": -77.02776433333334}, {"fusion_lat": 0.0, "name": "c05f9db152a09ceadf166cc8d4dcbe76", "is_disabled": 0, "rental_uris": {"android": "https://dc.lft.to/lastmile_qr_scan", "ios": "https://dc.lft.to/lastmile_qr_scan"}, "fusion_lon": 0.0, "lat": 38.92614183333333, "bike_id": "c05f9db152a09ceadf166cc8d4dcbe76", "type": "electric_scooter", "is_reserved": 0, "lon": -77.0216615}, {"fusion_lat": 0.0, "name": "4b47ce1e43fcefc4077fdc48a59809fc", "is_disabled": 0, "rental_uris": {"android": "https://dc.lft.to/lastmile_qr_scan", "ios": "https://dc.lft.to/lastmile_qr_scan"}, "fusion_lon": 0.0, "lat": 38.919274, "bike_id": "4b47ce1e43fcefc4077fdc48a59809fc", "type": "electric_scooter", "is_reserved": 0, "lon": -77.0251265}, {"fusion_lat": 0.0, "name": "fa89b290ef96fc9ae73519b8e6eb580d", "is_disabled": 0, "rental_uris": {"android": "https://dc.lft.to/lastmile_qr_scan", "ios": "https://dc.lft.to/lastmile_qr_scan"}, "fusion_lon": 0.0, "lat": 38.92925733333333, "bike_id": "fa89b290ef96fc9ae73519b8e6eb580d", "type": "electric_scooter", "is_reserved": 0, "lon": -77.02049833333334}, {"fusion_lat": 0.0, "name": "020077dae3d6f7e8b48f485556b62799", "is_disabled": 0, "rental_uris": {"android": "https://dc.lft.to/lastmile_qr_scan", "ios": "https://dc.lft.to/lastmile_qr_scan"}, "fusion_lon": 0.0, "lat": 38.896054, "bike_id": "020077dae3d6f7e8b48f485556b62799", "type": "electric_scooter", "is_reserved": 0, "lon": -77.03233916666667}, {"fusion_lat": 0.0, "name": "cb9543eb19a539ecc5b5cc98a585357c", "is_disabled": 0, "rental_uris": {"android": "https://dc.lft.to/lastmile_qr_scan", "ios": "https://dc.lft.to/lastmile_qr_scan"}, "fusion_lon": 0.0, "lat": 38.90973816666666, "bike_id": "cb9543eb19a539ecc5b5cc98a585357c", "type": "electric_scooter", "is_reserved": 0, "lon": -77.03381216666666}, {"fusion_lat": 0.0, "name": "a6dfbf6bee75673ef1d4500c153b9b87", "is_disabled": 0, "rental_uris": {"android": "https://dc.lft.to/lastmile_qr_scan", "ios": "https://dc.lft.to/lastmile_qr_scan"}, "fusion_lon": 0.0, "lat": 38.907678, "bike_id": "a6dfbf6bee75673ef1d4500c153b9b87", "type": "electric_scooter", "is_reserved": 0, "lon": -77.032093}, {"fusion_lat": 0.0, "name": "d912e7238d6dd1f129f7c688b28bf600", "is_disabled": 0, "rental_uris": {"android": "https://dc.lft.to/lastmile_qr_scan", "ios": "https://dc.lft.to/lastmile_qr_scan"}, "fusion_lon": 0.0, "lat": 38.9170865, "bike_id": "d912e7238d6dd1f129f7c688b28bf600", "type": "electric_scooter", "is_reserved": 0, "lon": -77.032434}, {"fusion_lat": 0.0, "name": "e783245a700e3d457faa9de59de67bbc", "is_disabled": 0, "rental_uris": {"android": "https://dc.lft.to/lastmile_qr_scan", "ios": "https://dc.lft.to/lastmile_qr_scan"}, "fusion_lon": 0.0, "lat": 38.9239785, "bike_id": "e783245a700e3d457faa9de59de67bbc", "type": "electric_scooter", "is_reserved": 0, "lon": -77.042929}, {"fusion_lat": 0.0, "name": "7885a18f3461a9b808cc5844d6b6f022", "is_disabled": 0, "rental_uris": {"android": "https://dc.lft.to/lastmile_qr_scan", "ios": "https://dc.lft.to/lastmile_qr_scan"}, "fusion_lon": 0.0, "lat": 38.92386166666667, "bike_id": "7885a18f3461a9b808cc5844d6b6f022", "type": "electric_scooter", "is_reserved": 0, "lon": -77.05182633333334}, {"fusion_lat": 0.0, "name": "e3cb242955aa61015aac0205272fd6be", "is_disabled": 0, "rental_uris": {"android": "https://dc.lft.to/lastmile_qr_scan", "ios": "https://dc.lft.to/lastmile_qr_scan"}, "fusion_lon": 0.0, "lat": 38.90007466666667, "bike_id": "e3cb242955aa61015aac0205272fd6be", "type": "electric_scooter", "is_reserved": 0, "lon": -77.00664616666667}, {"fusion_lat": 0.0, "name": "0d64ac9e02571b28c8322ba7e11db2aa", "is_disabled": 0, "rental_uris": {"android": "https://dc.lft.to/lastmile_qr_scan", "ios": "https://dc.lft.to/lastmile_qr_scan"}, "fusion_lon": 0.0, "lat": 38.897062166666664, "bike_id": "0d64ac9e02571b28c8322ba7e11db2aa", "type": "electric_scooter", "is_reserved": 0, "lon": -77.01305483333333}, {"fusion_lat": 0.0, "name": "95a8cce588b85fc62731bbaf71b04d33", "is_disabled": 0, "rental_uris": {"android": "https://dc.lft.to/lastmile_qr_scan", "ios": "https://dc.lft.to/lastmile_qr_scan"}, "fusion_lon": 0.0, "lat": 38.90425233333333, "bike_id": "95a8cce588b85fc62731bbaf71b04d33", "type": "electric_scooter", "is_reserved": 0, "lon": -76.94977516666667}, {"fusion_lat": 0.0, "name": "f795e2faa1f87e053af773d4c84e9e1d", "is_disabled": 0, "rental_uris": {"android": "https://dc.lft.to/lastmile_qr_scan", "ios": "https://dc.lft.to/lastmile_qr_scan"}, "fusion_lon": 0.0, "lat": 38.885234, "bike_id": "f795e2faa1f87e053af773d4c84e9e1d", "type": "electric_scooter", "is_reserved": 0, "lon": -77.01508566666666}, {"fusion_lat": 0.0, "name": "00726e0c78b30174985e24ea5c1f2e6a", "is_disabled": 0, "rental_uris": {"android": "https://dc.lft.to/lastmile_qr_scan", "ios": "https://dc.lft.to/lastmile_qr_scan"}, "fusion_lon": 0.0, "lat": 38.913993166666664, "bike_id": "00726e0c78b30174985e24ea5c1f2e6a", "type": "electric_scooter", "is_reserved": 0, "lon": -77.03183716666666}, {"fusion_lat": 0.0, "name": "d247d147e90dc9fe76e530b34e058b74", "is_disabled": 0, "rental_uris": {"android": "https://dc.lft.to/lastmile_qr_scan", "ios": "https://dc.lft.to/lastmile_qr_scan"}, "fusion_lon": 0.0, "lat": 38.88537433333333, "bike_id": "d247d147e90dc9fe76e530b34e058b74", "type": "electric_scooter", "is_reserved": 0, "lon": -77.000577}, {"fusion_lat": 0.0, "name": "11236d61c848de210468beb770c1edea", "is_disabled": 0, "rental_uris": {"android": "https://dc.lft.to/lastmile_qr_scan", "ios": "https://dc.lft.to/lastmile_qr_scan"}, "fusion_lon": 0.0, "lat": 38.93699766666667, "bike_id": "11236d61c848de210468beb770c1edea", "type": "electric_scooter", "is_reserved": 0, "lon": -77.0560355}, {"fusion_lat": 0.0, "name": "a1df0b621c573392cff54c3d443abf9e", "is_disabled": 0, "rental_uris": {"android": "https://dc.lft.to/lastmile_qr_scan", "ios": "https://dc.lft.to/lastmile_qr_scan"}, "fusion_lon": 0.0, "lat": 38.90526933333334, "bike_id": "a1df0b621c573392cff54c3d443abf9e", "type": "electric_scooter", "is_reserved": 0, "lon": -77.06424816666667}, {"fusion_lat": 0.0, "name": "0537544a5f64689aa42b497aa189ac5a", "is_disabled": 0, "rental_uris": {"android": "https://dc.lft.to/lastmile_qr_scan", "ios": "https://dc.lft.to/lastmile_qr_scan"}, "fusion_lon": 0.0, "lat": 38.917563666666666, "bike_id": "0537544a5f64689aa42b497aa189ac5a", "type": "electric_scooter", "is_reserved": 0, "lon": -77.03073783333333}, {"fusion_lat": 0.0, "name": "7bce9ebe7a4f3e0ea2291fcbf79a7097", "is_disabled": 0, "rental_uris": {"android": "https://dc.lft.to/lastmile_qr_scan", "ios": "https://dc.lft.to/lastmile_qr_scan"}, "fusion_lon": 0.0, "lat": 38.92587416666667, "bike_id": "7bce9ebe7a4f3e0ea2291fcbf79a7097", "type": "electric_scooter", "is_reserved": 0, "lon": -77.04408083333334}, {"fusion_lat": 0.0, "name": "9cfef9fbf04a99b72b31560fff5c195d", "is_disabled": 0, "rental_uris": {"android": "https://dc.lft.to/lastmile_qr_scan", "ios": "https://dc.lft.to/lastmile_qr_scan"}, "fusion_lon": 0.0, "lat": 38.89713583333333, "bike_id": "9cfef9fbf04a99b72b31560fff5c195d", "type": "electric_scooter", "is_reserved": 0, "lon": -77.02343766666667}, {"fusion_lat": 0.0, "name": "e83e6cb4e763269ab6ae1776f2a4e539", "is_disabled": 0, "rental_uris": {"android": "https://dc.lft.to/lastmile_qr_scan", "ios": "https://dc.lft.to/lastmile_qr_scan"}, "fusion_lon": 0.0, "lat": 38.92139433333333, "bike_id": "e83e6cb4e763269ab6ae1776f2a4e539", "type": "electric_scooter", "is_reserved": 0, "lon": -77.0180245}, {"fusion_lat": 0.0, "name": "1a6ad261617a1f312975db0a8651320c", "is_disabled": 0, "rental_uris": {"android": "https://dc.lft.to/lastmile_qr_scan", "ios": "https://dc.lft.to/lastmile_qr_scan"}, "fusion_lon": 0.0, "lat": 38.89714333333333, "bike_id": "1a6ad261617a1f312975db0a8651320c", "type": "electric_scooter", "is_reserved": 0, "lon": -77.02342516666667}, {"fusion_lat": 0.0, "name": "aec9fcf5908a343b204d1c2d09560bc2", "is_disabled": 0, "rental_uris": {"android": "https://dc.lft.to/lastmile_qr_scan", "ios": "https://dc.lft.to/lastmile_qr_scan"}, "fusion_lon": 0.0, "lat": 38.911149333333334, "bike_id": "aec9fcf5908a343b204d1c2d09560bc2", "type": "electric_scooter", "is_reserved": 0, "lon": -77.08132883333333}, {"fusion_lat": 0.0, "name": "8e2dcfa6361f16ed522bfe5b638c87a4", "is_disabled": 0, "rental_uris": {"android": "https://dc.lft.to/lastmile_qr_scan", "ios": "https://dc.lft.to/lastmile_qr_scan"}, "fusion_lon": 0.0, "lat": 38.92544183333333, "bike_id": "8e2dcfa6361f16ed522bfe5b638c87a4", "type": "electric_scooter", "is_reserved": 0, "lon": -77.02581983333333}, {"fusion_lat": 0.0, "name": "d292341f5ae17eeb590ebc627da1941a", "is_disabled": 0, "rental_uris": {"android": "https://dc.lft.to/lastmile_qr_scan", "ios": "https://dc.lft.to/lastmile_qr_scan"}, "fusion_lon": 0.0, "lat": 38.90951483333333, "bike_id": "d292341f5ae17eeb590ebc627da1941a", "type": "electric_bike", "is_reserved": 0, "lon": -76.98449066666667}, {"fusion_lat": 0.0, "name": "8a9bd139185fb039e74301d7ecd2a398", "is_disabled": 0, "rental_uris": {"android": "https://dc.lft.to/lastmile_qr_scan", "ios": "https://dc.lft.to/lastmile_qr_scan"}, "fusion_lon": 0.0, "lat": 38.90762866666667, "bike_id": "8a9bd139185fb039e74301d7ecd2a398", "type": "electric_scooter", "is_reserved": 0, "lon": -77.05691916666666}, {"fusion_lat": 0.0, "name": "2f5758b67869be648cf5d88ab84a399d", "is_disabled": 0, "rental_uris": {"android": "https://dc.lft.to/lastmile_qr_scan", "ios": "https://dc.lft.to/lastmile_qr_scan"}, "fusion_lon": 0.0, "lat": 38.925172833333335, "bike_id": "2f5758b67869be648cf5d88ab84a399d", "type": "electric_scooter", "is_reserved": 0, "lon": -77.02359933333334}, {"fusion_lat": 0.0, "name": "5048db3973790e25939f71660736600f", "is_disabled": 0, "rental_uris": {"android": "https://dc.lft.to/lastmile_qr_scan", "ios": "https://dc.lft.to/lastmile_qr_scan"}, "fusion_lon": 0.0, "lat": 38.920481333333335, "bike_id": "5048db3973790e25939f71660736600f", "type": "electric_scooter", "is_reserved": 0, "lon": -77.00208566666667}, {"fusion_lat": 0.0, "name": "a78247eb226d864cb02831db3d044ac8", "is_disabled": 0, "rental_uris": {"android": "https://dc.lft.to/lastmile_qr_scan", "ios": "https://dc.lft.to/lastmile_qr_scan"}, "fusion_lon": 0.0, "lat": 38.85513066666667, "bike_id": "a78247eb226d864cb02831db3d044ac8", "type": "electric_bike", "is_reserved": 0, "lon": -77.10540333333333}, {"fusion_lat": 0.0, "name": "c502253e3615c586dabb24563364e751", "is_disabled": 0, "rental_uris": {"android": "https://dc.lft.to/lastmile_qr_scan", "ios": "https://dc.lft.to/lastmile_qr_scan"}, "fusion_lon": 0.0, "lat": 38.8874385, "bike_id": "c502253e3615c586dabb24563364e751", "type": "electric_scooter", "is_reserved": 0, "lon": -76.99624966666667}, {"fusion_lat": 0.0, "name": "2a7d15e2c89c60f2c0058335e58abfcb", "is_disabled": 0, "rental_uris": {"android": "https://dc.lft.to/lastmile_qr_scan", "ios": "https://dc.lft.to/lastmile_qr_scan"}, "fusion_lon": 0.0, "lat": 38.9233375, "bike_id": "2a7d15e2c89c60f2c0058335e58abfcb", "type": "electric_scooter", "is_reserved": 0, "lon": -77.043064}, {"fusion_lat": 0.0, "name": "8b1112ebde87300b789a2cc3e80d9f59", "is_disabled": 0, "rental_uris": {"android": "https://dc.lft.to/lastmile_qr_scan", "ios": "https://dc.lft.to/lastmile_qr_scan"}, "fusion_lon": 0.0, "lat": 38.903164, "bike_id": "8b1112ebde87300b789a2cc3e80d9f59", "type": "electric_scooter", "is_reserved": 0, "lon": -76.97796616666666}, {"fusion_lat": 0.0, "name": "ad8c89c1c2c45bc73e814af0923991e3", "is_disabled": 0, "rental_uris": {"android": "https://dc.lft.to/lastmile_qr_scan", "ios": "https://dc.lft.to/lastmile_qr_scan"}, "fusion_lon": 0.0, "lat": 38.92879533333333, "bike_id": "ad8c89c1c2c45bc73e814af0923991e3", "type": "electric_scooter", "is_reserved": 0, "lon": -77.033439}, {"fusion_lat": 0.0, "name": "9a16cfb4a71521fa49df5fd51081d8ca", "is_disabled": 0, "rental_uris": {"android": "https://dc.lft.to/lastmile_qr_scan", "ios": "https://dc.lft.to/lastmile_qr_scan"}, "fusion_lon": 0.0, "lat": 38.88019933333333, "bike_id": "9a16cfb4a71521fa49df5fd51081d8ca", "type": "electric_scooter", "is_reserved": 0, "lon": -76.9311495}, {"fusion_lat": 0.0, "name": "ef273a0feba83129b63432fb8d6f30b9", "is_disabled": 0, "rental_uris": {"android": "https://dc.lft.to/lastmile_qr_scan", "ios": "https://dc.lft.to/lastmile_qr_scan"}, "fusion_lon": 0.0, "lat": 38.90153566666667, "bike_id": "ef273a0feba83129b63432fb8d6f30b9", "type": "electric_scooter", "is_reserved": 0, "lon": -77.0182665}, {"fusion_lat": 0.0, "name": "858ccd100ef32ecd29c015e4a07b0c88", "is_disabled": 0, "rental_uris": {"android": "https://dc.lft.to/lastmile_qr_scan", "ios": "https://dc.lft.to/lastmile_qr_scan"}, "fusion_lon": 0.0, "lat": 38.888727833333334, "bike_id": "858ccd100ef32ecd29c015e4a07b0c88", "type": "electric_scooter", "is_reserved": 0, "lon": -76.98450333333334}, {"fusion_lat": 0.0, "name": "95690799119e1f0ca3f6d54f82af0303", "is_disabled": 0, "rental_uris": {"android": "https://dc.lft.to/lastmile_qr_scan", "ios": "https://dc.lft.to/lastmile_qr_scan"}, "fusion_lon": 0.0, "lat": 38.91975, "bike_id": "95690799119e1f0ca3f6d54f82af0303", "type": "electric_scooter", "is_reserved": 0, "lon": -77.00108533333334}, {"fusion_lat": 0.0, "name": "98bc14ef0d6c59a4b4d17ea5061bff4f", "is_disabled": 0, "rental_uris": {"android": "https://dc.lft.to/lastmile_qr_scan", "ios": "https://dc.lft.to/lastmile_qr_scan"}, "fusion_lon": 0.0, "lat": 38.87917366666667, "bike_id": "98bc14ef0d6c59a4b4d17ea5061bff4f", "type": "electric_scooter", "is_reserved": 0, "lon": -76.995081}, {"fusion_lat": 0.0, "name": "fae645b97f2f9397a0d750bd2e4afb2b", "is_disabled": 0, "rental_uris": {"android": "https://dc.lft.to/lastmile_qr_scan", "ios": "https://dc.lft.to/lastmile_qr_scan"}, "fusion_lon": 0.0, "lat": 38.90187916666667, "bike_id": "fae645b97f2f9397a0d750bd2e4afb2b", "type": "electric_scooter", "is_reserved": 0, "lon": -76.92902933333333}, {"fusion_lat": 0.0, "name": "6a54e5fed920fc63feb42ed14a457f18", "is_disabled": 0, "rental_uris": {"android": "https://dc.lft.to/lastmile_qr_scan", "ios": "https://dc.lft.to/lastmile_qr_scan"}, "fusion_lon": 0.0, "lat": 38.909708, "bike_id": "6a54e5fed920fc63feb42ed14a457f18", "type": "electric_scooter", "is_reserved": 0, "lon": -77.03406166666667}, {"fusion_lat": 0.0, "name": "e5c80b32b809142867e9862acac7a416", "is_disabled": 0, "rental_uris": {"android": "https://dc.lft.to/lastmile_qr_scan", "ios": "https://dc.lft.to/lastmile_qr_scan"}, "fusion_lon": 0.0, "lat": 38.900359, "bike_id": "e5c80b32b809142867e9862acac7a416", "type": "electric_scooter", "is_reserved": 0, "lon": -77.02592383333334}, {"fusion_lat": 0.0, "name": "c8915373ae746305bfb637e9c3aaea13", "is_disabled": 0, "rental_uris": {"android": "https://dc.lft.to/lastmile_qr_scan", "ios": "https://dc.lft.to/lastmile_qr_scan"}, "fusion_lon": 0.0, "lat": 38.89961066666667, "bike_id": "c8915373ae746305bfb637e9c3aaea13", "type": "electric_scooter", "is_reserved": 0, "lon": -77.01509333333334}, {"fusion_lat": 0.0, "name": "4e597e3229ae5568e473853b3cde6a39", "is_disabled": 0, "rental_uris": {"android": "https://dc.lft.to/lastmile_qr_scan", "ios": "https://dc.lft.to/lastmile_qr_scan"}, "fusion_lon": 0.0, "lat": 39.010767333333334, "bike_id": "4e597e3229ae5568e473853b3cde6a39", "type": "electric_bike", "is_reserved": 0, "lon": -76.9106365}, {"fusion_lat": 0.0, "name": "eea0eef1a046da60fe5b176660274b49", "is_disabled": 0, "rental_uris": {"android": "https://dc.lft.to/lastmile_qr_scan", "ios": "https://dc.lft.to/lastmile_qr_scan"}, "fusion_lon": 0.0, "lat": 38.92203683333334, "bike_id": "eea0eef1a046da60fe5b176660274b49", "type": "electric_scooter", "is_reserved": 0, "lon": -77.04128966666667}, {"fusion_lat": 0.0, "name": "1bdf44b06edbf13ecf50355cbf540734", "is_disabled": 0, "rental_uris": {"android": "https://dc.lft.to/lastmile_qr_scan", "ios": "https://dc.lft.to/lastmile_qr_scan"}, "fusion_lon": 0.0, "lat": 38.92414616666667, "bike_id": "1bdf44b06edbf13ecf50355cbf540734", "type": "electric_scooter", "is_reserved": 0, "lon": -77.02011116666667}, {"fusion_lat": 0.0, "name": "e6209f4a67c4542972a02d220eb39459", "is_disabled": 0, "rental_uris": {"android": "https://dc.lft.to/lastmile_qr_scan", "ios": "https://dc.lft.to/lastmile_qr_scan"}, "fusion_lon": 0.0, "lat": 38.929193, "bike_id": "e6209f4a67c4542972a02d220eb39459", "type": "electric_scooter", "is_reserved": 0, "lon": -77.02637983333334}, {"fusion_lat": 0.0, "name": "dacade522dcdac9b7ec7a5ba8e01872d", "is_disabled": 0, "rental_uris": {"android": "https://dc.lft.to/lastmile_qr_scan", "ios": "https://dc.lft.to/lastmile_qr_scan"}, "fusion_lon": 0.0, "lat": 38.92354133333333, "bike_id": "dacade522dcdac9b7ec7a5ba8e01872d", "type": "electric_scooter", "is_reserved": 0, "lon": -77.01959633333334}, {"fusion_lat": 0.0, "name": "2a2cf2dc174ef66708b871dbf7d2b4ab", "is_disabled": 0, "rental_uris": {"android": "https://dc.lft.to/lastmile_qr_scan", "ios": "https://dc.lft.to/lastmile_qr_scan"}, "fusion_lon": 0.0, "lat": 38.94229833333333, "bike_id": "2a2cf2dc174ef66708b871dbf7d2b4ab", "type": "electric_scooter", "is_reserved": 0, "lon": -77.02334733333333}, {"fusion_lat": 0.0, "name": "4c9931ae5ee4968b60d639269344e41c", "is_disabled": 0, "rental_uris": {"android": "https://dc.lft.to/lastmile_qr_scan", "ios": "https://dc.lft.to/lastmile_qr_scan"}, "fusion_lon": 0.0, "lat": 38.938007, "bike_id": "4c9931ae5ee4968b60d639269344e41c", "type": "electric_scooter", "is_reserved": 0, "lon": -77.06859333333334}, {"fusion_lat": 0.0, "name": "9ea61d38e7e7cb9c945b9bb236cf49f4", "is_disabled": 0, "rental_uris": {"android": "https://dc.lft.to/lastmile_qr_scan", "ios": "https://dc.lft.to/lastmile_qr_scan"}, "fusion_lon": 0.0, "lat": 38.907672, "bike_id": "9ea61d38e7e7cb9c945b9bb236cf49f4", "type": "electric_scooter", "is_reserved": 0, "lon": -77.03210416666667}, {"fusion_lat": 0.0, "name": "93b10561a5401a0005ef4318d4bdc5c2", "is_disabled": 0, "rental_uris": {"android": "https://dc.lft.to/lastmile_qr_scan", "ios": "https://dc.lft.to/lastmile_qr_scan"}, "fusion_lon": 0.0, "lat": 38.91718816666667, "bike_id": "93b10561a5401a0005ef4318d4bdc5c2", "type": "electric_scooter", "is_reserved": 0, "lon": -77.04153716666667}, {"fusion_lat": 0.0, "name": "6cee77954258098cc23361f422c9aa91", "is_disabled": 0, "rental_uris": {"android": "https://dc.lft.to/lastmile_qr_scan", "ios": "https://dc.lft.to/lastmile_qr_scan"}, "fusion_lon": 0.0, "lat": 38.93051766666667, "bike_id": "6cee77954258098cc23361f422c9aa91", "type": "electric_scooter", "is_reserved": 0, "lon": -77.04063433333333}, {"fusion_lat": 0.0, "name": "bfd4116723bc666c517f6cd4f87561b0", "is_disabled": 0, "rental_uris": {"android": "https://dc.lft.to/lastmile_qr_scan", "ios": "https://dc.lft.to/lastmile_qr_scan"}, "fusion_lon": 0.0, "lat": 38.886630333333336, "bike_id": "bfd4116723bc666c517f6cd4f87561b0", "type": "electric_scooter", "is_reserved": 0, "lon": -77.0282485}, {"fusion_lat": 0.0, "name": "d5d919f2fb5be40352b52631eb52d314", "is_disabled": 0, "rental_uris": {"android": "https://dc.lft.to/lastmile_qr_scan", "ios": "https://dc.lft.to/lastmile_qr_scan"}, "fusion_lon": 0.0, "lat": 38.9284955, "bike_id": "d5d919f2fb5be40352b52631eb52d314", "type": "electric_scooter", "is_reserved": 0, "lon": -76.997768}, {"fusion_lat": 0.0, "name": "6972f539f224431301797831d56d7c49", "is_disabled": 0, "rental_uris": {"android": "https://dc.lft.to/lastmile_qr_scan", "ios": "https://dc.lft.to/lastmile_qr_scan"}, "fusion_lon": 0.0, "lat": 38.90148883333333, "bike_id": "6972f539f224431301797831d56d7c49", "type": "electric_scooter", "is_reserved": 0, "lon": -77.03316133333334}, {"fusion_lat": 0.0, "name": "f84fcadd0e9929cd6c70d621bb0ec403", "is_disabled": 0, "rental_uris": {"android": "https://dc.lft.to/lastmile_qr_scan", "ios": "https://dc.lft.to/lastmile_qr_scan"}, "fusion_lon": 0.0, "lat": 38.884515, "bike_id": "f84fcadd0e9929cd6c70d621bb0ec403", "type": "electric_scooter", "is_reserved": 0, "lon": -76.993892}, {"fusion_lat": 0.0, "name": "39b09d1fa1c883e5632fc2d632993f35", "is_disabled": 0, "rental_uris": {"android": "https://dc.lft.to/lastmile_qr_scan", "ios": "https://dc.lft.to/lastmile_qr_scan"}, "fusion_lon": 0.0, "lat": 38.907272, "bike_id": "39b09d1fa1c883e5632fc2d632993f35", "type": "electric_scooter", "is_reserved": 0, "lon": -77.04368766666667}, {"fusion_lat": 0.0, "name": "af2ea26564477944a63f241376aaf42d", "is_disabled": 0, "rental_uris": {"android": "https://dc.lft.to/lastmile_qr_scan", "ios": "https://dc.lft.to/lastmile_qr_scan"}, "fusion_lon": 0.0, "lat": 38.8067845, "bike_id": "af2ea26564477944a63f241376aaf42d", "type": "electric_bike", "is_reserved": 0, "lon": -77.06915883333333}, {"fusion_lat": 0.0, "name": "9147d0f2463b18228f1844f98ff2dbb7", "is_disabled": 0, "rental_uris": {"android": "https://dc.lft.to/lastmile_qr_scan", "ios": "https://dc.lft.to/lastmile_qr_scan"}, "fusion_lon": 0.0, "lat": 38.91179183333333, "bike_id": "9147d0f2463b18228f1844f98ff2dbb7", "type": "electric_scooter", "is_reserved": 0, "lon": -77.0317795}, {"fusion_lat": 0.0, "name": "d9b47004c38badc0dfab34e9e8f5e10d", "is_disabled": 0, "rental_uris": {"android": "https://dc.lft.to/lastmile_qr_scan", "ios": "https://dc.lft.to/lastmile_qr_scan"}, "fusion_lon": 0.0, "lat": 38.904338333333335, "bike_id": "d9b47004c38badc0dfab34e9e8f5e10d", "type": "electric_scooter", "is_reserved": 0, "lon": -76.99616233333333}, {"fusion_lat": 0.0, "name": "e1847e51816f0f0b194ba89203a88c62", "is_disabled": 0, "rental_uris": {"android": "https://dc.lft.to/lastmile_qr_scan", "ios": "https://dc.lft.to/lastmile_qr_scan"}, "fusion_lon": 0.0, "lat": 38.89224733333333, "bike_id": "e1847e51816f0f0b194ba89203a88c62", "type": "electric_scooter", "is_reserved": 0, "lon": -77.00296733333333}, {"fusion_lat": 0.0, "name": "8606a2e9ef53cbe5cb022387f381c61d", "is_disabled": 0, "rental_uris": {"android": "https://dc.lft.to/lastmile_qr_scan", "ios": "https://dc.lft.to/lastmile_qr_scan"}, "fusion_lon": 0.0, "lat": 38.90562366666666, "bike_id": "8606a2e9ef53cbe5cb022387f381c61d", "type": "electric_scooter", "is_reserved": 0, "lon": -77.02723}, {"fusion_lat": 0.0, "name": "a1947b0c43373f8806fca809e7d10ba8", "is_disabled": 0, "rental_uris": {"android": "https://dc.lft.to/lastmile_qr_scan", "ios": "https://dc.lft.to/lastmile_qr_scan"}, "fusion_lon": 0.0, "lat": 38.95628816666667, "bike_id": "a1947b0c43373f8806fca809e7d10ba8", "type": "electric_bike", "is_reserved": 0, "lon": -76.93870833333334}, {"fusion_lat": 0.0, "name": "d0d82c5cc9502a64148f2d07e4dc5a0c", "is_disabled": 0, "rental_uris": {"android": "https://dc.lft.to/lastmile_qr_scan", "ios": "https://dc.lft.to/lastmile_qr_scan"}, "fusion_lon": 0.0, "lat": 38.92090566666667, "bike_id": "d0d82c5cc9502a64148f2d07e4dc5a0c", "type": "electric_scooter", "is_reserved": 0, "lon": -77.046949}, {"fusion_lat": 0.0, "name": "2ad0ec35a040243da8ca86b62e56385a", "is_disabled": 0, "rental_uris": {"android": "https://dc.lft.to/lastmile_qr_scan", "ios": "https://dc.lft.to/lastmile_qr_scan"}, "fusion_lon": 0.0, "lat": 38.918153333333336, "bike_id": "2ad0ec35a040243da8ca86b62e56385a", "type": "electric_scooter", "is_reserved": 0, "lon": -77.03638016666666}, {"fusion_lat": 0.0, "name": "bff9e790b1cf42623843291e2bce798a", "is_disabled": 0, "rental_uris": {"android": "https://dc.lft.to/lastmile_qr_scan", "ios": "https://dc.lft.to/lastmile_qr_scan"}, "fusion_lon": 0.0, "lat": 38.902367, "bike_id": "bff9e790b1cf42623843291e2bce798a", "type": "electric_scooter", "is_reserved": 0, "lon": -77.05905}, {"fusion_lat": 0.0, "name": "2dc008ab6f84cec770a5f98f45b39da2", "is_disabled": 0, "rental_uris": {"android": "https://dc.lft.to/lastmile_qr_scan", "ios": "https://dc.lft.to/lastmile_qr_scan"}, "fusion_lon": 0.0, "lat": 38.90666216666666, "bike_id": "2dc008ab6f84cec770a5f98f45b39da2", "type": "electric_scooter", "is_reserved": 0, "lon": -77.008832}, {"fusion_lat": 0.0, "name": "23af53390b599f134b8fab4ff9f0d1a1", "is_disabled": 0, "rental_uris": {"android": "https://dc.lft.to/lastmile_qr_scan", "ios": "https://dc.lft.to/lastmile_qr_scan"}, "fusion_lon": 0.0, "lat": 38.903690833333336, "bike_id": "23af53390b599f134b8fab4ff9f0d1a1", "type": "electric_scooter", "is_reserved": 0, "lon": -77.00736566666667}, {"fusion_lat": 0.0, "name": "0ca850f0bdd744ecd57a4939682f8e52", "is_disabled": 0, "rental_uris": {"android": "https://dc.lft.to/lastmile_qr_scan", "ios": "https://dc.lft.to/lastmile_qr_scan"}, "fusion_lon": 0.0, "lat": 38.908951333333334, "bike_id": "0ca850f0bdd744ecd57a4939682f8e52", "type": "electric_scooter", "is_reserved": 0, "lon": -77.03211433333334}, {"fusion_lat": 0.0, "name": "6cb6558b593bcf184823861181c70a89", "is_disabled": 0, "rental_uris": {"android": "https://dc.lft.to/lastmile_qr_scan", "ios": "https://dc.lft.to/lastmile_qr_scan"}, "fusion_lon": 0.0, "lat": 38.983953666666665, "bike_id": "6cb6558b593bcf184823861181c70a89", "type": "electric_scooter", "is_reserved": 0, "lon": -77.02630116666667}, {"fusion_lat": 0.0, "name": "527507ed0c824e0f49193aad79f45d30", "is_disabled": 0, "rental_uris": {"android": "https://dc.lft.to/lastmile_qr_scan", "ios": "https://dc.lft.to/lastmile_qr_scan"}, "fusion_lon": 0.0, "lat": 38.90438016666667, "bike_id": "527507ed0c824e0f49193aad79f45d30", "type": "electric_scooter", "is_reserved": 0, "lon": -77.02974733333333}, {"fusion_lat": 0.0, "name": "97631e1b4227d7bdf4df7a602d250d92", "is_disabled": 0, "rental_uris": {"android": "https://dc.lft.to/lastmile_qr_scan", "ios": "https://dc.lft.to/lastmile_qr_scan"}, "fusion_lon": 0.0, "lat": 38.92793, "bike_id": "97631e1b4227d7bdf4df7a602d250d92", "type": "electric_scooter", "is_reserved": 0, "lon": -76.99561533333333}, {"fusion_lat": 0.0, "name": "255afb2a3b4444868fccfc1c546e4d2f", "is_disabled": 0, "rental_uris": {"android": "https://dc.lft.to/lastmile_qr_scan", "ios": "https://dc.lft.to/lastmile_qr_scan"}, "fusion_lon": 0.0, "lat": 38.892262833333334, "bike_id": "255afb2a3b4444868fccfc1c546e4d2f", "type": "electric_scooter", "is_reserved": 0, "lon": -77.02409916666667}, {"fusion_lat": 0.0, "name": "ab0e260c4cc345c6b4fec27056f5d641", "is_disabled": 0, "rental_uris": {"android": "https://dc.lft.to/lastmile_qr_scan", "ios": "https://dc.lft.to/lastmile_qr_scan"}, "fusion_lon": 0.0, "lat": 38.9215015, "bike_id": "ab0e260c4cc345c6b4fec27056f5d641", "type": "electric_scooter", "is_reserved": 0, "lon": -77.03866466666666}, {"fusion_lat": 0.0, "name": "ba4842baa560721b7dcb19758eaa592c", "is_disabled": 0, "rental_uris": {"android": "https://dc.lft.to/lastmile_qr_scan", "ios": "https://dc.lft.to/lastmile_qr_scan"}, "fusion_lon": 0.0, "lat": 38.899876, "bike_id": "ba4842baa560721b7dcb19758eaa592c", "type": "electric_scooter", "is_reserved": 0, "lon": -77.02714183333333}, {"fusion_lat": 0.0, "name": "b2675dc32e083284f21205945aa9be1a", "is_disabled": 0, "rental_uris": {"android": "https://dc.lft.to/lastmile_qr_scan", "ios": "https://dc.lft.to/lastmile_qr_scan"}, "fusion_lon": 0.0, "lat": 38.94525016666667, "bike_id": "b2675dc32e083284f21205945aa9be1a", "type": "electric_scooter", "is_reserved": 0, "lon": -77.02273983333333}, {"fusion_lat": 0.0, "name": "7c6c9d141131faeb790e272d93496695", "is_disabled": 0, "rental_uris": {"android": "https://dc.lft.to/lastmile_qr_scan", "ios": "https://dc.lft.to/lastmile_qr_scan"}, "fusion_lon": 0.0, "lat": 38.9191305, "bike_id": "7c6c9d141131faeb790e272d93496695", "type": "electric_scooter", "is_reserved": 0, "lon": -77.01222466666667}, {"fusion_lat": 0.0, "name": "29693e6610f4963efbf5343f54d233bc", "is_disabled": 0, "rental_uris": {"android": "https://dc.lft.to/lastmile_qr_scan", "ios": "https://dc.lft.to/lastmile_qr_scan"}, "fusion_lon": 0.0, "lat": 38.93615783333333, "bike_id": "29693e6610f4963efbf5343f54d233bc", "type": "electric_scooter", "is_reserved": 0, "lon": -77.08170983333333}, {"fusion_lat": 0.0, "name": "7463b640f78ac909aababffef60cf0be", "is_disabled": 0, "rental_uris": {"android": "https://dc.lft.to/lastmile_qr_scan", "ios": "https://dc.lft.to/lastmile_qr_scan"}, "fusion_lon": 0.0, "lat": 38.86443166666667, "bike_id": "7463b640f78ac909aababffef60cf0be", "type": "electric_bike", "is_reserved": 0, "lon": -76.975417}, {"fusion_lat": 0.0, "name": "0c00daae3ea0b469fb935fc034f75653", "is_disabled": 0, "rental_uris": {"android": "https://dc.lft.to/lastmile_qr_scan", "ios": "https://dc.lft.to/lastmile_qr_scan"}, "fusion_lon": 0.0, "lat": 38.86629516666667, "bike_id": "0c00daae3ea0b469fb935fc034f75653", "type": "electric_scooter", "is_reserved": 0, "lon": -76.98716633333333}, {"fusion_lat": 0.0, "name": "19635e0f666a06292bae635c8215e698", "is_disabled": 0, "rental_uris": {"android": "https://dc.lft.to/lastmile_qr_scan", "ios": "https://dc.lft.to/lastmile_qr_scan"}, "fusion_lon": 0.0, "lat": 38.95628216666667, "bike_id": "19635e0f666a06292bae635c8215e698", "type": "electric_scooter", "is_reserved": 0, "lon": -77.032806}, {"fusion_lat": 0.0, "name": "64d2087d84423c52a8835ee98cc854ca", "is_disabled": 0, "rental_uris": {"android": "https://dc.lft.to/lastmile_qr_scan", "ios": "https://dc.lft.to/lastmile_qr_scan"}, "fusion_lon": 0.0, "lat": 38.91323233333333, "bike_id": "64d2087d84423c52a8835ee98cc854ca", "type": "electric_scooter", "is_reserved": 0, "lon": -77.03853133333334}, {"fusion_lat": 0.0, "name": "3e634c381d84f748cbcdea4596748f33", "is_disabled": 0, "rental_uris": {"android": "https://dc.lft.to/lastmile_qr_scan", "ios": "https://dc.lft.to/lastmile_qr_scan"}, "fusion_lon": 0.0, "lat": 38.915516, "bike_id": "3e634c381d84f748cbcdea4596748f33", "type": "electric_scooter", "is_reserved": 0, "lon": -77.034775}, {"fusion_lat": 0.0, "name": "5248bafeb892c36b24b856e62b6df686", "is_disabled": 0, "rental_uris": {"android": "https://dc.lft.to/lastmile_qr_scan", "ios": "https://dc.lft.to/lastmile_qr_scan"}, "fusion_lon": 0.0, "lat": 38.9071985, "bike_id": "5248bafeb892c36b24b856e62b6df686", "type": "electric_scooter", "is_reserved": 0, "lon": -77.06899516666667}, {"fusion_lat": 0.0, "name": "49b0d8df11be9fd1213388d89530f6db", "is_disabled": 0, "rental_uris": {"android": "https://dc.lft.to/lastmile_qr_scan", "ios": "https://dc.lft.to/lastmile_qr_scan"}, "fusion_lon": 0.0, "lat": 38.950557333333336, "bike_id": "49b0d8df11be9fd1213388d89530f6db", "type": "electric_scooter", "is_reserved": 0, "lon": -77.08027866666667}, {"fusion_lat": 0.0, "name": "202dc13a61089a49ce276f0d08b48869", "is_disabled": 0, "rental_uris": {"android": "https://dc.lft.to/lastmile_qr_scan", "ios": "https://dc.lft.to/lastmile_qr_scan"}, "fusion_lon": 0.0, "lat": 38.819916, "bike_id": "202dc13a61089a49ce276f0d08b48869", "type": "electric_bike", "is_reserved": 0, "lon": -76.99764766666667}, {"fusion_lat": 0.0, "name": "c5f4131411db8e2f98a7733a185e751b", "is_disabled": 0, "rental_uris": {"android": "https://dc.lft.to/lastmile_qr_scan", "ios": "https://dc.lft.to/lastmile_qr_scan"}, "fusion_lon": 0.0, "lat": 38.923015, "bike_id": "c5f4131411db8e2f98a7733a185e751b", "type": "electric_scooter", "is_reserved": 0, "lon": -77.04143666666667}, {"fusion_lat": 0.0, "name": "1b04708661a69cf15e12cc45651127c9", "is_disabled": 0, "rental_uris": {"android": "https://dc.lft.to/lastmile_qr_scan", "ios": "https://dc.lft.to/lastmile_qr_scan"}, "fusion_lon": 0.0, "lat": 38.87646866666667, "bike_id": "1b04708661a69cf15e12cc45651127c9", "type": "electric_scooter", "is_reserved": 0, "lon": -77.006586}, {"fusion_lat": 0.0, "name": "8d4de0aaa8aab9e7de7bdf697e04fb56", "is_disabled": 0, "rental_uris": {"android": "https://dc.lft.to/lastmile_qr_scan", "ios": "https://dc.lft.to/lastmile_qr_scan"}, "fusion_lon": 0.0, "lat": 38.9451645, "bike_id": "8d4de0aaa8aab9e7de7bdf697e04fb56", "type": "electric_scooter", "is_reserved": 0, "lon": -77.03890816666667}, {"fusion_lat": 0.0, "name": "98fc937b9b068863d502b2f698679991", "is_disabled": 0, "rental_uris": {"android": "https://dc.lft.to/lastmile_qr_scan", "ios": "https://dc.lft.to/lastmile_qr_scan"}, "fusion_lon": 0.0, "lat": 38.89225916666667, "bike_id": "98fc937b9b068863d502b2f698679991", "type": "electric_scooter", "is_reserved": 0, "lon": -77.0322105}, {"fusion_lat": 0.0, "name": "4f2e92fa1ba23bf5a4a5eef74e6e1b8c", "is_disabled": 0, "rental_uris": {"android": "https://dc.lft.to/lastmile_qr_scan", "ios": "https://dc.lft.to/lastmile_qr_scan"}, "fusion_lon": 0.0, "lat": 38.907007166666666, "bike_id": "4f2e92fa1ba23bf5a4a5eef74e6e1b8c", "type": "electric_scooter", "is_reserved": 0, "lon": -76.98699083333334}, {"fusion_lat": 0.0, "name": "a2651d25a432e140d63022911c1009bf", "is_disabled": 0, "rental_uris": {"android": "https://dc.lft.to/lastmile_qr_scan", "ios": "https://dc.lft.to/lastmile_qr_scan"}, "fusion_lon": 0.0, "lat": 38.886641166666664, "bike_id": "a2651d25a432e140d63022911c1009bf", "type": "electric_scooter", "is_reserved": 0, "lon": -77.02829916666667}, {"fusion_lat": 0.0, "name": "11c28d033af6157257586e298d004a89", "is_disabled": 0, "rental_uris": {"android": "https://dc.lft.to/lastmile_qr_scan", "ios": "https://dc.lft.to/lastmile_qr_scan"}, "fusion_lon": 0.0, "lat": 38.92614616666667, "bike_id": "11c28d033af6157257586e298d004a89", "type": "electric_scooter", "is_reserved": 0, "lon": -77.02160783333333}, {"fusion_lat": 0.0, "name": "07a83ca0c5b40bc1b4edfa42ff00e45b", "is_disabled": 0, "rental_uris": {"android": "https://dc.lft.to/lastmile_qr_scan", "ios": "https://dc.lft.to/lastmile_qr_scan"}, "fusion_lon": 0.0, "lat": 38.924411, "bike_id": "07a83ca0c5b40bc1b4edfa42ff00e45b", "type": "electric_scooter", "is_reserved": 0, "lon": -77.03402416666667}, {"fusion_lat": 0.0, "name": "0d2cd9816babc9ec962277a13bccabed", "is_disabled": 0, "rental_uris": {"android": "https://dc.lft.to/lastmile_qr_scan", "ios": "https://dc.lft.to/lastmile_qr_scan"}, "fusion_lon": 0.0, "lat": 38.93415866666667, "bike_id": "0d2cd9816babc9ec962277a13bccabed", "type": "electric_scooter", "is_reserved": 0, "lon": -77.02841816666667}, {"fusion_lat": 0.0, "name": "6385568fb1753efe389d8fce981837ae", "is_disabled": 0, "rental_uris": {"android": "https://dc.lft.to/lastmile_qr_scan", "ios": "https://dc.lft.to/lastmile_qr_scan"}, "fusion_lon": 0.0, "lat": 38.88719616666667, "bike_id": "6385568fb1753efe389d8fce981837ae", "type": "electric_scooter", "is_reserved": 0, "lon": -76.9968905}, {"fusion_lat": 0.0, "name": "72b633949c3d5f1460460e90f98055d4", "is_disabled": 0, "rental_uris": {"android": "https://dc.lft.to/lastmile_qr_scan", "ios": "https://dc.lft.to/lastmile_qr_scan"}, "fusion_lon": 0.0, "lat": 38.91729016666667, "bike_id": "72b633949c3d5f1460460e90f98055d4", "type": "electric_scooter", "is_reserved": 0, "lon": -77.03854933333334}, {"fusion_lat": 0.0, "name": "472a444bf093954dd64b01b621566ebd", "is_disabled": 0, "rental_uris": {"android": "https://dc.lft.to/lastmile_qr_scan", "ios": "https://dc.lft.to/lastmile_qr_scan"}, "fusion_lon": 0.0, "lat": 38.93706233333333, "bike_id": "472a444bf093954dd64b01b621566ebd", "type": "electric_scooter", "is_reserved": 0, "lon": -77.0610425}, {"fusion_lat": 0.0, "name": "95690a7e3c2816f7215d03621794a721", "is_disabled": 0, "rental_uris": {"android": "https://dc.lft.to/lastmile_qr_scan", "ios": "https://dc.lft.to/lastmile_qr_scan"}, "fusion_lon": 0.0, "lat": 38.892261166666664, "bike_id": "95690a7e3c2816f7215d03621794a721", "type": "electric_scooter", "is_reserved": 0, "lon": -77.03194666666667}, {"fusion_lat": 0.0, "name": "33d2cb48bd5d9e5b45fcbfca4b39b37c", "is_disabled": 0, "rental_uris": {"android": "https://dc.lft.to/lastmile_qr_scan", "ios": "https://dc.lft.to/lastmile_qr_scan"}, "fusion_lon": 0.0, "lat": 38.93971366666667, "bike_id": "33d2cb48bd5d9e5b45fcbfca4b39b37c", "type": "electric_scooter", "is_reserved": 0, "lon": -77.032592}, {"fusion_lat": 0.0, "name": "e1fe337085737b30990faf118a1f0b7f", "is_disabled": 0, "rental_uris": {"android": "https://dc.lft.to/lastmile_qr_scan", "ios": "https://dc.lft.to/lastmile_qr_scan"}, "fusion_lon": 0.0, "lat": 38.86253516666667, "bike_id": "e1fe337085737b30990faf118a1f0b7f", "type": "electric_scooter", "is_reserved": 0, "lon": -76.99511866666667}, {"fusion_lat": 0.0, "name": "e4033fe4e9963c0c6234554e199a887f", "is_disabled": 0, "rental_uris": {"android": "https://dc.lft.to/lastmile_qr_scan", "ios": "https://dc.lft.to/lastmile_qr_scan"}, "fusion_lon": 0.0, "lat": 38.89004416666667, "bike_id": "e4033fe4e9963c0c6234554e199a887f", "type": "electric_scooter", "is_reserved": 0, "lon": -76.93743933333333}, {"fusion_lat": 0.0, "name": "364a1dbeb3231caf26d45b7b9b7f6236", "is_disabled": 0, "rental_uris": {"android": "https://dc.lft.to/lastmile_qr_scan", "ios": "https://dc.lft.to/lastmile_qr_scan"}, "fusion_lon": 0.0, "lat": 38.930660333333336, "bike_id": "364a1dbeb3231caf26d45b7b9b7f6236", "type": "electric_scooter", "is_reserved": 0, "lon": -77.033732}, {"fusion_lat": 0.0, "name": "19b4011c1d76944588b50e68852f6a2a", "is_disabled": 0, "rental_uris": {"android": "https://dc.lft.to/lastmile_qr_scan", "ios": "https://dc.lft.to/lastmile_qr_scan"}, "fusion_lon": 0.0, "lat": 38.923317833333336, "bike_id": "19b4011c1d76944588b50e68852f6a2a", "type": "electric_scooter", "is_reserved": 0, "lon": -77.043024}, {"fusion_lat": 0.0, "name": "0e14d79a6d7b35d5be6442a2d5c5f098", "is_disabled": 0, "rental_uris": {"android": "https://dc.lft.to/lastmile_qr_scan", "ios": "https://dc.lft.to/lastmile_qr_scan"}, "fusion_lon": 0.0, "lat": 38.90350383333333, "bike_id": "0e14d79a6d7b35d5be6442a2d5c5f098", "type": "electric_scooter", "is_reserved": 0, "lon": -77.01769833333333}, {"fusion_lat": 0.0, "name": "ef6296f9fd5a240c7186e49dc53a2e37", "is_disabled": 0, "rental_uris": {"android": "https://dc.lft.to/lastmile_qr_scan", "ios": "https://dc.lft.to/lastmile_qr_scan"}, "fusion_lon": 0.0, "lat": 38.89790416666666, "bike_id": "ef6296f9fd5a240c7186e49dc53a2e37", "type": "electric_scooter", "is_reserved": 0, "lon": -77.01206133333334}, {"fusion_lat": 0.0, "name": "7f4e98d93592073429e29d1a1470529c", "is_disabled": 0, "rental_uris": {"android": "https://dc.lft.to/lastmile_qr_scan", "ios": "https://dc.lft.to/lastmile_qr_scan"}, "fusion_lon": 0.0, "lat": 38.952956, "bike_id": "7f4e98d93592073429e29d1a1470529c", "type": "electric_scooter", "is_reserved": 0, "lon": -77.06863916666667}, {"fusion_lat": 0.0, "name": "56a646ebee455429cf45fc7d80a96a71", "is_disabled": 0, "rental_uris": {"android": "https://dc.lft.to/lastmile_qr_scan", "ios": "https://dc.lft.to/lastmile_qr_scan"}, "fusion_lon": 0.0, "lat": 38.92894833333333, "bike_id": "56a646ebee455429cf45fc7d80a96a71", "type": "electric_bike", "is_reserved": 0, "lon": -77.23178216666666}, {"fusion_lat": 0.0, "name": "6f6497f8f30f1be5c75d4a128b70c081", "is_disabled": 0, "rental_uris": {"android": "https://dc.lft.to/lastmile_qr_scan", "ios": "https://dc.lft.to/lastmile_qr_scan"}, "fusion_lon": 0.0, "lat": 38.89749716666667, "bike_id": "6f6497f8f30f1be5c75d4a128b70c081", "type": "electric_scooter", "is_reserved": 0, "lon": -77.02017783333334}, {"fusion_lat": 0.0, "name": "812208441acc4f549a9f852c07ebf43c", "is_disabled": 0, "rental_uris": {"android": "https://dc.lft.to/lastmile_qr_scan", "ios": "https://dc.lft.to/lastmile_qr_scan"}, "fusion_lon": 0.0, "lat": 38.857009166666664, "bike_id": "812208441acc4f549a9f852c07ebf43c", "type": "electric_scooter", "is_reserved": 0, "lon": -76.99595766666667}, {"fusion_lat": 0.0, "name": "eba700eb9439bd9c97ebd155cb958a92", "is_disabled": 0, "rental_uris": {"android": "https://dc.lft.to/lastmile_qr_scan", "ios": "https://dc.lft.to/lastmile_qr_scan"}, "fusion_lon": 0.0, "lat": 38.887306833333334, "bike_id": "eba700eb9439bd9c97ebd155cb958a92", "type": "electric_scooter", "is_reserved": 0, "lon": -77.0321575}, {"fusion_lat": 0.0, "name": "b4bf3c2ccdcb6f866d1a210efe23a200", "is_disabled": 0, "rental_uris": {"android": "https://dc.lft.to/lastmile_qr_scan", "ios": "https://dc.lft.to/lastmile_qr_scan"}, "fusion_lon": 0.0, "lat": 38.9062245, "bike_id": "b4bf3c2ccdcb6f866d1a210efe23a200", "type": "electric_scooter", "is_reserved": 0, "lon": -77.0395905}, {"fusion_lat": 0.0, "name": "99a91d0909155db576c1fe79332a0139", "is_disabled": 0, "rental_uris": {"android": "https://dc.lft.to/lastmile_qr_scan", "ios": "https://dc.lft.to/lastmile_qr_scan"}, "fusion_lon": 0.0, "lat": 38.889856333333334, "bike_id": "99a91d0909155db576c1fe79332a0139", "type": "electric_scooter", "is_reserved": 0, "lon": -76.9841555}, {"fusion_lat": 0.0, "name": "b573de0bce6dab43d1e11b3c967b88b5", "is_disabled": 0, "rental_uris": {"android": "https://dc.lft.to/lastmile_qr_scan", "ios": "https://dc.lft.to/lastmile_qr_scan"}, "fusion_lon": 0.0, "lat": 38.928020333333336, "bike_id": "b573de0bce6dab43d1e11b3c967b88b5", "type": "electric_scooter", "is_reserved": 0, "lon": -77.05531133333334}, {"fusion_lat": 0.0, "name": "1d8a39b72bc11841682267a8d67b170e", "is_disabled": 0, "rental_uris": {"android": "https://dc.lft.to/lastmile_qr_scan", "ios": "https://dc.lft.to/lastmile_qr_scan"}, "fusion_lon": 0.0, "lat": 38.91698433333333, "bike_id": "1d8a39b72bc11841682267a8d67b170e", "type": "electric_scooter", "is_reserved": 0, "lon": -77.03769383333334}, {"fusion_lat": 0.0, "name": "68b129448cad31e68adf15ab42222dd5", "is_disabled": 0, "rental_uris": {"android": "https://dc.lft.to/lastmile_qr_scan", "ios": "https://dc.lft.to/lastmile_qr_scan"}, "fusion_lon": 0.0, "lat": 38.9381445, "bike_id": "68b129448cad31e68adf15ab42222dd5", "type": "electric_scooter", "is_reserved": 0, "lon": -77.0601785}, {"fusion_lat": 0.0, "name": "3cfe1c18c9c013394c8aa1ff47a72f9c", "is_disabled": 0, "rental_uris": {"android": "https://dc.lft.to/lastmile_qr_scan", "ios": "https://dc.lft.to/lastmile_qr_scan"}, "fusion_lon": 0.0, "lat": 38.902233833333334, "bike_id": "3cfe1c18c9c013394c8aa1ff47a72f9c", "type": "electric_scooter", "is_reserved": 0, "lon": -76.99508183333333}, {"fusion_lat": 0.0, "name": "cab18fb74c31c4c677ce4ea118745c39", "is_disabled": 0, "rental_uris": {"android": "https://dc.lft.to/lastmile_qr_scan", "ios": "https://dc.lft.to/lastmile_qr_scan"}, "fusion_lon": 0.0, "lat": 38.93395833333334, "bike_id": "cab18fb74c31c4c677ce4ea118745c39", "type": "electric_scooter", "is_reserved": 0, "lon": -77.05769816666667}, {"fusion_lat": 0.0, "name": "d2164e9f8964a0941aee42d77e4b4ebf", "is_disabled": 0, "rental_uris": {"android": "https://dc.lft.to/lastmile_qr_scan", "ios": "https://dc.lft.to/lastmile_qr_scan"}, "fusion_lon": 0.0, "lat": 38.9068765, "bike_id": "d2164e9f8964a0941aee42d77e4b4ebf", "type": "electric_scooter", "is_reserved": 0, "lon": -77.061259}, {"fusion_lat": 0.0, "name": "19a11530ee4e05e09988318631f3af07", "is_disabled": 0, "rental_uris": {"android": "https://dc.lft.to/lastmile_qr_scan", "ios": "https://dc.lft.to/lastmile_qr_scan"}, "fusion_lon": 0.0, "lat": 38.90781116666667, "bike_id": "19a11530ee4e05e09988318631f3af07", "type": "electric_scooter", "is_reserved": 0, "lon": -77.0385865}, {"fusion_lat": 0.0, "name": "959e0184ad16dcd28b96ffb75206f5ef", "is_disabled": 0, "rental_uris": {"android": "https://dc.lft.to/lastmile_qr_scan", "ios": "https://dc.lft.to/lastmile_qr_scan"}, "fusion_lon": 0.0, "lat": 38.91803933333333, "bike_id": "959e0184ad16dcd28b96ffb75206f5ef", "type": "electric_scooter", "is_reserved": 0, "lon": -77.032179}, {"fusion_lat": 0.0, "name": "3da5b686e501348aa43d2f94c534eebf", "is_disabled": 0, "rental_uris": {"android": "https://dc.lft.to/lastmile_qr_scan", "ios": "https://dc.lft.to/lastmile_qr_scan"}, "fusion_lon": 0.0, "lat": 38.879225166666664, "bike_id": "3da5b686e501348aa43d2f94c534eebf", "type": "electric_scooter", "is_reserved": 0, "lon": -77.00777816666667}, {"fusion_lat": 0.0, "name": "4f5fb36103e624530a228ddfaf92c61b", "is_disabled": 0, "rental_uris": {"android": "https://dc.lft.to/lastmile_qr_scan", "ios": "https://dc.lft.to/lastmile_qr_scan"}, "fusion_lon": 0.0, "lat": 38.86515816666667, "bike_id": "4f5fb36103e624530a228ddfaf92c61b", "type": "electric_bike", "is_reserved": 0, "lon": -77.12937566666666}, {"fusion_lat": 0.0, "name": "3b6a1c0a7eedc0040f32cbb3678caf90", "is_disabled": 0, "rental_uris": {"android": "https://dc.lft.to/lastmile_qr_scan", "ios": "https://dc.lft.to/lastmile_qr_scan"}, "fusion_lon": 0.0, "lat": 38.91680266666667, "bike_id": "3b6a1c0a7eedc0040f32cbb3678caf90", "type": "electric_scooter", "is_reserved": 0, "lon": -77.036355}, {"fusion_lat": 0.0, "name": "6237512df3237c8b739e8d655d83d9df", "is_disabled": 0, "rental_uris": {"android": "https://dc.lft.to/lastmile_qr_scan", "ios": "https://dc.lft.to/lastmile_qr_scan"}, "fusion_lon": 0.0, "lat": 38.902640833333336, "bike_id": "6237512df3237c8b739e8d655d83d9df", "type": "electric_scooter", "is_reserved": 0, "lon": -77.02731533333333}, {"fusion_lat": 0.0, "name": "ded7b59fd7857ab06e8a59aae2d9d4f2", "is_disabled": 0, "rental_uris": {"android": "https://dc.lft.to/lastmile_qr_scan", "ios": "https://dc.lft.to/lastmile_qr_scan"}, "fusion_lon": 0.0, "lat": 38.8871615, "bike_id": "ded7b59fd7857ab06e8a59aae2d9d4f2", "type": "electric_scooter", "is_reserved": 0, "lon": -77.01776383333333}, {"fusion_lat": 0.0, "name": "f995b6e5acb5a5812b36e460dbd07860", "is_disabled": 0, "rental_uris": {"android": "https://dc.lft.to/lastmile_qr_scan", "ios": "https://dc.lft.to/lastmile_qr_scan"}, "fusion_lon": 0.0, "lat": 38.92857033333333, "bike_id": "f995b6e5acb5a5812b36e460dbd07860", "type": "electric_scooter", "is_reserved": 0, "lon": -77.03217816666667}, {"fusion_lat": 0.0, "name": "8b87c3986d4d6c4d86eef200b4630fe9", "is_disabled": 0, "rental_uris": {"android": "https://dc.lft.to/lastmile_qr_scan", "ios": "https://dc.lft.to/lastmile_qr_scan"}, "fusion_lon": 0.0, "lat": 38.903956, "bike_id": "8b87c3986d4d6c4d86eef200b4630fe9", "type": "electric_scooter", "is_reserved": 0, "lon": -77.0669745}, {"fusion_lat": 0.0, "name": "b3c8e981df5a1e2c86eae6794388def5", "is_disabled": 0, "rental_uris": {"android": "https://dc.lft.to/lastmile_qr_scan", "ios": "https://dc.lft.to/lastmile_qr_scan"}, "fusion_lon": 0.0, "lat": 38.8133185, "bike_id": "b3c8e981df5a1e2c86eae6794388def5", "type": "electric_bike", "is_reserved": 0, "lon": -77.05092183333333}, {"fusion_lat": 0.0, "name": "df47ec84d2618868ad17211ab84a1737", "is_disabled": 0, "rental_uris": {"android": "https://dc.lft.to/lastmile_qr_scan", "ios": "https://dc.lft.to/lastmile_qr_scan"}, "fusion_lon": 0.0, "lat": 38.88399233333333, "bike_id": "df47ec84d2618868ad17211ab84a1737", "type": "electric_scooter", "is_reserved": 0, "lon": -76.93048433333334}, {"fusion_lat": 0.0, "name": "9e1eed49f5598d63dc290d5fbce42097", "is_disabled": 0, "rental_uris": {"android": "https://dc.lft.to/lastmile_qr_scan", "ios": "https://dc.lft.to/lastmile_qr_scan"}, "fusion_lon": 0.0, "lat": 38.908863833333335, "bike_id": "9e1eed49f5598d63dc290d5fbce42097", "type": "electric_scooter", "is_reserved": 0, "lon": -77.04463466666667}, {"fusion_lat": 0.0, "name": "f4b0f34a3a414c84dbd9f1c32b799de8", "is_disabled": 0, "rental_uris": {"android": "https://dc.lft.to/lastmile_qr_scan", "ios": "https://dc.lft.to/lastmile_qr_scan"}, "fusion_lon": 0.0, "lat": 38.896524666666664, "bike_id": "f4b0f34a3a414c84dbd9f1c32b799de8", "type": "electric_scooter", "is_reserved": 0, "lon": -77.05002566666667}, {"fusion_lat": 0.0, "name": "acfdb2de7228079250ca50b2c3ce3821", "is_disabled": 0, "rental_uris": {"android": "https://dc.lft.to/lastmile_qr_scan", "ios": "https://dc.lft.to/lastmile_qr_scan"}, "fusion_lon": 0.0, "lat": 38.94965416666667, "bike_id": "acfdb2de7228079250ca50b2c3ce3821", "type": "electric_bike", "is_reserved": 0, "lon": -77.06646833333333}, {"fusion_lat": 0.0, "name": "a97feba7e06013c61adfe0f435f8b362", "is_disabled": 0, "rental_uris": {"android": "https://dc.lft.to/lastmile_qr_scan", "ios": "https://dc.lft.to/lastmile_qr_scan"}, "fusion_lon": 0.0, "lat": 38.9589675, "bike_id": "a97feba7e06013c61adfe0f435f8b362", "type": "electric_scooter", "is_reserved": 0, "lon": -77.02747016666666}, {"fusion_lat": 0.0, "name": "6e278bc164f3cf50e0ed1f49cc33dab0", "is_disabled": 0, "rental_uris": {"android": "https://dc.lft.to/lastmile_qr_scan", "ios": "https://dc.lft.to/lastmile_qr_scan"}, "fusion_lon": 0.0, "lat": 38.909809333333335, "bike_id": "6e278bc164f3cf50e0ed1f49cc33dab0", "type": "electric_scooter", "is_reserved": 0, "lon": -77.03383283333334}, {"fusion_lat": 0.0, "name": "7fc58fc91b40f7f324c0277c96e5770c", "is_disabled": 0, "rental_uris": {"android": "https://dc.lft.to/lastmile_qr_scan", "ios": "https://dc.lft.to/lastmile_qr_scan"}, "fusion_lon": 0.0, "lat": 38.9022475, "bike_id": "7fc58fc91b40f7f324c0277c96e5770c", "type": "electric_scooter", "is_reserved": 0, "lon": -77.0214565}, {"fusion_lat": 0.0, "name": "c26195ea06105adb7be02975eb94eff3", "is_disabled": 0, "rental_uris": {"android": "https://dc.lft.to/lastmile_qr_scan", "ios": "https://dc.lft.to/lastmile_qr_scan"}, "fusion_lon": 0.0, "lat": 38.90216733333333, "bike_id": "c26195ea06105adb7be02975eb94eff3", "type": "electric_scooter", "is_reserved": 0, "lon": -77.045377}, {"fusion_lat": 0.0, "name": "4c62ea7ba7aa75db023f7c7d676af868", "is_disabled": 0, "rental_uris": {"android": "https://dc.lft.to/lastmile_qr_scan", "ios": "https://dc.lft.to/lastmile_qr_scan"}, "fusion_lon": 0.0, "lat": 38.90511716666666, "bike_id": "4c62ea7ba7aa75db023f7c7d676af868", "type": "electric_scooter", "is_reserved": 0, "lon": -77.06386366666666}, {"fusion_lat": 0.0, "name": "dec5cf07fbeb07d80cb8d846b4aa48e9", "is_disabled": 0, "rental_uris": {"android": "https://dc.lft.to/lastmile_qr_scan", "ios": "https://dc.lft.to/lastmile_qr_scan"}, "fusion_lon": 0.0, "lat": 38.8725045, "bike_id": "dec5cf07fbeb07d80cb8d846b4aa48e9", "type": "electric_scooter", "is_reserved": 0, "lon": -76.97725666666666}, {"fusion_lat": 0.0, "name": "8c326fbc593d8305b0ef91b6096ee66a", "is_disabled": 0, "rental_uris": {"android": "https://dc.lft.to/lastmile_qr_scan", "ios": "https://dc.lft.to/lastmile_qr_scan"}, "fusion_lon": 0.0, "lat": 38.9097445, "bike_id": "8c326fbc593d8305b0ef91b6096ee66a", "type": "electric_scooter", "is_reserved": 0, "lon": -77.00903383333333}, {"fusion_lat": 0.0, "name": "177d28d43d013d5d125ef1788a3d1d21", "is_disabled": 0, "rental_uris": {"android": "https://dc.lft.to/lastmile_qr_scan", "ios": "https://dc.lft.to/lastmile_qr_scan"}, "fusion_lon": 0.0, "lat": 38.9057885, "bike_id": "177d28d43d013d5d125ef1788a3d1d21", "type": "electric_scooter", "is_reserved": 0, "lon": -77.0089295}, {"fusion_lat": 0.0, "name": "c843982872a01e6c39b7f89afc37d856", "is_disabled": 0, "rental_uris": {"android": "https://dc.lft.to/lastmile_qr_scan", "ios": "https://dc.lft.to/lastmile_qr_scan"}, "fusion_lon": 0.0, "lat": 38.956346, "bike_id": "c843982872a01e6c39b7f89afc37d856", "type": "electric_scooter", "is_reserved": 0, "lon": -77.033055}, {"fusion_lat": 0.0, "name": "d745e803fdceacc821639d89c9219b18", "is_disabled": 0, "rental_uris": {"android": "https://dc.lft.to/lastmile_qr_scan", "ios": "https://dc.lft.to/lastmile_qr_scan"}, "fusion_lon": 0.0, "lat": 38.95744166666667, "bike_id": "d745e803fdceacc821639d89c9219b18", "type": "electric_bike", "is_reserved": 0, "lon": -76.97253133333334}, {"fusion_lat": 0.0, "name": "1ceea7c42b4d163dbc20f8c210a44126", "is_disabled": 0, "rental_uris": {"android": "https://dc.lft.to/lastmile_qr_scan", "ios": "https://dc.lft.to/lastmile_qr_scan"}, "fusion_lon": 0.0, "lat": 38.900157666666665, "bike_id": "1ceea7c42b4d163dbc20f8c210a44126", "type": "electric_scooter", "is_reserved": 0, "lon": -77.04493266666667}, {"fusion_lat": 0.0, "name": "b699e76abb2da2392ef9cd59d9740e0d", "is_disabled": 0, "rental_uris": {"android": "https://dc.lft.to/lastmile_qr_scan", "ios": "https://dc.lft.to/lastmile_qr_scan"}, "fusion_lon": 0.0, "lat": 38.95065683333333, "bike_id": "b699e76abb2da2392ef9cd59d9740e0d", "type": "electric_bike", "is_reserved": 0, "lon": -77.07228966666666}, {"fusion_lat": 0.0, "name": "1e0fbb281b6ea028b3b667723f682f88", "is_disabled": 0, "rental_uris": {"android": "https://dc.lft.to/lastmile_qr_scan", "ios": "https://dc.lft.to/lastmile_qr_scan"}, "fusion_lon": 0.0, "lat": 38.9587745, "bike_id": "1e0fbb281b6ea028b3b667723f682f88", "type": "electric_bike", "is_reserved": 0, "lon": -76.97054333333334}, {"fusion_lat": 0.0, "name": "9b16f5c56aaae2e6c4775a00c370e529", "is_disabled": 0, "rental_uris": {"android": "https://dc.lft.to/lastmile_qr_scan", "ios": "https://dc.lft.to/lastmile_qr_scan"}, "fusion_lon": 0.0, "lat": 38.920851166666665, "bike_id": "9b16f5c56aaae2e6c4775a00c370e529", "type": "electric_scooter", "is_reserved": 0, "lon": -77.07373183333333}, {"fusion_lat": 0.0, "name": "4f5b019650bafdb8cb35f3ce5dbf489e", "is_disabled": 0, "rental_uris": {"android": "https://dc.lft.to/lastmile_qr_scan", "ios": "https://dc.lft.to/lastmile_qr_scan"}, "fusion_lon": 0.0, "lat": 38.90279866666667, "bike_id": "4f5b019650bafdb8cb35f3ce5dbf489e", "type": "electric_scooter", "is_reserved": 0, "lon": -77.0334895}, {"fusion_lat": 0.0, "name": "f20cdf8de58a56ac6657be4a9ce69db8", "is_disabled": 0, "rental_uris": {"android": "https://dc.lft.to/lastmile_qr_scan", "ios": "https://dc.lft.to/lastmile_qr_scan"}, "fusion_lon": 0.0, "lat": 38.921619666666665, "bike_id": "f20cdf8de58a56ac6657be4a9ce69db8", "type": "electric_scooter", "is_reserved": 0, "lon": -77.03393983333333}, {"fusion_lat": 0.0, "name": "8cb4fa694c703fc3953654e366fe85c1", "is_disabled": 0, "rental_uris": {"android": "https://dc.lft.to/lastmile_qr_scan", "ios": "https://dc.lft.to/lastmile_qr_scan"}, "fusion_lon": 0.0, "lat": 38.89958516666667, "bike_id": "8cb4fa694c703fc3953654e366fe85c1", "type": "electric_scooter", "is_reserved": 0, "lon": -77.015006}, {"fusion_lat": 0.0, "name": "d1a557ac165264ec4b74d2c3adc4f00e", "is_disabled": 0, "rental_uris": {"android": "https://dc.lft.to/lastmile_qr_scan", "ios": "https://dc.lft.to/lastmile_qr_scan"}, "fusion_lon": 0.0, "lat": 38.892204166666666, "bike_id": "d1a557ac165264ec4b74d2c3adc4f00e", "type": "electric_scooter", "is_reserved": 0, "lon": -77.03200683333333}, {"fusion_lat": 0.0, "name": "c9740857ed1cf6f0cba99c49305220f4", "is_disabled": 0, "rental_uris": {"android": "https://dc.lft.to/lastmile_qr_scan", "ios": "https://dc.lft.to/lastmile_qr_scan"}, "fusion_lon": 0.0, "lat": 38.914767833333336, "bike_id": "c9740857ed1cf6f0cba99c49305220f4", "type": "electric_scooter", "is_reserved": 0, "lon": -77.02191716666667}, {"fusion_lat": 0.0, "name": "3854b5b0c62b10be77da06e50f22d7ed", "is_disabled": 0, "rental_uris": {"android": "https://dc.lft.to/lastmile_qr_scan", "ios": "https://dc.lft.to/lastmile_qr_scan"}, "fusion_lon": 0.0, "lat": 38.927003166666665, "bike_id": "3854b5b0c62b10be77da06e50f22d7ed", "type": "electric_scooter", "is_reserved": 0, "lon": -77.02426666666666}, {"fusion_lat": 0.0, "name": "e1dfdcc2301c8c91ce8b07f980b82162", "is_disabled": 0, "rental_uris": {"android": "https://dc.lft.to/lastmile_qr_scan", "ios": "https://dc.lft.to/lastmile_qr_scan"}, "fusion_lon": 0.0, "lat": 38.916337666666664, "bike_id": "e1dfdcc2301c8c91ce8b07f980b82162", "type": "electric_scooter", "is_reserved": 0, "lon": -77.02951333333333}, {"fusion_lat": 0.0, "name": "b616c3fbe1dd969a2edaedcd1b0e1a37", "is_disabled": 0, "rental_uris": {"android": "https://dc.lft.to/lastmile_qr_scan", "ios": "https://dc.lft.to/lastmile_qr_scan"}, "fusion_lon": 0.0, "lat": 39.014158333333334, "bike_id": "b616c3fbe1dd969a2edaedcd1b0e1a37", "type": "electric_bike", "is_reserved": 0, "lon": -77.04498333333333}, {"fusion_lat": 0.0, "name": "bb14c6cbcd81d9820c483723ef2d52e1", "is_disabled": 0, "rental_uris": {"android": "https://dc.lft.to/lastmile_qr_scan", "ios": "https://dc.lft.to/lastmile_qr_scan"}, "fusion_lon": 0.0, "lat": 38.81610083333333, "bike_id": "bb14c6cbcd81d9820c483723ef2d52e1", "type": "electric_bike", "is_reserved": 0, "lon": -76.996571}, {"fusion_lat": 0.0, "name": "842bb9c4dcb63e66f115c73e4258b765", "is_disabled": 0, "rental_uris": {"android": "https://dc.lft.to/lastmile_qr_scan", "ios": "https://dc.lft.to/lastmile_qr_scan"}, "fusion_lon": 0.0, "lat": 38.9006145, "bike_id": "842bb9c4dcb63e66f115c73e4258b765", "type": "electric_scooter", "is_reserved": 0, "lon": -76.9871595}, {"fusion_lat": 0.0, "name": "890ddc999aca379f1ed658a1408e7a84", "is_disabled": 0, "rental_uris": {"android": "https://dc.lft.to/lastmile_qr_scan", "ios": "https://dc.lft.to/lastmile_qr_scan"}, "fusion_lon": 0.0, "lat": 38.88514116666666, "bike_id": "890ddc999aca379f1ed658a1408e7a84", "type": "electric_scooter", "is_reserved": 0, "lon": -76.99752733333334}, {"fusion_lat": 0.0, "name": "cde1111516b28031e8c3ba555e3e9891", "is_disabled": 0, "rental_uris": {"android": "https://dc.lft.to/lastmile_qr_scan", "ios": "https://dc.lft.to/lastmile_qr_scan"}, "fusion_lon": 0.0, "lat": 38.9095305, "bike_id": "cde1111516b28031e8c3ba555e3e9891", "type": "electric_scooter", "is_reserved": 0, "lon": -77.0333215}, {"fusion_lat": 0.0, "name": "bc5c3ab0df8270c19339b7d5203e28b9", "is_disabled": 0, "rental_uris": {"android": "https://dc.lft.to/lastmile_qr_scan", "ios": "https://dc.lft.to/lastmile_qr_scan"}, "fusion_lon": 0.0, "lat": 38.921535, "bike_id": "bc5c3ab0df8270c19339b7d5203e28b9", "type": "electric_scooter", "is_reserved": 0, "lon": -77.0208785}, {"fusion_lat": 0.0, "name": "d9bd69a43c66320a076a6f60a28af65b", "is_disabled": 0, "rental_uris": {"android": "https://dc.lft.to/lastmile_qr_scan", "ios": "https://dc.lft.to/lastmile_qr_scan"}, "fusion_lon": 0.0, "lat": 38.84915633333333, "bike_id": "d9bd69a43c66320a076a6f60a28af65b", "type": "electric_bike", "is_reserved": 0, "lon": -77.079297}, {"fusion_lat": 0.0, "name": "536cf59d8a190c641b9f6596b7f0818a", "is_disabled": 0, "rental_uris": {"android": "https://dc.lft.to/lastmile_qr_scan", "ios": "https://dc.lft.to/lastmile_qr_scan"}, "fusion_lon": 0.0, "lat": 38.90699383333333, "bike_id": "536cf59d8a190c641b9f6596b7f0818a", "type": "electric_scooter", "is_reserved": 0, "lon": -77.04211933333333}, {"fusion_lat": 0.0, "name": "e4f771a78d93b220a13a12d6403ce563", "is_disabled": 0, "rental_uris": {"android": "https://dc.lft.to/lastmile_qr_scan", "ios": "https://dc.lft.to/lastmile_qr_scan"}, "fusion_lon": 0.0, "lat": 38.879372333333336, "bike_id": "e4f771a78d93b220a13a12d6403ce563", "type": "electric_scooter", "is_reserved": 0, "lon": -77.02363416666667}, {"fusion_lat": 0.0, "name": "f7090c68ec88bb8fbc5a29d1fae30788", "is_disabled": 0, "rental_uris": {"android": "https://dc.lft.to/lastmile_qr_scan", "ios": "https://dc.lft.to/lastmile_qr_scan"}, "fusion_lon": 0.0, "lat": 38.903770333333334, "bike_id": "f7090c68ec88bb8fbc5a29d1fae30788", "type": "electric_bike", "is_reserved": 0, "lon": -77.0403175}, {"fusion_lat": 0.0, "name": "1eaabacc5104a56ff2143d533af0e556", "is_disabled": 0, "rental_uris": {"android": "https://dc.lft.to/lastmile_qr_scan", "ios": "https://dc.lft.to/lastmile_qr_scan"}, "fusion_lon": 0.0, "lat": 38.90064116666667, "bike_id": "1eaabacc5104a56ff2143d533af0e556", "type": "electric_scooter", "is_reserved": 0, "lon": -77.03667833333333}, {"fusion_lat": 0.0, "name": "19ad267d81b99019cb77f7e6e718c6ac", "is_disabled": 0, "rental_uris": {"android": "https://dc.lft.to/lastmile_qr_scan", "ios": "https://dc.lft.to/lastmile_qr_scan"}, "fusion_lon": 0.0, "lat": 38.87711266666667, "bike_id": "19ad267d81b99019cb77f7e6e718c6ac", "type": "electric_scooter", "is_reserved": 0, "lon": -76.99385683333334}, {"fusion_lat": 0.0, "name": "95bc76457b8679cf1615897361581132", "is_disabled": 0, "rental_uris": {"android": "https://dc.lft.to/lastmile_qr_scan", "ios": "https://dc.lft.to/lastmile_qr_scan"}, "fusion_lon": 0.0, "lat": 38.90754483333333, "bike_id": "95bc76457b8679cf1615897361581132", "type": "electric_scooter", "is_reserved": 0, "lon": -77.03619566666667}, {"fusion_lat": 0.0, "name": "6ab50779c896a3adb94bbf51cccc4b24", "is_disabled": 0, "rental_uris": {"android": "https://dc.lft.to/lastmile_qr_scan", "ios": "https://dc.lft.to/lastmile_qr_scan"}, "fusion_lon": 0.0, "lat": 38.8961485, "bike_id": "6ab50779c896a3adb94bbf51cccc4b24", "type": "electric_scooter", "is_reserved": 0, "lon": -77.00925783333334}, {"fusion_lat": 0.0, "name": "286506584c7d6979ed7a0e6f49000cc6", "is_disabled": 0, "rental_uris": {"android": "https://dc.lft.to/lastmile_qr_scan", "ios": "https://dc.lft.to/lastmile_qr_scan"}, "fusion_lon": 0.0, "lat": 38.917283166666664, "bike_id": "286506584c7d6979ed7a0e6f49000cc6", "type": "electric_scooter", "is_reserved": 0, "lon": -77.04167933333333}, {"fusion_lat": 0.0, "name": "55fbb89f74985e06d53375682879b20d", "is_disabled": 0, "rental_uris": {"android": "https://dc.lft.to/lastmile_qr_scan", "ios": "https://dc.lft.to/lastmile_qr_scan"}, "fusion_lon": 0.0, "lat": 38.89876733333333, "bike_id": "55fbb89f74985e06d53375682879b20d", "type": "electric_scooter", "is_reserved": 0, "lon": -76.93185483333333}, {"fusion_lat": 0.0, "name": "bddfc292959af1d2f11b1c36e4ea2372", "is_disabled": 0, "rental_uris": {"android": "https://dc.lft.to/lastmile_qr_scan", "ios": "https://dc.lft.to/lastmile_qr_scan"}, "fusion_lon": 0.0, "lat": 38.88612066666666, "bike_id": "bddfc292959af1d2f11b1c36e4ea2372", "type": "electric_scooter", "is_reserved": 0, "lon": -77.01555333333333}, {"fusion_lat": 0.0, "name": "eb5bd2d2e113aef371afc05079912925", "is_disabled": 0, "rental_uris": {"android": "https://dc.lft.to/lastmile_qr_scan", "ios": "https://dc.lft.to/lastmile_qr_scan"}, "fusion_lon": 0.0, "lat": 38.88745333333333, "bike_id": "eb5bd2d2e113aef371afc05079912925", "type": "electric_scooter", "is_reserved": 0, "lon": -77.022205}, {"fusion_lat": 0.0, "name": "5db331fa3f2124705b99f9c193499814", "is_disabled": 0, "rental_uris": {"android": "https://dc.lft.to/lastmile_qr_scan", "ios": "https://dc.lft.to/lastmile_qr_scan"}, "fusion_lon": 0.0, "lat": 38.92252516666667, "bike_id": "5db331fa3f2124705b99f9c193499814", "type": "electric_scooter", "is_reserved": 0, "lon": -77.01947716666666}, {"fusion_lat": 0.0, "name": "8874e0d344436c039da3db6b2569f223", "is_disabled": 0, "rental_uris": {"android": "https://dc.lft.to/lastmile_qr_scan", "ios": "https://dc.lft.to/lastmile_qr_scan"}, "fusion_lon": 0.0, "lat": 38.8922345, "bike_id": "8874e0d344436c039da3db6b2569f223", "type": "electric_scooter", "is_reserved": 0, "lon": -77.0321845}, {"fusion_lat": 0.0, "name": "b46bb9f2e464738f9e76eb88bfa8fbf3", "is_disabled": 0, "rental_uris": {"android": "https://dc.lft.to/lastmile_qr_scan", "ios": "https://dc.lft.to/lastmile_qr_scan"}, "fusion_lon": 0.0, "lat": 38.92399266666666, "bike_id": "b46bb9f2e464738f9e76eb88bfa8fbf3", "type": "electric_scooter", "is_reserved": 0, "lon": -77.02488183333334}, {"fusion_lat": 0.0, "name": "1b3dba51c3a64fb8eb03bdc393443840", "is_disabled": 0, "rental_uris": {"android": "https://dc.lft.to/lastmile_qr_scan", "ios": "https://dc.lft.to/lastmile_qr_scan"}, "fusion_lon": 0.0, "lat": 38.879122333333335, "bike_id": "1b3dba51c3a64fb8eb03bdc393443840", "type": "electric_scooter", "is_reserved": 0, "lon": -77.00889333333333}, {"fusion_lat": 0.0, "name": "7da4106fd57b6311376739b44508cf12", "is_disabled": 0, "rental_uris": {"android": "https://dc.lft.to/lastmile_qr_scan", "ios": "https://dc.lft.to/lastmile_qr_scan"}, "fusion_lon": 0.0, "lat": 38.92877933333333, "bike_id": "7da4106fd57b6311376739b44508cf12", "type": "electric_scooter", "is_reserved": 0, "lon": -77.03499116666667}, {"fusion_lat": 0.0, "name": "f23714cf2c670ae2e9806ed72d545736", "is_disabled": 0, "rental_uris": {"android": "https://dc.lft.to/lastmile_qr_scan", "ios": "https://dc.lft.to/lastmile_qr_scan"}, "fusion_lon": 0.0, "lat": 38.89877583333333, "bike_id": "f23714cf2c670ae2e9806ed72d545736", "type": "electric_scooter", "is_reserved": 0, "lon": -76.93182583333333}, {"fusion_lat": 0.0, "name": "1ba1fbd29faf8432268f21fab5eae31a", "is_disabled": 0, "rental_uris": {"android": "https://dc.lft.to/lastmile_qr_scan", "ios": "https://dc.lft.to/lastmile_qr_scan"}, "fusion_lon": 0.0, "lat": 38.931831, "bike_id": "1ba1fbd29faf8432268f21fab5eae31a", "type": "electric_scooter", "is_reserved": 0, "lon": -77.04304333333333}, {"fusion_lat": 0.0, "name": "ea08be0b622e52adafeabfa0f1a536d1", "is_disabled": 0, "rental_uris": {"android": "https://dc.lft.to/lastmile_qr_scan", "ios": "https://dc.lft.to/lastmile_qr_scan"}, "fusion_lon": 0.0, "lat": 38.9217515, "bike_id": "ea08be0b622e52adafeabfa0f1a536d1", "type": "electric_scooter", "is_reserved": 0, "lon": -76.99771}, {"fusion_lat": 0.0, "name": "ef11c13bdc3c40e3984cb0d8b238ce67", "is_disabled": 0, "rental_uris": {"android": "https://dc.lft.to/lastmile_qr_scan", "ios": "https://dc.lft.to/lastmile_qr_scan"}, "fusion_lon": 0.0, "lat": 38.9096855, "bike_id": "ef11c13bdc3c40e3984cb0d8b238ce67", "type": "electric_scooter", "is_reserved": 0, "lon": -77.03319766666667}, {"fusion_lat": 0.0, "name": "731caee1d078b50ad05b3b1eae7a2d70", "is_disabled": 0, "rental_uris": {"android": "https://dc.lft.to/lastmile_qr_scan", "ios": "https://dc.lft.to/lastmile_qr_scan"}, "fusion_lon": 0.0, "lat": 38.9238375, "bike_id": "731caee1d078b50ad05b3b1eae7a2d70", "type": "electric_scooter", "is_reserved": 0, "lon": -77.02884233333333}, {"fusion_lat": 0.0, "name": "25ae1241276cb66c236a64ad763e2b11", "is_disabled": 0, "rental_uris": {"android": "https://dc.lft.to/lastmile_qr_scan", "ios": "https://dc.lft.to/lastmile_qr_scan"}, "fusion_lon": 0.0, "lat": 38.9218175, "bike_id": "25ae1241276cb66c236a64ad763e2b11", "type": "electric_scooter", "is_reserved": 0, "lon": -77.02542166666667}, {"fusion_lat": 0.0, "name": "b51dc78f1848a30d61e50f09ea7367b5", "is_disabled": 0, "rental_uris": {"android": "https://dc.lft.to/lastmile_qr_scan", "ios": "https://dc.lft.to/lastmile_qr_scan"}, "fusion_lon": 0.0, "lat": 38.928369333333336, "bike_id": "b51dc78f1848a30d61e50f09ea7367b5", "type": "electric_scooter", "is_reserved": 0, "lon": -77.01372}, {"fusion_lat": 0.0, "name": "70e86f75f510a9e4fd3513cbeda9a939", "is_disabled": 0, "rental_uris": {"android": "https://dc.lft.to/lastmile_qr_scan", "ios": "https://dc.lft.to/lastmile_qr_scan"}, "fusion_lon": 0.0, "lat": 38.902340833333334, "bike_id": "70e86f75f510a9e4fd3513cbeda9a939", "type": "electric_bike", "is_reserved": 0, "lon": -77.02301933333334}, {"fusion_lat": 0.0, "name": "cc463f01be1caa8f79036b4c8d8f15f0", "is_disabled": 0, "rental_uris": {"android": "https://dc.lft.to/lastmile_qr_scan", "ios": "https://dc.lft.to/lastmile_qr_scan"}, "fusion_lon": 0.0, "lat": 38.9022285, "bike_id": "cc463f01be1caa8f79036b4c8d8f15f0", "type": "electric_scooter", "is_reserved": 0, "lon": -77.0215225}, {"fusion_lat": 0.0, "name": "d891a9e14fe7fa7fd4f5191e89c92c0a", "is_disabled": 0, "rental_uris": {"android": "https://dc.lft.to/lastmile_qr_scan", "ios": "https://dc.lft.to/lastmile_qr_scan"}, "fusion_lon": 0.0, "lat": 38.9028265, "bike_id": "d891a9e14fe7fa7fd4f5191e89c92c0a", "type": "electric_scooter", "is_reserved": 0, "lon": -77.03349766666666}, {"fusion_lat": 0.0, "name": "fdfcf95c4f0776a63870b84e47d86199", "is_disabled": 0, "rental_uris": {"android": "https://dc.lft.to/lastmile_qr_scan", "ios": "https://dc.lft.to/lastmile_qr_scan"}, "fusion_lon": 0.0, "lat": 38.916998166666666, "bike_id": "fdfcf95c4f0776a63870b84e47d86199", "type": "electric_scooter", "is_reserved": 0, "lon": -77.03719016666666}, {"fusion_lat": 0.0, "name": "08fb0b673de14d8f31f33bfa0aabcf89", "is_disabled": 0, "rental_uris": {"android": "https://dc.lft.to/lastmile_qr_scan", "ios": "https://dc.lft.to/lastmile_qr_scan"}, "fusion_lon": 0.0, "lat": 38.9389215, "bike_id": "08fb0b673de14d8f31f33bfa0aabcf89", "type": "electric_scooter", "is_reserved": 0, "lon": -77.02469766666667}, {"fusion_lat": 0.0, "name": "d295d506f900eb9480c03185ff1fba47", "is_disabled": 0, "rental_uris": {"android": "https://dc.lft.to/lastmile_qr_scan", "ios": "https://dc.lft.to/lastmile_qr_scan"}, "fusion_lon": 0.0, "lat": 38.929743333333334, "bike_id": "d295d506f900eb9480c03185ff1fba47", "type": "electric_scooter", "is_reserved": 0, "lon": -77.0279235}, {"fusion_lat": 0.0, "name": "47eec6503eb7886680135cabc965c3cf", "is_disabled": 0, "rental_uris": {"android": "https://dc.lft.to/lastmile_qr_scan", "ios": "https://dc.lft.to/lastmile_qr_scan"}, "fusion_lon": 0.0, "lat": 38.923348833333336, "bike_id": "47eec6503eb7886680135cabc965c3cf", "type": "electric_scooter", "is_reserved": 0, "lon": -77.04581683333333}, {"fusion_lat": 0.0, "name": "0140701bb0217c4729c66e7994162e93", "is_disabled": 0, "rental_uris": {"android": "https://dc.lft.to/lastmile_qr_scan", "ios": "https://dc.lft.to/lastmile_qr_scan"}, "fusion_lon": 0.0, "lat": 38.8535375, "bike_id": "0140701bb0217c4729c66e7994162e93", "type": "electric_bike", "is_reserved": 0, "lon": -77.13483416666666}, {"fusion_lat": 0.0, "name": "a3c463e17d3f00fb95e87eadcc2321bc", "is_disabled": 0, "rental_uris": {"android": "https://dc.lft.to/lastmile_qr_scan", "ios": "https://dc.lft.to/lastmile_qr_scan"}, "fusion_lon": 0.0, "lat": 38.886705, "bike_id": "a3c463e17d3f00fb95e87eadcc2321bc", "type": "electric_scooter", "is_reserved": 0, "lon": -77.00113716666667}, {"fusion_lat": 0.0, "name": "1680f84ee2beb42e919b3fc296f33440", "is_disabled": 0, "rental_uris": {"android": "https://dc.lft.to/lastmile_qr_scan", "ios": "https://dc.lft.to/lastmile_qr_scan"}, "fusion_lon": 0.0, "lat": 38.862461, "bike_id": "1680f84ee2beb42e919b3fc296f33440", "type": "electric_scooter", "is_reserved": 0, "lon": -76.99497883333333}, {"fusion_lat": 0.0, "name": "b8e8df053f5c36ba1bade040645589f0", "is_disabled": 0, "rental_uris": {"android": "https://dc.lft.to/lastmile_qr_scan", "ios": "https://dc.lft.to/lastmile_qr_scan"}, "fusion_lon": 0.0, "lat": 38.901392333333334, "bike_id": "b8e8df053f5c36ba1bade040645589f0", "type": "electric_scooter", "is_reserved": 0, "lon": -76.99845233333333}, {"fusion_lat": 0.0, "name": "e4c98f35cf688103255083dce24133c5", "is_disabled": 0, "rental_uris": {"android": "https://dc.lft.to/lastmile_qr_scan", "ios": "https://dc.lft.to/lastmile_qr_scan"}, "fusion_lon": 0.0, "lat": 38.90980366666667, "bike_id": "e4c98f35cf688103255083dce24133c5", "type": "electric_scooter", "is_reserved": 0, "lon": -77.033848},