{"data": {"bikes": [{"bike_id": "07baa01a3772d0ea597e5dc84a4543ca", "fusion_lon": 0.0, "name": "07baa01a3772d0ea597e5dc84a4543ca", "lat": 38.92974, "is_disabled": 0, "is_reserved": 0, "lon": -77.02819266666667, "type": "electric_scooter", "fusion_lat": 0.0, "rental_uris": {"android": "https://dc.lft.to/lastmile_qr_scan", "ios": "https://dc.lft.to/lastmile_qr_scan"}}, {"bike_id": "e4d7e3e997bec1c013fe7be5198b99b9", "fusion_lon": 0.0, "name": "e4d7e3e997bec1c013fe7be5198b99b9", "lat": 38.89004416666667, "is_disabled": 0, "is_reserved": 0, "lon": -76.93744166666667, "type": "electric_scooter", "fusion_lat": 0.0, "rental_uris": {"android": "https://dc.lft.to/lastmile_qr_scan", "ios": "https://dc.lft.to/lastmile_qr_scan"}}, {"bike_id": "15eea76f448eb6053054eab8957373f8", "fusion_lon": 0.0, "name": "15eea76f448eb6053054eab8957373f8", "lat": 38.845073, "is_disabled": 0, "is_reserved": 0, "lon": -76.99353783333333, "type": "electric_bike", "fusion_lat": 0.0, "rental_uris": {"android": "https://dc.lft.to/lastmile_qr_scan", "ios": "https://dc.lft.to/lastmile_qr_scan"}}, {"bike_id": "ef5c31fbc0aae7089a0124752a3f474c", "fusion_lon": 0.0, "name": "ef5c31fbc0aae7089a0124752a3f474c", "lat": 38.92864816666667, "is_disabled": 0, "is_reserved": 0, "lon": -77.03319116666667, "type": "electric_scooter", "fusion_lat": 0.0, "rental_uris": {"android": "https://dc.lft.to/lastmile_qr_scan", "ios": "https://dc.lft.to/lastmile_qr_scan"}}, {"bike_id": "10298561c50c0d65d2b36080ad4b42a6", "fusion_lon": 0.0, "name": "10298561c50c0d65d2b36080ad4b42a6", "lat": 38.904113333333335, "is_disabled": 0, "is_reserved": 0, "lon": -76.973336, "type": "electric_scooter", "fusion_lat": 0.0, "rental_uris": {"android": "https://dc.lft.to/lastmile_qr_scan", "ios": "https://dc.lft.to/lastmile_qr_scan"}}, {"bike_id": "18d37b308de2c79d739d0ec1afd9b36f", "fusion_lon": 0.0, "name": "18d37b308de2c79d739d0ec1afd9b36f", "lat": 38.9227055, "is_disabled": 0, "is_reserved": 0, "lon": -77.04231566666667, "type": "electric_scooter", "fusion_lat": 0.0, "rental_uris": {"android": "https://dc.lft.to/lastmile_qr_scan", "ios": "https://dc.lft.to/lastmile_qr_scan"}}, {"bike_id": "e0b9e86013eb7bc6729c0b1954605f07", "fusion_lon": 0.0, "name": "e0b9e86013eb7bc6729c0b1954605f07", "lat": 38.8577915, "is_disabled": 0, "is_reserved": 0, "lon": -76.9729945, "type": "electric_scooter", "fusion_lat": 0.0, "rental_uris": {"android": "https://dc.lft.to/lastmile_qr_scan", "ios": "https://dc.lft.to/lastmile_qr_scan"}}, {"bike_id": "f9e9f4b709bb05e10662f28532204e98", "fusion_lon": 0.0, "name": "f9e9f4b709bb05e10662f28532204e98", "lat": 38.8956705, "is_disabled": 0, "is_reserved": 0, "lon": -77.12739816666667, "type": "electric_bike", "fusion_lat": 0.0, "rental_uris": {"android": "https://dc.lft.to/lastmile_qr_scan", "ios": "https://dc.lft.to/lastmile_qr_scan"}}, {"bike_id": "c37dce9cc612786d57fc12b85a781d4b", "fusion_lon": 0.0, "name": "c37dce9cc612786d57fc12b85a781d4b", "lat": 38.89613333333333, "is_disabled": 0, "is_reserved": 0, "lon": -77.04481533333333, "type": "electric_scooter", "fusion_lat": 0.0, "rental_uris": {"android": "https://dc.lft.to/lastmile_qr_scan", "ios": "https://dc.lft.to/lastmile_qr_scan"}}, {"bike_id": "af4eb8b93926484a836199c2cfe7afe9", "fusion_lon": 0.0, "name": "af4eb8b93926484a836199c2cfe7afe9", "lat": 38.910855166666664, "is_disabled": 0, "is_reserved": 0, "lon": -77.0219605, "type": "electric_scooter", "fusion_lat": 0.0, "rental_uris": {"android": "https://dc.lft.to/lastmile_qr_scan", "ios": "https://dc.lft.to/lastmile_qr_scan"}}, {"bike_id": "94c9accb52c8912a83bc8e1d6ee2ecf4", "fusion_lon": 0.0, "name": "94c9accb52c8912a83bc8e1d6ee2ecf4", "lat": 38.903799166666666, "is_disabled": 0, "is_reserved": 0, "lon": -77.06269, "type": "electric_scooter", "fusion_lat": 0.0, "rental_uris": {"android": "https://dc.lft.to/lastmile_qr_scan", "ios": "https://dc.lft.to/lastmile_qr_scan"}}, {"bike_id": "b2db5eb25bd7f79c0d12f8f4611b6f66", "fusion_lon": 0.0, "name": "b2db5eb25bd7f79c0d12f8f4611b6f66", "lat": 38.912789833333335, "is_disabled": 0, "is_reserved": 0, "lon": -77.04728033333333, "type": "electric_scooter", "fusion_lat": 0.0, "rental_uris": {"android": "https://dc.lft.to/lastmile_qr_scan", "ios": "https://dc.lft.to/lastmile_qr_scan"}}, {"bike_id": "17d667aa4bd75cc26d1313c095079592", "fusion_lon": 0.0, "name": "17d667aa4bd75cc26d1313c095079592", "lat": 38.89605516666666, "is_disabled": 0, "is_reserved": 0, "lon": -77.04415033333333, "type": "electric_scooter", "fusion_lat": 0.0, "rental_uris": {"android": "https://dc.lft.to/lastmile_qr_scan", "ios": "https://dc.lft.to/lastmile_qr_scan"}}, {"bike_id": "d4f1153deebdce80015a2e41ead3ad83", "fusion_lon": 0.0, "name": "d4f1153deebdce80015a2e41ead3ad83", "lat": 38.91195833333333, "is_disabled": 0, "is_reserved": 0, "lon": -77.039582, "type": "electric_scooter", "fusion_lat": 0.0, "rental_uris": {"android": "https://dc.lft.to/lastmile_qr_scan", "ios": "https://dc.lft.to/lastmile_qr_scan"}}, {"bike_id": "6431f0cb076e9356a388e9646013ad25", "fusion_lon": 0.0, "name": "6431f0cb076e9356a388e9646013ad25", "lat": 38.993877166666664, "is_disabled": 0, "is_reserved": 0, "lon": -77.03101616666666, "type": "electric_bike", "fusion_lat": 0.0, "rental_uris": {"android": "https://dc.lft.to/lastmile_qr_scan", "ios": "https://dc.lft.to/lastmile_qr_scan"}}, {"bike_id": "6f18d2066b17dc95807b29f93952f6ca", "fusion_lon": 0.0, "name": "6f18d2066b17dc95807b29f93952f6ca", "lat": 38.928534, "is_disabled": 0, "is_reserved": 0, "lon": -77.03279733333333, "type": "electric_scooter", "fusion_lat": 0.0, "rental_uris": {"android": "https://dc.lft.to/lastmile_qr_scan", "ios": "https://dc.lft.to/lastmile_qr_scan"}}, {"bike_id": "d00a144cc39f4f4219e6d17672bbe54f", "fusion_lon": 0.0, "name": "d00a144cc39f4f4219e6d17672bbe54f", "lat": 38.88874033333333, "is_disabled": 0, "is_reserved": 0, "lon": -76.9773265, "type": "electric_scooter", "fusion_lat": 0.0, "rental_uris": {"android": "https://dc.lft.to/lastmile_qr_scan", "ios": "https://dc.lft.to/lastmile_qr_scan"}}, {"bike_id": "f14a26803284f6c1a21e71eea2e02731", "fusion_lon": 0.0, "name": "f14a26803284f6c1a21e71eea2e02731", "lat": 38.88491583333333, "is_disabled": 0, "is_reserved": 0, "lon": -77.00710583333333, "type": "electric_scooter", "fusion_lat": 0.0, "rental_uris": {"android": "https://dc.lft.to/lastmile_qr_scan", "ios": "https://dc.lft.to/lastmile_qr_scan"}}, {"bike_id": "550eadc9263469628a14fcfb7064dc7c", "fusion_lon": 0.0, "name": "550eadc9263469628a14fcfb7064dc7c", "lat": 38.867589, "is_disabled": 0, "is_reserved": 0, "lon": -76.98277166666666, "type": "electric_scooter", "fusion_lat": 0.0, "rental_uris": {"android": "https://dc.lft.to/lastmile_qr_scan", "ios": "https://dc.lft.to/lastmile_qr_scan"}}, {"bike_id": "a67bbdf314120760a61801a1dc46ca1e", "fusion_lon": 0.0, "name": "a67bbdf314120760a61801a1dc46ca1e", "lat": 38.940870833333335, "is_disabled": 0, "is_reserved": 0, "lon": -77.0618225, "type": "electric_scooter", "fusion_lat": 0.0, "rental_uris": {"android": "https://dc.lft.to/lastmile_qr_scan", "ios": "https://dc.lft.to/lastmile_qr_scan"}}, {"bike_id": "672aa4aaff2e86b83797e317a9bb6062", "fusion_lon": 0.0, "name": "672aa4aaff2e86b83797e317a9bb6062", "lat": 38.91940816666666, "is_disabled": 0, "is_reserved": 0, "lon": -77.01846783333333, "type": "electric_scooter", "fusion_lat": 0.0, "rental_uris": {"android": "https://dc.lft.to/lastmile_qr_scan", "ios": "https://dc.lft.to/lastmile_qr_scan"}}, {"bike_id": "6ab27fc0d97b6c330ab9756738aadc42", "fusion_lon": 0.0, "name": "6ab27fc0d97b6c330ab9756738aadc42", "lat": 38.91698216666666, "is_disabled": 0, "is_reserved": 0, "lon": -77.0282485, "type": "electric_scooter", "fusion_lat": 0.0, "rental_uris": {"android": "https://dc.lft.to/lastmile_qr_scan", "ios": "https://dc.lft.to/lastmile_qr_scan"}}, {"bike_id": "99f3135449a2bb6d3d423cea6c8e0f42", "fusion_lon": 0.0, "name": "99f3135449a2bb6d3d423cea6c8e0f42", "lat": 38.88400633333333, "is_disabled": 0, "is_reserved": 0, "lon": -76.93044883333333, "type": "electric_scooter", "fusion_lat": 0.0, "rental_uris": {"android": "https://dc.lft.to/lastmile_qr_scan", "ios": "https://dc.lft.to/lastmile_qr_scan"}}, {"bike_id": "538ef0d9609dd3ffb6bbf1f01ecda963", "fusion_lon": 0.0, "name": "538ef0d9609dd3ffb6bbf1f01ecda963", "lat": 38.89233133333333, "is_disabled": 0, "is_reserved": 0, "lon": -77.02184433333333, "type": "electric_scooter", "fusion_lat": 0.0, "rental_uris": {"android": "https://dc.lft.to/lastmile_qr_scan", "ios": "https://dc.lft.to/lastmile_qr_scan"}}, {"bike_id": "e139f912a6e9cfe81ea08ae8ca0fc2d0", "fusion_lon": 0.0, "name": "e139f912a6e9cfe81ea08ae8ca0fc2d0", "lat": 38.9045395, "is_disabled": 0, "is_reserved": 0, "lon": -76.98241466666667, "type": "electric_scooter", "fusion_lat": 0.0, "rental_uris": {"android": "https://dc.lft.to/lastmile_qr_scan", "ios": "https://dc.lft.to/lastmile_qr_scan"}}, {"bike_id": "a3c402ea12a2603a350cfa22fe355071", "fusion_lon": 0.0, "name": "a3c402ea12a2603a350cfa22fe355071", "lat": 38.92316733333333, "is_disabled": 0, "is_reserved": 0, "lon": -77.04397416666667, "type": "electric_scooter", "fusion_lat": 0.0, "rental_uris": {"android": "https://dc.lft.to/lastmile_qr_scan", "ios": "https://dc.lft.to/lastmile_qr_scan"}}, {"bike_id": "0bfdff3f56e51910600f339e0e264cde", "fusion_lon": 0.0, "name": "0bfdff3f56e51910600f339e0e264cde", "lat": 38.94901983333333, "is_disabled": 0, "is_reserved": 0, "lon": -76.9636295, "type": "electric_bike", "fusion_lat": 0.0, "rental_uris": {"android": "https://dc.lft.to/lastmile_qr_scan", "ios": "https://dc.lft.to/lastmile_qr_scan"}}, {"bike_id": "2bd2d08f1124a4859ab9a679acb4d8c0", "fusion_lon": 0.0, "name": "2bd2d08f1124a4859ab9a679acb4d8c0", "lat": 38.895579166666664, "is_disabled": 0, "is_reserved": 0, "lon": -77.04677183333334, "type": "electric_scooter", "fusion_lat": 0.0, "rental_uris": {"android": "https://dc.lft.to/lastmile_qr_scan", "ios": "https://dc.lft.to/lastmile_qr_scan"}}, {"bike_id": "18519d7bd32603399bf843edaabd0dac", "fusion_lon": 0.0, "name": "18519d7bd32603399bf843edaabd0dac", "lat": 38.90986083333333, "is_disabled": 0, "is_reserved": 0, "lon": -77.0345935, "type": "electric_scooter", "fusion_lat": 0.0, "rental_uris": {"android": "https://dc.lft.to/lastmile_qr_scan", "ios": "https://dc.lft.to/lastmile_qr_scan"}}, {"bike_id": "a7d83ae435535d7206843c6d75ba25b6", "fusion_lon": 0.0, "name": "a7d83ae435535d7206843c6d75ba25b6", "lat": 38.918784333333335, "is_disabled": 0, "is_reserved": 0, "lon": -77.04310283333334, "type": "electric_scooter", "fusion_lat": 0.0, "rental_uris": {"android": "https://dc.lft.to/lastmile_qr_scan", "ios": "https://dc.lft.to/lastmile_qr_scan"}}, {"bike_id": "ac65f888f9631e0cf371b6c8b3e032ce", "fusion_lon": 0.0, "name": "ac65f888f9631e0cf371b6c8b3e032ce", "lat": 38.9003595, "is_disabled": 0, "is_reserved": 0, "lon": -77.01297566666666, "type": "electric_scooter", "fusion_lat": 0.0, "rental_uris": {"android": "https://dc.lft.to/lastmile_qr_scan", "ios": "https://dc.lft.to/lastmile_qr_scan"}}, {"bike_id": "ff103230ede3ca6b9e771e8028195657", "fusion_lon": 0.0, "name": "ff103230ede3ca6b9e771e8028195657", "lat": 38.87681716666667, "is_disabled": 0, "is_reserved": 0, "lon": -77.00760383333333, "type": "electric_scooter", "fusion_lat": 0.0, "rental_uris": {"android": "https://dc.lft.to/lastmile_qr_scan", "ios": "https://dc.lft.to/lastmile_qr_scan"}}, {"bike_id": "68adbb33d629de5d1be7f9678f0d2b68", "fusion_lon": 0.0, "name": "68adbb33d629de5d1be7f9678f0d2b68", "lat": 38.88764966666667, "is_disabled": 0, "is_reserved": 0, "lon": -76.97754416666666, "type": "electric_scooter", "fusion_lat": 0.0, "rental_uris": {"android": "https://dc.lft.to/lastmile_qr_scan", "ios": "https://dc.lft.to/lastmile_qr_scan"}}, {"bike_id": "9d47009da9c2978fd2557f3a96f19e78", "fusion_lon": 0.0, "name": "9d47009da9c2978fd2557f3a96f19e78", "lat": 38.90561666666667, "is_disabled": 0, "is_reserved": 0, "lon": -77.04348783333333, "type": "electric_scooter", "fusion_lat": 0.0, "rental_uris": {"android": "https://dc.lft.to/lastmile_qr_scan", "ios": "https://dc.lft.to/lastmile_qr_scan"}}, {"bike_id": "01e23602ac4d18e1a3b13d8ae7d8dc53", "fusion_lon": 0.0, "name": "01e23602ac4d18e1a3b13d8ae7d8dc53", "lat": 38.91490566666667, "is_disabled": 0, "is_reserved": 0, "lon": -77.0483365, "type": "electric_scooter", "fusion_lat": 0.0, "rental_uris": {"android": "https://dc.lft.to/lastmile_qr_scan", "ios": "https://dc.lft.to/lastmile_qr_scan"}}, {"bike_id": "97aad81a7d9992c49019fc3edd4c6d0d", "fusion_lon": 0.0, "name": "97aad81a7d9992c49019fc3edd4c6d0d", "lat": 38.949136, "is_disabled": 0, "is_reserved": 0, "lon": -77.06617166666666, "type": "electric_scooter", "fusion_lat": 0.0, "rental_uris": {"android": "https://dc.lft.to/lastmile_qr_scan", "ios": "https://dc.lft.to/lastmile_qr_scan"}}, {"bike_id": "a549f9eaa56dcad5f731c7ad34411087", "fusion_lon": 0.0, "name": "a549f9eaa56dcad5f731c7ad34411087", "lat": 38.91299733333334, "is_disabled": 0, "is_reserved": 0, "lon": -76.98469016666667, "type": "electric_scooter", "fusion_lat": 0.0, "rental_uris": {"android": "https://dc.lft.to/lastmile_qr_scan", "ios": "https://dc.lft.to/lastmile_qr_scan"}}, {"bike_id": "2de8b83824f26f18c8399cdb2016e2ff", "fusion_lon": 0.0, "name": "2de8b83824f26f18c8399cdb2016e2ff", "lat": 38.912630666666665, "is_disabled": 0, "is_reserved": 0, "lon": -77.048388, "type": "electric_scooter", "fusion_lat": 0.0, "rental_uris": {"android": "https://dc.lft.to/lastmile_qr_scan", "ios": "https://dc.lft.to/lastmile_qr_scan"}}, {"bike_id": "2565d659fd6d380e38fafaa789110e2f", "fusion_lon": 0.0, "name": "2565d659fd6d380e38fafaa789110e2f", "lat": 38.9230525, "is_disabled": 0, "is_reserved": 0, "lon": -77.0411045, "type": "electric_scooter", "fusion_lat": 0.0, "rental_uris": {"android": "https://dc.lft.to/lastmile_qr_scan", "ios": "https://dc.lft.to/lastmile_qr_scan"}}, {"bike_id": "698d6c4e0022e56f0ad0ea1aa37ff15c", "fusion_lon": 0.0, "name": "698d6c4e0022e56f0ad0ea1aa37ff15c", "lat": 38.893624833333334, "is_disabled": 0, "is_reserved": 0, "lon": -76.92594366666667, "type": "electric_scooter", "fusion_lat": 0.0, "rental_uris": {"android": "https://dc.lft.to/lastmile_qr_scan", "ios": "https://dc.lft.to/lastmile_qr_scan"}}, {"bike_id": "93a3d6f0148afd65ada68a0b7652e632", "fusion_lon": 0.0, "name": "93a3d6f0148afd65ada68a0b7652e632", "lat": 38.909537, "is_disabled": 0, "is_reserved": 0, "lon": -76.9853835, "type": "electric_scooter", "fusion_lat": 0.0, "rental_uris": {"android": "https://dc.lft.to/lastmile_qr_scan", "ios": "https://dc.lft.to/lastmile_qr_scan"}}, {"bike_id": "4744522d2ae16af36c690826e8944b60", "fusion_lon": 0.0, "name": "4744522d2ae16af36c690826e8944b60", "lat": 38.917022833333334, "is_disabled": 0, "is_reserved": 0, "lon": -77.04211583333333, "type": "electric_scooter", "fusion_lat": 0.0, "rental_uris": {"android": "https://dc.lft.to/lastmile_qr_scan", "ios": "https://dc.lft.to/lastmile_qr_scan"}}, {"bike_id": "3c9b21cb0a24223d92fd86a028dfe4a3", "fusion_lon": 0.0, "name": "3c9b21cb0a24223d92fd86a028dfe4a3", "lat": 38.905754, "is_disabled": 0, "is_reserved": 0, "lon": -77.04077466666666, "type": "electric_scooter", "fusion_lat": 0.0, "rental_uris": {"android": "https://dc.lft.to/lastmile_qr_scan", "ios": "https://dc.lft.to/lastmile_qr_scan"}}, {"bike_id": "0df2b3a8547d5ef2e2a72c3129244090", "fusion_lon": 0.0, "name": "0df2b3a8547d5ef2e2a72c3129244090", "lat": 38.865166, "is_disabled": 0, "is_reserved": 0, "lon": -77.12934816666667, "type": "electric_bike", "fusion_lat": 0.0, "rental_uris": {"android": "https://dc.lft.to/lastmile_qr_scan", "ios": "https://dc.lft.to/lastmile_qr_scan"}}, {"bike_id": "a500fafcbc3513060889f5665979c377", "fusion_lon": 0.0, "name": "a500fafcbc3513060889f5665979c377", "lat": 38.9002795, "is_disabled": 0, "is_reserved": 0, "lon": -77.006745, "type": "electric_scooter", "fusion_lat": 0.0, "rental_uris": {"android": "https://dc.lft.to/lastmile_qr_scan", "ios": "https://dc.lft.to/lastmile_qr_scan"}}, {"bike_id": "c4354fe4dc3987be382c6df6c02eb5f2", "fusion_lon": 0.0, "name": "c4354fe4dc3987be382c6df6c02eb5f2", "lat": 38.824602166666665, "is_disabled": 0, "is_reserved": 0, "lon": -77.00798466666667, "type": "electric_bike", "fusion_lat": 0.0, "rental_uris": {"android": "https://dc.lft.to/lastmile_qr_scan", "ios": "https://dc.lft.to/lastmile_qr_scan"}}, {"bike_id": "e3c7d3a7109aba0933b5343c64f3fc70", "fusion_lon": 0.0, "name": "e3c7d3a7109aba0933b5343c64f3fc70", "lat": 38.92359283333333, "is_disabled": 0, "is_reserved": 0, "lon": -77.05050916666667, "type": "electric_scooter", "fusion_lat": 0.0, "rental_uris": {"android": "https://dc.lft.to/lastmile_qr_scan", "ios": "https://dc.lft.to/lastmile_qr_scan"}}, {"bike_id": "f962680fdeba8fda6f5d0d469f36aeba", "fusion_lon": 0.0, "name": "f962680fdeba8fda6f5d0d469f36aeba", "lat": 38.91078016666667, "is_disabled": 0, "is_reserved": 0, "lon": -77.06545266666667, "type": "electric_bike", "fusion_lat": 0.0, "rental_uris": {"android": "https://dc.lft.to/lastmile_qr_scan", "ios": "https://dc.lft.to/lastmile_qr_scan"}}, {"bike_id": "992baa0a44ce734c6f89a76aedf2a6a1", "fusion_lon": 0.0, "name": "992baa0a44ce734c6f89a76aedf2a6a1", "lat": 38.895946333333335, "is_disabled": 0, "is_reserved": 0, "lon": -77.02575133333333, "type": "electric_scooter", "fusion_lat": 0.0, "rental_uris": {"android": "https://dc.lft.to/lastmile_qr_scan", "ios": "https://dc.lft.to/lastmile_qr_scan"}}, {"bike_id": "f11fad82ecd0df6e99a12c65700d9835", "fusion_lon": 0.0, "name": "f11fad82ecd0df6e99a12c65700d9835", "lat": 38.904712, "is_disabled": 0, "is_reserved": 0, "lon": -77.02828533333333, "type": "electric_scooter", "fusion_lat": 0.0, "rental_uris": {"android": "https://dc.lft.to/lastmile_qr_scan", "ios": "https://dc.lft.to/lastmile_qr_scan"}}, {"bike_id": "48225465611e03187ba606d54c2c2b0e", "fusion_lon": 0.0, "name": "48225465611e03187ba606d54c2c2b0e", "lat": 38.94050333333333, "is_disabled": 0, "is_reserved": 0, "lon": -77.02978966666667, "type": "electric_scooter", "fusion_lat": 0.0, "rental_uris": {"android": "https://dc.lft.to/lastmile_qr_scan", "ios": "https://dc.lft.to/lastmile_qr_scan"}}, {"bike_id": "b949b4b56443836b3656aad104b88d72", "fusion_lon": 0.0, "name": "b949b4b56443836b3656aad104b88d72", "lat": 38.90832916666667, "is_disabled": 0, "is_reserved": 0, "lon": -77.04355333333334, "type": "electric_scooter", "fusion_lat": 0.0, "rental_uris": {"android": "https://dc.lft.to/lastmile_qr_scan", "ios": "https://dc.lft.to/lastmile_qr_scan"}}, {"bike_id": "6e7db9f68a96b937a850c5aeba173db4", "fusion_lon": 0.0, "name": "6e7db9f68a96b937a850c5aeba173db4", "lat": 38.9012, "is_disabled": 0, "is_reserved": 0, "lon": -77.042338, "type": "electric_scooter", "fusion_lat": 0.0, "rental_uris": {"android": "https://dc.lft.to/lastmile_qr_scan", "ios": "https://dc.lft.to/lastmile_qr_scan"}}, {"bike_id": "1bbaf59fb647e2f8522d6138b699ba2f", "fusion_lon": 0.0, "name": "1bbaf59fb647e2f8522d6138b699ba2f", "lat": 38.93394166666667, "is_disabled": 0, "is_reserved": 0, "lon": -77.05740616666667, "type": "electric_scooter", "fusion_lat": 0.0, "rental_uris": {"android": "https://dc.lft.to/lastmile_qr_scan", "ios": "https://dc.lft.to/lastmile_qr_scan"}}, {"bike_id": "2c857d44df02077aa1b8c09650becdce", "fusion_lon": 0.0, "name": "2c857d44df02077aa1b8c09650becdce", "lat": 38.96201883333333, "is_disabled": 0, "is_reserved": 0, "lon": -77.02227566666667, "type": "electric_scooter", "fusion_lat": 0.0, "rental_uris": {"android": "https://dc.lft.to/lastmile_qr_scan", "ios": "https://dc.lft.to/lastmile_qr_scan"}}, {"bike_id": "02878252e77b23128d647ede832ec306", "fusion_lon": 0.0, "name": "02878252e77b23128d647ede832ec306", "lat": 38.89865316666667, "is_disabled": 0, "is_reserved": 0, "lon": -77.032918, "type": "electric_scooter", "fusion_lat": 0.0, "rental_uris": {"android": "https://dc.lft.to/lastmile_qr_scan", "ios": "https://dc.lft.to/lastmile_qr_scan"}}, {"bike_id": "1e2740f301a2fd5cb03ca3d09a3aa9ee", "fusion_lon": 0.0, "name": "1e2740f301a2fd5cb03ca3d09a3aa9ee", "lat": 38.92055666666667, "is_disabled": 0, "is_reserved": 0, "lon": -77.02419233333333, "type": "electric_scooter", "fusion_lat": 0.0, "rental_uris": {"android": "https://dc.lft.to/lastmile_qr_scan", "ios": "https://dc.lft.to/lastmile_qr_scan"}}, {"bike_id": "fa06c7da18ee9e174a1587d7d9091222", "fusion_lon": 0.0, "name": "fa06c7da18ee9e174a1587d7d9091222", "lat": 38.903051833333336, "is_disabled": 0, "is_reserved": 0, "lon": -76.9765105, "type": "electric_bike", "fusion_lat": 0.0, "rental_uris": {"android": "https://dc.lft.to/lastmile_qr_scan", "ios": "https://dc.lft.to/lastmile_qr_scan"}}, {"bike_id": "c417278c9f8372370d96cba4718994f0", "fusion_lon": 0.0, "name": "c417278c9f8372370d96cba4718994f0", "lat": 38.902922833333335, "is_disabled": 0, "is_reserved": 0, "lon": -76.97638233333333, "type": "electric_scooter", "fusion_lat": 0.0, "rental_uris": {"android": "https://dc.lft.to/lastmile_qr_scan", "ios": "https://dc.lft.to/lastmile_qr_scan"}}, {"bike_id": "77ef9c7a8da3e421260128f16782f327", "fusion_lon": 0.0, "name": "77ef9c7a8da3e421260128f16782f327", "lat": 38.903353333333335, "is_disabled": 0, "is_reserved": 0, "lon": -77.05273466666667, "type": "electric_scooter", "fusion_lat": 0.0, "rental_uris": {"android": "https://dc.lft.to/lastmile_qr_scan", "ios": "https://dc.lft.to/lastmile_qr_scan"}}, {"bike_id": "02dd12fffebfcd31c39ad44717effa87", "fusion_lon": 0.0, "name": "02dd12fffebfcd31c39ad44717effa87", "lat": 38.892253833333335, "is_disabled": 0, "is_reserved": 0, "lon": -77.03972216666666, "type": "electric_scooter", "fusion_lat": 0.0, "rental_uris": {"android": "https://dc.lft.to/lastmile_qr_scan", "ios": "https://dc.lft.to/lastmile_qr_scan"}}, {"bike_id": "b264d19bdf9aaaccfb32d7a9a4cd8435", "fusion_lon": 0.0, "name": "b264d19bdf9aaaccfb32d7a9a4cd8435", "lat": 38.918319333333336, "is_disabled": 0, "is_reserved": 0, "lon": -77.036409, "type": "electric_scooter", "fusion_lat": 0.0, "rental_uris": {"android": "https://dc.lft.to/lastmile_qr_scan", "ios": "https://dc.lft.to/lastmile_qr_scan"}}, {"bike_id": "fa4f7aab9448c8178240d9c4c9605cb5", "fusion_lon": 0.0, "name": "fa4f7aab9448c8178240d9c4c9605cb5", "lat": 38.924670666666664, "is_disabled": 0, "is_reserved": 0, "lon": -77.02252333333334, "type": "electric_scooter", "fusion_lat": 0.0, "rental_uris": {"android": "https://dc.lft.to/lastmile_qr_scan", "ios": "https://dc.lft.to/lastmile_qr_scan"}}, {"bike_id": "f1939517fc526ab94eb2835bf3f98d36", "fusion_lon": 0.0, "name": "f1939517fc526ab94eb2835bf3f98d36", "lat": 38.9977905, "is_disabled": 0, "is_reserved": 0, "lon": -77.04715683333333, "type": "electric_bike", "fusion_lat": 0.0, "rental_uris": {"android": "https://dc.lft.to/lastmile_qr_scan", "ios": "https://dc.lft.to/lastmile_qr_scan"}}, {"bike_id": "101ffe29f8ace183917d0ec0fc343ea9", "fusion_lon": 0.0, "name": "101ffe29f8ace183917d0ec0fc343ea9", "lat": 38.93460566666667, "is_disabled": 0, "is_reserved": 0, "lon": -77.02400766666666, "type": "electric_scooter", "fusion_lat": 0.0, "rental_uris": {"android": "https://dc.lft.to/lastmile_qr_scan", "ios": "https://dc.lft.to/lastmile_qr_scan"}}, {"bike_id": "905afcc54635832e0c21c0b283aba98d", "fusion_lon": 0.0, "name": "905afcc54635832e0c21c0b283aba98d", "lat": 38.904665666666666, "is_disabled": 0, "is_reserved": 0, "lon": -77.06522316666667, "type": "electric_scooter", "fusion_lat": 0.0, "rental_uris": {"android": "https://dc.lft.to/lastmile_qr_scan", "ios": "https://dc.lft.to/lastmile_qr_scan"}}, {"bike_id": "b4cd069253ae9ecbdb5b7e8323ee51f4", "fusion_lon": 0.0, "name": "b4cd069253ae9ecbdb5b7e8323ee51f4", "lat": 38.87926683333333, "is_disabled": 0, "is_reserved": 0, "lon": -77.0237095, "type": "electric_scooter", "fusion_lat": 0.0, "rental_uris": {"android": "https://dc.lft.to/lastmile_qr_scan", "ios": "https://dc.lft.to/lastmile_qr_scan"}}, {"bike_id": "6fb5ddaad0ee86ea02fc01a2724555d9", "fusion_lon": 0.0, "name": "6fb5ddaad0ee86ea02fc01a2724555d9", "lat": 38.903396666666666, "is_disabled": 0, "is_reserved": 0, "lon": -77.0448475, "type": "electric_scooter", "fusion_lat": 0.0, "rental_uris": {"android": "https://dc.lft.to/lastmile_qr_scan", "ios": "https://dc.lft.to/lastmile_qr_scan"}}, {"bike_id": "8437b0fd70fd16ffbb805d95694b0d39", "fusion_lon": 0.0, "name": "8437b0fd70fd16ffbb805d95694b0d39", "lat": 38.920508166666664, "is_disabled": 0, "is_reserved": 0, "lon": -77.02427716666666, "type": "electric_scooter", "fusion_lat": 0.0, "rental_uris": {"android": "https://dc.lft.to/lastmile_qr_scan", "ios": "https://dc.lft.to/lastmile_qr_scan"}}, {"bike_id": "179da7ad9c84a3af26b1e3174b271dc2", "fusion_lon": 0.0, "name": "179da7ad9c84a3af26b1e3174b271dc2", "lat": 38.918636, "is_disabled": 0, "is_reserved": 0, "lon": -77.040677, "type": "electric_scooter", "fusion_lat": 0.0, "rental_uris": {"android": "https://dc.lft.to/lastmile_qr_scan", "ios": "https://dc.lft.to/lastmile_qr_scan"}}, {"bike_id": "600c63352f3a4c5b1eca10905a5b5e4b", "fusion_lon": 0.0, "name": "600c63352f3a4c5b1eca10905a5b5e4b", "lat": 38.892321833333334, "is_disabled": 0, "is_reserved": 0, "lon": -77.05000183333334, "type": "electric_scooter", "fusion_lat": 0.0, "rental_uris": {"android": "https://dc.lft.to/lastmile_qr_scan", "ios": "https://dc.lft.to/lastmile_qr_scan"}}, {"bike_id": "8d5aca96d0c448b037397d82fa0b2b46", "fusion_lon": 0.0, "name": "8d5aca96d0c448b037397d82fa0b2b46", "lat": 38.894922333333334, "is_disabled": 0, "is_reserved": 0, "lon": -77.01528833333333, "type": "electric_scooter", "fusion_lat": 0.0, "rental_uris": {"android": "https://dc.lft.to/lastmile_qr_scan", "ios": "https://dc.lft.to/lastmile_qr_scan"}}, {"bike_id": "592a7285afe82094544c3aabd3065b55", "fusion_lon": 0.0, "name": "592a7285afe82094544c3aabd3065b55", "lat": 38.93793933333333, "is_disabled": 0, "is_reserved": 0, "lon": -77.02467683333333, "type": "electric_scooter", "fusion_lat": 0.0, "rental_uris": {"android": "https://dc.lft.to/lastmile_qr_scan", "ios": "https://dc.lft.to/lastmile_qr_scan"}}, {"bike_id": "2f5779e481a5972eba55bf8c26f180a9", "fusion_lon": 0.0, "name": "2f5779e481a5972eba55bf8c26f180a9", "lat": 38.920201666666664, "is_disabled": 0, "is_reserved": 0, "lon": -77.01257533333333, "type": "electric_scooter", "fusion_lat": 0.0, "rental_uris": {"android": "https://dc.lft.to/lastmile_qr_scan", "ios": "https://dc.lft.to/lastmile_qr_scan"}}, {"bike_id": "a504b915ca329362937424d9f23f353c", "fusion_lon": 0.0, "name": "a504b915ca329362937424d9f23f353c", "lat": 38.88460533333333, "is_disabled": 0, "is_reserved": 0, "lon": -76.99836933333333, "type": "electric_scooter", "fusion_lat": 0.0, "rental_uris": {"android": "https://dc.lft.to/lastmile_qr_scan", "ios": "https://dc.lft.to/lastmile_qr_scan"}}, {"bike_id": "b833f696149f72d1be710544cea8fea0", "fusion_lon": 0.0, "name": "b833f696149f72d1be710544cea8fea0", "lat": 38.908428666666666, "is_disabled": 0, "is_reserved": 0, "lon": -77.05490266666666, "type": "electric_bike", "fusion_lat": 0.0, "rental_uris": {"android": "https://dc.lft.to/lastmile_qr_scan", "ios": "https://dc.lft.to/lastmile_qr_scan"}}, {"bike_id": "fe8eadc8648e80afcd1a9b5c81e6484b", "fusion_lon": 0.0, "name": "fe8eadc8648e80afcd1a9b5c81e6484b", "lat": 38.937022166666665, "is_disabled": 0, "is_reserved": 0, "lon": -77.024246, "type": "electric_scooter", "fusion_lat": 0.0, "rental_uris": {"android": "https://dc.lft.to/lastmile_qr_scan", "ios": "https://dc.lft.to/lastmile_qr_scan"}}, {"bike_id": "bbb47d2fce91ca75702c4a647974d57d", "fusion_lon": 0.0, "name": "bbb47d2fce91ca75702c4a647974d57d", "lat": 38.931811, "is_disabled": 0, "is_reserved": 0, "lon": -77.04300866666667, "type": "electric_scooter", "fusion_lat": 0.0, "rental_uris": {"android": "https://dc.lft.to/lastmile_qr_scan", "ios": "https://dc.lft.to/lastmile_qr_scan"}}, {"bike_id": "20405d4df843b917b6b088bbdc02627e", "fusion_lon": 0.0, "name": "20405d4df843b917b6b088bbdc02627e", "lat": 38.9136175, "is_disabled": 0, "is_reserved": 0, "lon": -77.0199255, "type": "electric_scooter", "fusion_lat": 0.0, "rental_uris": {"android": "https://dc.lft.to/lastmile_qr_scan", "ios": "https://dc.lft.to/lastmile_qr_scan"}}, {"bike_id": "5791a7bfb6e0978c5393b106626564df", "fusion_lon": 0.0, "name": "5791a7bfb6e0978c5393b106626564df", "lat": 38.929099, "is_disabled": 0, "is_reserved": 0, "lon": -77.03274033333334, "type": "electric_scooter", "fusion_lat": 0.0, "rental_uris": {"android": "https://dc.lft.to/lastmile_qr_scan", "ios": "https://dc.lft.to/lastmile_qr_scan"}}, {"bike_id": "62640d4227f277098d2c2677a80bbf80", "fusion_lon": 0.0, "name": "62640d4227f277098d2c2677a80bbf80", "lat": 38.898827833333335, "is_disabled": 0, "is_reserved": 0, "lon": -77.02961783333333, "type": "electric_scooter", "fusion_lat": 0.0, "rental_uris": {"android": "https://dc.lft.to/lastmile_qr_scan", "ios": "https://dc.lft.to/lastmile_qr_scan"}}, {"bike_id": "a1db45da4c16e3b06ebbf351e8e6c0c7", "fusion_lon": 0.0, "name": "a1db45da4c16e3b06ebbf351e8e6c0c7", "lat": 38.908229166666665, "is_disabled": 0, "is_reserved": 0, "lon": -77.05494966666667, "type": "electric_scooter", "fusion_lat": 0.0, "rental_uris": {"android": "https://dc.lft.to/lastmile_qr_scan", "ios": "https://dc.lft.to/lastmile_qr_scan"}}, {"bike_id": "068e4ca24461677b179bb000a1c03ae4", "fusion_lon": 0.0, "name": "068e4ca24461677b179bb000a1c03ae4", "lat": 38.917175, "is_disabled": 0, "is_reserved": 0, "lon": -77.01210533333334, "type": "electric_scooter", "fusion_lat": 0.0, "rental_uris": {"android": "https://dc.lft.to/lastmile_qr_scan", "ios": "https://dc.lft.to/lastmile_qr_scan"}}, {"bike_id": "405373c1d4ea943f89789bf8e39e7d51", "fusion_lon": 0.0, "name": "405373c1d4ea943f89789bf8e39e7d51", "lat": 38.952814333333336, "is_disabled": 0, "is_reserved": 0, "lon": -77.01792466666667, "type": "electric_scooter", "fusion_lat": 0.0, "rental_uris": {"android": "https://dc.lft.to/lastmile_qr_scan", "ios": "https://dc.lft.to/lastmile_qr_scan"}}, {"bike_id": "03371dbd2bba4f4545372a33a5e09eb3", "fusion_lon": 0.0, "name": "03371dbd2bba4f4545372a33a5e09eb3", "lat": 38.907800333333334, "is_disabled": 0, "is_reserved": 0, "lon": -77.04006416666667, "type": "electric_scooter", "fusion_lat": 0.0, "rental_uris": {"android": "https://dc.lft.to/lastmile_qr_scan", "ios": "https://dc.lft.to/lastmile_qr_scan"}}, {"bike_id": "818702520f01fd76b15bd491c0468a05", "fusion_lon": 0.0, "name": "818702520f01fd76b15bd491c0468a05", "lat": 38.90183916666667, "is_disabled": 0, "is_reserved": 0, "lon": -77.02151083333334, "type": "electric_scooter", "fusion_lat": 0.0, "rental_uris": {"android": "https://dc.lft.to/lastmile_qr_scan", "ios": "https://dc.lft.to/lastmile_qr_scan"}}, {"bike_id": "e569d22eb822d6850e432203ff5e2fce", "fusion_lon": 0.0, "name": "e569d22eb822d6850e432203ff5e2fce", "lat": 38.902426, "is_disabled": 0, "is_reserved": 0, "lon": -77.01974066666666, "type": "electric_scooter", "fusion_lat": 0.0, "rental_uris": {"android": "https://dc.lft.to/lastmile_qr_scan", "ios": "https://dc.lft.to/lastmile_qr_scan"}}, {"bike_id": "01dbd7bb54cea4d548e78bb9aea3b29a", "fusion_lon": 0.0, "name": "01dbd7bb54cea4d548e78bb9aea3b29a", "lat": 38.908543333333334, "is_disabled": 0, "is_reserved": 0, "lon": -76.99795166666667, "type": "electric_scooter", "fusion_lat": 0.0, "rental_uris": {"android": "https://dc.lft.to/lastmile_qr_scan", "ios": "https://dc.lft.to/lastmile_qr_scan"}}, {"bike_id": "978a5c7435c8c11524fb2a7f89dd6d77", "fusion_lon": 0.0, "name": "978a5c7435c8c11524fb2a7f89dd6d77", "lat": 38.9170445, "is_disabled": 0, "is_reserved": 0, "lon": -77.03467833333333, "type": "electric_scooter", "fusion_lat": 0.0, "rental_uris": {"android": "https://dc.lft.to/lastmile_qr_scan", "ios": "https://dc.lft.to/lastmile_qr_scan"}}, {"bike_id": "3a358acd3ff15e363d28ba26fcce12c0", "fusion_lon": 0.0, "name": "3a358acd3ff15e363d28ba26fcce12c0", "lat": 38.902556833333335, "is_disabled": 0, "is_reserved": 0, "lon": -76.97453616666667, "type": "electric_scooter", "fusion_lat": 0.0, "rental_uris": {"android": "https://dc.lft.to/lastmile_qr_scan", "ios": "https://dc.lft.to/lastmile_qr_scan"}}, {"bike_id": "5990a741f92ea5e82ecef76279e1f1e0", "fusion_lon": 0.0, "name": "5990a741f92ea5e82ecef76279e1f1e0", "lat": 38.93026566666666, "is_disabled": 0, "is_reserved": 0, "lon": -77.03291516666667, "type": "electric_scooter", "fusion_lat": 0.0, "rental_uris": {"android": "https://dc.lft.to/lastmile_qr_scan", "ios": "https://dc.lft.to/lastmile_qr_scan"}}, {"bike_id": "d2efe892116ebd341075b8b96e93a924", "fusion_lon": 0.0, "name": "d2efe892116ebd341075b8b96e93a924", "lat": 38.89249733333333, "is_disabled": 0, "is_reserved": 0, "lon": -77.04657466666667, "type": "electric_scooter", "fusion_lat": 0.0, "rental_uris": {"android": "https://dc.lft.to/lastmile_qr_scan", "ios": "https://dc.lft.to/lastmile_qr_scan"}}, {"bike_id": "d2247139441eefe87cfd532859a9edef", "fusion_lon": 0.0, "name": "d2247139441eefe87cfd532859a9edef", "lat": 38.928804166666666, "is_disabled": 0, "is_reserved": 0, "lon": -77.02707666666667, "type": "electric_scooter", "fusion_lat": 0.0, "rental_uris": {"android": "https://dc.lft.to/lastmile_qr_scan", "ios": "https://dc.lft.to/lastmile_qr_scan"}}, {"bike_id": "dc8a11fe3a84c0aa8f4008123ec6ad18", "fusion_lon": 0.0, "name": "dc8a11fe3a84c0aa8f4008123ec6ad18", "lat": 38.913164333333334, "is_disabled": 0, "is_reserved": 0, "lon": -77.01510516666667, "type": "electric_scooter", "fusion_lat": 0.0, "rental_uris": {"android": "https://dc.lft.to/lastmile_qr_scan", "ios": "https://dc.lft.to/lastmile_qr_scan"}}, {"bike_id": "4a73d40204e93a548a407d3620ba9de2", "fusion_lon": 0.0, "name": "4a73d40204e93a548a407d3620ba9de2", "lat": 38.911124, "is_disabled": 0, "is_reserved": 0, "lon": -77.04557916666667, "type": "electric_scooter", "fusion_lat": 0.0, "rental_uris": {"android": "https://dc.lft.to/lastmile_qr_scan", "ios": "https://dc.lft.to/lastmile_qr_scan"}}, {"bike_id": "9f6ac3aa2f1b5e84d8412a1f02999d15", "fusion_lon": 0.0, "name": "9f6ac3aa2f1b5e84d8412a1f02999d15", "lat": 38.9040775, "is_disabled": 0, "is_reserved": 0, "lon": -76.97332433333334, "type": "electric_scooter", "fusion_lat": 0.0, "rental_uris": {"android": "https://dc.lft.to/lastmile_qr_scan", "ios": "https://dc.lft.to/lastmile_qr_scan"}}, {"bike_id": "40faaa6792d7d29b90ab5a3b1e40465e", "fusion_lon": 0.0, "name": "40faaa6792d7d29b90ab5a3b1e40465e", "lat": 38.88404466666667, "is_disabled": 0, "is_reserved": 0, "lon": -76.96067233333333, "type": "electric_bike", "fusion_lat": 0.0, "rental_uris": {"android": "https://dc.lft.to/lastmile_qr_scan", "ios": "https://dc.lft.to/lastmile_qr_scan"}}, {"bike_id": "73fb5d2622781811dfdccaf51b2e3ba0", "fusion_lon": 0.0, "name": "73fb5d2622781811dfdccaf51b2e3ba0", "lat": 38.8987685, "is_disabled": 0, "is_reserved": 0, "lon": -76.9318385, "type": "electric_scooter", "fusion_lat": 0.0, "rental_uris": {"android": "https://dc.lft.to/lastmile_qr_scan", "ios": "https://dc.lft.to/lastmile_qr_scan"}}, {"bike_id": "39165b1b4e3bcc4d3e26d13dc4c27d8f", "fusion_lon": 0.0, "name": "39165b1b4e3bcc4d3e26d13dc4c27d8f", "lat": 38.88503383333333, "is_disabled": 0, "is_reserved": 0, "lon": -77.0070025, "type": "electric_scooter", "fusion_lat": 0.0, "rental_uris": {"android": "https://dc.lft.to/lastmile_qr_scan", "ios": "https://dc.lft.to/lastmile_qr_scan"}}, {"bike_id": "2981825efdab884681a537d43ef1f224", "fusion_lon": 0.0, "name": "2981825efdab884681a537d43ef1f224", "lat": 38.9021155, "is_disabled": 0, "is_reserved": 0, "lon": -77.023772, "type": "electric_scooter", "fusion_lat": 0.0, "rental_uris": {"android": "https://dc.lft.to/lastmile_qr_scan", "ios": "https://dc.lft.to/lastmile_qr_scan"}}, {"bike_id": "9aaf1bb2e6d7e32dafcfd73a22ade48e", "fusion_lon": 0.0, "name": "9aaf1bb2e6d7e32dafcfd73a22ade48e", "lat": 38.897889166666666, "is_disabled": 0, "is_reserved": 0, "lon": -77.01074566666666, "type": "electric_scooter", "fusion_lat": 0.0, "rental_uris": {"android": "https://dc.lft.to/lastmile_qr_scan", "ios": "https://dc.lft.to/lastmile_qr_scan"}}, {"bike_id": "33e5dbc817be4c6b866d82381dc3fdc2", "fusion_lon": 0.0, "name": "33e5dbc817be4c6b866d82381dc3fdc2", "lat": 38.865567, "is_disabled": 0, "is_reserved": 0, "lon": -76.98352466666667, "type": "electric_scooter", "fusion_lat": 0.0, "rental_uris": {"android": "https://dc.lft.to/lastmile_qr_scan", "ios": "https://dc.lft.to/lastmile_qr_scan"}}, {"bike_id": "4326559e3cb2c2301460bd665db8ba9b", "fusion_lon": 0.0, "name": "4326559e3cb2c2301460bd665db8ba9b", "lat": 38.930781333333336, "is_disabled": 0, "is_reserved": 0, "lon": -77.02548, "type": "electric_scooter", "fusion_lat": 0.0, "rental_uris": {"android": "https://dc.lft.to/lastmile_qr_scan", "ios": "https://dc.lft.to/lastmile_qr_scan"}}, {"bike_id": "9f8be4c2d7f14d5ce3164b43da58cfae", "fusion_lon": 0.0, "name": "9f8be4c2d7f14d5ce3164b43da58cfae", "lat": 38.909607666666666, "is_disabled": 0, "is_reserved": 0, "lon": -77.02277833333333, "type": "electric_scooter", "fusion_lat": 0.0, "rental_uris": {"android": "https://dc.lft.to/lastmile_qr_scan", "ios": "https://dc.lft.to/lastmile_qr_scan"}}, {"bike_id": "a438f261388c15a7cfa896ba1e924a9c", "fusion_lon": 0.0, "name": "a438f261388c15a7cfa896ba1e924a9c", "lat": 38.9000685, "is_disabled": 0, "is_reserved": 0, "lon": -77.04382816666667, "type": "electric_scooter", "fusion_lat": 0.0, "rental_uris": {"android": "https://dc.lft.to/lastmile_qr_scan", "ios": "https://dc.lft.to/lastmile_qr_scan"}}, {"bike_id": "a840b1d99869789e45b8ae62d6bcd66b", "fusion_lon": 0.0, "name": "a840b1d99869789e45b8ae62d6bcd66b", "lat": 38.957578833333336, "is_disabled": 0, "is_reserved": 0, "lon": -76.98088883333334, "type": "electric_bike", "fusion_lat": 0.0, "rental_uris": {"android": "https://dc.lft.to/lastmile_qr_scan", "ios": "https://dc.lft.to/lastmile_qr_scan"}}, {"bike_id": "988eb056eaaaabe80ab5fb0b11909765", "fusion_lon": 0.0, "name": "988eb056eaaaabe80ab5fb0b11909765", "lat": 38.89878183333333, "is_disabled": 0, "is_reserved": 0, "lon": -77.03281033333333, "type": "electric_scooter", "fusion_lat": 0.0, "rental_uris": {"android": "https://dc.lft.to/lastmile_qr_scan", "ios": "https://dc.lft.to/lastmile_qr_scan"}}, {"bike_id": "35012e45cd921396f24c8913057cf873", "fusion_lon": 0.0, "name": "35012e45cd921396f24c8913057cf873", "lat": 38.90030133333333, "is_disabled": 0, "is_reserved": 0, "lon": -77.04684066666667, "type": "electric_scooter", "fusion_lat": 0.0, "rental_uris": {"android": "https://dc.lft.to/lastmile_qr_scan", "ios": "https://dc.lft.to/lastmile_qr_scan"}}, {"bike_id": "4634bf77f6728185752e834aa8b48205", "fusion_lon": 0.0, "name": "4634bf77f6728185752e834aa8b48205", "lat": 38.8983915, "is_disabled": 0, "is_reserved": 0, "lon": -77.032714, "type": "electric_scooter", "fusion_lat": 0.0, "rental_uris": {"android": "https://dc.lft.to/lastmile_qr_scan", "ios": "https://dc.lft.to/lastmile_qr_scan"}}, {"bike_id": "c5e1f0a708c44fcf47f0c0f1f0f9ed51", "fusion_lon": 0.0, "name": "c5e1f0a708c44fcf47f0c0f1f0f9ed51", "lat": 38.95969866666667, "is_disabled": 0, "is_reserved": 0, "lon": -76.9816125, "type": "electric_bike", "fusion_lat": 0.0, "rental_uris": {"android": "https://dc.lft.to/lastmile_qr_scan", "ios": "https://dc.lft.to/lastmile_qr_scan"}}, {"bike_id": "90a0489365a5323cfb8133be15b6e9df", "fusion_lon": 0.0, "name": "90a0489365a5323cfb8133be15b6e9df", "lat": 38.913309, "is_disabled": 0, "is_reserved": 0, "lon": -77.0486605, "type": "electric_scooter", "fusion_lat": 0.0, "rental_uris": {"android": "https://dc.lft.to/lastmile_qr_scan", "ios": "https://dc.lft.to/lastmile_qr_scan"}}, {"bike_id": "6b8fef99214142f242fd6218cb056030", "fusion_lon": 0.0, "name": "6b8fef99214142f242fd6218cb056030", "lat": 38.920856666666666, "is_disabled": 0, "is_reserved": 0, "lon": -77.02720883333333, "type": "electric_scooter", "fusion_lat": 0.0, "rental_uris": {"android": "https://dc.lft.to/lastmile_qr_scan", "ios": "https://dc.lft.to/lastmile_qr_scan"}}, {"bike_id": "bef219db61892dccaf45d0757d6178c5", "fusion_lon": 0.0, "name": "bef219db61892dccaf45d0757d6178c5", "lat": 38.9320355, "is_disabled": 0, "is_reserved": 0, "lon": -76.98281883333334, "type": "electric_scooter", "fusion_lat": 0.0, "rental_uris": {"android": "https://dc.lft.to/lastmile_qr_scan", "ios": "https://dc.lft.to/lastmile_qr_scan"}}, {"bike_id": "f95e0494f69168c4d45985fde639044c", "fusion_lon": 0.0, "name": "f95e0494f69168c4d45985fde639044c", "lat": 38.924193833333334, "is_disabled": 0, "is_reserved": 0, "lon": -77.01944783333333, "type": "electric_scooter", "fusion_lat": 0.0, "rental_uris": {"android": "https://dc.lft.to/lastmile_qr_scan", "ios": "https://dc.lft.to/lastmile_qr_scan"}}, {"bike_id": "c52d12a697308943ba7f086ac752dae4", "fusion_lon": 0.0, "name": "c52d12a697308943ba7f086ac752dae4", "lat": 38.919361333333335, "is_disabled": 0, "is_reserved": 0, "lon": -77.044955, "type": "electric_scooter", "fusion_lat": 0.0, "rental_uris": {"android": "https://dc.lft.to/lastmile_qr_scan", "ios": "https://dc.lft.to/lastmile_qr_scan"}}, {"bike_id": "21b4da382ae559cac56b58db2a0aa612", "fusion_lon": 0.0, "name": "21b4da382ae559cac56b58db2a0aa612", "lat": 38.904791333333336, "is_disabled": 0, "is_reserved": 0, "lon": -77.05135083333333, "type": "electric_scooter", "fusion_lat": 0.0, "rental_uris": {"android": "https://dc.lft.to/lastmile_qr_scan", "ios": "https://dc.lft.to/lastmile_qr_scan"}}, {"bike_id": "454a2a136d8ff19151f9510936994e48", "fusion_lon": 0.0, "name": "454a2a136d8ff19151f9510936994e48", "lat": 38.85795666666667, "is_disabled": 0, "is_reserved": 0, "lon": -76.98910766666667, "type": "electric_scooter", "fusion_lat": 0.0, "rental_uris": {"android": "https://dc.lft.to/lastmile_qr_scan", "ios": "https://dc.lft.to/lastmile_qr_scan"}}, {"bike_id": "8c85553a2e60260ccc915340c022b5a9", "fusion_lon": 0.0, "name": "8c85553a2e60260ccc915340c022b5a9", "lat": 38.939522, "is_disabled": 0, "is_reserved": 0, "lon": -77.08584033333334, "type": "electric_scooter", "fusion_lat": 0.0, "rental_uris": {"android": "https://dc.lft.to/lastmile_qr_scan", "ios": "https://dc.lft.to/lastmile_qr_scan"}}, {"bike_id": "5e4bfe7b5f661cdaa4a8013b1858de50", "fusion_lon": 0.0, "name": "5e4bfe7b5f661cdaa4a8013b1858de50", "lat": 38.94433683333333, "is_disabled": 0, "is_reserved": 0, "lon": -77.0260405, "type": "electric_bike", "fusion_lat": 0.0, "rental_uris": {"android": "https://dc.lft.to/lastmile_qr_scan", "ios": "https://dc.lft.to/lastmile_qr_scan"}}, {"bike_id": "bf28ce56512294ebd9e8aa4e3a549d28", "fusion_lon": 0.0, "name": "bf28ce56512294ebd9e8aa4e3a549d28", "lat": 38.87992283333333, "is_disabled": 0, "is_reserved": 0, "lon": -77.02401616666667, "type": "electric_scooter", "fusion_lat": 0.0, "rental_uris": {"android": "https://dc.lft.to/lastmile_qr_scan", "ios": "https://dc.lft.to/lastmile_qr_scan"}}, {"bike_id": "0ab4c45ee1c2b9ab72d1a5f9bd010abb", "fusion_lon": 0.0, "name": "0ab4c45ee1c2b9ab72d1a5f9bd010abb", "lat": 38.902824333333335, "is_disabled": 0, "is_reserved": 0, "lon": -77.03360333333333, "type": "electric_scooter", "fusion_lat": 0.0, "rental_uris": {"android": "https://dc.lft.to/lastmile_qr_scan", "ios": "https://dc.lft.to/lastmile_qr_scan"}}, {"bike_id": "9c076af600cba24fb24eb35a572a0593", "fusion_lon": 0.0, "name": "9c076af600cba24fb24eb35a572a0593", "lat": 38.89084233333333, "is_disabled": 0, "is_reserved": 0, "lon": -76.91927683333333, "type": "electric_scooter", "fusion_lat": 0.0, "rental_uris": {"android": "https://dc.lft.to/lastmile_qr_scan", "ios": "https://dc.lft.to/lastmile_qr_scan"}}, {"bike_id": "dc762022d846ffec082f02b21bf4c170", "fusion_lon": 0.0, "name": "dc762022d846ffec082f02b21bf4c170", "lat": 38.898487833333334, "is_disabled": 0, "is_reserved": 0, "lon": -76.97644966666667, "type": "electric_scooter", "fusion_lat": 0.0, "rental_uris": {"android": "https://dc.lft.to/lastmile_qr_scan", "ios": "https://dc.lft.to/lastmile_qr_scan"}}, {"bike_id": "d21667841983014437044bd312982809", "fusion_lon": 0.0, "name": "d21667841983014437044bd312982809", "lat": 38.8577225, "is_disabled": 0, "is_reserved": 0, "lon": -76.9874925, "type": "electric_bike", "fusion_lat": 0.0, "rental_uris": {"android": "https://dc.lft.to/lastmile_qr_scan", "ios": "https://dc.lft.to/lastmile_qr_scan"}}, {"bike_id": "12fc497ebe8c624ece9e85e1e0621426", "fusion_lon": 0.0, "name": "12fc497ebe8c624ece9e85e1e0621426", "lat": 38.90501116666667, "is_disabled": 0, "is_reserved": 0, "lon": -77.0009725, "type": "electric_scooter", "fusion_lat": 0.0, "rental_uris": {"android": "https://dc.lft.to/lastmile_qr_scan", "ios": "https://dc.lft.to/lastmile_qr_scan"}}, {"bike_id": "8bade0d70383e06e96d3d781a465384c", "fusion_lon": 0.0, "name": "8bade0d70383e06e96d3d781a465384c", "lat": 38.8873305, "is_disabled": 0, "is_reserved": 0, "lon": -77.02828816666667, "type": "electric_scooter", "fusion_lat": 0.0, "rental_uris": {"android": "https://dc.lft.to/lastmile_qr_scan", "ios": "https://dc.lft.to/lastmile_qr_scan"}}, {"bike_id": "16a7c2a32f718d95f266af3d93261bee", "fusion_lon": 0.0, "name": "16a7c2a32f718d95f266af3d93261bee", "lat": 38.9271725, "is_disabled": 0, "is_reserved": 0, "lon": -77.020891, "type": "electric_scooter", "fusion_lat": 0.0, "rental_uris": {"android": "https://dc.lft.to/lastmile_qr_scan", "ios": "https://dc.lft.to/lastmile_qr_scan"}}, {"bike_id": "6dea3a8fe98e2dfbad78f3d7e76de1d8", "fusion_lon": 0.0, "name": "6dea3a8fe98e2dfbad78f3d7e76de1d8", "lat": 38.9287795, "is_disabled": 0, "is_reserved": 0, "lon": -77.03356916666667, "type": "electric_scooter", "fusion_lat": 0.0, "rental_uris": {"android": "https://dc.lft.to/lastmile_qr_scan", "ios": "https://dc.lft.to/lastmile_qr_scan"}}, {"bike_id": "755e8128a8d3b489c06f273ef645aee3", "fusion_lon": 0.0, "name": "755e8128a8d3b489c06f273ef645aee3", "lat": 38.9013505, "is_disabled": 0, "is_reserved": 0, "lon": -77.0444205, "type": "electric_scooter", "fusion_lat": 0.0, "rental_uris": {"android": "https://dc.lft.to/lastmile_qr_scan", "ios": "https://dc.lft.to/lastmile_qr_scan"}}, {"bike_id": "b1f41eee992dad65fb771e8bc7268b01", "fusion_lon": 0.0, "name": "b1f41eee992dad65fb771e8bc7268b01", "lat": 38.9475505, "is_disabled": 0, "is_reserved": 0, "lon": -77.00721616666667, "type": "electric_scooter", "fusion_lat": 0.0, "rental_uris": {"android": "https://dc.lft.to/lastmile_qr_scan", "ios": "https://dc.lft.to/lastmile_qr_scan"}}, {"bike_id": "41fa340ddcfa8a004f49e9dbb315fe3c", "fusion_lon": 0.0, "name": "41fa340ddcfa8a004f49e9dbb315fe3c", "lat": 38.930901666666664, "is_disabled": 0, "is_reserved": 0, "lon": -77.0307085, "type": "electric_scooter", "fusion_lat": 0.0, "rental_uris": {"android": "https://dc.lft.to/lastmile_qr_scan", "ios": "https://dc.lft.to/lastmile_qr_scan"}}, {"bike_id": "33f985bb30bedf7cede35c98b4da71d2", "fusion_lon": 0.0, "name": "33f985bb30bedf7cede35c98b4da71d2", "lat": 38.7985465, "is_disabled": 0, "is_reserved": 0, "lon": -77.06308966666667, "type": "electric_bike", "fusion_lat": 0.0, "rental_uris": {"android": "https://dc.lft.to/lastmile_qr_scan", "ios": "https://dc.lft.to/lastmile_qr_scan"}}, {"bike_id": "e12f456d760616914629df571dd0dae2", "fusion_lon": 0.0, "name": "e12f456d760616914629df571dd0dae2", "lat": 38.91872633333333, "is_disabled": 0, "is_reserved": 0, "lon": -77.03225633333334, "type": "electric_scooter", "fusion_lat": 0.0, "rental_uris": {"android": "https://dc.lft.to/lastmile_qr_scan", "ios": "https://dc.lft.to/lastmile_qr_scan"}}, {"bike_id": "711a8d6bb33b65dacd0c46c0125de4d5", "fusion_lon": 0.0, "name": "711a8d6bb33b65dacd0c46c0125de4d5", "lat": 38.922359666666665, "is_disabled": 0, "is_reserved": 0, "lon": -77.03904933333334, "type": "electric_scooter", "fusion_lat": 0.0, "rental_uris": {"android": "https://dc.lft.to/lastmile_qr_scan", "ios": "https://dc.lft.to/lastmile_qr_scan"}}, {"bike_id": "89f31bdc00f31bfe15eef1377226c9dd", "fusion_lon": 0.0, "name": "89f31bdc00f31bfe15eef1377226c9dd", "lat": 38.92961716666667, "is_disabled": 0, "is_reserved": 0, "lon": -77.0114645, "type": "electric_scooter", "fusion_lat": 0.0, "rental_uris": {"android": "https://dc.lft.to/lastmile_qr_scan", "ios": "https://dc.lft.to/lastmile_qr_scan"}}, {"bike_id": "778f2ff2c2c541982b3479bba3af98ee", "fusion_lon": 0.0, "name": "778f2ff2c2c541982b3479bba3af98ee", "lat": 38.877796000000004, "is_disabled": 0, "is_reserved": 0, "lon": -76.99414833333333, "type": "electric_scooter", "fusion_lat": 0.0, "rental_uris": {"android": "https://dc.lft.to/lastmile_qr_scan", "ios": "https://dc.lft.to/lastmile_qr_scan"}}, {"bike_id": "c25f510530a8034a1936cacbbc0acc22", "fusion_lon": 0.0, "name": "c25f510530a8034a1936cacbbc0acc22", "lat": 38.899236333333334, "is_disabled": 0, "is_reserved": 0, "lon": -77.04163533333333, "type": "electric_scooter", "fusion_lat": 0.0, "rental_uris": {"android": "https://dc.lft.to/lastmile_qr_scan", "ios": "https://dc.lft.to/lastmile_qr_scan"}}, {"bike_id": "213c83f8a8311f3c6d1e7867e3f1120c", "fusion_lon": 0.0, "name": "213c83f8a8311f3c6d1e7867e3f1120c", "lat": 38.91457416666667, "is_disabled": 0, "is_reserved": 0, "lon": -77.006409, "type": "electric_scooter", "fusion_lat": 0.0, "rental_uris": {"android": "https://dc.lft.to/lastmile_qr_scan", "ios": "https://dc.lft.to/lastmile_qr_scan"}}, {"bike_id": "aa868b3946ccfebeee43635e64304a68", "fusion_lon": 0.0, "name": "aa868b3946ccfebeee43635e64304a68", "lat": 38.911180333333334, "is_disabled": 0, "is_reserved": 0, "lon": -77.038338, "type": "electric_scooter", "fusion_lat": 0.0, "rental_uris": {"android": "https://dc.lft.to/lastmile_qr_scan", "ios": "https://dc.lft.to/lastmile_qr_scan"}}, {"bike_id": "1efa0da0d40e5973f85ad0dccd53c853", "fusion_lon": 0.0, "name": "1efa0da0d40e5973f85ad0dccd53c853", "lat": 38.8960345, "is_disabled": 0, "is_reserved": 0, "lon": -77.04644316666666, "type": "electric_scooter", "fusion_lat": 0.0, "rental_uris": {"android": "https://dc.lft.to/lastmile_qr_scan", "ios": "https://dc.lft.to/lastmile_qr_scan"}}, {"bike_id": "cc8ac16569fac0cda40b5b8c1c6bb7b4", "fusion_lon": 0.0, "name": "cc8ac16569fac0cda40b5b8c1c6bb7b4", "lat": 38.90962966666667, "is_disabled": 0, "is_reserved": 0, "lon": -77.03768716666667, "type": "electric_scooter", "fusion_lat": 0.0, "rental_uris": {"android": "https://dc.lft.to/lastmile_qr_scan", "ios": "https://dc.lft.to/lastmile_qr_scan"}}, {"bike_id": "1f676d5269a3e929e557bcf0fbd7561b", "fusion_lon": 0.0, "name": "1f676d5269a3e929e557bcf0fbd7561b", "lat": 38.91414733333333, "is_disabled": 0, "is_reserved": 0, "lon": -77.00833333333334, "type": "electric_scooter", "fusion_lat": 0.0, "rental_uris": {"android": "https://dc.lft.to/lastmile_qr_scan", "ios": "https://dc.lft.to/lastmile_qr_scan"}}, {"bike_id": "bf5d0934fc72e634e3773dee2933dcdb", "fusion_lon": 0.0, "name": "bf5d0934fc72e634e3773dee2933dcdb", "lat": 38.89236566666666, "is_disabled": 0, "is_reserved": 0, "lon": -77.04874266666667, "type": "electric_scooter", "fusion_lat": 0.0, "rental_uris": {"android": "https://dc.lft.to/lastmile_qr_scan", "ios": "https://dc.lft.to/lastmile_qr_scan"}}, {"bike_id": "53c79a28bcccccb54bb17365f0668e17", "fusion_lon": 0.0, "name": "53c79a28bcccccb54bb17365f0668e17", "lat": 38.8980425, "is_disabled": 0, "is_reserved": 0, "lon": -77.02824683333333, "type": "electric_scooter", "fusion_lat": 0.0, "rental_uris": {"android": "https://dc.lft.to/lastmile_qr_scan", "ios": "https://dc.lft.to/lastmile_qr_scan"}}, {"bike_id": "cd3a76110e7a72be9e72256082da2adb", "fusion_lon": 0.0, "name": "cd3a76110e7a72be9e72256082da2adb", "lat": 38.933989333333336, "is_disabled": 0, "is_reserved": 0, "lon": -77.05743466666667, "type": "electric_scooter", "fusion_lat": 0.0, "rental_uris": {"android": "https://dc.lft.to/lastmile_qr_scan", "ios": "https://dc.lft.to/lastmile_qr_scan"}}, {"bike_id": "57d86d323e2e60483b4ab7c61440d5a1", "fusion_lon": 0.0, "name": "57d86d323e2e60483b4ab7c61440d5a1", "lat": 38.92450483333333, "is_disabled": 0, "is_reserved": 0, "lon": -77.0420095, "type": "electric_scooter", "fusion_lat": 0.0, "rental_uris": {"android": "https://dc.lft.to/lastmile_qr_scan", "ios": "https://dc.lft.to/lastmile_qr_scan"}}, {"bike_id": "1d8909473a4914c193326920af975f39", "fusion_lon": 0.0, "name": "1d8909473a4914c193326920af975f39", "lat": 38.896767, "is_disabled": 0, "is_reserved": 0, "lon": -77.00515716666666, "type": "electric_scooter", "fusion_lat": 0.0, "rental_uris": {"android": "https://dc.lft.to/lastmile_qr_scan", "ios": "https://dc.lft.to/lastmile_qr_scan"}}, {"bike_id": "4c9e8c5e4500133db904e3a6a810e2db", "fusion_lon": 0.0, "name": "4c9e8c5e4500133db904e3a6a810e2db", "lat": 38.9105325, "is_disabled": 0, "is_reserved": 0, "lon": -77.04095416666667, "type": "electric_scooter", "fusion_lat": 0.0, "rental_uris": {"android": "https://dc.lft.to/lastmile_qr_scan", "ios": "https://dc.lft.to/lastmile_qr_scan"}}, {"bike_id": "7bf6feb6968a8b0c2480462e03616a9d", "fusion_lon": 0.0, "name": "7bf6feb6968a8b0c2480462e03616a9d", "lat": 38.917254666666665, "is_disabled": 0, "is_reserved": 0, "lon": -77.025997, "type": "electric_scooter", "fusion_lat": 0.0, "rental_uris": {"android": "https://dc.lft.to/lastmile_qr_scan", "ios": "https://dc.lft.to/lastmile_qr_scan"}}, {"bike_id": "83c2a225941748fc0ee27d8293909c30", "fusion_lon": 0.0, "name": "83c2a225941748fc0ee27d8293909c30", "lat": 38.885957833333336, "is_disabled": 0, "is_reserved": 0, "lon": -77.01719033333333, "type": "electric_scooter", "fusion_lat": 0.0, "rental_uris": {"android": "https://dc.lft.to/lastmile_qr_scan", "ios": "https://dc.lft.to/lastmile_qr_scan"}}, {"bike_id": "7d580dc0f19fa006f1a75aa279abc8ab", "fusion_lon": 0.0, "name": "7d580dc0f19fa006f1a75aa279abc8ab", "lat": 38.91641, "is_disabled": 0, "is_reserved": 0, "lon": -77.04784983333333, "type": "electric_scooter", "fusion_lat": 0.0, "rental_uris": {"android": "https://dc.lft.to/lastmile_qr_scan", "ios": "https://dc.lft.to/lastmile_qr_scan"}}, {"bike_id": "825698e4ada1515f9e8482b78920cc16", "fusion_lon": 0.0, "name": "825698e4ada1515f9e8482b78920cc16", "lat": 38.89876183333333, "is_disabled": 0, "is_reserved": 0, "lon": -77.03276016666666, "type": "electric_scooter", "fusion_lat": 0.0, "rental_uris": {"android": "https://dc.lft.to/lastmile_qr_scan", "ios": "https://dc.lft.to/lastmile_qr_scan"}}, {"bike_id": "305fe0243bf19da22f8f855d8e1b2d08", "fusion_lon": 0.0, "name": "305fe0243bf19da22f8f855d8e1b2d08", "lat": 38.91700933333333, "is_disabled": 0, "is_reserved": 0, "lon": -77.034692, "type": "electric_scooter", "fusion_lat": 0.0, "rental_uris": {"android": "https://dc.lft.to/lastmile_qr_scan", "ios": "https://dc.lft.to/lastmile_qr_scan"}}, {"bike_id": "3f5709934df2942a93bd052c2623cb5e", "fusion_lon": 0.0, "name": "3f5709934df2942a93bd052c2623cb5e", "lat": 38.96126133333333, "is_disabled": 0, "is_reserved": 0, "lon": -77.0327575, "type": "electric_bike", "fusion_lat": 0.0, "rental_uris": {"android": "https://dc.lft.to/lastmile_qr_scan", "ios": "https://dc.lft.to/lastmile_qr_scan"}}, {"bike_id": "243a66fec90240bbfb3f4b17342ecac0", "fusion_lon": 0.0, "name": "243a66fec90240bbfb3f4b17342ecac0", "lat": 38.88467583333333, "is_disabled": 0, "is_reserved": 0, "lon": -76.94978016666667, "type": "electric_scooter", "fusion_lat": 0.0, "rental_uris": {"android": "https://dc.lft.to/lastmile_qr_scan", "ios": "https://dc.lft.to/lastmile_qr_scan"}}, {"bike_id": "51c2f5c40f54708b65be8fb4fb7325b4", "fusion_lon": 0.0, "name": "51c2f5c40f54708b65be8fb4fb7325b4", "lat": 38.936741166666664, "is_disabled": 0, "is_reserved": 0, "lon": -77.0359055, "type": "electric_scooter", "fusion_lat": 0.0, "rental_uris": {"android": "https://dc.lft.to/lastmile_qr_scan", "ios": "https://dc.lft.to/lastmile_qr_scan"}}, {"bike_id": "f3ff0f80188f5502d356316ac0876a5e", "fusion_lon": 0.0, "name": "f3ff0f80188f5502d356316ac0876a5e", "lat": 38.908976833333334, "is_disabled": 0, "is_reserved": 0, "lon": -77.04315433333333, "type": "electric_scooter", "fusion_lat": 0.0, "rental_uris": {"android": "https://dc.lft.to/lastmile_qr_scan", "ios": "https://dc.lft.to/lastmile_qr_scan"}}, {"bike_id": "4d1f7d1b5ee2cc4c5e6291499df0f0b3", "fusion_lon": 0.0, "name": "4d1f7d1b5ee2cc4c5e6291499df0f0b3", "lat": 38.8830605, "is_disabled": 0, "is_reserved": 0, "lon": -77.01765516666667, "type": "electric_scooter", "fusion_lat": 0.0, "rental_uris": {"android": "https://dc.lft.to/lastmile_qr_scan", "ios": "https://dc.lft.to/lastmile_qr_scan"}}, {"bike_id": "e6841081e4caf42a9f28fcb5cadea153", "fusion_lon": 0.0, "name": "e6841081e4caf42a9f28fcb5cadea153", "lat": 38.926783, "is_disabled": 0, "is_reserved": 0, "lon": -77.01489866666667, "type": "electric_scooter", "fusion_lat": 0.0, "rental_uris": {"android": "https://dc.lft.to/lastmile_qr_scan", "ios": "https://dc.lft.to/lastmile_qr_scan"}}, {"bike_id": "08c937de7d327bf8574a55e1760ee05f", "fusion_lon": 0.0, "name": "08c937de7d327bf8574a55e1760ee05f", "lat": 38.9241275, "is_disabled": 0, "is_reserved": 0, "lon": -77.04449683333333, "type": "electric_scooter", "fusion_lat": 0.0, "rental_uris": {"android": "https://dc.lft.to/lastmile_qr_scan", "ios": "https://dc.lft.to/lastmile_qr_scan"}}, {"bike_id": "4d2343ed1707ab5afa0232406a110510", "fusion_lon": 0.0, "name": "4d2343ed1707ab5afa0232406a110510", "lat": 38.8975445, "is_disabled": 0, "is_reserved": 0, "lon": -77.00750316666667, "type": "electric_scooter", "fusion_lat": 0.0, "rental_uris": {"android": "https://dc.lft.to/lastmile_qr_scan", "ios": "https://dc.lft.to/lastmile_qr_scan"}}, {"bike_id": "7fada8f2dc6008fc32804a48504aa061", "fusion_lon": 0.0, "name": "7fada8f2dc6008fc32804a48504aa061", "lat": 38.898447833333336, "is_disabled": 0, "is_reserved": 0, "lon": -77.041733, "type": "electric_scooter", "fusion_lat": 0.0, "rental_uris": {"android": "https://dc.lft.to/lastmile_qr_scan", "ios": "https://dc.lft.to/lastmile_qr_scan"}}, {"bike_id": "7c0b0514e1f3eac7d3c190f7b0e687f3", "fusion_lon": 0.0, "name": "7c0b0514e1f3eac7d3c190f7b0e687f3", "lat": 38.924094333333336, "is_disabled": 0, "is_reserved": 0, "lon": -77.01945383333333, "type": "electric_scooter", "fusion_lat": 0.0, "rental_uris": {"android": "https://dc.lft.to/lastmile_qr_scan", "ios": "https://dc.lft.to/lastmile_qr_scan"}}, {"bike_id": "c8246da3036de3b907258bf26b6b4dc8", "fusion_lon": 0.0, "name": "c8246da3036de3b907258bf26b6b4dc8", "lat": 38.931119, "is_disabled": 0, "is_reserved": 0, "lon": -77.0302955, "type": "electric_scooter", "fusion_lat": 0.0, "rental_uris": {"android": "https://dc.lft.to/lastmile_qr_scan", "ios": "https://dc.lft.to/lastmile_qr_scan"}}, {"bike_id": "913db2e87cd64ad2ef537b656567ab57", "fusion_lon": 0.0, "name": "913db2e87cd64ad2ef537b656567ab57", "lat": 38.901771, "is_disabled": 0, "is_reserved": 0, "lon": -77.01602383333334, "type": "electric_scooter", "fusion_lat": 0.0, "rental_uris": {"android": "https://dc.lft.to/lastmile_qr_scan", "ios": "https://dc.lft.to/lastmile_qr_scan"}}, {"bike_id": "bb8a19a0f9a729ad7004cb899d8b6cee", "fusion_lon": 0.0, "name": "bb8a19a0f9a729ad7004cb899d8b6cee", "lat": 38.887198166666664, "is_disabled": 0, "is_reserved": 0, "lon": -76.99686683333333, "type": "electric_scooter", "fusion_lat": 0.0, "rental_uris": {"android": "https://dc.lft.to/lastmile_qr_scan", "ios": "https://dc.lft.to/lastmile_qr_scan"}}, {"bike_id": "0580d71075414f93aa74d77c13c367e6", "fusion_lon": 0.0, "name": "0580d71075414f93aa74d77c13c367e6", "lat": 38.896155666666665, "is_disabled": 0, "is_reserved": 0, "lon": -76.90742366666667, "type": "electric_bike", "fusion_lat": 0.0, "rental_uris": {"android": "https://dc.lft.to/lastmile_qr_scan", "ios": "https://dc.lft.to/lastmile_qr_scan"}}, {"bike_id": "4531fbd1436a6954c0a93ebadbd79af3", "fusion_lon": 0.0, "name": "4531fbd1436a6954c0a93ebadbd79af3", "lat": 38.923275, "is_disabled": 0, "is_reserved": 0, "lon": -77.0440065, "type": "electric_scooter", "fusion_lat": 0.0, "rental_uris": {"android": "https://dc.lft.to/lastmile_qr_scan", "ios": "https://dc.lft.to/lastmile_qr_scan"}}, {"bike_id": "04bc82854899310f4710272c5ed5ffbe", "fusion_lon": 0.0, "name": "04bc82854899310f4710272c5ed5ffbe", "lat": 38.887355166666666, "is_disabled": 0, "is_reserved": 0, "lon": -77.02577983333333, "type": "electric_scooter", "fusion_lat": 0.0, "rental_uris": {"android": "https://dc.lft.to/lastmile_qr_scan", "ios": "https://dc.lft.to/lastmile_qr_scan"}}, {"bike_id": "a4ec6f5970dd37491bcf74a42e64f4ef", "fusion_lon": 0.0, "name": "a4ec6f5970dd37491bcf74a42e64f4ef", "lat": 38.91547766666667, "is_disabled": 0, "is_reserved": 0, "lon": -77.00550616666666, "type": "electric_scooter", "fusion_lat": 0.0, "rental_uris": {"android": "https://dc.lft.to/lastmile_qr_scan", "ios": "https://dc.lft.to/lastmile_qr_scan"}}, {"bike_id": "46f413ab18167eb0c60f75f64ad8849c", "fusion_lon": 0.0, "name": "46f413ab18167eb0c60f75f64ad8849c", "lat": 38.9325555, "is_disabled": 0, "is_reserved": 0, "lon": -77.028524, "type": "electric_scooter", "fusion_lat": 0.0, "rental_uris": {"android": "https://dc.lft.to/lastmile_qr_scan", "ios": "https://dc.lft.to/lastmile_qr_scan"}}, {"bike_id": "a800069f32dbdc5fe79fd1559adbcba4", "fusion_lon": 0.0, "name": "a800069f32dbdc5fe79fd1559adbcba4", "lat": 38.904711166666665, "is_disabled": 0, "is_reserved": 0, "lon": -77.03583516666667, "type": "electric_scooter", "fusion_lat": 0.0, "rental_uris": {"android": "https://dc.lft.to/lastmile_qr_scan", "ios": "https://dc.lft.to/lastmile_qr_scan"}}, {"bike_id": "bbdd70d143d4b78d8ecca83eac85a1ec", "fusion_lon": 0.0, "name": "bbdd70d143d4b78d8ecca83eac85a1ec", "lat": 38.9268725, "is_disabled": 0, "is_reserved": 0, "lon": -77.0229505, "type": "electric_scooter", "fusion_lat": 0.0, "rental_uris": {"android": "https://dc.lft.to/lastmile_qr_scan", "ios": "https://dc.lft.to/lastmile_qr_scan"}}, {"bike_id": "fb96e22b37ec09cc4cf77c7c753f5ea5", "fusion_lon": 0.0, "name": "fb96e22b37ec09cc4cf77c7c753f5ea5", "lat": 38.898645333333334, "is_disabled": 0, "is_reserved": 0, "lon": -76.94639716666667, "type": "electric_scooter", "fusion_lat": 0.0, "rental_uris": {"android": "https://dc.lft.to/lastmile_qr_scan", "ios": "https://dc.lft.to/lastmile_qr_scan"}}, {"bike_id": "11ab35a95010c22026c1c154a79d2116", "fusion_lon": 0.0, "name": "11ab35a95010c22026c1c154a79d2116", "lat": 38.8934545, "is_disabled": 0, "is_reserved": 0, "lon": -76.939667, "type": "electric_scooter", "fusion_lat": 0.0, "rental_uris": {"android": "https://dc.lft.to/lastmile_qr_scan", "ios": "https://dc.lft.to/lastmile_qr_scan"}}, {"bike_id": "5d8c059d5426d31a1ae3724a1426929f", "fusion_lon": 0.0, "name": "5d8c059d5426d31a1ae3724a1426929f", "lat": 38.91708716666667, "is_disabled": 0, "is_reserved": 0, "lon": -77.032339, "type": "electric_scooter", "fusion_lat": 0.0, "rental_uris": {"android": "https://dc.lft.to/lastmile_qr_scan", "ios": "https://dc.lft.to/lastmile_qr_scan"}}, {"bike_id": "7a8fd5ba2516df0535298e9d9c6a1332", "fusion_lon": 0.0, "name": "7a8fd5ba2516df0535298e9d9c6a1332", "lat": 38.905179, "is_disabled": 0, "is_reserved": 0, "lon": -77.0513635, "type": "electric_scooter", "fusion_lat": 0.0, "rental_uris": {"android": "https://dc.lft.to/lastmile_qr_scan", "ios": "https://dc.lft.to/lastmile_qr_scan"}}, {"bike_id": "1b60044772a4b8c8bf4bc48adb592ba7", "fusion_lon": 0.0, "name": "1b60044772a4b8c8bf4bc48adb592ba7", "lat": 38.90600966666667, "is_disabled": 0, "is_reserved": 0, "lon": -77.00361083333334, "type": "electric_scooter", "fusion_lat": 0.0, "rental_uris": {"android": "https://dc.lft.to/lastmile_qr_scan", "ios": "https://dc.lft.to/lastmile_qr_scan"}}, {"bike_id": "c95f49400f91f96b805caa673178cb78", "fusion_lon": 0.0, "name": "c95f49400f91f96b805caa673178cb78", "lat": 38.91037816666667, "is_disabled": 0, "is_reserved": 0, "lon": -77.07572816666666, "type": "electric_scooter", "fusion_lat": 0.0, "rental_uris": {"android": "https://dc.lft.to/lastmile_qr_scan", "ios": "https://dc.lft.to/lastmile_qr_scan"}}, {"bike_id": "042ed75b22ab95c0de0f84d3a45c3e90", "fusion_lon": 0.0, "name": "042ed75b22ab95c0de0f84d3a45c3e90", "lat": 38.9231745, "is_disabled": 0, "is_reserved": 0, "lon": -77.02895683333334, "type": "electric_scooter", "fusion_lat": 0.0, "rental_uris": {"android": "https://dc.lft.to/lastmile_qr_scan", "ios": "https://dc.lft.to/lastmile_qr_scan"}}, {"bike_id": "a43e41ff621ee2e46e626a0cc59b9c17", "fusion_lon": 0.0, "name": "a43e41ff621ee2e46e626a0cc59b9c17", "lat": 38.91667733333333, "is_disabled": 0, "is_reserved": 0, "lon": -77.022615, "type": "electric_scooter", "fusion_lat": 0.0, "rental_uris": {"android": "https://dc.lft.to/lastmile_qr_scan", "ios": "https://dc.lft.to/lastmile_qr_scan"}}, {"bike_id": "6d40629260c98741c7bb00b16f21683a", "fusion_lon": 0.0, "name": "6d40629260c98741c7bb00b16f21683a", "lat": 38.886157, "is_disabled": 0, "is_reserved": 0, "lon": -77.0124845, "type": "electric_scooter", "fusion_lat": 0.0, "rental_uris": {"android": "https://dc.lft.to/lastmile_qr_scan", "ios": "https://dc.lft.to/lastmile_qr_scan"}}, {"bike_id": "489aa67359380c74eb22f5d0d9a8ee38", "fusion_lon": 0.0, "name": "489aa67359380c74eb22f5d0d9a8ee38", "lat": 38.8849275, "is_disabled": 0, "is_reserved": 0, "lon": -76.9566585, "type": "electric_bike", "fusion_lat": 0.0, "rental_uris": {"android": "https://dc.lft.to/lastmile_qr_scan", "ios": "https://dc.lft.to/lastmile_qr_scan"}}, {"bike_id": "26b552a61c86e159ab4197abbe345693", "fusion_lon": 0.0, "name": "26b552a61c86e159ab4197abbe345693", "lat": 38.9021885, "is_disabled": 0, "is_reserved": 0, "lon": -77.037725, "type": "electric_scooter", "fusion_lat": 0.0, "rental_uris": {"android": "https://dc.lft.to/lastmile_qr_scan", "ios": "https://dc.lft.to/lastmile_qr_scan"}}, {"bike_id": "3118b78ff969119fd6200931497d6991", "fusion_lon": 0.0, "name": "3118b78ff969119fd6200931497d6991", "lat": 38.920510666666665, "is_disabled": 0, "is_reserved": 0, "lon": -76.995989, "type": "electric_scooter", "fusion_lat": 0.0, "rental_uris": {"android": "https://dc.lft.to/lastmile_qr_scan", "ios": "https://dc.lft.to/lastmile_qr_scan"}}, {"bike_id": "e462253ec579bc1447f4fdfa4a015e7c", "fusion_lon": 0.0, "name": "e462253ec579bc1447f4fdfa4a015e7c", "lat": 38.90576333333333, "is_disabled": 0, "is_reserved": 0, "lon": -77.043606, "type": "electric_scooter", "fusion_lat": 0.0, "rental_uris": {"android": "https://dc.lft.to/lastmile_qr_scan", "ios": "https://dc.lft.to/lastmile_qr_scan"}}, {"bike_id": "f8bb5e40860c2304eb762eb6a7cd7433", "fusion_lon": 0.0, "name": "f8bb5e40860c2304eb762eb6a7cd7433", "lat": 38.894705333333334, "is_disabled": 0, "is_reserved": 0, "lon": -77.01660566666666, "type": "electric_scooter", "fusion_lat": 0.0, "rental_uris": {"android": "https://dc.lft.to/lastmile_qr_scan", "ios": "https://dc.lft.to/lastmile_qr_scan"}}, {"bike_id": "c5b2753a7e23f2c9d27b20a59f4c120c", "fusion_lon": 0.0, "name": "c5b2753a7e23f2c9d27b20a59f4c120c", "lat": 38.90064516666666, "is_disabled": 0, "is_reserved": 0, "lon": -77.05424016666667, "type": "electric_scooter", "fusion_lat": 0.0, "rental_uris": {"android": "https://dc.lft.to/lastmile_qr_scan", "ios": "https://dc.lft.to/lastmile_qr_scan"}}, {"bike_id": "eba97f5d84b7f2fa58bd86b8426f3c2a", "fusion_lon": 0.0, "name": "eba97f5d84b7f2fa58bd86b8426f3c2a", "lat": 38.9164625, "is_disabled": 0, "is_reserved": 0, "lon": -77.0320795, "type": "electric_scooter", "fusion_lat": 0.0, "rental_uris": {"android": "https://dc.lft.to/lastmile_qr_scan", "ios": "https://dc.lft.to/lastmile_qr_scan"}}, {"bike_id": "ec42845456be1e575e991f310b3e458a", "fusion_lon": 0.0, "name": "ec42845456be1e575e991f310b3e458a", "lat": 38.887457833333336, "is_disabled": 0, "is_reserved": 0, "lon": -76.97315683333333, "type": "electric_scooter", "fusion_lat": 0.0, "rental_uris": {"android": "https://dc.lft.to/lastmile_qr_scan", "ios": "https://dc.lft.to/lastmile_qr_scan"}}, {"bike_id": "6bc190acc68f7afee4378f259faa8d0a", "fusion_lon": 0.0, "name": "6bc190acc68f7afee4378f259faa8d0a", "lat": 38.9068635, "is_disabled": 0, "is_reserved": 0, "lon": -77.0238395, "type": "electric_scooter", "fusion_lat": 0.0, "rental_uris": {"android": "https://dc.lft.to/lastmile_qr_scan", "ios": "https://dc.lft.to/lastmile_qr_scan"}}, {"bike_id": "399505a8237ac91599e3cc01aeb00e87", "fusion_lon": 0.0, "name": "399505a8237ac91599e3cc01aeb00e87", "lat": 38.909772833333335, "is_disabled": 0, "is_reserved": 0, "lon": -77.03440466666666, "type": "electric_scooter", "fusion_lat": 0.0, "rental_uris": {"android": "https://dc.lft.to/lastmile_qr_scan", "ios": "https://dc.lft.to/lastmile_qr_scan"}}, {"bike_id": "73478c8546f92af2ce7ae9351aae8330", "fusion_lon": 0.0, "name": "73478c8546f92af2ce7ae9351aae8330", "lat": 38.9014135, "is_disabled": 0, "is_reserved": 0, "lon": -77.0347295, "type": "electric_scooter", "fusion_lat": 0.0, "rental_uris": {"android": "https://dc.lft.to/lastmile_qr_scan", "ios": "https://dc.lft.to/lastmile_qr_scan"}}, {"bike_id": "c8d34d360dbeda3e89f8aa6915063209", "fusion_lon": 0.0, "name": "c8d34d360dbeda3e89f8aa6915063209", "lat": 38.85600316666667, "is_disabled": 0, "is_reserved": 0, "lon": -76.972685, "type": "electric_scooter", "fusion_lat": 0.0, "rental_uris": {"android": "https://dc.lft.to/lastmile_qr_scan", "ios": "https://dc.lft.to/lastmile_qr_scan"}}, {"bike_id": "64dda130e0b691adf2f00221370cd2ff", "fusion_lon": 0.0, "name": "64dda130e0b691adf2f00221370cd2ff", "lat": 38.9148105, "is_disabled": 0, "is_reserved": 0, "lon": -77.02300466666667, "type": "electric_scooter", "fusion_lat": 0.0, "rental_uris": {"android": "https://dc.lft.to/lastmile_qr_scan", "ios": "https://dc.lft.to/lastmile_qr_scan"}}, {"bike_id": "d66cb271ad128ca728a7cdc502f8acf6", "fusion_lon": 0.0, "name": "d66cb271ad128ca728a7cdc502f8acf6", "lat": 38.892504, "is_disabled": 0, "is_reserved": 0, "lon": -77.0465285, "type": "electric_scooter", "fusion_lat": 0.0, "rental_uris": {"android": "https://dc.lft.to/lastmile_qr_scan", "ios": "https://dc.lft.to/lastmile_qr_scan"}}, {"bike_id": "a8e8ac165c03c94260ea36310fcf70eb", "fusion_lon": 0.0, "name": "a8e8ac165c03c94260ea36310fcf70eb", "lat": 38.89238133333333, "is_disabled": 0, "is_reserved": 0, "lon": -77.04874133333334, "type": "electric_scooter", "fusion_lat": 0.0, "rental_uris": {"android": "https://dc.lft.to/lastmile_qr_scan", "ios": "https://dc.lft.to/lastmile_qr_scan"}}, {"bike_id": "56bf799fc11a8703868d8d2128279114", "fusion_lon": 0.0, "name": "56bf799fc11a8703868d8d2128279114", "lat": 38.9141365, "is_disabled": 0, "is_reserved": 0, "lon": -77.02231183333333, "type": "electric_scooter", "fusion_lat": 0.0, "rental_uris": {"android": "https://dc.lft.to/lastmile_qr_scan", "ios": "https://dc.lft.to/lastmile_qr_scan"}}, {"bike_id": "d16c245338697aaa4471d960e083b32b", "fusion_lon": 0.0, "name": "d16c245338697aaa4471d960e083b32b", "lat": 38.89738, "is_disabled": 0, "is_reserved": 0, "lon": -77.1392235, "type": "electric_bike", "fusion_lat": 0.0, "rental_uris": {"android": "https://dc.lft.to/lastmile_qr_scan", "ios": "https://dc.lft.to/lastmile_qr_scan"}}, {"bike_id": "31261a7bceda00108d05b1097d0e2abb", "fusion_lon": 0.0, "name": "31261a7bceda00108d05b1097d0e2abb", "lat": 38.9050235, "is_disabled": 0, "is_reserved": 0, "lon": -77.05147383333333, "type": "electric_scooter", "fusion_lat": 0.0, "rental_uris": {"android": "https://dc.lft.to/lastmile_qr_scan", "ios": "https://dc.lft.to/lastmile_qr_scan"}}, {"bike_id": "8d28787306e5f804f95908b63211578e", "fusion_lon": 0.0, "name": "8d28787306e5f804f95908b63211578e", "lat": 38.90222083333333, "is_disabled": 0, "is_reserved": 0, "lon": -77.047568, "type": "electric_scooter", "fusion_lat": 0.0, "rental_uris": {"android": "https://dc.lft.to/lastmile_qr_scan", "ios": "https://dc.lft.to/lastmile_qr_scan"}}, {"bike_id": "8dceb9f373ae8005f02e40913cedc5cf", "fusion_lon": 0.0, "name": "8dceb9f373ae8005f02e40913cedc5cf", "lat": 38.917979333333335, "is_disabled": 0, "is_reserved": 0, "lon": -77.03444133333333, "type": "electric_scooter", "fusion_lat": 0.0, "rental_uris": {"android": "https://dc.lft.to/lastmile_qr_scan", "ios": "https://dc.lft.to/lastmile_qr_scan"}}, {"bike_id": "461f18590193088fd8e363f466e90f48", "fusion_lon": 0.0, "name": "461f18590193088fd8e363f466e90f48", "lat": 38.896686333333335, "is_disabled": 0, "is_reserved": 0, "lon": -76.93209866666666, "type": "electric_scooter", "fusion_lat": 0.0, "rental_uris": {"android": "https://dc.lft.to/lastmile_qr_scan", "ios": "https://dc.lft.to/lastmile_qr_scan"}}, {"bike_id": "9a6b4857d38e51873e7a0c36f3fa0bf4", "fusion_lon": 0.0, "name": "9a6b4857d38e51873e7a0c36f3fa0bf4", "lat": 38.901405833333335, "is_disabled": 0, "is_reserved": 0, "lon": -77.0607565, "type": "electric_scooter", "fusion_lat": 0.0, "rental_uris": {"android": "https://dc.lft.to/lastmile_qr_scan", "ios": "https://dc.lft.to/lastmile_qr_scan"}}, {"bike_id": "4de9d0678456055ac6e784c8af3cccc9", "fusion_lon": 0.0, "name": "4de9d0678456055ac6e784c8af3cccc9", "lat": 38.93055583333334, "is_disabled": 0, "is_reserved": 0, "lon": -77.018629, "type": "electric_scooter", "fusion_lat": 0.0, "rental_uris": {"android": "https://dc.lft.to/lastmile_qr_scan", "ios": "https://dc.lft.to/lastmile_qr_scan"}}, {"bike_id": "4735930597e4073278a5ef39f0b2b665", "fusion_lon": 0.0, "name": "4735930597e4073278a5ef39f0b2b665", "lat": 38.919592333333334, "is_disabled": 0, "is_reserved": 0, "lon": -77.04173266666666, "type": "electric_scooter", "fusion_lat": 0.0, "rental_uris": {"android": "https://dc.lft.to/lastmile_qr_scan", "ios": "https://dc.lft.to/lastmile_qr_scan"}}, {"bike_id": "f1740f3680398185dc901818d8c96e60", "fusion_lon": 0.0, "name": "f1740f3680398185dc901818d8c96e60", "lat": 38.8976615, "is_disabled": 0, "is_reserved": 0, "lon": -77.00896183333333, "type": "electric_scooter", "fusion_lat": 0.0, "rental_uris": {"android": "https://dc.lft.to/lastmile_qr_scan", "ios": "https://dc.lft.to/lastmile_qr_scan"}}, {"bike_id": "717a74d1e3093841988778af488bc9ef", "fusion_lon": 0.0, "name": "717a74d1e3093841988778af488bc9ef", "lat": 38.883088, "is_disabled": 0, "is_reserved": 0, "lon": -77.01374616666666, "type": "electric_scooter", "fusion_lat": 0.0, "rental_uris": {"android": "https://dc.lft.to/lastmile_qr_scan", "ios": "https://dc.lft.to/lastmile_qr_scan"}}, {"bike_id": "456e1ff52d75471733fb196ecd0cce20", "fusion_lon": 0.0, "name": "456e1ff52d75471733fb196ecd0cce20", "lat": 38.896209, "is_disabled": 0, "is_reserved": 0, "lon": -77.04078066666666, "type": "electric_scooter", "fusion_lat": 0.0, "rental_uris": {"android": "https://dc.lft.to/lastmile_qr_scan", "ios": "https://dc.lft.to/lastmile_qr_scan"}}, {"bike_id": "e5a5843693b9b887490a0f7182e2c4a9", "fusion_lon": 0.0, "name": "e5a5843693b9b887490a0f7182e2c4a9", "lat": 38.930222666666666, "is_disabled": 0, "is_reserved": 0, "lon": -77.03799483333333, "type": "electric_scooter", "fusion_lat": 0.0, "rental_uris": {"android": "https://dc.lft.to/lastmile_qr_scan", "ios": "https://dc.lft.to/lastmile_qr_scan"}}, {"bike_id": "37454543249aec36214369498a9b64c4", "fusion_lon": 0.0, "name": "37454543249aec36214369498a9b64c4", "lat": 38.90352583333333, "is_disabled": 0, "is_reserved": 0, "lon": -76.97478316666667, "type": "electric_scooter", "fusion_lat": 0.0, "rental_uris": {"android": "https://dc.lft.to/lastmile_qr_scan", "ios": "https://dc.lft.to/lastmile_qr_scan"}}, {"bike_id": "8f45fe45c4d16b3d102383352c38b28c", "fusion_lon": 0.0, "name": "8f45fe45c4d16b3d102383352c38b28c", "lat": 38.898804, "is_disabled": 0, "is_reserved": 0, "lon": -77.00751316666667, "type": "electric_scooter", "fusion_lat": 0.0, "rental_uris": {"android": "https://dc.lft.to/lastmile_qr_scan", "ios": "https://dc.lft.to/lastmile_qr_scan"}}, {"bike_id": "b0c1ec54fe8df59886256a13eafe9416", "fusion_lon": 0.0, "name": "b0c1ec54fe8df59886256a13eafe9416", "lat": 38.90742566666667, "is_disabled": 0, "is_reserved": 0, "lon": -77.04359233333334, "type": "electric_scooter", "fusion_lat": 0.0, "rental_uris": {"android": "https://dc.lft.to/lastmile_qr_scan", "ios": "https://dc.lft.to/lastmile_qr_scan"}}, {"bike_id": "4d3c93f2037c7fef9f29b71a921576af", "fusion_lon": 0.0, "name": "4d3c93f2037c7fef9f29b71a921576af", "lat": 38.90046433333333, "is_disabled": 0, "is_reserved": 0, "lon": -77.04353016666667, "type": "electric_scooter", "fusion_lat": 0.0, "rental_uris": {"android": "https://dc.lft.to/lastmile_qr_scan", "ios": "https://dc.lft.to/lastmile_qr_scan"}}, {"bike_id": "156eb49aca60259d178c6aeb2598c9c8", "fusion_lon": 0.0, "name": "156eb49aca60259d178c6aeb2598c9c8", "lat": 38.908651, "is_disabled": 0, "is_reserved": 0, "lon": -77.0128925, "type": "electric_scooter", "fusion_lat": 0.0, "rental_uris": {"android": "https://dc.lft.to/lastmile_qr_scan", "ios": "https://dc.lft.to/lastmile_qr_scan"}}, {"bike_id": "0814db3d80b427af4347c9e0684c1e98", "fusion_lon": 0.0, "name": "0814db3d80b427af4347c9e0684c1e98", "lat": 38.902631, "is_disabled": 0, "is_reserved": 0, "lon": -77.0336045, "type": "electric_scooter", "fusion_lat": 0.0, "rental_uris": {"android": "https://dc.lft.to/lastmile_qr_scan", "ios": "https://dc.lft.to/lastmile_qr_scan"}}, {"bike_id": "c7a73d3bdfe9bded03217524f720dbb6", "fusion_lon": 0.0, "name": "c7a73d3bdfe9bded03217524f720dbb6", "lat": 38.887014666666666, "is_disabled": 0, "is_reserved": 0, "lon": -77.03211816666666, "type": "electric_scooter", "fusion_lat": 0.0, "rental_uris": {"android": "https://dc.lft.to/lastmile_qr_scan", "ios": "https://dc.lft.to/lastmile_qr_scan"}}, {"bike_id": "7d55e9c3e63756108133cccdc0f7569b", "fusion_lon": 0.0, "name": "7d55e9c3e63756108133cccdc0f7569b", "lat": 38.896501, "is_disabled": 0, "is_reserved": 0, "lon": -77.03332383333333, "type": "electric_scooter", "fusion_lat": 0.0, "rental_uris": {"android": "https://dc.lft.to/lastmile_qr_scan", "ios": "https://dc.lft.to/lastmile_qr_scan"}}, {"bike_id": "fa9f064a7833b04f4445eb1cddbc4aec", "fusion_lon": 0.0, "name": "fa9f064a7833b04f4445eb1cddbc4aec", "lat": 38.92607066666667, "is_disabled": 0, "is_reserved": 0, "lon": -77.02218733333333, "type": "electric_scooter", "fusion_lat": 0.0, "rental_uris": {"android": "https://dc.lft.to/lastmile_qr_scan", "ios": "https://dc.lft.to/lastmile_qr_scan"}}, {"bike_id": "c7e8bf59a75ffeea5b9e02d7fe0ff8aa", "fusion_lon": 0.0, "name": "c7e8bf59a75ffeea5b9e02d7fe0ff8aa", "lat": 38.91812083333333, "is_disabled": 0, "is_reserved": 0, "lon": -77.03340566666667, "type": "electric_scooter", "fusion_lat": 0.0, "rental_uris": {"android": "https://dc.lft.to/lastmile_qr_scan", "ios": "https://dc.lft.to/lastmile_qr_scan"}}, {"bike_id": "d08497f434cda99cde4f9a022041c549", "fusion_lon": 0.0, "name": "d08497f434cda99cde4f9a022041c549", "lat": 38.91472983333333, "is_disabled": 0, "is_reserved": 0, "lon": -77.04549583333333, "type": "electric_scooter", "fusion_lat": 0.0, "rental_uris": {"android": "https://dc.lft.to/lastmile_qr_scan", "ios": "https://dc.lft.to/lastmile_qr_scan"}}, {"bike_id": "ad2ed37b662a32735fac433ffbab451a", "fusion_lon": 0.0, "name": "ad2ed37b662a32735fac433ffbab451a", "lat": 38.884918166666665, "is_disabled": 0, "is_reserved": 0, "lon": -77.007099, "type": "electric_scooter", "fusion_lat": 0.0, "rental_uris": {"android": "https://dc.lft.to/lastmile_qr_scan", "ios": "https://dc.lft.to/lastmile_qr_scan"}}, {"bike_id": "17aa02f98d07c75793d48a05c0ba1796", "fusion_lon": 0.0, "name": "17aa02f98d07c75793d48a05c0ba1796", "lat": 38.86722983333333, "is_disabled": 0, "is_reserved": 0, "lon": -76.98703133333333, "type": "electric_scooter", "fusion_lat": 0.0, "rental_uris": {"android": "https://dc.lft.to/lastmile_qr_scan", "ios": "https://dc.lft.to/lastmile_qr_scan"}}, {"bike_id": "8502848d2d9b38609d8962a01e3791dc", "fusion_lon": 0.0, "name": "8502848d2d9b38609d8962a01e3791dc", "lat": 38.9170495, "is_disabled": 0, "is_reserved": 0, "lon": -77.03179716666666, "type": "electric_scooter", "fusion_lat": 0.0, "rental_uris": {"android": "https://dc.lft.to/lastmile_qr_scan", "ios": "https://dc.lft.to/lastmile_qr_scan"}}, {"bike_id": "d1970a826b802a843cba29cf49cba9ed", "fusion_lon": 0.0, "name": "d1970a826b802a843cba29cf49cba9ed", "lat": 38.89841366666667, "is_disabled": 0, "is_reserved": 0, "lon": -77.01336933333333, "type": "electric_scooter", "fusion_lat": 0.0, "rental_uris": {"android": "https://dc.lft.to/lastmile_qr_scan", "ios": "https://dc.lft.to/lastmile_qr_scan"}}, {"bike_id": "010683ae4ff590b2596c3a9126e019a5", "fusion_lon": 0.0, "name": "010683ae4ff590b2596c3a9126e019a5", "lat": 38.9668115, "is_disabled": 0, "is_reserved": 0, "lon": -77.02254616666667, "type": "electric_bike", "fusion_lat": 0.0, "rental_uris": {"android": "https://dc.lft.to/lastmile_qr_scan", "ios": "https://dc.lft.to/lastmile_qr_scan"}}, {"bike_id": "f09dcee69ead9d1effa58d760818e16a", "fusion_lon": 0.0, "name": "f09dcee69ead9d1effa58d760818e16a", "lat": 38.88297683333333, "is_disabled": 0, "is_reserved": 0, "lon": -76.94854033333333, "type": "electric_scooter", "fusion_lat": 0.0, "rental_uris": {"android": "https://dc.lft.to/lastmile_qr_scan", "ios": "https://dc.lft.to/lastmile_qr_scan"}}, {"bike_id": "ac5b43666152d336e4df1127afa06258", "fusion_lon": 0.0, "name": "ac5b43666152d336e4df1127afa06258", "lat": 38.901208, "is_disabled": 0, "is_reserved": 0, "lon": -77.02890183333334, "type": "electric_scooter", "fusion_lat": 0.0, "rental_uris": {"android": "https://dc.lft.to/lastmile_qr_scan", "ios": "https://dc.lft.to/lastmile_qr_scan"}}, {"bike_id": "57476e364fb9ef3b4fb60fc0d393f7a5", "fusion_lon": 0.0, "name": "57476e364fb9ef3b4fb60fc0d393f7a5", "lat": 38.925112, "is_disabled": 0, "is_reserved": 0, "lon": -77.02285616666667, "type": "electric_scooter", "fusion_lat": 0.0, "rental_uris": {"android": "https://dc.lft.to/lastmile_qr_scan", "ios": "https://dc.lft.to/lastmile_qr_scan"}}, {"bike_id": "5a16dbfe80cc224301b8bdcb9a2d7d33", "fusion_lon": 0.0, "name": "5a16dbfe80cc224301b8bdcb9a2d7d33", "lat": 38.902081, "is_disabled": 0, "is_reserved": 0, "lon": -77.02590933333333, "type": "electric_scooter", "fusion_lat": 0.0, "rental_uris": {"android": "https://dc.lft.to/lastmile_qr_scan", "ios": "https://dc.lft.to/lastmile_qr_scan"}}, {"bike_id": "05ea20247dc99180a6b6d8c165862e92", "fusion_lon": 0.0, "name": "05ea20247dc99180a6b6d8c165862e92", "lat": 38.892404666666664, "is_disabled": 0, "is_reserved": 0, "lon": -77.02607233333333, "type": "electric_scooter", "fusion_lat": 0.0, "rental_uris": {"android": "https://dc.lft.to/lastmile_qr_scan", "ios": "https://dc.lft.to/lastmile_qr_scan"}}, {"bike_id": "3bfbdf0742839b8933ba44151d88172a", "fusion_lon": 0.0, "name": "3bfbdf0742839b8933ba44151d88172a", "lat": 38.9522185, "is_disabled": 0, "is_reserved": 0, "lon": -77.08216366666667, "type": "electric_scooter", "fusion_lat": 0.0, "rental_uris": {"android": "https://dc.lft.to/lastmile_qr_scan", "ios": "https://dc.lft.to/lastmile_qr_scan"}}, {"bike_id": "9517af103d5c53ca7960122aa30615c9", "fusion_lon": 0.0, "name": "9517af103d5c53ca7960122aa30615c9", "lat": 38.93867916666667, "is_disabled": 0, "is_reserved": 0, "lon": -77.02482366666666, "type": "electric_scooter", "fusion_lat": 0.0, "rental_uris": {"android": "https://dc.lft.to/lastmile_qr_scan", "ios": "https://dc.lft.to/lastmile_qr_scan"}}, {"bike_id": "4a6fbda896fbe292c9b66568c26852b1", "fusion_lon": 0.0, "name": "4a6fbda896fbe292c9b66568c26852b1", "lat": 38.85413466666667, "is_disabled": 0, "is_reserved": 0, "lon": -77.1207545, "type": "electric_bike", "fusion_lat": 0.0, "rental_uris": {"android": "https://dc.lft.to/lastmile_qr_scan", "ios": "https://dc.lft.to/lastmile_qr_scan"}}, {"bike_id": "f3b7ccd3eb4d713c49059fca93f1e525", "fusion_lon": 0.0, "name": "f3b7ccd3eb4d713c49059fca93f1e525", "lat": 38.87945933333334, "is_disabled": 0, "is_reserved": 0, "lon": -77.00894266666667, "type": "electric_scooter", "fusion_lat": 0.0, "rental_uris": {"android": "https://dc.lft.to/lastmile_qr_scan", "ios": "https://dc.lft.to/lastmile_qr_scan"}}, {"bike_id": "7b3b9d9adc185e4eb82617d220820075", "fusion_lon": 0.0, "name": "7b3b9d9adc185e4eb82617d220820075", "lat": 38.884254, "is_disabled": 0, "is_reserved": 0, "lon": -76.95754466666666, "type": "electric_scooter", "fusion_lat": 0.0, "rental_uris": {"android": "https://dc.lft.to/lastmile_qr_scan", "ios": "https://dc.lft.to/lastmile_qr_scan"}}, {"bike_id": "bad5fd91f649d923ece7231777aa786f", "fusion_lon": 0.0, "name": "bad5fd91f649d923ece7231777aa786f", "lat": 38.920617, "is_disabled": 0, "is_reserved": 0, "lon": -77.04211983333333, "type": "electric_scooter", "fusion_lat": 0.0, "rental_uris": {"android": "https://dc.lft.to/lastmile_qr_scan", "ios": "https://dc.lft.to/lastmile_qr_scan"}}, {"bike_id": "49dcdd24839c8039cbf96a508e57ca97", "fusion_lon": 0.0, "name": "49dcdd24839c8039cbf96a508e57ca97", "lat": 38.9243095, "is_disabled": 0, "is_reserved": 0, "lon": -76.99716516666666, "type": "electric_scooter", "fusion_lat": 0.0, "rental_uris": {"android": "https://dc.lft.to/lastmile_qr_scan", "ios": "https://dc.lft.to/lastmile_qr_scan"}}, {"bike_id": "1abcb2c911fc3e5cbdbfead5b055bc2f", "fusion_lon": 0.0, "name": "1abcb2c911fc3e5cbdbfead5b055bc2f", "lat": 38.91709933333333, "is_disabled": 0, "is_reserved": 0, "lon": -77.02888333333334, "type": "electric_scooter", "fusion_lat": 0.0, "rental_uris": {"android": "https://dc.lft.to/lastmile_qr_scan", "ios": "https://dc.lft.to/lastmile_qr_scan"}}, {"bike_id": "efcb1d31d7445c98550599d4837488ea", "fusion_lon": 0.0, "name": "efcb1d31d7445c98550599d4837488ea", "lat": 38.9057965, "is_disabled": 0, "is_reserved": 0, "lon": -77.041013, "type": "electric_scooter", "fusion_lat": 0.0, "rental_uris": {"android": "https://dc.lft.to/lastmile_qr_scan", "ios": "https://dc.lft.to/lastmile_qr_scan"}}, {"bike_id": "f410490274049ba32716f7dd88c3647b", "fusion_lon": 0.0, "name": "f410490274049ba32716f7dd88c3647b", "lat": 38.92300433333333, "is_disabled": 0, "is_reserved": 0, "lon": -77.04272266666666, "type": "electric_scooter", "fusion_lat": 0.0, "rental_uris": {"android": "https://dc.lft.to/lastmile_qr_scan", "ios": "https://dc.lft.to/lastmile_qr_scan"}}, {"bike_id": "bcbf7df7bc8ac5a857d86cc9a2cfcd5d", "fusion_lon": 0.0, "name": "bcbf7df7bc8ac5a857d86cc9a2cfcd5d", "lat": 38.92503883333333, "is_disabled": 0, "is_reserved": 0, "lon": -77.00221083333334, "type": "electric_scooter", "fusion_lat": 0.0, "rental_uris": {"android": "https://dc.lft.to/lastmile_qr_scan", "ios": "https://dc.lft.to/lastmile_qr_scan"}}, {"bike_id": "6feb0ebc47f53af3cc425573ad357862", "fusion_lon": 0.0, "name": "6feb0ebc47f53af3cc425573ad357862", "lat": 38.8974315, "is_disabled": 0, "is_reserved": 0, "lon": -77.00923216666666, "type": "electric_scooter", "fusion_lat": 0.0, "rental_uris": {"android": "https://dc.lft.to/lastmile_qr_scan", "ios": "https://dc.lft.to/lastmile_qr_scan"}}, {"bike_id": "f879570d291f0f4a2dfc8fce1acdc3a5", "fusion_lon": 0.0, "name": "f879570d291f0f4a2dfc8fce1acdc3a5", "lat": 38.92048166666667, "is_disabled": 0, "is_reserved": 0, "lon": -77.025704, "type": "electric_scooter", "fusion_lat": 0.0, "rental_uris": {"android": "https://dc.lft.to/lastmile_qr_scan", "ios": "https://dc.lft.to/lastmile_qr_scan"}}, {"bike_id": "5a8264eaf0b5c92093f7628758622894", "fusion_lon": 0.0, "name": "5a8264eaf0b5c92093f7628758622894", "lat": 38.923128166666665, "is_disabled": 0, "is_reserved": 0, "lon": -77.03909616666667, "type": "electric_scooter", "fusion_lat": 0.0, "rental_uris": {"android": "https://dc.lft.to/lastmile_qr_scan", "ios": "https://dc.lft.to/lastmile_qr_scan"}}, {"bike_id": "4ba80c808f8e4fb925514ca320162de6", "fusion_lon": 0.0, "name": "4ba80c808f8e4fb925514ca320162de6", "lat": 38.91985616666667, "is_disabled": 0, "is_reserved": 0, "lon": -76.97312, "type": "electric_scooter", "fusion_lat": 0.0, "rental_uris": {"android": "https://dc.lft.to/lastmile_qr_scan", "ios": "https://dc.lft.to/lastmile_qr_scan"}}, {"bike_id": "725fcd086d4978ac69faf005e937de2a", "fusion_lon": 0.0, "name": "725fcd086d4978ac69faf005e937de2a", "lat": 38.855496, "is_disabled": 0, "is_reserved": 0, "lon": -76.98758533333333, "type": "electric_scooter", "fusion_lat": 0.0, "rental_uris": {"android": "https://dc.lft.to/lastmile_qr_scan", "ios": "https://dc.lft.to/lastmile_qr_scan"}}, {"bike_id": "ff98d2ec6c633dd088c298eb52904c8d", "fusion_lon": 0.0, "name": "ff98d2ec6c633dd088c298eb52904c8d", "lat": 38.9095545, "is_disabled": 0, "is_reserved": 0, "lon": -77.033083, "type": "electric_scooter", "fusion_lat": 0.0, "rental_uris": {"android": "https://dc.lft.to/lastmile_qr_scan", "ios": "https://dc.lft.to/lastmile_qr_scan"}}, {"bike_id": "06156b9f640267c5a98284ae2f55e891", "fusion_lon": 0.0, "name": "06156b9f640267c5a98284ae2f55e891", "lat": 38.90878516666667, "is_disabled": 0, "is_reserved": 0, "lon": -77.0487235, "type": "electric_scooter", "fusion_lat": 0.0, "rental_uris": {"android": "https://dc.lft.to/lastmile_qr_scan", "ios": "https://dc.lft.to/lastmile_qr_scan"}}, {"bike_id": "8ecbcd8c1795df3180c047083bfd97fc", "fusion_lon": 0.0, "name": "8ecbcd8c1795df3180c047083bfd97fc", "lat": 38.9232215, "is_disabled": 0, "is_reserved": 0, "lon": -77.02130716666667, "type": "electric_scooter", "fusion_lat": 0.0, "rental_uris": {"android": "https://dc.lft.to/lastmile_qr_scan", "ios": "https://dc.lft.to/lastmile_qr_scan"}}, {"bike_id": "9927d7d0c374a93a41f790f23b418e03", "fusion_lon": 0.0, "name": "9927d7d0c374a93a41f790f23b418e03", "lat": 38.897177166666665, "is_disabled": 0, "is_reserved": 0, "lon": -77.0431825, "type": "electric_scooter", "fusion_lat": 0.0, "rental_uris": {"android": "https://dc.lft.to/lastmile_qr_scan", "ios": "https://dc.lft.to/lastmile_qr_scan"}}, {"bike_id": "d597c6f58747ad31b9c01eb800450164", "fusion_lon": 0.0, "name": "d597c6f58747ad31b9c01eb800450164", "lat": 38.905612, "is_disabled": 0, "is_reserved": 0, "lon": -77.0243855, "type": "electric_scooter", "fusion_lat": 0.0, "rental_uris": {"android": "https://dc.lft.to/lastmile_qr_scan", "ios": "https://dc.lft.to/lastmile_qr_scan"}}, {"bike_id": "c4ce6f147e2969f58be59cc65512c8fe", "fusion_lon": 0.0, "name": "c4ce6f147e2969f58be59cc65512c8fe", "lat": 38.840860166666666, "is_disabled": 0, "is_reserved": 0, "lon": -76.97029066666667, "type": "electric_bike", "fusion_lat": 0.0, "rental_uris": {"android": "https://dc.lft.to/lastmile_qr_scan", "ios": "https://dc.lft.to/lastmile_qr_scan"}}, {"bike_id": "56db047208181aa2c96001311faab9ec", "fusion_lon": 0.0, "name": "56db047208181aa2c96001311faab9ec", "lat": 38.9225635, "is_disabled": 0, "is_reserved": 0, "lon": -77.009144, "type": "electric_scooter", "fusion_lat": 0.0, "rental_uris": {"android": "https://dc.lft.to/lastmile_qr_scan", "ios": "https://dc.lft.to/lastmile_qr_scan"}}, {"bike_id": "7bc63f64bec335bcd6769bf29c5cf3d8", "fusion_lon": 0.0, "name": "7bc63f64bec335bcd6769bf29c5cf3d8", "lat": 38.914469833333335, "is_disabled": 0, "is_reserved": 0, "lon": -76.98821316666667, "type": "electric_scooter", "fusion_lat": 0.0, "rental_uris": {"android": "https://dc.lft.to/lastmile_qr_scan", "ios": "https://dc.lft.to/lastmile_qr_scan"}}, {"bike_id": "773af8a9b95a4ac31b1cad7aa5500af5", "fusion_lon": 0.0, "name": "773af8a9b95a4ac31b1cad7aa5500af5", "lat": 38.89225, "is_disabled": 0, "is_reserved": 0, "lon": -77.031465, "type": "electric_scooter", "fusion_lat": 0.0, "rental_uris": {"android": "https://dc.lft.to/lastmile_qr_scan", "ios": "https://dc.lft.to/lastmile_qr_scan"}}, {"bike_id": "d000c1bf3c5953266a20d1cd118c1484", "fusion_lon": 0.0, "name": "d000c1bf3c5953266a20d1cd118c1484", "lat": 38.938602833333334, "is_disabled": 0, "is_reserved": 0, "lon": -77.0255405, "type": "electric_scooter", "fusion_lat": 0.0, "rental_uris": {"android": "https://dc.lft.to/lastmile_qr_scan", "ios": "https://dc.lft.to/lastmile_qr_scan"}}, {"bike_id": "6b9b56488c315ebd2103c204164daf22", "fusion_lon": 0.0, "name": "6b9b56488c315ebd2103c204164daf22", "lat": 38.90570833333334, "is_disabled": 0, "is_reserved": 0, "lon": -77.00587, "type": "electric_scooter", "fusion_lat": 0.0, "rental_uris": {"android": "https://dc.lft.to/lastmile_qr_scan", "ios": "https://dc.lft.to/lastmile_qr_scan"}}, {"bike_id": "0f02cb08478496e5f7ce2d8084b7ab93", "fusion_lon": 0.0, "name": "0f02cb08478496e5f7ce2d8084b7ab93", "lat": 38.900386, "is_disabled": 0, "is_reserved": 0, "lon": -76.97223366666667, "type": "electric_bike", "fusion_lat": 0.0, "rental_uris": {"android": "https://dc.lft.to/lastmile_qr_scan", "ios": "https://dc.lft.to/lastmile_qr_scan"}}, {"bike_id": "1239ccb13f846056792cb00d2daae022", "fusion_lon": 0.0, "name": "1239ccb13f846056792cb00d2daae022", "lat": 38.8772785, "is_disabled": 0, "is_reserved": 0, "lon": -77.004223, "type": "electric_scooter", "fusion_lat": 0.0, "rental_uris": {"android": "https://dc.lft.to/lastmile_qr_scan", "ios": "https://dc.lft.to/lastmile_qr_scan"}}, {"bike_id": "ef81eda2add6973aa6dd43941b78ef72", "fusion_lon": 0.0, "name": "ef81eda2add6973aa6dd43941b78ef72", "lat": 38.9139935, "is_disabled": 0, "is_reserved": 0, "lon": -77.041727, "type": "electric_scooter", "fusion_lat": 0.0, "rental_uris": {"android": "https://dc.lft.to/lastmile_qr_scan", "ios": "https://dc.lft.to/lastmile_qr_scan"}}, {"bike_id": "b08eb2660d7ddddf0c1f449bd68ba05e", "fusion_lon": 0.0, "name": "b08eb2660d7ddddf0c1f449bd68ba05e", "lat": 38.90572816666667, "is_disabled": 0, "is_reserved": 0, "lon": -77.043551, "type": "electric_scooter", "fusion_lat": 0.0, "rental_uris": {"android": "https://dc.lft.to/lastmile_qr_scan", "ios": "https://dc.lft.to/lastmile_qr_scan"}}, {"bike_id": "ad7aa080e787904a8c0cea5b41ba86b2", "fusion_lon": 0.0, "name": "ad7aa080e787904a8c0cea5b41ba86b2", "lat": 38.91810483333333, "is_disabled": 0, "is_reserved": 0, "lon": -77.03192533333333, "type": "electric_scooter", "fusion_lat": 0.0, "rental_uris": {"android": "https://dc.lft.to/lastmile_qr_scan", "ios": "https://dc.lft.to/lastmile_qr_scan"}}, {"bike_id": "22f4f8aafbb0e855321d65438836638c", "fusion_lon": 0.0, "name": "22f4f8aafbb0e855321d65438836638c", "lat": 38.8852245, "is_disabled": 0, "is_reserved": 0, "lon": -76.97708216666666, "type": "electric_scooter", "fusion_lat": 0.0, "rental_uris": {"android": "https://dc.lft.to/lastmile_qr_scan", "ios": "https://dc.lft.to/lastmile_qr_scan"}}, {"bike_id": "cc1056294d5d4c5b34cac6189ee5a644", "fusion_lon": 0.0, "name": "cc1056294d5d4c5b34cac6189ee5a644", "lat": 38.89667433333334, "is_disabled": 0, "is_reserved": 0, "lon": -77.05464866666667, "type": "electric_scooter", "fusion_lat": 0.0, "rental_uris": {"android": "https://dc.lft.to/lastmile_qr_scan", "ios": "https://dc.lft.to/lastmile_qr_scan"}}, {"bike_id": "d4ebb6fb0cc756f546146278f387efee", "fusion_lon": 0.0, "name": "d4ebb6fb0cc756f546146278f387efee", "lat": 38.890066833333336, "is_disabled": 0, "is_reserved": 0, "lon": -76.937439, "type": "electric_scooter", "fusion_lat": 0.0, "rental_uris": {"android": "https://dc.lft.to/lastmile_qr_scan", "ios": "https://dc.lft.to/lastmile_qr_scan"}}, {"bike_id": "074abd297ccd1e679262edd565100e1f", "fusion_lon": 0.0, "name": "074abd297ccd1e679262edd565100e1f", "lat": 38.9255955, "is_disabled": 0, "is_reserved": 0, "lon": -77.022829, "type": "electric_scooter", "fusion_lat": 0.0, "rental_uris": {"android": "https://dc.lft.to/lastmile_qr_scan", "ios": "https://dc.lft.to/lastmile_qr_scan"}}, {"bike_id": "c98ac0fa8da7c2595b9158048bac473a", "fusion_lon": 0.0, "name": "c98ac0fa8da7c2595b9158048bac473a", "lat": 38.900299, "is_disabled": 0, "is_reserved": 0, "lon": -76.997335, "type": "electric_scooter", "fusion_lat": 0.0, "rental_uris": {"android": "https://dc.lft.to/lastmile_qr_scan", "ios": "https://dc.lft.to/lastmile_qr_scan"}}, {"bike_id": "cc446c489d62b6803ed7b59e97de85dc", "fusion_lon": 0.0, "name": "cc446c489d62b6803ed7b59e97de85dc", "lat": 38.903726666666664, "is_disabled": 0, "is_reserved": 0, "lon": -77.04445933333334, "type": "electric_scooter", "fusion_lat": 0.0, "rental_uris": {"android": "https://dc.lft.to/lastmile_qr_scan", "ios": "https://dc.lft.to/lastmile_qr_scan"}}, {"bike_id": "f3f3f6b31804b576bd0b74aa30c5fd07", "fusion_lon": 0.0, "name": "f3f3f6b31804b576bd0b74aa30c5fd07", "lat": 38.90956116666667, "is_disabled": 0, "is_reserved": 0, "lon": -77.2289135, "type": "electric_bike", "fusion_lat": 0.0, "rental_uris": {"android": "https://dc.lft.to/lastmile_qr_scan", "ios": "https://dc.lft.to/lastmile_qr_scan"}}, {"bike_id": "cb0d4e9af435457531cfa71b240b98da", "fusion_lon": 0.0, "name": "cb0d4e9af435457531cfa71b240b98da", "lat": 38.898162666666664, "is_disabled": 0, "is_reserved": 0, "lon": -77.0332475, "type": "electric_scooter", "fusion_lat": 0.0, "rental_uris": {"android": "https://dc.lft.to/lastmile_qr_scan", "ios": "https://dc.lft.to/lastmile_qr_scan"}}, {"bike_id": "1f4c19bb313f08f220d489ff56857f17", "fusion_lon": 0.0, "name": "1f4c19bb313f08f220d489ff56857f17", "lat": 38.9287695, "is_disabled": 0, "is_reserved": 0, "lon": -77.03521433333333, "type": "electric_scooter", "fusion_lat": 0.0, "rental_uris": {"android": "https://dc.lft.to/lastmile_qr_scan", "ios": "https://dc.lft.to/lastmile_qr_scan"}}, {"bike_id": "19f19a1b4e0eb90dbdac56fde9a6d8a2", "fusion_lon": 0.0, "name": "19f19a1b4e0eb90dbdac56fde9a6d8a2", "lat": 38.8805775, "is_disabled": 0, "is_reserved": 0, "lon": -76.93213583333333, "type": "electric_scooter", "fusion_lat": 0.0, "rental_uris": {"android": "https://dc.lft.to/lastmile_qr_scan", "ios": "https://dc.lft.to/lastmile_qr_scan"}}, {"bike_id": "9c86b86676acd692c0fa8ae44c39010a", "fusion_lon": 0.0, "name": "9c86b86676acd692c0fa8ae44c39010a", "lat": 38.9375315, "is_disabled": 0, "is_reserved": 0, "lon": -77.02954466666667, "type": "electric_scooter", "fusion_lat": 0.0, "rental_uris": {"android": "https://dc.lft.to/lastmile_qr_scan", "ios": "https://dc.lft.to/lastmile_qr_scan"}}, {"bike_id": "b3f509a588806d1fb8ce9386bd31f88d", "fusion_lon": 0.0, "name": "b3f509a588806d1fb8ce9386bd31f88d", "lat": 38.901492166666664, "is_disabled": 0, "is_reserved": 0, "lon": -76.9902405, "type": "electric_scooter", "fusion_lat": 0.0, "rental_uris": {"android": "https://dc.lft.to/lastmile_qr_scan", "ios": "https://dc.lft.to/lastmile_qr_scan"}}, {"bike_id": "056b5231231b5b0e8542271507891b43", "fusion_lon": 0.0, "name": "056b5231231b5b0e8542271507891b43", "lat": 38.9176495, "is_disabled": 0, "is_reserved": 0, "lon": -77.02304333333333, "type": "electric_scooter", "fusion_lat": 0.0, "rental_uris": {"android": "https://dc.lft.to/lastmile_qr_scan", "ios": "https://dc.lft.to/lastmile_qr_scan"}}, {"bike_id": "20f1ddf500cea2db447233d5b5e6f73a", "fusion_lon": 0.0, "name": "20f1ddf500cea2db447233d5b5e6f73a", "lat": 38.90787266666667, "is_disabled": 0, "is_reserved": 0, "lon": -76.99436833333333, "type": "electric_scooter", "fusion_lat": 0.0, "rental_uris": {"android": "https://dc.lft.to/lastmile_qr_scan", "ios": "https://dc.lft.to/lastmile_qr_scan"}}, {"bike_id": "3a4790fb7f48ee80e103f1b98d1f5bca", "fusion_lon": 0.0, "name": "3a4790fb7f48ee80e103f1b98d1f5bca", "lat": 38.9133545, "is_disabled": 0, "is_reserved": 0, "lon": -77.04182983333334, "type": "electric_scooter", "fusion_lat": 0.0, "rental_uris": {"android": "https://dc.lft.to/lastmile_qr_scan", "ios": "https://dc.lft.to/lastmile_qr_scan"}}, {"bike_id": "9f4ceba51b7c022ea545d61d06930122", "fusion_lon": 0.0, "name": "9f4ceba51b7c022ea545d61d06930122", "lat": 38.93050183333333, "is_disabled": 0, "is_reserved": 0, "lon": -76.95834383333333, "type": "electric_bike", "fusion_lat": 0.0, "rental_uris": {"android": "https://dc.lft.to/lastmile_qr_scan", "ios": "https://dc.lft.to/lastmile_qr_scan"}}, {"bike_id": "bb80dd4326da20d7de0437e1fdbdd815", "fusion_lon": 0.0, "name": "bb80dd4326da20d7de0437e1fdbdd815", "lat": 38.885087666666664, "is_disabled": 0, "is_reserved": 0, "lon": -76.99753133333333, "type": "electric_scooter", "fusion_lat": 0.0, "rental_uris": {"android": "https://dc.lft.to/lastmile_qr_scan", "ios": "https://dc.lft.to/lastmile_qr_scan"}}, {"bike_id": "66e5fe4d90ef09a3c3f6d16487b0e56f", "fusion_lon": 0.0, "name": "66e5fe4d90ef09a3c3f6d16487b0e56f", "lat": 39.014148166666665, "is_disabled": 0, "is_reserved": 0, "lon": -77.044984, "type": "electric_bike", "fusion_lat": 0.0, "rental_uris": {"android": "https://dc.lft.to/lastmile_qr_scan", "ios": "https://dc.lft.to/lastmile_qr_scan"}}, {"bike_id": "9ff9f52d7523d164dd6bd749c99c794e", "fusion_lon": 0.0, "name": "9ff9f52d7523d164dd6bd749c99c794e", "lat": 38.924859, "is_disabled": 0, "is_reserved": 0, "lon": -77.0275335, "type": "electric_scooter", "fusion_lat": 0.0, "rental_uris": {"android": "https://dc.lft.to/lastmile_qr_scan", "ios": "https://dc.lft.to/lastmile_qr_scan"}},