{"data": {"bikes": [{"bike_id": "e6c41a5b61b7c36bd0153b0aedb1cda8", "is_reserved": 0, "fusion_lon": 0.0, "lat": 38.9027495, "is_disabled": 0, "name": "e6c41a5b61b7c36bd0153b0aedb1cda8", "fusion_lat": 0.0, "rental_uris": {"ios": "https://dc.lft.to/lastmile_qr_scan", "android": "https://dc.lft.to/lastmile_qr_scan"}, "lon": -77.05920266666666, "type": "electric_scooter"}, {"bike_id": "30900b1e9f820213f697bfd8c858da41", "is_reserved": 0, "fusion_lon": 0.0, "lat": 38.89220366666667, "is_disabled": 0, "name": "30900b1e9f820213f697bfd8c858da41", "fusion_lat": 0.0, "rental_uris": {"ios": "https://dc.lft.to/lastmile_qr_scan", "android": "https://dc.lft.to/lastmile_qr_scan"}, "lon": -77.04194, "type": "electric_scooter"}, {"bike_id": "a78add3eac8f2e54a1eb06dc879ce270", "is_reserved": 0, "fusion_lon": 0.0, "lat": 38.927826333333336, "is_disabled": 0, "name": "a78add3eac8f2e54a1eb06dc879ce270", "fusion_lat": 0.0, "rental_uris": {"ios": "https://dc.lft.to/lastmile_qr_scan", "android": "https://dc.lft.to/lastmile_qr_scan"}, "lon": -77.03198316666666, "type": "electric_scooter"}, {"bike_id": "e49d7a9ceb7cac4874bf7ff8cfe9bd45", "is_reserved": 0, "fusion_lon": 0.0, "lat": 38.895582833333336, "is_disabled": 0, "name": "e49d7a9ceb7cac4874bf7ff8cfe9bd45", "fusion_lat": 0.0, "rental_uris": {"ios": "https://dc.lft.to/lastmile_qr_scan", "android": "https://dc.lft.to/lastmile_qr_scan"}, "lon": -77.04674383333334, "type": "electric_scooter"}, {"bike_id": "d0f7323752b52e458f56d2c443d27bec", "is_reserved": 0, "fusion_lon": 0.0, "lat": 38.92902933333333, "is_disabled": 0, "name": "d0f7323752b52e458f56d2c443d27bec", "fusion_lat": 0.0, "rental_uris": {"ios": "https://dc.lft.to/lastmile_qr_scan", "android": "https://dc.lft.to/lastmile_qr_scan"}, "lon": -77.03174183333333, "type": "electric_scooter"}, {"bike_id": "7bfe2902a1a847938409ef27ab510e29", "is_reserved": 0, "fusion_lon": 0.0, "lat": 38.906878166666665, "is_disabled": 0, "name": "7bfe2902a1a847938409ef27ab510e29", "fusion_lat": 0.0, "rental_uris": {"ios": "https://dc.lft.to/lastmile_qr_scan", "android": "https://dc.lft.to/lastmile_qr_scan"}, "lon": -77.0134735, "type": "electric_scooter"}, {"bike_id": "b178722ce6e6d96d6b63267fed4cc45e", "is_reserved": 0, "fusion_lon": 0.0, "lat": 38.9237855, "is_disabled": 0, "name": "b178722ce6e6d96d6b63267fed4cc45e", "fusion_lat": 0.0, "rental_uris": {"ios": "https://dc.lft.to/lastmile_qr_scan", "android": "https://dc.lft.to/lastmile_qr_scan"}, "lon": -77.002122, "type": "electric_scooter"}, {"bike_id": "8c0ebdebd8cb24b2551d16737fa0f252", "is_reserved": 0, "fusion_lon": 0.0, "lat": 38.89598616666667, "is_disabled": 0, "name": "8c0ebdebd8cb24b2551d16737fa0f252", "fusion_lat": 0.0, "rental_uris": {"ios": "https://dc.lft.to/lastmile_qr_scan", "android": "https://dc.lft.to/lastmile_qr_scan"}, "lon": -77.0283465, "type": "electric_scooter"}, {"bike_id": "0ce758bb039677ac7d80636286d7af63", "is_reserved": 0, "fusion_lon": 0.0, "lat": 38.907376166666666, "is_disabled": 0, "name": "0ce758bb039677ac7d80636286d7af63", "fusion_lat": 0.0, "rental_uris": {"ios": "https://dc.lft.to/lastmile_qr_scan", "android": "https://dc.lft.to/lastmile_qr_scan"}, "lon": -77.04672966666666, "type": "electric_scooter"}, {"bike_id": "c973c8c942e6ccf52a7937c881080a21", "is_reserved": 0, "fusion_lon": 0.0, "lat": 38.93429183333333, "is_disabled": 0, "name": "c973c8c942e6ccf52a7937c881080a21", "fusion_lat": 0.0, "rental_uris": {"ios": "https://dc.lft.to/lastmile_qr_scan", "android": "https://dc.lft.to/lastmile_qr_scan"}, "lon": -77.043184, "type": "electric_scooter"}, {"bike_id": "ae1d128a93ad92b189590e3672f5c36e", "is_reserved": 0, "fusion_lon": 0.0, "lat": 38.922469, "is_disabled": 0, "name": "ae1d128a93ad92b189590e3672f5c36e", "fusion_lat": 0.0, "rental_uris": {"ios": "https://dc.lft.to/lastmile_qr_scan", "android": "https://dc.lft.to/lastmile_qr_scan"}, "lon": -77.01006483333333, "type": "electric_scooter"}, {"bike_id": "b53a2f58df2bc1740ea17a6e1158030b", "is_reserved": 0, "fusion_lon": 0.0, "lat": 38.869120333333335, "is_disabled": 0, "name": "b53a2f58df2bc1740ea17a6e1158030b", "fusion_lat": 0.0, "rental_uris": {"ios": "https://dc.lft.to/lastmile_qr_scan", "android": "https://dc.lft.to/lastmile_qr_scan"}, "lon": -77.13182483333334, "type": "electric_bike"}, {"bike_id": "2e6eca0992a19787a6f594ad801e5333", "is_reserved": 0, "fusion_lon": 0.0, "lat": 38.897991, "is_disabled": 0, "name": "2e6eca0992a19787a6f594ad801e5333", "fusion_lat": 0.0, "rental_uris": {"ios": "https://dc.lft.to/lastmile_qr_scan", "android": "https://dc.lft.to/lastmile_qr_scan"}, "lon": -77.03302983333333, "type": "electric_scooter"}, {"bike_id": "94f5279ca1144649e5f19fbe9beb597a", "is_reserved": 0, "fusion_lon": 0.0, "lat": 38.90249283333333, "is_disabled": 0, "name": "94f5279ca1144649e5f19fbe9beb597a", "fusion_lat": 0.0, "rental_uris": {"ios": "https://dc.lft.to/lastmile_qr_scan", "android": "https://dc.lft.to/lastmile_qr_scan"}, "lon": -77.02928466666667, "type": "electric_scooter"}, {"bike_id": "8e3870ee03d88d3527e0bf047bd04504", "is_reserved": 0, "fusion_lon": 0.0, "lat": 38.891942, "is_disabled": 0, "name": "8e3870ee03d88d3527e0bf047bd04504", "fusion_lat": 0.0, "rental_uris": {"ios": "https://dc.lft.to/lastmile_qr_scan", "android": "https://dc.lft.to/lastmile_qr_scan"}, "lon": -77.02980866666667, "type": "electric_scooter"}, {"bike_id": "3cde840734ad5897c17b9471c6d8ea23", "is_reserved": 0, "fusion_lon": 0.0, "lat": 38.89621983333333, "is_disabled": 0, "name": "3cde840734ad5897c17b9471c6d8ea23", "fusion_lat": 0.0, "rental_uris": {"ios": "https://dc.lft.to/lastmile_qr_scan", "android": "https://dc.lft.to/lastmile_qr_scan"}, "lon": -76.9984695, "type": "electric_scooter"}, {"bike_id": "493827c8bb64cf1066ea3f964f2a867e", "is_reserved": 0, "fusion_lon": 0.0, "lat": 38.92845966666667, "is_disabled": 0, "name": "493827c8bb64cf1066ea3f964f2a867e", "fusion_lat": 0.0, "rental_uris": {"ios": "https://dc.lft.to/lastmile_qr_scan", "android": "https://dc.lft.to/lastmile_qr_scan"}, "lon": -77.05442216666667, "type": "electric_scooter"}, {"bike_id": "3689718ae01bc991031f98342efb9cd9", "is_reserved": 0, "fusion_lon": 0.0, "lat": 38.89494333333333, "is_disabled": 0, "name": "3689718ae01bc991031f98342efb9cd9", "fusion_lat": 0.0, "rental_uris": {"ios": "https://dc.lft.to/lastmile_qr_scan", "android": "https://dc.lft.to/lastmile_qr_scan"}, "lon": -77.02286016666666, "type": "electric_scooter"}, {"bike_id": "37aa77a12290ad3586a1fd3680532954", "is_reserved": 0, "fusion_lon": 0.0, "lat": 38.9019185, "is_disabled": 0, "name": "37aa77a12290ad3586a1fd3680532954", "fusion_lat": 0.0, "rental_uris": {"ios": "https://dc.lft.to/lastmile_qr_scan", "android": "https://dc.lft.to/lastmile_qr_scan"}, "lon": -77.02056433333334, "type": "electric_bike"}, {"bike_id": "b7594ece4ce1b8af98fb8f637afbac87", "is_reserved": 0, "fusion_lon": 0.0, "lat": 38.90555916666667, "is_disabled": 0, "name": "b7594ece4ce1b8af98fb8f637afbac87", "fusion_lat": 0.0, "rental_uris": {"ios": "https://dc.lft.to/lastmile_qr_scan", "android": "https://dc.lft.to/lastmile_qr_scan"}, "lon": -77.038155, "type": "electric_scooter"}, {"bike_id": "ebce40f4a5ca7f8e15664e7be0b7fd48", "is_reserved": 0, "fusion_lon": 0.0, "lat": 38.86522333333333, "is_disabled": 0, "name": "ebce40f4a5ca7f8e15664e7be0b7fd48", "fusion_lat": 0.0, "rental_uris": {"ios": "https://dc.lft.to/lastmile_qr_scan", "android": "https://dc.lft.to/lastmile_qr_scan"}, "lon": -76.990323, "type": "electric_scooter"}, {"bike_id": "8150a1e1778d739d5e45f63bd316eee5", "is_reserved": 0, "fusion_lon": 0.0, "lat": 38.919841166666664, "is_disabled": 0, "name": "8150a1e1778d739d5e45f63bd316eee5", "fusion_lat": 0.0, "rental_uris": {"ios": "https://dc.lft.to/lastmile_qr_scan", "android": "https://dc.lft.to/lastmile_qr_scan"}, "lon": -77.02177383333333, "type": "electric_scooter"}, {"bike_id": "91263e4d616218b247a08244d07e0ccf", "is_reserved": 0, "fusion_lon": 0.0, "lat": 38.9013405, "is_disabled": 0, "name": "91263e4d616218b247a08244d07e0ccf", "fusion_lat": 0.0, "rental_uris": {"ios": "https://dc.lft.to/lastmile_qr_scan", "android": "https://dc.lft.to/lastmile_qr_scan"}, "lon": -77.0317745, "type": "electric_scooter"}, {"bike_id": "cad22b5f2334d388ebc77fe994d4345b", "is_reserved": 0, "fusion_lon": 0.0, "lat": 38.9102995, "is_disabled": 0, "name": "cad22b5f2334d388ebc77fe994d4345b", "fusion_lat": 0.0, "rental_uris": {"ios": "https://dc.lft.to/lastmile_qr_scan", "android": "https://dc.lft.to/lastmile_qr_scan"}, "lon": -77.03850416666667, "type": "electric_scooter"}, {"bike_id": "ebb1c09f4480dc43b7e8280fd519ff25", "is_reserved": 0, "fusion_lon": 0.0, "lat": 38.92611216666667, "is_disabled": 0, "name": "ebb1c09f4480dc43b7e8280fd519ff25", "fusion_lat": 0.0, "rental_uris": {"ios": "https://dc.lft.to/lastmile_qr_scan", "android": "https://dc.lft.to/lastmile_qr_scan"}, "lon": -77.021631, "type": "electric_scooter"}, {"bike_id": "f684cf1e22b8610d060422cb9d363af4", "is_reserved": 0, "fusion_lon": 0.0, "lat": 38.8568315, "is_disabled": 0, "name": "f684cf1e22b8610d060422cb9d363af4", "fusion_lat": 0.0, "rental_uris": {"ios": "https://dc.lft.to/lastmile_qr_scan", "android": "https://dc.lft.to/lastmile_qr_scan"}, "lon": -77.08569766666666, "type": "electric_bike"}, {"bike_id": "ed539fe64c83859e21b15c09b92e069b", "is_reserved": 0, "fusion_lon": 0.0, "lat": 38.8984115, "is_disabled": 0, "name": "ed539fe64c83859e21b15c09b92e069b", "fusion_lat": 0.0, "rental_uris": {"ios": "https://dc.lft.to/lastmile_qr_scan", "android": "https://dc.lft.to/lastmile_qr_scan"}, "lon": -77.03285033333333, "type": "electric_scooter"}, {"bike_id": "987b7fbfb790eb1178934ab36ac36318", "is_reserved": 0, "fusion_lon": 0.0, "lat": 38.88722966666667, "is_disabled": 0, "name": "987b7fbfb790eb1178934ab36ac36318", "fusion_lat": 0.0, "rental_uris": {"ios": "https://dc.lft.to/lastmile_qr_scan", "android": "https://dc.lft.to/lastmile_qr_scan"}, "lon": -77.025783, "type": "electric_scooter"}, {"bike_id": "eaed3e315933e3b9a367a00d57a89ce9", "is_reserved": 0, "fusion_lon": 0.0, "lat": 38.900288833333335, "is_disabled": 0, "name": "eaed3e315933e3b9a367a00d57a89ce9", "fusion_lat": 0.0, "rental_uris": {"ios": "https://dc.lft.to/lastmile_qr_scan", "android": "https://dc.lft.to/lastmile_qr_scan"}, "lon": -77.02973533333333, "type": "electric_bike"}, {"bike_id": "b2c3e29786215f34c1e84f8ba77f8a3f", "is_reserved": 0, "fusion_lon": 0.0, "lat": 38.863743666666664, "is_disabled": 0, "name": "b2c3e29786215f34c1e84f8ba77f8a3f", "fusion_lat": 0.0, "rental_uris": {"ios": "https://dc.lft.to/lastmile_qr_scan", "android": "https://dc.lft.to/lastmile_qr_scan"}, "lon": -76.99061333333333, "type": "electric_scooter"}, {"bike_id": "c973ab9b37ce05db847febb2faea1f4d", "is_reserved": 0, "fusion_lon": 0.0, "lat": 38.9248165, "is_disabled": 0, "name": "c973ab9b37ce05db847febb2faea1f4d", "fusion_lat": 0.0, "rental_uris": {"ios": "https://dc.lft.to/lastmile_qr_scan", "android": "https://dc.lft.to/lastmile_qr_scan"}, "lon": -77.05209883333333, "type": "electric_scooter"}, {"bike_id": "6d25fc9450416bffbbe3987543dd8071", "is_reserved": 0, "fusion_lon": 0.0, "lat": 38.8529125, "is_disabled": 0, "name": "6d25fc9450416bffbbe3987543dd8071", "fusion_lat": 0.0, "rental_uris": {"ios": "https://dc.lft.to/lastmile_qr_scan", "android": "https://dc.lft.to/lastmile_qr_scan"}, "lon": -77.05277733333334, "type": "electric_bike"}, {"bike_id": "5e4d449663d7d1d0c0b2c5aacbfdd74a", "is_reserved": 0, "fusion_lon": 0.0, "lat": 38.87141866666666, "is_disabled": 0, "name": "5e4d449663d7d1d0c0b2c5aacbfdd74a", "fusion_lat": 0.0, "rental_uris": {"ios": "https://dc.lft.to/lastmile_qr_scan", "android": "https://dc.lft.to/lastmile_qr_scan"}, "lon": -76.97751833333334, "type": "electric_scooter"}, {"bike_id": "da9357167e37c3279889d286e2f211ec", "is_reserved": 0, "fusion_lon": 0.0, "lat": 38.9221835, "is_disabled": 0, "name": "da9357167e37c3279889d286e2f211ec", "fusion_lat": 0.0, "rental_uris": {"ios": "https://dc.lft.to/lastmile_qr_scan", "android": "https://dc.lft.to/lastmile_qr_scan"}, "lon": -77.042572, "type": "electric_scooter"}, {"bike_id": "d93300a890a872fb24c0bc5779e3917a", "is_reserved": 0, "fusion_lon": 0.0, "lat": 38.90380016666667, "is_disabled": 0, "name": "d93300a890a872fb24c0bc5779e3917a", "fusion_lat": 0.0, "rental_uris": {"ios": "https://dc.lft.to/lastmile_qr_scan", "android": "https://dc.lft.to/lastmile_qr_scan"}, "lon": -77.03630166666666, "type": "electric_scooter"}, {"bike_id": "e05514858bf2478f549f2eabcb9e7219", "is_reserved": 0, "fusion_lon": 0.0, "lat": 38.89216016666666, "is_disabled": 0, "name": "e05514858bf2478f549f2eabcb9e7219", "fusion_lat": 0.0, "rental_uris": {"ios": "https://dc.lft.to/lastmile_qr_scan", "android": "https://dc.lft.to/lastmile_qr_scan"}, "lon": -77.03170983333334, "type": "electric_scooter"}, {"bike_id": "ce110947c413a635a0f3940a0d469750", "is_reserved": 0, "fusion_lon": 0.0, "lat": 38.87525883333333, "is_disabled": 0, "name": "ce110947c413a635a0f3940a0d469750", "fusion_lat": 0.0, "rental_uris": {"ios": "https://dc.lft.to/lastmile_qr_scan", "android": "https://dc.lft.to/lastmile_qr_scan"}, "lon": -77.00261116666667, "type": "electric_scooter"}, {"bike_id": "71419a263c6e69b5328fe75172b75da9", "is_reserved": 0, "fusion_lon": 0.0, "lat": 38.912146666666665, "is_disabled": 0, "name": "71419a263c6e69b5328fe75172b75da9", "fusion_lat": 0.0, "rental_uris": {"ios": "https://dc.lft.to/lastmile_qr_scan", "android": "https://dc.lft.to/lastmile_qr_scan"}, "lon": -77.075924, "type": "electric_scooter"}, {"bike_id": "2628fe8605d9acafaaf3fc45b33ccbec", "is_reserved": 0, "fusion_lon": 0.0, "lat": 38.89483033333333, "is_disabled": 0, "name": "2628fe8605d9acafaaf3fc45b33ccbec", "fusion_lat": 0.0, "rental_uris": {"ios": "https://dc.lft.to/lastmile_qr_scan", "android": "https://dc.lft.to/lastmile_qr_scan"}, "lon": -77.03059416666666, "type": "electric_scooter"}, {"bike_id": "0851e4c8cf74d680991b9d303d45c3bf", "is_reserved": 0, "fusion_lon": 0.0, "lat": 38.896105166666665, "is_disabled": 0, "name": "0851e4c8cf74d680991b9d303d45c3bf", "fusion_lat": 0.0, "rental_uris": {"ios": "https://dc.lft.to/lastmile_qr_scan", "android": "https://dc.lft.to/lastmile_qr_scan"}, "lon": -77.02373783333333, "type": "electric_scooter"}, {"bike_id": "fccaad90b19c74798f6236704f9bc321", "is_reserved": 0, "fusion_lon": 0.0, "lat": 38.94176066666667, "is_disabled": 0, "name": "fccaad90b19c74798f6236704f9bc321", "fusion_lat": 0.0, "rental_uris": {"ios": "https://dc.lft.to/lastmile_qr_scan", "android": "https://dc.lft.to/lastmile_qr_scan"}, "lon": -77.0249885, "type": "electric_scooter"}, {"bike_id": "aa4c31879ac9c93b4f813019c2788c28", "is_reserved": 0, "fusion_lon": 0.0, "lat": 38.96394016666667, "is_disabled": 0, "name": "aa4c31879ac9c93b4f813019c2788c28", "fusion_lat": 0.0, "rental_uris": {"ios": "https://dc.lft.to/lastmile_qr_scan", "android": "https://dc.lft.to/lastmile_qr_scan"}, "lon": -77.02593683333333, "type": "electric_scooter"}, {"bike_id": "e5943900572883f719ae042c34d9cec4", "is_reserved": 0, "fusion_lon": 0.0, "lat": 38.90674116666667, "is_disabled": 0, "name": "e5943900572883f719ae042c34d9cec4", "fusion_lat": 0.0, "rental_uris": {"ios": "https://dc.lft.to/lastmile_qr_scan", "android": "https://dc.lft.to/lastmile_qr_scan"}, "lon": -77.0271725, "type": "electric_scooter"}, {"bike_id": "bbb0382c2fe1dbd0b9a31a50e83080c5", "is_reserved": 0, "fusion_lon": 0.0, "lat": 38.919979833333336, "is_disabled": 0, "name": "bbb0382c2fe1dbd0b9a31a50e83080c5", "fusion_lat": 0.0, "rental_uris": {"ios": "https://dc.lft.to/lastmile_qr_scan", "android": "https://dc.lft.to/lastmile_qr_scan"}, "lon": -77.03227366666667, "type": "electric_scooter"}, {"bike_id": "0d580f18b45ca1d320a207a38b2edbde", "is_reserved": 0, "fusion_lon": 0.0, "lat": 38.866177, "is_disabled": 0, "name": "0d580f18b45ca1d320a207a38b2edbde", "fusion_lat": 0.0, "rental_uris": {"ios": "https://dc.lft.to/lastmile_qr_scan", "android": "https://dc.lft.to/lastmile_qr_scan"}, "lon": -76.987014, "type": "electric_scooter"}, {"bike_id": "e30472d981cbc019fcfdfa524196a769", "is_reserved": 0, "fusion_lon": 0.0, "lat": 38.9050555, "is_disabled": 0, "name": "e30472d981cbc019fcfdfa524196a769", "fusion_lat": 0.0, "rental_uris": {"ios": "https://dc.lft.to/lastmile_qr_scan", "android": "https://dc.lft.to/lastmile_qr_scan"}, "lon": -77.02950233333334, "type": "electric_scooter"}, {"bike_id": "6a3b75d3cf9f78e3d4615c2162cc3fea", "is_reserved": 0, "fusion_lon": 0.0, "lat": 38.92328083333334, "is_disabled": 0, "name": "6a3b75d3cf9f78e3d4615c2162cc3fea", "fusion_lat": 0.0, "rental_uris": {"ios": "https://dc.lft.to/lastmile_qr_scan", "android": "https://dc.lft.to/lastmile_qr_scan"}, "lon": -77.0350315, "type": "electric_scooter"}, {"bike_id": "50cdf0a7f51df5ba48e24263353026f3", "is_reserved": 0, "fusion_lon": 0.0, "lat": 38.918858666666665, "is_disabled": 0, "name": "50cdf0a7f51df5ba48e24263353026f3", "fusion_lat": 0.0, "rental_uris": {"ios": "https://dc.lft.to/lastmile_qr_scan", "android": "https://dc.lft.to/lastmile_qr_scan"}, "lon": -77.02969516666667, "type": "electric_scooter"}, {"bike_id": "e48ca5a937ae7850dd6d789b2da5da20", "is_reserved": 0, "fusion_lon": 0.0, "lat": 38.857509, "is_disabled": 0, "name": "e48ca5a937ae7850dd6d789b2da5da20", "fusion_lat": 0.0, "rental_uris": {"ios": "https://dc.lft.to/lastmile_qr_scan", "android": "https://dc.lft.to/lastmile_qr_scan"}, "lon": -76.98842633333334, "type": "electric_bike"}, {"bike_id": "14ce4d3bb60af6ceef180b3ed8e824bf", "is_reserved": 0, "fusion_lon": 0.0, "lat": 38.84296116666667, "is_disabled": 0, "name": "14ce4d3bb60af6ceef180b3ed8e824bf", "fusion_lat": 0.0, "rental_uris": {"ios": "https://dc.lft.to/lastmile_qr_scan", "android": "https://dc.lft.to/lastmile_qr_scan"}, "lon": -76.9994745, "type": "electric_scooter"}, {"bike_id": "8bdef2db370a3a43525794600ead51ec", "is_reserved": 0, "fusion_lon": 0.0, "lat": 38.92123633333333, "is_disabled": 0, "name": "8bdef2db370a3a43525794600ead51ec", "fusion_lat": 0.0, "rental_uris": {"ios": "https://dc.lft.to/lastmile_qr_scan", "android": "https://dc.lft.to/lastmile_qr_scan"}, "lon": -77.012105, "type": "electric_scooter"}, {"bike_id": "c029fdc7f3774c3f46dbd0ca386e0139", "is_reserved": 0, "fusion_lon": 0.0, "lat": 38.885056666666664, "is_disabled": 0, "name": "c029fdc7f3774c3f46dbd0ca386e0139", "fusion_lat": 0.0, "rental_uris": {"ios": "https://dc.lft.to/lastmile_qr_scan", "android": "https://dc.lft.to/lastmile_qr_scan"}, "lon": -77.0151075, "type": "electric_scooter"}, {"bike_id": "fc8140a9cfd63dc4fc4501fcdc90a5f8", "is_reserved": 0, "fusion_lon": 0.0, "lat": 38.935433333333336, "is_disabled": 0, "name": "fc8140a9cfd63dc4fc4501fcdc90a5f8", "fusion_lat": 0.0, "rental_uris": {"ios": "https://dc.lft.to/lastmile_qr_scan", "android": "https://dc.lft.to/lastmile_qr_scan"}, "lon": -77.03286633333333, "type": "electric_scooter"}, {"bike_id": "83601e7e95c076d7a847dad1c47b91d2", "is_reserved": 0, "fusion_lon": 0.0, "lat": 38.91047866666667, "is_disabled": 0, "name": "83601e7e95c076d7a847dad1c47b91d2", "fusion_lat": 0.0, "rental_uris": {"ios": "https://dc.lft.to/lastmile_qr_scan", "android": "https://dc.lft.to/lastmile_qr_scan"}, "lon": -77.01685566666667, "type": "electric_scooter"}, {"bike_id": "2803b43c0e29acd878b71427ab59d27a", "is_reserved": 0, "fusion_lon": 0.0, "lat": 38.925400833333335, "is_disabled": 0, "name": "2803b43c0e29acd878b71427ab59d27a", "fusion_lat": 0.0, "rental_uris": {"ios": "https://dc.lft.to/lastmile_qr_scan", "android": "https://dc.lft.to/lastmile_qr_scan"}, "lon": -77.0346615, "type": "electric_scooter"}, {"bike_id": "13188406bbd74fbcf7b3e9458e2365cb", "is_reserved": 0, "fusion_lon": 0.0, "lat": 38.878642, "is_disabled": 0, "name": "13188406bbd74fbcf7b3e9458e2365cb", "fusion_lat": 0.0, "rental_uris": {"ios": "https://dc.lft.to/lastmile_qr_scan", "android": "https://dc.lft.to/lastmile_qr_scan"}, "lon": -76.9898635, "type": "electric_scooter"}, {"bike_id": "a5116f7d461da8437119fb46228cf757", "is_reserved": 0, "fusion_lon": 0.0, "lat": 38.928174166666665, "is_disabled": 0, "name": "a5116f7d461da8437119fb46228cf757", "fusion_lat": 0.0, "rental_uris": {"ios": "https://dc.lft.to/lastmile_qr_scan", "android": "https://dc.lft.to/lastmile_qr_scan"}, "lon": -77.036985, "type": "electric_scooter"}, {"bike_id": "eefc73f98e8d8ae1ec46e4dc6d19454f", "is_reserved": 0, "fusion_lon": 0.0, "lat": 38.877310333333334, "is_disabled": 0, "name": "eefc73f98e8d8ae1ec46e4dc6d19454f", "fusion_lat": 0.0, "rental_uris": {"ios": "https://dc.lft.to/lastmile_qr_scan", "android": "https://dc.lft.to/lastmile_qr_scan"}, "lon": -77.11847883333333, "type": "electric_bike"}, {"bike_id": "abd709bf03f85c946d22e2d1ac816752", "is_reserved": 0, "fusion_lon": 0.0, "lat": 38.906239666666664, "is_disabled": 0, "name": "abd709bf03f85c946d22e2d1ac816752", "fusion_lat": 0.0, "rental_uris": {"ios": "https://dc.lft.to/lastmile_qr_scan", "android": "https://dc.lft.to/lastmile_qr_scan"}, "lon": -77.04123633333333, "type": "electric_scooter"}, {"bike_id": "af8ba496112101c45751ca0fb720efc4", "is_reserved": 0, "fusion_lon": 0.0, "lat": 38.902952, "is_disabled": 0, "name": "af8ba496112101c45751ca0fb720efc4", "fusion_lat": 0.0, "rental_uris": {"ios": "https://dc.lft.to/lastmile_qr_scan", "android": "https://dc.lft.to/lastmile_qr_scan"}, "lon": -77.03435083333333, "type": "electric_scooter"}, {"bike_id": "5005631cc8305b534af9d41b19a4a6a4", "is_reserved": 0, "fusion_lon": 0.0, "lat": 38.932756166666664, "is_disabled": 0, "name": "5005631cc8305b534af9d41b19a4a6a4", "fusion_lat": 0.0, "rental_uris": {"ios": "https://dc.lft.to/lastmile_qr_scan", "android": "https://dc.lft.to/lastmile_qr_scan"}, "lon": -77.03638566666666, "type": "electric_scooter"}, {"bike_id": "84f5c200ae7ed15ca22290809a4456dc", "is_reserved": 0, "fusion_lon": 0.0, "lat": 38.9125835, "is_disabled": 0, "name": "84f5c200ae7ed15ca22290809a4456dc", "fusion_lat": 0.0, "rental_uris": {"ios": "https://dc.lft.to/lastmile_qr_scan", "android": "https://dc.lft.to/lastmile_qr_scan"}, "lon": -77.036251, "type": "electric_scooter"}, {"bike_id": "556181f724e00428a273f624795c1126", "is_reserved": 0, "fusion_lon": 0.0, "lat": 38.90195516666667, "is_disabled": 0, "name": "556181f724e00428a273f624795c1126", "fusion_lat": 0.0, "rental_uris": {"ios": "https://dc.lft.to/lastmile_qr_scan", "android": "https://dc.lft.to/lastmile_qr_scan"}, "lon": -77.02177066666667, "type": "electric_scooter"}, {"bike_id": "01ed7c2f04ce496962eec7850476b5a7", "is_reserved": 0, "fusion_lon": 0.0, "lat": 38.88396766666666, "is_disabled": 0, "name": "01ed7c2f04ce496962eec7850476b5a7", "fusion_lat": 0.0, "rental_uris": {"ios": "https://dc.lft.to/lastmile_qr_scan", "android": "https://dc.lft.to/lastmile_qr_scan"}, "lon": -77.01782, "type": "electric_scooter"}, {"bike_id": "a502bbc1ba4aedd454b754723675cd4e", "is_reserved": 0, "fusion_lon": 0.0, "lat": 38.92128183333333, "is_disabled": 0, "name": "a502bbc1ba4aedd454b754723675cd4e", "fusion_lat": 0.0, "rental_uris": {"ios": "https://dc.lft.to/lastmile_qr_scan", "android": "https://dc.lft.to/lastmile_qr_scan"}, "lon": -77.04132983333334, "type": "electric_scooter"}, {"bike_id": "8e6222af0c7d7dc34f43fecf91ab8fd3", "is_reserved": 0, "fusion_lon": 0.0, "lat": 38.879228166666664, "is_disabled": 0, "name": "8e6222af0c7d7dc34f43fecf91ab8fd3", "fusion_lat": 0.0, "rental_uris": {"ios": "https://dc.lft.to/lastmile_qr_scan", "android": "https://dc.lft.to/lastmile_qr_scan"}, "lon": -77.0134485, "type": "electric_scooter"}, {"bike_id": "2cdcee12eed554784844a7e34c4dbbde", "is_reserved": 0, "fusion_lon": 0.0, "lat": 38.88495733333333, "is_disabled": 0, "name": "2cdcee12eed554784844a7e34c4dbbde", "fusion_lat": 0.0, "rental_uris": {"ios": "https://dc.lft.to/lastmile_qr_scan", "android": "https://dc.lft.to/lastmile_qr_scan"}, "lon": -77.00565816666666, "type": "electric_scooter"}, {"bike_id": "a86f13ff8087430f8430366f38c22546", "is_reserved": 0, "fusion_lon": 0.0, "lat": 38.9032485, "is_disabled": 0, "name": "a86f13ff8087430f8430366f38c22546", "fusion_lat": 0.0, "rental_uris": {"ios": "https://dc.lft.to/lastmile_qr_scan", "android": "https://dc.lft.to/lastmile_qr_scan"}, "lon": -77.03839516666666, "type": "electric_scooter"}, {"bike_id": "c915fafea695d8fbc84e57eec1c25862", "is_reserved": 0, "fusion_lon": 0.0, "lat": 38.917353166666665, "is_disabled": 0, "name": "c915fafea695d8fbc84e57eec1c25862", "fusion_lat": 0.0, "rental_uris": {"ios": "https://dc.lft.to/lastmile_qr_scan", "android": "https://dc.lft.to/lastmile_qr_scan"}, "lon": -77.00796383333333, "type": "electric_scooter"}, {"bike_id": "71ff23aa05d4a72e0f4d125cd50bee27", "is_reserved": 0, "fusion_lon": 0.0, "lat": 38.91223466666667, "is_disabled": 0, "name": "71ff23aa05d4a72e0f4d125cd50bee27", "fusion_lat": 0.0, "rental_uris": {"ios": "https://dc.lft.to/lastmile_qr_scan", "android": "https://dc.lft.to/lastmile_qr_scan"}, "lon": -77.03788683333333, "type": "electric_scooter"}, {"bike_id": "2908796627b96f64c3138451eba09709", "is_reserved": 0, "fusion_lon": 0.0, "lat": 38.90001633333333, "is_disabled": 0, "name": "2908796627b96f64c3138451eba09709", "fusion_lat": 0.0, "rental_uris": {"ios": "https://dc.lft.to/lastmile_qr_scan", "android": "https://dc.lft.to/lastmile_qr_scan"}, "lon": -77.043909, "type": "electric_scooter"}, {"bike_id": "c994dea19f6590f09c2962f3320ddaea", "is_reserved": 0, "fusion_lon": 0.0, "lat": 38.92374233333334, "is_disabled": 0, "name": "c994dea19f6590f09c2962f3320ddaea", "fusion_lat": 0.0, "rental_uris": {"ios": "https://dc.lft.to/lastmile_qr_scan", "android": "https://dc.lft.to/lastmile_qr_scan"}, "lon": -77.0517695, "type": "electric_scooter"}, {"bike_id": "9734b57d2048b8f1222330268ec9c566", "is_reserved": 0, "fusion_lon": 0.0, "lat": 38.89019016666666, "is_disabled": 0, "name": "9734b57d2048b8f1222330268ec9c566", "fusion_lat": 0.0, "rental_uris": {"ios": "https://dc.lft.to/lastmile_qr_scan", "android": "https://dc.lft.to/lastmile_qr_scan"}, "lon": -76.93736816666667, "type": "electric_scooter"}, {"bike_id": "7a18a676b798988baf399ad42210025b", "is_reserved": 0, "fusion_lon": 0.0, "lat": 38.930845166666664, "is_disabled": 0, "name": "7a18a676b798988baf399ad42210025b", "fusion_lat": 0.0, "rental_uris": {"ios": "https://dc.lft.to/lastmile_qr_scan", "android": "https://dc.lft.to/lastmile_qr_scan"}, "lon": -77.027951, "type": "electric_scooter"}, {"bike_id": "16e375a6314be33a77a418aedf58f5e2", "is_reserved": 0, "fusion_lon": 0.0, "lat": 38.900699333333336, "is_disabled": 0, "name": "16e375a6314be33a77a418aedf58f5e2", "fusion_lat": 0.0, "rental_uris": {"ios": "https://dc.lft.to/lastmile_qr_scan", "android": "https://dc.lft.to/lastmile_qr_scan"}, "lon": -77.05046383333334, "type": "electric_scooter"}, {"bike_id": "b384dbd00d20c6c57bef9cd63e67d094", "is_reserved": 0, "fusion_lon": 0.0, "lat": 38.9025465, "is_disabled": 0, "name": "b384dbd00d20c6c57bef9cd63e67d094", "fusion_lat": 0.0, "rental_uris": {"ios": "https://dc.lft.to/lastmile_qr_scan", "android": "https://dc.lft.to/lastmile_qr_scan"}, "lon": -77.039426, "type": "electric_scooter"}, {"bike_id": "e666b7af794526af5e74691a581a3d0b", "is_reserved": 0, "fusion_lon": 0.0, "lat": 38.90373733333333, "is_disabled": 0, "name": "e666b7af794526af5e74691a581a3d0b", "fusion_lat": 0.0, "rental_uris": {"ios": "https://dc.lft.to/lastmile_qr_scan", "android": "https://dc.lft.to/lastmile_qr_scan"}, "lon": -77.02968366666667, "type": "electric_scooter"}, {"bike_id": "568d98e2cedb915dc3c6bb0730d2a6a7", "is_reserved": 0, "fusion_lon": 0.0, "lat": 38.90119716666667, "is_disabled": 0, "name": "568d98e2cedb915dc3c6bb0730d2a6a7", "fusion_lat": 0.0, "rental_uris": {"ios": "https://dc.lft.to/lastmile_qr_scan", "android": "https://dc.lft.to/lastmile_qr_scan"}, "lon": -77.02784083333333, "type": "electric_scooter"}, {"bike_id": "1d98cd098f3909b15b93e4a6ea146a4f", "is_reserved": 0, "fusion_lon": 0.0, "lat": 38.91498033333333, "is_disabled": 0, "name": "1d98cd098f3909b15b93e4a6ea146a4f", "fusion_lat": 0.0, "rental_uris": {"ios": "https://dc.lft.to/lastmile_qr_scan", "android": "https://dc.lft.to/lastmile_qr_scan"}, "lon": -77.01862783333333, "type": "electric_bike"}, {"bike_id": "2f8bd3e947d63b6eb84a39cdd7cc9c00", "is_reserved": 0, "fusion_lon": 0.0, "lat": 38.83987533333333, "is_disabled": 0, "name": "2f8bd3e947d63b6eb84a39cdd7cc9c00", "fusion_lat": 0.0, "rental_uris": {"ios": "https://dc.lft.to/lastmile_qr_scan", "android": "https://dc.lft.to/lastmile_qr_scan"}, "lon": -77.005737, "type": "electric_bike"}, {"bike_id": "d9edd7d17a5207b00953a4f87824406b", "is_reserved": 0, "fusion_lon": 0.0, "lat": 38.90056166666667, "is_disabled": 0, "name": "d9edd7d17a5207b00953a4f87824406b", "fusion_lat": 0.0, "rental_uris": {"ios": "https://dc.lft.to/lastmile_qr_scan", "android": "https://dc.lft.to/lastmile_qr_scan"}, "lon": -77.05142816666667, "type": "electric_scooter"}, {"bike_id": "ff476f48dd44eecf3f55e1e7cbcafa79", "is_reserved": 0, "fusion_lon": 0.0, "lat": 38.90514, "is_disabled": 0, "name": "ff476f48dd44eecf3f55e1e7cbcafa79", "fusion_lat": 0.0, "rental_uris": {"ios": "https://dc.lft.to/lastmile_qr_scan", "android": "https://dc.lft.to/lastmile_qr_scan"}, "lon": -77.0674635, "type": "electric_scooter"}, {"bike_id": "6bc2ab5a7cd5ed1173fd8dbd1fac8a2a", "is_reserved": 0, "fusion_lon": 0.0, "lat": 38.8949845, "is_disabled": 0, "name": "6bc2ab5a7cd5ed1173fd8dbd1fac8a2a", "fusion_lat": 0.0, "rental_uris": {"ios": "https://dc.lft.to/lastmile_qr_scan", "android": "https://dc.lft.to/lastmile_qr_scan"}, "lon": -77.02276466666666, "type": "electric_scooter"}, {"bike_id": "6a7ff5a193e8cab4fa5a4366610e4043", "is_reserved": 0, "fusion_lon": 0.0, "lat": 38.9025255, "is_disabled": 0, "name": "6a7ff5a193e8cab4fa5a4366610e4043", "fusion_lat": 0.0, "rental_uris": {"ios": "https://dc.lft.to/lastmile_qr_scan", "android": "https://dc.lft.to/lastmile_qr_scan"}, "lon": -77.01756866666666, "type": "electric_scooter"}, {"bike_id": "72e4e295833399a58507387c01f7660e", "is_reserved": 0, "fusion_lon": 0.0, "lat": 38.901428833333334, "is_disabled": 0, "name": "72e4e295833399a58507387c01f7660e", "fusion_lat": 0.0, "rental_uris": {"ios": "https://dc.lft.to/lastmile_qr_scan", "android": "https://dc.lft.to/lastmile_qr_scan"}, "lon": -77.02842133333333, "type": "electric_scooter"}, {"bike_id": "b57140c1557a56257ef1f186eae41c83", "is_reserved": 0, "fusion_lon": 0.0, "lat": 38.881347833333336, "is_disabled": 0, "name": "b57140c1557a56257ef1f186eae41c83", "fusion_lat": 0.0, "rental_uris": {"ios": "https://dc.lft.to/lastmile_qr_scan", "android": "https://dc.lft.to/lastmile_qr_scan"}, "lon": -76.980941, "type": "electric_bike"}, {"bike_id": "488d578998ca659f3014259fab76ef29", "is_reserved": 0, "fusion_lon": 0.0, "lat": 38.866589, "is_disabled": 0, "name": "488d578998ca659f3014259fab76ef29", "fusion_lat": 0.0, "rental_uris": {"ios": "https://dc.lft.to/lastmile_qr_scan", "android": "https://dc.lft.to/lastmile_qr_scan"}, "lon": -76.99016366666666, "type": "electric_scooter"}, {"bike_id": "d0705a4e17b7f571b8611d42dc670213", "is_reserved": 0, "fusion_lon": 0.0, "lat": 38.89719066666667, "is_disabled": 0, "name": "d0705a4e17b7f571b8611d42dc670213", "fusion_lat": 0.0, "rental_uris": {"ios": "https://dc.lft.to/lastmile_qr_scan", "android": "https://dc.lft.to/lastmile_qr_scan"}, "lon": -77.02719983333333, "type": "electric_scooter"}, {"bike_id": "9772b199b4d6484aef0db7d664fa7564", "is_reserved": 0, "fusion_lon": 0.0, "lat": 38.902777666666665, "is_disabled": 0, "name": "9772b199b4d6484aef0db7d664fa7564", "fusion_lat": 0.0, "rental_uris": {"ios": "https://dc.lft.to/lastmile_qr_scan", "android": "https://dc.lft.to/lastmile_qr_scan"}, "lon": -77.0406555, "type": "electric_scooter"}, {"bike_id": "a87a8723d6b49a1d7311e4d8fb955615", "is_reserved": 0, "fusion_lon": 0.0, "lat": 38.938873666666666, "is_disabled": 0, "name": "a87a8723d6b49a1d7311e4d8fb955615", "fusion_lat": 0.0, "rental_uris": {"ios": "https://dc.lft.to/lastmile_qr_scan", "android": "https://dc.lft.to/lastmile_qr_scan"}, "lon": -77.02828766666667, "type": "electric_scooter"}, {"bike_id": "c5bb4dc2ad8ffd7a77534545c6a910fa", "is_reserved": 0, "fusion_lon": 0.0, "lat": 38.927538166666665, "is_disabled": 0, "name": "c5bb4dc2ad8ffd7a77534545c6a910fa", "fusion_lat": 0.0, "rental_uris": {"ios": "https://dc.lft.to/lastmile_qr_scan", "android": "https://dc.lft.to/lastmile_qr_scan"}, "lon": -77.05372366666667, "type": "electric_scooter"}, {"bike_id": "4b2d0656de7541047a38b77df45d43dd", "is_reserved": 0, "fusion_lon": 0.0, "lat": 38.939493166666665, "is_disabled": 0, "name": "4b2d0656de7541047a38b77df45d43dd", "fusion_lat": 0.0, "rental_uris": {"ios": "https://dc.lft.to/lastmile_qr_scan", "android": "https://dc.lft.to/lastmile_qr_scan"}, "lon": -77.03263816666667, "type": "electric_scooter"}, {"bike_id": "17856de45d361326909c20fe304d4835", "is_reserved": 0, "fusion_lon": 0.0, "lat": 38.86594266666667, "is_disabled": 0, "name": "17856de45d361326909c20fe304d4835", "fusion_lat": 0.0, "rental_uris": {"ios": "https://dc.lft.to/lastmile_qr_scan", "android": "https://dc.lft.to/lastmile_qr_scan"}, "lon": -76.9323505, "type": "electric_bike"}, {"bike_id": "0469d21906ecd3566d743ebd3fc86bdd", "is_reserved": 0, "fusion_lon": 0.0, "lat": 38.90054666666666, "is_disabled": 0, "name": "0469d21906ecd3566d743ebd3fc86bdd", "fusion_lat": 0.0, "rental_uris": {"ios": "https://dc.lft.to/lastmile_qr_scan", "android": "https://dc.lft.to/lastmile_qr_scan"}, "lon": -77.00758966666666, "type": "electric_scooter"}, {"bike_id": "f0d7befb40ce54867d95d1122fcd1a79", "is_reserved": 0, "fusion_lon": 0.0, "lat": 38.865612, "is_disabled": 0, "name": "f0d7befb40ce54867d95d1122fcd1a79", "fusion_lat": 0.0, "rental_uris": {"ios": "https://dc.lft.to/lastmile_qr_scan", "android": "https://dc.lft.to/lastmile_qr_scan"}, "lon": -76.98948683333333, "type": "electric_scooter"}, {"bike_id": "fbeafe57cf70804b23802ddec09cfe00", "is_reserved": 0, "fusion_lon": 0.0, "lat": 38.923416, "is_disabled": 0, "name": "fbeafe57cf70804b23802ddec09cfe00", "fusion_lat": 0.0, "rental_uris": {"ios": "https://dc.lft.to/lastmile_qr_scan", "android": "https://dc.lft.to/lastmile_qr_scan"}, "lon": -77.01910883333333, "type": "electric_scooter"}, {"bike_id": "3f68b4219ee24255853b5f35663e598a", "is_reserved": 0, "fusion_lon": 0.0, "lat": 38.852261666666664, "is_disabled": 0, "name": "3f68b4219ee24255853b5f35663e598a", "fusion_lat": 0.0, "rental_uris": {"ios": "https://dc.lft.to/lastmile_qr_scan", "android": "https://dc.lft.to/lastmile_qr_scan"}, "lon": -77.12961233333333, "type": "electric_bike"}, {"bike_id": "4bac08fdb5c5331457d9b0b4a05d6403", "is_reserved": 0, "fusion_lon": 0.0, "lat": 38.939580666666664, "is_disabled": 0, "name": "4bac08fdb5c5331457d9b0b4a05d6403", "fusion_lat": 0.0, "rental_uris": {"ios": "https://dc.lft.to/lastmile_qr_scan", "android": "https://dc.lft.to/lastmile_qr_scan"}, "lon": -77.032629, "type": "electric_scooter"}, {"bike_id": "d039e136330838106731cd0deb78d8fe", "is_reserved": 0, "fusion_lon": 0.0, "lat": 38.8922475, "is_disabled": 0, "name": "d039e136330838106731cd0deb78d8fe", "fusion_lat": 0.0, "rental_uris": {"ios": "https://dc.lft.to/lastmile_qr_scan", "android": "https://dc.lft.to/lastmile_qr_scan"}, "lon": -77.02839583333333, "type": "electric_scooter"}, {"bike_id": "b505fe04f068fdd732d9595e72ea9233", "is_reserved": 0, "fusion_lon": 0.0, "lat": 38.9042435, "is_disabled": 0, "name": "b505fe04f068fdd732d9595e72ea9233", "fusion_lat": 0.0, "rental_uris": {"ios": "https://dc.lft.to/lastmile_qr_scan", "android": "https://dc.lft.to/lastmile_qr_scan"}, "lon": -77.03448366666667, "type": "electric_scooter"}, {"bike_id": "fc3adb87bec119df0133583e6af7e0f6", "is_reserved": 0, "fusion_lon": 0.0, "lat": 38.98464533333333, "is_disabled": 0, "name": "fc3adb87bec119df0133583e6af7e0f6", "fusion_lat": 0.0, "rental_uris": {"ios": "https://dc.lft.to/lastmile_qr_scan", "android": "https://dc.lft.to/lastmile_qr_scan"}, "lon": -76.955247, "type": "electric_bike"}, {"bike_id": "d0f80349aedbd95360089878adf673cb", "is_reserved": 0, "fusion_lon": 0.0, "lat": 38.89231783333334, "is_disabled": 0, "name": "d0f80349aedbd95360089878adf673cb", "fusion_lat": 0.0, "rental_uris": {"ios": "https://dc.lft.to/lastmile_qr_scan", "android": "https://dc.lft.to/lastmile_qr_scan"}, "lon": -77.02582533333333, "type": "electric_scooter"}, {"bike_id": "2a126940fa0e1ee15971903a389266dc", "is_reserved": 0, "fusion_lon": 0.0, "lat": 38.92077, "is_disabled": 0, "name": "2a126940fa0e1ee15971903a389266dc", "fusion_lat": 0.0, "rental_uris": {"ios": "https://dc.lft.to/lastmile_qr_scan", "android": "https://dc.lft.to/lastmile_qr_scan"}, "lon": -77.02535933333333, "type": "electric_scooter"}, {"bike_id": "2ba7c5b2475ca74baffa12647b556f07", "is_reserved": 0, "fusion_lon": 0.0, "lat": 38.916566833333334, "is_disabled": 0, "name": "2ba7c5b2475ca74baffa12647b556f07", "fusion_lat": 0.0, "rental_uris": {"ios": "https://dc.lft.to/lastmile_qr_scan", "android": "https://dc.lft.to/lastmile_qr_scan"}, "lon": -77.03654383333334, "type": "electric_scooter"}, {"bike_id": "731d3a3b4da61d8be7fe4c80e6850e09", "is_reserved": 0, "fusion_lon": 0.0, "lat": 38.806938833333334, "is_disabled": 0, "name": "731d3a3b4da61d8be7fe4c80e6850e09", "fusion_lat": 0.0, "rental_uris": {"ios": "https://dc.lft.to/lastmile_qr_scan", "android": "https://dc.lft.to/lastmile_qr_scan"}, "lon": -77.05976083333333, "type": "electric_bike"}, {"bike_id": "6e1fe293788c566c9f8dce56d29c4002", "is_reserved": 0, "fusion_lon": 0.0, "lat": 38.8955985, "is_disabled": 0, "name": "6e1fe293788c566c9f8dce56d29c4002", "fusion_lat": 0.0, "rental_uris": {"ios": "https://dc.lft.to/lastmile_qr_scan", "android": "https://dc.lft.to/lastmile_qr_scan"}, "lon": -77.04672566666666, "type": "electric_scooter"}, {"bike_id": "12b39750c7cf67d286eae2ac300df540", "is_reserved": 0, "fusion_lon": 0.0, "lat": 38.934960833333335, "is_disabled": 0, "name": "12b39750c7cf67d286eae2ac300df540", "fusion_lat": 0.0, "rental_uris": {"ios": "https://dc.lft.to/lastmile_qr_scan", "android": "https://dc.lft.to/lastmile_qr_scan"}, "lon": -77.027227, "type": "electric_scooter"}, {"bike_id": "ffda8c4f3b629f7bd2361615a2b276f0", "is_reserved": 0, "fusion_lon": 0.0, "lat": 38.9397425, "is_disabled": 0, "name": "ffda8c4f3b629f7bd2361615a2b276f0", "fusion_lat": 0.0, "rental_uris": {"ios": "https://dc.lft.to/lastmile_qr_scan", "android": "https://dc.lft.to/lastmile_qr_scan"}, "lon": -77.03595666666666, "type": "electric_scooter"}, {"bike_id": "5e1b1bd5bdc334207114f6b9bc3f7a21", "is_reserved": 0, "fusion_lon": 0.0, "lat": 38.86202883333333, "is_disabled": 0, "name": "5e1b1bd5bdc334207114f6b9bc3f7a21", "fusion_lat": 0.0, "rental_uris": {"ios": "https://dc.lft.to/lastmile_qr_scan", "android": "https://dc.lft.to/lastmile_qr_scan"}, "lon": -76.99468183333333, "type": "electric_scooter"}, {"bike_id": "788e3b40445a08ab13f01c167c582086", "is_reserved": 0, "fusion_lon": 0.0, "lat": 38.877401, "is_disabled": 0, "name": "788e3b40445a08ab13f01c167c582086", "fusion_lat": 0.0, "rental_uris": {"ios": "https://dc.lft.to/lastmile_qr_scan", "android": "https://dc.lft.to/lastmile_qr_scan"}, "lon": -76.97278666666666, "type": "electric_scooter"}, {"bike_id": "f201ca7c7ae3a8cbfa5aa6c57ade4fca", "is_reserved": 0, "fusion_lon": 0.0, "lat": 38.900322833333334, "is_disabled": 0, "name": "f201ca7c7ae3a8cbfa5aa6c57ade4fca", "fusion_lat": 0.0, "rental_uris": {"ios": "https://dc.lft.to/lastmile_qr_scan", "android": "https://dc.lft.to/lastmile_qr_scan"}, "lon": -77.01160833333333, "type": "electric_scooter"}, {"bike_id": "5d666b023631f3df2b30ec78d5322a0c", "is_reserved": 0, "fusion_lon": 0.0, "lat": 38.894834, "is_disabled": 0, "name": "5d666b023631f3df2b30ec78d5322a0c", "fusion_lat": 0.0, "rental_uris": {"ios": "https://dc.lft.to/lastmile_qr_scan", "android": "https://dc.lft.to/lastmile_qr_scan"}, "lon": -77.050091, "type": "electric_scooter"}, {"bike_id": "1d77d4016d4b2ab9ad0a3218b56da3de", "is_reserved": 0, "fusion_lon": 0.0, "lat": 38.90530966666667, "is_disabled": 0, "name": "1d77d4016d4b2ab9ad0a3218b56da3de", "fusion_lat": 0.0, "rental_uris": {"ios": "https://dc.lft.to/lastmile_qr_scan", "android": "https://dc.lft.to/lastmile_qr_scan"}, "lon": -77.0499725, "type": "electric_scooter"}, {"bike_id": "1066cc90d71114136efa6c28d658e14d", "is_reserved": 0, "fusion_lon": 0.0, "lat": 38.89221383333334, "is_disabled": 0, "name": "1066cc90d71114136efa6c28d658e14d", "fusion_lat": 0.0, "rental_uris": {"ios": "https://dc.lft.to/lastmile_qr_scan", "android": "https://dc.lft.to/lastmile_qr_scan"}, "lon": -77.04362016666667, "type": "electric_scooter"}, {"bike_id": "d9ce119766b942ad4ba3e6ef0c9620da", "is_reserved": 0, "fusion_lon": 0.0, "lat": 38.896192, "is_disabled": 0, "name": "d9ce119766b942ad4ba3e6ef0c9620da", "fusion_lat": 0.0, "rental_uris": {"ios": "https://dc.lft.to/lastmile_qr_scan", "android": "https://dc.lft.to/lastmile_qr_scan"}, "lon": -77.000493, "type": "electric_bike"}, {"bike_id": "677b7a5d0a30a2298056e4111b23056e", "is_reserved": 0, "fusion_lon": 0.0, "lat": 38.91557933333333, "is_disabled": 0, "name": "677b7a5d0a30a2298056e4111b23056e", "fusion_lat": 0.0, "rental_uris": {"ios": "https://dc.lft.to/lastmile_qr_scan", "android": "https://dc.lft.to/lastmile_qr_scan"}, "lon": -77.03865516666667, "type": "electric_scooter"}, {"bike_id": "d1c7fe8ac8109d2f8a16832647971cee", "is_reserved": 0, "fusion_lon": 0.0, "lat": 38.89731866666666, "is_disabled": 0, "name": "d1c7fe8ac8109d2f8a16832647971cee", "fusion_lat": 0.0, "rental_uris": {"ios": "https://dc.lft.to/lastmile_qr_scan", "android": "https://dc.lft.to/lastmile_qr_scan"}, "lon": -77.04641783333334, "type": "electric_scooter"}, {"bike_id": "6cc0682adba3e453583d935e079ce82d", "is_reserved": 0, "fusion_lon": 0.0, "lat": 38.9237705, "is_disabled": 0, "name": "6cc0682adba3e453583d935e079ce82d", "fusion_lat": 0.0, "rental_uris": {"ios": "https://dc.lft.to/lastmile_qr_scan", "android": "https://dc.lft.to/lastmile_qr_scan"}, "lon": -77.02060616666667, "type": "electric_scooter"}, {"bike_id": "b6277188f3f2c4a56dc89facb0dd7aeb", "is_reserved": 0, "fusion_lon": 0.0, "lat": 38.92881633333333, "is_disabled": 0, "name": "b6277188f3f2c4a56dc89facb0dd7aeb", "fusion_lat": 0.0, "rental_uris": {"ios": "https://dc.lft.to/lastmile_qr_scan", "android": "https://dc.lft.to/lastmile_qr_scan"}, "lon": -77.01369916666667, "type": "electric_scooter"}, {"bike_id": "31874d3aca95490f517b5ff8be8d6148", "is_reserved": 0, "fusion_lon": 0.0, "lat": 38.86522166666666, "is_disabled": 0, "name": "31874d3aca95490f517b5ff8be8d6148", "fusion_lat": 0.0, "rental_uris": {"ios": "https://dc.lft.to/lastmile_qr_scan", "android": "https://dc.lft.to/lastmile_qr_scan"}, "lon": -76.9903045, "type": "electric_scooter"}, {"bike_id": "d5ea6e0ed0a50580a2865a9aa0a3e3a7", "is_reserved": 0, "fusion_lon": 0.0, "lat": 38.896088166666665, "is_disabled": 0, "name": "d5ea6e0ed0a50580a2865a9aa0a3e3a7", "fusion_lat": 0.0, "rental_uris": {"ios": "https://dc.lft.to/lastmile_qr_scan", "android": "https://dc.lft.to/lastmile_qr_scan"}, "lon": -77.044556, "type": "electric_scooter"}, {"bike_id": "78b71fe148a9a3aa2b27a4fb08e8b07b", "is_reserved": 0, "fusion_lon": 0.0, "lat": 38.93286533333333, "is_disabled": 0, "name": "78b71fe148a9a3aa2b27a4fb08e8b07b", "fusion_lat": 0.0, "rental_uris": {"ios": "https://dc.lft.to/lastmile_qr_scan", "android": "https://dc.lft.to/lastmile_qr_scan"}, "lon": -77.0398515, "type": "electric_scooter"}, {"bike_id": "2170e16e0487d12c23b29a4c020b66ed", "is_reserved": 0, "fusion_lon": 0.0, "lat": 38.9462985, "is_disabled": 0, "name": "2170e16e0487d12c23b29a4c020b66ed", "fusion_lat": 0.0, "rental_uris": {"ios": "https://dc.lft.to/lastmile_qr_scan", "android": "https://dc.lft.to/lastmile_qr_scan"}, "lon": -77.018443, "type": "electric_scooter"}, {"bike_id": "56c6d4f6ac2f5ea47519ae9da18f285b", "is_reserved": 0, "fusion_lon": 0.0, "lat": 38.90331483333333, "is_disabled": 0, "name": "56c6d4f6ac2f5ea47519ae9da18f285b", "fusion_lat": 0.0, "rental_uris": {"ios": "https://dc.lft.to/lastmile_qr_scan", "android": "https://dc.lft.to/lastmile_qr_scan"}, "lon": -76.97594983333333, "type": "electric_scooter"}, {"bike_id": "701f900a1f71d39c0e0f4f7752f503fa", "is_reserved": 0, "fusion_lon": 0.0, "lat": 38.89739466666666, "is_disabled": 0, "name": "701f900a1f71d39c0e0f4f7752f503fa", "fusion_lat": 0.0, "rental_uris": {"ios": "https://dc.lft.to/lastmile_qr_scan", "android": "https://dc.lft.to/lastmile_qr_scan"}, "lon": -76.93844316666667, "type": "electric_scooter"}, {"bike_id": "2996a34dfa63119862b0a18d7f8860b7", "is_reserved": 0, "fusion_lon": 0.0, "lat": 38.8666485, "is_disabled": 0, "name": "2996a34dfa63119862b0a18d7f8860b7", "fusion_lat": 0.0, "rental_uris": {"ios": "https://dc.lft.to/lastmile_qr_scan", "android": "https://dc.lft.to/lastmile_qr_scan"}, "lon": -76.98908983333334, "type": "electric_scooter"}, {"bike_id": "e01d028f621082d2cc7be7fb5bbb65b1", "is_reserved": 0, "fusion_lon": 0.0, "lat": 38.93343083333333, "is_disabled": 0, "name": "e01d028f621082d2cc7be7fb5bbb65b1", "fusion_lat": 0.0, "rental_uris": {"ios": "https://dc.lft.to/lastmile_qr_scan", "android": "https://dc.lft.to/lastmile_qr_scan"}, "lon": -77.03282283333333, "type": "electric_scooter"}, {"bike_id": "8afafb62237d0d5d83a8079e76e05eb9", "is_reserved": 0, "fusion_lon": 0.0, "lat": 38.8381305, "is_disabled": 0, "name": "8afafb62237d0d5d83a8079e76e05eb9", "fusion_lat": 0.0, "rental_uris": {"ios": "https://dc.lft.to/lastmile_qr_scan", "android": "https://dc.lft.to/lastmile_qr_scan"}, "lon": -77.09524116666667, "type": "electric_bike"}, {"bike_id": "f3eaee86f98c1bf6e2ad06f18d96504d", "is_reserved": 0, "fusion_lon": 0.0, "lat": 38.838289333333336, "is_disabled": 0, "name": "f3eaee86f98c1bf6e2ad06f18d96504d", "fusion_lat": 0.0, "rental_uris": {"ios": "https://dc.lft.to/lastmile_qr_scan", "android": "https://dc.lft.to/lastmile_qr_scan"}, "lon": -76.99684916666666, "type": "electric_bike"}, {"bike_id": "4ffa091a38651a3fc25de65bdab39f36", "is_reserved": 0, "fusion_lon": 0.0, "lat": 38.904707333333334, "is_disabled": 0, "name": "4ffa091a38651a3fc25de65bdab39f36", "fusion_lat": 0.0, "rental_uris": {"ios": "https://dc.lft.to/lastmile_qr_scan", "android": "https://dc.lft.to/lastmile_qr_scan"}, "lon": -77.02978666666667, "type": "electric_scooter"}, {"bike_id": "ccaa2c3656b01cdc671ba18fa2d374d5", "is_reserved": 0, "fusion_lon": 0.0, "lat": 38.876365166666666, "is_disabled": 0, "name": "ccaa2c3656b01cdc671ba18fa2d374d5", "fusion_lat": 0.0, "rental_uris": {"ios": "https://dc.lft.to/lastmile_qr_scan", "android": "https://dc.lft.to/lastmile_qr_scan"}, "lon": -76.9652625, "type": "electric_scooter"}, {"bike_id": "89e9bebcd21c909232b8cf8b79c514d5", "is_reserved": 0, "fusion_lon": 0.0, "lat": 38.907356166666666, "is_disabled": 0, "name": "89e9bebcd21c909232b8cf8b79c514d5", "fusion_lat": 0.0, "rental_uris": {"ios": "https://dc.lft.to/lastmile_qr_scan", "android": "https://dc.lft.to/lastmile_qr_scan"}, "lon": -77.0416235, "type": "electric_scooter"}, {"bike_id": "5fda058ee0457f7ac0174a8b1fb521ca", "is_reserved": 0, "fusion_lon": 0.0, "lat": 38.89239466666667, "is_disabled": 0, "name": "5fda058ee0457f7ac0174a8b1fb521ca", "fusion_lat": 0.0, "rental_uris": {"ios": "https://dc.lft.to/lastmile_qr_scan", "android": "https://dc.lft.to/lastmile_qr_scan"}, "lon": -77.03222033333333, "type": "electric_scooter"}, {"bike_id": "2ae12847de3464846ab66df7ee5fdc91", "is_reserved": 0, "fusion_lon": 0.0, "lat": 38.88006716666666, "is_disabled": 0, "name": "2ae12847de3464846ab66df7ee5fdc91", "fusion_lat": 0.0, "rental_uris": {"ios": "https://dc.lft.to/lastmile_qr_scan", "android": "https://dc.lft.to/lastmile_qr_scan"}, "lon": -76.915966, "type": "electric_bike"}, {"bike_id": "d4b01cd5fce1f97c29de00d90adbc220", "is_reserved": 0, "fusion_lon": 0.0, "lat": 38.902811666666665, "is_disabled": 0, "name": "d4b01cd5fce1f97c29de00d90adbc220", "fusion_lat": 0.0, "rental_uris": {"ios": "https://dc.lft.to/lastmile_qr_scan", "android": "https://dc.lft.to/lastmile_qr_scan"}, "lon": -77.03661933333333, "type": "electric_scooter"}, {"bike_id": "370f427ac4ff8777732d6a934478a5e0", "is_reserved": 0, "fusion_lon": 0.0, "lat": 38.9260285, "is_disabled": 0, "name": "370f427ac4ff8777732d6a934478a5e0", "fusion_lat": 0.0, "rental_uris": {"ios": "https://dc.lft.to/lastmile_qr_scan", "android": "https://dc.lft.to/lastmile_qr_scan"}, "lon": -77.02155133333333, "type": "electric_scooter"}, {"bike_id": "2f1bea3463c2f09367a983b163a3f77f", "is_reserved": 0, "fusion_lon": 0.0, "lat": 38.8244525, "is_disabled": 0, "name": "2f1bea3463c2f09367a983b163a3f77f", "fusion_lat": 0.0, "rental_uris": {"ios": "https://dc.lft.to/lastmile_qr_scan", "android": "https://dc.lft.to/lastmile_qr_scan"}, "lon": -77.07048133333333, "type": "electric_bike"}, {"bike_id": "ec52e6e5e12ff15f8e6c3d5f406b3247", "is_reserved": 0, "fusion_lon": 0.0, "lat": 38.904433166666664, "is_disabled": 0, "name": "ec52e6e5e12ff15f8e6c3d5f406b3247", "fusion_lat": 0.0, "rental_uris": {"ios": "https://dc.lft.to/lastmile_qr_scan", "android": "https://dc.lft.to/lastmile_qr_scan"}, "lon": -77.02944683333334, "type": "electric_scooter"}, {"bike_id": "4758368f971aa522e7a8d9ba43ebc01a", "is_reserved": 0, "fusion_lon": 0.0, "lat": 38.912724833333336, "is_disabled": 0, "name": "4758368f971aa522e7a8d9ba43ebc01a", "fusion_lat": 0.0, "rental_uris": {"ios": "https://dc.lft.to/lastmile_qr_scan", "android": "https://dc.lft.to/lastmile_qr_scan"}, "lon": -77.0454925, "type": "electric_scooter"}, {"bike_id": "3be1d88d74280278939ab1ef4720cbd8", "is_reserved": 0, "fusion_lon": 0.0, "lat": 38.93342, "is_disabled": 0, "name": "3be1d88d74280278939ab1ef4720cbd8", "fusion_lat": 0.0, "rental_uris": {"ios": "https://dc.lft.to/lastmile_qr_scan", "android": "https://dc.lft.to/lastmile_qr_scan"}, "lon": -77.042011, "type": "electric_bike"}, {"bike_id": "50d232a57205bc8e2fefdf6423a76f31", "is_reserved": 0, "fusion_lon": 0.0, "lat": 38.88382083333333, "is_disabled": 0, "name": "50d232a57205bc8e2fefdf6423a76f31", "fusion_lat": 0.0, "rental_uris": {"ios": "https://dc.lft.to/lastmile_qr_scan", "android": "https://dc.lft.to/lastmile_qr_scan"}, "lon": -76.9492455, "type": "electric_scooter"}, {"bike_id": "25d9ca262de2173112d1bab05fbd678e", "is_reserved": 0, "fusion_lon": 0.0, "lat": 38.918552166666665, "is_disabled": 0, "name": "25d9ca262de2173112d1bab05fbd678e", "fusion_lat": 0.0, "rental_uris": {"ios": "https://dc.lft.to/lastmile_qr_scan", "android": "https://dc.lft.to/lastmile_qr_scan"}, "lon": -76.96090183333334, "type": "electric_bike"}, {"bike_id": "d6ba5c3badfb45075be09b70b1b5d54f", "is_reserved": 0, "fusion_lon": 0.0, "lat": 38.928909, "is_disabled": 0, "name": "d6ba5c3badfb45075be09b70b1b5d54f", "fusion_lat": 0.0, "rental_uris": {"ios": "https://dc.lft.to/lastmile_qr_scan", "android": "https://dc.lft.to/lastmile_qr_scan"}, "lon": -77.03292266666666, "type": "electric_scooter"}, {"bike_id": "997925952ae205498ef7dbb42abf2dfe", "is_reserved": 0, "fusion_lon": 0.0, "lat": 38.92081116666667, "is_disabled": 0, "name": "997925952ae205498ef7dbb42abf2dfe", "fusion_lat": 0.0, "rental_uris": {"ios": "https://dc.lft.to/lastmile_qr_scan", "android": "https://dc.lft.to/lastmile_qr_scan"}, "lon": -77.03658783333333, "type": "electric_scooter"}, {"bike_id": "c40474767da9b919dd0e71bdab333494", "is_reserved": 0, "fusion_lon": 0.0, "lat": 38.905662, "is_disabled": 0, "name": "c40474767da9b919dd0e71bdab333494", "fusion_lat": 0.0, "rental_uris": {"ios": "https://dc.lft.to/lastmile_qr_scan", "android": "https://dc.lft.to/lastmile_qr_scan"}, "lon": -77.03470916666667, "type": "electric_scooter"}, {"bike_id": "d6ecf2068a748d5029fffa22e6cf0d68", "is_reserved": 0, "fusion_lon": 0.0, "lat": 38.908969166666665, "is_disabled": 0, "name": "d6ecf2068a748d5029fffa22e6cf0d68", "fusion_lat": 0.0, "rental_uris": {"ios": "https://dc.lft.to/lastmile_qr_scan", "android": "https://dc.lft.to/lastmile_qr_scan"}, "lon": -77.08620066666667, "type": "electric_scooter"}, {"bike_id": "95a53c75c4ddf62a96ccdc4c086b422a", "is_reserved": 0, "fusion_lon": 0.0, "lat": 38.9555085, "is_disabled": 0, "name": "95a53c75c4ddf62a96ccdc4c086b422a", "fusion_lat": 0.0, "rental_uris": {"ios": "https://dc.lft.to/lastmile_qr_scan", "android": "https://dc.lft.to/lastmile_qr_scan"}, "lon": -76.94013733333334, "type": "electric_bike"}, {"bike_id": "679d39f4cd8e77a7704b1d30f288bb71", "is_reserved": 0, "fusion_lon": 0.0, "lat": 38.941784, "is_disabled": 0, "name": "679d39f4cd8e77a7704b1d30f288bb71", "fusion_lat": 0.0, "rental_uris": {"ios": "https://dc.lft.to/lastmile_qr_scan", "android": "https://dc.lft.to/lastmile_qr_scan"}, "lon": -77.025042, "type": "electric_scooter"}, {"bike_id": "0c007af9d303c43ee691ef4fba7099be", "is_reserved": 0, "fusion_lon": 0.0, "lat": 38.876307833333335, "is_disabled": 0, "name": "0c007af9d303c43ee691ef4fba7099be", "fusion_lat": 0.0, "rental_uris": {"ios": "https://dc.lft.to/lastmile_qr_scan", "android": "https://dc.lft.to/lastmile_qr_scan"}, "lon": -76.96524433333333, "type": "electric_scooter"}, {"bike_id": "260db4bdd069a1f12dbd62c846a62c94", "is_reserved": 0, "fusion_lon": 0.0, "lat": 38.93861183333333, "is_disabled": 0, "name": "260db4bdd069a1f12dbd62c846a62c94", "fusion_lat": 0.0, "rental_uris": {"ios": "https://dc.lft.to/lastmile_qr_scan", "android": "https://dc.lft.to/lastmile_qr_scan"}, "lon": -77.033893, "type": "electric_scooter"}, {"bike_id": "38a955689ed766966d0aea090a703e74", "is_reserved": 0, "fusion_lon": 0.0, "lat": 38.90780083333333, "is_disabled": 0, "name": "38a955689ed766966d0aea090a703e74", "fusion_lat": 0.0, "rental_uris": {"ios": "https://dc.lft.to/lastmile_qr_scan", "android": "https://dc.lft.to/lastmile_qr_scan"}, "lon": -77.06926966666667, "type": "electric_scooter"}, {"bike_id": "732f6e307a169069143f3bc6317cce3f", "is_reserved": 0, "fusion_lon": 0.0, "lat": 38.90568833333333, "is_disabled": 0, "name": "732f6e307a169069143f3bc6317cce3f", "fusion_lat": 0.0, "rental_uris": {"ios": "https://dc.lft.to/lastmile_qr_scan", "android": "https://dc.lft.to/lastmile_qr_scan"}, "lon": -77.02051833333333, "type": "electric_scooter"}, {"bike_id": "69097d4be74131f8a305fb6765ac0697", "is_reserved": 0, "fusion_lon": 0.0, "lat": 38.90416733333333, "is_disabled": 0, "name": "69097d4be74131f8a305fb6765ac0697", "fusion_lat": 0.0, "rental_uris": {"ios": "https://dc.lft.to/lastmile_qr_scan", "android": "https://dc.lft.to/lastmile_qr_scan"}, "lon": -77.04357716666667, "type": "electric_scooter"}, {"bike_id": "1ed64ac6d44d1a29675524a07b5275b8", "is_reserved": 0, "fusion_lon": 0.0, "lat": 38.90454716666667, "is_disabled": 0, "name": "1ed64ac6d44d1a29675524a07b5275b8", "fusion_lat": 0.0, "rental_uris": {"ios": "https://dc.lft.to/lastmile_qr_scan", "android": "https://dc.lft.to/lastmile_qr_scan"}, "lon": -76.996271, "type": "electric_scooter"}, {"bike_id": "73d9ec7db49fc8a5e2266f2e5c291e6f", "is_reserved": 0, "fusion_lon": 0.0, "lat": 38.8784435, "is_disabled": 0, "name": "73d9ec7db49fc8a5e2266f2e5c291e6f", "fusion_lat": 0.0, "rental_uris": {"ios": "https://dc.lft.to/lastmile_qr_scan", "android": "https://dc.lft.to/lastmile_qr_scan"}, "lon": -76.99034633333333, "type": "electric_scooter"}, {"bike_id": "e4e68c48d1e892a0451e55e3a178d360", "is_reserved": 0, "fusion_lon": 0.0, "lat": 38.90296683333333, "is_disabled": 0, "name": "e4e68c48d1e892a0451e55e3a178d360", "fusion_lat": 0.0, "rental_uris": {"ios": "https://dc.lft.to/lastmile_qr_scan", "android": "https://dc.lft.to/lastmile_qr_scan"}, "lon": -76.99857566666667, "type": "electric_scooter"}, {"bike_id": "cd7751148e227f2377c390bf0ab1181e", "is_reserved": 0, "fusion_lon": 0.0, "lat": 38.929121, "is_disabled": 0, "name": "cd7751148e227f2377c390bf0ab1181e", "fusion_lat": 0.0, "rental_uris": {"ios": "https://dc.lft.to/lastmile_qr_scan", "android": "https://dc.lft.to/lastmile_qr_scan"}, "lon": -77.0323295, "type": "electric_scooter"}, {"bike_id": "0f243215f08b48df3f709c6f1c8434ee", "is_reserved": 0, "fusion_lon": 0.0, "lat": 38.892217333333335, "is_disabled": 0, "name": "0f243215f08b48df3f709c6f1c8434ee", "fusion_lat": 0.0, "rental_uris": {"ios": "https://dc.lft.to/lastmile_qr_scan", "android": "https://dc.lft.to/lastmile_qr_scan"}, "lon": -77.0450625, "type": "electric_scooter"}, {"bike_id": "4b0f4c5d55623e8d6aefa7f564ee6c14", "is_reserved": 0, "fusion_lon": 0.0, "lat": 38.92263883333333, "is_disabled": 0, "name": "4b0f4c5d55623e8d6aefa7f564ee6c14", "fusion_lat": 0.0, "rental_uris": {"ios": "https://dc.lft.to/lastmile_qr_scan", "android": "https://dc.lft.to/lastmile_qr_scan"}, "lon": -77.01826116666666, "type": "electric_scooter"}, {"bike_id": "f1ae3a63889e556417123ea5d5919d13", "is_reserved": 0, "fusion_lon": 0.0, "lat": 38.919239833333336, "is_disabled": 0, "name": "f1ae3a63889e556417123ea5d5919d13", "fusion_lat": 0.0, "rental_uris": {"ios": "https://dc.lft.to/lastmile_qr_scan", "android": "https://dc.lft.to/lastmile_qr_scan"}, "lon": -77.03183633333333, "type": "electric_scooter"}, {"bike_id": "0084ca6a280bb1c68a46c1c1611015d8", "is_reserved": 0, "fusion_lon": 0.0, "lat": 38.898245833333334, "is_disabled": 0, "name": "0084ca6a280bb1c68a46c1c1611015d8", "fusion_lat": 0.0, "rental_uris": {"ios": "https://dc.lft.to/lastmile_qr_scan", "android": "https://dc.lft.to/lastmile_qr_scan"}, "lon": -77.033321, "type": "electric_scooter"}, {"bike_id": "27f8d50d5b8953e58a4243625fefc8fb", "is_reserved": 0, "fusion_lon": 0.0, "lat": 38.84293, "is_disabled": 0, "name": "27f8d50d5b8953e58a4243625fefc8fb", "fusion_lat": 0.0, "rental_uris": {"ios": "https://dc.lft.to/lastmile_qr_scan", "android": "https://dc.lft.to/lastmile_qr_scan"}, "lon": -76.999504, "type": "electric_scooter"}, {"bike_id": "e11edd5f7a8dff6b0c5266682a523a20", "is_reserved": 0, "fusion_lon": 0.0, "lat": 38.89222083333333, "is_disabled": 0, "name": "e11edd5f7a8dff6b0c5266682a523a20", "fusion_lat": 0.0, "rental_uris": {"ios": "https://dc.lft.to/lastmile_qr_scan", "android": "https://dc.lft.to/lastmile_qr_scan"}, "lon": -77.04859733333333, "type": "electric_scooter"}, {"bike_id": "b419f61dc1a4f48da7def93f7f6963bf", "is_reserved": 0, "fusion_lon": 0.0, "lat": 38.892206, "is_disabled": 0, "name": "b419f61dc1a4f48da7def93f7f6963bf", "fusion_lat": 0.0, "rental_uris": {"ios": "https://dc.lft.to/lastmile_qr_scan", "android": "https://dc.lft.to/lastmile_qr_scan"}, "lon": -77.03978116666667, "type": "electric_scooter"}, {"bike_id": "3337862bf0568f8a0cb5882616bbdaf4", "is_reserved": 0, "fusion_lon": 0.0, "lat": 38.84426883333333, "is_disabled": 0, "name": "3337862bf0568f8a0cb5882616bbdaf4", "fusion_lat": 0.0, "rental_uris": {"ios": "https://dc.lft.to/lastmile_qr_scan", "android": "https://dc.lft.to/lastmile_qr_scan"}, "lon": -76.9977805, "type": "electric_scooter"}, {"bike_id": "b74a9680dfaf7a6edcd75ca69be003a7", "is_reserved": 0, "fusion_lon": 0.0, "lat": 38.903811833333336, "is_disabled": 0, "name": "b74a9680dfaf7a6edcd75ca69be003a7", "fusion_lat": 0.0, "rental_uris": {"ios": "https://dc.lft.to/lastmile_qr_scan", "android": "https://dc.lft.to/lastmile_qr_scan"}, "lon": -77.05316483333333, "type": "electric_scooter"}, {"bike_id": "7bd9c02acf3104e56d8e2e74460d19ae", "is_reserved": 0, "fusion_lon": 0.0, "lat": 38.854401, "is_disabled": 0, "name": "7bd9c02acf3104e56d8e2e74460d19ae", "fusion_lat": 0.0, "rental_uris": {"ios": "https://dc.lft.to/lastmile_qr_scan", "android": "https://dc.lft.to/lastmile_qr_scan"}, "lon": -76.90975733333333, "type": "electric_bike"}, {"bike_id": "9bd0578c1cd2a1caa8b12184831f48da", "is_reserved": 0, "fusion_lon": 0.0, "lat": 38.8774675, "is_disabled": 0, "name": "9bd0578c1cd2a1caa8b12184831f48da", "fusion_lat": 0.0, "rental_uris": {"ios": "https://dc.lft.to/lastmile_qr_scan", "android": "https://dc.lft.to/lastmile_qr_scan"}, "lon": -76.980587, "type": "electric_bike"}, {"bike_id": "e57ec26cc3e6760261620862cd8bf687", "is_reserved": 0, "fusion_lon": 0.0, "lat": 38.934973666666664, "is_disabled": 0, "name": "e57ec26cc3e6760261620862cd8bf687", "fusion_lat": 0.0, "rental_uris": {"ios": "https://dc.lft.to/lastmile_qr_scan", "android": "https://dc.lft.to/lastmile_qr_scan"}, "lon": -77.02847166666666, "type": "electric_scooter"}, {"bike_id": "5c13d28bcc52568d560db367b2bd4d96", "is_reserved": 0, "fusion_lon": 0.0, "lat": 38.88600733333333, "is_disabled": 0, "name": "5c13d28bcc52568d560db367b2bd4d96", "fusion_lat": 0.0, "rental_uris": {"ios": "https://dc.lft.to/lastmile_qr_scan", "android": "https://dc.lft.to/lastmile_qr_scan"}, "lon": -77.00566233333333, "type": "electric_scooter"}, {"bike_id": "ecb40c63dfe64063126bdef9f316a453", "is_reserved": 0, "fusion_lon": 0.0, "lat": 38.8104845, "is_disabled": 0, "name": "ecb40c63dfe64063126bdef9f316a453", "fusion_lat": 0.0, "rental_uris": {"ios": "https://dc.lft.to/lastmile_qr_scan", "android": "https://dc.lft.to/lastmile_qr_scan"}, "lon": -77.08503066666667, "type": "electric_bike"}, {"bike_id": "6e41a5c7aa2b3b9b45fe885459872567", "is_reserved": 0, "fusion_lon": 0.0, "lat": 38.89937283333333, "is_disabled": 0, "name": "6e41a5c7aa2b3b9b45fe885459872567", "fusion_lat": 0.0, "rental_uris": {"ios": "https://dc.lft.to/lastmile_qr_scan", "android": "https://dc.lft.to/lastmile_qr_scan"}, "lon": -77.03184533333334, "type": "electric_scooter"}, {"bike_id": "27125539089c7283887a757566e661c5", "is_reserved": 0, "fusion_lon": 0.0, "lat": 38.903303666666666, "is_disabled": 0, "name": "27125539089c7283887a757566e661c5", "fusion_lat": 0.0, "rental_uris": {"ios": "https://dc.lft.to/lastmile_qr_scan", "android": "https://dc.lft.to/lastmile_qr_scan"}, "lon": -77.03326716666666, "type": "electric_scooter"}, {"bike_id": "7a58bc0b69295f3adde276e2b316b5c5", "is_reserved": 0, "fusion_lon": 0.0, "lat": 38.93135683333333, "is_disabled": 0, "name": "7a58bc0b69295f3adde276e2b316b5c5", "fusion_lat": 0.0, "rental_uris": {"ios": "https://dc.lft.to/lastmile_qr_scan", "android": "https://dc.lft.to/lastmile_qr_scan"}, "lon": -77.032541, "type": "electric_scooter"}, {"bike_id": "b680d03bd38a14fcb58f98d2379f1683", "is_reserved": 0, "fusion_lon": 0.0, "lat": 38.900229833333334, "is_disabled": 0, "name": "b680d03bd38a14fcb58f98d2379f1683", "fusion_lat": 0.0, "rental_uris": {"ios": "https://dc.lft.to/lastmile_qr_scan", "android": "https://dc.lft.to/lastmile_qr_scan"}, "lon": -77.030142, "type": "electric_scooter"}, {"bike_id": "f2b75d0f137cff1cea20fa1b1947f3ec", "is_reserved": 0, "fusion_lon": 0.0, "lat": 38.91739316666666, "is_disabled": 0, "name": "f2b75d0f137cff1cea20fa1b1947f3ec", "fusion_lat": 0.0, "rental_uris": {"ios": "https://dc.lft.to/lastmile_qr_scan", "android": "https://dc.lft.to/lastmile_qr_scan"}, "lon": -77.0211705, "type": "electric_scooter"}, {"bike_id": "ff2100dc0ca81edc2a34cea2189b34aa", "is_reserved": 0, "fusion_lon": 0.0, "lat": 38.94179583333333, "is_disabled": 0, "name": "ff2100dc0ca81edc2a34cea2189b34aa", "fusion_lat": 0.0, "rental_uris": {"ios": "https://dc.lft.to/lastmile_qr_scan", "android": "https://dc.lft.to/lastmile_qr_scan"}, "lon": -77.02530333333333, "type": "electric_scooter"}, {"bike_id": "bcb0b7ffa2780d260cb403edbaf3b847", "is_reserved": 0, "fusion_lon": 0.0, "lat": 38.9308515, "is_disabled": 0, "name": "bcb0b7ffa2780d260cb403edbaf3b847", "fusion_lat": 0.0, "rental_uris": {"ios": "https://dc.lft.to/lastmile_qr_scan", "android": "https://dc.lft.to/lastmile_qr_scan"}, "lon": -77.02793733333333, "type": "electric_scooter"}, {"bike_id": "095be29583484f6b8855994e034b749c", "is_reserved": 0, "fusion_lon": 0.0, "lat": 38.93463, "is_disabled": 0, "name": "095be29583484f6b8855994e034b749c", "fusion_lat": 0.0, "rental_uris": {"ios": "https://dc.lft.to/lastmile_qr_scan", "android": "https://dc.lft.to/lastmile_qr_scan"}, "lon": -77.02342966666667, "type": "electric_scooter"}, {"bike_id": "a61337484207c21e9e5ce841f1969768", "is_reserved": 0, "fusion_lon": 0.0, "lat": 38.923567166666665, "is_disabled": 0, "name": "a61337484207c21e9e5ce841f1969768", "fusion_lat": 0.0, "rental_uris": {"ios": "https://dc.lft.to/lastmile_qr_scan", "android": "https://dc.lft.to/lastmile_qr_scan"}, "lon": -77.05239716666667, "type": "electric_scooter"}, {"bike_id": "96502464c549868af212019ee9f033e1", "is_reserved": 0, "fusion_lon": 0.0, "lat": 38.894754166666665, "is_disabled": 0, "name": "96502464c549868af212019ee9f033e1", "fusion_lat": 0.0, "rental_uris": {"ios": "https://dc.lft.to/lastmile_qr_scan", "android": "https://dc.lft.to/lastmile_qr_scan"}, "lon": -76.995385, "type": "electric_scooter"}, {"bike_id": "01d3fe8a9e2d1484f675a43962682e5b", "is_reserved": 0, "fusion_lon": 0.0, "lat": 38.88398883333333, "is_disabled": 0, "name": "01d3fe8a9e2d1484f675a43962682e5b", "fusion_lat": 0.0, "rental_uris": {"ios": "https://dc.lft.to/lastmile_qr_scan", "android": "https://dc.lft.to/lastmile_qr_scan"}, "lon": -77.0177275, "type": "electric_scooter"}, {"bike_id": "5eee834997958a3a7f650423af172882", "is_reserved": 0, "fusion_lon": 0.0, "lat": 38.862866333333336, "is_disabled": 0, "name": "5eee834997958a3a7f650423af172882", "fusion_lat": 0.0, "rental_uris": {"ios": "https://dc.lft.to/lastmile_qr_scan", "android": "https://dc.lft.to/lastmile_qr_scan"}, "lon": -76.99239516666667, "type": "electric_scooter"}, {"bike_id": "099f58d29235d3a3f08fa7b8ea1fca56", "is_reserved": 0, "fusion_lon": 0.0, "lat": 38.90521783333333, "is_disabled": 0, "name": "099f58d29235d3a3f08fa7b8ea1fca56", "fusion_lat": 0.0, "rental_uris": {"ios": "https://dc.lft.to/lastmile_qr_scan", "android": "https://dc.lft.to/lastmile_qr_scan"}, "lon": -77.0653355, "type": "electric_scooter"}, {"bike_id": "da789c658f5c0268f6fedcc34bbc927e", "is_reserved": 0, "fusion_lon": 0.0, "lat": 38.904984166666665, "is_disabled": 0, "name": "da789c658f5c0268f6fedcc34bbc927e", "fusion_lat": 0.0, "rental_uris": {"ios": "https://dc.lft.to/lastmile_qr_scan", "android": "https://dc.lft.to/lastmile_qr_scan"}, "lon": -77.0465735, "type": "electric_scooter"}, {"bike_id": "72421125dc258ed5f782e782342c4344", "is_reserved": 0, "fusion_lon": 0.0, "lat": 38.897934166666666, "is_disabled": 0, "name": "72421125dc258ed5f782e782342c4344", "fusion_lat": 0.0, "rental_uris": {"ios": "https://dc.lft.to/lastmile_qr_scan", "android": "https://dc.lft.to/lastmile_qr_scan"}, "lon": -77.031836, "type": "electric_scooter"}, {"bike_id": "c8cd383cf4acb949d6be2c286f4e48ca", "is_reserved": 0, "fusion_lon": 0.0, "lat": 38.90339, "is_disabled": 0, "name": "c8cd383cf4acb949d6be2c286f4e48ca", "fusion_lat": 0.0, "rental_uris": {"ios": "https://dc.lft.to/lastmile_qr_scan", "android": "https://dc.lft.to/lastmile_qr_scan"}, "lon": -77.03454216666667, "type": "electric_scooter"}, {"bike_id": "a6a327952863de1312c6407a78f852e6", "is_reserved": 0, "fusion_lon": 0.0, "lat": 38.90260033333333, "is_disabled": 0, "name": "a6a327952863de1312c6407a78f852e6", "fusion_lat": 0.0, "rental_uris": {"ios": "https://dc.lft.to/lastmile_qr_scan", "android": "https://dc.lft.to/lastmile_qr_scan"}, "lon": -77.03424316666667, "type": "electric_scooter"}, {"bike_id": "5a7ca082068d11b670289a500c883f35", "is_reserved": 0, "fusion_lon": 0.0, "lat": 38.90777933333333, "is_disabled": 0, "name": "5a7ca082068d11b670289a500c883f35", "fusion_lat": 0.0, "rental_uris": {"ios": "https://dc.lft.to/lastmile_qr_scan", "android": "https://dc.lft.to/lastmile_qr_scan"}, "lon": -77.00245866666667, "type": "electric_scooter"}, {"bike_id": "3f177ab14cf136f28044112b8431456f", "is_reserved": 0, "fusion_lon": 0.0, "lat": 38.89196, "is_disabled": 0, "name": "3f177ab14cf136f28044112b8431456f", "fusion_lat": 0.0, "rental_uris": {"ios": "https://dc.lft.to/lastmile_qr_scan", "android": "https://dc.lft.to/lastmile_qr_scan"}, "lon": -77.02216583333333, "type": "electric_scooter"}, {"bike_id": "e05a357a345b5e2191bb1ca9fc634e83", "is_reserved": 0, "fusion_lon": 0.0, "lat": 38.92034983333333, "is_disabled": 0, "name": "e05a357a345b5e2191bb1ca9fc634e83", "fusion_lat": 0.0, "rental_uris": {"ios": "https://dc.lft.to/lastmile_qr_scan", "android": "https://dc.lft.to/lastmile_qr_scan"}, "lon": -76.99942416666667, "type": "electric_scooter"}, {"bike_id": "a17c22e0db9f8d5d1571209ace4b0646", "is_reserved": 0, "fusion_lon": 0.0, "lat": 38.882212333333335, "is_disabled": 0, "name": "a17c22e0db9f8d5d1571209ace4b0646", "fusion_lat": 0.0, "rental_uris": {"ios": "https://dc.lft.to/lastmile_qr_scan", "android": "https://dc.lft.to/lastmile_qr_scan"}, "lon": -76.94176266666666, "type": "electric_scooter"}, {"bike_id": "316dc5a59498e706d553368b545b2986", "is_reserved": 0, "fusion_lon": 0.0, "lat": 38.9027535, "is_disabled": 0, "name": "316dc5a59498e706d553368b545b2986", "fusion_lat": 0.0, "rental_uris": {"ios": "https://dc.lft.to/lastmile_qr_scan", "android": "https://dc.lft.to/lastmile_qr_scan"}, "lon": -77.03676583333333, "type": "electric_scooter"}, {"bike_id": "29d0d99088694bef966888912e98a473", "is_reserved": 0, "fusion_lon": 0.0, "lat": 38.915866, "is_disabled": 0, "name": "29d0d99088694bef966888912e98a473", "fusion_lat": 0.0, "rental_uris": {"ios": "https://dc.lft.to/lastmile_qr_scan", "android": "https://dc.lft.to/lastmile_qr_scan"}, "lon": -77.046855, "type": "electric_scooter"}, {"bike_id": "540ab8e9ccbe61950ebb0ba679862842", "is_reserved": 0, "fusion_lon": 0.0, "lat": 38.9276575, "is_disabled": 0, "name": "540ab8e9ccbe61950ebb0ba679862842", "fusion_lat": 0.0, "rental_uris": {"ios": "https://dc.lft.to/lastmile_qr_scan", "android": "https://dc.lft.to/lastmile_qr_scan"}, "lon": -77.03241983333334, "type": "electric_scooter"}, {"bike_id": "e20bf20c24f58da244d6c808a9c85063", "is_reserved": 0, "fusion_lon": 0.0, "lat": 38.923181, "is_disabled": 0, "name": "e20bf20c24f58da244d6c808a9c85063", "fusion_lat": 0.0, "rental_uris": {"ios": "https://dc.lft.to/lastmile_qr_scan", "android": "https://dc.lft.to/lastmile_qr_scan"}, "lon": -77.03666716666666, "type": "electric_scooter"}, {"bike_id": "89dd38aff316e7c6f1a6280bf5fd9651", "is_reserved": 0, "fusion_lon": 0.0, "lat": 38.90370983333333, "is_disabled": 0, "name": "89dd38aff316e7c6f1a6280bf5fd9651", "fusion_lat": 0.0, "rental_uris": {"ios": "https://dc.lft.to/lastmile_qr_scan", "android": "https://dc.lft.to/lastmile_qr_scan"}, "lon": -77.04508866666667, "type": "electric_scooter"}, {"bike_id": "5fda55abdb4f281c9f715cc94fb3fe7b", "is_reserved": 0, "fusion_lon": 0.0, "lat": 38.899548833333334, "is_disabled": 0, "name": "5fda55abdb4f281c9f715cc94fb3fe7b", "fusion_lat": 0.0, "rental_uris": {"ios": "https://dc.lft.to/lastmile_qr_scan", "android": "https://dc.lft.to/lastmile_qr_scan"}, "lon": -77.02361316666666, "type": "electric_scooter"}, {"bike_id": "2ec1ef6df850e0938efa25889dcb6700", "is_reserved": 0, "fusion_lon": 0.0, "lat": 38.878856666666664, "is_disabled": 0, "name": "2ec1ef6df850e0938efa25889dcb6700", "fusion_lat": 0.0, "rental_uris": {"ios": "https://dc.lft.to/lastmile_qr_scan", "android": "https://dc.lft.to/lastmile_qr_scan"}, "lon": -76.99161583333333, "type": "electric_scooter"}, {"bike_id": "14785ba213affc6202aab4a85614104d", "is_reserved": 0, "fusion_lon": 0.0, "lat": 38.9012505, "is_disabled": 0, "name": "14785ba213affc6202aab4a85614104d", "fusion_lat": 0.0, "rental_uris": {"ios": "https://dc.lft.to/lastmile_qr_scan", "android": "https://dc.lft.to/lastmile_qr_scan"}, "lon": -77.046594, "type": "electric_scooter"}, {"bike_id": "712163fbd80c5b9c25226500bb554603", "is_reserved": 0, "fusion_lon": 0.0, "lat": 38.90731483333333, "is_disabled": 0, "name": "712163fbd80c5b9c25226500bb554603", "fusion_lat": 0.0, "rental_uris": {"ios": "https://dc.lft.to/lastmile_qr_scan", "android": "https://dc.lft.to/lastmile_qr_scan"}, "lon": -77.032163, "type": "electric_scooter"}, {"bike_id": "e7cba9055f28a7291ec4d00f71bbc5b3", "is_reserved": 0, "fusion_lon": 0.0, "lat": 38.844255833333335, "is_disabled": 0, "name": "e7cba9055f28a7291ec4d00f71bbc5b3", "fusion_lat": 0.0, "rental_uris": {"ios": "https://dc.lft.to/lastmile_qr_scan", "android": "https://dc.lft.to/lastmile_qr_scan"}, "lon": -76.99780633333333, "type": "electric_scooter"}, {"bike_id": "b62ceb50895dd07a7dbaf24c6e277309", "is_reserved": 0, "fusion_lon": 0.0, "lat": 38.900920166666666, "is_disabled": 0, "name": "b62ceb50895dd07a7dbaf24c6e277309", "fusion_lat": 0.0, "rental_uris": {"ios": "https://dc.lft.to/lastmile_qr_scan", "android": "https://dc.lft.to/lastmile_qr_scan"}, "lon": -77.02142716666667, "type": "electric_scooter"}, {"bike_id": "1a98834a005e510dedef2bd887fd8de0", "is_reserved": 0, "fusion_lon": 0.0, "lat": 38.89264583333333, "is_disabled": 0, "name": "1a98834a005e510dedef2bd887fd8de0", "fusion_lat": 0.0, "rental_uris": {"ios": "https://dc.lft.to/lastmile_qr_scan", "android": "https://dc.lft.to/lastmile_qr_scan"}, "lon": -77.02209433333333, "type": "electric_bike"}, {"bike_id": "1f7c537068fb4842bce2fc93645118a2", "is_reserved": 0, "fusion_lon": 0.0, "lat": 38.912698666666664, "is_disabled": 0, "name": "1f7c537068fb4842bce2fc93645118a2", "fusion_lat": 0.0, "rental_uris": {"ios": "https://dc.lft.to/lastmile_qr_scan", "android": "https://dc.lft.to/lastmile_qr_scan"}, "lon": -77.02692933333333, "type": "electric_scooter"}, {"bike_id": "b6f3a8837b3df7faa996b7ebe3b68e0e", "is_reserved": 0, "fusion_lon": 0.0, "lat": 38.914049, "is_disabled": 0, "name": "b6f3a8837b3df7faa996b7ebe3b68e0e", "fusion_lat": 0.0, "rental_uris": {"ios": "https://dc.lft.to/lastmile_qr_scan", "android": "https://dc.lft.to/lastmile_qr_scan"}, "lon": -77.03258983333333, "type": "electric_scooter"}, {"bike_id": "41c1d3a9cf05e14cc261746e094b647c", "is_reserved": 0, "fusion_lon": 0.0, "lat": 38.91275683333333, "is_disabled": 0, "name": "41c1d3a9cf05e14cc261746e094b647c", "fusion_lat": 0.0, "rental_uris": {"ios": "https://dc.lft.to/lastmile_qr_scan", "android": "https://dc.lft.to/lastmile_qr_scan"}, "lon": -77.0135155, "type": "electric_scooter"}, {"bike_id": "f48c6c9397b1485260b918c81a793fe7", "is_reserved": 0, "fusion_lon": 0.0, "lat": 38.902369, "is_disabled": 0, "name": "f48c6c9397b1485260b918c81a793fe7", "fusion_lat": 0.0, "rental_uris": {"ios": "https://dc.lft.to/lastmile_qr_scan", "android": "https://dc.lft.to/lastmile_qr_scan"}, "lon": -77.0270395, "type": "electric_scooter"}, {"bike_id": "b7acd69d271ef938801491632044b350", "is_reserved": 0, "fusion_lon": 0.0, "lat": 38.9193565, "is_disabled": 0, "name": "b7acd69d271ef938801491632044b350", "fusion_lat": 0.0, "rental_uris": {"ios": "https://dc.lft.to/lastmile_qr_scan", "android": "https://dc.lft.to/lastmile_qr_scan"}, "lon": -77.04496266666666, "type": "electric_scooter"}, {"bike_id": "b76fde032f01b699047ee4633431c153", "is_reserved": 0, "fusion_lon": 0.0, "lat": 38.89984166666667, "is_disabled": 0, "name": "b76fde032f01b699047ee4633431c153", "fusion_lat": 0.0, "rental_uris": {"ios": "https://dc.lft.to/lastmile_qr_scan", "android": "https://dc.lft.to/lastmile_qr_scan"}, "lon": -77.04036366666666, "type": "electric_scooter"}, {"bike_id": "92284e2d1645b2afa7f530c2f7d0ab37", "is_reserved": 0, "fusion_lon": 0.0, "lat": 38.90617966666667, "is_disabled": 0, "name": "92284e2d1645b2afa7f530c2f7d0ab37", "fusion_lat": 0.0, "rental_uris": {"ios": "https://dc.lft.to/lastmile_qr_scan", "android": "https://dc.lft.to/lastmile_qr_scan"}, "lon": -77.04134816666667, "type": "electric_scooter"}, {"bike_id": "c356cdeac5e9743466cb37d04ce06de2", "is_reserved": 0, "fusion_lon": 0.0, "lat": 38.8876855, "is_disabled": 0, "name": "c356cdeac5e9743466cb37d04ce06de2", "fusion_lat": 0.0, "rental_uris": {"ios": "https://dc.lft.to/lastmile_qr_scan", "android": "https://dc.lft.to/lastmile_qr_scan"}, "lon": -77.02229666666666, "type": "electric_scooter"}, {"bike_id": "f2747fe93a59b8ce06bfd3a5a54a6a63", "is_reserved": 0, "fusion_lon": 0.0, "lat": 38.921515166666666, "is_disabled": 0, "name": "f2747fe93a59b8ce06bfd3a5a54a6a63", "fusion_lat": 0.0, "rental_uris": {"ios": "https://dc.lft.to/lastmile_qr_scan", "android": "https://dc.lft.to/lastmile_qr_scan"}, "lon": -77.035305, "type": "electric_scooter"}, {"bike_id": "867d8fde2ddfc12e6f58d007d1a68d89", "is_reserved": 0, "fusion_lon": 0.0, "lat": 39.09463266666667, "is_disabled": 0, "name": "867d8fde2ddfc12e6f58d007d1a68d89", "fusion_lat": 0.0, "rental_uris": {"ios": "https://dc.lft.to/lastmile_qr_scan", "android": "https://dc.lft.to/lastmile_qr_scan"}, "lon": -77.14994616666667, "type": "electric_bike"}, {"bike_id": "1dabcb2fde9ee629b42ce8b91f9c6585", "is_reserved": 0, "fusion_lon": 0.0, "lat": 38.89985583333333, "is_disabled": 0, "name": "1dabcb2fde9ee629b42ce8b91f9c6585", "fusion_lat": 0.0, "rental_uris": {"ios": "https://dc.lft.to/lastmile_qr_scan", "android": "https://dc.lft.to/lastmile_qr_scan"}, "lon": -76.9978315, "type": "electric_scooter"}, {"bike_id": "b908aeee6608f4717b2ee0b6b2afae9c", "is_reserved": 0, "fusion_lon": 0.0, "lat": 38.82787866666666, "is_disabled": 0, "name": "b908aeee6608f4717b2ee0b6b2afae9c", "fusion_lat": 0.0, "rental_uris": {"ios": "https://dc.lft.to/lastmile_qr_scan", "android": "https://dc.lft.to/lastmile_qr_scan"}, "lon": -77.0090515, "type": "electric_bike"}, {"bike_id": "1c6f5b540e1aac9cff164a09b30b17a1", "is_reserved": 0, "fusion_lon": 0.0, "lat": 38.898445833333334, "is_disabled": 0, "name": "1c6f5b540e1aac9cff164a09b30b17a1", "fusion_lat": 0.0, "rental_uris": {"ios": "https://dc.lft.to/lastmile_qr_scan", "android": "https://dc.lft.to/lastmile_qr_scan"}, "lon": -76.94476133333333, "type": "electric_scooter"}, {"bike_id": "78f1c53a37e0a833809e38c096cda24b", "is_reserved": 0, "fusion_lon": 0.0, "lat": 38.903491333333335, "is_disabled": 0, "name": "78f1c53a37e0a833809e38c096cda24b", "fusion_lat": 0.0, "rental_uris": {"ios": "https://dc.lft.to/lastmile_qr_scan", "android": "https://dc.lft.to/lastmile_qr_scan"}, "lon": -77.04522166666666, "type": "electric_scooter"}, {"bike_id": "81806329e5d5241bdf13a8ae02c0b6f8", "is_reserved": 0, "fusion_lon": 0.0, "lat": 38.901802333333336, "is_disabled": 0, "name": "81806329e5d5241bdf13a8ae02c0b6f8", "fusion_lat": 0.0, "rental_uris": {"ios": "https://dc.lft.to/lastmile_qr_scan", "android": "https://dc.lft.to/lastmile_qr_scan"}, "lon": -77.02284933333334, "type": "electric_scooter"}, {"bike_id": "3ddf675c5c53e7899a5398d80019be39", "is_reserved": 0, "fusion_lon": 0.0, "lat": 38.862866833333335, "is_disabled": 0, "name": "3ddf675c5c53e7899a5398d80019be39", "fusion_lat": 0.0, "rental_uris": {"ios": "https://dc.lft.to/lastmile_qr_scan", "android": "https://dc.lft.to/lastmile_qr_scan"}, "lon": -76.99233983333333, "type": "electric_scooter"}, {"bike_id": "860700deb993b3ddeca84a9a0777eca7", "is_reserved": 0, "fusion_lon": 0.0, "lat": 38.872601, "is_disabled": 0, "name": "860700deb993b3ddeca84a9a0777eca7", "fusion_lat": 0.0, "rental_uris": {"ios": "https://dc.lft.to/lastmile_qr_scan", "android": "https://dc.lft.to/lastmile_qr_scan"}, "lon": -76.979091, "type": "electric_bike"}, {"bike_id": "6fe361d68ed086c440619f52b8e0ae6e", "is_reserved": 0, "fusion_lon": 0.0, "lat": 38.89197583333333, "is_disabled": 0, "name": "6fe361d68ed086c440619f52b8e0ae6e", "fusion_lat": 0.0, "rental_uris": {"ios": "https://dc.lft.to/lastmile_qr_scan", "android": "https://dc.lft.to/lastmile_qr_scan"}, "lon": -77.0238175, "type": "electric_scooter"}, {"bike_id": "29288623177605558e48e4134a11b1a4", "is_reserved": 0, "fusion_lon": 0.0, "lat": 38.91030666666666, "is_disabled": 0, "name": "29288623177605558e48e4134a11b1a4", "fusion_lat": 0.0, "rental_uris": {"ios": "https://dc.lft.to/lastmile_qr_scan", "android": "https://dc.lft.to/lastmile_qr_scan"}, "lon": -77.04297283333334, "type": "electric_scooter"}, {"bike_id": "cec2e5e6cbb19480021d29f6463ffa2a", "is_reserved": 0, "fusion_lon": 0.0, "lat": 38.8845275, "is_disabled": 0, "name": "cec2e5e6cbb19480021d29f6463ffa2a", "fusion_lat": 0.0, "rental_uris": {"ios": "https://dc.lft.to/lastmile_qr_scan", "android": "https://dc.lft.to/lastmile_qr_scan"}, "lon": -77.005817, "type": "electric_scooter"}, {"bike_id": "50dbb3615ecba42c3d8fee8db63bf88e", "is_reserved": 0, "fusion_lon": 0.0, "lat": 38.87147266666667, "is_disabled": 0, "name": "50dbb3615ecba42c3d8fee8db63bf88e", "fusion_lat": 0.0, "rental_uris": {"ios": "https://dc.lft.to/lastmile_qr_scan", "android": "https://dc.lft.to/lastmile_qr_scan"}, "lon": -76.93667716666667, "type": "electric_bike"}, {"bike_id": "9d6ed146ee04b33a25414422f67edee5", "is_reserved": 0, "fusion_lon": 0.0, "lat": 38.893591666666666, "is_disabled": 0, "name": "9d6ed146ee04b33a25414422f67edee5", "fusion_lat": 0.0, "rental_uris": {"ios": "https://dc.lft.to/lastmile_qr_scan", "android": "https://dc.lft.to/lastmile_qr_scan"}, "lon": -77.0033555, "type": "electric_scooter"}, {"bike_id": "4a60e613d015fbdd8cc1523887b4c503", "is_reserved": 0, "fusion_lon": 0.0, "lat": 38.942714333333335, "is_disabled": 0, "name": "4a60e613d015fbdd8cc1523887b4c503", "fusion_lat": 0.0, "rental_uris": {"ios": "https://dc.lft.to/lastmile_qr_scan", "android": "https://dc.lft.to/lastmile_qr_scan"}, "lon": -76.98076216666666, "type": "electric_bike"}, {"bike_id": "51626863d3241855867cd34ab2ebb065", "is_reserved": 0, "fusion_lon": 0.0, "lat": 38.89400233333333, "is_disabled": 0, "name": "51626863d3241855867cd34ab2ebb065", "fusion_lat": 0.0, "rental_uris": {"ios": "https://dc.lft.to/lastmile_qr_scan", "android": "https://dc.lft.to/lastmile_qr_scan"}, "lon": -76.99365966666667, "type": "electric_scooter"}, {"bike_id": "eb341b446f2b056ca04c8b82294072b4", "is_reserved": 0, "fusion_lon": 0.0, "lat": 38.906393333333334, "is_disabled": 0, "name": "eb341b446f2b056ca04c8b82294072b4", "fusion_lat": 0.0, "rental_uris": {"ios": "https://dc.lft.to/lastmile_qr_scan", "android": "https://dc.lft.to/lastmile_qr_scan"}, "lon": -77.0059725, "type": "electric_scooter"}, {"bike_id": "febc8ac8046132be1cc4b0ece566bae2", "is_reserved": 0, "fusion_lon": 0.0, "lat": 38.92752983333333, "is_disabled": 0, "name": "febc8ac8046132be1cc4b0ece566bae2", "fusion_lat": 0.0, "rental_uris": {"ios": "https://dc.lft.to/lastmile_qr_scan", "android": "https://dc.lft.to/lastmile_qr_scan"}, "lon": -77.02420766666667, "type": "electric_scooter"}, {"bike_id": "f0d1a5d094bcd3d2aabdaef565aafc9b", "is_reserved": 0, "fusion_lon": 0.0, "lat": 38.876506166666665, "is_disabled": 0, "name": "f0d1a5d094bcd3d2aabdaef565aafc9b", "fusion_lat": 0.0, "rental_uris": {"ios": "https://dc.lft.to/lastmile_qr_scan", "android": "https://dc.lft.to/lastmile_qr_scan"}, "lon": -77.0006185, "type": "electric_scooter"}, {"bike_id": "f591adce8ea85e25c31324aef4c5c304", "is_reserved": 0, "fusion_lon": 0.0, "lat": 38.901252666666664, "is_disabled": 0, "name": "f591adce8ea85e25c31324aef4c5c304", "fusion_lat": 0.0, "rental_uris": {"ios": "https://dc.lft.to/lastmile_qr_scan", "android": "https://dc.lft.to/lastmile_qr_scan"}, "lon": -77.0417595, "type": "electric_bike"}, {"bike_id": "d7f37d80acb26bb59152680ca6fcf440", "is_reserved": 0, "fusion_lon": 0.0, "lat": 38.917204166666664, "is_disabled": 0, "name": "d7f37d80acb26bb59152680ca6fcf440", "fusion_lat": 0.0, "rental_uris": {"ios": "https://dc.lft.to/lastmile_qr_scan", "android": "https://dc.lft.to/lastmile_qr_scan"}, "lon": -77.02976983333333, "type": "electric_scooter"}, {"bike_id": "9da6fd7d3437c6c02aed986dfaf47a1d", "is_reserved": 0, "fusion_lon": 0.0, "lat": 38.91355183333334, "is_disabled": 0, "name": "9da6fd7d3437c6c02aed986dfaf47a1d", "fusion_lat": 0.0, "rental_uris": {"ios": "https://dc.lft.to/lastmile_qr_scan", "android": "https://dc.lft.to/lastmile_qr_scan"}, "lon": -77.01754583333333, "type": "electric_scooter"}, {"bike_id": "2b8ad8082e3a4abc57a888082bc0b5cc", "is_reserved": 0, "fusion_lon": 0.0, "lat": 38.896148333333336, "is_disabled": 0, "name": "2b8ad8082e3a4abc57a888082bc0b5cc", "fusion_lat": 0.0, "rental_uris": {"ios": "https://dc.lft.to/lastmile_qr_scan", "android": "https://dc.lft.to/lastmile_qr_scan"}, "lon": -77.04462016666666, "type": "electric_scooter"}, {"bike_id": "a7e2d00e8cf58f01e74fbaaba0958f7a", "is_reserved": 0, "fusion_lon": 0.0, "lat": 38.9345335, "is_disabled": 0, "name": "a7e2d00e8cf58f01e74fbaaba0958f7a", "fusion_lat": 0.0, "rental_uris": {"ios": "https://dc.lft.to/lastmile_qr_scan", "android": "https://dc.lft.to/lastmile_qr_scan"}, "lon": -77.07232316666666, "type": "electric_scooter"}, {"bike_id": "955f165fd93d3dff398e5d1ceee03a3b", "is_reserved": 0, "fusion_lon": 0.0, "lat": 38.891980833333335, "is_disabled": 0, "name": "955f165fd93d3dff398e5d1ceee03a3b", "fusion_lat": 0.0, "rental_uris": {"ios": "https://dc.lft.to/lastmile_qr_scan", "android": "https://dc.lft.to/lastmile_qr_scan"}, "lon": -77.02834233333333, "type": "electric_scooter"}, {"bike_id": "576380173e8adf62e50e6fee5d4b4f3d", "is_reserved": 0, "fusion_lon": 0.0, "lat": 38.905593, "is_disabled": 0, "name": "576380173e8adf62e50e6fee5d4b4f3d", "fusion_lat": 0.0, "rental_uris": {"ios": "https://dc.lft.to/lastmile_qr_scan", "android": "https://dc.lft.to/lastmile_qr_scan"}, "lon": -77.03824583333333, "type": "electric_scooter"}, {"bike_id": "e5b54aefae700397172090ae3e81d69b", "is_reserved": 0, "fusion_lon": 0.0, "lat": 38.9661825, "is_disabled": 0, "name": "e5b54aefae700397172090ae3e81d69b", "fusion_lat": 0.0, "rental_uris": {"ios": "https://dc.lft.to/lastmile_qr_scan", "android": "https://dc.lft.to/lastmile_qr_scan"}, "lon": -76.94424533333333, "type": "electric_bike"}, {"bike_id": "766138e540ad7935e77a29868030d68d", "is_reserved": 0, "fusion_lon": 0.0, "lat": 38.91838716666667, "is_disabled": 0, "name": "766138e540ad7935e77a29868030d68d", "fusion_lat": 0.0, "rental_uris": {"ios": "https://dc.lft.to/lastmile_qr_scan", "android": "https://dc.lft.to/lastmile_qr_scan"}, "lon": -77.03516466666666, "type": "electric_scooter"}, {"bike_id": "ba0370241c0b4a86fe49a1ea8f6b0867", "is_reserved": 0, "fusion_lon": 0.0, "lat": 38.8832055, "is_disabled": 0, "name": "ba0370241c0b4a86fe49a1ea8f6b0867", "fusion_lat": 0.0, "rental_uris": {"ios": "https://dc.lft.to/lastmile_qr_scan", "android": "https://dc.lft.to/lastmile_qr_scan"}, "lon": -77.0094075, "type": "electric_scooter"}, {"bike_id": "19af3f5937e6cd3768ef552a508f11ab", "is_reserved": 0, "fusion_lon": 0.0, "lat": 38.905264333333335, "is_disabled": 0, "name": "19af3f5937e6cd3768ef552a508f11ab", "fusion_lat": 0.0, "rental_uris": {"ios": "https://dc.lft.to/lastmile_qr_scan", "android": "https://dc.lft.to/lastmile_qr_scan"}, "lon": -77.05973183333333, "type": "electric_scooter"}, {"bike_id": "a9455cabb0f3b83ed6e82563612d84f8", "is_reserved": 0, "fusion_lon": 0.0, "lat": 38.89217266666667, "is_disabled": 0, "name": "a9455cabb0f3b83ed6e82563612d84f8", "fusion_lat": 0.0, "rental_uris": {"ios": "https://dc.lft.to/lastmile_qr_scan", "android": "https://dc.lft.to/lastmile_qr_scan"}, "lon": -77.02623266666667, "type": "electric_scooter"}, {"bike_id": "32958985ee27e53da89411dcd107f772", "is_reserved": 0, "fusion_lon": 0.0, "lat": 38.89254366666667, "is_disabled": 0, "name": "32958985ee27e53da89411dcd107f772", "fusion_lat": 0.0, "rental_uris": {"ios": "https://dc.lft.to/lastmile_qr_scan", "android": "https://dc.lft.to/lastmile_qr_scan"}, "lon": -76.94337033333333, "type": "electric_scooter"}, {"bike_id": "ab75bf610ad6dbe929802402d3fbd7a5", "is_reserved": 0, "fusion_lon": 0.0, "lat": 38.95356366666667, "is_disabled": 0, "name": "ab75bf610ad6dbe929802402d3fbd7a5", "fusion_lat": 0.0, "rental_uris": {"ios": "https://dc.lft.to/lastmile_qr_scan", "android": "https://dc.lft.to/lastmile_qr_scan"}, "lon": -76.98092683333333, "type": "electric_bike"}, {"bike_id": "3db64d47e6f110a0ae48d85bb2a693b5", "is_reserved": 0, "fusion_lon": 0.0, "lat": 38.92273516666667, "is_disabled": 0, "name": "3db64d47e6f110a0ae48d85bb2a693b5", "fusion_lat": 0.0, "rental_uris": {"ios": "https://dc.lft.to/lastmile_qr_scan", "android": "https://dc.lft.to/lastmile_qr_scan"}, "lon": -77.0252705, "type": "electric_scooter"}, {"bike_id": "df775a12e0db20c6b3dff1686a462a47", "is_reserved": 0, "fusion_lon": 0.0, "lat": 38.90219483333333, "is_disabled": 0, "name": "df775a12e0db20c6b3dff1686a462a47", "fusion_lat": 0.0, "rental_uris": {"ios": "https://dc.lft.to/lastmile_qr_scan", "android": "https://dc.lft.to/lastmile_qr_scan"}, "lon": -76.95052433333333, "type": "electric_bike"}, {"bike_id": "365810e8c34ddb4797470e9fd60f5461", "is_reserved": 0, "fusion_lon": 0.0, "lat": 38.93861016666666, "is_disabled": 0, "name": "365810e8c34ddb4797470e9fd60f5461", "fusion_lat": 0.0, "rental_uris": {"ios": "https://dc.lft.to/lastmile_qr_scan", "android": "https://dc.lft.to/lastmile_qr_scan"}, "lon": -77.0326155, "type": "electric_scooter"}, {"bike_id": "dfc3e1da5482496674fc57c730daa953", "is_reserved": 0, "fusion_lon": 0.0, "lat": 38.90138133333333, "is_disabled": 0, "name": "dfc3e1da5482496674fc57c730daa953", "fusion_lat": 0.0, "rental_uris": {"ios": "https://dc.lft.to/lastmile_qr_scan", "android": "https://dc.lft.to/lastmile_qr_scan"}, "lon": -77.043034, "type": "electric_scooter"}, {"bike_id": "d9d89bf7c3592bd8f9029636a905862f", "is_reserved": 0, "fusion_lon": 0.0, "lat": 38.905503833333334, "is_disabled": 0, "name": "d9d89bf7c3592bd8f9029636a905862f", "fusion_lat": 0.0, "rental_uris": {"ios": "https://dc.lft.to/lastmile_qr_scan", "android": "https://dc.lft.to/lastmile_qr_scan"}, "lon": -77.0359175, "type": "electric_scooter"}, {"bike_id": "43987082a23cd0145fec29c171bda43e", "is_reserved": 0, "fusion_lon": 0.0, "lat": 38.92265833333333, "is_disabled": 0, "name": "43987082a23cd0145fec29c171bda43e", "fusion_lat": 0.0, "rental_uris": {"ios": "https://dc.lft.to/lastmile_qr_scan", "android": "https://dc.lft.to/lastmile_qr_scan"}, "lon": -77.041268, "type": "electric_scooter"}, {"bike_id": "8a1ef719056f581d5799b3a6de1ed0fc", "is_reserved": 0, "fusion_lon": 0.0, "lat": 38.89931133333333, "is_disabled": 0, "name": "8a1ef719056f581d5799b3a6de1ed0fc", "fusion_lat": 0.0, "rental_uris": {"ios": "https://dc.lft.to/lastmile_qr_scan", "android": "https://dc.lft.to/lastmile_qr_scan"}, "lon": -77.04050966666667, "type": "electric_scooter"}, {"bike_id": "bff06571acdf76a03bc71133cf08d16f", "is_reserved": 0, "fusion_lon": 0.0, "lat": 38.89562566666667, "is_disabled": 0, "name": "bff06571acdf76a03bc71133cf08d16f", "fusion_lat": 0.0, "rental_uris": {"ios": "https://dc.lft.to/lastmile_qr_scan", "android": "https://dc.lft.to/lastmile_qr_scan"}, "lon": -77.12734183333333, "type": "electric_bike"}, {"bike_id": "354bf486070494dd121692da08151620", "is_reserved": 0, "fusion_lon": 0.0, "lat": 38.906043833333335, "is_disabled": 0, "name": "354bf486070494dd121692da08151620", "fusion_lat": 0.0, "rental_uris": {"ios": "https://dc.lft.to/lastmile_qr_scan", "android": "https://dc.lft.to/lastmile_qr_scan"}, "lon": -77.05097783333333, "type": "electric_scooter"}, {"bike_id": "efabff529f5adeced71be8a528bae9b5", "is_reserved": 0, "fusion_lon": 0.0, "lat": 38.92166616666667, "is_disabled": 0, "name": "efabff529f5adeced71be8a528bae9b5", "fusion_lat": 0.0, "rental_uris": {"ios": "https://dc.lft.to/lastmile_qr_scan", "android": "https://dc.lft.to/lastmile_qr_scan"}, "lon": -77.04693566666667, "type": "electric_scooter"}, {"bike_id": "47514504dd200478622b9423763d8f7e", "is_reserved": 0, "fusion_lon": 0.0, "lat": 38.92937633333333, "is_disabled": 0, "name": "47514504dd200478622b9423763d8f7e", "fusion_lat": 0.0, "rental_uris": {"ios": "https://dc.lft.to/lastmile_qr_scan", "android": "https://dc.lft.to/lastmile_qr_scan"}, "lon": -77.03283216666667, "type": "electric_scooter"}, {"bike_id": "80412be190e4246ccb1bbfc73efc6c9e", "is_reserved": 0, "fusion_lon": 0.0, "lat": 38.905317, "is_disabled": 0, "name": "80412be190e4246ccb1bbfc73efc6c9e", "fusion_lat": 0.0, "rental_uris": {"ios": "https://dc.lft.to/lastmile_qr_scan", "android": "https://dc.lft.to/lastmile_qr_scan"}, "lon": -77.05764833333333, "type": "electric_scooter"}, {"bike_id": "d4ca313a49196c1f5bc3d3f6dd2a8129", "is_reserved": 0, "fusion_lon": 0.0, "lat": 38.84575683333333, "is_disabled": 0, "name": "d4ca313a49196c1f5bc3d3f6dd2a8129", "fusion_lat": 0.0, "rental_uris": {"ios": "https://dc.lft.to/lastmile_qr_scan", "android": "https://dc.lft.to/lastmile_qr_scan"}, "lon": -77.09622666666667, "type": "electric_bike"}, {"bike_id": "a7f381b95940c83ed57096aad5e1b512", "is_reserved": 0, "fusion_lon": 0.0, "lat": 38.908742, "is_disabled": 0, "name": "a7f381b95940c83ed57096aad5e1b512", "fusion_lat": 0.0, "rental_uris": {"ios": "https://dc.lft.to/lastmile_qr_scan", "android": "https://dc.lft.to/lastmile_qr_scan"}, "lon": -77.03291133333333, "type": "electric_scooter"}, {"bike_id": "9b8a83c2c7243cd6c4c8f64cb28a194e", "is_reserved": 0, "fusion_lon": 0.0, "lat": 38.86374816666667, "is_disabled": 0, "name": "9b8a83c2c7243cd6c4c8f64cb28a194e", "fusion_lat": 0.0, "rental_uris": {"ios": "https://dc.lft.to/lastmile_qr_scan", "android": "https://dc.lft.to/lastmile_qr_scan"}, "lon": -77.01362316666666, "type": "electric_scooter"}, {"bike_id": "c602e932204dc56ddc6eac7dfb2bc46f", "is_reserved": 0, "fusion_lon": 0.0, "lat": 38.926853666666666, "is_disabled": 0, "name": "c602e932204dc56ddc6eac7dfb2bc46f", "fusion_lat": 0.0, "rental_uris": {"ios": "https://dc.lft.to/lastmile_qr_scan", "android": "https://dc.lft.to/lastmile_qr_scan"}, "lon": -77.015708, "type": "electric_scooter"}, {"bike_id": "cf63510d59854e6ef81d073bc21b3bce", "is_reserved": 0, "fusion_lon": 0.0, "lat": 38.906586, "is_disabled": 0, "name": "cf63510d59854e6ef81d073bc21b3bce", "fusion_lat": 0.0, "rental_uris": {"ios": "https://dc.lft.to/lastmile_qr_scan", "android": "https://dc.lft.to/lastmile_qr_scan"}, "lon": -77.03857616666667, "type": "electric_scooter"}, {"bike_id": "39dae8ef64ae31ee93c325061bf9a388", "is_reserved": 0, "fusion_lon": 0.0, "lat": 38.90521, "is_disabled": 0, "name": "39dae8ef64ae31ee93c325061bf9a388", "fusion_lat": 0.0, "rental_uris": {"ios": "https://dc.lft.to/lastmile_qr_scan", "android": "https://dc.lft.to/lastmile_qr_scan"}, "lon": -77.06533533333334, "type": "electric_scooter"}, {"bike_id": "19467aa6125b356832490547342e7ecc", "is_reserved": 0, "fusion_lon": 0.0, "lat": 38.929621833333336, "is_disabled": 0, "name": "19467aa6125b356832490547342e7ecc", "fusion_lat": 0.0, "rental_uris": {"ios": "https://dc.lft.to/lastmile_qr_scan", "android": "https://dc.lft.to/lastmile_qr_scan"}, "lon": -77.011474, "type": "electric_scooter"}, {"bike_id": "2cfbc89a8b4c851d2c5c7bf7945dd227", "is_reserved": 0, "fusion_lon": 0.0, "lat": 38.92261533333333, "is_disabled": 0, "name": "2cfbc89a8b4c851d2c5c7bf7945dd227", "fusion_lat": 0.0, "rental_uris": {"ios": "https://dc.lft.to/lastmile_qr_scan", "android": "https://dc.lft.to/lastmile_qr_scan"}, "lon": -77.041232, "type": "electric_scooter"}, {"bike_id": "1826fbb17336cf8ba42dc13aacdd8e4b", "is_reserved": 0, "fusion_lon": 0.0, "lat": 38.89224866666667, "is_disabled": 0, "name": "1826fbb17336cf8ba42dc13aacdd8e4b", "fusion_lat": 0.0, "rental_uris": {"ios": "https://dc.lft.to/lastmile_qr_scan", "android": "https://dc.lft.to/lastmile_qr_scan"}, "lon": -77.03338733333334, "type": "electric_scooter"}, {"bike_id": "4822d2f676e66dc83b2fcc56c4c87d0e", "is_reserved": 0, "fusion_lon": 0.0, "lat": 38.8718025, "is_disabled": 0, "name": "4822d2f676e66dc83b2fcc56c4c87d0e", "fusion_lat": 0.0, "rental_uris": {"ios": "https://dc.lft.to/lastmile_qr_scan", "android": "https://dc.lft.to/lastmile_qr_scan"}, "lon": -77.006257, "type": "electric_scooter"}, {"bike_id": "e3923a081890e90520450abe3972a628", "is_reserved": 0, "fusion_lon": 0.0, "lat": 38.90599816666667, "is_disabled": 0, "name": "e3923a081890e90520450abe3972a628", "fusion_lat": 0.0, "rental_uris": {"ios": "https://dc.lft.to/lastmile_qr_scan", "android": "https://dc.lft.to/lastmile_qr_scan"}, "lon": -77.03982616666667, "type": "electric_scooter"}, {"bike_id": "0fe0eef5bd6d7e26c35e8b755703dd14", "is_reserved": 0, "fusion_lon": 0.0, "lat": 38.926122666666664, "is_disabled": 0, "name": "0fe0eef5bd6d7e26c35e8b755703dd14", "fusion_lat": 0.0, "rental_uris": {"ios": "https://dc.lft.to/lastmile_qr_scan", "android": "https://dc.lft.to/lastmile_qr_scan"}, "lon": -77.02162583333333, "type": "electric_scooter"}, {"bike_id": "3dd7faa5aeff173ed9f03ba3a71c3db9", "is_reserved": 0, "fusion_lon": 0.0, "lat": 38.944014, "is_disabled": 0, "name": "3dd7faa5aeff173ed9f03ba3a71c3db9", "fusion_lat": 0.0, "rental_uris": {"ios": "https://dc.lft.to/lastmile_qr_scan", "android": "https://dc.lft.to/lastmile_qr_scan"}, "lon": -77.03892166666667, "type": "electric_scooter"}, {"bike_id": "5e5bbb94e1a85ae40c3ca1b5887a873b", "is_reserved": 0, "fusion_lon": 0.0, "lat": 38.9126995, "is_disabled": 0, "name": "5e5bbb94e1a85ae40c3ca1b5887a873b", "fusion_lat": 0.0, "rental_uris": {"ios": "https://dc.lft.to/lastmile_qr_scan", "android": "https://dc.lft.to/lastmile_qr_scan"}, "lon": -77.02211716666666, "type": "electric_scooter"}, {"bike_id": "12e5128e0d5dbddaad33909fa6931acd", "is_reserved": 0, "fusion_lon": 0.0, "lat": 38.90845216666666, "is_disabled": 0, "name": "12e5128e0d5dbddaad33909fa6931acd", "fusion_lat": 0.0, "rental_uris": {"ios": "https://dc.lft.to/lastmile_qr_scan", "android": "https://dc.lft.to/lastmile_qr_scan"}, "lon": -77.04494383333333, "type": "electric_scooter"}, {"bike_id": "16fc777a49090cafa22ff429920687af", "is_reserved": 0, "fusion_lon": 0.0, "lat": 38.91591183333333, "is_disabled": 0, "name": "16fc777a49090cafa22ff429920687af", "fusion_lat": 0.0, "rental_uris": {"ios": "https://dc.lft.to/lastmile_qr_scan", "android": "https://dc.lft.to/lastmile_qr_scan"}, "lon": -77.01245233333333, "type": "electric_scooter"}, {"bike_id": "eeb87e6231bb909faf5c7e1091d07bec", "is_reserved": 0, "fusion_lon": 0.0, "lat": 38.91693883333333, "is_disabled": 0, "name": "eeb87e6231bb909faf5c7e1091d07bec", "fusion_lat": 0.0, "rental_uris": {"ios": "https://dc.lft.to/lastmile_qr_scan", "android": "https://dc.lft.to/lastmile_qr_scan"}, "lon": -77.02596866666667, "type": "electric_scooter"}, {"bike_id": "f8d4025e6feead510b781df0e7ac2c9b", "is_reserved": 0, "fusion_lon": 0.0, "lat": 38.9121585, "is_disabled": 0, "name": "f8d4025e6feead510b781df0e7ac2c9b", "fusion_lat": 0.0, "rental_uris": {"ios": "https://dc.lft.to/lastmile_qr_scan", "android": "https://dc.lft.to/lastmile_qr_scan"}, "lon": -77.04876616666667, "type": "electric_scooter"}, {"bike_id": "409c39529eae5dfebb577afcf3306558", "is_reserved": 0, "fusion_lon": 0.0, "lat": 38.905887666666665, "is_disabled": 0, "name": "409c39529eae5dfebb577afcf3306558", "fusion_lat": 0.0, "rental_uris": {"ios": "https://dc.lft.to/lastmile_qr_scan", "android": "https://dc.lft.to/lastmile_qr_scan"}, "lon": -77.04680233333333, "type": "electric_scooter"}, {"bike_id": "ed1c753983a9a2791bfc29daa264b7f1", "is_reserved": 0, "fusion_lon": 0.0, "lat": 38.8987675, "is_disabled": 0, "name": "ed1c753983a9a2791bfc29daa264b7f1", "fusion_lat": 0.0, "rental_uris": {"ios": "https://dc.lft.to/lastmile_qr_scan", "android": "https://dc.lft.to/lastmile_qr_scan"}, "lon": -76.93159933333334, "type": "electric_scooter"}, {"bike_id": "9886ba48eaa05381aba989cdca72dbdd", "is_reserved": 0, "fusion_lon": 0.0, "lat": 38.901068, "is_disabled": 0, "name": "9886ba48eaa05381aba989cdca72dbdd", "fusion_lat": 0.0, "rental_uris": {"ios": "https://dc.lft.to/lastmile_qr_scan", "android": "https://dc.lft.to/lastmile_qr_scan"}, "lon": -77.0436695, "type": "electric_scooter"}, {"bike_id": "9010847780256e44a28e173411a890c6", "is_reserved": 0, "fusion_lon": 0.0, "lat": 38.91245383333333, "is_disabled": 0, "name": "9010847780256e44a28e173411a890c6", "fusion_lat": 0.0, "rental_uris": {"ios": "https://dc.lft.to/lastmile_qr_scan", "android": "https://dc.lft.to/lastmile_qr_scan"}, "lon": -77.01622466666667, "type": "electric_scooter"}, {"bike_id": "650e94b982248e7006ea40df029238c3", "is_reserved": 0, "fusion_lon": 0.0, "lat": 38.923185333333336, "is_disabled": 0, "name": "650e94b982248e7006ea40df029238c3", "fusion_lat": 0.0, "rental_uris": {"ios": "https://dc.lft.to/lastmile_qr_scan", "android": "https://dc.lft.to/lastmile_qr_scan"}, "lon": -77.03669033333334, "type": "electric_scooter"}, {"bike_id": "a34ee8e19bdf53128adbbef4105dee84", "is_reserved": 0, "fusion_lon": 0.0, "lat": 38.92159566666667, "is_disabled": 0, "name": "a34ee8e19bdf53128adbbef4105dee84", "fusion_lat": 0.0, "rental_uris": {"ios": "https://dc.lft.to/lastmile_qr_scan", "android": "https://dc.lft.to/lastmile_qr_scan"}, "lon": -77.03294516666666, "type": "electric_scooter"}, {"bike_id": "0bc29d19b50c64d2cad22d4b08dbaaa8", "is_reserved": 0, "fusion_lon": 0.0, "lat": 38.890089333333336, "is_disabled": 0, "name": "0bc29d19b50c64d2cad22d4b08dbaaa8", "fusion_lat": 0.0, "rental_uris": {"ios": "https://dc.lft.to/lastmile_qr_scan", "android": "https://dc.lft.to/lastmile_qr_scan"}, "lon": -76.937467, "type": "electric_scooter"},