{"data": {"bikes": [{"name": "df1f60cfacc55a8b5aeb134133a6b17e", "type": "electric_scooter", "lat": 38.88939533333333, "is_reserved": 0, "lon": -76.99165333333333, "fusion_lon": 0.0, "is_disabled": 0, "fusion_lat": 0.0, "bike_id": "df1f60cfacc55a8b5aeb134133a6b17e", "rental_uris": {"ios": "https://dc.lft.to/lastmile_qr_scan", "android": "https://dc.lft.to/lastmile_qr_scan"}}, {"name": "cf12b919ae85510e8cf8a6063b4ff03a", "type": "electric_scooter", "lat": 38.8981445, "is_reserved": 0, "lon": -77.03290733333333, "fusion_lon": 0.0, "is_disabled": 0, "fusion_lat": 0.0, "bike_id": "cf12b919ae85510e8cf8a6063b4ff03a", "rental_uris": {"ios": "https://dc.lft.to/lastmile_qr_scan", "android": "https://dc.lft.to/lastmile_qr_scan"}}, {"name": "84a79a53541cdacc7a389edab2078640", "type": "electric_scooter", "lat": 38.894828, "is_reserved": 0, "lon": -77.021534, "fusion_lon": 0.0, "is_disabled": 0, "fusion_lat": 0.0, "bike_id": "84a79a53541cdacc7a389edab2078640", "rental_uris": {"ios": "https://dc.lft.to/lastmile_qr_scan", "android": "https://dc.lft.to/lastmile_qr_scan"}}, {"name": "2e19ae3972e7f92f207d861cbf86207d", "type": "electric_scooter", "lat": 38.90620066666666, "is_reserved": 0, "lon": -77.00061883333333, "fusion_lon": 0.0, "is_disabled": 0, "fusion_lat": 0.0, "bike_id": "2e19ae3972e7f92f207d861cbf86207d", "rental_uris": {"ios": "https://dc.lft.to/lastmile_qr_scan", "android": "https://dc.lft.to/lastmile_qr_scan"}}, {"name": "b3eef06f7c480328debd6e301a7af7ca", "type": "electric_scooter", "lat": 38.9033245, "is_reserved": 0, "lon": -77.03453133333333, "fusion_lon": 0.0, "is_disabled": 0, "fusion_lat": 0.0, "bike_id": "b3eef06f7c480328debd6e301a7af7ca", "rental_uris": {"ios": "https://dc.lft.to/lastmile_qr_scan", "android": "https://dc.lft.to/lastmile_qr_scan"}}, {"name": "1c378a01e5beec586a5900b6ac4f64ea", "type": "electric_scooter", "lat": 38.93125966666667, "is_reserved": 0, "lon": -77.03826933333333, "fusion_lon": 0.0, "is_disabled": 0, "fusion_lat": 0.0, "bike_id": "1c378a01e5beec586a5900b6ac4f64ea", "rental_uris": {"ios": "https://dc.lft.to/lastmile_qr_scan", "android": "https://dc.lft.to/lastmile_qr_scan"}}, {"name": "9d196f2599287d4cf410118de2feb773", "type": "electric_scooter", "lat": 38.88224666666667, "is_reserved": 0, "lon": -76.9418055, "fusion_lon": 0.0, "is_disabled": 0, "fusion_lat": 0.0, "bike_id": "9d196f2599287d4cf410118de2feb773", "rental_uris": {"ios": "https://dc.lft.to/lastmile_qr_scan", "android": "https://dc.lft.to/lastmile_qr_scan"}}, {"name": "96be4de9ae4b00137f03a79a6583c0c4", "type": "electric_scooter", "lat": 38.90337233333333, "is_reserved": 0, "lon": -76.98971766666666, "fusion_lon": 0.0, "is_disabled": 0, "fusion_lat": 0.0, "bike_id": "96be4de9ae4b00137f03a79a6583c0c4", "rental_uris": {"ios": "https://dc.lft.to/lastmile_qr_scan", "android": "https://dc.lft.to/lastmile_qr_scan"}}, {"name": "c409f414178329938cc18b2936855556", "type": "electric_scooter", "lat": 38.88612616666666, "is_reserved": 0, "lon": -76.9951345, "fusion_lon": 0.0, "is_disabled": 0, "fusion_lat": 0.0, "bike_id": "c409f414178329938cc18b2936855556", "rental_uris": {"ios": "https://dc.lft.to/lastmile_qr_scan", "android": "https://dc.lft.to/lastmile_qr_scan"}}, {"name": "e303bdf86b87ec8446853d9545996d8d", "type": "electric_scooter", "lat": 38.898262333333335, "is_reserved": 0, "lon": -77.03286633333333, "fusion_lon": 0.0, "is_disabled": 0, "fusion_lat": 0.0, "bike_id": "e303bdf86b87ec8446853d9545996d8d", "rental_uris": {"ios": "https://dc.lft.to/lastmile_qr_scan", "android": "https://dc.lft.to/lastmile_qr_scan"}}, {"name": "cab2bb47b130689c9e2e2cea86d6dcd4", "type": "electric_bike", "lat": 38.8714155, "is_reserved": 0, "lon": -76.9372995, "fusion_lon": 0.0, "is_disabled": 0, "fusion_lat": 0.0, "bike_id": "cab2bb47b130689c9e2e2cea86d6dcd4", "rental_uris": {"ios": "https://dc.lft.to/lastmile_qr_scan", "android": "https://dc.lft.to/lastmile_qr_scan"}}, {"name": "52ba10454e53582dc7dcd2f4b05186b3", "type": "electric_scooter", "lat": 38.90598033333333, "is_reserved": 0, "lon": -77.03876866666667, "fusion_lon": 0.0, "is_disabled": 0, "fusion_lat": 0.0, "bike_id": "52ba10454e53582dc7dcd2f4b05186b3", "rental_uris": {"ios": "https://dc.lft.to/lastmile_qr_scan", "android": "https://dc.lft.to/lastmile_qr_scan"}}, {"name": "57dabec6bade68de9bb867b25e0f24dc", "type": "electric_scooter", "lat": 38.9217, "is_reserved": 0, "lon": -77.03266766666667, "fusion_lon": 0.0, "is_disabled": 0, "fusion_lat": 0.0, "bike_id": "57dabec6bade68de9bb867b25e0f24dc", "rental_uris": {"ios": "https://dc.lft.to/lastmile_qr_scan", "android": "https://dc.lft.to/lastmile_qr_scan"}}, {"name": "47eea7f8e566a204a219cd8814b4edfa", "type": "electric_scooter", "lat": 38.916072166666666, "is_reserved": 0, "lon": -76.98379433333334, "fusion_lon": 0.0, "is_disabled": 0, "fusion_lat": 0.0, "bike_id": "47eea7f8e566a204a219cd8814b4edfa", "rental_uris": {"ios": "https://dc.lft.to/lastmile_qr_scan", "android": "https://dc.lft.to/lastmile_qr_scan"}}, {"name": "83f0d38a2abc1b3854ecc9d211ca3eb8", "type": "electric_bike", "lat": 38.832462666666665, "is_reserved": 0, "lon": -76.94622966666667, "fusion_lon": 0.0, "is_disabled": 0, "fusion_lat": 0.0, "bike_id": "83f0d38a2abc1b3854ecc9d211ca3eb8", "rental_uris": {"ios": "https://dc.lft.to/lastmile_qr_scan", "android": "https://dc.lft.to/lastmile_qr_scan"}}, {"name": "df4b54d5321aabfbad8fffb15d66520f", "type": "electric_scooter", "lat": 38.94139583333333, "is_reserved": 0, "lon": -77.01546966666666, "fusion_lon": 0.0, "is_disabled": 0, "fusion_lat": 0.0, "bike_id": "df4b54d5321aabfbad8fffb15d66520f", "rental_uris": {"ios": "https://dc.lft.to/lastmile_qr_scan", "android": "https://dc.lft.to/lastmile_qr_scan"}}, {"name": "ebafb26affda0eecd3de0862bd7a3c48", "type": "electric_scooter", "lat": 38.92993383333334, "is_reserved": 0, "lon": -77.07940283333333, "fusion_lon": 0.0, "is_disabled": 0, "fusion_lat": 0.0, "bike_id": "ebafb26affda0eecd3de0862bd7a3c48", "rental_uris": {"ios": "https://dc.lft.to/lastmile_qr_scan", "android": "https://dc.lft.to/lastmile_qr_scan"}}, {"name": "bb2f4a8877019ce919bece4862c9ea61", "type": "electric_scooter", "lat": 38.924933, "is_reserved": 0, "lon": -77.02716916666667, "fusion_lon": 0.0, "is_disabled": 0, "fusion_lat": 0.0, "bike_id": "bb2f4a8877019ce919bece4862c9ea61", "rental_uris": {"ios": "https://dc.lft.to/lastmile_qr_scan", "android": "https://dc.lft.to/lastmile_qr_scan"}}, {"name": "b7be605a340f59ff2c5413ecc6a07eb4", "type": "electric_scooter", "lat": 38.923761, "is_reserved": 0, "lon": -77.01954766666667, "fusion_lon": 0.0, "is_disabled": 0, "fusion_lat": 0.0, "bike_id": "b7be605a340f59ff2c5413ecc6a07eb4", "rental_uris": {"ios": "https://dc.lft.to/lastmile_qr_scan", "android": "https://dc.lft.to/lastmile_qr_scan"}}, {"name": "09e634c551a236131b0cd5ce79763140", "type": "electric_scooter", "lat": 38.89655233333333, "is_reserved": 0, "lon": -77.0502705, "fusion_lon": 0.0, "is_disabled": 0, "fusion_lat": 0.0, "bike_id": "09e634c551a236131b0cd5ce79763140", "rental_uris": {"ios": "https://dc.lft.to/lastmile_qr_scan", "android": "https://dc.lft.to/lastmile_qr_scan"}}, {"name": "aeec0709b7e345c61ee5fef00002c2d4", "type": "electric_scooter", "lat": 38.923455, "is_reserved": 0, "lon": -77.01908233333333, "fusion_lon": 0.0, "is_disabled": 0, "fusion_lat": 0.0, "bike_id": "aeec0709b7e345c61ee5fef00002c2d4", "rental_uris": {"ios": "https://dc.lft.to/lastmile_qr_scan", "android": "https://dc.lft.to/lastmile_qr_scan"}}, {"name": "9a0ef0b1998b00157e925a4309cb1526", "type": "electric_bike", "lat": 38.861687833333335, "is_reserved": 0, "lon": -76.95068083333334, "fusion_lon": 0.0, "is_disabled": 0, "fusion_lat": 0.0, "bike_id": "9a0ef0b1998b00157e925a4309cb1526", "rental_uris": {"ios": "https://dc.lft.to/lastmile_qr_scan", "android": "https://dc.lft.to/lastmile_qr_scan"}}, {"name": "24ee6953c4387a7926b669facf7c4635", "type": "electric_scooter", "lat": 38.89240483333333, "is_reserved": 0, "lon": -77.03199483333333, "fusion_lon": 0.0, "is_disabled": 0, "fusion_lat": 0.0, "bike_id": "24ee6953c4387a7926b669facf7c4635", "rental_uris": {"ios": "https://dc.lft.to/lastmile_qr_scan", "android": "https://dc.lft.to/lastmile_qr_scan"}}, {"name": "c90622c6baff95a31ac860b41ff07291", "type": "electric_scooter", "lat": 38.939197, "is_reserved": 0, "lon": -77.02483783333334, "fusion_lon": 0.0, "is_disabled": 0, "fusion_lat": 0.0, "bike_id": "c90622c6baff95a31ac860b41ff07291", "rental_uris": {"ios": "https://dc.lft.to/lastmile_qr_scan", "android": "https://dc.lft.to/lastmile_qr_scan"}}, {"name": "ae5fd5726abf4fa0ee558aa11bc9127b", "type": "electric_scooter", "lat": 38.91690216666667, "is_reserved": 0, "lon": -77.02527483333333, "fusion_lon": 0.0, "is_disabled": 0, "fusion_lat": 0.0, "bike_id": "ae5fd5726abf4fa0ee558aa11bc9127b", "rental_uris": {"ios": "https://dc.lft.to/lastmile_qr_scan", "android": "https://dc.lft.to/lastmile_qr_scan"}}, {"name": "243293fbd25b0cee554f3d5bf7da68a9", "type": "electric_scooter", "lat": 38.9168805, "is_reserved": 0, "lon": -77.0297695, "fusion_lon": 0.0, "is_disabled": 0, "fusion_lat": 0.0, "bike_id": "243293fbd25b0cee554f3d5bf7da68a9", "rental_uris": {"ios": "https://dc.lft.to/lastmile_qr_scan", "android": "https://dc.lft.to/lastmile_qr_scan"}}, {"name": "abe9d6bed9505f43f3595cdc6bf207c9", "type": "electric_scooter", "lat": 38.92566733333334, "is_reserved": 0, "lon": -77.02287266666667, "fusion_lon": 0.0, "is_disabled": 0, "fusion_lat": 0.0, "bike_id": "abe9d6bed9505f43f3595cdc6bf207c9", "rental_uris": {"ios": "https://dc.lft.to/lastmile_qr_scan", "android": "https://dc.lft.to/lastmile_qr_scan"}}, {"name": "2af021a79025c67f4e34623e90572941", "type": "electric_scooter", "lat": 38.923414333333334, "is_reserved": 0, "lon": -77.038931, "fusion_lon": 0.0, "is_disabled": 0, "fusion_lat": 0.0, "bike_id": "2af021a79025c67f4e34623e90572941", "rental_uris": {"ios": "https://dc.lft.to/lastmile_qr_scan", "android": "https://dc.lft.to/lastmile_qr_scan"}}, {"name": "ac87f3dfd415eb61e1a392a95fa47cf0", "type": "electric_scooter", "lat": 38.903253166666666, "is_reserved": 0, "lon": -77.04346516666666, "fusion_lon": 0.0, "is_disabled": 0, "fusion_lat": 0.0, "bike_id": "ac87f3dfd415eb61e1a392a95fa47cf0", "rental_uris": {"ios": "https://dc.lft.to/lastmile_qr_scan", "android": "https://dc.lft.to/lastmile_qr_scan"}}, {"name": "004865325cff48dd92ef74c644ebdee4", "type": "electric_scooter", "lat": 38.90082916666667, "is_reserved": 0, "lon": -77.049127, "fusion_lon": 0.0, "is_disabled": 0, "fusion_lat": 0.0, "bike_id": "004865325cff48dd92ef74c644ebdee4", "rental_uris": {"ios": "https://dc.lft.to/lastmile_qr_scan", "android": "https://dc.lft.to/lastmile_qr_scan"}}, {"name": "b99225f4110cb9b469898ead6b24417c", "type": "electric_scooter", "lat": 38.905184, "is_reserved": 0, "lon": -77.06939883333334, "fusion_lon": 0.0, "is_disabled": 0, "fusion_lat": 0.0, "bike_id": "b99225f4110cb9b469898ead6b24417c", "rental_uris": {"ios": "https://dc.lft.to/lastmile_qr_scan", "android": "https://dc.lft.to/lastmile_qr_scan"}}, {"name": "1b954b8c266b4946e3823ac795ea42c1", "type": "electric_scooter", "lat": 38.910714666666664, "is_reserved": 0, "lon": -77.02200016666667, "fusion_lon": 0.0, "is_disabled": 0, "fusion_lat": 0.0, "bike_id": "1b954b8c266b4946e3823ac795ea42c1", "rental_uris": {"ios": "https://dc.lft.to/lastmile_qr_scan", "android": "https://dc.lft.to/lastmile_qr_scan"}}, {"name": "affd3f51fad172ffe72193a2b8b8bd2d", "type": "electric_scooter", "lat": 38.9063225, "is_reserved": 0, "lon": -77.03973133333334, "fusion_lon": 0.0, "is_disabled": 0, "fusion_lat": 0.0, "bike_id": "affd3f51fad172ffe72193a2b8b8bd2d", "rental_uris": {"ios": "https://dc.lft.to/lastmile_qr_scan", "android": "https://dc.lft.to/lastmile_qr_scan"}}, {"name": "b1572bba5e82ac5d9f3864fd25adbd0d", "type": "electric_scooter", "lat": 38.93031833333333, "is_reserved": 0, "lon": -77.03279766666667, "fusion_lon": 0.0, "is_disabled": 0, "fusion_lat": 0.0, "bike_id": "b1572bba5e82ac5d9f3864fd25adbd0d", "rental_uris": {"ios": "https://dc.lft.to/lastmile_qr_scan", "android": "https://dc.lft.to/lastmile_qr_scan"}}, {"name": "b06efc5988a1749a7f39a6bef9007234", "type": "electric_scooter", "lat": 38.87463016666667, "is_reserved": 0, "lon": -77.00547666666667, "fusion_lon": 0.0, "is_disabled": 0, "fusion_lat": 0.0, "bike_id": "b06efc5988a1749a7f39a6bef9007234", "rental_uris": {"ios": "https://dc.lft.to/lastmile_qr_scan", "android": "https://dc.lft.to/lastmile_qr_scan"}}, {"name": "e3e7acb807689214a53d93afcd4ac74f", "type": "electric_scooter", "lat": 38.9215605, "is_reserved": 0, "lon": -77.03457016666667, "fusion_lon": 0.0, "is_disabled": 0, "fusion_lat": 0.0, "bike_id": "e3e7acb807689214a53d93afcd4ac74f", "rental_uris": {"ios": "https://dc.lft.to/lastmile_qr_scan", "android": "https://dc.lft.to/lastmile_qr_scan"}}, {"name": "f057244c0568619f341f8727a5713f00", "type": "electric_bike", "lat": 38.95912883333333, "is_reserved": 0, "lon": -77.00154266666667, "fusion_lon": 0.0, "is_disabled": 0, "fusion_lat": 0.0, "bike_id": "f057244c0568619f341f8727a5713f00", "rental_uris": {"ios": "https://dc.lft.to/lastmile_qr_scan", "android": "https://dc.lft.to/lastmile_qr_scan"}}, {"name": "47f192db5c9d7aabf7c717b30910dcca", "type": "electric_scooter", "lat": 38.92157433333333, "is_reserved": 0, "lon": -77.0352615, "fusion_lon": 0.0, "is_disabled": 0, "fusion_lat": 0.0, "bike_id": "47f192db5c9d7aabf7c717b30910dcca", "rental_uris": {"ios": "https://dc.lft.to/lastmile_qr_scan", "android": "https://dc.lft.to/lastmile_qr_scan"}}, {"name": "4a11bcd3514f7d3e2b2b82d98515736a", "type": "electric_scooter", "lat": 38.90376283333333, "is_reserved": 0, "lon": -77.03969716666667, "fusion_lon": 0.0, "is_disabled": 0, "fusion_lat": 0.0, "bike_id": "4a11bcd3514f7d3e2b2b82d98515736a", "rental_uris": {"ios": "https://dc.lft.to/lastmile_qr_scan", "android": "https://dc.lft.to/lastmile_qr_scan"}}, {"name": "61ce1af670d57f6351abc3e77a04e27b", "type": "electric_scooter", "lat": 38.885010333333334, "is_reserved": 0, "lon": -77.00564566666667, "fusion_lon": 0.0, "is_disabled": 0, "fusion_lat": 0.0, "bike_id": "61ce1af670d57f6351abc3e77a04e27b", "rental_uris": {"ios": "https://dc.lft.to/lastmile_qr_scan", "android": "https://dc.lft.to/lastmile_qr_scan"}}, {"name": "b4d1c13c588d3e2f38eb71fd152eb06e", "type": "electric_scooter", "lat": 38.915671, "is_reserved": 0, "lon": -77.03839, "fusion_lon": 0.0, "is_disabled": 0, "fusion_lat": 0.0, "bike_id": "b4d1c13c588d3e2f38eb71fd152eb06e", "rental_uris": {"ios": "https://dc.lft.to/lastmile_qr_scan", "android": "https://dc.lft.to/lastmile_qr_scan"}}, {"name": "5ab08d9dab7a49132f21c3b04b06b952", "type": "electric_scooter", "lat": 38.89959833333333, "is_reserved": 0, "lon": -77.0312115, "fusion_lon": 0.0, "is_disabled": 0, "fusion_lat": 0.0, "bike_id": "5ab08d9dab7a49132f21c3b04b06b952", "rental_uris": {"ios": "https://dc.lft.to/lastmile_qr_scan", "android": "https://dc.lft.to/lastmile_qr_scan"}}, {"name": "49e792570db9c1308b0fd0e1cf1265cc", "type": "electric_scooter", "lat": 38.9032135, "is_reserved": 0, "lon": -77.0377565, "fusion_lon": 0.0, "is_disabled": 0, "fusion_lat": 0.0, "bike_id": "49e792570db9c1308b0fd0e1cf1265cc", "rental_uris": {"ios": "https://dc.lft.to/lastmile_qr_scan", "android": "https://dc.lft.to/lastmile_qr_scan"}}, {"name": "13e437e3468c17d2c66e25fb436647f5", "type": "electric_scooter", "lat": 38.92882633333333, "is_reserved": 0, "lon": -77.03759883333333, "fusion_lon": 0.0, "is_disabled": 0, "fusion_lat": 0.0, "bike_id": "13e437e3468c17d2c66e25fb436647f5", "rental_uris": {"ios": "https://dc.lft.to/lastmile_qr_scan", "android": "https://dc.lft.to/lastmile_qr_scan"}}, {"name": "e84f27433f5aaabaf6c788272ddfaa0f", "type": "electric_scooter", "lat": 38.89772283333333, "is_reserved": 0, "lon": -77.00895516666667, "fusion_lon": 0.0, "is_disabled": 0, "fusion_lat": 0.0, "bike_id": "e84f27433f5aaabaf6c788272ddfaa0f", "rental_uris": {"ios": "https://dc.lft.to/lastmile_qr_scan", "android": "https://dc.lft.to/lastmile_qr_scan"}}, {"name": "13023f903c9331e9984bb1821c54175c", "type": "electric_scooter", "lat": 38.876448, "is_reserved": 0, "lon": -76.9958835, "fusion_lon": 0.0, "is_disabled": 0, "fusion_lat": 0.0, "bike_id": "13023f903c9331e9984bb1821c54175c", "rental_uris": {"ios": "https://dc.lft.to/lastmile_qr_scan", "android": "https://dc.lft.to/lastmile_qr_scan"}}, {"name": "82ef9aa2d0c4d178b2fdaeb9e152875c", "type": "electric_scooter", "lat": 38.884275, "is_reserved": 0, "lon": -76.99700883333334, "fusion_lon": 0.0, "is_disabled": 0, "fusion_lat": 0.0, "bike_id": "82ef9aa2d0c4d178b2fdaeb9e152875c", "rental_uris": {"ios": "https://dc.lft.to/lastmile_qr_scan", "android": "https://dc.lft.to/lastmile_qr_scan"}}, {"name": "85333c91c62d5711843340ccac11c520", "type": "electric_scooter", "lat": 38.90281, "is_reserved": 0, "lon": -77.0382945, "fusion_lon": 0.0, "is_disabled": 0, "fusion_lat": 0.0, "bike_id": "85333c91c62d5711843340ccac11c520", "rental_uris": {"ios": "https://dc.lft.to/lastmile_qr_scan", "android": "https://dc.lft.to/lastmile_qr_scan"}}, {"name": "810757e4f734bfc1481274a74def0774", "type": "electric_scooter", "lat": 38.898124833333334, "is_reserved": 0, "lon": -77.03298416666667, "fusion_lon": 0.0, "is_disabled": 0, "fusion_lat": 0.0, "bike_id": "810757e4f734bfc1481274a74def0774", "rental_uris": {"ios": "https://dc.lft.to/lastmile_qr_scan", "android": "https://dc.lft.to/lastmile_qr_scan"}}, {"name": "de69b4b079ceeeae27bf593d48d51afe", "type": "electric_scooter", "lat": 38.91901466666667, "is_reserved": 0, "lon": -77.019762, "fusion_lon": 0.0, "is_disabled": 0, "fusion_lat": 0.0, "bike_id": "de69b4b079ceeeae27bf593d48d51afe", "rental_uris": {"ios": "https://dc.lft.to/lastmile_qr_scan", "android": "https://dc.lft.to/lastmile_qr_scan"}}, {"name": "8e2bfbe2c8ba76db64decef6b6eeaec7", "type": "electric_scooter", "lat": 38.94963416666667, "is_reserved": 0, "lon": -77.02721316666667, "fusion_lon": 0.0, "is_disabled": 0, "fusion_lat": 0.0, "bike_id": "8e2bfbe2c8ba76db64decef6b6eeaec7", "rental_uris": {"ios": "https://dc.lft.to/lastmile_qr_scan", "android": "https://dc.lft.to/lastmile_qr_scan"}}, {"name": "7897a669cd4303c71fdbbc27f9e9214d", "type": "electric_scooter", "lat": 38.900458666666665, "is_reserved": 0, "lon": -77.01126133333334, "fusion_lon": 0.0, "is_disabled": 0, "fusion_lat": 0.0, "bike_id": "7897a669cd4303c71fdbbc27f9e9214d", "rental_uris": {"ios": "https://dc.lft.to/lastmile_qr_scan", "android": "https://dc.lft.to/lastmile_qr_scan"}}, {"name": "62729187d3a36a0496ec78fad7e207e8", "type": "electric_scooter", "lat": 38.87780133333333, "is_reserved": 0, "lon": -77.00363466666667, "fusion_lon": 0.0, "is_disabled": 0, "fusion_lat": 0.0, "bike_id": "62729187d3a36a0496ec78fad7e207e8", "rental_uris": {"ios": "https://dc.lft.to/lastmile_qr_scan", "android": "https://dc.lft.to/lastmile_qr_scan"}}, {"name": "fb47092a0e5bb6c9f43d5a37cadc2cd3", "type": "electric_scooter", "lat": 38.926164, "is_reserved": 0, "lon": -77.02163566666667, "fusion_lon": 0.0, "is_disabled": 0, "fusion_lat": 0.0, "bike_id": "fb47092a0e5bb6c9f43d5a37cadc2cd3", "rental_uris": {"ios": "https://dc.lft.to/lastmile_qr_scan", "android": "https://dc.lft.to/lastmile_qr_scan"}}, {"name": "02c245fb6014065a83b9c7773296f888", "type": "electric_scooter", "lat": 38.87875483333333, "is_reserved": 0, "lon": -77.02274433333334, "fusion_lon": 0.0, "is_disabled": 0, "fusion_lat": 0.0, "bike_id": "02c245fb6014065a83b9c7773296f888", "rental_uris": {"ios": "https://dc.lft.to/lastmile_qr_scan", "android": "https://dc.lft.to/lastmile_qr_scan"}}, {"name": "6163684cfc49ad98964bfd67b927013f", "type": "electric_scooter", "lat": 38.902590000000004, "is_reserved": 0, "lon": -77.04357566666667, "fusion_lon": 0.0, "is_disabled": 0, "fusion_lat": 0.0, "bike_id": "6163684cfc49ad98964bfd67b927013f", "rental_uris": {"ios": "https://dc.lft.to/lastmile_qr_scan", "android": "https://dc.lft.to/lastmile_qr_scan"}}, {"name": "762ebeb2c178792f03e1990c012e86b2", "type": "electric_scooter", "lat": 38.90733133333333, "is_reserved": 0, "lon": -77.04347116666666, "fusion_lon": 0.0, "is_disabled": 0, "fusion_lat": 0.0, "bike_id": "762ebeb2c178792f03e1990c012e86b2", "rental_uris": {"ios": "https://dc.lft.to/lastmile_qr_scan", "android": "https://dc.lft.to/lastmile_qr_scan"}}, {"name": "8fd215cac548f325051709cedb6c9983", "type": "electric_scooter", "lat": 38.91667666666667, "is_reserved": 0, "lon": -77.00511966666667, "fusion_lon": 0.0, "is_disabled": 0, "fusion_lat": 0.0, "bike_id": "8fd215cac548f325051709cedb6c9983", "rental_uris": {"ios": "https://dc.lft.to/lastmile_qr_scan", "android": "https://dc.lft.to/lastmile_qr_scan"}}, {"name": "bf9976e143c89f2dc513e340e95174e9", "type": "electric_scooter", "lat": 38.91638783333333, "is_reserved": 0, "lon": -77.03216966666666, "fusion_lon": 0.0, "is_disabled": 0, "fusion_lat": 0.0, "bike_id": "bf9976e143c89f2dc513e340e95174e9", "rental_uris": {"ios": "https://dc.lft.to/lastmile_qr_scan", "android": "https://dc.lft.to/lastmile_qr_scan"}}, {"name": "503e4f7854312a103f32f0253ccff4c5", "type": "electric_scooter", "lat": 38.916611, "is_reserved": 0, "lon": -77.02699783333334, "fusion_lon": 0.0, "is_disabled": 0, "fusion_lat": 0.0, "bike_id": "503e4f7854312a103f32f0253ccff4c5", "rental_uris": {"ios": "https://dc.lft.to/lastmile_qr_scan", "android": "https://dc.lft.to/lastmile_qr_scan"}}, {"name": "02d0469161da02e3fb0efa19b6dff497", "type": "electric_scooter", "lat": 38.9036715, "is_reserved": 0, "lon": -77.02988516666667, "fusion_lon": 0.0, "is_disabled": 0, "fusion_lat": 0.0, "bike_id": "02d0469161da02e3fb0efa19b6dff497", "rental_uris": {"ios": "https://dc.lft.to/lastmile_qr_scan", "android": "https://dc.lft.to/lastmile_qr_scan"}}, {"name": "e1885c944677797b269ce2a7eb2828dd", "type": "electric_scooter", "lat": 38.89674016666667, "is_reserved": 0, "lon": -76.9472345, "fusion_lon": 0.0, "is_disabled": 0, "fusion_lat": 0.0, "bike_id": "e1885c944677797b269ce2a7eb2828dd", "rental_uris": {"ios": "https://dc.lft.to/lastmile_qr_scan", "android": "https://dc.lft.to/lastmile_qr_scan"}}, {"name": "1241e57afc140d62062df1eeb212e9ba", "type": "electric_scooter", "lat": 38.892456, "is_reserved": 0, "lon": -77.015393, "fusion_lon": 0.0, "is_disabled": 0, "fusion_lat": 0.0, "bike_id": "1241e57afc140d62062df1eeb212e9ba", "rental_uris": {"ios": "https://dc.lft.to/lastmile_qr_scan", "android": "https://dc.lft.to/lastmile_qr_scan"}}, {"name": "0d94dc486bcb4bf021aa1b31d6d6ff53", "type": "electric_bike", "lat": 38.838313166666666, "is_reserved": 0, "lon": -76.99687416666667, "fusion_lon": 0.0, "is_disabled": 0, "fusion_lat": 0.0, "bike_id": "0d94dc486bcb4bf021aa1b31d6d6ff53", "rental_uris": {"ios": "https://dc.lft.to/lastmile_qr_scan", "android": "https://dc.lft.to/lastmile_qr_scan"}}, {"name": "b4ba9584a35dc7df87ac117703ff6324", "type": "electric_scooter", "lat": 38.8652355, "is_reserved": 0, "lon": -76.99031916666667, "fusion_lon": 0.0, "is_disabled": 0, "fusion_lat": 0.0, "bike_id": "b4ba9584a35dc7df87ac117703ff6324", "rental_uris": {"ios": "https://dc.lft.to/lastmile_qr_scan", "android": "https://dc.lft.to/lastmile_qr_scan"}}, {"name": "bf4503cefbb1d69f81f617db3669b755", "type": "electric_scooter", "lat": 38.932899, "is_reserved": 0, "lon": -77.03983383333333, "fusion_lon": 0.0, "is_disabled": 0, "fusion_lat": 0.0, "bike_id": "bf4503cefbb1d69f81f617db3669b755", "rental_uris": {"ios": "https://dc.lft.to/lastmile_qr_scan", "android": "https://dc.lft.to/lastmile_qr_scan"}}, {"name": "66dacb2c579396e8e6259798b51c3d63", "type": "electric_scooter", "lat": 38.88696133333333, "is_reserved": 0, "lon": -76.957611, "fusion_lon": 0.0, "is_disabled": 0, "fusion_lat": 0.0, "bike_id": "66dacb2c579396e8e6259798b51c3d63", "rental_uris": {"ios": "https://dc.lft.to/lastmile_qr_scan", "android": "https://dc.lft.to/lastmile_qr_scan"}}, {"name": "cbc58d9cea86ccc2c003f72488e7c7da", "type": "electric_scooter", "lat": 38.876347, "is_reserved": 0, "lon": -76.965287, "fusion_lon": 0.0, "is_disabled": 0, "fusion_lat": 0.0, "bike_id": "cbc58d9cea86ccc2c003f72488e7c7da", "rental_uris": {"ios": "https://dc.lft.to/lastmile_qr_scan", "android": "https://dc.lft.to/lastmile_qr_scan"}}, {"name": "dcd577268618f3bfad2ec54b06827e6d", "type": "electric_scooter", "lat": 38.8945635, "is_reserved": 0, "lon": -77.0192235, "fusion_lon": 0.0, "is_disabled": 0, "fusion_lat": 0.0, "bike_id": "dcd577268618f3bfad2ec54b06827e6d", "rental_uris": {"ios": "https://dc.lft.to/lastmile_qr_scan", "android": "https://dc.lft.to/lastmile_qr_scan"}}, {"name": "177d1da96f4865d97017aa29216de660", "type": "electric_scooter", "lat": 38.897430166666666, "is_reserved": 0, "lon": -76.93846733333334, "fusion_lon": 0.0, "is_disabled": 0, "fusion_lat": 0.0, "bike_id": "177d1da96f4865d97017aa29216de660", "rental_uris": {"ios": "https://dc.lft.to/lastmile_qr_scan", "android": "https://dc.lft.to/lastmile_qr_scan"}}, {"name": "e8a472d91c8588d23d1baef29d25040c", "type": "electric_scooter", "lat": 38.9277255, "is_reserved": 0, "lon": -77.073078, "fusion_lon": 0.0, "is_disabled": 0, "fusion_lat": 0.0, "bike_id": "e8a472d91c8588d23d1baef29d25040c", "rental_uris": {"ios": "https://dc.lft.to/lastmile_qr_scan", "android": "https://dc.lft.to/lastmile_qr_scan"}}, {"name": "96bf8ea28d7747f1e923a3b76251629e", "type": "electric_scooter", "lat": 38.895286666666664, "is_reserved": 0, "lon": -77.0034005, "fusion_lon": 0.0, "is_disabled": 0, "fusion_lat": 0.0, "bike_id": "96bf8ea28d7747f1e923a3b76251629e", "rental_uris": {"ios": "https://dc.lft.to/lastmile_qr_scan", "android": "https://dc.lft.to/lastmile_qr_scan"}}, {"name": "dd2dfc8ec00d8eb4da6c1d003d6a8a0c", "type": "electric_scooter", "lat": 38.896117833333335, "is_reserved": 0, "lon": -77.04453766666667, "fusion_lon": 0.0, "is_disabled": 0, "fusion_lat": 0.0, "bike_id": "dd2dfc8ec00d8eb4da6c1d003d6a8a0c", "rental_uris": {"ios": "https://dc.lft.to/lastmile_qr_scan", "android": "https://dc.lft.to/lastmile_qr_scan"}}, {"name": "d7ece0ab9f5bfacaa6bef9a7e97dbdb3", "type": "electric_scooter", "lat": 38.928785833333336, "is_reserved": 0, "lon": -77.01372916666666, "fusion_lon": 0.0, "is_disabled": 0, "fusion_lat": 0.0, "bike_id": "d7ece0ab9f5bfacaa6bef9a7e97dbdb3", "rental_uris": {"ios": "https://dc.lft.to/lastmile_qr_scan", "android": "https://dc.lft.to/lastmile_qr_scan"}}, {"name": "5d37ac8a56423671b3d0e0af51ab4e91", "type": "electric_scooter", "lat": 38.89227316666667, "is_reserved": 0, "lon": -77.03218183333334, "fusion_lon": 0.0, "is_disabled": 0, "fusion_lat": 0.0, "bike_id": "5d37ac8a56423671b3d0e0af51ab4e91", "rental_uris": {"ios": "https://dc.lft.to/lastmile_qr_scan", "android": "https://dc.lft.to/lastmile_qr_scan"}}, {"name": "596a516e3b52e91f92effe01f6404037", "type": "electric_scooter", "lat": 38.904129, "is_reserved": 0, "lon": -76.97328883333333, "fusion_lon": 0.0, "is_disabled": 0, "fusion_lat": 0.0, "bike_id": "596a516e3b52e91f92effe01f6404037", "rental_uris": {"ios": "https://dc.lft.to/lastmile_qr_scan", "android": "https://dc.lft.to/lastmile_qr_scan"}}, {"name": "ce3e64e75527245199144ca9f6c510f1", "type": "electric_scooter", "lat": 38.9058035, "is_reserved": 0, "lon": -77.043581, "fusion_lon": 0.0, "is_disabled": 0, "fusion_lat": 0.0, "bike_id": "ce3e64e75527245199144ca9f6c510f1", "rental_uris": {"ios": "https://dc.lft.to/lastmile_qr_scan", "android": "https://dc.lft.to/lastmile_qr_scan"}}, {"name": "6ac117ee9de4a02f0257956461191cd5", "type": "electric_scooter", "lat": 38.92012583333333, "is_reserved": 0, "lon": -77.038655, "fusion_lon": 0.0, "is_disabled": 0, "fusion_lat": 0.0, "bike_id": "6ac117ee9de4a02f0257956461191cd5", "rental_uris": {"ios": "https://dc.lft.to/lastmile_qr_scan", "android": "https://dc.lft.to/lastmile_qr_scan"}}, {"name": "bdd4ec4c9b0eda32cd232740aef5a020", "type": "electric_scooter", "lat": 38.931743833333336, "is_reserved": 0, "lon": -77.02850983333333, "fusion_lon": 0.0, "is_disabled": 0, "fusion_lat": 0.0, "bike_id": "bdd4ec4c9b0eda32cd232740aef5a020", "rental_uris": {"ios": "https://dc.lft.to/lastmile_qr_scan", "android": "https://dc.lft.to/lastmile_qr_scan"}}, {"name": "c7955681ae652f59df5009c28fffcc91", "type": "electric_scooter", "lat": 38.94017083333333, "is_reserved": 0, "lon": -77.07171266666667, "fusion_lon": 0.0, "is_disabled": 0, "fusion_lat": 0.0, "bike_id": "c7955681ae652f59df5009c28fffcc91", "rental_uris": {"ios": "https://dc.lft.to/lastmile_qr_scan", "android": "https://dc.lft.to/lastmile_qr_scan"}}, {"name": "d78bccef68a6f7d08ddf5a0fb31dc48b", "type": "electric_scooter", "lat": 38.919273, "is_reserved": 0, "lon": -77.009786, "fusion_lon": 0.0, "is_disabled": 0, "fusion_lat": 0.0, "bike_id": "d78bccef68a6f7d08ddf5a0fb31dc48b", "rental_uris": {"ios": "https://dc.lft.to/lastmile_qr_scan", "android": "https://dc.lft.to/lastmile_qr_scan"}}, {"name": "d51da7f87a3620ad00037c11c51ac94a", "type": "electric_scooter", "lat": 38.90438666666667, "is_reserved": 0, "lon": -76.9848655, "fusion_lon": 0.0, "is_disabled": 0, "fusion_lat": 0.0, "bike_id": "d51da7f87a3620ad00037c11c51ac94a", "rental_uris": {"ios": "https://dc.lft.to/lastmile_qr_scan", "android": "https://dc.lft.to/lastmile_qr_scan"}}, {"name": "85fa747071773623788375a018d75812", "type": "electric_scooter", "lat": 38.9225205, "is_reserved": 0, "lon": -77.0308825, "fusion_lon": 0.0, "is_disabled": 0, "fusion_lat": 0.0, "bike_id": "85fa747071773623788375a018d75812", "rental_uris": {"ios": "https://dc.lft.to/lastmile_qr_scan", "android": "https://dc.lft.to/lastmile_qr_scan"}}, {"name": "9629342869bb118cc3fbffde4a842903", "type": "electric_scooter", "lat": 38.90679816666667, "is_reserved": 0, "lon": -77.03869316666666, "fusion_lon": 0.0, "is_disabled": 0, "fusion_lat": 0.0, "bike_id": "9629342869bb118cc3fbffde4a842903", "rental_uris": {"ios": "https://dc.lft.to/lastmile_qr_scan", "android": "https://dc.lft.to/lastmile_qr_scan"}}, {"name": "8c4aed5c1703d14164a78d7f47bdf71e", "type": "electric_scooter", "lat": 38.885139333333335, "is_reserved": 0, "lon": -77.03339566666666, "fusion_lon": 0.0, "is_disabled": 0, "fusion_lat": 0.0, "bike_id": "8c4aed5c1703d14164a78d7f47bdf71e", "rental_uris": {"ios": "https://dc.lft.to/lastmile_qr_scan", "android": "https://dc.lft.to/lastmile_qr_scan"}}, {"name": "9a8848bab2d63b23a5f94a7fe59296d5", "type": "electric_scooter", "lat": 38.90554016666667, "is_reserved": 0, "lon": -77.0397275, "fusion_lon": 0.0, "is_disabled": 0, "fusion_lat": 0.0, "bike_id": "9a8848bab2d63b23a5f94a7fe59296d5", "rental_uris": {"ios": "https://dc.lft.to/lastmile_qr_scan", "android": "https://dc.lft.to/lastmile_qr_scan"}}, {"name": "4108e0071230d507a5ee3d7df2037de9", "type": "electric_scooter", "lat": 38.88523283333333, "is_reserved": 0, "lon": -76.97712883333334, "fusion_lon": 0.0, "is_disabled": 0, "fusion_lat": 0.0, "bike_id": "4108e0071230d507a5ee3d7df2037de9", "rental_uris": {"ios": "https://dc.lft.to/lastmile_qr_scan", "android": "https://dc.lft.to/lastmile_qr_scan"}}, {"name": "c1e286074a8e9b54eedaedbb75c77d5b", "type": "electric_scooter", "lat": 38.903927833333334, "is_reserved": 0, "lon": -77.04206333333333, "fusion_lon": 0.0, "is_disabled": 0, "fusion_lat": 0.0, "bike_id": "c1e286074a8e9b54eedaedbb75c77d5b", "rental_uris": {"ios": "https://dc.lft.to/lastmile_qr_scan", "android": "https://dc.lft.to/lastmile_qr_scan"}}, {"name": "dbcce2934423e070b5013b5de2c1a434", "type": "electric_bike", "lat": 38.838146, "is_reserved": 0, "lon": -76.99843916666667, "fusion_lon": 0.0, "is_disabled": 0, "fusion_lat": 0.0, "bike_id": "dbcce2934423e070b5013b5de2c1a434", "rental_uris": {"ios": "https://dc.lft.to/lastmile_qr_scan", "android": "https://dc.lft.to/lastmile_qr_scan"}}, {"name": "518457b5e5f207766f1c11d4c529a16f", "type": "electric_bike", "lat": 38.903008, "is_reserved": 0, "lon": -76.94440366666667, "fusion_lon": 0.0, "is_disabled": 0, "fusion_lat": 0.0, "bike_id": "518457b5e5f207766f1c11d4c529a16f", "rental_uris": {"ios": "https://dc.lft.to/lastmile_qr_scan", "android": "https://dc.lft.to/lastmile_qr_scan"}}, {"name": "e661b74e86a8b1a5f5b4042e46fa1494", "type": "electric_scooter", "lat": 38.90434, "is_reserved": 0, "lon": -77.0280105, "fusion_lon": 0.0, "is_disabled": 0, "fusion_lat": 0.0, "bike_id": "e661b74e86a8b1a5f5b4042e46fa1494", "rental_uris": {"ios": "https://dc.lft.to/lastmile_qr_scan", "android": "https://dc.lft.to/lastmile_qr_scan"}}, {"name": "1ee652b9815149b270d5a4841a40d6e8", "type": "electric_scooter", "lat": 38.897534, "is_reserved": 0, "lon": -77.02990233333334, "fusion_lon": 0.0, "is_disabled": 0, "fusion_lat": 0.0, "bike_id": "1ee652b9815149b270d5a4841a40d6e8", "rental_uris": {"ios": "https://dc.lft.to/lastmile_qr_scan", "android": "https://dc.lft.to/lastmile_qr_scan"}}, {"name": "c510f123be4c6101a04f6827d36e092f", "type": "electric_scooter", "lat": 38.905826166666664, "is_reserved": 0, "lon": -77.04023733333334, "fusion_lon": 0.0, "is_disabled": 0, "fusion_lat": 0.0, "bike_id": "c510f123be4c6101a04f6827d36e092f", "rental_uris": {"ios": "https://dc.lft.to/lastmile_qr_scan", "android": "https://dc.lft.to/lastmile_qr_scan"}}, {"name": "80f3edf10c5b0b37a596f3ccca50114f", "type": "electric_scooter", "lat": 38.90117583333333, "is_reserved": 0, "lon": -77.04987633333333, "fusion_lon": 0.0, "is_disabled": 0, "fusion_lat": 0.0, "bike_id": "80f3edf10c5b0b37a596f3ccca50114f", "rental_uris": {"ios": "https://dc.lft.to/lastmile_qr_scan", "android": "https://dc.lft.to/lastmile_qr_scan"}}, {"name": "7f8f1d636c57754027472cd7827ec3f4", "type": "electric_scooter", "lat": 38.900167333333336, "is_reserved": 0, "lon": -76.9907605, "fusion_lon": 0.0, "is_disabled": 0, "fusion_lat": 0.0, "bike_id": "7f8f1d636c57754027472cd7827ec3f4", "rental_uris": {"ios": "https://dc.lft.to/lastmile_qr_scan", "android": "https://dc.lft.to/lastmile_qr_scan"}}, {"name": "33052c1b7168006975e061f46f4fb484", "type": "electric_scooter", "lat": 38.91717833333333, "is_reserved": 0, "lon": -77.0386075, "fusion_lon": 0.0, "is_disabled": 0, "fusion_lat": 0.0, "bike_id": "33052c1b7168006975e061f46f4fb484", "rental_uris": {"ios": "https://dc.lft.to/lastmile_qr_scan", "android": "https://dc.lft.to/lastmile_qr_scan"}}, {"name": "bec91fff28d0886fb2feb5d3b6a7a04c", "type": "electric_scooter", "lat": 38.91116616666667, "is_reserved": 0, "lon": -77.03741883333333, "fusion_lon": 0.0, "is_disabled": 0, "fusion_lat": 0.0, "bike_id": "bec91fff28d0886fb2feb5d3b6a7a04c", "rental_uris": {"ios": "https://dc.lft.to/lastmile_qr_scan", "android": "https://dc.lft.to/lastmile_qr_scan"}}, {"name": "08f51394d3e275ff7b1d5c7d20e59dca", "type": "electric_scooter", "lat": 38.9224475, "is_reserved": 0, "lon": -77.04339833333333, "fusion_lon": 0.0, "is_disabled": 0, "fusion_lat": 0.0, "bike_id": "08f51394d3e275ff7b1d5c7d20e59dca", "rental_uris": {"ios": "https://dc.lft.to/lastmile_qr_scan", "android": "https://dc.lft.to/lastmile_qr_scan"}}, {"name": "e7efe2dea6e826f64cb0db52519dbd79", "type": "electric_scooter", "lat": 38.92006883333333, "is_reserved": 0, "lon": -77.0387905, "fusion_lon": 0.0, "is_disabled": 0, "fusion_lat": 0.0, "bike_id": "e7efe2dea6e826f64cb0db52519dbd79", "rental_uris": {"ios": "https://dc.lft.to/lastmile_qr_scan", "android": "https://dc.lft.to/lastmile_qr_scan"}}, {"name": "6813c74cc6120300a34adc31d46ee3df", "type": "electric_scooter", "lat": 38.863717, "is_reserved": 0, "lon": -76.990574, "fusion_lon": 0.0, "is_disabled": 0, "fusion_lat": 0.0, "bike_id": "6813c74cc6120300a34adc31d46ee3df", "rental_uris": {"ios": "https://dc.lft.to/lastmile_qr_scan", "android": "https://dc.lft.to/lastmile_qr_scan"}}, {"name": "b2b4baf002b8e1e64f8e832a4dfdbdd8", "type": "electric_bike", "lat": 38.86277616666667, "is_reserved": 0, "lon": -77.06351633333334, "fusion_lon": 0.0, "is_disabled": 0, "fusion_lat": 0.0, "bike_id": "b2b4baf002b8e1e64f8e832a4dfdbdd8", "rental_uris": {"ios": "https://dc.lft.to/lastmile_qr_scan", "android": "https://dc.lft.to/lastmile_qr_scan"}}, {"name": "31983fba568b362494a8a9e29ab0a2f6", "type": "electric_scooter", "lat": 38.866620833333336, "is_reserved": 0, "lon": -76.98883816666667, "fusion_lon": 0.0, "is_disabled": 0, "fusion_lat": 0.0, "bike_id": "31983fba568b362494a8a9e29ab0a2f6", "rental_uris": {"ios": "https://dc.lft.to/lastmile_qr_scan", "android": "https://dc.lft.to/lastmile_qr_scan"}}, {"name": "4e9629ff76650dd1a358f0a2bd142575", "type": "electric_bike", "lat": 38.952676, "is_reserved": 0, "lon": -77.069896, "fusion_lon": 0.0, "is_disabled": 0, "fusion_lat": 0.0, "bike_id": "4e9629ff76650dd1a358f0a2bd142575", "rental_uris": {"ios": "https://dc.lft.to/lastmile_qr_scan", "android": "https://dc.lft.to/lastmile_qr_scan"}}, {"name": "49fb4ff7a67525acecf0ef86ff55eb3f", "type": "electric_scooter", "lat": 38.8872525, "is_reserved": 0, "lon": -77.02578433333333, "fusion_lon": 0.0, "is_disabled": 0, "fusion_lat": 0.0, "bike_id": "49fb4ff7a67525acecf0ef86ff55eb3f", "rental_uris": {"ios": "https://dc.lft.to/lastmile_qr_scan", "android": "https://dc.lft.to/lastmile_qr_scan"}}, {"name": "4cbbd4d48d82dfe48975c274cdba75c2", "type": "electric_scooter", "lat": 38.90128033333333, "is_reserved": 0, "lon": -77.03179816666666, "fusion_lon": 0.0, "is_disabled": 0, "fusion_lat": 0.0, "bike_id": "4cbbd4d48d82dfe48975c274cdba75c2", "rental_uris": {"ios": "https://dc.lft.to/lastmile_qr_scan", "android": "https://dc.lft.to/lastmile_qr_scan"}}, {"name": "9f18c0cb23f685220e84f9f5731293a0", "type": "electric_scooter", "lat": 38.90254983333333, "is_reserved": 0, "lon": -77.03330683333333, "fusion_lon": 0.0, "is_disabled": 0, "fusion_lat": 0.0, "bike_id": "9f18c0cb23f685220e84f9f5731293a0", "rental_uris": {"ios": "https://dc.lft.to/lastmile_qr_scan", "android": "https://dc.lft.to/lastmile_qr_scan"}}, {"name": "9e8a721109b1cfa4d2c20888d51b2775", "type": "electric_scooter", "lat": 38.92512216666667, "is_reserved": 0, "lon": -77.0193665, "fusion_lon": 0.0, "is_disabled": 0, "fusion_lat": 0.0, "bike_id": "9e8a721109b1cfa4d2c20888d51b2775", "rental_uris": {"ios": "https://dc.lft.to/lastmile_qr_scan", "android": "https://dc.lft.to/lastmile_qr_scan"}}, {"name": "d30fef54dcbe68444905d4edf499964a", "type": "electric_scooter", "lat": 38.89391966666667, "is_reserved": 0, "lon": -77.0299755, "fusion_lon": 0.0, "is_disabled": 0, "fusion_lat": 0.0, "bike_id": "d30fef54dcbe68444905d4edf499964a", "rental_uris": {"ios": "https://dc.lft.to/lastmile_qr_scan", "android": "https://dc.lft.to/lastmile_qr_scan"}}, {"name": "ca27f53d1b0ae724b4b4c33465d92bab", "type": "electric_scooter", "lat": 38.86526216666667, "is_reserved": 0, "lon": -76.990294, "fusion_lon": 0.0, "is_disabled": 0, "fusion_lat": 0.0, "bike_id": "ca27f53d1b0ae724b4b4c33465d92bab", "rental_uris": {"ios": "https://dc.lft.to/lastmile_qr_scan", "android": "https://dc.lft.to/lastmile_qr_scan"}}, {"name": "624d6a89979a703e8d8ec21f483b3af5", "type": "electric_scooter", "lat": 38.92750233333334, "is_reserved": 0, "lon": -77.03257133333334, "fusion_lon": 0.0, "is_disabled": 0, "fusion_lat": 0.0, "bike_id": "624d6a89979a703e8d8ec21f483b3af5", "rental_uris": {"ios": "https://dc.lft.to/lastmile_qr_scan", "android": "https://dc.lft.to/lastmile_qr_scan"}}, {"name": "70ed6020c28913e2b3f7c076315a98ba", "type": "electric_scooter", "lat": 38.901422833333335, "is_reserved": 0, "lon": -77.0284085, "fusion_lon": 0.0, "is_disabled": 0, "fusion_lat": 0.0, "bike_id": "70ed6020c28913e2b3f7c076315a98ba", "rental_uris": {"ios": "https://dc.lft.to/lastmile_qr_scan", "android": "https://dc.lft.to/lastmile_qr_scan"}}, {"name": "16fd2c4262f2d3603f25e39d3ac689f6", "type": "electric_scooter", "lat": 38.894932833333336, "is_reserved": 0, "lon": -77.01090416666666, "fusion_lon": 0.0, "is_disabled": 0, "fusion_lat": 0.0, "bike_id": "16fd2c4262f2d3603f25e39d3ac689f6", "rental_uris": {"ios": "https://dc.lft.to/lastmile_qr_scan", "android": "https://dc.lft.to/lastmile_qr_scan"}}, {"name": "8dfa67ab58bc3ced544862c4a95ed5f0", "type": "electric_scooter", "lat": 38.900099, "is_reserved": 0, "lon": -77.03247266666666, "fusion_lon": 0.0, "is_disabled": 0, "fusion_lat": 0.0, "bike_id": "8dfa67ab58bc3ced544862c4a95ed5f0", "rental_uris": {"ios": "https://dc.lft.to/lastmile_qr_scan", "android": "https://dc.lft.to/lastmile_qr_scan"}}, {"name": "6ffa0b0b9f919db4c5c916835bb98042", "type": "electric_scooter", "lat": 38.9045465, "is_reserved": 0, "lon": -77.04888916666667, "fusion_lon": 0.0, "is_disabled": 0, "fusion_lat": 0.0, "bike_id": "6ffa0b0b9f919db4c5c916835bb98042", "rental_uris": {"ios": "https://dc.lft.to/lastmile_qr_scan", "android": "https://dc.lft.to/lastmile_qr_scan"}}, {"name": "62ceecae393a148674d260017c2b6bd7", "type": "electric_scooter", "lat": 38.922557, "is_reserved": 0, "lon": -77.03526216666667, "fusion_lon": 0.0, "is_disabled": 0, "fusion_lat": 0.0, "bike_id": "62ceecae393a148674d260017c2b6bd7", "rental_uris": {"ios": "https://dc.lft.to/lastmile_qr_scan", "android": "https://dc.lft.to/lastmile_qr_scan"}}, {"name": "0c47845320c208c5d6752010be08e64c", "type": "electric_scooter", "lat": 38.92602766666667, "is_reserved": 0, "lon": -77.00484633333333, "fusion_lon": 0.0, "is_disabled": 0, "fusion_lat": 0.0, "bike_id": "0c47845320c208c5d6752010be08e64c", "rental_uris": {"ios": "https://dc.lft.to/lastmile_qr_scan", "android": "https://dc.lft.to/lastmile_qr_scan"}}, {"name": "3ca766f8256788e9608e7c5d145c6f00", "type": "electric_scooter", "lat": 38.928855, "is_reserved": 0, "lon": -77.04126333333333, "fusion_lon": 0.0, "is_disabled": 0, "fusion_lat": 0.0, "bike_id": "3ca766f8256788e9608e7c5d145c6f00", "rental_uris": {"ios": "https://dc.lft.to/lastmile_qr_scan", "android": "https://dc.lft.to/lastmile_qr_scan"}}, {"name": "fcdbe40b19c3882a561c17b817cb6b88", "type": "electric_scooter", "lat": 38.88434516666667, "is_reserved": 0, "lon": -76.95752916666666, "fusion_lon": 0.0, "is_disabled": 0, "fusion_lat": 0.0, "bike_id": "fcdbe40b19c3882a561c17b817cb6b88", "rental_uris": {"ios": "https://dc.lft.to/lastmile_qr_scan", "android": "https://dc.lft.to/lastmile_qr_scan"}}, {"name": "73242cf1937cf28433b144cccaf56ae0", "type": "electric_scooter", "lat": 38.91671733333333, "is_reserved": 0, "lon": -77.027151, "fusion_lon": 0.0, "is_disabled": 0, "fusion_lat": 0.0, "bike_id": "73242cf1937cf28433b144cccaf56ae0", "rental_uris": {"ios": "https://dc.lft.to/lastmile_qr_scan", "android": "https://dc.lft.to/lastmile_qr_scan"}}, {"name": "cd1ca4f29c2cd84e55f9bf5cd8a1fab7", "type": "electric_scooter", "lat": 38.9075835, "is_reserved": 0, "lon": -77.00285616666666, "fusion_lon": 0.0, "is_disabled": 0, "fusion_lat": 0.0, "bike_id": "cd1ca4f29c2cd84e55f9bf5cd8a1fab7", "rental_uris": {"ios": "https://dc.lft.to/lastmile_qr_scan", "android": "https://dc.lft.to/lastmile_qr_scan"}}, {"name": "4b241ee15fa77822800f1291cd088363", "type": "electric_bike", "lat": 38.9548325, "is_reserved": 0, "lon": -77.08237916666667, "fusion_lon": 0.0, "is_disabled": 0, "fusion_lat": 0.0, "bike_id": "4b241ee15fa77822800f1291cd088363", "rental_uris": {"ios": "https://dc.lft.to/lastmile_qr_scan", "android": "https://dc.lft.to/lastmile_qr_scan"}}, {"name": "0a861e985771368cdd0476bf3f1b049f", "type": "electric_scooter", "lat": 38.92070983333333, "is_reserved": 0, "lon": -77.04251416666666, "fusion_lon": 0.0, "is_disabled": 0, "fusion_lat": 0.0, "bike_id": "0a861e985771368cdd0476bf3f1b049f", "rental_uris": {"ios": "https://dc.lft.to/lastmile_qr_scan", "android": "https://dc.lft.to/lastmile_qr_scan"}}, {"name": "4daf4b7c37573d2196662cb625ceb9c4", "type": "electric_scooter", "lat": 38.92425, "is_reserved": 0, "lon": -77.0195145, "fusion_lon": 0.0, "is_disabled": 0, "fusion_lat": 0.0, "bike_id": "4daf4b7c37573d2196662cb625ceb9c4", "rental_uris": {"ios": "https://dc.lft.to/lastmile_qr_scan", "android": "https://dc.lft.to/lastmile_qr_scan"}}, {"name": "5efe9b44070445567909ef7086644ed5", "type": "electric_scooter", "lat": 38.86358083333333, "is_reserved": 0, "lon": -76.99067666666667, "fusion_lon": 0.0, "is_disabled": 0, "fusion_lat": 0.0, "bike_id": "5efe9b44070445567909ef7086644ed5", "rental_uris": {"ios": "https://dc.lft.to/lastmile_qr_scan", "android": "https://dc.lft.to/lastmile_qr_scan"}}, {"name": "11369fefc130f516a735230331c0b9e2", "type": "electric_scooter", "lat": 38.898327333333334, "is_reserved": 0, "lon": -76.94636266666667, "fusion_lon": 0.0, "is_disabled": 0, "fusion_lat": 0.0, "bike_id": "11369fefc130f516a735230331c0b9e2", "rental_uris": {"ios": "https://dc.lft.to/lastmile_qr_scan", "android": "https://dc.lft.to/lastmile_qr_scan"}}, {"name": "5d79b1ec46e8988c83f9d5e46a30221e", "type": "electric_scooter", "lat": 38.909633666666664, "is_reserved": 0, "lon": -77.0386415, "fusion_lon": 0.0, "is_disabled": 0, "fusion_lat": 0.0, "bike_id": "5d79b1ec46e8988c83f9d5e46a30221e", "rental_uris": {"ios": "https://dc.lft.to/lastmile_qr_scan", "android": "https://dc.lft.to/lastmile_qr_scan"}}, {"name": "2b58a8f27ab79e566f2ca4795a9d2263", "type": "electric_scooter", "lat": 38.94903083333333, "is_reserved": 0, "lon": -77.07885283333333, "fusion_lon": 0.0, "is_disabled": 0, "fusion_lat": 0.0, "bike_id": "2b58a8f27ab79e566f2ca4795a9d2263", "rental_uris": {"ios": "https://dc.lft.to/lastmile_qr_scan", "android": "https://dc.lft.to/lastmile_qr_scan"}}, {"name": "f7b85526e9a6851bdf62a408ab5a720c", "type": "electric_scooter", "lat": 38.86522016666667, "is_reserved": 0, "lon": -76.9903205, "fusion_lon": 0.0, "is_disabled": 0, "fusion_lat": 0.0, "bike_id": "f7b85526e9a6851bdf62a408ab5a720c", "rental_uris": {"ios": "https://dc.lft.to/lastmile_qr_scan", "android": "https://dc.lft.to/lastmile_qr_scan"}}, {"name": "e7c4183404a75c980a4ed719ea94f613", "type": "electric_scooter", "lat": 38.89534716666667, "is_reserved": 0, "lon": -77.02802366666667, "fusion_lon": 0.0, "is_disabled": 0, "fusion_lat": 0.0, "bike_id": "e7c4183404a75c980a4ed719ea94f613", "rental_uris": {"ios": "https://dc.lft.to/lastmile_qr_scan", "android": "https://dc.lft.to/lastmile_qr_scan"}}, {"name": "a0d943fac239caf935758bab0df9a778", "type": "electric_scooter", "lat": 38.9226825, "is_reserved": 0, "lon": -77.03647033333333, "fusion_lon": 0.0, "is_disabled": 0, "fusion_lat": 0.0, "bike_id": "a0d943fac239caf935758bab0df9a778", "rental_uris": {"ios": "https://dc.lft.to/lastmile_qr_scan", "android": "https://dc.lft.to/lastmile_qr_scan"}}, {"name": "b22033db3c43e2294e26279d0c85f91e", "type": "electric_scooter", "lat": 38.906243333333336, "is_reserved": 0, "lon": -77.0397445, "fusion_lon": 0.0, "is_disabled": 0, "fusion_lat": 0.0, "bike_id": "b22033db3c43e2294e26279d0c85f91e", "rental_uris": {"ios": "https://dc.lft.to/lastmile_qr_scan", "android": "https://dc.lft.to/lastmile_qr_scan"}}, {"name": "d72ded5c3371a717ab0c4a10ffed8119", "type": "electric_scooter", "lat": 38.924819166666666, "is_reserved": 0, "lon": -77.02668733333333, "fusion_lon": 0.0, "is_disabled": 0, "fusion_lat": 0.0, "bike_id": "d72ded5c3371a717ab0c4a10ffed8119", "rental_uris": {"ios": "https://dc.lft.to/lastmile_qr_scan", "android": "https://dc.lft.to/lastmile_qr_scan"}}, {"name": "b3a305ab6fa2b9582b5c348564a73ecd", "type": "electric_scooter", "lat": 38.919402, "is_reserved": 0, "lon": -77.04540616666667, "fusion_lon": 0.0, "is_disabled": 0, "fusion_lat": 0.0, "bike_id": "b3a305ab6fa2b9582b5c348564a73ecd", "rental_uris": {"ios": "https://dc.lft.to/lastmile_qr_scan", "android": "https://dc.lft.to/lastmile_qr_scan"}}, {"name": "4577aa5444e858010a8311b4879cacd9", "type": "electric_scooter", "lat": 38.90569583333333, "is_reserved": 0, "lon": -76.98148, "fusion_lon": 0.0, "is_disabled": 0, "fusion_lat": 0.0, "bike_id": "4577aa5444e858010a8311b4879cacd9", "rental_uris": {"ios": "https://dc.lft.to/lastmile_qr_scan", "android": "https://dc.lft.to/lastmile_qr_scan"}}, {"name": "42b97fce86fd5b1327c4e2e55fb28627", "type": "electric_scooter", "lat": 38.89965266666667, "is_reserved": 0, "lon": -77.02098916666667, "fusion_lon": 0.0, "is_disabled": 0, "fusion_lat": 0.0, "bike_id": "42b97fce86fd5b1327c4e2e55fb28627", "rental_uris": {"ios": "https://dc.lft.to/lastmile_qr_scan", "android": "https://dc.lft.to/lastmile_qr_scan"}}, {"name": "3439ab9b179b3ef44417b86d527c13c2", "type": "electric_scooter", "lat": 38.932891, "is_reserved": 0, "lon": -77.029855, "fusion_lon": 0.0, "is_disabled": 0, "fusion_lat": 0.0, "bike_id": "3439ab9b179b3ef44417b86d527c13c2", "rental_uris": {"ios": "https://dc.lft.to/lastmile_qr_scan", "android": "https://dc.lft.to/lastmile_qr_scan"}}, {"name": "70aaf0853374e70b887a60574fa2373d", "type": "electric_scooter", "lat": 38.90808033333333, "is_reserved": 0, "lon": -77.03841083333333, "fusion_lon": 0.0, "is_disabled": 0, "fusion_lat": 0.0, "bike_id": "70aaf0853374e70b887a60574fa2373d", "rental_uris": {"ios": "https://dc.lft.to/lastmile_qr_scan", "android": "https://dc.lft.to/lastmile_qr_scan"}}, {"name": "ce85572f20967c611d25da3156fb20f4", "type": "electric_scooter", "lat": 38.92718716666667, "is_reserved": 0, "lon": -77.02102466666666, "fusion_lon": 0.0, "is_disabled": 0, "fusion_lat": 0.0, "bike_id": "ce85572f20967c611d25da3156fb20f4", "rental_uris": {"ios": "https://dc.lft.to/lastmile_qr_scan", "android": "https://dc.lft.to/lastmile_qr_scan"}}, {"name": "5d43271b4fd6e0b42d7f0c63bb6ffc4c", "type": "electric_bike", "lat": 39.05638783333333, "is_reserved": 0, "lon": -77.125294, "fusion_lon": 0.0, "is_disabled": 0, "fusion_lat": 0.0, "bike_id": "5d43271b4fd6e0b42d7f0c63bb6ffc4c", "rental_uris": {"ios": "https://dc.lft.to/lastmile_qr_scan", "android": "https://dc.lft.to/lastmile_qr_scan"}}, {"name": "fd71cf6f8e4ee08c770b80675275e892", "type": "electric_scooter", "lat": 38.90872516666667, "is_reserved": 0, "lon": -77.0859465, "fusion_lon": 0.0, "is_disabled": 0, "fusion_lat": 0.0, "bike_id": "fd71cf6f8e4ee08c770b80675275e892", "rental_uris": {"ios": "https://dc.lft.to/lastmile_qr_scan", "android": "https://dc.lft.to/lastmile_qr_scan"}}, {"name": "899cabbcbe448c2f2ff263ee8b599fd5", "type": "electric_scooter", "lat": 38.92853216666666, "is_reserved": 0, "lon": -77.01419266666667, "fusion_lon": 0.0, "is_disabled": 0, "fusion_lat": 0.0, "bike_id": "899cabbcbe448c2f2ff263ee8b599fd5", "rental_uris": {"ios": "https://dc.lft.to/lastmile_qr_scan", "android": "https://dc.lft.to/lastmile_qr_scan"}}, {"name": "9b914c0e90a078c7d651e483bf4b1eff", "type": "electric_scooter", "lat": 38.868339, "is_reserved": 0, "lon": -76.98613883333333, "fusion_lon": 0.0, "is_disabled": 0, "fusion_lat": 0.0, "bike_id": "9b914c0e90a078c7d651e483bf4b1eff", "rental_uris": {"ios": "https://dc.lft.to/lastmile_qr_scan", "android": "https://dc.lft.to/lastmile_qr_scan"}}, {"name": "49203d0caed8b7d562de5cc312d89ad1", "type": "electric_scooter", "lat": 38.90600033333333, "is_reserved": 0, "lon": -77.04887066666667, "fusion_lon": 0.0, "is_disabled": 0, "fusion_lat": 0.0, "bike_id": "49203d0caed8b7d562de5cc312d89ad1", "rental_uris": {"ios": "https://dc.lft.to/lastmile_qr_scan", "android": "https://dc.lft.to/lastmile_qr_scan"}}, {"name": "580bbe79168bc92e4a97ba959a8450ef", "type": "electric_scooter", "lat": 38.88536766666667, "is_reserved": 0, "lon": -77.00581816666667, "fusion_lon": 0.0, "is_disabled": 0, "fusion_lat": 0.0, "bike_id": "580bbe79168bc92e4a97ba959a8450ef", "rental_uris": {"ios": "https://dc.lft.to/lastmile_qr_scan", "android": "https://dc.lft.to/lastmile_qr_scan"}}, {"name": "a3866a78bb60979b68327a3d3f85a992", "type": "electric_scooter", "lat": 38.88294583333333, "is_reserved": 0, "lon": -76.98612566666667, "fusion_lon": 0.0, "is_disabled": 0, "fusion_lat": 0.0, "bike_id": "a3866a78bb60979b68327a3d3f85a992", "rental_uris": {"ios": "https://dc.lft.to/lastmile_qr_scan", "android": "https://dc.lft.to/lastmile_qr_scan"}}, {"name": "d9f76dff87cde868ad6e5dc77d34b70f", "type": "electric_scooter", "lat": 38.91729866666667, "is_reserved": 0, "lon": -77.03662833333334, "fusion_lon": 0.0, "is_disabled": 0, "fusion_lat": 0.0, "bike_id": "d9f76dff87cde868ad6e5dc77d34b70f", "rental_uris": {"ios": "https://dc.lft.to/lastmile_qr_scan", "android": "https://dc.lft.to/lastmile_qr_scan"}}, {"name": "d650cbfe1eb745c1b0fc41734bd815a0", "type": "electric_scooter", "lat": 38.917966666666665, "is_reserved": 0, "lon": -77.02309383333333, "fusion_lon": 0.0, "is_disabled": 0, "fusion_lat": 0.0, "bike_id": "d650cbfe1eb745c1b0fc41734bd815a0", "rental_uris": {"ios": "https://dc.lft.to/lastmile_qr_scan", "android": "https://dc.lft.to/lastmile_qr_scan"}}, {"name": "517a0791c5a8b85ceb6b7be646eb0581", "type": "electric_scooter", "lat": 38.8902835, "is_reserved": 0, "lon": -76.93690616666666, "fusion_lon": 0.0, "is_disabled": 0, "fusion_lat": 0.0, "bike_id": "517a0791c5a8b85ceb6b7be646eb0581", "rental_uris": {"ios": "https://dc.lft.to/lastmile_qr_scan", "android": "https://dc.lft.to/lastmile_qr_scan"}}, {"name": "aab038245c987e09edc4a34c0a4d9312", "type": "electric_scooter", "lat": 38.92351883333333, "is_reserved": 0, "lon": -77.034786, "fusion_lon": 0.0, "is_disabled": 0, "fusion_lat": 0.0, "bike_id": "aab038245c987e09edc4a34c0a4d9312", "rental_uris": {"ios": "https://dc.lft.to/lastmile_qr_scan", "android": "https://dc.lft.to/lastmile_qr_scan"}}, {"name": "d36fa4a2a30051b33c1c5c1c89d7435e", "type": "electric_bike", "lat": 38.898182166666665, "is_reserved": 0, "lon": -76.990738, "fusion_lon": 0.0, "is_disabled": 0, "fusion_lat": 0.0, "bike_id": "d36fa4a2a30051b33c1c5c1c89d7435e", "rental_uris": {"ios": "https://dc.lft.to/lastmile_qr_scan", "android": "https://dc.lft.to/lastmile_qr_scan"}}, {"name": "7044b6a4d4b5b6ecbb6050c1abb0df7b", "type": "electric_scooter", "lat": 38.909057, "is_reserved": 0, "lon": -77.08621966666666, "fusion_lon": 0.0, "is_disabled": 0, "fusion_lat": 0.0, "bike_id": "7044b6a4d4b5b6ecbb6050c1abb0df7b", "rental_uris": {"ios": "https://dc.lft.to/lastmile_qr_scan", "android": "https://dc.lft.to/lastmile_qr_scan"}}, {"name": "86c847d389cc7f15886df2400622bd4f", "type": "electric_bike", "lat": 38.880094666666665, "is_reserved": 0, "lon": -76.915963, "fusion_lon": 0.0, "is_disabled": 0, "fusion_lat": 0.0, "bike_id": "86c847d389cc7f15886df2400622bd4f", "rental_uris": {"ios": "https://dc.lft.to/lastmile_qr_scan", "android": "https://dc.lft.to/lastmile_qr_scan"}}, {"name": "a81c2e3b0e3dc4929a83dff0683b6d2a", "type": "electric_bike", "lat": 38.95630033333333, "is_reserved": 0, "lon": -76.93879166666666, "fusion_lon": 0.0, "is_disabled": 0, "fusion_lat": 0.0, "bike_id": "a81c2e3b0e3dc4929a83dff0683b6d2a", "rental_uris": {"ios": "https://dc.lft.to/lastmile_qr_scan", "android": "https://dc.lft.to/lastmile_qr_scan"}}, {"name": "181964312431c6e2cc1bdcdeefcffeac", "type": "electric_scooter", "lat": 38.9223955, "is_reserved": 0, "lon": -77.04144083333334, "fusion_lon": 0.0, "is_disabled": 0, "fusion_lat": 0.0, "bike_id": "181964312431c6e2cc1bdcdeefcffeac", "rental_uris": {"ios": "https://dc.lft.to/lastmile_qr_scan", "android": "https://dc.lft.to/lastmile_qr_scan"}}, {"name": "e277559d4ba3002b3f9ed7e820cc2ef1", "type": "electric_bike", "lat": 38.824502, "is_reserved": 0, "lon": -77.07045016666666, "fusion_lon": 0.0, "is_disabled": 0, "fusion_lat": 0.0, "bike_id": "e277559d4ba3002b3f9ed7e820cc2ef1", "rental_uris": {"ios": "https://dc.lft.to/lastmile_qr_scan", "android": "https://dc.lft.to/lastmile_qr_scan"}}, {"name": "31af07258246f3dcf944e3a43c738f98", "type": "electric_bike", "lat": 38.9186435, "is_reserved": 0, "lon": -76.96089533333334, "fusion_lon": 0.0, "is_disabled": 0, "fusion_lat": 0.0, "bike_id": "31af07258246f3dcf944e3a43c738f98", "rental_uris": {"ios": "https://dc.lft.to/lastmile_qr_scan", "android": "https://dc.lft.to/lastmile_qr_scan"}}, {"name": "02334bc29085037f5fdca8a99380329f", "type": "electric_scooter", "lat": 38.90289716666667, "is_reserved": 0, "lon": -77.036672, "fusion_lon": 0.0, "is_disabled": 0, "fusion_lat": 0.0, "bike_id": "02334bc29085037f5fdca8a99380329f", "rental_uris": {"ios": "https://dc.lft.to/lastmile_qr_scan", "android": "https://dc.lft.to/lastmile_qr_scan"}}, {"name": "8716a0d25075513fee825e8ca030561d", "type": "electric_scooter", "lat": 38.92324133333334, "is_reserved": 0, "lon": -77.044856, "fusion_lon": 0.0, "is_disabled": 0, "fusion_lat": 0.0, "bike_id": "8716a0d25075513fee825e8ca030561d", "rental_uris": {"ios": "https://dc.lft.to/lastmile_qr_scan", "android": "https://dc.lft.to/lastmile_qr_scan"}}, {"name": "fc96165919bc45b83e8b3475a724eb94", "type": "electric_scooter", "lat": 38.921583166666665, "is_reserved": 0, "lon": -77.03459383333333, "fusion_lon": 0.0, "is_disabled": 0, "fusion_lat": 0.0, "bike_id": "fc96165919bc45b83e8b3475a724eb94", "rental_uris": {"ios": "https://dc.lft.to/lastmile_qr_scan", "android": "https://dc.lft.to/lastmile_qr_scan"}}, {"name": "9b2bb29d6550e26f8a3299e08ac59f2e", "type": "electric_bike", "lat": 38.9067415, "is_reserved": 0, "lon": -76.9995985, "fusion_lon": 0.0, "is_disabled": 0, "fusion_lat": 0.0, "bike_id": "9b2bb29d6550e26f8a3299e08ac59f2e", "rental_uris": {"ios": "https://dc.lft.to/lastmile_qr_scan", "android": "https://dc.lft.to/lastmile_qr_scan"}}, {"name": "6b8ffa3b3cc20097a1af1bc4f256b009", "type": "electric_scooter", "lat": 38.892498333333336, "is_reserved": 0, "lon": -77.032086, "fusion_lon": 0.0, "is_disabled": 0, "fusion_lat": 0.0, "bike_id": "6b8ffa3b3cc20097a1af1bc4f256b009", "rental_uris": {"ios": "https://dc.lft.to/lastmile_qr_scan", "android": "https://dc.lft.to/lastmile_qr_scan"}}, {"name": "c3b98baa08517509fedb077e3e86e45e", "type": "electric_bike", "lat": 38.802296166666665, "is_reserved": 0, "lon": -77.07916916666667, "fusion_lon": 0.0, "is_disabled": 0, "fusion_lat": 0.0, "bike_id": "c3b98baa08517509fedb077e3e86e45e", "rental_uris": {"ios": "https://dc.lft.to/lastmile_qr_scan", "android": "https://dc.lft.to/lastmile_qr_scan"}}, {"name": "874075fe4143b182c95d77994337c378", "type": "electric_scooter", "lat": 38.9014575, "is_reserved": 0, "lon": -77.033104, "fusion_lon": 0.0, "is_disabled": 0, "fusion_lat": 0.0, "bike_id": "874075fe4143b182c95d77994337c378", "rental_uris": {"ios": "https://dc.lft.to/lastmile_qr_scan", "android": "https://dc.lft.to/lastmile_qr_scan"}}, {"name": "3a7319caccd8aff6dc3773ae027d0c5a", "type": "electric_scooter", "lat": 38.90977566666667, "is_reserved": 0, "lon": -77.03302016666666, "fusion_lon": 0.0, "is_disabled": 0, "fusion_lat": 0.0, "bike_id": "3a7319caccd8aff6dc3773ae027d0c5a", "rental_uris": {"ios": "https://dc.lft.to/lastmile_qr_scan", "android": "https://dc.lft.to/lastmile_qr_scan"}}, {"name": "367e2606793a66bc1eac17b93dfafb22", "type": "electric_scooter", "lat": 38.909666333333334, "is_reserved": 0, "lon": -77.00769916666667, "fusion_lon": 0.0, "is_disabled": 0, "fusion_lat": 0.0, "bike_id": "367e2606793a66bc1eac17b93dfafb22", "rental_uris": {"ios": "https://dc.lft.to/lastmile_qr_scan", "android": "https://dc.lft.to/lastmile_qr_scan"}}, {"name": "241c87ab6e78abff6220d3722c027a7a", "type": "electric_scooter", "lat": 38.932074, "is_reserved": 0, "lon": -77.03883466666667, "fusion_lon": 0.0, "is_disabled": 0, "fusion_lat": 0.0, "bike_id": "241c87ab6e78abff6220d3722c027a7a", "rental_uris": {"ios": "https://dc.lft.to/lastmile_qr_scan", "android": "https://dc.lft.to/lastmile_qr_scan"}}, {"name": "a95117d5e008bd5f62e9bef81cb28053", "type": "electric_scooter", "lat": 38.9295555, "is_reserved": 0, "lon": -77.04401766666666, "fusion_lon": 0.0, "is_disabled": 0, "fusion_lat": 0.0, "bike_id": "a95117d5e008bd5f62e9bef81cb28053", "rental_uris": {"ios": "https://dc.lft.to/lastmile_qr_scan", "android": "https://dc.lft.to/lastmile_qr_scan"}}, {"name": "7a54de7e9beed03adca1333ca3f9af4a", "type": "electric_scooter", "lat": 38.906495166666666, "is_reserved": 0, "lon": -77.03909283333333, "fusion_lon": 0.0, "is_disabled": 0, "fusion_lat": 0.0, "bike_id": "7a54de7e9beed03adca1333ca3f9af4a", "rental_uris": {"ios": "https://dc.lft.to/lastmile_qr_scan", "android": "https://dc.lft.to/lastmile_qr_scan"}}, {"name": "36c230939e71a169c6745b8ef627d531", "type": "electric_scooter", "lat": 38.891965166666665, "is_reserved": 0, "lon": -77.045879, "fusion_lon": 0.0, "is_disabled": 0, "fusion_lat": 0.0, "bike_id": "36c230939e71a169c6745b8ef627d531", "rental_uris": {"ios": "https://dc.lft.to/lastmile_qr_scan", "android": "https://dc.lft.to/lastmile_qr_scan"}}, {"name": "856519c06e2f12d8ee4cbe9a5819dfc0", "type": "electric_scooter", "lat": 38.901069166666666, "is_reserved": 0, "lon": -77.02107483333333, "fusion_lon": 0.0, "is_disabled": 0, "fusion_lat": 0.0, "bike_id": "856519c06e2f12d8ee4cbe9a5819dfc0", "rental_uris": {"ios": "https://dc.lft.to/lastmile_qr_scan", "android": "https://dc.lft.to/lastmile_qr_scan"}}, {"name": "b54b8ce7f92dd9cfebb0e688a4732765", "type": "electric_scooter", "lat": 38.94418666666667, "is_reserved": 0, "lon": -77.05516466666667, "fusion_lon": 0.0, "is_disabled": 0, "fusion_lat": 0.0, "bike_id": "b54b8ce7f92dd9cfebb0e688a4732765", "rental_uris": {"ios": "https://dc.lft.to/lastmile_qr_scan", "android": "https://dc.lft.to/lastmile_qr_scan"}}, {"name": "341845595eee6ce4e52300f68893a341", "type": "electric_bike", "lat": 38.9069645, "is_reserved": 0, "lon": -76.9519, "fusion_lon": 0.0, "is_disabled": 0, "fusion_lat": 0.0, "bike_id": "341845595eee6ce4e52300f68893a341", "rental_uris": {"ios": "https://dc.lft.to/lastmile_qr_scan", "android": "https://dc.lft.to/lastmile_qr_scan"}}, {"name": "689e86e198d60b8067703249716ab5d4", "type": "electric_scooter", "lat": 38.905761166666665, "is_reserved": 0, "lon": -77.04536616666667, "fusion_lon": 0.0, "is_disabled": 0, "fusion_lat": 0.0, "bike_id": "689e86e198d60b8067703249716ab5d4", "rental_uris": {"ios": "https://dc.lft.to/lastmile_qr_scan", "android": "https://dc.lft.to/lastmile_qr_scan"}}, {"name": "6b36ea0f15654cf0c6485a6ee13a61ad", "type": "electric_scooter", "lat": 38.903889, "is_reserved": 0, "lon": -77.04469166666667, "fusion_lon": 0.0, "is_disabled": 0, "fusion_lat": 0.0, "bike_id": "6b36ea0f15654cf0c6485a6ee13a61ad", "rental_uris": {"ios": "https://dc.lft.to/lastmile_qr_scan", "android": "https://dc.lft.to/lastmile_qr_scan"}}, {"name": "452252ab46dfcb036853bb9f08f8d1f4", "type": "electric_scooter", "lat": 38.91707916666667, "is_reserved": 0, "lon": -77.0312275, "fusion_lon": 0.0, "is_disabled": 0, "fusion_lat": 0.0, "bike_id": "452252ab46dfcb036853bb9f08f8d1f4", "rental_uris": {"ios": "https://dc.lft.to/lastmile_qr_scan", "android": "https://dc.lft.to/lastmile_qr_scan"}}, {"name": "89c714440d092b3c5d77e11da8cef906", "type": "electric_scooter", "lat": 38.91403833333333, "is_reserved": 0, "lon": -77.00838833333333, "fusion_lon": 0.0, "is_disabled": 0, "fusion_lat": 0.0, "bike_id": "89c714440d092b3c5d77e11da8cef906", "rental_uris": {"ios": "https://dc.lft.to/lastmile_qr_scan", "android": "https://dc.lft.to/lastmile_qr_scan"}}, {"name": "53808f5b1588419a6f2310f9f8d0c9f6", "type": "electric_scooter", "lat": 38.913621666666664, "is_reserved": 0, "lon": -77.0175365, "fusion_lon": 0.0, "is_disabled": 0, "fusion_lat": 0.0, "bike_id": "53808f5b1588419a6f2310f9f8d0c9f6", "rental_uris": {"ios": "https://dc.lft.to/lastmile_qr_scan", "android": "https://dc.lft.to/lastmile_qr_scan"}}, {"name": "7b2f339ded8db078c2a5d0d0feb5fa6a", "type": "electric_scooter", "lat": 38.92245116666667, "is_reserved": 0, "lon": -77.03085133333333, "fusion_lon": 0.0, "is_disabled": 0, "fusion_lat": 0.0, "bike_id": "7b2f339ded8db078c2a5d0d0feb5fa6a", "rental_uris": {"ios": "https://dc.lft.to/lastmile_qr_scan", "android": "https://dc.lft.to/lastmile_qr_scan"}}, {"name": "fc2f67936a01f20ea2f4cec7e819fd62", "type": "electric_scooter", "lat": 38.90507216666666, "is_reserved": 0, "lon": -76.99013766666667, "fusion_lon": 0.0, "is_disabled": 0, "fusion_lat": 0.0, "bike_id": "fc2f67936a01f20ea2f4cec7e819fd62", "rental_uris": {"ios": "https://dc.lft.to/lastmile_qr_scan", "android": "https://dc.lft.to/lastmile_qr_scan"}}, {"name": "3f4b493de05c32e7b30bfff33647cae1", "type": "electric_scooter", "lat": 38.90424516666667, "is_reserved": 0, "lon": -77.03280033333333, "fusion_lon": 0.0, "is_disabled": 0, "fusion_lat": 0.0, "bike_id": "3f4b493de05c32e7b30bfff33647cae1", "rental_uris": {"ios": "https://dc.lft.to/lastmile_qr_scan", "android": "https://dc.lft.to/lastmile_qr_scan"}}, {"name": "fbb04896077f1f9ee1adb69ca4ce21b6", "type": "electric_scooter", "lat": 38.8850465, "is_reserved": 0, "lon": -77.00566616666667, "fusion_lon": 0.0, "is_disabled": 0, "fusion_lat": 0.0, "bike_id": "fbb04896077f1f9ee1adb69ca4ce21b6", "rental_uris": {"ios": "https://dc.lft.to/lastmile_qr_scan", "android": "https://dc.lft.to/lastmile_qr_scan"}}, {"name": "5614127e37deb00a05a968913b3f03b9", "type": "electric_scooter", "lat": 38.895038, "is_reserved": 0, "lon": -77.01101533333333, "fusion_lon": 0.0, "is_disabled": 0, "fusion_lat": 0.0, "bike_id": "5614127e37deb00a05a968913b3f03b9", "rental_uris": {"ios": "https://dc.lft.to/lastmile_qr_scan", "android": "https://dc.lft.to/lastmile_qr_scan"}}, {"name": "12a5ea643fbffb331abd60e0ff4f09ed", "type": "electric_scooter", "lat": 38.90059816666667, "is_reserved": 0, "lon": -77.03208983333333, "fusion_lon": 0.0, "is_disabled": 0, "fusion_lat": 0.0, "bike_id": "12a5ea643fbffb331abd60e0ff4f09ed", "rental_uris": {"ios": "https://dc.lft.to/lastmile_qr_scan", "android": "https://dc.lft.to/lastmile_qr_scan"}}, {"name": "7dc6848e01bb3010cbd5f2752bc6bfc4", "type": "electric_scooter", "lat": 38.959338333333335, "is_reserved": 0, "lon": -77.03125933333334, "fusion_lon": 0.0, "is_disabled": 0, "fusion_lat": 0.0, "bike_id": "7dc6848e01bb3010cbd5f2752bc6bfc4", "rental_uris": {"ios": "https://dc.lft.to/lastmile_qr_scan", "android": "https://dc.lft.to/lastmile_qr_scan"}}, {"name": "22eeec95b2e8092a104253ed16262450", "type": "electric_bike", "lat": 38.850713166666665, "is_reserved": 0, "lon": -76.973403, "fusion_lon": 0.0, "is_disabled": 0, "fusion_lat": 0.0, "bike_id": "22eeec95b2e8092a104253ed16262450", "rental_uris": {"ios": "https://dc.lft.to/lastmile_qr_scan", "android": "https://dc.lft.to/lastmile_qr_scan"}}, {"name": "7637afe4fdc58816fda38db05bef03e2", "type": "electric_scooter", "lat": 38.906536833333334, "is_reserved": 0, "lon": -77.03666233333334, "fusion_lon": 0.0, "is_disabled": 0, "fusion_lat": 0.0, "bike_id": "7637afe4fdc58816fda38db05bef03e2", "rental_uris": {"ios": "https://dc.lft.to/lastmile_qr_scan", "android": "https://dc.lft.to/lastmile_qr_scan"}}, {"name": "4b09beeb050a259e8986ef78f5d45a7d", "type": "electric_scooter", "lat": 38.91740816666667, "is_reserved": 0, "lon": -77.0211835, "fusion_lon": 0.0, "is_disabled": 0, "fusion_lat": 0.0, "bike_id": "4b09beeb050a259e8986ef78f5d45a7d", "rental_uris": {"ios": "https://dc.lft.to/lastmile_qr_scan", "android": "https://dc.lft.to/lastmile_qr_scan"}}, {"name": "4ffe2983699bc645ae0d713068f868f6", "type": "electric_scooter", "lat": 38.90373683333333, "is_reserved": 0, "lon": -77.04482, "fusion_lon": 0.0, "is_disabled": 0, "fusion_lat": 0.0, "bike_id": "4ffe2983699bc645ae0d713068f868f6", "rental_uris": {"ios": "https://dc.lft.to/lastmile_qr_scan", "android": "https://dc.lft.to/lastmile_qr_scan"}}, {"name": "100bc8214ca713f5ff58e76c57bea125", "type": "electric_scooter", "lat": 38.9058095, "is_reserved": 0, "lon": -77.02980666666667, "fusion_lon": 0.0, "is_disabled": 0, "fusion_lat": 0.0, "bike_id": "100bc8214ca713f5ff58e76c57bea125", "rental_uris": {"ios": "https://dc.lft.to/lastmile_qr_scan", "android": "https://dc.lft.to/lastmile_qr_scan"}}, {"name": "2f5636dc5580c296fd4049f8696fb08c", "type": "electric_scooter", "lat": 38.951026666666664, "is_reserved": 0, "lon": -77.01575716666666, "fusion_lon": 0.0, "is_disabled": 0, "fusion_lat": 0.0, "bike_id": "2f5636dc5580c296fd4049f8696fb08c", "rental_uris": {"ios": "https://dc.lft.to/lastmile_qr_scan", "android": "https://dc.lft.to/lastmile_qr_scan"}}, {"name": "670d865b209c5b79d5e6d3ffb6d46379", "type": "electric_scooter", "lat": 38.90373366666667, "is_reserved": 0, "lon": -77.040158, "fusion_lon": 0.0, "is_disabled": 0, "fusion_lat": 0.0, "bike_id": "670d865b209c5b79d5e6d3ffb6d46379", "rental_uris": {"ios": "https://dc.lft.to/lastmile_qr_scan", "android": "https://dc.lft.to/lastmile_qr_scan"}}, {"name": "4fd40f4b83dc3fc7b175976865412999", "type": "electric_scooter", "lat": 38.94015183333333, "is_reserved": 0, "lon": -77.07169583333334, "fusion_lon": 0.0, "is_disabled": 0, "fusion_lat": 0.0, "bike_id": "4fd40f4b83dc3fc7b175976865412999", "rental_uris": {"ios": "https://dc.lft.to/lastmile_qr_scan", "android": "https://dc.lft.to/lastmile_qr_scan"}}, {"name": "d4c2805e4c143e8343d9564922b37038", "type": "electric_scooter", "lat": 38.8948195, "is_reserved": 0, "lon": -76.98599516666667, "fusion_lon": 0.0, "is_disabled": 0, "fusion_lat": 0.0, "bike_id": "d4c2805e4c143e8343d9564922b37038", "rental_uris": {"ios": "https://dc.lft.to/lastmile_qr_scan", "android": "https://dc.lft.to/lastmile_qr_scan"}}, {"name": "898d9622b42903a0a774bbd713ce06d4", "type": "electric_scooter", "lat": 38.910440333333334, "is_reserved": 0, "lon": -77.04358633333334, "fusion_lon": 0.0, "is_disabled": 0, "fusion_lat": 0.0, "bike_id": "898d9622b42903a0a774bbd713ce06d4", "rental_uris": {"ios": "https://dc.lft.to/lastmile_qr_scan", "android": "https://dc.lft.to/lastmile_qr_scan"}}, {"name": "92ee58f272490a90242f23a8ac2f94e4", "type": "electric_scooter", "lat": 38.916989, "is_reserved": 0, "lon": -77.00812933333333, "fusion_lon": 0.0, "is_disabled": 0, "fusion_lat": 0.0, "bike_id": "92ee58f272490a90242f23a8ac2f94e4", "rental_uris": {"ios": "https://dc.lft.to/lastmile_qr_scan", "android": "https://dc.lft.to/lastmile_qr_scan"}}, {"name": "eac663dec73c10fe035428ff71caf57c", "type": "electric_scooter", "lat": 38.90530316666667, "is_reserved": 0, "lon": -77.03456166666666, "fusion_lon": 0.0, "is_disabled": 0, "fusion_lat": 0.0, "bike_id": "eac663dec73c10fe035428ff71caf57c", "rental_uris": {"ios": "https://dc.lft.to/lastmile_qr_scan", "android": "https://dc.lft.to/lastmile_qr_scan"}}, {"name": "574261d1ae7cdaf5fe75132de3c389f4", "type": "electric_scooter", "lat": 38.907297666666665, "is_reserved": 0, "lon": -76.98600466666667, "fusion_lon": 0.0, "is_disabled": 0, "fusion_lat": 0.0, "bike_id": "574261d1ae7cdaf5fe75132de3c389f4", "rental_uris": {"ios": "https://dc.lft.to/lastmile_qr_scan", "android": "https://dc.lft.to/lastmile_qr_scan"}}, {"name": "7a963fc6282cc4d95aa7c1e764a3c8cf", "type": "electric_scooter", "lat": 38.944917333333336, "is_reserved": 0, "lon": -77.06380566666667, "fusion_lon": 0.0, "is_disabled": 0, "fusion_lat": 0.0, "bike_id": "7a963fc6282cc4d95aa7c1e764a3c8cf", "rental_uris": {"ios": "https://dc.lft.to/lastmile_qr_scan", "android": "https://dc.lft.to/lastmile_qr_scan"}}, {"name": "6a608d54f786171e0073decb677704a8", "type": "electric_scooter", "lat": 38.915585666666665, "is_reserved": 0, "lon": -77.03934366666667, "fusion_lon": 0.0, "is_disabled": 0, "fusion_lat": 0.0, "bike_id": "6a608d54f786171e0073decb677704a8", "rental_uris": {"ios": "https://dc.lft.to/lastmile_qr_scan", "android": "https://dc.lft.to/lastmile_qr_scan"}}, {"name": "a980e6592ea03fd2e4a82ce58bbe58ce", "type": "electric_scooter", "lat": 38.92520733333333, "is_reserved": 0, "lon": -77.03326566666667, "fusion_lon": 0.0, "is_disabled": 0, "fusion_lat": 0.0, "bike_id": "a980e6592ea03fd2e4a82ce58bbe58ce", "rental_uris": {"ios": "https://dc.lft.to/lastmile_qr_scan", "android": "https://dc.lft.to/lastmile_qr_scan"}}, {"name": "657a37d0af7a57004fa8b3f0719c6c83", "type": "electric_scooter", "lat": 38.89225116666667, "is_reserved": 0, "lon": -77.04334516666667, "fusion_lon": 0.0, "is_disabled": 0, "fusion_lat": 0.0, "bike_id": "657a37d0af7a57004fa8b3f0719c6c83", "rental_uris": {"ios": "https://dc.lft.to/lastmile_qr_scan", "android": "https://dc.lft.to/lastmile_qr_scan"}}, {"name": "feebee343c4bc621776d9bc1699ce0f4", "type": "electric_scooter", "lat": 38.866593, "is_reserved": 0, "lon": -76.98883433333333, "fusion_lon": 0.0, "is_disabled": 0, "fusion_lat": 0.0, "bike_id": "feebee343c4bc621776d9bc1699ce0f4", "rental_uris": {"ios": "https://dc.lft.to/lastmile_qr_scan", "android": "https://dc.lft.to/lastmile_qr_scan"}}, {"name": "dfeaed78dfa08b50ab712207a442f751", "type": "electric_scooter", "lat": 38.90619383333333, "is_reserved": 0, "lon": -77.0749325, "fusion_lon": 0.0, "is_disabled": 0, "fusion_lat": 0.0, "bike_id": "dfeaed78dfa08b50ab712207a442f751", "rental_uris": {"ios": "https://dc.lft.to/lastmile_qr_scan", "android": "https://dc.lft.to/lastmile_qr_scan"}}, {"name": "e02be3c6f432f8fa06154e7e2b16ed9d", "type": "electric_scooter", "lat": 38.925173666666666, "is_reserved": 0, "lon": -77.00178266666667, "fusion_lon": 0.0, "is_disabled": 0, "fusion_lat": 0.0, "bike_id": "e02be3c6f432f8fa06154e7e2b16ed9d", "rental_uris": {"ios": "https://dc.lft.to/lastmile_qr_scan", "android": "https://dc.lft.to/lastmile_qr_scan"}}, {"name": "a15bd115152174a9f4eeb7f55527f556", "type": "electric_scooter", "lat": 38.896147666666664, "is_reserved": 0, "lon": -77.00925483333333, "fusion_lon": 0.0, "is_disabled": 0, "fusion_lat": 0.0, "bike_id": "a15bd115152174a9f4eeb7f55527f556", "rental_uris": {"ios": "https://dc.lft.to/lastmile_qr_scan", "android": "https://dc.lft.to/lastmile_qr_scan"}}, {"name": "1c7e3b5ccc0f55a4685348ae2a3467bf", "type": "electric_scooter", "lat": 38.92032583333334, "is_reserved": 0, "lon": -77.0387025, "fusion_lon": 0.0, "is_disabled": 0, "fusion_lat": 0.0, "bike_id": "1c7e3b5ccc0f55a4685348ae2a3467bf", "rental_uris": {"ios": "https://dc.lft.to/lastmile_qr_scan", "android": "https://dc.lft.to/lastmile_qr_scan"}}, {"name": "0cd972848342cd11485299b65df8fd6f", "type": "electric_scooter", "lat": 38.883736, "is_reserved": 0, "lon": -76.92374633333333, "fusion_lon": 0.0, "is_disabled": 0, "fusion_lat": 0.0, "bike_id": "0cd972848342cd11485299b65df8fd6f", "rental_uris": {"ios": "https://dc.lft.to/lastmile_qr_scan", "android": "https://dc.lft.to/lastmile_qr_scan"}}, {"name": "8716ffc5be3c22e4b18444873d43dcad", "type": "electric_scooter", "lat": 38.90113383333333, "is_reserved": 0, "lon": -77.04222733333333, "fusion_lon": 0.0, "is_disabled": 0, "fusion_lat": 0.0, "bike_id": "8716ffc5be3c22e4b18444873d43dcad", "rental_uris": {"ios": "https://dc.lft.to/lastmile_qr_scan", "android": "https://dc.lft.to/lastmile_qr_scan"}}, {"name": "8d7e1de845f5c0144c97dab1fa3ec314", "type": "electric_scooter", "lat": 38.92745583333333, "is_reserved": 0, "lon": -77.01629983333333, "fusion_lon": 0.0, "is_disabled": 0, "fusion_lat": 0.0, "bike_id": "8d7e1de845f5c0144c97dab1fa3ec314", "rental_uris": {"ios": "https://dc.lft.to/lastmile_qr_scan", "android": "https://dc.lft.to/lastmile_qr_scan"}}, {"name": "837f55e46645295e8574c5e2f5a63a03", "type": "electric_scooter", "lat": 38.923651166666666, "is_reserved": 0, "lon": -77.058406, "fusion_lon": 0.0, "is_disabled": 0, "fusion_lat": 0.0, "bike_id": "837f55e46645295e8574c5e2f5a63a03", "rental_uris": {"ios": "https://dc.lft.to/lastmile_qr_scan", "android": "https://dc.lft.to/lastmile_qr_scan"}}, {"name": "f447014a37465add1f25d275501bf4fe", "type": "electric_scooter", "lat": 38.8946965, "is_reserved": 0, "lon": -77.0307745, "fusion_lon": 0.0, "is_disabled": 0, "fusion_lat": 0.0, "bike_id": "f447014a37465add1f25d275501bf4fe", "rental_uris": {"ios": "https://dc.lft.to/lastmile_qr_scan", "android": "https://dc.lft.to/lastmile_qr_scan"}}, {"name": "4c1fb088858c6b92f8983ff7178762c3", "type": "electric_scooter", "lat": 38.88501466666666, "is_reserved": 0, "lon": -77.00896216666666, "fusion_lon": 0.0, "is_disabled": 0, "fusion_lat": 0.0, "bike_id": "4c1fb088858c6b92f8983ff7178762c3", "rental_uris": {"ios": "https://dc.lft.to/lastmile_qr_scan", "android": "https://dc.lft.to/lastmile_qr_scan"}}, {"name": "ff6594782d3dff5f9e0ddb0b4859bc08", "type": "electric_scooter", "lat": 38.90734466666667, "is_reserved": 0, "lon": -77.03449566666667, "fusion_lon": 0.0, "is_disabled": 0, "fusion_lat": 0.0, "bike_id": "ff6594782d3dff5f9e0ddb0b4859bc08", "rental_uris": {"ios": "https://dc.lft.to/lastmile_qr_scan", "android": "https://dc.lft.to/lastmile_qr_scan"}}, {"name": "a723f887cdd8ec77d6cc50994d0a5762", "type": "electric_scooter", "lat": 38.912231, "is_reserved": 0, "lon": -77.07595, "fusion_lon": 0.0, "is_disabled": 0, "fusion_lat": 0.0, "bike_id": "a723f887cdd8ec77d6cc50994d0a5762", "rental_uris": {"ios": "https://dc.lft.to/lastmile_qr_scan", "android": "https://dc.lft.to/lastmile_qr_scan"}}, {"name": "0e89bcb88d0b22ff204a5c19c10bad2f", "type": "electric_scooter", "lat": 38.928766833333334, "is_reserved": 0, "lon": -77.03290083333333, "fusion_lon": 0.0, "is_disabled": 0, "fusion_lat": 0.0, "bike_id": "0e89bcb88d0b22ff204a5c19c10bad2f", "rental_uris": {"ios": "https://dc.lft.to/lastmile_qr_scan", "android": "https://dc.lft.to/lastmile_qr_scan"}}, {"name": "8c8f878d09844e7f22d5cba9fa1b9e42", "type": "electric_scooter", "lat": 38.9390875, "is_reserved": 0, "lon": -77.07727866666667, "fusion_lon": 0.0, "is_disabled": 0, "fusion_lat": 0.0, "bike_id": "8c8f878d09844e7f22d5cba9fa1b9e42", "rental_uris": {"ios": "https://dc.lft.to/lastmile_qr_scan", "android": "https://dc.lft.to/lastmile_qr_scan"}}, {"name": "322276f2c746c8db0918c2110c7c0e9e", "type": "electric_scooter", "lat": 38.9060755, "is_reserved": 0, "lon": -77.04037683333334, "fusion_lon": 0.0, "is_disabled": 0, "fusion_lat": 0.0, "bike_id": "322276f2c746c8db0918c2110c7c0e9e", "rental_uris": {"ios": "https://dc.lft.to/lastmile_qr_scan", "android": "https://dc.lft.to/lastmile_qr_scan"}}, {"name": "055f02a11d8dd760e047f5b3fd7b9264", "type": "electric_scooter", "lat": 38.93379216666666, "is_reserved": 0, "lon": -77.03466966666667, "fusion_lon": 0.0, "is_disabled": 0, "fusion_lat": 0.0, "bike_id": "055f02a11d8dd760e047f5b3fd7b9264", "rental_uris": {"ios": "https://dc.lft.to/lastmile_qr_scan", "android": "https://dc.lft.to/lastmile_qr_scan"}}, {"name": "cfc7af3fe83957681309b7e91739e0b0", "type": "electric_bike", "lat": 38.948351833333334, "is_reserved": 0, "lon": -77.039007, "fusion_lon": 0.0, "is_disabled": 0, "fusion_lat": 0.0, "bike_id": "cfc7af3fe83957681309b7e91739e0b0", "rental_uris": {"ios": "https://dc.lft.to/lastmile_qr_scan", "android": "https://dc.lft.to/lastmile_qr_scan"}}, {"name": "c701f43ec996b037abf4c447a7323afb", "type": "electric_scooter", "lat": 38.9121825, "is_reserved": 0, "lon": -77.04480483333333, "fusion_lon": 0.0, "is_disabled": 0, "fusion_lat": 0.0, "bike_id": "c701f43ec996b037abf4c447a7323afb", "rental_uris": {"ios": "https://dc.lft.to/lastmile_qr_scan", "android": "https://dc.lft.to/lastmile_qr_scan"}}, {"name": "9035642d2874d565b2ad870b6ca2e7e4", "type": "electric_scooter", "lat": 38.89724416666667, "is_reserved": 0, "lon": -77.02706066666667, "fusion_lon": 0.0, "is_disabled": 0, "fusion_lat": 0.0, "bike_id": "9035642d2874d565b2ad870b6ca2e7e4", "rental_uris": {"ios": "https://dc.lft.to/lastmile_qr_scan", "android": "https://dc.lft.to/lastmile_qr_scan"}}, {"name": "21cae16860296cff67d1d8f72f335fe6", "type": "electric_scooter", "lat": 38.89484383333333, "is_reserved": 0, "lon": -76.948722, "fusion_lon": 0.0, "is_disabled": 0, "fusion_lat": 0.0, "bike_id": "21cae16860296cff67d1d8f72f335fe6", "rental_uris": {"ios": "https://dc.lft.to/lastmile_qr_scan", "android": "https://dc.lft.to/lastmile_qr_scan"}}, {"name": "acebc16fa7ce1cd28c63ef404d069249", "type": "electric_scooter", "lat": 38.924924, "is_reserved": 0, "lon": -77.02717583333333, "fusion_lon": 0.0, "is_disabled": 0, "fusion_lat": 0.0, "bike_id": "acebc16fa7ce1cd28c63ef404d069249", "rental_uris": {"ios": "https://dc.lft.to/lastmile_qr_scan", "android": "https://dc.lft.to/lastmile_qr_scan"}}, {"name": "29ee81d5137f40652a9b96f5691b55f8", "type": "electric_scooter", "lat": 38.9287885, "is_reserved": 0, "lon": -77.01389816666666, "fusion_lon": 0.0, "is_disabled": 0, "fusion_lat": 0.0, "bike_id": "29ee81d5137f40652a9b96f5691b55f8", "rental_uris": {"ios": "https://dc.lft.to/lastmile_qr_scan", "android": "https://dc.lft.to/lastmile_qr_scan"}}, {"name": "564d73ca7ac17ae5fb7c5b1e6d1f6073", "type": "electric_scooter", "lat": 38.9060535, "is_reserved": 0, "lon": -77.05109516666667, "fusion_lon": 0.0, "is_disabled": 0, "fusion_lat": 0.0, "bike_id": "564d73ca7ac17ae5fb7c5b1e6d1f6073", "rental_uris": {"ios": "https://dc.lft.to/lastmile_qr_scan", "android": "https://dc.lft.to/lastmile_qr_scan"}}, {"name": "ce9f731ef13ecaab55e3730b90eda153", "type": "electric_scooter", "lat": 38.91432266666666, "is_reserved": 0, "lon": -77.04654883333333, "fusion_lon": 0.0, "is_disabled": 0, "fusion_lat": 0.0, "bike_id": "ce9f731ef13ecaab55e3730b90eda153", "rental_uris": {"ios": "https://dc.lft.to/lastmile_qr_scan", "android": "https://dc.lft.to/lastmile_qr_scan"}}, {"name": "a97fcdc739759b8bbda706f964843d20", "type": "electric_scooter", "lat": 38.89802733333333, "is_reserved": 0, "lon": -77.010778, "fusion_lon": 0.0, "is_disabled": 0, "fusion_lat": 0.0, "bike_id": "a97fcdc739759b8bbda706f964843d20", "rental_uris": {"ios": "https://dc.lft.to/lastmile_qr_scan", "android": "https://dc.lft.to/lastmile_qr_scan"}}, {"name": "c61ef4da74db0111c9d910924d840927", "type": "electric_scooter", "lat": 38.939735666666664, "is_reserved": 0, "lon": -77.03261583333334, "fusion_lon": 0.0, "is_disabled": 0, "fusion_lat": 0.0, "bike_id": "c61ef4da74db0111c9d910924d840927", "rental_uris": {"ios": "https://dc.lft.to/lastmile_qr_scan", "android": "https://dc.lft.to/lastmile_qr_scan"}}, {"name": "c70bb38d348e1b21e25fe86f6763e98a", "type": "electric_bike", "lat": 38.83727733333333, "is_reserved": 0, "lon": -76.9976655, "fusion_lon": 0.0, "is_disabled": 0, "fusion_lat": 0.0, "bike_id": "c70bb38d348e1b21e25fe86f6763e98a", "rental_uris": {"ios": "https://dc.lft.to/lastmile_qr_scan", "android": "https://dc.lft.to/lastmile_qr_scan"}}, {"name": "62d0534da5bd3476e334e0c5bf46872a", "type": "electric_scooter", "lat": 38.8971185, "is_reserved": 0, "lon": -77.0325035, "fusion_lon": 0.0, "is_disabled": 0, "fusion_lat": 0.0, "bike_id": "62d0534da5bd3476e334e0c5bf46872a", "rental_uris": {"ios": "https://dc.lft.to/lastmile_qr_scan", "android": "https://dc.lft.to/lastmile_qr_scan"}}, {"name": "5b8d1061cd6abcb513473b50d90eca4b", "type": "electric_bike", "lat": 38.950773, "is_reserved": 0, "lon": -77.01208633333333, "fusion_lon": 0.0, "is_disabled": 0, "fusion_lat": 0.0, "bike_id": "5b8d1061cd6abcb513473b50d90eca4b", "rental_uris": {"ios": "https://dc.lft.to/lastmile_qr_scan", "android": "https://dc.lft.to/lastmile_qr_scan"}}, {"name": "2b3f55c15f2b9e5e8c7743f74985fcdf", "type": "electric_scooter", "lat": 38.902669, "is_reserved": 0, "lon": -77.03069383333333, "fusion_lon": 0.0, "is_disabled": 0, "fusion_lat": 0.0, "bike_id": "2b3f55c15f2b9e5e8c7743f74985fcdf", "rental_uris": {"ios": "https://dc.lft.to/lastmile_qr_scan", "android": "https://dc.lft.to/lastmile_qr_scan"}}, {"name": "d72060829ca15b4a0e14a4359b9c50ca", "type": "electric_scooter", "lat": 38.937159333333334, "is_reserved": 0, "lon": -77.02937083333333, "fusion_lon": 0.0, "is_disabled": 0, "fusion_lat": 0.0, "bike_id": "d72060829ca15b4a0e14a4359b9c50ca", "rental_uris": {"ios": "https://dc.lft.to/lastmile_qr_scan", "android": "https://dc.lft.to/lastmile_qr_scan"}}, {"name": "6ac5d24a0e54113399195705e8cc9ff4", "type": "electric_bike", "lat": 38.831473, "is_reserved": 0, "lon": -77.11311283333333, "fusion_lon": 0.0, "is_disabled": 0, "fusion_lat": 0.0, "bike_id": "6ac5d24a0e54113399195705e8cc9ff4", "rental_uris": {"ios": "https://dc.lft.to/lastmile_qr_scan", "android": "https://dc.lft.to/lastmile_qr_scan"}}, {"name": "cf553ac8153c34f7891bc34a026eee93", "type": "electric_scooter", "lat": 38.900409, "is_reserved": 0, "lon": -77.00206466666667, "fusion_lon": 0.0, "is_disabled": 0, "fusion_lat": 0.0, "bike_id": "cf553ac8153c34f7891bc34a026eee93", "rental_uris": {"ios": "https://dc.lft.to/lastmile_qr_scan", "android": "https://dc.lft.to/lastmile_qr_scan"}}, {"name": "c9b7ba3502f0cedd8fa08dd2cd4c4e2b", "type": "electric_scooter", "lat": 38.88513716666667, "is_reserved": 0, "lon": -77.00572983333333, "fusion_lon": 0.0, "is_disabled": 0, "fusion_lat": 0.0, "bike_id": "c9b7ba3502f0cedd8fa08dd2cd4c4e2b", "rental_uris": {"ios": "https://dc.lft.to/lastmile_qr_scan", "android": "https://dc.lft.to/lastmile_qr_scan"}}, {"name": "f43b505172221d1517471f920bc88eff", "type": "electric_scooter", "lat": 38.90104083333333, "is_reserved": 0, "lon": -77.01931016666667, "fusion_lon": 0.0, "is_disabled": 0, "fusion_lat": 0.0, "bike_id": "f43b505172221d1517471f920bc88eff", "rental_uris": {"ios": "https://dc.lft.to/lastmile_qr_scan", "android": "https://dc.lft.to/lastmile_qr_scan"}}, {"name": "fc62133883c786edce8038906f103b9d", "type": "electric_scooter", "lat": 38.9343935, "is_reserved": 0, "lon": -77.0400025, "fusion_lon": 0.0, "is_disabled": 0, "fusion_lat": 0.0, "bike_id": "fc62133883c786edce8038906f103b9d", "rental_uris": {"ios": "https://dc.lft.to/lastmile_qr_scan", "android": "https://dc.lft.to/lastmile_qr_scan"}}, {"name": "fbae819658c5539f5e3d3aa043c3dd31", "type": "electric_scooter", "lat": 38.89224766666667, "is_reserved": 0, "lon": -77.0308675, "fusion_lon": 0.0, "is_disabled": 0, "fusion_lat": 0.0, "bike_id": "fbae819658c5539f5e3d3aa043c3dd31", "rental_uris": {"ios": "https://dc.lft.to/lastmile_qr_scan", "android": "https://dc.lft.to/lastmile_qr_scan"}}, {"name": "ebd16e083c09c9a7e32af8bd3080a500", "type": "electric_scooter", "lat": 38.879217, "is_reserved": 0, "lon": -77.01346033333333, "fusion_lon": 0.0, "is_disabled": 0, "fusion_lat": 0.0, "bike_id": "ebd16e083c09c9a7e32af8bd3080a500", "rental_uris": {"ios": "https://dc.lft.to/lastmile_qr_scan", "android": "https://dc.lft.to/lastmile_qr_scan"}}, {"name": "6b8c8c51f89edcf2e797c99e80757084", "type": "electric_scooter", "lat": 38.89682283333333, "is_reserved": 0, "lon": -77.0521305, "fusion_lon": 0.0, "is_disabled": 0, "fusion_lat": 0.0, "bike_id": "6b8c8c51f89edcf2e797c99e80757084", "rental_uris": {"ios": "https://dc.lft.to/lastmile_qr_scan", "android": "https://dc.lft.to/lastmile_qr_scan"}}, {"name": "c90d80efa53b02d0ceed3d64831ae511", "type": "electric_scooter", "lat": 38.9298775, "is_reserved": 0, "lon": -77.03474166666666, "fusion_lon": 0.0, "is_disabled": 0, "fusion_lat": 0.0, "bike_id": "c90d80efa53b02d0ceed3d64831ae511", "rental_uris": {"ios": "https://dc.lft.to/lastmile_qr_scan", "android": "https://dc.lft.to/lastmile_qr_scan"}}, {"name": "2f251fe2fc7670a8d13f6d622370974b", "type": "electric_scooter", "lat": 38.9030915, "is_reserved": 0, "lon": -77.06025233333334, "fusion_lon": 0.0, "is_disabled": 0, "fusion_lat": 0.0, "bike_id": "2f251fe2fc7670a8d13f6d622370974b", "rental_uris": {"ios": "https://dc.lft.to/lastmile_qr_scan", "android": "https://dc.lft.to/lastmile_qr_scan"}}, {"name": "b0e222be6d260bf60ff3f44d361a1b5b", "type": "electric_scooter", "lat": 38.932127, "is_reserved": 0, "lon": -77.0238695, "fusion_lon": 0.0, "is_disabled": 0, "fusion_lat": 0.0, "bike_id": "b0e222be6d260bf60ff3f44d361a1b5b", "rental_uris": {"ios": "https://dc.lft.to/lastmile_qr_scan", "android": "https://dc.lft.to/lastmile_qr_scan"}}, {"name": "2151cbce9ba88960151d9858e16423ef", "type": "electric_bike", "lat": 38.896097166666664, "is_reserved": 0, "lon": -77.03169916666667, "fusion_lon": 0.0, "is_disabled": 0, "fusion_lat": 0.0, "bike_id": "2151cbce9ba88960151d9858e16423ef", "rental_uris": {"ios": "https://dc.lft.to/lastmile_qr_scan", "android": "https://dc.lft.to/lastmile_qr_scan"}}, {"name": "5c9264ffe746e482c3b6204b6166e1b1", "type": "electric_scooter", "lat": 38.93073616666667, "is_reserved": 0, "lon": -77.0380175, "fusion_lon": 0.0, "is_disabled": 0, "fusion_lat": 0.0, "bike_id": "5c9264ffe746e482c3b6204b6166e1b1", "rental_uris": {"ios": "https://dc.lft.to/lastmile_qr_scan", "android": "https://dc.lft.to/lastmile_qr_scan"}}, {"name": "ef887a57cbdbf0c85afe4a727e092776", "type": "electric_scooter", "lat": 38.906184, "is_reserved": 0, "lon": -77.05145166666667, "fusion_lon": 0.0, "is_disabled": 0, "fusion_lat": 0.0, "bike_id": "ef887a57cbdbf0c85afe4a727e092776", "rental_uris": {"ios": "https://dc.lft.to/lastmile_qr_scan", "android": "https://dc.lft.to/lastmile_qr_scan"}}, {"name": "4e1b91951091aad82fb3f7ccfc64c8f2", "type": "electric_scooter", "lat": 38.9155845, "is_reserved": 0, "lon": -77.04156766666667, "fusion_lon": 0.0, "is_disabled": 0, "fusion_lat": 0.0, "bike_id": "4e1b91951091aad82fb3f7ccfc64c8f2", "rental_uris": {"ios": "https://dc.lft.to/lastmile_qr_scan", "android": "https://dc.lft.to/lastmile_qr_scan"}}, {"name": "2d4e1a369426059edbf7923261ae97bf", "type": "electric_bike", "lat": 38.87739466666667, "is_reserved": 0, "lon": -77.118505, "fusion_lon": 0.0, "is_disabled": 0, "fusion_lat": 0.0, "bike_id": "2d4e1a369426059edbf7923261ae97bf", "rental_uris": {"ios": "https://dc.lft.to/lastmile_qr_scan", "android": "https://dc.lft.to/lastmile_qr_scan"}}, {"name": "208ddc8cd5ff52b0c8ed4ad97f6fe5a7", "type": "electric_scooter", "lat": 38.88504483333333, "is_reserved": 0, "lon": -77.00567433333333, "fusion_lon": 0.0, "is_disabled": 0, "fusion_lat": 0.0, "bike_id": "208ddc8cd5ff52b0c8ed4ad97f6fe5a7", "rental_uris": {"ios": "https://dc.lft.to/lastmile_qr_scan", "android": "https://dc.lft.to/lastmile_qr_scan"}}, {"name": "bfb1e914ad7e039694474ebcaa92e572", "type": "electric_scooter", "lat": 38.873464166666665, "is_reserved": 0, "lon": -76.96790283333333, "fusion_lon": 0.0, "is_disabled": 0, "fusion_lat": 0.0, "bike_id": "bfb1e914ad7e039694474ebcaa92e572", "rental_uris": {"ios": "https://dc.lft.to/lastmile_qr_scan", "android": "https://dc.lft.to/lastmile_qr_scan"}}, {"name": "219266280e828e5823aad9e896b2e583", "type": "electric_scooter", "lat": 38.93967716666667, "is_reserved": 0, "lon": -77.05322516666666, "fusion_lon": 0.0, "is_disabled": 0, "fusion_lat": 0.0, "bike_id": "219266280e828e5823aad9e896b2e583", "rental_uris": {"ios": "https://dc.lft.to/lastmile_qr_scan", "android": "https://dc.lft.to/lastmile_qr_scan"}}, {"name": "24a6617739bc6cc130dc428d3dd1a54f", "type": "electric_scooter", "lat": 38.917070833333334, "is_reserved": 0, "lon": -77.0011925, "fusion_lon": 0.0, "is_disabled": 0, "fusion_lat": 0.0, "bike_id": "24a6617739bc6cc130dc428d3dd1a54f", "rental_uris": {"ios": "https://dc.lft.to/lastmile_qr_scan", "android": "https://dc.lft.to/lastmile_qr_scan"}}, {"name": "f8f3cb389599e2376e385265352ef742", "type": "electric_bike", "lat": 38.95643166666667, "is_reserved": 0, "lon": -76.99744433333333, "fusion_lon": 0.0, "is_disabled": 0, "fusion_lat": 0.0, "bike_id": "f8f3cb389599e2376e385265352ef742", "rental_uris": {"ios": "https://dc.lft.to/lastmile_qr_scan", "android": "https://dc.lft.to/lastmile_qr_scan"}}, {"name": "0e71f5c482113afe6afbe7e7ad2a2d89", "type": "electric_scooter", "lat": 38.91562666666667, "is_reserved": 0, "lon": -77.03843783333333, "fusion_lon": 0.0, "is_disabled": 0, "fusion_lat": 0.0, "bike_id": "0e71f5c482113afe6afbe7e7ad2a2d89", "rental_uris": {"ios": "https://dc.lft.to/lastmile_qr_scan", "android": "https://dc.lft.to/lastmile_qr_scan"}}, {"name": "ab7006c8e15c1ebbe62fe9742da1fbb6", "type": "electric_bike", "lat": 38.9518875, "is_reserved": 0, "lon": -76.9354715, "fusion_lon": 0.0, "is_disabled": 0, "fusion_lat": 0.0, "bike_id": "ab7006c8e15c1ebbe62fe9742da1fbb6", "rental_uris": {"ios": "https://dc.lft.to/lastmile_qr_scan", "android": "https://dc.lft.to/lastmile_qr_scan"}}, {"name": "9f0160d08e42366f2df9d9e5f697a5c5", "type": "electric_scooter", "lat": 38.927177, "is_reserved": 0, "lon": -77.03853766666667, "fusion_lon": 0.0, "is_disabled": 0, "fusion_lat": 0.0, "bike_id": "9f0160d08e42366f2df9d9e5f697a5c5", "rental_uris": {"ios": "https://dc.lft.to/lastmile_qr_scan", "android": "https://dc.lft.to/lastmile_qr_scan"}}, {"name": "6d28eaa760e808aed4cbbdfff1a8ec33", "type": "electric_bike", "lat": 38.89824616666667, "is_reserved": 0, "lon": -76.99063066666666, "fusion_lon": 0.0, "is_disabled": 0, "fusion_lat": 0.0, "bike_id": "6d28eaa760e808aed4cbbdfff1a8ec33", "rental_uris": {"ios": "https://dc.lft.to/lastmile_qr_scan", "android": "https://dc.lft.to/lastmile_qr_scan"}}, {"name": "6bb7e1c57c853f4d8ad383d8cf4bb638", "type": "electric_scooter", "lat": 38.90055783333333, "is_reserved": 0, "lon": -77.02978133333333, "fusion_lon": 0.0, "is_disabled": 0, "fusion_lat": 0.0, "bike_id": "6bb7e1c57c853f4d8ad383d8cf4bb638", "rental_uris": {"ios": "https://dc.lft.to/lastmile_qr_scan", "android": "https://dc.lft.to/lastmile_qr_scan"}}, {"name": "51afdcf0b2f10f3d7ddacbc7295feac1", "type": "electric_scooter", "lat": 38.883326, "is_reserved": 0, "lon": -77.0177115, "fusion_lon": 0.0, "is_disabled": 0, "fusion_lat": 0.0, "bike_id": "51afdcf0b2f10f3d7ddacbc7295feac1", "rental_uris": {"ios": "https://dc.lft.to/lastmile_qr_scan", "android": "https://dc.lft.to/lastmile_qr_scan"}}, {"name": "28506418d46b716b47fc22b5a820d97b", "type": "electric_bike", "lat": 38.874246666666664, "is_reserved": 0, "lon": -77.0857135, "fusion_lon": 0.0, "is_disabled": 0, "fusion_lat": 0.0, "bike_id": "28506418d46b716b47fc22b5a820d97b", "rental_uris": {"ios": "https://dc.lft.to/lastmile_qr_scan", "android": "https://dc.lft.to/lastmile_qr_scan"}}, {"name": "2b3e5efb7720a90678febc39e168bb85", "type": "electric_scooter", "lat": 38.89472283333333, "is_reserved": 0, "lon": -77.02141366666666, "fusion_lon": 0.0, "is_disabled": 0, "fusion_lat": 0.0, "bike_id": "2b3e5efb7720a90678febc39e168bb85", "rental_uris": {"ios": "https://dc.lft.to/lastmile_qr_scan", "android": "https://dc.lft.to/lastmile_qr_scan"}}, {"name": "e3d38cd727a61691caf8bfe9d06b2c5a", "type": "electric_scooter", "lat": 38.878426166666664, "is_reserved": 0, "lon": -76.99042116666666, "fusion_lon": 0.0, "is_disabled": 0, "fusion_lat": 0.0, "bike_id": "e3d38cd727a61691caf8bfe9d06b2c5a", "rental_uris": {"ios": "https://dc.lft.to/lastmile_qr_scan", "android": "https://dc.lft.to/lastmile_qr_scan"}}, {"name": "3a192fcdad30c018c6903c7ac4475523", "type": "electric_scooter", "lat": 38.905612, "is_reserved": 0, "lon": -77.00598533333333, "fusion_lon": 0.0, "is_disabled": 0, "fusion_lat": 0.0, "bike_id": "3a192fcdad30c018c6903c7ac4475523", "rental_uris": {"ios": "https://dc.lft.to/lastmile_qr_scan", "android": "https://dc.lft.to/lastmile_qr_scan"}}, {"name": "fef4e1317263a61fdeca3bca1260cdf4", "type": "electric_scooter", "lat": 38.91920916666667, "is_reserved": 0, "lon": -77.01343283333334, "fusion_lon": 0.0, "is_disabled": 0, "fusion_lat": 0.0, "bike_id": "fef4e1317263a61fdeca3bca1260cdf4", "rental_uris": {"ios": "https://dc.lft.to/lastmile_qr_scan", "android": "https://dc.lft.to/lastmile_qr_scan"}}, {"name": "fcd925f8304a97c0a5a714d11168c602", "type": "electric_scooter", "lat": 38.90301566666667, "is_reserved": 0, "lon": -76.99856233333334, "fusion_lon": 0.0, "is_disabled": 0, "fusion_lat": 0.0, "bike_id": "fcd925f8304a97c0a5a714d11168c602", "rental_uris": {"ios": "https://dc.lft.to/lastmile_qr_scan", "android": "https://dc.lft.to/lastmile_qr_scan"}}, {"name": "ae0a04fca1f3dd76e255917686358934", "type": "electric_scooter", "lat": 38.933076166666666, "is_reserved": 0, "lon": -77.03080783333333, "fusion_lon": 0.0, "is_disabled": 0, "fusion_lat": 0.0, "bike_id": "ae0a04fca1f3dd76e255917686358934", "rental_uris": {"ios": "https://dc.lft.to/lastmile_qr_scan", "android": "https://dc.lft.to/lastmile_qr_scan"}}, {"name": "6c819e46094f0a99050df2cac55f5454", "type": "electric_scooter", "lat": 38.904549833333334, "is_reserved": 0, "lon": -76.9962795, "fusion_lon": 0.0, "is_disabled": 0, "fusion_lat": 0.0, "bike_id": "6c819e46094f0a99050df2cac55f5454", "rental_uris": {"ios": "https://dc.lft.to/lastmile_qr_scan", "android": "https://dc.lft.to/lastmile_qr_scan"}}, {"name": "bbab29500c40d811afd6c97c89a08983", "type": "electric_scooter", "lat": 38.856185833333335, "is_reserved": 0, "lon": -76.98019933333333, "fusion_lon": 0.0, "is_disabled": 0, "fusion_lat": 0.0, "bike_id": "bbab29500c40d811afd6c97c89a08983", "rental_uris": {"ios": "https://dc.lft.to/lastmile_qr_scan", "android": "https://dc.lft.to/lastmile_qr_scan"}}, {"name": "870f2ef4b3bdb35ed550c1d2908a155d", "type": "electric_scooter", "lat": 38.876357166666665, "is_reserved": 0, "lon": -76.96525933333334, "fusion_lon": 0.0, "is_disabled": 0, "fusion_lat": 0.0, "bike_id": "870f2ef4b3bdb35ed550c1d2908a155d", "rental_uris": {"ios": "https://dc.lft.to/lastmile_qr_scan", "android": "https://dc.lft.to/lastmile_qr_scan"}}, {"name": "f19d5b44f2514bf9310f3e093390b89a", "type": "electric_scooter", "lat": 38.895854666666665, "is_reserved": 0, "lon": -76.937167, "fusion_lon": 0.0, "is_disabled": 0, "fusion_lat": 0.0, "bike_id": "f19d5b44f2514bf9310f3e093390b89a", "rental_uris": {"ios": "https://dc.lft.to/lastmile_qr_scan", "android": "https://dc.lft.to/lastmile_qr_scan"}}, {"name": "32b8375c99ab245d45afb2db3da69f70", "type": "electric_scooter", "lat": 38.8429705, "is_reserved": 0, "lon": -76.99948883333333, "fusion_lon": 0.0, "is_disabled": 0, "fusion_lat": 0.0, "bike_id": "32b8375c99ab245d45afb2db3da69f70", "rental_uris": {"ios": "https://dc.lft.to/lastmile_qr_scan", "android": "https://dc.lft.to/lastmile_qr_scan"}}, {"name": "047956f792a92ddd877b77cc260513ac", "type": "electric_scooter", "lat": 38.912736833333334, "is_reserved": 0, "lon": -77.07280783333333, "fusion_lon": 0.0, "is_disabled": 0, "fusion_lat": 0.0, "bike_id": "047956f792a92ddd877b77cc260513ac", "rental_uris": {"ios": "https://dc.lft.to/lastmile_qr_scan", "android": "https://dc.lft.to/lastmile_qr_scan"}}, {"name": "e17f28d0e12e8a5049acefd56bfd4b93", "type": "electric_scooter", "lat": 38.89508716666667, "is_reserved": 0, "lon": -77.0468055, "fusion_lon": 0.0, "is_disabled": 0, "fusion_lat": 0.0, "bike_id": "e17f28d0e12e8a5049acefd56bfd4b93", "rental_uris": {"ios": "https://dc.lft.to/lastmile_qr_scan", "android": "https://dc.lft.to/lastmile_qr_scan"}}, {"name": "36d6afd00cbf389e5a6cafbb26016c3b", "type": "electric_scooter", "lat": 38.8849885, "is_reserved": 0, "lon": -77.00725483333333, "fusion_lon": 0.0, "is_disabled": 0, "fusion_lat": 0.0, "bike_id": "36d6afd00cbf389e5a6cafbb26016c3b", "rental_uris": {"ios": "https://dc.lft.to/lastmile_qr_scan", "android": "https://dc.lft.to/lastmile_qr_scan"}}, {"name": "77ee6f48fab005683c82cce0f4840151", "type": "electric_scooter", "lat": 38.88321633333334, "is_reserved": 0, "lon": -77.005982, "fusion_lon": 0.0, "is_disabled": 0, "fusion_lat": 0.0, "bike_id": "77ee6f48fab005683c82cce0f4840151", "rental_uris": {"ios": "https://dc.lft.to/lastmile_qr_scan", "android": "https://dc.lft.to/lastmile_qr_scan"}}, {"name": "fb4d6d3bcd69a2b7c0cab2175ffd4fe9", "type": "electric_scooter", "lat": 38.8802935, "is_reserved": 0, "lon": -76.988385, "fusion_lon": 0.0, "is_disabled": 0, "fusion_lat": 0.0, "bike_id": "fb4d6d3bcd69a2b7c0cab2175ffd4fe9", "rental_uris": {"ios": "https://dc.lft.to/lastmile_qr_scan", "android": "https://dc.lft.to/lastmile_qr_scan"}}, {"name": "8f456087450462b2893f10f86f882ce5", "type": "electric_scooter", "lat": 38.871307, "is_reserved": 0, "lon": -77.006012, "fusion_lon": 0.0, "is_disabled": 0, "fusion_lat": 0.0, "bike_id": "8f456087450462b2893f10f86f882ce5", "rental_uris": {"ios": "https://dc.lft.to/lastmile_qr_scan", "android": "https://dc.lft.to/lastmile_qr_scan"}}, {"name": "9eb87612cf168c53dfae801b18693d9b", "type": "electric_scooter", "lat": 38.915027333333335, "is_reserved": 0, "lon": -77.01856133333334, "fusion_lon": 0.0, "is_disabled": 0, "fusion_lat": 0.0, "bike_id": "9eb87612cf168c53dfae801b18693d9b", "rental_uris": {"ios": "https://dc.lft.to/lastmile_qr_scan", "android": "https://dc.lft.to/lastmile_qr_scan"}}, {"name": "94865962acd4093202d8cbb3cd227b66", "type": "electric_scooter", "lat": 38.9340795, "is_reserved": 0, "lon": -77.03894266666667, "fusion_lon": 0.0, "is_disabled": 0, "fusion_lat": 0.0, "bike_id": "94865962acd4093202d8cbb3cd227b66", "rental_uris": {"ios": "https://dc.lft.to/lastmile_qr_scan", "android": "https://dc.lft.to/lastmile_qr_scan"}}, {"name": "7a9e05e36252cc252b05feb21dd51be2", "type": "electric_scooter", "lat": 38.95909783333333, "is_reserved": 0, "lon": -77.080783, "fusion_lon": 0.0, "is_disabled": 0, "fusion_lat": 0.0, "bike_id": "7a9e05e36252cc252b05feb21dd51be2", "rental_uris": {"ios": "https://dc.lft.to/lastmile_qr_scan", "android": "https://dc.lft.to/lastmile_qr_scan"}}, {"name": "c37b4a0a2f01340d3152cbe6b1610d02", "type": "electric_scooter", "lat": 38.902519166666664, "is_reserved": 0, "lon": -77.01759666666666, "fusion_lon": 0.0, "is_disabled": 0, "fusion_lat": 0.0, "bike_id": "c37b4a0a2f01340d3152cbe6b1610d02", "rental_uris": {"ios": "https://dc.lft.to/lastmile_qr_scan", "android": "https://dc.lft.to/lastmile_qr_scan"}},