{"data": {"bikes": [{"name": "c833ae68bb2a1a8636a5b42fe5a8179b", "type": "electric_scooter", "lat": 38.8442755, "is_reserved": 0, "lon": -76.99780316666667, "fusion_lon": 0.0, "is_disabled": 0, "fusion_lat": 0.0, "bike_id": "c833ae68bb2a1a8636a5b42fe5a8179b", "rental_uris": {"ios": "https://dc.lft.to/lastmile_qr_scan", "android": "https://dc.lft.to/lastmile_qr_scan"}}, {"name": "434dbbc72be3dc5438f6749ce3406738", "type": "electric_scooter", "lat": 38.9235225, "is_reserved": 0, "lon": -77.0509645, "fusion_lon": 0.0, "is_disabled": 0, "fusion_lat": 0.0, "bike_id": "434dbbc72be3dc5438f6749ce3406738", "rental_uris": {"ios": "https://dc.lft.to/lastmile_qr_scan", "android": "https://dc.lft.to/lastmile_qr_scan"}}, {"name": "d73f895bf38447fe1aa8b42ca356562b", "type": "electric_bike", "lat": 38.86365283333333, "is_reserved": 0, "lon": -76.97015233333333, "fusion_lon": 0.0, "is_disabled": 0, "fusion_lat": 0.0, "bike_id": "d73f895bf38447fe1aa8b42ca356562b", "rental_uris": {"ios": "https://dc.lft.to/lastmile_qr_scan", "android": "https://dc.lft.to/lastmile_qr_scan"}}, {"name": "704f3f6684cca499fef92598931167c2", "type": "electric_scooter", "lat": 38.90561783333333, "is_reserved": 0, "lon": -77.00228533333333, "fusion_lon": 0.0, "is_disabled": 0, "fusion_lat": 0.0, "bike_id": "704f3f6684cca499fef92598931167c2", "rental_uris": {"ios": "https://dc.lft.to/lastmile_qr_scan", "android": "https://dc.lft.to/lastmile_qr_scan"}}, {"name": "753c1ed3545f794d809a9fd784483a24", "type": "electric_scooter", "lat": 38.892233, "is_reserved": 0, "lon": -77.04266066666666, "fusion_lon": 0.0, "is_disabled": 0, "fusion_lat": 0.0, "bike_id": "753c1ed3545f794d809a9fd784483a24", "rental_uris": {"ios": "https://dc.lft.to/lastmile_qr_scan", "android": "https://dc.lft.to/lastmile_qr_scan"}}, {"name": "9e5b8797d342f207b6764d53f0d6a7c8", "type": "electric_scooter", "lat": 38.926228, "is_reserved": 0, "lon": -77.00576633333333, "fusion_lon": 0.0, "is_disabled": 0, "fusion_lat": 0.0, "bike_id": "9e5b8797d342f207b6764d53f0d6a7c8", "rental_uris": {"ios": "https://dc.lft.to/lastmile_qr_scan", "android": "https://dc.lft.to/lastmile_qr_scan"}}, {"name": "15afeb19a4f014bfbe3039c78ae68ec9", "type": "electric_scooter", "lat": 38.916466, "is_reserved": 0, "lon": -77.031937, "fusion_lon": 0.0, "is_disabled": 0, "fusion_lat": 0.0, "bike_id": "15afeb19a4f014bfbe3039c78ae68ec9", "rental_uris": {"ios": "https://dc.lft.to/lastmile_qr_scan", "android": "https://dc.lft.to/lastmile_qr_scan"}}, {"name": "278c61e8baa7261fe99144f0aca60376", "type": "electric_scooter", "lat": 38.91798933333333, "is_reserved": 0, "lon": -77.02814166666667, "fusion_lon": 0.0, "is_disabled": 0, "fusion_lat": 0.0, "bike_id": "278c61e8baa7261fe99144f0aca60376", "rental_uris": {"ios": "https://dc.lft.to/lastmile_qr_scan", "android": "https://dc.lft.to/lastmile_qr_scan"}}, {"name": "829333f591e2034cce5585dc149e2eac", "type": "electric_scooter", "lat": 38.925191833333336, "is_reserved": 0, "lon": -77.0236145, "fusion_lon": 0.0, "is_disabled": 0, "fusion_lat": 0.0, "bike_id": "829333f591e2034cce5585dc149e2eac", "rental_uris": {"ios": "https://dc.lft.to/lastmile_qr_scan", "android": "https://dc.lft.to/lastmile_qr_scan"}}, {"name": "2e30a4dadf36a03de8937dbc1e4cbce4", "type": "electric_scooter", "lat": 38.8937265, "is_reserved": 0, "lon": -76.94997483333333, "fusion_lon": 0.0, "is_disabled": 0, "fusion_lat": 0.0, "bike_id": "2e30a4dadf36a03de8937dbc1e4cbce4", "rental_uris": {"ios": "https://dc.lft.to/lastmile_qr_scan", "android": "https://dc.lft.to/lastmile_qr_scan"}}, {"name": "673a5ddd4e2f24ddaa4e97e1c3076a1f", "type": "electric_scooter", "lat": 38.9064145, "is_reserved": 0, "lon": -76.98576966666667, "fusion_lon": 0.0, "is_disabled": 0, "fusion_lat": 0.0, "bike_id": "673a5ddd4e2f24ddaa4e97e1c3076a1f", "rental_uris": {"ios": "https://dc.lft.to/lastmile_qr_scan", "android": "https://dc.lft.to/lastmile_qr_scan"}}, {"name": "23bc019b88ee3326a2d5392524c718ed", "type": "electric_scooter", "lat": 38.90761033333333, "is_reserved": 0, "lon": -77.00233066666667, "fusion_lon": 0.0, "is_disabled": 0, "fusion_lat": 0.0, "bike_id": "23bc019b88ee3326a2d5392524c718ed", "rental_uris": {"ios": "https://dc.lft.to/lastmile_qr_scan", "android": "https://dc.lft.to/lastmile_qr_scan"}}, {"name": "62338d1d2346b47d1fe70ba66331a0b9", "type": "electric_scooter", "lat": 38.895756166666665, "is_reserved": 0, "lon": -77.02847916666667, "fusion_lon": 0.0, "is_disabled": 0, "fusion_lat": 0.0, "bike_id": "62338d1d2346b47d1fe70ba66331a0b9", "rental_uris": {"ios": "https://dc.lft.to/lastmile_qr_scan", "android": "https://dc.lft.to/lastmile_qr_scan"}}, {"name": "e2dedabab68519a46629008790df7017", "type": "electric_scooter", "lat": 38.916821666666664, "is_reserved": 0, "lon": -77.02804583333334, "fusion_lon": 0.0, "is_disabled": 0, "fusion_lat": 0.0, "bike_id": "e2dedabab68519a46629008790df7017", "rental_uris": {"ios": "https://dc.lft.to/lastmile_qr_scan", "android": "https://dc.lft.to/lastmile_qr_scan"}}, {"name": "de4b268d1c478bc7884e5c6d8f391b67", "type": "electric_bike", "lat": 38.869069, "is_reserved": 0, "lon": -77.1317635, "fusion_lon": 0.0, "is_disabled": 0, "fusion_lat": 0.0, "bike_id": "de4b268d1c478bc7884e5c6d8f391b67", "rental_uris": {"ios": "https://dc.lft.to/lastmile_qr_scan", "android": "https://dc.lft.to/lastmile_qr_scan"}}, {"name": "26f16728a491e8b3b26935e8dc1f13f1", "type": "electric_scooter", "lat": 38.912388666666665, "is_reserved": 0, "lon": -77.00123916666666, "fusion_lon": 0.0, "is_disabled": 0, "fusion_lat": 0.0, "bike_id": "26f16728a491e8b3b26935e8dc1f13f1", "rental_uris": {"ios": "https://dc.lft.to/lastmile_qr_scan", "android": "https://dc.lft.to/lastmile_qr_scan"}}, {"name": "5383b3f8a77519ab287825e0adaa5087", "type": "electric_scooter", "lat": 38.90273466666667, "is_reserved": 0, "lon": -77.05919083333333, "fusion_lon": 0.0, "is_disabled": 0, "fusion_lat": 0.0, "bike_id": "5383b3f8a77519ab287825e0adaa5087", "rental_uris": {"ios": "https://dc.lft.to/lastmile_qr_scan", "android": "https://dc.lft.to/lastmile_qr_scan"}}, {"name": "57d0f17d1d9415f10f24482ddb6c65b4", "type": "electric_scooter", "lat": 38.900442, "is_reserved": 0, "lon": -77.01675333333333, "fusion_lon": 0.0, "is_disabled": 0, "fusion_lat": 0.0, "bike_id": "57d0f17d1d9415f10f24482ddb6c65b4", "rental_uris": {"ios": "https://dc.lft.to/lastmile_qr_scan", "android": "https://dc.lft.to/lastmile_qr_scan"}}, {"name": "3d6feb47ababcf0048edc190d49a597e", "type": "electric_scooter", "lat": 38.9001205, "is_reserved": 0, "lon": -76.99832549999999, "fusion_lon": 0.0, "is_disabled": 0, "fusion_lat": 0.0, "bike_id": "3d6feb47ababcf0048edc190d49a597e", "rental_uris": {"ios": "https://dc.lft.to/lastmile_qr_scan", "android": "https://dc.lft.to/lastmile_qr_scan"}}, {"name": "05d136f06a76ccf2c722f6cf2f9176b1", "type": "electric_scooter", "lat": 38.907183833333335, "is_reserved": 0, "lon": -77.025069, "fusion_lon": 0.0, "is_disabled": 0, "fusion_lat": 0.0, "bike_id": "05d136f06a76ccf2c722f6cf2f9176b1", "rental_uris": {"ios": "https://dc.lft.to/lastmile_qr_scan", "android": "https://dc.lft.to/lastmile_qr_scan"}}, {"name": "eccf30b72864a784b31e691290cbb265", "type": "electric_scooter", "lat": 38.93529766666666, "is_reserved": 0, "lon": -77.0285495, "fusion_lon": 0.0, "is_disabled": 0, "fusion_lat": 0.0, "bike_id": "eccf30b72864a784b31e691290cbb265", "rental_uris": {"ios": "https://dc.lft.to/lastmile_qr_scan", "android": "https://dc.lft.to/lastmile_qr_scan"}}, {"name": "042765035d0c99be5a59b484eab6c2cb", "type": "electric_scooter", "lat": 38.9098725, "is_reserved": 0, "lon": -77.03198216666667, "fusion_lon": 0.0, "is_disabled": 0, "fusion_lat": 0.0, "bike_id": "042765035d0c99be5a59b484eab6c2cb", "rental_uris": {"ios": "https://dc.lft.to/lastmile_qr_scan", "android": "https://dc.lft.to/lastmile_qr_scan"}}, {"name": "cc77fd012e4655db4d20453593a7b76c", "type": "electric_scooter", "lat": 38.89526633333333, "is_reserved": 0, "lon": -77.01612, "fusion_lon": 0.0, "is_disabled": 0, "fusion_lat": 0.0, "bike_id": "cc77fd012e4655db4d20453593a7b76c", "rental_uris": {"ios": "https://dc.lft.to/lastmile_qr_scan", "android": "https://dc.lft.to/lastmile_qr_scan"}}, {"name": "26828815386fafacb1500e2abce154b1", "type": "electric_bike", "lat": 38.854382666666666, "is_reserved": 0, "lon": -77.1170675, "fusion_lon": 0.0, "is_disabled": 0, "fusion_lat": 0.0, "bike_id": "26828815386fafacb1500e2abce154b1", "rental_uris": {"ios": "https://dc.lft.to/lastmile_qr_scan", "android": "https://dc.lft.to/lastmile_qr_scan"}}, {"name": "0af918cb5edba1e81b9c5f389d5dbf38", "type": "electric_scooter", "lat": 38.93505566666666, "is_reserved": 0, "lon": -77.02854216666667, "fusion_lon": 0.0, "is_disabled": 0, "fusion_lat": 0.0, "bike_id": "0af918cb5edba1e81b9c5f389d5dbf38", "rental_uris": {"ios": "https://dc.lft.to/lastmile_qr_scan", "android": "https://dc.lft.to/lastmile_qr_scan"}}, {"name": "cbb2ca01adf3817e8fac7dc71682ac02", "type": "electric_scooter", "lat": 38.887204833333335, "is_reserved": 0, "lon": -77.02180766666666, "fusion_lon": 0.0, "is_disabled": 0, "fusion_lat": 0.0, "bike_id": "cbb2ca01adf3817e8fac7dc71682ac02", "rental_uris": {"ios": "https://dc.lft.to/lastmile_qr_scan", "android": "https://dc.lft.to/lastmile_qr_scan"}}, {"name": "dc4b1152af031a0f98c5bfbcf2ca49b4", "type": "electric_scooter", "lat": 38.910706, "is_reserved": 0, "lon": -77.030334, "fusion_lon": 0.0, "is_disabled": 0, "fusion_lat": 0.0, "bike_id": "dc4b1152af031a0f98c5bfbcf2ca49b4", "rental_uris": {"ios": "https://dc.lft.to/lastmile_qr_scan", "android": "https://dc.lft.to/lastmile_qr_scan"}}, {"name": "8e658e0a6bf687eafd3127777dbcb750", "type": "electric_scooter", "lat": 38.94177366666667, "is_reserved": 0, "lon": -77.03089933333334, "fusion_lon": 0.0, "is_disabled": 0, "fusion_lat": 0.0, "bike_id": "8e658e0a6bf687eafd3127777dbcb750", "rental_uris": {"ios": "https://dc.lft.to/lastmile_qr_scan", "android": "https://dc.lft.to/lastmile_qr_scan"}}, {"name": "fbfcaf9125eb24aeb8f64b3b93b921b5", "type": "electric_scooter", "lat": 38.90604116666667, "is_reserved": 0, "lon": -77.01327533333334, "fusion_lon": 0.0, "is_disabled": 0, "fusion_lat": 0.0, "bike_id": "fbfcaf9125eb24aeb8f64b3b93b921b5", "rental_uris": {"ios": "https://dc.lft.to/lastmile_qr_scan", "android": "https://dc.lft.to/lastmile_qr_scan"}}, {"name": "0c154d6f62aee156f0ed00ab6fff6197", "type": "electric_scooter", "lat": 38.903968166666665, "is_reserved": 0, "lon": -77.01636933333333, "fusion_lon": 0.0, "is_disabled": 0, "fusion_lat": 0.0, "bike_id": "0c154d6f62aee156f0ed00ab6fff6197", "rental_uris": {"ios": "https://dc.lft.to/lastmile_qr_scan", "android": "https://dc.lft.to/lastmile_qr_scan"}}, {"name": "732f3372d9d440daa323ec47485d0459", "type": "electric_scooter", "lat": 38.91108533333333, "is_reserved": 0, "lon": -77.045261, "fusion_lon": 0.0, "is_disabled": 0, "fusion_lat": 0.0, "bike_id": "732f3372d9d440daa323ec47485d0459", "rental_uris": {"ios": "https://dc.lft.to/lastmile_qr_scan", "android": "https://dc.lft.to/lastmile_qr_scan"}}, {"name": "728ae7b541fa83917d4760d1c3040ffd", "type": "electric_scooter", "lat": 38.9322415, "is_reserved": 0, "lon": -77.03815466666667, "fusion_lon": 0.0, "is_disabled": 0, "fusion_lat": 0.0, "bike_id": "728ae7b541fa83917d4760d1c3040ffd", "rental_uris": {"ios": "https://dc.lft.to/lastmile_qr_scan", "android": "https://dc.lft.to/lastmile_qr_scan"}}, {"name": "ff5e4180eede63fc27dd3e7d248d24c5", "type": "electric_bike", "lat": 38.9064495, "is_reserved": 0, "lon": -77.02495566666667, "fusion_lon": 0.0, "is_disabled": 0, "fusion_lat": 0.0, "bike_id": "ff5e4180eede63fc27dd3e7d248d24c5", "rental_uris": {"ios": "https://dc.lft.to/lastmile_qr_scan", "android": "https://dc.lft.to/lastmile_qr_scan"}}, {"name": "1ba339c87b8f490f7a0a8a688503e962", "type": "electric_scooter", "lat": 38.90269266666667, "is_reserved": 0, "lon": -77.03400183333333, "fusion_lon": 0.0, "is_disabled": 0, "fusion_lat": 0.0, "bike_id": "1ba339c87b8f490f7a0a8a688503e962", "rental_uris": {"ios": "https://dc.lft.to/lastmile_qr_scan", "android": "https://dc.lft.to/lastmile_qr_scan"}}, {"name": "de8243df6920a6fdfffdc2dc5d39c8d8", "type": "electric_scooter", "lat": 38.9149285, "is_reserved": 0, "lon": -77.03930866666667, "fusion_lon": 0.0, "is_disabled": 0, "fusion_lat": 0.0, "bike_id": "de8243df6920a6fdfffdc2dc5d39c8d8", "rental_uris": {"ios": "https://dc.lft.to/lastmile_qr_scan", "android": "https://dc.lft.to/lastmile_qr_scan"}}, {"name": "f953135e74e953fecc0bead288aacd05", "type": "electric_scooter", "lat": 38.939873666666664, "is_reserved": 0, "lon": -77.02596683333333, "fusion_lon": 0.0, "is_disabled": 0, "fusion_lat": 0.0, "bike_id": "f953135e74e953fecc0bead288aacd05", "rental_uris": {"ios": "https://dc.lft.to/lastmile_qr_scan", "android": "https://dc.lft.to/lastmile_qr_scan"}}, {"name": "3ad49845a0feefe1c13b0010adfa480d", "type": "electric_bike", "lat": 38.88036916666667, "is_reserved": 0, "lon": -77.01317366666666, "fusion_lon": 0.0, "is_disabled": 0, "fusion_lat": 0.0, "bike_id": "3ad49845a0feefe1c13b0010adfa480d", "rental_uris": {"ios": "https://dc.lft.to/lastmile_qr_scan", "android": "https://dc.lft.to/lastmile_qr_scan"}}, {"name": "f6ad4f122035e92acddf1638f8ea46ab", "type": "electric_scooter", "lat": 38.901722, "is_reserved": 0, "lon": -77.032188, "fusion_lon": 0.0, "is_disabled": 0, "fusion_lat": 0.0, "bike_id": "f6ad4f122035e92acddf1638f8ea46ab", "rental_uris": {"ios": "https://dc.lft.to/lastmile_qr_scan", "android": "https://dc.lft.to/lastmile_qr_scan"}}, {"name": "f10eb93752a69026a402c10584af13f8", "type": "electric_scooter", "lat": 38.9143215, "is_reserved": 0, "lon": -77.0386905, "fusion_lon": 0.0, "is_disabled": 0, "fusion_lat": 0.0, "bike_id": "f10eb93752a69026a402c10584af13f8", "rental_uris": {"ios": "https://dc.lft.to/lastmile_qr_scan", "android": "https://dc.lft.to/lastmile_qr_scan"}}, {"name": "007393d00cfe548f47df1bbeaae0a7e9", "type": "electric_bike", "lat": 38.9150125, "is_reserved": 0, "lon": -77.032097, "fusion_lon": 0.0, "is_disabled": 0, "fusion_lat": 0.0, "bike_id": "007393d00cfe548f47df1bbeaae0a7e9", "rental_uris": {"ios": "https://dc.lft.to/lastmile_qr_scan", "android": "https://dc.lft.to/lastmile_qr_scan"}}, {"name": "8b2bf12d0ddef75ad36beb713baf3158", "type": "electric_scooter", "lat": 38.921224, "is_reserved": 0, "lon": -77.03654333333333, "fusion_lon": 0.0, "is_disabled": 0, "fusion_lat": 0.0, "bike_id": "8b2bf12d0ddef75ad36beb713baf3158", "rental_uris": {"ios": "https://dc.lft.to/lastmile_qr_scan", "android": "https://dc.lft.to/lastmile_qr_scan"}}, {"name": "5a746685095696409d6b648c5607170c", "type": "electric_scooter", "lat": 38.90349333333333, "is_reserved": 0, "lon": -77.035478, "fusion_lon": 0.0, "is_disabled": 0, "fusion_lat": 0.0, "bike_id": "5a746685095696409d6b648c5607170c", "rental_uris": {"ios": "https://dc.lft.to/lastmile_qr_scan", "android": "https://dc.lft.to/lastmile_qr_scan"}}, {"name": "11e88280f2a8f1b88753eabbaacf0205", "type": "electric_scooter", "lat": 38.907383333333335, "is_reserved": 0, "lon": -77.007616, "fusion_lon": 0.0, "is_disabled": 0, "fusion_lat": 0.0, "bike_id": "11e88280f2a8f1b88753eabbaacf0205", "rental_uris": {"ios": "https://dc.lft.to/lastmile_qr_scan", "android": "https://dc.lft.to/lastmile_qr_scan"}}, {"name": "dcd73b3a712641f3c12497efcb2c3cc9", "type": "electric_scooter", "lat": 38.86356133333334, "is_reserved": 0, "lon": -76.99067716666667, "fusion_lon": 0.0, "is_disabled": 0, "fusion_lat": 0.0, "bike_id": "dcd73b3a712641f3c12497efcb2c3cc9", "rental_uris": {"ios": "https://dc.lft.to/lastmile_qr_scan", "android": "https://dc.lft.to/lastmile_qr_scan"}}, {"name": "07537d0f55e395e5dbca375d3cebcdd3", "type": "electric_scooter", "lat": 38.900113, "is_reserved": 0, "lon": -76.99808816666666, "fusion_lon": 0.0, "is_disabled": 0, "fusion_lat": 0.0, "bike_id": "07537d0f55e395e5dbca375d3cebcdd3", "rental_uris": {"ios": "https://dc.lft.to/lastmile_qr_scan", "android": "https://dc.lft.to/lastmile_qr_scan"}}, {"name": "e46899fa196e8550d1a50f6c5005f08e", "type": "electric_scooter", "lat": 38.9206875, "is_reserved": 0, "lon": -77.02381083333333, "fusion_lon": 0.0, "is_disabled": 0, "fusion_lat": 0.0, "bike_id": "e46899fa196e8550d1a50f6c5005f08e", "rental_uris": {"ios": "https://dc.lft.to/lastmile_qr_scan", "android": "https://dc.lft.to/lastmile_qr_scan"}}, {"name": "0bc24f5855efbf4e1527439ea7268354", "type": "electric_scooter", "lat": 38.907511666666664, "is_reserved": 0, "lon": -77.0307545, "fusion_lon": 0.0, "is_disabled": 0, "fusion_lat": 0.0, "bike_id": "0bc24f5855efbf4e1527439ea7268354", "rental_uris": {"ios": "https://dc.lft.to/lastmile_qr_scan", "android": "https://dc.lft.to/lastmile_qr_scan"}}, {"name": "32854a369d7c4985dd1e798dd9e87234", "type": "electric_scooter", "lat": 38.901260666666666, "is_reserved": 0, "lon": -77.0498525, "fusion_lon": 0.0, "is_disabled": 0, "fusion_lat": 0.0, "bike_id": "32854a369d7c4985dd1e798dd9e87234", "rental_uris": {"ios": "https://dc.lft.to/lastmile_qr_scan", "android": "https://dc.lft.to/lastmile_qr_scan"}}, {"name": "cf47ec4d98cc6ce47f62f37ec55d80e6", "type": "electric_scooter", "lat": 38.898888666666664, "is_reserved": 0, "lon": -76.9317855, "fusion_lon": 0.0, "is_disabled": 0, "fusion_lat": 0.0, "bike_id": "cf47ec4d98cc6ce47f62f37ec55d80e6", "rental_uris": {"ios": "https://dc.lft.to/lastmile_qr_scan", "android": "https://dc.lft.to/lastmile_qr_scan"}}, {"name": "a01f2a10f5ba0c09aec396d58cfac6ea", "type": "electric_scooter", "lat": 38.880502, "is_reserved": 0, "lon": -77.0133165, "fusion_lon": 0.0, "is_disabled": 0, "fusion_lat": 0.0, "bike_id": "a01f2a10f5ba0c09aec396d58cfac6ea", "rental_uris": {"ios": "https://dc.lft.to/lastmile_qr_scan", "android": "https://dc.lft.to/lastmile_qr_scan"}}, {"name": "7db9ad76713c5fbf0cfecc5a33ff0795", "type": "electric_scooter", "lat": 38.90461233333333, "is_reserved": 0, "lon": -77.0435655, "fusion_lon": 0.0, "is_disabled": 0, "fusion_lat": 0.0, "bike_id": "7db9ad76713c5fbf0cfecc5a33ff0795", "rental_uris": {"ios": "https://dc.lft.to/lastmile_qr_scan", "android": "https://dc.lft.to/lastmile_qr_scan"}}, {"name": "6a658c870d125bb280e9435910c44533", "type": "electric_scooter", "lat": 38.91334883333333, "is_reserved": 0, "lon": -77.04837716666667, "fusion_lon": 0.0, "is_disabled": 0, "fusion_lat": 0.0, "bike_id": "6a658c870d125bb280e9435910c44533", "rental_uris": {"ios": "https://dc.lft.to/lastmile_qr_scan", "android": "https://dc.lft.to/lastmile_qr_scan"}}, {"name": "a7f073cca2276b311a39a088d3a3a8dc", "type": "electric_scooter", "lat": 38.895177, "is_reserved": 0, "lon": -76.99152266666667, "fusion_lon": 0.0, "is_disabled": 0, "fusion_lat": 0.0, "bike_id": "a7f073cca2276b311a39a088d3a3a8dc", "rental_uris": {"ios": "https://dc.lft.to/lastmile_qr_scan", "android": "https://dc.lft.to/lastmile_qr_scan"}}, {"name": "446f7a6ce7c795f0fb0e2413c6460af4", "type": "electric_scooter", "lat": 38.892261833333336, "is_reserved": 0, "lon": -77.04537583333334, "fusion_lon": 0.0, "is_disabled": 0, "fusion_lat": 0.0, "bike_id": "446f7a6ce7c795f0fb0e2413c6460af4", "rental_uris": {"ios": "https://dc.lft.to/lastmile_qr_scan", "android": "https://dc.lft.to/lastmile_qr_scan"}}, {"name": "69b623136fe8c60a2acdefa9256981e3", "type": "electric_scooter", "lat": 38.90356233333333, "is_reserved": 0, "lon": -77.03995183333333, "fusion_lon": 0.0, "is_disabled": 0, "fusion_lat": 0.0, "bike_id": "69b623136fe8c60a2acdefa9256981e3", "rental_uris": {"ios": "https://dc.lft.to/lastmile_qr_scan", "android": "https://dc.lft.to/lastmile_qr_scan"}}, {"name": "0492de0181437b38690f0d373d1851b0", "type": "electric_scooter", "lat": 38.942067333333334, "is_reserved": 0, "lon": -77.03589616666666, "fusion_lon": 0.0, "is_disabled": 0, "fusion_lat": 0.0, "bike_id": "0492de0181437b38690f0d373d1851b0", "rental_uris": {"ios": "https://dc.lft.to/lastmile_qr_scan", "android": "https://dc.lft.to/lastmile_qr_scan"}}, {"name": "872526fc8e9cde4db0b6fca868dff097", "type": "electric_scooter", "lat": 38.898909833333335, "is_reserved": 0, "lon": -77.03926833333334, "fusion_lon": 0.0, "is_disabled": 0, "fusion_lat": 0.0, "bike_id": "872526fc8e9cde4db0b6fca868dff097", "rental_uris": {"ios": "https://dc.lft.to/lastmile_qr_scan", "android": "https://dc.lft.to/lastmile_qr_scan"}}, {"name": "6b5ed3aaae6f6ea8c4a448cc548dd1ea", "type": "electric_scooter", "lat": 38.903702, "is_reserved": 0, "lon": -77.03639016666666, "fusion_lon": 0.0, "is_disabled": 0, "fusion_lat": 0.0, "bike_id": "6b5ed3aaae6f6ea8c4a448cc548dd1ea", "rental_uris": {"ios": "https://dc.lft.to/lastmile_qr_scan", "android": "https://dc.lft.to/lastmile_qr_scan"}}, {"name": "72bab67c27bc1a62b43a3070932b0524", "type": "electric_scooter", "lat": 38.882039666666664, "is_reserved": 0, "lon": -77.01448766666667, "fusion_lon": 0.0, "is_disabled": 0, "fusion_lat": 0.0, "bike_id": "72bab67c27bc1a62b43a3070932b0524", "rental_uris": {"ios": "https://dc.lft.to/lastmile_qr_scan", "android": "https://dc.lft.to/lastmile_qr_scan"}}, {"name": "b58a70701103b7a43e4b9ebd2042685f", "type": "electric_bike", "lat": 38.87481066666667, "is_reserved": 0, "lon": -76.96528033333334, "fusion_lon": 0.0, "is_disabled": 0, "fusion_lat": 0.0, "bike_id": "b58a70701103b7a43e4b9ebd2042685f", "rental_uris": {"ios": "https://dc.lft.to/lastmile_qr_scan", "android": "https://dc.lft.to/lastmile_qr_scan"}}, {"name": "17bfec3ac077a6edc47e19483db9b697", "type": "electric_scooter", "lat": 38.909623833333335, "is_reserved": 0, "lon": -77.02283183333333, "fusion_lon": 0.0, "is_disabled": 0, "fusion_lat": 0.0, "bike_id": "17bfec3ac077a6edc47e19483db9b697", "rental_uris": {"ios": "https://dc.lft.to/lastmile_qr_scan", "android": "https://dc.lft.to/lastmile_qr_scan"}}, {"name": "a6676b6bc282eb4b06158bfe9725a6c9", "type": "electric_scooter", "lat": 38.90725183333333, "is_reserved": 0, "lon": -77.04869433333333, "fusion_lon": 0.0, "is_disabled": 0, "fusion_lat": 0.0, "bike_id": "a6676b6bc282eb4b06158bfe9725a6c9", "rental_uris": {"ios": "https://dc.lft.to/lastmile_qr_scan", "android": "https://dc.lft.to/lastmile_qr_scan"}}, {"name": "749ef082485273a4870b192adc4fda0a", "type": "electric_scooter", "lat": 38.93167416666667, "is_reserved": 0, "lon": -77.02353516666666, "fusion_lon": 0.0, "is_disabled": 0, "fusion_lat": 0.0, "bike_id": "749ef082485273a4870b192adc4fda0a", "rental_uris": {"ios": "https://dc.lft.to/lastmile_qr_scan", "android": "https://dc.lft.to/lastmile_qr_scan"}}, {"name": "2aeba3940adcce698e366a18fda9cdb8", "type": "electric_bike", "lat": 38.949019666666665, "is_reserved": 0, "lon": -76.96369616666667, "fusion_lon": 0.0, "is_disabled": 0, "fusion_lat": 0.0, "bike_id": "2aeba3940adcce698e366a18fda9cdb8", "rental_uris": {"ios": "https://dc.lft.to/lastmile_qr_scan", "android": "https://dc.lft.to/lastmile_qr_scan"}}, {"name": "523e75346142d6a5b824f2a0df7aa0ed", "type": "electric_scooter", "lat": 38.90385583333333, "is_reserved": 0, "lon": -77.04323566666666, "fusion_lon": 0.0, "is_disabled": 0, "fusion_lat": 0.0, "bike_id": "523e75346142d6a5b824f2a0df7aa0ed", "rental_uris": {"ios": "https://dc.lft.to/lastmile_qr_scan", "android": "https://dc.lft.to/lastmile_qr_scan"}}, {"name": "8c938ae5120cd103c9375b05c511aa6f", "type": "electric_scooter", "lat": 38.921623333333336, "is_reserved": 0, "lon": -77.02681633333333, "fusion_lon": 0.0, "is_disabled": 0, "fusion_lat": 0.0, "bike_id": "8c938ae5120cd103c9375b05c511aa6f", "rental_uris": {"ios": "https://dc.lft.to/lastmile_qr_scan", "android": "https://dc.lft.to/lastmile_qr_scan"}}, {"name": "930d515e173f2c4855f890f6aa470a73", "type": "electric_scooter", "lat": 38.90014983333333, "is_reserved": 0, "lon": -77.00232983333333, "fusion_lon": 0.0, "is_disabled": 0, "fusion_lat": 0.0, "bike_id": "930d515e173f2c4855f890f6aa470a73", "rental_uris": {"ios": "https://dc.lft.to/lastmile_qr_scan", "android": "https://dc.lft.to/lastmile_qr_scan"}}, {"name": "ab6e814bd0eadecb356dd4507bbd1cfd", "type": "electric_scooter", "lat": 38.9112545, "is_reserved": 0, "lon": -77.0435725, "fusion_lon": 0.0, "is_disabled": 0, "fusion_lat": 0.0, "bike_id": "ab6e814bd0eadecb356dd4507bbd1cfd", "rental_uris": {"ios": "https://dc.lft.to/lastmile_qr_scan", "android": "https://dc.lft.to/lastmile_qr_scan"}}, {"name": "2275621961fb48c9f421672d9956823d", "type": "electric_scooter", "lat": 38.9176115, "is_reserved": 0, "lon": -77.02714866666666, "fusion_lon": 0.0, "is_disabled": 0, "fusion_lat": 0.0, "bike_id": "2275621961fb48c9f421672d9956823d", "rental_uris": {"ios": "https://dc.lft.to/lastmile_qr_scan", "android": "https://dc.lft.to/lastmile_qr_scan"}}, {"name": "6a2eefc9281f721177ea9ee37ed6b6ff", "type": "electric_scooter", "lat": 38.8763375, "is_reserved": 0, "lon": -77.00433483333333, "fusion_lon": 0.0, "is_disabled": 0, "fusion_lat": 0.0, "bike_id": "6a2eefc9281f721177ea9ee37ed6b6ff", "rental_uris": {"ios": "https://dc.lft.to/lastmile_qr_scan", "android": "https://dc.lft.to/lastmile_qr_scan"}}, {"name": "c35987278acc9b708e9ab1b47c5f28d9", "type": "electric_scooter", "lat": 38.91183816666667, "is_reserved": 0, "lon": -77.04012666666667, "fusion_lon": 0.0, "is_disabled": 0, "fusion_lat": 0.0, "bike_id": "c35987278acc9b708e9ab1b47c5f28d9", "rental_uris": {"ios": "https://dc.lft.to/lastmile_qr_scan", "android": "https://dc.lft.to/lastmile_qr_scan"}}, {"name": "229693ef4fb09dc126489c8f527ad247", "type": "electric_scooter", "lat": 38.89523116666667, "is_reserved": 0, "lon": -77.04854366666666, "fusion_lon": 0.0, "is_disabled": 0, "fusion_lat": 0.0, "bike_id": "229693ef4fb09dc126489c8f527ad247", "rental_uris": {"ios": "https://dc.lft.to/lastmile_qr_scan", "android": "https://dc.lft.to/lastmile_qr_scan"}}, {"name": "178df5d0e061370d59bea631e9b91a04", "type": "electric_scooter", "lat": 38.8719365, "is_reserved": 0, "lon": -77.0057445, "fusion_lon": 0.0, "is_disabled": 0, "fusion_lat": 0.0, "bike_id": "178df5d0e061370d59bea631e9b91a04", "rental_uris": {"ios": "https://dc.lft.to/lastmile_qr_scan", "android": "https://dc.lft.to/lastmile_qr_scan"}}, {"name": "24d6ff2e488d853e1e9fc3fd1a3ec93e", "type": "electric_scooter", "lat": 38.903671833333334, "is_reserved": 0, "lon": -77.03393516666667, "fusion_lon": 0.0, "is_disabled": 0, "fusion_lat": 0.0, "bike_id": "24d6ff2e488d853e1e9fc3fd1a3ec93e", "rental_uris": {"ios": "https://dc.lft.to/lastmile_qr_scan", "android": "https://dc.lft.to/lastmile_qr_scan"}}, {"name": "b07c1f8f4a8464cf68c6d1df12cbf50f", "type": "electric_bike", "lat": 38.9689855, "is_reserved": 0, "lon": -76.95636133333333, "fusion_lon": 0.0, "is_disabled": 0, "fusion_lat": 0.0, "bike_id": "b07c1f8f4a8464cf68c6d1df12cbf50f", "rental_uris": {"ios": "https://dc.lft.to/lastmile_qr_scan", "android": "https://dc.lft.to/lastmile_qr_scan"}}, {"name": "169ce10664a49220ddcf5c335e68443b", "type": "electric_scooter", "lat": 38.87434183333333, "is_reserved": 0, "lon": -77.02065933333333, "fusion_lon": 0.0, "is_disabled": 0, "fusion_lat": 0.0, "bike_id": "169ce10664a49220ddcf5c335e68443b", "rental_uris": {"ios": "https://dc.lft.to/lastmile_qr_scan", "android": "https://dc.lft.to/lastmile_qr_scan"}}, {"name": "573ea8e436e0769c226ed1487e2642d6", "type": "electric_scooter", "lat": 38.91514633333333, "is_reserved": 0, "lon": -77.0462635, "fusion_lon": 0.0, "is_disabled": 0, "fusion_lat": 0.0, "bike_id": "573ea8e436e0769c226ed1487e2642d6", "rental_uris": {"ios": "https://dc.lft.to/lastmile_qr_scan", "android": "https://dc.lft.to/lastmile_qr_scan"}}, {"name": "21a772e048081e404850968de51b0f61", "type": "electric_scooter", "lat": 38.9072515, "is_reserved": 0, "lon": -77.01090916666666, "fusion_lon": 0.0, "is_disabled": 0, "fusion_lat": 0.0, "bike_id": "21a772e048081e404850968de51b0f61", "rental_uris": {"ios": "https://dc.lft.to/lastmile_qr_scan", "android": "https://dc.lft.to/lastmile_qr_scan"}}, {"name": "c2bea8ecc24821b4cbd518e04626b636", "type": "electric_scooter", "lat": 38.8999375, "is_reserved": 0, "lon": -76.98556766666667, "fusion_lon": 0.0, "is_disabled": 0, "fusion_lat": 0.0, "bike_id": "c2bea8ecc24821b4cbd518e04626b636", "rental_uris": {"ios": "https://dc.lft.to/lastmile_qr_scan", "android": "https://dc.lft.to/lastmile_qr_scan"}}, {"name": "c6978cf1a490614f155b98b83a0b3223", "type": "electric_scooter", "lat": 38.91398733333333, "is_reserved": 0, "lon": -77.03901816666666, "fusion_lon": 0.0, "is_disabled": 0, "fusion_lat": 0.0, "bike_id": "c6978cf1a490614f155b98b83a0b3223", "rental_uris": {"ios": "https://dc.lft.to/lastmile_qr_scan", "android": "https://dc.lft.to/lastmile_qr_scan"}}, {"name": "803edbbe29f1124364fb8564581e19c5", "type": "electric_scooter", "lat": 38.8955915, "is_reserved": 0, "lon": -77.0500345, "fusion_lon": 0.0, "is_disabled": 0, "fusion_lat": 0.0, "bike_id": "803edbbe29f1124364fb8564581e19c5", "rental_uris": {"ios": "https://dc.lft.to/lastmile_qr_scan", "android": "https://dc.lft.to/lastmile_qr_scan"}}, {"name": "78677b53785c44665e2b3cb7696b769e", "type": "electric_bike", "lat": 38.936486, "is_reserved": 0, "lon": -77.03288366666666, "fusion_lon": 0.0, "is_disabled": 0, "fusion_lat": 0.0, "bike_id": "78677b53785c44665e2b3cb7696b769e", "rental_uris": {"ios": "https://dc.lft.to/lastmile_qr_scan", "android": "https://dc.lft.to/lastmile_qr_scan"}}, {"name": "61f2b23dd046d68e7ddab7e019630b20", "type": "electric_scooter", "lat": 38.91263416666666, "is_reserved": 0, "lon": -77.03140083333334, "fusion_lon": 0.0, "is_disabled": 0, "fusion_lat": 0.0, "bike_id": "61f2b23dd046d68e7ddab7e019630b20", "rental_uris": {"ios": "https://dc.lft.to/lastmile_qr_scan", "android": "https://dc.lft.to/lastmile_qr_scan"}}, {"name": "722f6234074d4bb75c9e43e3fbad103c", "type": "electric_scooter", "lat": 38.892267333333336, "is_reserved": 0, "lon": -77.0437035, "fusion_lon": 0.0, "is_disabled": 0, "fusion_lat": 0.0, "bike_id": "722f6234074d4bb75c9e43e3fbad103c", "rental_uris": {"ios": "https://dc.lft.to/lastmile_qr_scan", "android": "https://dc.lft.to/lastmile_qr_scan"}}, {"name": "1799e3e1f15cfba9e38ee796164beea0", "type": "electric_scooter", "lat": 38.9243235, "is_reserved": 0, "lon": -77.05212166666666, "fusion_lon": 0.0, "is_disabled": 0, "fusion_lat": 0.0, "bike_id": "1799e3e1f15cfba9e38ee796164beea0", "rental_uris": {"ios": "https://dc.lft.to/lastmile_qr_scan", "android": "https://dc.lft.to/lastmile_qr_scan"}}, {"name": "f2f27077be82746b80d71ac9facecfaa", "type": "electric_scooter", "lat": 38.905470333333334, "is_reserved": 0, "lon": -77.047557, "fusion_lon": 0.0, "is_disabled": 0, "fusion_lat": 0.0, "bike_id": "f2f27077be82746b80d71ac9facecfaa", "rental_uris": {"ios": "https://dc.lft.to/lastmile_qr_scan", "android": "https://dc.lft.to/lastmile_qr_scan"}}, {"name": "3151b8563a53be547194047f88f4b0c2", "type": "electric_scooter", "lat": 38.9611365, "is_reserved": 0, "lon": -77.0281315, "fusion_lon": 0.0, "is_disabled": 0, "fusion_lat": 0.0, "bike_id": "3151b8563a53be547194047f88f4b0c2", "rental_uris": {"ios": "https://dc.lft.to/lastmile_qr_scan", "android": "https://dc.lft.to/lastmile_qr_scan"}}, {"name": "72a26d6055d334e5e5258aabb13b5d11", "type": "electric_bike", "lat": 38.9990985, "is_reserved": 0, "lon": -77.04620683333333, "fusion_lon": 0.0, "is_disabled": 0, "fusion_lat": 0.0, "bike_id": "72a26d6055d334e5e5258aabb13b5d11", "rental_uris": {"ios": "https://dc.lft.to/lastmile_qr_scan", "android": "https://dc.lft.to/lastmile_qr_scan"}}, {"name": "a4ca2ed249c44172d84651fff7c6af42", "type": "electric_scooter", "lat": 38.90688816666667, "is_reserved": 0, "lon": -77.02480066666666, "fusion_lon": 0.0, "is_disabled": 0, "fusion_lat": 0.0, "bike_id": "a4ca2ed249c44172d84651fff7c6af42", "rental_uris": {"ios": "https://dc.lft.to/lastmile_qr_scan", "android": "https://dc.lft.to/lastmile_qr_scan"}}, {"name": "90c74c18260b4fa9c54412f9fe9fa71f", "type": "electric_scooter", "lat": 38.923023, "is_reserved": 0, "lon": -77.01209116666666, "fusion_lon": 0.0, "is_disabled": 0, "fusion_lat": 0.0, "bike_id": "90c74c18260b4fa9c54412f9fe9fa71f", "rental_uris": {"ios": "https://dc.lft.to/lastmile_qr_scan", "android": "https://dc.lft.to/lastmile_qr_scan"}}, {"name": "d01dffe63b93963baa2193c2f2f45c11", "type": "electric_bike", "lat": 38.845755, "is_reserved": 0, "lon": -77.09626483333334, "fusion_lon": 0.0, "is_disabled": 0, "fusion_lat": 0.0, "bike_id": "d01dffe63b93963baa2193c2f2f45c11", "rental_uris": {"ios": "https://dc.lft.to/lastmile_qr_scan", "android": "https://dc.lft.to/lastmile_qr_scan"}}, {"name": "b23606dcd6ab5dac60a2adcb55c1e09d", "type": "electric_scooter", "lat": 38.908492833333334, "is_reserved": 0, "lon": -77.02202916666667, "fusion_lon": 0.0, "is_disabled": 0, "fusion_lat": 0.0, "bike_id": "b23606dcd6ab5dac60a2adcb55c1e09d", "rental_uris": {"ios": "https://dc.lft.to/lastmile_qr_scan", "android": "https://dc.lft.to/lastmile_qr_scan"}}, {"name": "52edeb91a0c5f487ceda63a027c30aa0", "type": "electric_scooter", "lat": 38.93710033333333, "is_reserved": 0, "lon": -77.06099333333333, "fusion_lon": 0.0, "is_disabled": 0, "fusion_lat": 0.0, "bike_id": "52edeb91a0c5f487ceda63a027c30aa0", "rental_uris": {"ios": "https://dc.lft.to/lastmile_qr_scan", "android": "https://dc.lft.to/lastmile_qr_scan"}}, {"name": "942ef14c01af3823fbfb1b19b85815ef", "type": "electric_scooter", "lat": 38.910960833333334, "is_reserved": 0, "lon": -77.03199083333334, "fusion_lon": 0.0, "is_disabled": 0, "fusion_lat": 0.0, "bike_id": "942ef14c01af3823fbfb1b19b85815ef", "rental_uris": {"ios": "https://dc.lft.to/lastmile_qr_scan", "android": "https://dc.lft.to/lastmile_qr_scan"}}, {"name": "6c08a3c03468812832c7ded5cf680e3b", "type": "electric_scooter", "lat": 38.873922, "is_reserved": 0, "lon": -77.00027066666667, "fusion_lon": 0.0, "is_disabled": 0, "fusion_lat": 0.0, "bike_id": "6c08a3c03468812832c7ded5cf680e3b", "rental_uris": {"ios": "https://dc.lft.to/lastmile_qr_scan", "android": "https://dc.lft.to/lastmile_qr_scan"}}, {"name": "6edcb547dba7adf9190c95c3d0c04314", "type": "electric_scooter", "lat": 38.93018566666667, "is_reserved": 0, "lon": -77.02330483333333, "fusion_lon": 0.0, "is_disabled": 0, "fusion_lat": 0.0, "bike_id": "6edcb547dba7adf9190c95c3d0c04314", "rental_uris": {"ios": "https://dc.lft.to/lastmile_qr_scan", "android": "https://dc.lft.to/lastmile_qr_scan"}}, {"name": "aaddc3c8bb77f93a6fa8b22cec369f49", "type": "electric_scooter", "lat": 38.91229766666667, "is_reserved": 0, "lon": -77.04881416666667, "fusion_lon": 0.0, "is_disabled": 0, "fusion_lat": 0.0, "bike_id": "aaddc3c8bb77f93a6fa8b22cec369f49", "rental_uris": {"ios": "https://dc.lft.to/lastmile_qr_scan", "android": "https://dc.lft.to/lastmile_qr_scan"}}, {"name": "97b2e2557e5b5833a1960b2dce3966d8", "type": "electric_bike", "lat": 38.9533665, "is_reserved": 0, "lon": -76.98255633333333, "fusion_lon": 0.0, "is_disabled": 0, "fusion_lat": 0.0, "bike_id": "97b2e2557e5b5833a1960b2dce3966d8", "rental_uris": {"ios": "https://dc.lft.to/lastmile_qr_scan", "android": "https://dc.lft.to/lastmile_qr_scan"}}, {"name": "5c4c3e4e27c0f508901631fe78193ba3", "type": "electric_scooter", "lat": 38.90639433333333, "is_reserved": 0, "lon": -77.0386585, "fusion_lon": 0.0, "is_disabled": 0, "fusion_lat": 0.0, "bike_id": "5c4c3e4e27c0f508901631fe78193ba3", "rental_uris": {"ios": "https://dc.lft.to/lastmile_qr_scan", "android": "https://dc.lft.to/lastmile_qr_scan"}}, {"name": "1f4e8d330970aaa1520d90d07387ea92", "type": "electric_scooter", "lat": 38.90829733333333, "is_reserved": 0, "lon": -77.0330945, "fusion_lon": 0.0, "is_disabled": 0, "fusion_lat": 0.0, "bike_id": "1f4e8d330970aaa1520d90d07387ea92", "rental_uris": {"ios": "https://dc.lft.to/lastmile_qr_scan", "android": "https://dc.lft.to/lastmile_qr_scan"}}, {"name": "40b3019bebe5017b8cd198a504ec77c1", "type": "electric_bike", "lat": 38.93956716666667, "is_reserved": 0, "lon": -77.360899, "fusion_lon": 0.0, "is_disabled": 0, "fusion_lat": 0.0, "bike_id": "40b3019bebe5017b8cd198a504ec77c1", "rental_uris": {"ios": "https://dc.lft.to/lastmile_qr_scan", "android": "https://dc.lft.to/lastmile_qr_scan"}}, {"name": "3d1a77e7d82ea556224591b57bc300a1", "type": "electric_scooter", "lat": 38.926494166666664, "is_reserved": 0, "lon": -77.03720416666667, "fusion_lon": 0.0, "is_disabled": 0, "fusion_lat": 0.0, "bike_id": "3d1a77e7d82ea556224591b57bc300a1", "rental_uris": {"ios": "https://dc.lft.to/lastmile_qr_scan", "android": "https://dc.lft.to/lastmile_qr_scan"}}, {"name": "9171d4d8b1d930a74b0649f4699af2ef", "type": "electric_scooter", "lat": 38.890721666666664, "is_reserved": 0, "lon": -76.93787383333333, "fusion_lon": 0.0, "is_disabled": 0, "fusion_lat": 0.0, "bike_id": "9171d4d8b1d930a74b0649f4699af2ef", "rental_uris": {"ios": "https://dc.lft.to/lastmile_qr_scan", "android": "https://dc.lft.to/lastmile_qr_scan"}}, {"name": "6c47c0d2629b4462899f79a17754bf56", "type": "electric_scooter", "lat": 38.909740166666666, "is_reserved": 0, "lon": -77.01115983333334, "fusion_lon": 0.0, "is_disabled": 0, "fusion_lat": 0.0, "bike_id": "6c47c0d2629b4462899f79a17754bf56", "rental_uris": {"ios": "https://dc.lft.to/lastmile_qr_scan", "android": "https://dc.lft.to/lastmile_qr_scan"}}, {"name": "2c0793623485c050e1e3d04c449aa786", "type": "electric_scooter", "lat": 38.869591666666665, "is_reserved": 0, "lon": -77.01374783333333, "fusion_lon": 0.0, "is_disabled": 0, "fusion_lat": 0.0, "bike_id": "2c0793623485c050e1e3d04c449aa786", "rental_uris": {"ios": "https://dc.lft.to/lastmile_qr_scan", "android": "https://dc.lft.to/lastmile_qr_scan"}}, {"name": "a6e9514207c21baadbe05ebf0deffdce", "type": "electric_scooter", "lat": 38.974921333333334, "is_reserved": 0, "lon": -77.01686166666667, "fusion_lon": 0.0, "is_disabled": 0, "fusion_lat": 0.0, "bike_id": "a6e9514207c21baadbe05ebf0deffdce", "rental_uris": {"ios": "https://dc.lft.to/lastmile_qr_scan", "android": "https://dc.lft.to/lastmile_qr_scan"}}, {"name": "5ee9c918bec2b13fa12eccf92dd8da24", "type": "electric_scooter", "lat": 38.902900833333334, "is_reserved": 0, "lon": -77.06505083333333, "fusion_lon": 0.0, "is_disabled": 0, "fusion_lat": 0.0, "bike_id": "5ee9c918bec2b13fa12eccf92dd8da24", "rental_uris": {"ios": "https://dc.lft.to/lastmile_qr_scan", "android": "https://dc.lft.to/lastmile_qr_scan"}}, {"name": "3aae8aecbcd7a904f5cd0ba26a1c2909", "type": "electric_scooter", "lat": 38.90590916666667, "is_reserved": 0, "lon": -77.003046, "fusion_lon": 0.0, "is_disabled": 0, "fusion_lat": 0.0, "bike_id": "3aae8aecbcd7a904f5cd0ba26a1c2909", "rental_uris": {"ios": "https://dc.lft.to/lastmile_qr_scan", "android": "https://dc.lft.to/lastmile_qr_scan"}}, {"name": "8efd21a7bc6968463bd101a4433cc903", "type": "electric_scooter", "lat": 38.924868833333335, "is_reserved": 0, "lon": -77.027133, "fusion_lon": 0.0, "is_disabled": 0, "fusion_lat": 0.0, "bike_id": "8efd21a7bc6968463bd101a4433cc903", "rental_uris": {"ios": "https://dc.lft.to/lastmile_qr_scan", "android": "https://dc.lft.to/lastmile_qr_scan"}}, {"name": "7bfc1a4cc2fa7bf54fcc8b570d2d6aac", "type": "electric_scooter", "lat": 38.90268066666667, "is_reserved": 0, "lon": -77.03646983333333, "fusion_lon": 0.0, "is_disabled": 0, "fusion_lat": 0.0, "bike_id": "7bfc1a4cc2fa7bf54fcc8b570d2d6aac", "rental_uris": {"ios": "https://dc.lft.to/lastmile_qr_scan", "android": "https://dc.lft.to/lastmile_qr_scan"}}, {"name": "bdded5dc5bb182a5dcbbaba1debe3c4f", "type": "electric_scooter", "lat": 38.92027266666667, "is_reserved": 0, "lon": -77.03881283333334, "fusion_lon": 0.0, "is_disabled": 0, "fusion_lat": 0.0, "bike_id": "bdded5dc5bb182a5dcbbaba1debe3c4f", "rental_uris": {"ios": "https://dc.lft.to/lastmile_qr_scan", "android": "https://dc.lft.to/lastmile_qr_scan"}}, {"name": "eea0c997f934b95571e73e95dad90a05", "type": "electric_bike", "lat": 38.8775335, "is_reserved": 0, "lon": -76.979889, "fusion_lon": 0.0, "is_disabled": 0, "fusion_lat": 0.0, "bike_id": "eea0c997f934b95571e73e95dad90a05", "rental_uris": {"ios": "https://dc.lft.to/lastmile_qr_scan", "android": "https://dc.lft.to/lastmile_qr_scan"}}, {"name": "56de4003c78811c07a55166a4fa2a2d3", "type": "electric_bike", "lat": 38.959305666666666, "is_reserved": 0, "lon": -76.92533233333333, "fusion_lon": 0.0, "is_disabled": 0, "fusion_lat": 0.0, "bike_id": "56de4003c78811c07a55166a4fa2a2d3", "rental_uris": {"ios": "https://dc.lft.to/lastmile_qr_scan", "android": "https://dc.lft.to/lastmile_qr_scan"}}, {"name": "c8fdba622990db960b71b387acc632f2", "type": "electric_scooter", "lat": 38.89424283333334, "is_reserved": 0, "lon": -76.93243316666667, "fusion_lon": 0.0, "is_disabled": 0, "fusion_lat": 0.0, "bike_id": "c8fdba622990db960b71b387acc632f2", "rental_uris": {"ios": "https://dc.lft.to/lastmile_qr_scan", "android": "https://dc.lft.to/lastmile_qr_scan"}}, {"name": "f0198e2237fa4f848eda8aa0779da7bf", "type": "electric_scooter", "lat": 38.956462333333334, "is_reserved": 0, "lon": -77.03286383333334, "fusion_lon": 0.0, "is_disabled": 0, "fusion_lat": 0.0, "bike_id": "f0198e2237fa4f848eda8aa0779da7bf", "rental_uris": {"ios": "https://dc.lft.to/lastmile_qr_scan", "android": "https://dc.lft.to/lastmile_qr_scan"}}, {"name": "442035a3e582c3ea7d4cb6364ab0e1d5", "type": "electric_scooter", "lat": 38.90275583333333, "is_reserved": 0, "lon": -77.03641266666666, "fusion_lon": 0.0, "is_disabled": 0, "fusion_lat": 0.0, "bike_id": "442035a3e582c3ea7d4cb6364ab0e1d5", "rental_uris": {"ios": "https://dc.lft.to/lastmile_qr_scan", "android": "https://dc.lft.to/lastmile_qr_scan"}}, {"name": "48efb408d223d31725f62bdb2509faec", "type": "electric_scooter", "lat": 38.92375066666666, "is_reserved": 0, "lon": -77.03144333333333, "fusion_lon": 0.0, "is_disabled": 0, "fusion_lat": 0.0, "bike_id": "48efb408d223d31725f62bdb2509faec", "rental_uris": {"ios": "https://dc.lft.to/lastmile_qr_scan", "android": "https://dc.lft.to/lastmile_qr_scan"}}, {"name": "d34c7b9a5da984f5a6effbbde86c7fa9", "type": "electric_scooter", "lat": 38.90269466666667, "is_reserved": 0, "lon": -77.038436, "fusion_lon": 0.0, "is_disabled": 0, "fusion_lat": 0.0, "bike_id": "d34c7b9a5da984f5a6effbbde86c7fa9", "rental_uris": {"ios": "https://dc.lft.to/lastmile_qr_scan", "android": "https://dc.lft.to/lastmile_qr_scan"}}, {"name": "6b6306427c0e57deb0721926bb56d9eb", "type": "electric_scooter", "lat": 38.934624666666664, "is_reserved": 0, "lon": -77.07292866666667, "fusion_lon": 0.0, "is_disabled": 0, "fusion_lat": 0.0, "bike_id": "6b6306427c0e57deb0721926bb56d9eb", "rental_uris": {"ios": "https://dc.lft.to/lastmile_qr_scan", "android": "https://dc.lft.to/lastmile_qr_scan"}}, {"name": "ed705dfaee5605f782f6cd20e4df1d6b", "type": "electric_bike", "lat": 39.00365933333333, "is_reserved": 0, "lon": -77.01301366666667, "fusion_lon": 0.0, "is_disabled": 0, "fusion_lat": 0.0, "bike_id": "ed705dfaee5605f782f6cd20e4df1d6b", "rental_uris": {"ios": "https://dc.lft.to/lastmile_qr_scan", "android": "https://dc.lft.to/lastmile_qr_scan"}}, {"name": "55b61d91a7a766111ac9398bf9ba6c73", "type": "electric_scooter", "lat": 38.85800033333334, "is_reserved": 0, "lon": -76.9912175, "fusion_lon": 0.0, "is_disabled": 0, "fusion_lat": 0.0, "bike_id": "55b61d91a7a766111ac9398bf9ba6c73", "rental_uris": {"ios": "https://dc.lft.to/lastmile_qr_scan", "android": "https://dc.lft.to/lastmile_qr_scan"}}, {"name": "d2ee67a95f0956d9959bd7d4794a9305", "type": "electric_scooter", "lat": 38.91578883333333, "is_reserved": 0, "lon": -77.031891, "fusion_lon": 0.0, "is_disabled": 0, "fusion_lat": 0.0, "bike_id": "d2ee67a95f0956d9959bd7d4794a9305", "rental_uris": {"ios": "https://dc.lft.to/lastmile_qr_scan", "android": "https://dc.lft.to/lastmile_qr_scan"}}, {"name": "5b5a4bf48f2fd5e3d0f9254c3048b3d5", "type": "electric_scooter", "lat": 38.8980175, "is_reserved": 0, "lon": -77.011975, "fusion_lon": 0.0, "is_disabled": 0, "fusion_lat": 0.0, "bike_id": "5b5a4bf48f2fd5e3d0f9254c3048b3d5", "rental_uris": {"ios": "https://dc.lft.to/lastmile_qr_scan", "android": "https://dc.lft.to/lastmile_qr_scan"}}, {"name": "7cb5e130c009a54c08a1bbf56b308bc3", "type": "electric_scooter", "lat": 38.898884333333335, "is_reserved": 0, "lon": -76.99142783333333, "fusion_lon": 0.0, "is_disabled": 0, "fusion_lat": 0.0, "bike_id": "7cb5e130c009a54c08a1bbf56b308bc3", "rental_uris": {"ios": "https://dc.lft.to/lastmile_qr_scan", "android": "https://dc.lft.to/lastmile_qr_scan"}}, {"name": "afa995afba337b90bc098ce039b1539a", "type": "electric_bike", "lat": 38.897709, "is_reserved": 0, "lon": -76.90445716666666, "fusion_lon": 0.0, "is_disabled": 0, "fusion_lat": 0.0, "bike_id": "afa995afba337b90bc098ce039b1539a", "rental_uris": {"ios": "https://dc.lft.to/lastmile_qr_scan", "android": "https://dc.lft.to/lastmile_qr_scan"}}, {"name": "fbb89a6dbc5fbc05bd88d8991a8b08c5", "type": "electric_scooter", "lat": 38.922662333333335, "is_reserved": 0, "lon": -77.03400033333334, "fusion_lon": 0.0, "is_disabled": 0, "fusion_lat": 0.0, "bike_id": "fbb89a6dbc5fbc05bd88d8991a8b08c5", "rental_uris": {"ios": "https://dc.lft.to/lastmile_qr_scan", "android": "https://dc.lft.to/lastmile_qr_scan"}}, {"name": "c3d8aeb149adce6340c840f8701c0abe", "type": "electric_scooter", "lat": 38.93442733333333, "is_reserved": 0, "lon": -77.02841966666666, "fusion_lon": 0.0, "is_disabled": 0, "fusion_lat": 0.0, "bike_id": "c3d8aeb149adce6340c840f8701c0abe", "rental_uris": {"ios": "https://dc.lft.to/lastmile_qr_scan", "android": "https://dc.lft.to/lastmile_qr_scan"}}, {"name": "7149c1819ff699e28a87b8f77f1741e2", "type": "electric_scooter", "lat": 38.931216, "is_reserved": 0, "lon": -77.02089633333334, "fusion_lon": 0.0, "is_disabled": 0, "fusion_lat": 0.0, "bike_id": "7149c1819ff699e28a87b8f77f1741e2", "rental_uris": {"ios": "https://dc.lft.to/lastmile_qr_scan", "android": "https://dc.lft.to/lastmile_qr_scan"}}, {"name": "5652bcb5e942fd8a0ee0c65f624d5340", "type": "electric_scooter", "lat": 38.86702016666667, "is_reserved": 0, "lon": -76.98713816666667, "fusion_lon": 0.0, "is_disabled": 0, "fusion_lat": 0.0, "bike_id": "5652bcb5e942fd8a0ee0c65f624d5340", "rental_uris": {"ios": "https://dc.lft.to/lastmile_qr_scan", "android": "https://dc.lft.to/lastmile_qr_scan"}}, {"name": "af7f55646231715e571e91e1e80292e7", "type": "electric_bike", "lat": 38.946255666666666, "is_reserved": 0, "lon": -76.946293, "fusion_lon": 0.0, "is_disabled": 0, "fusion_lat": 0.0, "bike_id": "af7f55646231715e571e91e1e80292e7", "rental_uris": {"ios": "https://dc.lft.to/lastmile_qr_scan", "android": "https://dc.lft.to/lastmile_qr_scan"}}, {"name": "28734cf73ce102f42bd0fb602ec41888", "type": "electric_scooter", "lat": 38.89755233333333, "is_reserved": 0, "lon": -77.007357, "fusion_lon": 0.0, "is_disabled": 0, "fusion_lat": 0.0, "bike_id": "28734cf73ce102f42bd0fb602ec41888", "rental_uris": {"ios": "https://dc.lft.to/lastmile_qr_scan", "android": "https://dc.lft.to/lastmile_qr_scan"}}, {"name": "6ab028430f2d745c9d1c91c8b8a91eb0", "type": "electric_scooter", "lat": 38.922335833333335, "is_reserved": 0, "lon": -77.04246333333333, "fusion_lon": 0.0, "is_disabled": 0, "fusion_lat": 0.0, "bike_id": "6ab028430f2d745c9d1c91c8b8a91eb0", "rental_uris": {"ios": "https://dc.lft.to/lastmile_qr_scan", "android": "https://dc.lft.to/lastmile_qr_scan"}}, {"name": "76336a39a4074b953b63e7168be9718b", "type": "electric_scooter", "lat": 38.8960395, "is_reserved": 0, "lon": -77.050744, "fusion_lon": 0.0, "is_disabled": 0, "fusion_lat": 0.0, "bike_id": "76336a39a4074b953b63e7168be9718b", "rental_uris": {"ios": "https://dc.lft.to/lastmile_qr_scan", "android": "https://dc.lft.to/lastmile_qr_scan"}}, {"name": "ee7176813dfc76d802fec6d731588968", "type": "electric_scooter", "lat": 38.9312525, "is_reserved": 0, "lon": -77.03602616666667, "fusion_lon": 0.0, "is_disabled": 0, "fusion_lat": 0.0, "bike_id": "ee7176813dfc76d802fec6d731588968", "rental_uris": {"ios": "https://dc.lft.to/lastmile_qr_scan", "android": "https://dc.lft.to/lastmile_qr_scan"}}, {"name": "2aae49056c9893aacadb028616032cf2", "type": "electric_scooter", "lat": 38.9318475, "is_reserved": 0, "lon": -77.0297575, "fusion_lon": 0.0, "is_disabled": 0, "fusion_lat": 0.0, "bike_id": "2aae49056c9893aacadb028616032cf2", "rental_uris": {"ios": "https://dc.lft.to/lastmile_qr_scan", "android": "https://dc.lft.to/lastmile_qr_scan"}}, {"name": "91c0779c9123582917421900d8cf6891", "type": "electric_scooter", "lat": 38.8728695, "is_reserved": 0, "lon": -77.00986766666666, "fusion_lon": 0.0, "is_disabled": 0, "fusion_lat": 0.0, "bike_id": "91c0779c9123582917421900d8cf6891", "rental_uris": {"ios": "https://dc.lft.to/lastmile_qr_scan", "android": "https://dc.lft.to/lastmile_qr_scan"}}, {"name": "12d7d48d72215939ea73f22f7cf4ed2e", "type": "electric_scooter", "lat": 38.899206666666664, "is_reserved": 0, "lon": -77.03166083333333, "fusion_lon": 0.0, "is_disabled": 0, "fusion_lat": 0.0, "bike_id": "12d7d48d72215939ea73f22f7cf4ed2e", "rental_uris": {"ios": "https://dc.lft.to/lastmile_qr_scan", "android": "https://dc.lft.to/lastmile_qr_scan"}}, {"name": "1d44055c7d0c56f89433e2408be3e57a", "type": "electric_scooter", "lat": 38.90255116666667, "is_reserved": 0, "lon": -77.0382985, "fusion_lon": 0.0, "is_disabled": 0, "fusion_lat": 0.0, "bike_id": "1d44055c7d0c56f89433e2408be3e57a", "rental_uris": {"ios": "https://dc.lft.to/lastmile_qr_scan", "android": "https://dc.lft.to/lastmile_qr_scan"}}, {"name": "f687076b62e99d89cbc841f7e2bd7503", "type": "electric_scooter", "lat": 38.9039395, "is_reserved": 0, "lon": -76.9894625, "fusion_lon": 0.0, "is_disabled": 0, "fusion_lat": 0.0, "bike_id": "f687076b62e99d89cbc841f7e2bd7503", "rental_uris": {"ios": "https://dc.lft.to/lastmile_qr_scan", "android": "https://dc.lft.to/lastmile_qr_scan"}}, {"name": "64b5eb73c96ec5d7e922ea16c5a0a345", "type": "electric_scooter", "lat": 38.92621966666667, "is_reserved": 0, "lon": -77.037884, "fusion_lon": 0.0, "is_disabled": 0, "fusion_lat": 0.0, "bike_id": "64b5eb73c96ec5d7e922ea16c5a0a345", "rental_uris": {"ios": "https://dc.lft.to/lastmile_qr_scan", "android": "https://dc.lft.to/lastmile_qr_scan"}}, {"name": "64bcff25a07103262766d6d569f94887", "type": "electric_scooter", "lat": 38.877144333333334, "is_reserved": 0, "lon": -76.99384333333333, "fusion_lon": 0.0, "is_disabled": 0, "fusion_lat": 0.0, "bike_id": "64bcff25a07103262766d6d569f94887", "rental_uris": {"ios": "https://dc.lft.to/lastmile_qr_scan", "android": "https://dc.lft.to/lastmile_qr_scan"}}, {"name": "69da2464eb17ca66d9c2f98f8c0319eb", "type": "electric_bike", "lat": 38.97091416666667, "is_reserved": 0, "lon": -77.069661, "fusion_lon": 0.0, "is_disabled": 0, "fusion_lat": 0.0, "bike_id": "69da2464eb17ca66d9c2f98f8c0319eb", "rental_uris": {"ios": "https://dc.lft.to/lastmile_qr_scan", "android": "https://dc.lft.to/lastmile_qr_scan"}}, {"name": "6cfc0d5104fb515417d39492e5b6ce6c", "type": "electric_scooter", "lat": 38.913331166666666, "is_reserved": 0, "lon": -77.04869583333333, "fusion_lon": 0.0, "is_disabled": 0, "fusion_lat": 0.0, "bike_id": "6cfc0d5104fb515417d39492e5b6ce6c", "rental_uris": {"ios": "https://dc.lft.to/lastmile_qr_scan", "android": "https://dc.lft.to/lastmile_qr_scan"}}, {"name": "7d13f5a70573fb4e56b2c5f970902f03", "type": "electric_scooter", "lat": 38.88761933333333, "is_reserved": 0, "lon": -76.92712716666666, "fusion_lon": 0.0, "is_disabled": 0, "fusion_lat": 0.0, "bike_id": "7d13f5a70573fb4e56b2c5f970902f03", "rental_uris": {"ios": "https://dc.lft.to/lastmile_qr_scan", "android": "https://dc.lft.to/lastmile_qr_scan"}}, {"name": "f293467bf2769b6930d2d487e4a42951", "type": "electric_scooter", "lat": 38.9037115, "is_reserved": 0, "lon": -77.0401995, "fusion_lon": 0.0, "is_disabled": 0, "fusion_lat": 0.0, "bike_id": "f293467bf2769b6930d2d487e4a42951", "rental_uris": {"ios": "https://dc.lft.to/lastmile_qr_scan", "android": "https://dc.lft.to/lastmile_qr_scan"}}, {"name": "b21c65fe0cd359023fca8c1a394679fa", "type": "electric_scooter", "lat": 38.89929166666667, "is_reserved": 0, "lon": -77.032684, "fusion_lon": 0.0, "is_disabled": 0, "fusion_lat": 0.0, "bike_id": "b21c65fe0cd359023fca8c1a394679fa", "rental_uris": {"ios": "https://dc.lft.to/lastmile_qr_scan", "android": "https://dc.lft.to/lastmile_qr_scan"}}, {"name": "99cfe292e1a8182b780097d550d0e4ed", "type": "electric_scooter", "lat": 38.89975883333334, "is_reserved": 0, "lon": -77.01010583333333, "fusion_lon": 0.0, "is_disabled": 0, "fusion_lat": 0.0, "bike_id": "99cfe292e1a8182b780097d550d0e4ed", "rental_uris": {"ios": "https://dc.lft.to/lastmile_qr_scan", "android": "https://dc.lft.to/lastmile_qr_scan"}}, {"name": "e377b581534b650ebc0fd20372fed1b6", "type": "electric_scooter", "lat": 38.93145033333333, "is_reserved": 0, "lon": -77.0384925, "fusion_lon": 0.0, "is_disabled": 0, "fusion_lat": 0.0, "bike_id": "e377b581534b650ebc0fd20372fed1b6", "rental_uris": {"ios": "https://dc.lft.to/lastmile_qr_scan", "android": "https://dc.lft.to/lastmile_qr_scan"}}, {"name": "b8c746df9a5d08c5c5e6ca4c38db59b7", "type": "electric_scooter", "lat": 38.9112295, "is_reserved": 0, "lon": -77.03177783333334, "fusion_lon": 0.0, "is_disabled": 0, "fusion_lat": 0.0, "bike_id": "b8c746df9a5d08c5c5e6ca4c38db59b7", "rental_uris": {"ios": "https://dc.lft.to/lastmile_qr_scan", "android": "https://dc.lft.to/lastmile_qr_scan"}}, {"name": "83dfa6b7a23c91b454759afc99a59b33", "type": "electric_bike", "lat": 38.9169765, "is_reserved": 0, "lon": -77.00811183333333, "fusion_lon": 0.0, "is_disabled": 0, "fusion_lat": 0.0, "bike_id": "83dfa6b7a23c91b454759afc99a59b33", "rental_uris": {"ios": "https://dc.lft.to/lastmile_qr_scan", "android": "https://dc.lft.to/lastmile_qr_scan"}}, {"name": "9c3135fb592c363907dec33ae6c31100", "type": "electric_scooter", "lat": 38.916919166666666, "is_reserved": 0, "lon": -77.037636, "fusion_lon": 0.0, "is_disabled": 0, "fusion_lat": 0.0, "bike_id": "9c3135fb592c363907dec33ae6c31100", "rental_uris": {"ios": "https://dc.lft.to/lastmile_qr_scan", "android": "https://dc.lft.to/lastmile_qr_scan"}}, {"name": "2969ccfdfaa0c61b094b4531124b2ad4", "type": "electric_scooter", "lat": 38.902489333333335, "is_reserved": 0, "lon": -77.04604433333333, "fusion_lon": 0.0, "is_disabled": 0, "fusion_lat": 0.0, "bike_id": "2969ccfdfaa0c61b094b4531124b2ad4", "rental_uris": {"ios": "https://dc.lft.to/lastmile_qr_scan", "android": "https://dc.lft.to/lastmile_qr_scan"}}, {"name": "6cd928bc79931186b3531a84493b3b48", "type": "electric_scooter", "lat": 38.93871516666667, "is_reserved": 0, "lon": -77.02477116666667, "fusion_lon": 0.0, "is_disabled": 0, "fusion_lat": 0.0, "bike_id": "6cd928bc79931186b3531a84493b3b48", "rental_uris": {"ios": "https://dc.lft.to/lastmile_qr_scan", "android": "https://dc.lft.to/lastmile_qr_scan"}}, {"name": "f6396242fa2dd2043d6e555af69e12dd", "type": "electric_scooter", "lat": 38.9320955, "is_reserved": 0, "lon": -77.02386183333333, "fusion_lon": 0.0, "is_disabled": 0, "fusion_lat": 0.0, "bike_id": "f6396242fa2dd2043d6e555af69e12dd", "rental_uris": {"ios": "https://dc.lft.to/lastmile_qr_scan", "android": "https://dc.lft.to/lastmile_qr_scan"}}, {"name": "e61f653b0aa8aa56fbc0f7d2e1a85d2d", "type": "electric_scooter", "lat": 38.8834745, "is_reserved": 0, "lon": -76.9855665, "fusion_lon": 0.0, "is_disabled": 0, "fusion_lat": 0.0, "bike_id": "e61f653b0aa8aa56fbc0f7d2e1a85d2d", "rental_uris": {"ios": "https://dc.lft.to/lastmile_qr_scan", "android": "https://dc.lft.to/lastmile_qr_scan"}}, {"name": "80e596733ca523a0e5931ba3319dc3c7", "type": "electric_scooter", "lat": 38.914062666666666, "is_reserved": 0, "lon": -77.04130483333333, "fusion_lon": 0.0, "is_disabled": 0, "fusion_lat": 0.0, "bike_id": "80e596733ca523a0e5931ba3319dc3c7", "rental_uris": {"ios": "https://dc.lft.to/lastmile_qr_scan", "android": "https://dc.lft.to/lastmile_qr_scan"}}, {"name": "e61fe2e530b6eca62f238f2942d178fd", "type": "electric_scooter", "lat": 38.91842316666666, "is_reserved": 0, "lon": -77.02306633333333, "fusion_lon": 0.0, "is_disabled": 0, "fusion_lat": 0.0, "bike_id": "e61fe2e530b6eca62f238f2942d178fd", "rental_uris": {"ios": "https://dc.lft.to/lastmile_qr_scan", "android": "https://dc.lft.to/lastmile_qr_scan"}}, {"name": "98006807546bbe1437decdb1b3a2f03e", "type": "electric_scooter", "lat": 38.8993615, "is_reserved": 0, "lon": -77.0466855, "fusion_lon": 0.0, "is_disabled": 0, "fusion_lat": 0.0, "bike_id": "98006807546bbe1437decdb1b3a2f03e", "rental_uris": {"ios": "https://dc.lft.to/lastmile_qr_scan", "android": "https://dc.lft.to/lastmile_qr_scan"}}, {"name": "4707b6a9ae4d9b1114c17b55cdbad2f4", "type": "electric_scooter", "lat": 38.9059695, "is_reserved": 0, "lon": -77.0514095, "fusion_lon": 0.0, "is_disabled": 0, "fusion_lat": 0.0, "bike_id": "4707b6a9ae4d9b1114c17b55cdbad2f4", "rental_uris": {"ios": "https://dc.lft.to/lastmile_qr_scan", "android": "https://dc.lft.to/lastmile_qr_scan"}}, {"name": "20f4f7c204faf78bdaf0c677758b4c5d", "type": "electric_bike", "lat": 38.9140475, "is_reserved": 0, "lon": -77.04156, "fusion_lon": 0.0, "is_disabled": 0, "fusion_lat": 0.0, "bike_id": "20f4f7c204faf78bdaf0c677758b4c5d", "rental_uris": {"ios": "https://dc.lft.to/lastmile_qr_scan", "android": "https://dc.lft.to/lastmile_qr_scan"}}, {"name": "30c9f2fef01adb7f1781e278e66d1146", "type": "electric_scooter", "lat": 38.91108216666667, "is_reserved": 0, "lon": -77.00240866666667, "fusion_lon": 0.0, "is_disabled": 0, "fusion_lat": 0.0, "bike_id": "30c9f2fef01adb7f1781e278e66d1146", "rental_uris": {"ios": "https://dc.lft.to/lastmile_qr_scan", "android": "https://dc.lft.to/lastmile_qr_scan"}}, {"name": "978f312ac5faaf2eaeb677579a98318b", "type": "electric_scooter", "lat": 38.92714216666667, "is_reserved": 0, "lon": -77.02592416666667, "fusion_lon": 0.0, "is_disabled": 0, "fusion_lat": 0.0, "bike_id": "978f312ac5faaf2eaeb677579a98318b", "rental_uris": {"ios": "https://dc.lft.to/lastmile_qr_scan", "android": "https://dc.lft.to/lastmile_qr_scan"}}, {"name": "cf945a1f27122f0a011a699d1bf263c6", "type": "electric_scooter", "lat": 38.877615666666664, "is_reserved": 0, "lon": -77.007295, "fusion_lon": 0.0, "is_disabled": 0, "fusion_lat": 0.0, "bike_id": "cf945a1f27122f0a011a699d1bf263c6", "rental_uris": {"ios": "https://dc.lft.to/lastmile_qr_scan", "android": "https://dc.lft.to/lastmile_qr_scan"}}, {"name": "3b2abeb8ceb0a016d2413f1ce92aeb0d", "type": "electric_scooter", "lat": 38.9013945, "is_reserved": 0, "lon": -77.04649233333333, "fusion_lon": 0.0, "is_disabled": 0, "fusion_lat": 0.0, "bike_id": "3b2abeb8ceb0a016d2413f1ce92aeb0d", "rental_uris": {"ios": "https://dc.lft.to/lastmile_qr_scan", "android": "https://dc.lft.to/lastmile_qr_scan"}}, {"name": "bbac3fd33e4629629112310f8d656ec4", "type": "electric_bike", "lat": 38.8773535, "is_reserved": 0, "lon": -77.11852083333333, "fusion_lon": 0.0, "is_disabled": 0, "fusion_lat": 0.0, "bike_id": "bbac3fd33e4629629112310f8d656ec4", "rental_uris": {"ios": "https://dc.lft.to/lastmile_qr_scan", "android": "https://dc.lft.to/lastmile_qr_scan"}}, {"name": "03cb86e489dcc82859ac55faa67b949f", "type": "electric_scooter", "lat": 38.930606833333336, "is_reserved": 0, "lon": -77.0380325, "fusion_lon": 0.0, "is_disabled": 0, "fusion_lat": 0.0, "bike_id": "03cb86e489dcc82859ac55faa67b949f", "rental_uris": {"ios": "https://dc.lft.to/lastmile_qr_scan", "android": "https://dc.lft.to/lastmile_qr_scan"}}, {"name": "87ff6a9d7ba67c15d498de305d689ecd", "type": "electric_scooter", "lat": 38.912094833333335, "is_reserved": 0, "lon": -77.0281365, "fusion_lon": 0.0, "is_disabled": 0, "fusion_lat": 0.0, "bike_id": "87ff6a9d7ba67c15d498de305d689ecd", "rental_uris": {"ios": "https://dc.lft.to/lastmile_qr_scan", "android": "https://dc.lft.to/lastmile_qr_scan"}}, {"name": "586d048d136a5aa04d90f037c4f16ee6", "type": "electric_bike", "lat": 39.105671666666666, "is_reserved": 0, "lon": -77.152682, "fusion_lon": 0.0, "is_disabled": 0, "fusion_lat": 0.0, "bike_id": "586d048d136a5aa04d90f037c4f16ee6", "rental_uris": {"ios": "https://dc.lft.to/lastmile_qr_scan", "android": "https://dc.lft.to/lastmile_qr_scan"}}, {"name": "a267e52a2096f47fefe376c335957eb2", "type": "electric_scooter", "lat": 38.90356516666667, "is_reserved": 0, "lon": -77.04345283333333, "fusion_lon": 0.0, "is_disabled": 0, "fusion_lat": 0.0, "bike_id": "a267e52a2096f47fefe376c335957eb2", "rental_uris": {"ios": "https://dc.lft.to/lastmile_qr_scan", "android": "https://dc.lft.to/lastmile_qr_scan"}}, {"name": "f1344d642b52165ffdf0cd8b2086d594", "type": "electric_scooter", "lat": 38.95089683333333, "is_reserved": 0, "lon": -77.02869116666666, "fusion_lon": 0.0, "is_disabled": 0, "fusion_lat": 0.0, "bike_id": "f1344d642b52165ffdf0cd8b2086d594", "rental_uris": {"ios": "https://dc.lft.to/lastmile_qr_scan", "android": "https://dc.lft.to/lastmile_qr_scan"}}, {"name": "a53933fd64de379c025e4e5aa27777df", "type": "electric_bike", "lat": 38.88691133333333, "is_reserved": 0, "lon": -77.16269916666667, "fusion_lon": 0.0, "is_disabled": 0, "fusion_lat": 0.0, "bike_id": "a53933fd64de379c025e4e5aa27777df", "rental_uris": {"ios": "https://dc.lft.to/lastmile_qr_scan", "android": "https://dc.lft.to/lastmile_qr_scan"}}, {"name": "6945cab3d6fe6d3ed635120994b35a45", "type": "electric_scooter", "lat": 38.90264666666667, "is_reserved": 0, "lon": -77.0531515, "fusion_lon": 0.0, "is_disabled": 0, "fusion_lat": 0.0, "bike_id": "6945cab3d6fe6d3ed635120994b35a45", "rental_uris": {"ios": "https://dc.lft.to/lastmile_qr_scan", "android": "https://dc.lft.to/lastmile_qr_scan"}}, {"name": "9a1e09ef65302d677baee31989df6e36", "type": "electric_scooter", "lat": 38.9275135, "is_reserved": 0, "lon": -77.024835, "fusion_lon": 0.0, "is_disabled": 0, "fusion_lat": 0.0, "bike_id": "9a1e09ef65302d677baee31989df6e36", "rental_uris": {"ios": "https://dc.lft.to/lastmile_qr_scan", "android": "https://dc.lft.to/lastmile_qr_scan"}}, {"name": "05aa6591cdb8f8adaf7b5f8cee95de1a", "type": "electric_scooter", "lat": 38.915518166666665, "is_reserved": 0, "lon": -77.03201483333333, "fusion_lon": 0.0, "is_disabled": 0, "fusion_lat": 0.0, "bike_id": "05aa6591cdb8f8adaf7b5f8cee95de1a", "rental_uris": {"ios": "https://dc.lft.to/lastmile_qr_scan", "android": "https://dc.lft.to/lastmile_qr_scan"}}, {"name": "a2945f49ddb23df809f59f8125ae7038", "type": "electric_scooter", "lat": 38.923657166666665, "is_reserved": 0, "lon": -77.05031983333333, "fusion_lon": 0.0, "is_disabled": 0, "fusion_lat": 0.0, "bike_id": "a2945f49ddb23df809f59f8125ae7038", "rental_uris": {"ios": "https://dc.lft.to/lastmile_qr_scan", "android": "https://dc.lft.to/lastmile_qr_scan"}}, {"name": "176e3491154514f9a57a35b297f44c14", "type": "electric_scooter", "lat": 38.920254, "is_reserved": 0, "lon": -77.02532516666666, "fusion_lon": 0.0, "is_disabled": 0, "fusion_lat": 0.0, "bike_id": "176e3491154514f9a57a35b297f44c14", "rental_uris": {"ios": "https://dc.lft.to/lastmile_qr_scan", "android": "https://dc.lft.to/lastmile_qr_scan"}}, {"name": "969ef39b714c9f5fed3d1ef60f452a00", "type": "electric_scooter", "lat": 38.90798733333333, "is_reserved": 0, "lon": -77.04824933333333, "fusion_lon": 0.0, "is_disabled": 0, "fusion_lat": 0.0, "bike_id": "969ef39b714c9f5fed3d1ef60f452a00", "rental_uris": {"ios": "https://dc.lft.to/lastmile_qr_scan", "android": "https://dc.lft.to/lastmile_qr_scan"}}, {"name": "fd6b6a1cae64250167c7c56b858bae34", "type": "electric_scooter", "lat": 38.90967766666667, "is_reserved": 0, "lon": -77.03676716666666, "fusion_lon": 0.0, "is_disabled": 0, "fusion_lat": 0.0, "bike_id": "fd6b6a1cae64250167c7c56b858bae34", "rental_uris": {"ios": "https://dc.lft.to/lastmile_qr_scan", "android": "https://dc.lft.to/lastmile_qr_scan"}}, {"name": "79de60bdeb7488d627a5bca158d62c0c", "type": "electric_scooter", "lat": 38.89831366666667, "is_reserved": 0, "lon": -77.04364816666667, "fusion_lon": 0.0, "is_disabled": 0, "fusion_lat": 0.0, "bike_id": "79de60bdeb7488d627a5bca158d62c0c", "rental_uris": {"ios": "https://dc.lft.to/lastmile_qr_scan", "android": "https://dc.lft.to/lastmile_qr_scan"}}, {"name": "320dcf3e12eae30fab6a10d60e3d321b", "type": "electric_scooter", "lat": 38.883660166666665, "is_reserved": 0, "lon": -77.03169316666667, "fusion_lon": 0.0, "is_disabled": 0, "fusion_lat": 0.0, "bike_id": "320dcf3e12eae30fab6a10d60e3d321b", "rental_uris": {"ios": "https://dc.lft.to/lastmile_qr_scan", "android": "https://dc.lft.to/lastmile_qr_scan"}}, {"name": "0aaef8f3a6b5bc78b0431c23b2dd7e7c", "type": "electric_scooter", "lat": 38.90679866666667, "is_reserved": 0, "lon": -77.0756225, "fusion_lon": 0.0, "is_disabled": 0, "fusion_lat": 0.0, "bike_id": "0aaef8f3a6b5bc78b0431c23b2dd7e7c", "rental_uris": {"ios": "https://dc.lft.to/lastmile_qr_scan", "android": "https://dc.lft.to/lastmile_qr_scan"}}, {"name": "0504c53260b6881fedb8a2db5428ebe9", "type": "electric_scooter", "lat": 38.89232416666667, "is_reserved": 0, "lon": -77.05004283333334, "fusion_lon": 0.0, "is_disabled": 0, "fusion_lat": 0.0, "bike_id": "0504c53260b6881fedb8a2db5428ebe9", "rental_uris": {"ios": "https://dc.lft.to/lastmile_qr_scan", "android": "https://dc.lft.to/lastmile_qr_scan"}}, {"name": "598682bd61b1b87296ed2fce7dbcf4c7", "type": "electric_scooter", "lat": 38.93531616666667, "is_reserved": 0, "lon": -77.02851416666667, "fusion_lon": 0.0, "is_disabled": 0, "fusion_lat": 0.0, "bike_id": "598682bd61b1b87296ed2fce7dbcf4c7", "rental_uris": {"ios": "https://dc.lft.to/lastmile_qr_scan", "android": "https://dc.lft.to/lastmile_qr_scan"}}, {"name": "0d1e48db12231d9b1dd6e2a260440f63", "type": "electric_bike", "lat": 38.89358033333333, "is_reserved": 0, "lon": -77.18742783333333, "fusion_lon": 0.0, "is_disabled": 0, "fusion_lat": 0.0, "bike_id": "0d1e48db12231d9b1dd6e2a260440f63", "rental_uris": {"ios": "https://dc.lft.to/lastmile_qr_scan", "android": "https://dc.lft.to/lastmile_qr_scan"}}, {"name": "3a0dbe98d18c963fd6ca47902185adf2", "type": "electric_scooter", "lat": 38.9126345, "is_reserved": 0, "lon": -77.009531, "fusion_lon": 0.0, "is_disabled": 0, "fusion_lat": 0.0, "bike_id": "3a0dbe98d18c963fd6ca47902185adf2", "rental_uris": {"ios": "https://dc.lft.to/lastmile_qr_scan", "android": "https://dc.lft.to/lastmile_qr_scan"}}, {"name": "33e418739428716f8362a4d0583b1589", "type": "electric_scooter", "lat": 38.931470166666664, "is_reserved": 0, "lon": -77.03896666666667, "fusion_lon": 0.0, "is_disabled": 0, "fusion_lat": 0.0, "bike_id": "33e418739428716f8362a4d0583b1589", "rental_uris": {"ios": "https://dc.lft.to/lastmile_qr_scan", "android": "https://dc.lft.to/lastmile_qr_scan"}}, {"name": "b9a75c23b8324e362b670bdf190c8ac1", "type": "electric_scooter", "lat": 38.89220316666667, "is_reserved": 0, "lon": -77.02816216666666, "fusion_lon": 0.0, "is_disabled": 0, "fusion_lat": 0.0, "bike_id": "b9a75c23b8324e362b670bdf190c8ac1", "rental_uris": {"ios": "https://dc.lft.to/lastmile_qr_scan", "android": "https://dc.lft.to/lastmile_qr_scan"}}, {"name": "d878796bedfd8e7015b5721e582c55cd", "type": "electric_scooter", "lat": 38.892192666666666, "is_reserved": 0, "lon": -77.04329083333333, "fusion_lon": 0.0, "is_disabled": 0, "fusion_lat": 0.0, "bike_id": "d878796bedfd8e7015b5721e582c55cd", "rental_uris": {"ios": "https://dc.lft.to/lastmile_qr_scan", "android": "https://dc.lft.to/lastmile_qr_scan"}}, {"name": "a0fa23ab724e710ca4fd3ecd21196fee", "type": "electric_scooter", "lat": 38.87400866666667, "is_reserved": 0, "lon": -77.0005165, "fusion_lon": 0.0, "is_disabled": 0, "fusion_lat": 0.0, "bike_id": "a0fa23ab724e710ca4fd3ecd21196fee", "rental_uris": {"ios": "https://dc.lft.to/lastmile_qr_scan", "android": "https://dc.lft.to/lastmile_qr_scan"}}, {"name": "f3ab685d9af5993155cf6b9c95115396", "type": "electric_scooter", "lat": 38.92842516666666, "is_reserved": 0, "lon": -77.05436066666667, "fusion_lon": 0.0, "is_disabled": 0, "fusion_lat": 0.0, "bike_id": "f3ab685d9af5993155cf6b9c95115396", "rental_uris": {"ios": "https://dc.lft.to/lastmile_qr_scan", "android": "https://dc.lft.to/lastmile_qr_scan"}}, {"name": "9cabcdce0d611453c93781cbe1ebbaea", "type": "electric_scooter", "lat": 38.908218, "is_reserved": 0, "lon": -76.99679633333334, "fusion_lon": 0.0, "is_disabled": 0, "fusion_lat": 0.0, "bike_id": "9cabcdce0d611453c93781cbe1ebbaea", "rental_uris": {"ios": "https://dc.lft.to/lastmile_qr_scan", "android": "https://dc.lft.to/lastmile_qr_scan"}}, {"name": "3f159e6ac53ec2efc57b6620404ca9f9", "type": "electric_scooter", "lat": 38.900263, "is_reserved": 0, "lon": -77.01025016666667, "fusion_lon": 0.0, "is_disabled": 0, "fusion_lat": 0.0, "bike_id": "3f159e6ac53ec2efc57b6620404ca9f9", "rental_uris": {"ios": "https://dc.lft.to/lastmile_qr_scan", "android": "https://dc.lft.to/lastmile_qr_scan"}}, {"name": "5cbee335f8de5cac48a6d0f4e3ab840a", "type": "electric_scooter", "lat": 38.89580216666667, "is_reserved": 0, "lon": -77.025642, "fusion_lon": 0.0, "is_disabled": 0, "fusion_lat": 0.0, "bike_id": "5cbee335f8de5cac48a6d0f4e3ab840a", "rental_uris": {"ios": "https://dc.lft.to/lastmile_qr_scan", "android": "https://dc.lft.to/lastmile_qr_scan"}}, {"name": "3bd904a83b4b0c157eeecbfb02d50768", "type": "electric_scooter", "lat": 38.90671583333334, "is_reserved": 0, "lon": -77.0270875, "fusion_lon": 0.0, "is_disabled": 0, "fusion_lat": 0.0, "bike_id": "3bd904a83b4b0c157eeecbfb02d50768", "rental_uris": {"ios": "https://dc.lft.to/lastmile_qr_scan", "android": "https://dc.lft.to/lastmile_qr_scan"}}, {"name": "47fead5606008d94d0c60dafd427baa7", "type": "electric_scooter", "lat": 38.910176166666666, "is_reserved": 0, "lon": -77.04424733333333, "fusion_lon": 0.0, "is_disabled": 0, "fusion_lat": 0.0, "bike_id": "47fead5606008d94d0c60dafd427baa7", "rental_uris": {"ios": "https://dc.lft.to/lastmile_qr_scan", "android": "https://dc.lft.to/lastmile_qr_scan"}}, {"name": "0764ef9ccce2bee598dc3a41e0349ca2", "type": "electric_scooter", "lat": 38.892221666666664, "is_reserved": 0, "lon": -77.0214545, "fusion_lon": 0.0, "is_disabled": 0, "fusion_lat": 0.0, "bike_id": "0764ef9ccce2bee598dc3a41e0349ca2", "rental_uris": {"ios": "https://dc.lft.to/lastmile_qr_scan", "android": "https://dc.lft.to/lastmile_qr_scan"}}, {"name": "842fc63804a0d403bb3fa306f428d2be", "type": "electric_scooter", "lat": 38.8766105, "is_reserved": 0, "lon": -77.000637, "fusion_lon": 0.0, "is_disabled": 0, "fusion_lat": 0.0, "bike_id": "842fc63804a0d403bb3fa306f428d2be", "rental_uris": {"ios": "https://dc.lft.to/lastmile_qr_scan", "android": "https://dc.lft.to/lastmile_qr_scan"}}, {"name": "ab9ee1d011e995884ece9b5da10aea92", "type": "electric_scooter", "lat": 38.920019333333336, "is_reserved": 0, "lon": -77.0397635, "fusion_lon": 0.0, "is_disabled": 0, "fusion_lat": 0.0, "bike_id": "ab9ee1d011e995884ece9b5da10aea92", "rental_uris": {"ios": "https://dc.lft.to/lastmile_qr_scan", "android": "https://dc.lft.to/lastmile_qr_scan"}}, {"name": "1a7644d3a1d7b20a6d7471f4da372025", "type": "electric_scooter", "lat": 38.891203, "is_reserved": 0, "lon": -77.003478, "fusion_lon": 0.0, "is_disabled": 0, "fusion_lat": 0.0, "bike_id": "1a7644d3a1d7b20a6d7471f4da372025", "rental_uris": {"ios": "https://dc.lft.to/lastmile_qr_scan", "android": "https://dc.lft.to/lastmile_qr_scan"}}, {"name": "f713bfe6550e6177853117d0c582d3ee", "type": "electric_scooter", "lat": 38.907519, "is_reserved": 0, "lon": -77.02976883333334, "fusion_lon": 0.0, "is_disabled": 0, "fusion_lat": 0.0, "bike_id": "f713bfe6550e6177853117d0c582d3ee", "rental_uris": {"ios": "https://dc.lft.to/lastmile_qr_scan", "android": "https://dc.lft.to/lastmile_qr_scan"}}, {"name": "789d792339dd2f4f7a0de8298f4a60f1", "type": "electric_bike", "lat": 39.0305115, "is_reserved": 0, "lon": -77.09474483333334, "fusion_lon": 0.0, "is_disabled": 0, "fusion_lat": 0.0, "bike_id": "789d792339dd2f4f7a0de8298f4a60f1", "rental_uris": {"ios": "https://dc.lft.to/lastmile_qr_scan", "android": "https://dc.lft.to/lastmile_qr_scan"}}, {"name": "801b0d26a544bd953ae203ee359fc532", "type": "electric_scooter", "lat": 38.91804916666667, "is_reserved": 0, "lon": -77.00167883333333, "fusion_lon": 0.0, "is_disabled": 0, "fusion_lat": 0.0, "bike_id": "801b0d26a544bd953ae203ee359fc532", "rental_uris": {"ios": "https://dc.lft.to/lastmile_qr_scan", "android": "https://dc.lft.to/lastmile_qr_scan"}}, {"name": "dbe22d1de1e1cf0d19ecefd9a9a1d7d6", "type": "electric_scooter", "lat": 38.88416216666667, "is_reserved": 0, "lon": -77.019654, "fusion_lon": 0.0, "is_disabled": 0, "fusion_lat": 0.0, "bike_id": "dbe22d1de1e1cf0d19ecefd9a9a1d7d6", "rental_uris": {"ios": "https://dc.lft.to/lastmile_qr_scan", "android": "https://dc.lft.to/lastmile_qr_scan"}}, {"name": "96c8c17b0a8f9f75a495009897ca1a61", "type": "electric_scooter", "lat": 38.904093, "is_reserved": 0, "lon": -77.01778133333333, "fusion_lon": 0.0, "is_disabled": 0, "fusion_lat": 0.0, "bike_id": "96c8c17b0a8f9f75a495009897ca1a61", "rental_uris": {"ios": "https://dc.lft.to/lastmile_qr_scan", "android": "https://dc.lft.to/lastmile_qr_scan"}}, {"name": "66d45d6b7c1a63a26e05a6452aab3118", "type": "electric_bike", "lat": 39.08858033333333, "is_reserved": 0, "lon": -77.17842533333334, "fusion_lon": 0.0, "is_disabled": 0, "fusion_lat": 0.0, "bike_id": "66d45d6b7c1a63a26e05a6452aab3118", "rental_uris": {"ios": "https://dc.lft.to/lastmile_qr_scan", "android": "https://dc.lft.to/lastmile_qr_scan"}}, {"name": "bba2cc84d757d9b239b4f8e3a1925913", "type": "electric_scooter", "lat": 38.956463, "is_reserved": 0, "lon": -77.03288283333333, "fusion_lon": 0.0, "is_disabled": 0, "fusion_lat": 0.0, "bike_id": "bba2cc84d757d9b239b4f8e3a1925913", "rental_uris": {"ios": "https://dc.lft.to/lastmile_qr_scan", "android": "https://dc.lft.to/lastmile_qr_scan"}}, {"name": "4f4fd6540b0cc876ce267eb7be4fb121", "type": "electric_scooter", "lat": 38.90713183333333, "is_reserved": 0, "lon": -77.03265083333334, "fusion_lon": 0.0, "is_disabled": 0, "fusion_lat": 0.0, "bike_id": "4f4fd6540b0cc876ce267eb7be4fb121", "rental_uris": {"ios": "https://dc.lft.to/lastmile_qr_scan", "android": "https://dc.lft.to/lastmile_qr_scan"}}, {"name": "f952df37e01babda6a99ea1fb5819a3f", "type": "electric_scooter", "lat": 38.90691266666666, "is_reserved": 0, "lon": -77.02703083333333, "fusion_lon": 0.0, "is_disabled": 0, "fusion_lat": 0.0, "bike_id": "f952df37e01babda6a99ea1fb5819a3f", "rental_uris": {"ios": "https://dc.lft.to/lastmile_qr_scan", "android": "https://dc.lft.to/lastmile_qr_scan"}}, {"name": "7bf5ccebbbb5246a0a96efede0a4601d", "type": "electric_scooter", "lat": 38.86537233333333, "is_reserved": 0, "lon": -76.98706516666667, "fusion_lon": 0.0, "is_disabled": 0, "fusion_lat": 0.0, "bike_id": "7bf5ccebbbb5246a0a96efede0a4601d", "rental_uris": {"ios": "https://dc.lft.to/lastmile_qr_scan", "android": "https://dc.lft.to/lastmile_qr_scan"}}, {"name": "3e67a3504950abcebc0de54ead540344", "type": "electric_bike", "lat": 38.9285705, "is_reserved": 0, "lon": -77.22224716666666, "fusion_lon": 0.0, "is_disabled": 0, "fusion_lat": 0.0, "bike_id": "3e67a3504950abcebc0de54ead540344", "rental_uris": {"ios": "https://dc.lft.to/lastmile_qr_scan", "android": "https://dc.lft.to/lastmile_qr_scan"}}, {"name": "bd702985a263e5cc93d05d740922bd6b", "type": "electric_scooter", "lat": 38.92741633333333, "is_reserved": 0, "lon": -77.012023, "fusion_lon": 0.0, "is_disabled": 0, "fusion_lat": 0.0, "bike_id": "bd702985a263e5cc93d05d740922bd6b", "rental_uris": {"ios": "https://dc.lft.to/lastmile_qr_scan", "android": "https://dc.lft.to/lastmile_qr_scan"}}, {"name": "5ff89d3c1d22de2b82d51ade4d2f9ae6", "type": "electric_scooter", "lat": 38.901512333333336, "is_reserved": 0, "lon": -77.040297, "fusion_lon": 0.0, "is_disabled": 0, "fusion_lat": 0.0, "bike_id": "5ff89d3c1d22de2b82d51ade4d2f9ae6", "rental_uris": {"ios": "https://dc.lft.to/lastmile_qr_scan", "android": "https://dc.lft.to/lastmile_qr_scan"}}, {"name": "829b0e1eb4ac0846d20051a45687454f", "type": "electric_scooter", "lat": 38.892258, "is_reserved": 0, "lon": -77.03965383333333, "fusion_lon": 0.0, "is_disabled": 0, "fusion_lat": 0.0, "bike_id": "829b0e1eb4ac0846d20051a45687454f", "rental_uris": {"ios": "https://dc.lft.to/lastmile_qr_scan", "android": "https://dc.lft.to/lastmile_qr_scan"}}, {"name": "a487aee39ff2edb31ec0ea569f1d488f", "type": "electric_scooter", "lat": 38.91024016666667, "is_reserved": 0, "lon": -77.0344985, "fusion_lon": 0.0, "is_disabled": 0, "fusion_lat": 0.0, "bike_id": "a487aee39ff2edb31ec0ea569f1d488f", "rental_uris": {"ios": "https://dc.lft.to/lastmile_qr_scan", "android": "https://dc.lft.to/lastmile_qr_scan"}}, {"name": "615e6eed37716f793990703294b5894d", "type": "electric_scooter", "lat": 38.93349283333333, "is_reserved": 0, "lon": -77.05866133333333, "fusion_lon": 0.0, "is_disabled": 0, "fusion_lat": 0.0, "bike_id": "615e6eed37716f793990703294b5894d", "rental_uris": {"ios": "https://dc.lft.to/lastmile_qr_scan", "android": "https://dc.lft.to/lastmile_qr_scan"}}, {"name": "19218ed1ef4f3506ab4a4cb86bee320a", "type": "electric_scooter", "lat": 38.90058466666667, "is_reserved": 0, "lon": -77.02612966666666, "fusion_lon": 0.0, "is_disabled": 0, "fusion_lat": 0.0, "bike_id": "19218ed1ef4f3506ab4a4cb86bee320a", "rental_uris": {"ios": "https://dc.lft.to/lastmile_qr_scan", "android": "https://dc.lft.to/lastmile_qr_scan"}}, {"name": "eae12b047184ae6560a62c13069c6789", "type": "electric_scooter", "lat": 38.86249183333334, "is_reserved": 0, "lon": -76.995317, "fusion_lon": 0.0, "is_disabled": 0, "fusion_lat": 0.0, "bike_id": "eae12b047184ae6560a62c13069c6789", "rental_uris": {"ios": "https://dc.lft.to/lastmile_qr_scan", "android": "https://dc.lft.to/lastmile_qr_scan"}}, {"name": "e5f2c3dfee5410db885f93606ef1a410", "type": "electric_scooter", "lat": 38.918026, "is_reserved": 0, "lon": -77.0416075, "fusion_lon": 0.0, "is_disabled": 0, "fusion_lat": 0.0, "bike_id": "e5f2c3dfee5410db885f93606ef1a410", "rental_uris": {"ios": "https://dc.lft.to/lastmile_qr_scan", "android": "https://dc.lft.to/lastmile_qr_scan"}}, {"name": "fb9b725e646e0695c427401f6a1c5006", "type": "electric_scooter", "lat": 38.937275, "is_reserved": 0, "lon": -77.03266866666667, "fusion_lon": 0.0, "is_disabled": 0, "fusion_lat": 0.0, "bike_id": "fb9b725e646e0695c427401f6a1c5006", "rental_uris": {"ios": "https://dc.lft.to/lastmile_qr_scan", "android": "https://dc.lft.to/lastmile_qr_scan"}}, {"name": "0042e14ea7d3c7139572f2520cff023a", "type": "electric_scooter", "lat": 38.912956333333334, "is_reserved": 0, "lon": -77.06113983333333, "fusion_lon": 0.0, "is_disabled": 0, "fusion_lat": 0.0, "bike_id": "0042e14ea7d3c7139572f2520cff023a", "rental_uris": {"ios": "https://dc.lft.to/lastmile_qr_scan", "android": "https://dc.lft.to/lastmile_qr_scan"}}, {"name": "f86ba387b5792a33a832376f8387bbbc", "type": "electric_scooter", "lat": 38.9023585, "is_reserved": 0, "lon": -77.02650666666666, "fusion_lon": 0.0, "is_disabled": 0, "fusion_lat": 0.0, "bike_id": "f86ba387b5792a33a832376f8387bbbc", "rental_uris": {"ios": "https://dc.lft.to/lastmile_qr_scan", "android": "https://dc.lft.to/lastmile_qr_scan"}}, {"name": "7ba5ec3fcd4e7d1071d8d5b65f8a9394", "type": "electric_scooter", "lat": 38.907902, "is_reserved": 0, "lon": -77.04875283333334, "fusion_lon": 0.0, "is_disabled": 0, "fusion_lat": 0.0, "bike_id": "7ba5ec3fcd4e7d1071d8d5b65f8a9394", "rental_uris": {"ios": "https://dc.lft.to/lastmile_qr_scan", "android": "https://dc.lft.to/lastmile_qr_scan"}}, {"name": "adfbccb532e4683bb4d3db9bb5e1677c", "type": "electric_bike", "lat": 38.88403266666667, "is_reserved": 0, "lon": -76.96062483333333, "fusion_lon": 0.0, "is_disabled": 0, "fusion_lat": 0.0, "bike_id": "adfbccb532e4683bb4d3db9bb5e1677c", "rental_uris": {"ios": "https://dc.lft.to/lastmile_qr_scan", "android": "https://dc.lft.to/lastmile_qr_scan"}}, {"name": "ed085843b218706e3f98244bf181f3f2", "type": "electric_scooter", "lat": 38.934336, "is_reserved": 0, "lon": -77.03987233333334, "fusion_lon": 0.0, "is_disabled": 0, "fusion_lat": 0.0, "bike_id": "ed085843b218706e3f98244bf181f3f2", "rental_uris": {"ios": "https://dc.lft.to/lastmile_qr_scan", "android": "https://dc.lft.to/lastmile_qr_scan"}}, {"name": "61c3d8d590853a1721ee19cb477acaa3", "type": "electric_scooter", "lat": 38.9188405, "is_reserved": 0, "lon": -77.03504716666667, "fusion_lon": 0.0, "is_disabled": 0, "fusion_lat": 0.0, "bike_id": "61c3d8d590853a1721ee19cb477acaa3", "rental_uris": {"ios": "https://dc.lft.to/lastmile_qr_scan", "android": "https://dc.lft.to/lastmile_qr_scan"}}, {"name": "05b2ff445cd9b967c1b901c9ed623e31", "type": "electric_scooter", "lat": 38.89226216666667, "is_reserved": 0, "lon": -77.03091616666667, "fusion_lon": 0.0, "is_disabled": 0, "fusion_lat": 0.0, "bike_id": "05b2ff445cd9b967c1b901c9ed623e31", "rental_uris": {"ios": "https://dc.lft.to/lastmile_qr_scan", "android": "https://dc.lft.to/lastmile_qr_scan"}}, {"name": "b2298d574bcbe58b06a511a3efcb7707", "type": "electric_bike", "lat": 38.950739166666665, "is_reserved": 0, "lon": -77.0119545, "fusion_lon": 0.0, "is_disabled": 0, "fusion_lat": 0.0, "bike_id": "b2298d574bcbe58b06a511a3efcb7707", "rental_uris": {"ios": "https://dc.lft.to/lastmile_qr_scan", "android": "https://dc.lft.to/lastmile_qr_scan"}}, {"name": "4a4c160b59cc78022acb5b0d9f13f203", "type": "electric_scooter", "lat": 38.93716766666667, "is_reserved": 0, "lon": -77.02418466666667, "fusion_lon": 0.0, "is_disabled": 0, "fusion_lat": 0.0, "bike_id": "4a4c160b59cc78022acb5b0d9f13f203", "rental_uris": {"ios": "https://dc.lft.to/lastmile_qr_scan", "android": "https://dc.lft.to/lastmile_qr_scan"}}, {"name": "85f521039ec3fc496411c6e95ee8512f", "type": "electric_scooter", "lat": 38.90485983333333, "is_reserved": 0, "lon": -77.02605033333333, "fusion_lon": 0.0, "is_disabled": 0, "fusion_lat": 0.0, "bike_id": "85f521039ec3fc496411c6e95ee8512f", "rental_uris": {"ios": "https://dc.lft.to/lastmile_qr_scan", "android": "https://dc.lft.to/lastmile_qr_scan"}}, {"name": "c0f08d64c04174fccdc854d4b28d5e88", "type": "electric_scooter", "lat": 38.9282735, "is_reserved": 0, "lon": -77.02258716666667, "fusion_lon": 0.0, "is_disabled": 0, "fusion_lat": 0.0, "bike_id": "c0f08d64c04174fccdc854d4b28d5e88", "rental_uris": {"ios": "https://dc.lft.to/lastmile_qr_scan", "android": "https://dc.lft.to/lastmile_qr_scan"}}, {"name": "dc1d3e0c0c7f5f2895e2e28c5597a979", "type": "electric_scooter", "lat": 38.900868333333335, "is_reserved": 0, "lon": -77.00211833333333, "fusion_lon": 0.0, "is_disabled": 0, "fusion_lat": 0.0, "bike_id": "dc1d3e0c0c7f5f2895e2e28c5597a979", "rental_uris": {"ios": "https://dc.lft.to/lastmile_qr_scan", "android": "https://dc.lft.to/lastmile_qr_scan"}}, {"name": "d48393967969ebc2738684bb8d18601b", "type": "electric_scooter", "lat": 38.89674216666667, "is_reserved": 0, "lon": -77.0117925, "fusion_lon": 0.0, "is_disabled": 0, "fusion_lat": 0.0, "bike_id": "d48393967969ebc2738684bb8d18601b", "rental_uris": {"ios": "https://dc.lft.to/lastmile_qr_scan", "android": "https://dc.lft.to/lastmile_qr_scan"}}, {"name": "82593076b523135d6c681fc1885b5fe2", "type": "electric_scooter", "lat": 38.901260666666666, "is_reserved": 0, "lon": -77.04710966666667, "fusion_lon": 0.0, "is_disabled": 0, "fusion_lat": 0.0, "bike_id": "82593076b523135d6c681fc1885b5fe2", "rental_uris": {"ios": "https://dc.lft.to/lastmile_qr_scan", "android": "https://dc.lft.to/lastmile_qr_scan"}}, {"name": "ad9a488e235a795193a796fea067b0e1", "type": "electric_bike", "lat": 38.83148283333333, "is_reserved": 0, "lon": -77.1132555, "fusion_lon": 0.0, "is_disabled": 0, "fusion_lat": 0.0, "bike_id": "ad9a488e235a795193a796fea067b0e1", "rental_uris": {"ios": "https://dc.lft.to/lastmile_qr_scan", "android": "https://dc.lft.to/lastmile_qr_scan"}}, {"name": "dc2abd2c443c9d40fe5f88a9de2332a2", "type": "electric_scooter", "lat": 38.927435833333334, "is_reserved": 0, "lon": -77.05362866666667, "fusion_lon": 0.0, "is_disabled": 0, "fusion_lat": 0.0, "bike_id": "dc2abd2c443c9d40fe5f88a9de2332a2", "rental_uris": {"ios": "https://dc.lft.to/lastmile_qr_scan", "android": "https://dc.lft.to/lastmile_qr_scan"}}, {"name": "d769890678d136a25d54dad40e4b2b2f", "type": "electric_scooter", "lat": 38.88352416666667, "is_reserved": 0, "lon": -76.98562816666667, "fusion_lon": 0.0, "is_disabled": 0, "fusion_lat": 0.0, "bike_id": "d769890678d136a25d54dad40e4b2b2f", "rental_uris": {"ios": "https://dc.lft.to/lastmile_qr_scan", "android": "https://dc.lft.to/lastmile_qr_scan"}}, {"name": "9a46a366e5a3d22152e004f230c02c33", "type": "electric_scooter", "lat": 38.91725916666667, "is_reserved": 0, "lon": -77.02908833333333, "fusion_lon": 0.0, "is_disabled": 0, "fusion_lat": 0.0, "bike_id": "9a46a366e5a3d22152e004f230c02c33", "rental_uris": {"ios": "https://dc.lft.to/lastmile_qr_scan", "android": "https://dc.lft.to/lastmile_qr_scan"}}, {"name": "c6ec01aafc44360911f44c91c862052a", "type": "electric_bike", "lat": 38.98450483333333, "is_reserved": 0, "lon": -76.95524816666666, "fusion_lon": 0.0, "is_disabled": 0, "fusion_lat": 0.0, "bike_id": "c6ec01aafc44360911f44c91c862052a", "rental_uris": {"ios": "https://dc.lft.to/lastmile_qr_scan", "android": "https://dc.lft.to/lastmile_qr_scan"}}, {"name": "8097524b0ada86d876b298e7857749c3", "type": "electric_scooter", "lat": 38.90574516666667, "is_reserved": 0, "lon": -77.06275566666666, "fusion_lon": 0.0, "is_disabled": 0, "fusion_lat": 0.0, "bike_id": "8097524b0ada86d876b298e7857749c3", "rental_uris": {"ios": "https://dc.lft.to/lastmile_qr_scan", "android": "https://dc.lft.to/lastmile_qr_scan"}}, {"name": "745d29d2c72da60dfd57226f43f84b2e", "type": "electric_scooter", "lat": 38.88311733333333, "is_reserved": 0, "lon": -77.0174535, "fusion_lon": 0.0, "is_disabled": 0, "fusion_lat": 0.0, "bike_id": "745d29d2c72da60dfd57226f43f84b2e", "rental_uris": {"ios": "https://dc.lft.to/lastmile_qr_scan", "android": "https://dc.lft.to/lastmile_qr_scan"}}, {"name": "b33813f4343806d123935dcbb64c6a03", "type": "electric_scooter", "lat": 38.91114433333333, "is_reserved": 0, "lon": -77.04237816666667, "fusion_lon": 0.0, "is_disabled": 0, "fusion_lat": 0.0, "bike_id": "b33813f4343806d123935dcbb64c6a03", "rental_uris": {"ios": "https://dc.lft.to/lastmile_qr_scan", "android": "https://dc.lft.to/lastmile_qr_scan"}}, {"name": "dc1bd9e6724b8852f56188e9d32cc3a6", "type": "electric_bike", "lat": 38.8522075, "is_reserved": 0, "lon": -77.12960016666666, "fusion_lon": 0.0, "is_disabled": 0, "fusion_lat": 0.0, "bike_id": "dc1bd9e6724b8852f56188e9d32cc3a6", "rental_uris": {"ios": "https://dc.lft.to/lastmile_qr_scan", "android": "https://dc.lft.to/lastmile_qr_scan"}}, {"name": "16b74f0cae647c4349b79cef2a0bbb12", "type": "electric_scooter", "lat": 38.93946033333334, "is_reserved": 0, "lon": -77.03276016666666, "fusion_lon": 0.0, "is_disabled": 0, "fusion_lat": 0.0, "bike_id": "16b74f0cae647c4349b79cef2a0bbb12", "rental_uris": {"ios": "https://dc.lft.to/lastmile_qr_scan", "android": "https://dc.lft.to/lastmile_qr_scan"}}, {"name": "16cf6f4ced6d7433e30d3f16a146db4b", "type": "electric_scooter", "lat": 38.902790333333336, "is_reserved": 0, "lon": -77.04056366666667, "fusion_lon": 0.0, "is_disabled": 0, "fusion_lat": 0.0, "bike_id": "16cf6f4ced6d7433e30d3f16a146db4b", "rental_uris": {"ios": "https://dc.lft.to/lastmile_qr_scan", "android": "https://dc.lft.to/lastmile_qr_scan"}}, {"name": "e446b02b97c3745afe8c0fea4782c444", "type": "electric_scooter", "lat": 38.939440833333336, "is_reserved": 0, "lon": -77.03268866666667, "fusion_lon": 0.0, "is_disabled": 0, "fusion_lat": 0.0, "bike_id": "e446b02b97c3745afe8c0fea4782c444", "rental_uris": {"ios": "https://dc.lft.to/lastmile_qr_scan", "android": "https://dc.lft.to/lastmile_qr_scan"}}, {"name": "76843363bc17ee7546e1a20d837e4f8a", "type": "electric_bike", "lat": 38.83236133333333, "is_reserved": 0, "lon": -77.0072585, "fusion_lon": 0.0, "is_disabled": 0, "fusion_lat": 0.0, "bike_id": "76843363bc17ee7546e1a20d837e4f8a", "rental_uris": {"ios": "https://dc.lft.to/lastmile_qr_scan", "android": "https://dc.lft.to/lastmile_qr_scan"}}, {"name": "d6d914785e13f75e4ba8bfd55af89397", "type": "electric_scooter", "lat": 38.8635395, "is_reserved": 0, "lon": -76.990675, "fusion_lon": 0.0, "is_disabled": 0, "fusion_lat": 0.0, "bike_id": "d6d914785e13f75e4ba8bfd55af89397", "rental_uris": {"ios": "https://dc.lft.to/lastmile_qr_scan", "android": "https://dc.lft.to/lastmile_qr_scan"}}, {"name": "4169595e9031ca8cd68fd091847e7fa7", "type": "electric_scooter", "lat": 38.880471166666666, "is_reserved": 0, "lon": -76.95987083333333, "fusion_lon": 0.0, "is_disabled": 0, "fusion_lat": 0.0, "bike_id": "4169595e9031ca8cd68fd091847e7fa7", "rental_uris": {"ios": "https://dc.lft.to/lastmile_qr_scan", "android": "https://dc.lft.to/lastmile_qr_scan"}}, {"name": "25a23be4731eeb77fb1a820f894506ec", "type": "electric_bike", "lat": 38.86594083333333, "is_reserved": 0, "lon": -76.93231466666667, "fusion_lon": 0.0, "is_disabled": 0, "fusion_lat": 0.0, "bike_id": "25a23be4731eeb77fb1a820f894506ec", "rental_uris": {"ios": "https://dc.lft.to/lastmile_qr_scan", "android": "https://dc.lft.to/lastmile_qr_scan"}}, {"name": "3839c6a2f1b51158497424f1af679c64", "type": "electric_scooter", "lat": 38.92156083333333, "is_reserved": 0, "lon": -77.0350685, "fusion_lon": 0.0, "is_disabled": 0, "fusion_lat": 0.0, "bike_id": "3839c6a2f1b51158497424f1af679c64", "rental_uris": {"ios": "https://dc.lft.to/lastmile_qr_scan", "android": "https://dc.lft.to/lastmile_qr_scan"}}, {"name": "8ba7b780d8524c886f6010d697facf7b", "type": "electric_scooter", "lat": 38.894470166666665, "is_reserved": 0, "lon": -77.021776, "fusion_lon": 0.0, "is_disabled": 0, "fusion_lat": 0.0, "bike_id": "8ba7b780d8524c886f6010d697facf7b", "rental_uris": {"ios": "https://dc.lft.to/lastmile_qr_scan", "android": "https://dc.lft.to/lastmile_qr_scan"}}, {"name": "27a5e2bf1d55d8a96966a0944ccae6e3", "type": "electric_scooter", "lat": 38.91404983333334, "is_reserved": 0, "lon": -77.00842083333333, "fusion_lon": 0.0, "is_disabled": 0, "fusion_lat": 0.0, "bike_id": "27a5e2bf1d55d8a96966a0944ccae6e3", "rental_uris": {"ios": "https://dc.lft.to/lastmile_qr_scan", "android": "https://dc.lft.to/lastmile_qr_scan"}}, {"name": "6190d00bbe9bffe9d871e1ef86a044d5", "type": "electric_scooter", "lat": 38.90313866666666, "is_reserved": 0, "lon": -77.02223283333333, "fusion_lon": 0.0, "is_disabled": 0, "fusion_lat": 0.0, "bike_id": "6190d00bbe9bffe9d871e1ef86a044d5", "rental_uris": {"ios": "https://dc.lft.to/lastmile_qr_scan", "android": "https://dc.lft.to/lastmile_qr_scan"}}, {"name": "35195db3fd26ecdfaef513f7b67039d5", "type": "electric_scooter", "lat": 38.898052166666666, "is_reserved": 0, "lon": -77.03134216666666, "fusion_lon": 0.0, "is_disabled": 0, "fusion_lat": 0.0, "bike_id": "35195db3fd26ecdfaef513f7b67039d5", "rental_uris": {"ios": "https://dc.lft.to/lastmile_qr_scan", "android": "https://dc.lft.to/lastmile_qr_scan"}}, {"name": "630043288f1df642fc6d98509460431b", "type": "electric_bike", "lat": 38.86756, "is_reserved": 0, "lon": -76.94533683333333, "fusion_lon": 0.0, "is_disabled": 0, "fusion_lat": 0.0, "bike_id": "630043288f1df642fc6d98509460431b", "rental_uris": {"ios": "https://dc.lft.to/lastmile_qr_scan", "android": "https://dc.lft.to/lastmile_qr_scan"}}, {"name": "f9ebc1dcc68a262a57bade0324ae5497", "type": "electric_scooter", "lat": 38.898794, "is_reserved": 0, "lon": -77.0333595, "fusion_lon": 0.0, "is_disabled": 0, "fusion_lat": 0.0, "bike_id": "f9ebc1dcc68a262a57bade0324ae5497", "rental_uris": {"ios": "https://dc.lft.to/lastmile_qr_scan", "android": "https://dc.lft.to/lastmile_qr_scan"}}, {"name": "7a59e237f2532b0be1ca9629abe121c8", "type": "electric_scooter", "lat": 38.917609666666664, "is_reserved": 0, "lon": -77.02706716666667, "fusion_lon": 0.0, "is_disabled": 0, "fusion_lat": 0.0, "bike_id": "7a59e237f2532b0be1ca9629abe121c8", "rental_uris": {"ios": "https://dc.lft.to/lastmile_qr_scan", "android": "https://dc.lft.to/lastmile_qr_scan"}}, {"name": "efb6006161db31b951d5950188cfb4ea", "type": "electric_scooter", "lat": 38.903964, "is_reserved": 0, "lon": -77.0533275, "fusion_lon": 0.0, "is_disabled": 0, "fusion_lat": 0.0, "bike_id": "efb6006161db31b951d5950188cfb4ea", "rental_uris": {"ios": "https://dc.lft.to/lastmile_qr_scan", "android": "https://dc.lft.to/lastmile_qr_scan"}}, {"name": "07e90a07e410c1ae2d8d3f6f4c0784e3", "type": "electric_scooter", "lat": 38.912788666666664, "is_reserved": 0, "lon": -77.03145666666667, "fusion_lon": 0.0, "is_disabled": 0, "fusion_lat": 0.0, "bike_id": "07e90a07e410c1ae2d8d3f6f4c0784e3", "rental_uris": {"ios": "https://dc.lft.to/lastmile_qr_scan", "android": "https://dc.lft.to/lastmile_qr_scan"}}, {"name": "48ae6d7f5726a5e1873d55180e4ace3e", "type": "electric_scooter", "lat": 38.89224333333333, "is_reserved": 0, "lon": -77.043307, "fusion_lon": 0.0, "is_disabled": 0, "fusion_lat": 0.0, "bike_id": "48ae6d7f5726a5e1873d55180e4ace3e", "rental_uris": {"ios": "https://dc.lft.to/lastmile_qr_scan", "android": "https://dc.lft.to/lastmile_qr_scan"}}, {"name": "38d5a08022ba47aaba9461bf7855642c", "type": "electric_bike", "lat": 38.94320183333333, "is_reserved": 0, "lon": -76.96172883333334, "fusion_lon": 0.0, "is_disabled": 0, "fusion_lat": 0.0, "bike_id": "38d5a08022ba47aaba9461bf7855642c", "rental_uris": {"ios": "https://dc.lft.to/lastmile_qr_scan", "android": "https://dc.lft.to/lastmile_qr_scan"}}, {"name": "f58e99e148c307caa53ba03a12571747", "type": "electric_scooter", "lat": 38.92874333333334, "is_reserved": 0, "lon": -77.03751133333333, "fusion_lon": 0.0, "is_disabled": 0, "fusion_lat": 0.0, "bike_id": "f58e99e148c307caa53ba03a12571747", "rental_uris": {"ios": "https://dc.lft.to/lastmile_qr_scan", "android": "https://dc.lft.to/lastmile_qr_scan"}}, {"name": "c27df09406d384c3745a51ef9c7e7a32", "type": "electric_scooter", "lat": 38.896070333333334, "is_reserved": 0, "lon": -76.99971783333334, "fusion_lon": 0.0, "is_disabled": 0, "fusion_lat": 0.0, "bike_id": "c27df09406d384c3745a51ef9c7e7a32", "rental_uris": {"ios": "https://dc.lft.to/lastmile_qr_scan", "android": "https://dc.lft.to/lastmile_qr_scan"}}, {"name": "6914a9b3716306da6314e6418fd27935", "type": "electric_scooter", "lat": 38.874516, "is_reserved": 0, "lon": -77.00767183333333, "fusion_lon": 0.0, "is_disabled": 0, "fusion_lat": 0.0, "bike_id": "6914a9b3716306da6314e6418fd27935", "rental_uris": {"ios": "https://dc.lft.to/lastmile_qr_scan", "android": "https://dc.lft.to/lastmile_qr_scan"}}, {"name": "b061632794329c9f9bf2e18bcd704d9b", "type": "electric_scooter", "lat": 38.935652, "is_reserved": 0, "lon": -77.03738216666666, "fusion_lon": 0.0, "is_disabled": 0, "fusion_lat": 0.0, "bike_id": "b061632794329c9f9bf2e18bcd704d9b", "rental_uris": {"ios": "https://dc.lft.to/lastmile_qr_scan", "android": "https://dc.lft.to/lastmile_qr_scan"}}, {"name": "bb8b4053a602d9907dc1b61e2d4beb1e", "type": "electric_scooter", "lat": 38.94202766666667, "is_reserved": 0, "lon": -77.02509283333333, "fusion_lon": 0.0, "is_disabled": 0, "fusion_lat": 0.0, "bike_id": "bb8b4053a602d9907dc1b61e2d4beb1e", "rental_uris": {"ios": "https://dc.lft.to/lastmile_qr_scan", "android": "https://dc.lft.to/lastmile_qr_scan"}}, {"name": "d7e142901fd2f6e2e19e2c96435fa047", "type": "electric_scooter", "lat": 38.8874445, "is_reserved": 0, "lon": -77.02028383333334, "fusion_lon": 0.0, "is_disabled": 0, "fusion_lat": 0.0, "bike_id": "d7e142901fd2f6e2e19e2c96435fa047", "rental_uris": {"ios": "https://dc.lft.to/lastmile_qr_scan", "android": "https://dc.lft.to/lastmile_qr_scan"}}, {"name": "a9db8c3af41e88ac3338713773525fa3", "type": "electric_scooter", "lat": 38.905507166666666, "is_reserved": 0, "lon": -77.00297816666667, "fusion_lon": 0.0, "is_disabled": 0, "fusion_lat": 0.0, "bike_id": "a9db8c3af41e88ac3338713773525fa3", "rental_uris": {"ios": "https://dc.lft.to/lastmile_qr_scan", "android": "https://dc.lft.to/lastmile_qr_scan"}}, {"name": "6b557b0643228999c7942818f78fc602", "type": "electric_bike", "lat": 38.94582033333333, "is_reserved": 0, "lon": -77.002685, "fusion_lon": 0.0, "is_disabled": 0, "fusion_lat": 0.0, "bike_id": "6b557b0643228999c7942818f78fc602", "rental_uris": {"ios": "https://dc.lft.to/lastmile_qr_scan", "android": "https://dc.lft.to/lastmile_qr_scan"}}, {"name": "0d844ce4f63ed9c2e215b31ff95d9d86", "type": "electric_scooter", "lat": 38.94051616666667, "is_reserved": 0, "lon": -77.03288766666667, "fusion_lon": 0.0, "is_disabled": 0, "fusion_lat": 0.0, "bike_id": "0d844ce4f63ed9c2e215b31ff95d9d86", "rental_uris": {"ios": "https://dc.lft.to/lastmile_qr_scan", "android": "https://dc.lft.to/lastmile_qr_scan"}}, {"name": "a00394d55948917614cb67b78aa0f5b1", "type": "electric_scooter", "lat": 38.893621333333336, "is_reserved": 0, "lon": -77.01994766666667, "fusion_lon": 0.0, "is_disabled": 0, "fusion_lat": 0.0, "bike_id": "a00394d55948917614cb67b78aa0f5b1", "rental_uris": {"ios": "https://dc.lft.to/lastmile_qr_scan", "android": "https://dc.lft.to/lastmile_qr_scan"}}, {"name": "cfd7db2c252928d5d5bcba7a081ac49e", "type": "electric_scooter", "lat": 38.91274933333333, "is_reserved": 0, "lon": -77.03587666666667, "fusion_lon": 0.0, "is_disabled": 0, "fusion_lat": 0.0, "bike_id": "cfd7db2c252928d5d5bcba7a081ac49e", "rental_uris": {"ios": "https://dc.lft.to/lastmile_qr_scan", "android": "https://dc.lft.to/lastmile_qr_scan"}}, {"name": "49f594b9bf3b1bf3a7078636c86d60ce", "type": "electric_scooter", "lat": 38.90723116666667, "is_reserved": 0, "lon": -77.0401665, "fusion_lon": 0.0, "is_disabled": 0, "fusion_lat": 0.0, "bike_id": "49f594b9bf3b1bf3a7078636c86d60ce", "rental_uris": {"ios": "https://dc.lft.to/lastmile_qr_scan", "android": "https://dc.lft.to/lastmile_qr_scan"}}, {"name": "dcd887af8af934a95da1304db7608b22", "type": "electric_bike", "lat": 38.880947666666664, "is_reserved": 0, "lon": -77.11196666666666, "fusion_lon": 0.0, "is_disabled": 0, "fusion_lat": 0.0, "bike_id": "dcd887af8af934a95da1304db7608b22", "rental_uris": {"ios": "https://dc.lft.to/lastmile_qr_scan", "android": "https://dc.lft.to/lastmile_qr_scan"}}, {"name": "7618f451d8c848fd354e38ad49cd30dd", "type": "electric_scooter", "lat": 38.8977505, "is_reserved": 0, "lon": -76.97729033333333, "fusion_lon": 0.0, "is_disabled": 0, "fusion_lat": 0.0, "bike_id": "7618f451d8c848fd354e38ad49cd30dd", "rental_uris": {"ios": "https://dc.lft.to/lastmile_qr_scan", "android": "https://dc.lft.to/lastmile_qr_scan"}}, {"name": "732680eea5a9faed929a335ebc19937b", "type": "electric_scooter", "lat": 38.863731, "is_reserved": 0, "lon": -76.9905975, "fusion_lon": 0.0, "is_disabled": 0, "fusion_lat": 0.0, "bike_id": "732680eea5a9faed929a335ebc19937b", "rental_uris": {"ios": "https://dc.lft.to/lastmile_qr_scan", "android": "https://dc.lft.to/lastmile_qr_scan"}}, {"name": "616ed840026b0263aff4502f628f4432", "type": "electric_scooter", "lat": 38.94272183333333, "is_reserved": 0, "lon": -77.03256316666666, "fusion_lon": 0.0, "is_disabled": 0, "fusion_lat": 0.0, "bike_id": "616ed840026b0263aff4502f628f4432", "rental_uris": {"ios": "https://dc.lft.to/lastmile_qr_scan", "android": "https://dc.lft.to/lastmile_qr_scan"}}, {"name": "0bd7c258f7874593a6788a036575b994", "type": "electric_bike", "lat": 38.892224666666664, "is_reserved": 0, "lon": -76.97026166666667, "fusion_lon": 0.0, "is_disabled": 0, "fusion_lat": 0.0, "bike_id": "0bd7c258f7874593a6788a036575b994", "rental_uris": {"ios": "https://dc.lft.to/lastmile_qr_scan", "android": "https://dc.lft.to/lastmile_qr_scan"}}, {"name": "aea886aace4b88341ea6dfac4ee4c7a5", "type": "electric_bike", "lat": 38.903543166666665, "is_reserved": 0, "lon": -77.0501345, "fusion_lon": 0.0, "is_disabled": 0, "fusion_lat": 0.0, "bike_id": "aea886aace4b88341ea6dfac4ee4c7a5", "rental_uris": {"ios": "https://dc.lft.to/lastmile_qr_scan", "android": "https://dc.lft.to/lastmile_qr_scan"}}, {"name": "315192a75db9cc3a14807f3b6d046600", "type": "electric_scooter", "lat": 38.89222316666667, "is_reserved": 0, "lon": -77.04641, "fusion_lon": 0.0, "is_disabled": 0, "fusion_lat": 0.0, "bike_id": "315192a75db9cc3a14807f3b6d046600", "rental_uris": {"ios": "https://dc.lft.to/lastmile_qr_scan", "android": "https://dc.lft.to/lastmile_qr_scan"}}, {"name": "7e0aafc03333499872a72fb86c9caa04", "type": "electric_scooter", "lat": 38.927367333333336, "is_reserved": 0, "lon": -77.02493166666666, "fusion_lon": 0.0, "is_disabled": 0, "fusion_lat": 0.0, "bike_id": "7e0aafc03333499872a72fb86c9caa04", "rental_uris": {"ios": "https://dc.lft.to/lastmile_qr_scan", "android": "https://dc.lft.to/lastmile_qr_scan"}}, {"name": "44c30024fdd8d91afa51bf84cdfcc32d", "type": "electric_bike", "lat": 38.839300333333334, "is_reserved": 0, "lon": -77.07898233333333, "fusion_lon": 0.0, "is_disabled": 0, "fusion_lat": 0.0, "bike_id": "44c30024fdd8d91afa51bf84cdfcc32d", "rental_uris": {"ios": "https://dc.lft.to/lastmile_qr_scan", "android": "https://dc.lft.to/lastmile_qr_scan"}},