{"data": {"bikes": [{"fusion_lat": 0.0, "type": "electric_scooter", "name": "867243001490b360d2e024bb3e4545e9", "fusion_lon": 0.0, "bike_id": "867243001490b360d2e024bb3e4545e9", "is_reserved": 0, "rental_uris": {"android": "https://dc.lft.to/lastmile_qr_scan", "ios": "https://dc.lft.to/lastmile_qr_scan"}, "lat": 38.924766, "is_disabled": 0, "lon": -77.02206333333334}, {"fusion_lat": 0.0, "type": "electric_scooter", "name": "09af36fa0a87b8a8e4fb92464d232e4f", "fusion_lon": 0.0, "bike_id": "09af36fa0a87b8a8e4fb92464d232e4f", "is_reserved": 0, "rental_uris": {"android": "https://dc.lft.to/lastmile_qr_scan", "ios": "https://dc.lft.to/lastmile_qr_scan"}, "lat": 38.918229333333336, "is_disabled": 0, "lon": -77.03437333333333}, {"fusion_lat": 0.0, "type": "electric_scooter", "name": "80dbc0f2ad213b070e69526fe7ade163", "fusion_lon": 0.0, "bike_id": "80dbc0f2ad213b070e69526fe7ade163", "is_reserved": 0, "rental_uris": {"android": "https://dc.lft.to/lastmile_qr_scan", "ios": "https://dc.lft.to/lastmile_qr_scan"}, "lat": 38.91951733333333, "is_disabled": 0, "lon": -76.98081266666667}, {"fusion_lat": 0.0, "type": "electric_scooter", "name": "2e7273ad270d381a21cea39160b26fc7", "fusion_lon": 0.0, "bike_id": "2e7273ad270d381a21cea39160b26fc7", "is_reserved": 0, "rental_uris": {"android": "https://dc.lft.to/lastmile_qr_scan", "ios": "https://dc.lft.to/lastmile_qr_scan"}, "lat": 38.93522033333333, "is_disabled": 0, "lon": -77.07280816666666}, {"fusion_lat": 0.0, "type": "electric_scooter", "name": "90164bc4e8a097a7a6570e4de23e412e", "fusion_lon": 0.0, "bike_id": "90164bc4e8a097a7a6570e4de23e412e", "is_reserved": 0, "rental_uris": {"android": "https://dc.lft.to/lastmile_qr_scan", "ios": "https://dc.lft.to/lastmile_qr_scan"}, "lat": 38.905611666666665, "is_disabled": 0, "lon": -77.0469135}, {"fusion_lat": 0.0, "type": "electric_scooter", "name": "ad22d64d5e131768d68c15137ee655b0", "fusion_lon": 0.0, "bike_id": "ad22d64d5e131768d68c15137ee655b0", "is_reserved": 0, "rental_uris": {"android": "https://dc.lft.to/lastmile_qr_scan", "ios": "https://dc.lft.to/lastmile_qr_scan"}, "lat": 38.913261166666665, "is_disabled": 0, "lon": -77.045396}, {"fusion_lat": 0.0, "type": "electric_bike", "name": "6bbb36b5dc6c8f06d0c3ffd9f04a2000", "fusion_lon": 0.0, "bike_id": "6bbb36b5dc6c8f06d0c3ffd9f04a2000", "is_reserved": 0, "rental_uris": {"android": "https://dc.lft.to/lastmile_qr_scan", "ios": "https://dc.lft.to/lastmile_qr_scan"}, "lat": 38.89658033333333, "is_disabled": 0, "lon": -76.93007816666666}, {"fusion_lat": 0.0, "type": "electric_scooter", "name": "5b27c54f08ca28750fbdb18326ab5334", "fusion_lon": 0.0, "bike_id": "5b27c54f08ca28750fbdb18326ab5334", "is_reserved": 0, "rental_uris": {"android": "https://dc.lft.to/lastmile_qr_scan", "ios": "https://dc.lft.to/lastmile_qr_scan"}, "lat": 38.90862633333333, "is_disabled": 0, "lon": -77.04275733333333}, {"fusion_lat": 0.0, "type": "electric_scooter", "name": "278c206371d144baa69c1fca231efc44", "fusion_lon": 0.0, "bike_id": "278c206371d144baa69c1fca231efc44", "is_reserved": 0, "rental_uris": {"android": "https://dc.lft.to/lastmile_qr_scan", "ios": "https://dc.lft.to/lastmile_qr_scan"}, "lat": 38.8860765, "is_disabled": 0, "lon": -76.99514816666667}, {"fusion_lat": 0.0, "type": "electric_scooter", "name": "39ec41da1076a10bf955b2d7fdd20a17", "fusion_lon": 0.0, "bike_id": "39ec41da1076a10bf955b2d7fdd20a17", "is_reserved": 0, "rental_uris": {"android": "https://dc.lft.to/lastmile_qr_scan", "ios": "https://dc.lft.to/lastmile_qr_scan"}, "lat": 38.92239083333333, "is_disabled": 0, "lon": -77.04362833333333}, {"fusion_lat": 0.0, "type": "electric_scooter", "name": "3de35f279c0c19d82f1daeceac8ac9c9", "fusion_lon": 0.0, "bike_id": "3de35f279c0c19d82f1daeceac8ac9c9", "is_reserved": 0, "rental_uris": {"android": "https://dc.lft.to/lastmile_qr_scan", "ios": "https://dc.lft.to/lastmile_qr_scan"}, "lat": 38.90826283333333, "is_disabled": 0, "lon": -77.03949666666666}, {"fusion_lat": 0.0, "type": "electric_bike", "name": "a4ae1aa6ad25a6b32a4d33511baed064", "fusion_lon": 0.0, "bike_id": "a4ae1aa6ad25a6b32a4d33511baed064", "is_reserved": 0, "rental_uris": {"android": "https://dc.lft.to/lastmile_qr_scan", "ios": "https://dc.lft.to/lastmile_qr_scan"}, "lat": 38.96140116666667, "is_disabled": 0, "lon": -77.022956}, {"fusion_lat": 0.0, "type": "electric_scooter", "name": "ea7bbc290ca62a9eae59c430bfa11ac1", "fusion_lon": 0.0, "bike_id": "ea7bbc290ca62a9eae59c430bfa11ac1", "is_reserved": 0, "rental_uris": {"android": "https://dc.lft.to/lastmile_qr_scan", "ios": "https://dc.lft.to/lastmile_qr_scan"}, "lat": 38.927435833333334, "is_disabled": 0, "lon": -77.0355865}, {"fusion_lat": 0.0, "type": "electric_scooter", "name": "41c7aff0131a84349436f9932f8ebd74", "fusion_lon": 0.0, "bike_id": "41c7aff0131a84349436f9932f8ebd74", "is_reserved": 0, "rental_uris": {"android": "https://dc.lft.to/lastmile_qr_scan", "ios": "https://dc.lft.to/lastmile_qr_scan"}, "lat": 38.922362, "is_disabled": 0, "lon": -77.02111133333334}, {"fusion_lat": 0.0, "type": "electric_scooter", "name": "62ffd2dac0f9bb940f507f9847510741", "fusion_lon": 0.0, "bike_id": "62ffd2dac0f9bb940f507f9847510741", "is_reserved": 0, "rental_uris": {"android": "https://dc.lft.to/lastmile_qr_scan", "ios": "https://dc.lft.to/lastmile_qr_scan"}, "lat": 38.904309166666664, "is_disabled": 0, "lon": -77.05309183333334}, {"fusion_lat": 0.0, "type": "electric_scooter", "name": "bc302c1b54d2315516dc79ae8d475500", "fusion_lon": 0.0, "bike_id": "bc302c1b54d2315516dc79ae8d475500", "is_reserved": 0, "rental_uris": {"android": "https://dc.lft.to/lastmile_qr_scan", "ios": "https://dc.lft.to/lastmile_qr_scan"}, "lat": 38.86698883333333, "is_disabled": 0, "lon": -76.98592083333334}, {"fusion_lat": 0.0, "type": "electric_scooter", "name": "eaf639a94ae37038b4570855cc02f720", "fusion_lon": 0.0, "bike_id": "eaf639a94ae37038b4570855cc02f720", "is_reserved": 0, "rental_uris": {"android": "https://dc.lft.to/lastmile_qr_scan", "ios": "https://dc.lft.to/lastmile_qr_scan"}, "lat": 38.89856616666667, "is_disabled": 0, "lon": -77.03927116666667}, {"fusion_lat": 0.0, "type": "electric_scooter", "name": "d4227820f9a1f9224aa3ff12095385d4", "fusion_lon": 0.0, "bike_id": "d4227820f9a1f9224aa3ff12095385d4", "is_reserved": 0, "rental_uris": {"android": "https://dc.lft.to/lastmile_qr_scan", "ios": "https://dc.lft.to/lastmile_qr_scan"}, "lat": 38.89219833333333, "is_disabled": 0, "lon": -77.02369216666666}, {"fusion_lat": 0.0, "type": "electric_scooter", "name": "33519563510d746afd5b8484cfe94ed5", "fusion_lon": 0.0, "bike_id": "33519563510d746afd5b8484cfe94ed5", "is_reserved": 0, "rental_uris": {"android": "https://dc.lft.to/lastmile_qr_scan", "ios": "https://dc.lft.to/lastmile_qr_scan"}, "lat": 38.921472333333334, "is_disabled": 0, "lon": -77.0421055}, {"fusion_lat": 0.0, "type": "electric_scooter", "name": "6d2c6f6e08952affc57ee28af1d891da", "fusion_lon": 0.0, "bike_id": "6d2c6f6e08952affc57ee28af1d891da", "is_reserved": 0, "rental_uris": {"android": "https://dc.lft.to/lastmile_qr_scan", "ios": "https://dc.lft.to/lastmile_qr_scan"}, "lat": 38.92066833333333, "is_disabled": 0, "lon": -77.016717}, {"fusion_lat": 0.0, "type": "electric_scooter", "name": "894dea70cd5d115441decaff59d756c6", "fusion_lon": 0.0, "bike_id": "894dea70cd5d115441decaff59d756c6", "is_reserved": 0, "rental_uris": {"android": "https://dc.lft.to/lastmile_qr_scan", "ios": "https://dc.lft.to/lastmile_qr_scan"}, "lat": 38.90043416666666, "is_disabled": 0, "lon": -77.00537916666667}, {"fusion_lat": 0.0, "type": "electric_bike", "name": "e98fdf04eff559915e5941a7bd8534e0", "fusion_lon": 0.0, "bike_id": "e98fdf04eff559915e5941a7bd8534e0", "is_reserved": 0, "rental_uris": {"android": "https://dc.lft.to/lastmile_qr_scan", "ios": "https://dc.lft.to/lastmile_qr_scan"}, "lat": 38.91015733333333, "is_disabled": 0, "lon": -77.22796433333333}, {"fusion_lat": 0.0, "type": "electric_scooter", "name": "e63933e320f0dee8e6e5bebb0be9fa7a", "fusion_lon": 0.0, "bike_id": "e63933e320f0dee8e6e5bebb0be9fa7a", "is_reserved": 0, "rental_uris": {"android": "https://dc.lft.to/lastmile_qr_scan", "ios": "https://dc.lft.to/lastmile_qr_scan"}, "lat": 38.8872605, "is_disabled": 0, "lon": -77.02826333333333}, {"fusion_lat": 0.0, "type": "electric_scooter", "name": "da2975382eb58331ac1220e9e3b885bf", "fusion_lon": 0.0, "bike_id": "da2975382eb58331ac1220e9e3b885bf", "is_reserved": 0, "rental_uris": {"android": "https://dc.lft.to/lastmile_qr_scan", "ios": "https://dc.lft.to/lastmile_qr_scan"}, "lat": 38.94203666666667, "is_disabled": 0, "lon": -77.0249785}, {"fusion_lat": 0.0, "type": "electric_scooter", "name": "5cc222377efb773a704bf8af839cb078", "fusion_lon": 0.0, "bike_id": "5cc222377efb773a704bf8af839cb078", "is_reserved": 0, "rental_uris": {"android": "https://dc.lft.to/lastmile_qr_scan", "ios": "https://dc.lft.to/lastmile_qr_scan"}, "lat": 38.892207666666664, "is_disabled": 0, "lon": -77.02235583333334}, {"fusion_lat": 0.0, "type": "electric_bike", "name": "bc86fc8ac53eb708daefa2389024111a", "fusion_lon": 0.0, "bike_id": "bc86fc8ac53eb708daefa2389024111a", "is_reserved": 0, "rental_uris": {"android": "https://dc.lft.to/lastmile_qr_scan", "ios": "https://dc.lft.to/lastmile_qr_scan"}, "lat": 38.94230183333333, "is_disabled": 0, "lon": -76.96623216666667}, {"fusion_lat": 0.0, "type": "electric_scooter", "name": "704e8ff702d878bf8c435017b7242eda", "fusion_lon": 0.0, "bike_id": "704e8ff702d878bf8c435017b7242eda", "is_reserved": 0, "rental_uris": {"android": "https://dc.lft.to/lastmile_qr_scan", "ios": "https://dc.lft.to/lastmile_qr_scan"}, "lat": 38.865364666666665, "is_disabled": 0, "lon": -76.98705183333334}, {"fusion_lat": 0.0, "type": "electric_scooter", "name": "2a7084ead569164eca3ed2832bb1e4da", "fusion_lon": 0.0, "bike_id": "2a7084ead569164eca3ed2832bb1e4da", "is_reserved": 0, "rental_uris": {"android": "https://dc.lft.to/lastmile_qr_scan", "ios": "https://dc.lft.to/lastmile_qr_scan"}, "lat": 38.9037955, "is_disabled": 0, "lon": -77.04486583333333}, {"fusion_lat": 0.0, "type": "electric_scooter", "name": "f928becc357834e93ce58bdbd948f071", "fusion_lon": 0.0, "bike_id": "f928becc357834e93ce58bdbd948f071", "is_reserved": 0, "rental_uris": {"android": "https://dc.lft.to/lastmile_qr_scan", "ios": "https://dc.lft.to/lastmile_qr_scan"}, "lat": 38.90729733333333, "is_disabled": 0, "lon": -77.042345}, {"fusion_lat": 0.0, "type": "electric_scooter", "name": "e3e8833e1b990f6db94829eca2ec4a9a", "fusion_lon": 0.0, "bike_id": "e3e8833e1b990f6db94829eca2ec4a9a", "is_reserved": 0, "rental_uris": {"android": "https://dc.lft.to/lastmile_qr_scan", "ios": "https://dc.lft.to/lastmile_qr_scan"}, "lat": 38.897208166666665, "is_disabled": 0, "lon": -77.032904}, {"fusion_lat": 0.0, "type": "electric_scooter", "name": "91bafb11ae6375f748f8d4f88a82c406", "fusion_lon": 0.0, "bike_id": "91bafb11ae6375f748f8d4f88a82c406", "is_reserved": 0, "rental_uris": {"android": "https://dc.lft.to/lastmile_qr_scan", "ios": "https://dc.lft.to/lastmile_qr_scan"}, "lat": 38.9251835, "is_disabled": 0, "lon": -77.05039783333334}, {"fusion_lat": 0.0, "type": "electric_scooter", "name": "e1eff52adad1837df7a94b823db7fbbc", "fusion_lon": 0.0, "bike_id": "e1eff52adad1837df7a94b823db7fbbc", "is_reserved": 0, "rental_uris": {"android": "https://dc.lft.to/lastmile_qr_scan", "ios": "https://dc.lft.to/lastmile_qr_scan"}, "lat": 38.9512395, "is_disabled": 0, "lon": -76.9866615}, {"fusion_lat": 0.0, "type": "electric_scooter", "name": "edc1edaf27fa258b8801f175a35ec3ea", "fusion_lon": 0.0, "bike_id": "edc1edaf27fa258b8801f175a35ec3ea", "is_reserved": 0, "rental_uris": {"android": "https://dc.lft.to/lastmile_qr_scan", "ios": "https://dc.lft.to/lastmile_qr_scan"}, "lat": 38.8923035, "is_disabled": 0, "lon": -77.027999}, {"fusion_lat": 0.0, "type": "electric_scooter", "name": "40443acc87aa34de2fc1a10b624b0f35", "fusion_lon": 0.0, "bike_id": "40443acc87aa34de2fc1a10b624b0f35", "is_reserved": 0, "rental_uris": {"android": "https://dc.lft.to/lastmile_qr_scan", "ios": "https://dc.lft.to/lastmile_qr_scan"}, "lat": 38.909924833333335, "is_disabled": 0, "lon": -77.034113}, {"fusion_lat": 0.0, "type": "electric_scooter", "name": "8ed4b0917c1f080684df8244a923aafe", "fusion_lon": 0.0, "bike_id": "8ed4b0917c1f080684df8244a923aafe", "is_reserved": 0, "rental_uris": {"android": "https://dc.lft.to/lastmile_qr_scan", "ios": "https://dc.lft.to/lastmile_qr_scan"}, "lat": 38.89725516666667, "is_disabled": 0, "lon": -77.02454983333334}, {"fusion_lat": 0.0, "type": "electric_scooter", "name": "5b196c5ca57546420d0c934358facbd8", "fusion_lon": 0.0, "bike_id": "5b196c5ca57546420d0c934358facbd8", "is_reserved": 0, "rental_uris": {"android": "https://dc.lft.to/lastmile_qr_scan", "ios": "https://dc.lft.to/lastmile_qr_scan"}, "lat": 38.89240383333333, "is_disabled": 0, "lon": -77.04161866666666}, {"fusion_lat": 0.0, "type": "electric_scooter", "name": "c569314a21ed4f5030483ff97bd5f8ef", "fusion_lon": 0.0, "bike_id": "c569314a21ed4f5030483ff97bd5f8ef", "is_reserved": 0, "rental_uris": {"android": "https://dc.lft.to/lastmile_qr_scan", "ios": "https://dc.lft.to/lastmile_qr_scan"}, "lat": 38.90280683333334, "is_disabled": 0, "lon": -77.03443683333333}, {"fusion_lat": 0.0, "type": "electric_scooter", "name": "424a232e09bdddc3e3175e30b8e036ed", "fusion_lon": 0.0, "bike_id": "424a232e09bdddc3e3175e30b8e036ed", "is_reserved": 0, "rental_uris": {"android": "https://dc.lft.to/lastmile_qr_scan", "ios": "https://dc.lft.to/lastmile_qr_scan"}, "lat": 38.85177316666667, "is_disabled": 0, "lon": -76.995802}, {"fusion_lat": 0.0, "type": "electric_scooter", "name": "facc13d00b2f820207a1faccac1095ce", "fusion_lon": 0.0, "bike_id": "facc13d00b2f820207a1faccac1095ce", "is_reserved": 0, "rental_uris": {"android": "https://dc.lft.to/lastmile_qr_scan", "ios": "https://dc.lft.to/lastmile_qr_scan"}, "lat": 38.911873, "is_disabled": 0, "lon": -77.000967}, {"fusion_lat": 0.0, "type": "electric_scooter", "name": "72ee1f0176c185005ff591912cd9e7bc", "fusion_lon": 0.0, "bike_id": "72ee1f0176c185005ff591912cd9e7bc", "is_reserved": 0, "rental_uris": {"android": "https://dc.lft.to/lastmile_qr_scan", "ios": "https://dc.lft.to/lastmile_qr_scan"}, "lat": 38.92048166666667, "is_disabled": 0, "lon": -76.9894105}, {"fusion_lat": 0.0, "type": "electric_bike", "name": "e4d6aaf3ec0c55698e19c0eb898a3e76", "fusion_lon": 0.0, "bike_id": "e4d6aaf3ec0c55698e19c0eb898a3e76", "is_reserved": 0, "rental_uris": {"android": "https://dc.lft.to/lastmile_qr_scan", "ios": "https://dc.lft.to/lastmile_qr_scan"}, "lat": 38.829499, "is_disabled": 0, "lon": -77.1235085}, {"fusion_lat": 0.0, "type": "electric_bike", "name": "c29a8481bb41a7f6bc44d668390dc942", "fusion_lon": 0.0, "bike_id": "c29a8481bb41a7f6bc44d668390dc942", "is_reserved": 0, "rental_uris": {"android": "https://dc.lft.to/lastmile_qr_scan", "ios": "https://dc.lft.to/lastmile_qr_scan"}, "lat": 38.89716683333333, "is_disabled": 0, "lon": -77.00798733333333}, {"fusion_lat": 0.0, "type": "electric_scooter", "name": "43edba1153248be521abc0100d50af1e", "fusion_lon": 0.0, "bike_id": "43edba1153248be521abc0100d50af1e", "is_reserved": 0, "rental_uris": {"android": "https://dc.lft.to/lastmile_qr_scan", "ios": "https://dc.lft.to/lastmile_qr_scan"}, "lat": 38.88122966666667, "is_disabled": 0, "lon": -76.99004866666667}, {"fusion_lat": 0.0, "type": "electric_scooter", "name": "206d1ff8bae086c318c1b41557f23d97", "fusion_lon": 0.0, "bike_id": "206d1ff8bae086c318c1b41557f23d97", "is_reserved": 0, "rental_uris": {"android": "https://dc.lft.to/lastmile_qr_scan", "ios": "https://dc.lft.to/lastmile_qr_scan"}, "lat": 38.900228166666665, "is_disabled": 0, "lon": -77.039566}, {"fusion_lat": 0.0, "type": "electric_scooter", "name": "32fdb65ebf9ff5edc6e7bfaae08f777f", "fusion_lon": 0.0, "bike_id": "32fdb65ebf9ff5edc6e7bfaae08f777f", "is_reserved": 0, "rental_uris": {"android": "https://dc.lft.to/lastmile_qr_scan", "ios": "https://dc.lft.to/lastmile_qr_scan"}, "lat": 38.9268825, "is_disabled": 0, "lon": -77.01486283333334}, {"fusion_lat": 0.0, "type": "electric_scooter", "name": "e41c9b0825a6fcb3a58372b811d1db4d", "fusion_lon": 0.0, "bike_id": "e41c9b0825a6fcb3a58372b811d1db4d", "is_reserved": 0, "rental_uris": {"android": "https://dc.lft.to/lastmile_qr_scan", "ios": "https://dc.lft.to/lastmile_qr_scan"}, "lat": 38.920461, "is_disabled": 0, "lon": -77.01660566666666}, {"fusion_lat": 0.0, "type": "electric_scooter", "name": "c6d1d88707df45ae9dc8be50303807c2", "fusion_lon": 0.0, "bike_id": "c6d1d88707df45ae9dc8be50303807c2", "is_reserved": 0, "rental_uris": {"android": "https://dc.lft.to/lastmile_qr_scan", "ios": "https://dc.lft.to/lastmile_qr_scan"}, "lat": 38.92343, "is_disabled": 0, "lon": -77.01909133333334}, {"fusion_lat": 0.0, "type": "electric_scooter", "name": "891d0eaa83215b8303622b2b9bcfa686", "fusion_lon": 0.0, "bike_id": "891d0eaa83215b8303622b2b9bcfa686", "is_reserved": 0, "rental_uris": {"android": "https://dc.lft.to/lastmile_qr_scan", "ios": "https://dc.lft.to/lastmile_qr_scan"}, "lat": 38.910275166666665, "is_disabled": 0, "lon": -77.03447883333334}, {"fusion_lat": 0.0, "type": "electric_scooter", "name": "54108a25d2d4afd85cc7151aa2ce5051", "fusion_lon": 0.0, "bike_id": "54108a25d2d4afd85cc7151aa2ce5051", "is_reserved": 0, "rental_uris": {"android": "https://dc.lft.to/lastmile_qr_scan", "ios": "https://dc.lft.to/lastmile_qr_scan"}, "lat": 38.91062266666667, "is_disabled": 0, "lon": -77.05473883333333}, {"fusion_lat": 0.0, "type": "electric_scooter", "name": "bc70e790d5f675d71d2aae772e1d8a3f", "fusion_lon": 0.0, "bike_id": "bc70e790d5f675d71d2aae772e1d8a3f", "is_reserved": 0, "rental_uris": {"android": "https://dc.lft.to/lastmile_qr_scan", "ios": "https://dc.lft.to/lastmile_qr_scan"}, "lat": 38.927401, "is_disabled": 0, "lon": -77.02147533333333}, {"fusion_lat": 0.0, "type": "electric_scooter", "name": "fd2b5a6c7057fe4a0a3c1bf29acf6b16", "fusion_lon": 0.0, "bike_id": "fd2b5a6c7057fe4a0a3c1bf29acf6b16", "is_reserved": 0, "rental_uris": {"android": "https://dc.lft.to/lastmile_qr_scan", "ios": "https://dc.lft.to/lastmile_qr_scan"}, "lat": 38.91067066666667, "is_disabled": 0, "lon": -77.05312066666667}, {"fusion_lat": 0.0, "type": "electric_scooter", "name": "ad754a32f441ac22da80b94320624c80", "fusion_lon": 0.0, "bike_id": "ad754a32f441ac22da80b94320624c80", "is_reserved": 0, "rental_uris": {"android": "https://dc.lft.to/lastmile_qr_scan", "ios": "https://dc.lft.to/lastmile_qr_scan"}, "lat": 38.9244685, "is_disabled": 0, "lon": -77.02140016666667}, {"fusion_lat": 0.0, "type": "electric_scooter", "name": "0723c03db3cdf01ad7983915b038700e", "fusion_lon": 0.0, "bike_id": "0723c03db3cdf01ad7983915b038700e", "is_reserved": 0, "rental_uris": {"android": "https://dc.lft.to/lastmile_qr_scan", "ios": "https://dc.lft.to/lastmile_qr_scan"}, "lat": 38.894189833333336, "is_disabled": 0, "lon": -77.020878}, {"fusion_lat": 0.0, "type": "electric_scooter", "name": "afeb2a32cfe8ef73ad60d971c32149a7", "fusion_lon": 0.0, "bike_id": "afeb2a32cfe8ef73ad60d971c32149a7", "is_reserved": 0, "rental_uris": {"android": "https://dc.lft.to/lastmile_qr_scan", "ios": "https://dc.lft.to/lastmile_qr_scan"}, "lat": 38.892222333333336, "is_disabled": 0, "lon": -77.04374916666667}, {"fusion_lat": 0.0, "type": "electric_scooter", "name": "182ae9f89cef668401c519b033f9cedf", "fusion_lon": 0.0, "bike_id": "182ae9f89cef668401c519b033f9cedf", "is_reserved": 0, "rental_uris": {"android": "https://dc.lft.to/lastmile_qr_scan", "ios": "https://dc.lft.to/lastmile_qr_scan"}, "lat": 38.89315166666667, "is_disabled": 0, "lon": -76.95119633333333}, {"fusion_lat": 0.0, "type": "electric_scooter", "name": "11fb3b2448ff89546cfe72f0e1f814d3", "fusion_lon": 0.0, "bike_id": "11fb3b2448ff89546cfe72f0e1f814d3", "is_reserved": 0, "rental_uris": {"android": "https://dc.lft.to/lastmile_qr_scan", "ios": "https://dc.lft.to/lastmile_qr_scan"}, "lat": 38.90315583333334, "is_disabled": 0, "lon": -77.03306366666666}, {"fusion_lat": 0.0, "type": "electric_scooter", "name": "3d1afca31ff1c04d2e3febe5d4019d89", "fusion_lon": 0.0, "bike_id": "3d1afca31ff1c04d2e3febe5d4019d89", "is_reserved": 0, "rental_uris": {"android": "https://dc.lft.to/lastmile_qr_scan", "ios": "https://dc.lft.to/lastmile_qr_scan"}, "lat": 38.9013225, "is_disabled": 0, "lon": -77.04910716666667}, {"fusion_lat": 0.0, "type": "electric_scooter", "name": "52cd77af24fe83f0b078a812638b715f", "fusion_lon": 0.0, "bike_id": "52cd77af24fe83f0b078a812638b715f", "is_reserved": 0, "rental_uris": {"android": "https://dc.lft.to/lastmile_qr_scan", "ios": "https://dc.lft.to/lastmile_qr_scan"}, "lat": 38.89701383333333, "is_disabled": 0, "lon": -77.026615}, {"fusion_lat": 0.0, "type": "electric_scooter", "name": "bcaba0727ef5b36f8d5a92b3737eeab5", "fusion_lon": 0.0, "bike_id": "bcaba0727ef5b36f8d5a92b3737eeab5", "is_reserved": 0, "rental_uris": {"android": "https://dc.lft.to/lastmile_qr_scan", "ios": "https://dc.lft.to/lastmile_qr_scan"}, "lat": 38.913361333333334, "is_disabled": 0, "lon": -77.04813566666667}, {"fusion_lat": 0.0, "type": "electric_scooter", "name": "718993c1143fa94f73f0db8d641d2101", "fusion_lon": 0.0, "bike_id": "718993c1143fa94f73f0db8d641d2101", "is_reserved": 0, "rental_uris": {"android": "https://dc.lft.to/lastmile_qr_scan", "ios": "https://dc.lft.to/lastmile_qr_scan"}, "lat": 38.914061, "is_disabled": 0, "lon": -77.03221983333333}, {"fusion_lat": 0.0, "type": "electric_scooter", "name": "0d0835e1baab0a5f38301114678c5bf4", "fusion_lon": 0.0, "bike_id": "0d0835e1baab0a5f38301114678c5bf4", "is_reserved": 0, "rental_uris": {"android": "https://dc.lft.to/lastmile_qr_scan", "ios": "https://dc.lft.to/lastmile_qr_scan"}, "lat": 38.89613883333333, "is_disabled": 0, "lon": -76.9929595}, {"fusion_lat": 0.0, "type": "electric_scooter", "name": "b34f55754f6f2fb52191cd40616a31fb", "fusion_lon": 0.0, "bike_id": "b34f55754f6f2fb52191cd40616a31fb", "is_reserved": 0, "rental_uris": {"android": "https://dc.lft.to/lastmile_qr_scan", "ios": "https://dc.lft.to/lastmile_qr_scan"}, "lat": 38.89223166666667, "is_disabled": 0, "lon": -77.03167466666666}, {"fusion_lat": 0.0, "type": "electric_scooter", "name": "4771cfa78d961bbfe3f236c25cc7ab5f", "fusion_lon": 0.0, "bike_id": "4771cfa78d961bbfe3f236c25cc7ab5f", "is_reserved": 0, "rental_uris": {"android": "https://dc.lft.to/lastmile_qr_scan", "ios": "https://dc.lft.to/lastmile_qr_scan"}, "lat": 38.916726833333335, "is_disabled": 0, "lon": -77.03163666666667}, {"fusion_lat": 0.0, "type": "electric_scooter", "name": "70c360e87ac11da0bedf07989f888e18", "fusion_lon": 0.0, "bike_id": "70c360e87ac11da0bedf07989f888e18", "is_reserved": 0, "rental_uris": {"android": "https://dc.lft.to/lastmile_qr_scan", "ios": "https://dc.lft.to/lastmile_qr_scan"}, "lat": 38.95265533333333, "is_disabled": 0, "lon": -77.0017465}, {"fusion_lat": 0.0, "type": "electric_scooter", "name": "1f893080348ee58d782b97cadf74f8af", "fusion_lon": 0.0, "bike_id": "1f893080348ee58d782b97cadf74f8af", "is_reserved": 0, "rental_uris": {"android": "https://dc.lft.to/lastmile_qr_scan", "ios": "https://dc.lft.to/lastmile_qr_scan"}, "lat": 38.945283333333336, "is_disabled": 0, "lon": -77.02087683333333}, {"fusion_lat": 0.0, "type": "electric_scooter", "name": "b5814728a7cc8cdc6881c88b478fc9c1", "fusion_lon": 0.0, "bike_id": "b5814728a7cc8cdc6881c88b478fc9c1", "is_reserved": 0, "rental_uris": {"android": "https://dc.lft.to/lastmile_qr_scan", "ios": "https://dc.lft.to/lastmile_qr_scan"}, "lat": 38.919873333333335, "is_disabled": 0, "lon": -76.97302933333333}, {"fusion_lat": 0.0, "type": "electric_scooter", "name": "9c97da3299ce9a51d6a2f0e5729c850d", "fusion_lon": 0.0, "bike_id": "9c97da3299ce9a51d6a2f0e5729c850d", "is_reserved": 0, "rental_uris": {"android": "https://dc.lft.to/lastmile_qr_scan", "ios": "https://dc.lft.to/lastmile_qr_scan"}, "lat": 38.90849716666666, "is_disabled": 0, "lon": -77.04271383333334}, {"fusion_lat": 0.0, "type": "electric_scooter", "name": "da3e44cfcc37822ba98997b780da14f4", "fusion_lon": 0.0, "bike_id": "da3e44cfcc37822ba98997b780da14f4", "is_reserved": 0, "rental_uris": {"android": "https://dc.lft.to/lastmile_qr_scan", "ios": "https://dc.lft.to/lastmile_qr_scan"}, "lat": 38.889902, "is_disabled": 0, "lon": -76.93109616666666}, {"fusion_lat": 0.0, "type": "electric_scooter", "name": "8d0bcd55cb3f3cdaeb36d49dc4f411f1", "fusion_lon": 0.0, "bike_id": "8d0bcd55cb3f3cdaeb36d49dc4f411f1", "is_reserved": 0, "rental_uris": {"android": "https://dc.lft.to/lastmile_qr_scan", "ios": "https://dc.lft.to/lastmile_qr_scan"}, "lat": 38.917509, "is_disabled": 0, "lon": -77.031382}, {"fusion_lat": 0.0, "type": "electric_scooter", "name": "3176de64b21d0e276cdabf30bf7499fb", "fusion_lon": 0.0, "bike_id": "3176de64b21d0e276cdabf30bf7499fb", "is_reserved": 0, "rental_uris": {"android": "https://dc.lft.to/lastmile_qr_scan", "ios": "https://dc.lft.to/lastmile_qr_scan"}, "lat": 38.9111895, "is_disabled": 0, "lon": -77.0436335}, {"fusion_lat": 0.0, "type": "electric_scooter", "name": "24c9508fb05c02a5482b8e947a7581eb", "fusion_lon": 0.0, "bike_id": "24c9508fb05c02a5482b8e947a7581eb", "is_reserved": 0, "rental_uris": {"android": "https://dc.lft.to/lastmile_qr_scan", "ios": "https://dc.lft.to/lastmile_qr_scan"}, "lat": 38.91273316666667, "is_disabled": 0, "lon": -77.04752183333333}, {"fusion_lat": 0.0, "type": "electric_scooter", "name": "2462c38457cbbeaef6532791b9f32589", "fusion_lon": 0.0, "bike_id": "2462c38457cbbeaef6532791b9f32589", "is_reserved": 0, "rental_uris": {"android": "https://dc.lft.to/lastmile_qr_scan", "ios": "https://dc.lft.to/lastmile_qr_scan"}, "lat": 38.908673, "is_disabled": 0, "lon": -77.04273183333333}, {"fusion_lat": 0.0, "type": "electric_bike", "name": "92d71cd876905c2f529c0253c9f12ccf", "fusion_lon": 0.0, "bike_id": "92d71cd876905c2f529c0253c9f12ccf", "is_reserved": 0, "rental_uris": {"android": "https://dc.lft.to/lastmile_qr_scan", "ios": "https://dc.lft.to/lastmile_qr_scan"}, "lat": 39.057896166666666, "is_disabled": 0, "lon": -77.15018433333333}, {"fusion_lat": 0.0, "type": "electric_scooter", "name": "ada6d872750c044393d58378bcc5055d", "fusion_lon": 0.0, "bike_id": "ada6d872750c044393d58378bcc5055d", "is_reserved": 0, "rental_uris": {"android": "https://dc.lft.to/lastmile_qr_scan", "ios": "https://dc.lft.to/lastmile_qr_scan"}, "lat": 38.897347333333336, "is_disabled": 0, "lon": -77.05473216666667}, {"fusion_lat": 0.0, "type": "electric_scooter", "name": "1f916591a88edf8422be946bf2234785", "fusion_lon": 0.0, "bike_id": "1f916591a88edf8422be946bf2234785", "is_reserved": 0, "rental_uris": {"android": "https://dc.lft.to/lastmile_qr_scan", "ios": "https://dc.lft.to/lastmile_qr_scan"}, "lat": 38.9214835, "is_disabled": 0, "lon": -77.03380116666666}, {"fusion_lat": 0.0, "type": "electric_scooter", "name": "b5bd6e4558dcb4e40d5078a9fd2b0e28", "fusion_lon": 0.0, "bike_id": "b5bd6e4558dcb4e40d5078a9fd2b0e28", "is_reserved": 0, "rental_uris": {"android": "https://dc.lft.to/lastmile_qr_scan", "ios": "https://dc.lft.to/lastmile_qr_scan"}, "lat": 38.89222216666667, "is_disabled": 0, "lon": -77.048644}, {"fusion_lat": 0.0, "type": "electric_scooter", "name": "40281436032b4fc5c41b3e5891fb8cbe", "fusion_lon": 0.0, "bike_id": "40281436032b4fc5c41b3e5891fb8cbe", "is_reserved": 0, "rental_uris": {"android": "https://dc.lft.to/lastmile_qr_scan", "ios": "https://dc.lft.to/lastmile_qr_scan"}, "lat": 38.90267033333333, "is_disabled": 0, "lon": -77.045833}, {"fusion_lat": 0.0, "type": "electric_scooter", "name": "24002a8458826dc498c3a08f9b71a265", "fusion_lon": 0.0, "bike_id": "24002a8458826dc498c3a08f9b71a265", "is_reserved": 0, "rental_uris": {"android": "https://dc.lft.to/lastmile_qr_scan", "ios": "https://dc.lft.to/lastmile_qr_scan"}, "lat": 38.924519333333336, "is_disabled": 0, "lon": -77.05753283333334}, {"fusion_lat": 0.0, "type": "electric_scooter", "name": "2c885104a85273045b0381fe9f7cdab4", "fusion_lon": 0.0, "bike_id": "2c885104a85273045b0381fe9f7cdab4", "is_reserved": 0, "rental_uris": {"android": "https://dc.lft.to/lastmile_qr_scan", "ios": "https://dc.lft.to/lastmile_qr_scan"}, "lat": 38.914458, "is_disabled": 0, "lon": -77.06709466666666}, {"fusion_lat": 0.0, "type": "electric_scooter", "name": "7d08e4e52174c0b1aeab04f1e5714607", "fusion_lon": 0.0, "bike_id": "7d08e4e52174c0b1aeab04f1e5714607", "is_reserved": 0, "rental_uris": {"android": "https://dc.lft.to/lastmile_qr_scan", "ios": "https://dc.lft.to/lastmile_qr_scan"}, "lat": 38.925524, "is_disabled": 0, "lon": -77.0296855}, {"fusion_lat": 0.0, "type": "electric_scooter", "name": "9992709cdff52b905f989c0ce8e611fb", "fusion_lon": 0.0, "bike_id": "9992709cdff52b905f989c0ce8e611fb", "is_reserved": 0, "rental_uris": {"android": "https://dc.lft.to/lastmile_qr_scan", "ios": "https://dc.lft.to/lastmile_qr_scan"}, "lat": 38.91127433333333, "is_disabled": 0, "lon": -77.0436605}, {"fusion_lat": 0.0, "type": "electric_bike", "name": "cc503cb1fade465142056b1d9be1d5d5", "fusion_lon": 0.0, "bike_id": "cc503cb1fade465142056b1d9be1d5d5", "is_reserved": 0, "rental_uris": {"android": "https://dc.lft.to/lastmile_qr_scan", "ios": "https://dc.lft.to/lastmile_qr_scan"}, "lat": 38.907993166666664, "is_disabled": 0, "lon": -77.07161416666666}, {"fusion_lat": 0.0, "type": "electric_scooter", "name": "c1153c3fb472e15bb00c175b80d96d33", "fusion_lon": 0.0, "bike_id": "c1153c3fb472e15bb00c175b80d96d33", "is_reserved": 0, "rental_uris": {"android": "https://dc.lft.to/lastmile_qr_scan", "ios": "https://dc.lft.to/lastmile_qr_scan"}, "lat": 38.9036445, "is_disabled": 0, "lon": -77.04329766666666}, {"fusion_lat": 0.0, "type": "electric_scooter", "name": "a5a3dac354593da92c95b40f6ea65b5f", "fusion_lon": 0.0, "bike_id": "a5a3dac354593da92c95b40f6ea65b5f", "is_reserved": 0, "rental_uris": {"android": "https://dc.lft.to/lastmile_qr_scan", "ios": "https://dc.lft.to/lastmile_qr_scan"}, "lat": 38.91050716666667, "is_disabled": 0, "lon": -77.04080483333334}, {"fusion_lat": 0.0, "type": "electric_scooter", "name": "f0efe037fac2658c20fde48f623beec9", "fusion_lon": 0.0, "bike_id": "f0efe037fac2658c20fde48f623beec9", "is_reserved": 0, "rental_uris": {"android": "https://dc.lft.to/lastmile_qr_scan", "ios": "https://dc.lft.to/lastmile_qr_scan"}, "lat": 38.91261466666667, "is_disabled": 0, "lon": -77.04415466666667}, {"fusion_lat": 0.0, "type": "electric_bike", "name": "6ea409e7d1a60d6670ab140d32f898e1", "fusion_lon": 0.0, "bike_id": "6ea409e7d1a60d6670ab140d32f898e1", "is_reserved": 0, "rental_uris": {"android": "https://dc.lft.to/lastmile_qr_scan", "ios": "https://dc.lft.to/lastmile_qr_scan"}, "lat": 38.903191666666665, "is_disabled": 0, "lon": -76.91212266666666}, {"fusion_lat": 0.0, "type": "electric_scooter", "name": "6a8a0b6080a0579021341328bda71346", "fusion_lon": 0.0, "bike_id": "6a8a0b6080a0579021341328bda71346", "is_reserved": 0, "rental_uris": {"android": "https://dc.lft.to/lastmile_qr_scan", "ios": "https://dc.lft.to/lastmile_qr_scan"}, "lat": 38.876471, "is_disabled": 0, "lon": -76.96505266666667}, {"fusion_lat": 0.0, "type": "electric_scooter", "name": "9bcd457fd83f0bebacfd01457c5ce3ec", "fusion_lon": 0.0, "bike_id": "9bcd457fd83f0bebacfd01457c5ce3ec", "is_reserved": 0, "rental_uris": {"android": "https://dc.lft.to/lastmile_qr_scan", "ios": "https://dc.lft.to/lastmile_qr_scan"}, "lat": 38.929081833333335, "is_disabled": 0, "lon": -77.03753366666666}, {"fusion_lat": 0.0, "type": "electric_scooter", "name": "695a9242826448a9e2cc9a649881cb5f", "fusion_lon": 0.0, "bike_id": "695a9242826448a9e2cc9a649881cb5f", "is_reserved": 0, "rental_uris": {"android": "https://dc.lft.to/lastmile_qr_scan", "ios": "https://dc.lft.to/lastmile_qr_scan"}, "lat": 38.92248466666667, "is_disabled": 0, "lon": -77.02123}, {"fusion_lat": 0.0, "type": "electric_scooter", "name": "958641ecd3a98e862e9b1ee584fa6d00", "fusion_lon": 0.0, "bike_id": "958641ecd3a98e862e9b1ee584fa6d00", "is_reserved": 0, "rental_uris": {"android": "https://dc.lft.to/lastmile_qr_scan", "ios": "https://dc.lft.to/lastmile_qr_scan"}, "lat": 38.931840666666666, "is_disabled": 0, "lon": -77.03658216666666}, {"fusion_lat": 0.0, "type": "electric_scooter", "name": "2c830d52492b975ad19996bfb0840766", "fusion_lon": 0.0, "bike_id": "2c830d52492b975ad19996bfb0840766", "is_reserved": 0, "rental_uris": {"android": "https://dc.lft.to/lastmile_qr_scan", "ios": "https://dc.lft.to/lastmile_qr_scan"}, "lat": 38.928725166666666, "is_disabled": 0, "lon": -77.0323875}, {"fusion_lat": 0.0, "type": "electric_scooter", "name": "24ceeb9115d9ab833edadb5cb3e1199b", "fusion_lon": 0.0, "bike_id": "24ceeb9115d9ab833edadb5cb3e1199b", "is_reserved": 0, "rental_uris": {"android": "https://dc.lft.to/lastmile_qr_scan", "ios": "https://dc.lft.to/lastmile_qr_scan"}, "lat": 38.9398385, "is_disabled": 0, "lon": -77.03259366666667}, {"fusion_lat": 0.0, "type": "electric_scooter", "name": "8a1322ad9e20c9fbc6c7aaf3f47ca9a4", "fusion_lon": 0.0, "bike_id": "8a1322ad9e20c9fbc6c7aaf3f47ca9a4", "is_reserved": 0, "rental_uris": {"android": "https://dc.lft.to/lastmile_qr_scan", "ios": "https://dc.lft.to/lastmile_qr_scan"}, "lat": 38.891568, "is_disabled": 0, "lon": -77.00582866666667}, {"fusion_lat": 0.0, "type": "electric_scooter", "name": "073c738f9c5799312c14c7078d277b8a", "fusion_lon": 0.0, "bike_id": "073c738f9c5799312c14c7078d277b8a", "is_reserved": 0, "rental_uris": {"android": "https://dc.lft.to/lastmile_qr_scan", "ios": "https://dc.lft.to/lastmile_qr_scan"}, "lat": 38.864680166666666, "is_disabled": 0, "lon": -76.9774025}, {"fusion_lat": 0.0, "type": "electric_scooter", "name": "1e662500b5ff77ea3ac6789c9c8b63bf", "fusion_lon": 0.0, "bike_id": "1e662500b5ff77ea3ac6789c9c8b63bf", "is_reserved": 0, "rental_uris": {"android": "https://dc.lft.to/lastmile_qr_scan", "ios": "https://dc.lft.to/lastmile_qr_scan"}, "lat": 38.86703, "is_disabled": 0, "lon": -76.98709933333333}, {"fusion_lat": 0.0, "type": "electric_scooter", "name": "a6e3ceb147531e192ffc2224c1f4e43b", "fusion_lon": 0.0, "bike_id": "a6e3ceb147531e192ffc2224c1f4e43b", "is_reserved": 0, "rental_uris": {"android": "https://dc.lft.to/lastmile_qr_scan", "ios": "https://dc.lft.to/lastmile_qr_scan"}, "lat": 38.907300166666666, "is_disabled": 0, "lon": -77.0327985}, {"fusion_lat": 0.0, "type": "electric_scooter", "name": "0ee70eaa9a52a998155da9f57e72e247", "fusion_lon": 0.0, "bike_id": "0ee70eaa9a52a998155da9f57e72e247", "is_reserved": 0, "rental_uris": {"android": "https://dc.lft.to/lastmile_qr_scan", "ios": "https://dc.lft.to/lastmile_qr_scan"}, "lat": 38.91334883333333, "is_disabled": 0, "lon": -77.0457545}, {"fusion_lat": 0.0, "type": "electric_scooter", "name": "0ce9fc67afa70e4c5e505857d70d7acd", "fusion_lon": 0.0, "bike_id": "0ce9fc67afa70e4c5e505857d70d7acd", "is_reserved": 0, "rental_uris": {"android": "https://dc.lft.to/lastmile_qr_scan", "ios": "https://dc.lft.to/lastmile_qr_scan"}, "lat": 38.92073766666667, "is_disabled": 0, "lon": -77.023915}, {"fusion_lat": 0.0, "type": "electric_scooter", "name": "4c2f3ef550b0124eeb4e982f50403932", "fusion_lon": 0.0, "bike_id": "4c2f3ef550b0124eeb4e982f50403932", "is_reserved": 0, "rental_uris": {"android": "https://dc.lft.to/lastmile_qr_scan", "ios": "https://dc.lft.to/lastmile_qr_scan"}, "lat": 38.892363, "is_disabled": 0, "lon": -77.03210483333334}, {"fusion_lat": 0.0, "type": "electric_scooter", "name": "1ab8dfe3725d452571f17152988445ff", "fusion_lon": 0.0, "bike_id": "1ab8dfe3725d452571f17152988445ff", "is_reserved": 0, "rental_uris": {"android": "https://dc.lft.to/lastmile_qr_scan", "ios": "https://dc.lft.to/lastmile_qr_scan"}, "lat": 38.907236833333336, "is_disabled": 0, "lon": -77.04753566666666}, {"fusion_lat": 0.0, "type": "electric_scooter", "name": "d0b31569ab6950cd901f1fc2c7393440", "fusion_lon": 0.0, "bike_id": "d0b31569ab6950cd901f1fc2c7393440", "is_reserved": 0, "rental_uris": {"android": "https://dc.lft.to/lastmile_qr_scan", "ios": "https://dc.lft.to/lastmile_qr_scan"}, "lat": 38.96778033333333, "is_disabled": 0, "lon": -77.01514816666666}, {"fusion_lat": 0.0, "type": "electric_scooter", "name": "dea17f2dc387a288fe7472f0086e30f9", "fusion_lon": 0.0, "bike_id": "dea17f2dc387a288fe7472f0086e30f9", "is_reserved": 0, "rental_uris": {"android": "https://dc.lft.to/lastmile_qr_scan", "ios": "https://dc.lft.to/lastmile_qr_scan"}, "lat": 38.9190905, "is_disabled": 0, "lon": -77.03437666666666}, {"fusion_lat": 0.0, "type": "electric_bike", "name": "2cf4108c60628b9dcad7fb789bfeb6cb", "fusion_lon": 0.0, "bike_id": "2cf4108c60628b9dcad7fb789bfeb6cb", "is_reserved": 0, "rental_uris": {"android": "https://dc.lft.to/lastmile_qr_scan", "ios": "https://dc.lft.to/lastmile_qr_scan"}, "lat": 38.953296333333334, "is_disabled": 0, "lon": -76.95430283333333}, {"fusion_lat": 0.0, "type": "electric_scooter", "name": "868c10753fdf853be7e5e3fc456076fa", "fusion_lon": 0.0, "bike_id": "868c10753fdf853be7e5e3fc456076fa", "is_reserved": 0, "rental_uris": {"android": "https://dc.lft.to/lastmile_qr_scan", "ios": "https://dc.lft.to/lastmile_qr_scan"}, "lat": 38.895027666666664, "is_disabled": 0, "lon": -77.04665033333333}, {"fusion_lat": 0.0, "type": "electric_scooter", "name": "d706700210f221ceaca651e95972d432", "fusion_lon": 0.0, "bike_id": "d706700210f221ceaca651e95972d432", "is_reserved": 0, "rental_uris": {"android": "https://dc.lft.to/lastmile_qr_scan", "ios": "https://dc.lft.to/lastmile_qr_scan"}, "lat": 38.9157195, "is_disabled": 0, "lon": -77.0320015}, {"fusion_lat": 0.0, "type": "electric_scooter", "name": "495dda3af3c4845328f8ad5c27ba6776", "fusion_lon": 0.0, "bike_id": "495dda3af3c4845328f8ad5c27ba6776", "is_reserved": 0, "rental_uris": {"android": "https://dc.lft.to/lastmile_qr_scan", "ios": "https://dc.lft.to/lastmile_qr_scan"}, "lat": 38.902580666666665, "is_disabled": 0, "lon": -77.0074025}, {"fusion_lat": 0.0, "type": "electric_scooter", "name": "4ad9399204ebf8ed19ebf08506f9f437", "fusion_lon": 0.0, "bike_id": "4ad9399204ebf8ed19ebf08506f9f437", "is_reserved": 0, "rental_uris": {"android": "https://dc.lft.to/lastmile_qr_scan", "ios": "https://dc.lft.to/lastmile_qr_scan"}, "lat": 38.90392283333333, "is_disabled": 0, "lon": -77.03840416666667}, {"fusion_lat": 0.0, "type": "electric_scooter", "name": "00aecafb3ce4252a72b507ce42e9c9d1", "fusion_lon": 0.0, "bike_id": "00aecafb3ce4252a72b507ce42e9c9d1", "is_reserved": 0, "rental_uris": {"android": "https://dc.lft.to/lastmile_qr_scan", "ios": "https://dc.lft.to/lastmile_qr_scan"}, "lat": 38.892251333333334, "is_disabled": 0, "lon": -77.03219383333334}, {"fusion_lat": 0.0, "type": "electric_scooter", "name": "49dd34a7be986eb562ddd029b4a53d5c", "fusion_lon": 0.0, "bike_id": "49dd34a7be986eb562ddd029b4a53d5c", "is_reserved": 0, "rental_uris": {"android": "https://dc.lft.to/lastmile_qr_scan", "ios": "https://dc.lft.to/lastmile_qr_scan"}, "lat": 38.903796, "is_disabled": 0, "lon": -77.04439783333333}, {"fusion_lat": 0.0, "type": "electric_scooter", "name": "c28de8921464c41159986555b5ce515e", "fusion_lon": 0.0, "bike_id": "c28de8921464c41159986555b5ce515e", "is_reserved": 0, "rental_uris": {"android": "https://dc.lft.to/lastmile_qr_scan", "ios": "https://dc.lft.to/lastmile_qr_scan"}, "lat": 38.89399483333333, "is_disabled": 0, "lon": -76.94628816666666}, {"fusion_lat": 0.0, "type": "electric_scooter", "name": "388fae7ea36a5bf5e40c68c7c1c97cc0", "fusion_lon": 0.0, "bike_id": "388fae7ea36a5bf5e40c68c7c1c97cc0", "is_reserved": 0, "rental_uris": {"android": "https://dc.lft.to/lastmile_qr_scan", "ios": "https://dc.lft.to/lastmile_qr_scan"}, "lat": 38.92162366666667, "is_disabled": 0, "lon": -77.02081866666667}, {"fusion_lat": 0.0, "type": "electric_scooter", "name": "020e38ba68b071fcfac02a28f708db7d", "fusion_lon": 0.0, "bike_id": "020e38ba68b071fcfac02a28f708db7d", "is_reserved": 0, "rental_uris": {"android": "https://dc.lft.to/lastmile_qr_scan", "ios": "https://dc.lft.to/lastmile_qr_scan"}, "lat": 38.892331666666664, "is_disabled": 0, "lon": -77.0318355}, {"fusion_lat": 0.0, "type": "electric_scooter", "name": "c9d1acf6a9fe93a8ba260d7c00b776e0", "fusion_lon": 0.0, "bike_id": "c9d1acf6a9fe93a8ba260d7c00b776e0", "is_reserved": 0, "rental_uris": {"android": "https://dc.lft.to/lastmile_qr_scan", "ios": "https://dc.lft.to/lastmile_qr_scan"}, "lat": 38.91123666666667, "is_disabled": 0, "lon": -77.06526833333334}, {"fusion_lat": 0.0, "type": "electric_scooter", "name": "1e222fa70883c361dcd8eba6548c7c94", "fusion_lon": 0.0, "bike_id": "1e222fa70883c361dcd8eba6548c7c94", "is_reserved": 0, "rental_uris": {"android": "https://dc.lft.to/lastmile_qr_scan", "ios": "https://dc.lft.to/lastmile_qr_scan"}, "lat": 38.9040895, "is_disabled": 0, "lon": -77.0295775}, {"fusion_lat": 0.0, "type": "electric_bike", "name": "ab8fad621129d478b706e970bfb7a72a", "fusion_lon": 0.0, "bike_id": "ab8fad621129d478b706e970bfb7a72a", "is_reserved": 0, "rental_uris": {"android": "https://dc.lft.to/lastmile_qr_scan", "ios": "https://dc.lft.to/lastmile_qr_scan"}, "lat": 38.897997833333335, "is_disabled": 0, "lon": -76.99072666666666}, {"fusion_lat": 0.0, "type": "electric_scooter", "name": "64bd010a38e68e6f19b9fd2527621b91", "fusion_lon": 0.0, "bike_id": "64bd010a38e68e6f19b9fd2527621b91", "is_reserved": 0, "rental_uris": {"android": "https://dc.lft.to/lastmile_qr_scan", "ios": "https://dc.lft.to/lastmile_qr_scan"}, "lat": 38.8979855, "is_disabled": 0, "lon": -77.028243}, {"fusion_lat": 0.0, "type": "electric_scooter", "name": "4ffb4dae9964722503be4ea222d346ee", "fusion_lon": 0.0, "bike_id": "4ffb4dae9964722503be4ea222d346ee", "is_reserved": 0, "rental_uris": {"android": "https://dc.lft.to/lastmile_qr_scan", "ios": "https://dc.lft.to/lastmile_qr_scan"}, "lat": 38.900835, "is_disabled": 0, "lon": -77.026941}, {"fusion_lat": 0.0, "type": "electric_scooter", "name": "b16d9372a7fada8ef480308664b31ae7", "fusion_lon": 0.0, "bike_id": "b16d9372a7fada8ef480308664b31ae7", "is_reserved": 0, "rental_uris": {"android": "https://dc.lft.to/lastmile_qr_scan", "ios": "https://dc.lft.to/lastmile_qr_scan"}, "lat": 38.85197083333333, "is_disabled": 0, "lon": -76.97072016666667}, {"fusion_lat": 0.0, "type": "electric_scooter", "name": "1ad8e75615b9bf63fce0bde630d9759c", "fusion_lon": 0.0, "bike_id": "1ad8e75615b9bf63fce0bde630d9759c", "is_reserved": 0, "rental_uris": {"android": "https://dc.lft.to/lastmile_qr_scan", "ios": "https://dc.lft.to/lastmile_qr_scan"}, "lat": 38.895604166666665, "is_disabled": 0, "lon": -77.0467825}, {"fusion_lat": 0.0, "type": "electric_scooter", "name": "003901bef25d4242a20c353cf31ff1fb", "fusion_lon": 0.0, "bike_id": "003901bef25d4242a20c353cf31ff1fb", "is_reserved": 0, "rental_uris": {"android": "https://dc.lft.to/lastmile_qr_scan", "ios": "https://dc.lft.to/lastmile_qr_scan"}, "lat": 38.920021, "is_disabled": 0, "lon": -77.02135483333333}, {"fusion_lat": 0.0, "type": "electric_scooter", "name": "6fb6e9540bc705e6e73bd104be5967bb", "fusion_lon": 0.0, "bike_id": "6fb6e9540bc705e6e73bd104be5967bb", "is_reserved": 0, "rental_uris": {"android": "https://dc.lft.to/lastmile_qr_scan", "ios": "https://dc.lft.to/lastmile_qr_scan"}, "lat": 38.90251083333333, "is_disabled": 0, "lon": -77.045049}, {"fusion_lat": 0.0, "type": "electric_scooter", "name": "517e01b0280fe9aeabdc48c383da8823", "fusion_lon": 0.0, "bike_id": "517e01b0280fe9aeabdc48c383da8823", "is_reserved": 0, "rental_uris": {"android": "https://dc.lft.to/lastmile_qr_scan", "ios": "https://dc.lft.to/lastmile_qr_scan"}, "lat": 38.901548166666664, "is_disabled": 0, "lon": -77.04357616666667}, {"fusion_lat": 0.0, "type": "electric_scooter", "name": "0c8516bd08fcfd8759ea2300136990d0", "fusion_lon": 0.0, "bike_id": "0c8516bd08fcfd8759ea2300136990d0", "is_reserved": 0, "rental_uris": {"android": "https://dc.lft.to/lastmile_qr_scan", "ios": "https://dc.lft.to/lastmile_qr_scan"}, "lat": 38.8989595, "is_disabled": 0, "lon": -77.02584283333333}, {"fusion_lat": 0.0, "type": "electric_scooter", "name": "16c145c67978c9b506c36f8d977e1be3", "fusion_lon": 0.0, "bike_id": "16c145c67978c9b506c36f8d977e1be3", "is_reserved": 0, "rental_uris": {"android": "https://dc.lft.to/lastmile_qr_scan", "ios": "https://dc.lft.to/lastmile_qr_scan"}, "lat": 38.8747185, "is_disabled": 0, "lon": -77.00517633333334}, {"fusion_lat": 0.0, "type": "electric_scooter", "name": "13a5f860f0a1c42f0876d465a7005c14", "fusion_lon": 0.0, "bike_id": "13a5f860f0a1c42f0876d465a7005c14", "is_reserved": 0, "rental_uris": {"android": "https://dc.lft.to/lastmile_qr_scan", "ios": "https://dc.lft.to/lastmile_qr_scan"}, "lat": 38.915644666666665, "is_disabled": 0, "lon": -77.03370633333333}, {"fusion_lat": 0.0, "type": "electric_scooter", "name": "57133f52759e366c8405ff4afa9a1fde", "fusion_lon": 0.0, "bike_id": "57133f52759e366c8405ff4afa9a1fde", "is_reserved": 0, "rental_uris": {"android": "https://dc.lft.to/lastmile_qr_scan", "ios": "https://dc.lft.to/lastmile_qr_scan"}, "lat": 38.921759333333334, "is_disabled": 0, "lon": -77.042298}, {"fusion_lat": 0.0, "type": "electric_scooter", "name": "32c3a11b90ff43914783897df1c6fad6", "fusion_lon": 0.0, "bike_id": "32c3a11b90ff43914783897df1c6fad6", "is_reserved": 0, "rental_uris": {"android": "https://dc.lft.to/lastmile_qr_scan", "ios": "https://dc.lft.to/lastmile_qr_scan"}, "lat": 38.91931533333333, "is_disabled": 0, "lon": -77.03430033333333}, {"fusion_lat": 0.0, "type": "electric_scooter", "name": "bc554e979913b9677afba0a339a7ca43", "fusion_lon": 0.0, "bike_id": "bc554e979913b9677afba0a339a7ca43", "is_reserved": 0, "rental_uris": {"android": "https://dc.lft.to/lastmile_qr_scan", "ios": "https://dc.lft.to/lastmile_qr_scan"}, "lat": 38.8922055, "is_disabled": 0, "lon": -77.02218416666666}, {"fusion_lat": 0.0, "type": "electric_scooter", "name": "5a8cecb590dae7b3c5faf61efc77a527", "fusion_lon": 0.0, "bike_id": "5a8cecb590dae7b3c5faf61efc77a527", "is_reserved": 0, "rental_uris": {"android": "https://dc.lft.to/lastmile_qr_scan", "ios": "https://dc.lft.to/lastmile_qr_scan"}, "lat": 38.93098666666667, "is_disabled": 0, "lon": -77.036368}, {"fusion_lat": 0.0, "type": "electric_bike", "name": "315b1552d4aff44f1bbed6d6cb11231c", "fusion_lon": 0.0, "bike_id": "315b1552d4aff44f1bbed6d6cb11231c", "is_reserved": 0, "rental_uris": {"android": "https://dc.lft.to/lastmile_qr_scan", "ios": "https://dc.lft.to/lastmile_qr_scan"}, "lat": 38.85518183333333, "is_disabled": 0, "lon": -76.98433833333333}, {"fusion_lat": 0.0, "type": "electric_scooter", "name": "fa278711d79e25e389b8381505360e28", "fusion_lon": 0.0, "bike_id": "fa278711d79e25e389b8381505360e28", "is_reserved": 0, "rental_uris": {"android": "https://dc.lft.to/lastmile_qr_scan", "ios": "https://dc.lft.to/lastmile_qr_scan"}, "lat": 38.903211666666664, "is_disabled": 0, "lon": -77.0417245}, {"fusion_lat": 0.0, "type": "electric_scooter", "name": "6bd7a7c35f9495c1b42248fadf6e3f86", "fusion_lon": 0.0, "bike_id": "6bd7a7c35f9495c1b42248fadf6e3f86", "is_reserved": 0, "rental_uris": {"android": "https://dc.lft.to/lastmile_qr_scan", "ios": "https://dc.lft.to/lastmile_qr_scan"}, "lat": 38.8635585, "is_disabled": 0, "lon": -76.99067283333333}, {"fusion_lat": 0.0, "type": "electric_scooter", "name": "8d2bc3c70f0d60d4867ce30acaa9f253", "fusion_lon": 0.0, "bike_id": "8d2bc3c70f0d60d4867ce30acaa9f253", "is_reserved": 0, "rental_uris": {"android": "https://dc.lft.to/lastmile_qr_scan", "ios": "https://dc.lft.to/lastmile_qr_scan"}, "lat": 38.9056495, "is_disabled": 0, "lon": -77.0450925}, {"fusion_lat": 0.0, "type": "electric_scooter", "name": "2a13c1409b29783c34f850362d141fc9", "fusion_lon": 0.0, "bike_id": "2a13c1409b29783c34f850362d141fc9", "is_reserved": 0, "rental_uris": {"android": "https://dc.lft.to/lastmile_qr_scan", "ios": "https://dc.lft.to/lastmile_qr_scan"}, "lat": 38.9120995, "is_disabled": 0, "lon": -77.03457483333334}, {"fusion_lat": 0.0, "type": "electric_scooter", "name": "e345a13b9036b88792b3c76a4885c6db", "fusion_lon": 0.0, "bike_id": "e345a13b9036b88792b3c76a4885c6db", "is_reserved": 0, "rental_uris": {"android": "https://dc.lft.to/lastmile_qr_scan", "ios": "https://dc.lft.to/lastmile_qr_scan"}, "lat": 38.900948666666665, "is_disabled": 0, "lon": -77.0252955}, {"fusion_lat": 0.0, "type": "electric_scooter", "name": "7a2a50e16e2c119dcc763ff541dbdf0b", "fusion_lon": 0.0, "bike_id": "7a2a50e16e2c119dcc763ff541dbdf0b", "is_reserved": 0, "rental_uris": {"android": "https://dc.lft.to/lastmile_qr_scan", "ios": "https://dc.lft.to/lastmile_qr_scan"}, "lat": 38.911320833333335, "is_disabled": 0, "lon": -77.044157}, {"fusion_lat": 0.0, "type": "electric_scooter", "name": "e5cda34395ae97b14332670c24af7e04", "fusion_lon": 0.0, "bike_id": "e5cda34395ae97b14332670c24af7e04", "is_reserved": 0, "rental_uris": {"android": "https://dc.lft.to/lastmile_qr_scan", "ios": "https://dc.lft.to/lastmile_qr_scan"}, "lat": 38.88633933333333, "is_disabled": 0, "lon": -77.01968716666667}, {"fusion_lat": 0.0, "type": "electric_scooter", "name": "a2fc0899b9af1102173eadd9ea9fd259", "fusion_lon": 0.0, "bike_id": "a2fc0899b9af1102173eadd9ea9fd259", "is_reserved": 0, "rental_uris": {"android": "https://dc.lft.to/lastmile_qr_scan", "ios": "https://dc.lft.to/lastmile_qr_scan"}, "lat": 38.89880816666667, "is_disabled": 0, "lon": -77.03278983333334}, {"fusion_lat": 0.0, "type": "electric_scooter", "name": "e28ae40177301f47c638609e5408b8ca", "fusion_lon": 0.0, "bike_id": "e28ae40177301f47c638609e5408b8ca", "is_reserved": 0, "rental_uris": {"android": "https://dc.lft.to/lastmile_qr_scan", "ios": "https://dc.lft.to/lastmile_qr_scan"}, "lat": 38.90538216666667, "is_disabled": 0, "lon": -77.05001133333333}, {"fusion_lat": 0.0, "type": "electric_bike", "name": "2ff13289999555cbebab55ee965121d0", "fusion_lon": 0.0, "bike_id": "2ff13289999555cbebab55ee965121d0", "is_reserved": 0, "rental_uris": {"android": "https://dc.lft.to/lastmile_qr_scan", "ios": "https://dc.lft.to/lastmile_qr_scan"}, "lat": 38.9576005, "is_disabled": 0, "lon": -77.007073}, {"fusion_lat": 0.0, "type": "electric_scooter", "name": "97e69d01262f4d09299c1877b5ed0deb", "fusion_lon": 0.0, "bike_id": "97e69d01262f4d09299c1877b5ed0deb", "is_reserved": 0, "rental_uris": {"android": "https://dc.lft.to/lastmile_qr_scan", "ios": "https://dc.lft.to/lastmile_qr_scan"}, "lat": 38.89001783333333, "is_disabled": 0, "lon": -76.95945866666666}, {"fusion_lat": 0.0, "type": "electric_scooter", "name": "7c4dda0a4e09e808197543bad24444b1", "fusion_lon": 0.0, "bike_id": "7c4dda0a4e09e808197543bad24444b1", "is_reserved": 0, "rental_uris": {"android": "https://dc.lft.to/lastmile_qr_scan", "ios": "https://dc.lft.to/lastmile_qr_scan"}, "lat": 38.86506266666667, "is_disabled": 0, "lon": -76.98999316666666}, {"fusion_lat": 0.0, "type": "electric_scooter", "name": "55b6fe3666546629ea5cff75515f7af8", "fusion_lon": 0.0, "bike_id": "55b6fe3666546629ea5cff75515f7af8", "is_reserved": 0, "rental_uris": {"android": "https://dc.lft.to/lastmile_qr_scan", "ios": "https://dc.lft.to/lastmile_qr_scan"}, "lat": 38.89879833333333, "is_disabled": 0, "lon": -76.93186166666666}, {"fusion_lat": 0.0, "type": "electric_scooter", "name": "7c4e4ea4e0e40cd71018a27d0f65f4bf", "fusion_lon": 0.0, "bike_id": "7c4e4ea4e0e40cd71018a27d0f65f4bf", "is_reserved": 0, "rental_uris": {"android": "https://dc.lft.to/lastmile_qr_scan", "ios": "https://dc.lft.to/lastmile_qr_scan"}, "lat": 38.93609133333333, "is_disabled": 0, "lon": -77.05888283333333}, {"fusion_lat": 0.0, "type": "electric_scooter", "name": "db186ae9f8b4c6bbe6dd48d44564589a", "fusion_lon": 0.0, "bike_id": "db186ae9f8b4c6bbe6dd48d44564589a", "is_reserved": 0, "rental_uris": {"android": "https://dc.lft.to/lastmile_qr_scan", "ios": "https://dc.lft.to/lastmile_qr_scan"}, "lat": 38.925116833333334, "is_disabled": 0, "lon": -77.002254}, {"fusion_lat": 0.0, "type": "electric_scooter", "name": "9e09d154d3beaea25535e9ab27ecb7fc", "fusion_lon": 0.0, "bike_id": "9e09d154d3beaea25535e9ab27ecb7fc", "is_reserved": 0, "rental_uris": {"android": "https://dc.lft.to/lastmile_qr_scan", "ios": "https://dc.lft.to/lastmile_qr_scan"}, "lat": 38.87189816666667, "is_disabled": 0, "lon": -77.005882}, {"fusion_lat": 0.0, "type": "electric_scooter", "name": "aa89aa9bc347d9a03354887eab31082d", "fusion_lon": 0.0, "bike_id": "aa89aa9bc347d9a03354887eab31082d", "is_reserved": 0, "rental_uris": {"android": "https://dc.lft.to/lastmile_qr_scan", "ios": "https://dc.lft.to/lastmile_qr_scan"}, "lat": 38.94202216666667, "is_disabled": 0, "lon": -77.02502966666667}, {"fusion_lat": 0.0, "type": "electric_scooter", "name": "bf27b14b9926dc7b09c77a51b58bdc61", "fusion_lon": 0.0, "bike_id": "bf27b14b9926dc7b09c77a51b58bdc61", "is_reserved": 0, "rental_uris": {"android": "https://dc.lft.to/lastmile_qr_scan", "ios": "https://dc.lft.to/lastmile_qr_scan"}, "lat": 38.9498655, "is_disabled": 0, "lon": -77.02707183333334}, {"fusion_lat": 0.0, "type": "electric_scooter", "name": "9fa097ee6029e0b70657cb24a07bb7f3", "fusion_lon": 0.0, "bike_id": "9fa097ee6029e0b70657cb24a07bb7f3", "is_reserved": 0, "rental_uris": {"android": "https://dc.lft.to/lastmile_qr_scan", "ios": "https://dc.lft.to/lastmile_qr_scan"}, "lat": 38.92039283333333, "is_disabled": 0, "lon": -77.01676366666666}, {"fusion_lat": 0.0, "type": "electric_scooter", "name": "5387091f2ddaa82c5530e88d15b6fc71", "fusion_lon": 0.0, "bike_id": "5387091f2ddaa82c5530e88d15b6fc71", "is_reserved": 0, "rental_uris": {"android": "https://dc.lft.to/lastmile_qr_scan", "ios": "https://dc.lft.to/lastmile_qr_scan"}, "lat": 38.869938833333336, "is_disabled": 0, "lon": -76.97591116666666}, {"fusion_lat": 0.0, "type": "electric_scooter", "name": "ab491be80021c793067e2033c7ca4261", "fusion_lon": 0.0, "bike_id": "ab491be80021c793067e2033c7ca4261", "is_reserved": 0, "rental_uris": {"android": "https://dc.lft.to/lastmile_qr_scan", "ios": "https://dc.lft.to/lastmile_qr_scan"}, "lat": 38.88727, "is_disabled": 0, "lon": -77.02822916666666}, {"fusion_lat": 0.0, "type": "electric_scooter", "name": "1d8d1d31efdfc136d16acd5f9035668e", "fusion_lon": 0.0, "bike_id": "1d8d1d31efdfc136d16acd5f9035668e", "is_reserved": 0, "rental_uris": {"android": "https://dc.lft.to/lastmile_qr_scan", "ios": "https://dc.lft.to/lastmile_qr_scan"}, "lat": 38.902596, "is_disabled": 0, "lon": -76.99545733333333}, {"fusion_lat": 0.0, "type": "electric_bike", "name": "44b575762f96f6ce8d01ce7286bafbbf", "fusion_lon": 0.0, "bike_id": "44b575762f96f6ce8d01ce7286bafbbf", "is_reserved": 0, "rental_uris": {"android": "https://dc.lft.to/lastmile_qr_scan", "ios": "https://dc.lft.to/lastmile_qr_scan"}, "lat": 39.0528135, "is_disabled": 0, "lon": -77.08063833333334}, {"fusion_lat": 0.0, "type": "electric_scooter", "name": "28882fb9840fe89bde4e5a7f2bb1bc90", "fusion_lon": 0.0, "bike_id": "28882fb9840fe89bde4e5a7f2bb1bc90", "is_reserved": 0, "rental_uris": {"android": "https://dc.lft.to/lastmile_qr_scan", "ios": "https://dc.lft.to/lastmile_qr_scan"}, "lat": 38.9312285, "is_disabled": 0, "lon": -77.02823883333333}, {"fusion_lat": 0.0, "type": "electric_scooter", "name": "5e76943c438d5e8951a88d1480f086c0", "fusion_lon": 0.0, "bike_id": "5e76943c438d5e8951a88d1480f086c0", "is_reserved": 0, "rental_uris": {"android": "https://dc.lft.to/lastmile_qr_scan", "ios": "https://dc.lft.to/lastmile_qr_scan"}, "lat": 38.876907833333334, "is_disabled": 0, "lon": -77.00403333333334}, {"fusion_lat": 0.0, "type": "electric_scooter", "name": "564e652da00dc4892c5ab480724921c5", "fusion_lon": 0.0, "bike_id": "564e652da00dc4892c5ab480724921c5", "is_reserved": 0, "rental_uris": {"android": "https://dc.lft.to/lastmile_qr_scan", "ios": "https://dc.lft.to/lastmile_qr_scan"}, "lat": 38.87195833333333, "is_disabled": 0, "lon": -77.01070116666666}, {"fusion_lat": 0.0, "type": "electric_scooter", "name": "17311f7990686c7671a7d96ae385da5d", "fusion_lon": 0.0, "bike_id": "17311f7990686c7671a7d96ae385da5d", "is_reserved": 0, "rental_uris": {"android": "https://dc.lft.to/lastmile_qr_scan", "ios": "https://dc.lft.to/lastmile_qr_scan"}, "lat": 38.911049166666665, "is_disabled": 0, "lon": -77.04477133333333}, {"fusion_lat": 0.0, "type": "electric_bike", "name": "a4da3aacb748239d56332524c2e91ed9", "fusion_lon": 0.0, "bike_id": "a4da3aacb748239d56332524c2e91ed9", "is_reserved": 0, "rental_uris": {"android": "https://dc.lft.to/lastmile_qr_scan", "ios": "https://dc.lft.to/lastmile_qr_scan"}, "lat": 38.9609995, "is_disabled": 0, "lon": -76.9280985}, {"fusion_lat": 0.0, "type": "electric_scooter", "name": "4d27ce553cd78815fddc2ecba4511f20", "fusion_lon": 0.0, "bike_id": "4d27ce553cd78815fddc2ecba4511f20", "is_reserved": 0, "rental_uris": {"android": "https://dc.lft.to/lastmile_qr_scan", "ios": "https://dc.lft.to/lastmile_qr_scan"}, "lat": 38.8972805, "is_disabled": 0, "lon": -77.04363983333333}, {"fusion_lat": 0.0, "type": "electric_scooter", "name": "956cd8f10639cc904e16c9fffde193f2", "fusion_lon": 0.0, "bike_id": "956cd8f10639cc904e16c9fffde193f2", "is_reserved": 0, "rental_uris": {"android": "https://dc.lft.to/lastmile_qr_scan", "ios": "https://dc.lft.to/lastmile_qr_scan"}, "lat": 38.984578166666665, "is_disabled": 0, "lon": -77.02639583333334}, {"fusion_lat": 0.0, "type": "electric_scooter", "name": "63fb780e79de160e4d8f65f30cda066b", "fusion_lon": 0.0, "bike_id": "63fb780e79de160e4d8f65f30cda066b", "is_reserved": 0, "rental_uris": {"android": "https://dc.lft.to/lastmile_qr_scan", "ios": "https://dc.lft.to/lastmile_qr_scan"}, "lat": 38.90866283333333, "is_disabled": 0, "lon": -77.04565316666667}, {"fusion_lat": 0.0, "type": "electric_scooter", "name": "9edb7fbf62cd15e9c0f0c7bdafed0b45", "fusion_lon": 0.0, "bike_id": "9edb7fbf62cd15e9c0f0c7bdafed0b45", "is_reserved": 0, "rental_uris": {"android": "https://dc.lft.to/lastmile_qr_scan", "ios": "https://dc.lft.to/lastmile_qr_scan"}, "lat": 38.878303833333334, "is_disabled": 0, "lon": -76.96307433333334}, {"fusion_lat": 0.0, "type": "electric_scooter", "name": "505dc1186710cb0527e6a66c7911e39a", "fusion_lon": 0.0, "bike_id": "505dc1186710cb0527e6a66c7911e39a", "is_reserved": 0, "rental_uris": {"android": "https://dc.lft.to/lastmile_qr_scan", "ios": "https://dc.lft.to/lastmile_qr_scan"}, "lat": 38.921556833333334, "is_disabled": 0, "lon": -77.03357233333334}, {"fusion_lat": 0.0, "type": "electric_scooter", "name": "b4202e89a1c1b834c9c216e867ab3f1d", "fusion_lon": 0.0, "bike_id": "b4202e89a1c1b834c9c216e867ab3f1d", "is_reserved": 0, "rental_uris": {"android": "https://dc.lft.to/lastmile_qr_scan", "ios": "https://dc.lft.to/lastmile_qr_scan"}, "lat": 38.90481116666667, "is_disabled": 0, "lon": -77.00207233333333}, {"fusion_lat": 0.0, "type": "electric_scooter", "name": "b56c8caf5828fd25ceb4ca48c00df6b7", "fusion_lon": 0.0, "bike_id": "b56c8caf5828fd25ceb4ca48c00df6b7", "is_reserved": 0, "rental_uris": {"android": "https://dc.lft.to/lastmile_qr_scan", "ios": "https://dc.lft.to/lastmile_qr_scan"}, "lat": 38.920534, "is_disabled": 0, "lon": -77.0168295}, {"fusion_lat": 0.0, "type": "electric_bike", "name": "7d664517f7a37f6a1ecedd39a91b8c80", "fusion_lon": 0.0, "bike_id": "7d664517f7a37f6a1ecedd39a91b8c80", "is_reserved": 0, "rental_uris": {"android": "https://dc.lft.to/lastmile_qr_scan", "ios": "https://dc.lft.to/lastmile_qr_scan"}, "lat": 39.05493833333333, "is_disabled": 0, "lon": -77.11786133333334}, {"fusion_lat": 0.0, "type": "electric_scooter", "name": "6f580d4f271023d3fbd3b698b31d3115", "fusion_lon": 0.0, "bike_id": "6f580d4f271023d3fbd3b698b31d3115", "is_reserved": 0, "rental_uris": {"android": "https://dc.lft.to/lastmile_qr_scan", "ios": "https://dc.lft.to/lastmile_qr_scan"}, "lat": 38.92300733333333, "is_disabled": 0, "lon": -77.04264766666667}, {"fusion_lat": 0.0, "type": "electric_scooter", "name": "8b05ed937468ea8348c82d60147b3844", "fusion_lon": 0.0, "bike_id": "8b05ed937468ea8348c82d60147b3844", "is_reserved": 0, "rental_uris": {"android": "https://dc.lft.to/lastmile_qr_scan", "ios": "https://dc.lft.to/lastmile_qr_scan"}, "lat": 38.8795965, "is_disabled": 0, "lon": -76.987459}, {"fusion_lat": 0.0, "type": "electric_bike", "name": "6255e878293d6c80b012ed80af180571", "fusion_lon": 0.0, "bike_id": "6255e878293d6c80b012ed80af180571", "is_reserved": 0, "rental_uris": {"android": "https://dc.lft.to/lastmile_qr_scan", "ios": "https://dc.lft.to/lastmile_qr_scan"}, "lat": 38.963068666666665, "is_disabled": 0, "lon": -77.01108383333333}, {"fusion_lat": 0.0, "type": "electric_bike", "name": "9295b6a3237f08a0ac946689f23fb942", "fusion_lon": 0.0, "bike_id": "9295b6a3237f08a0ac946689f23fb942", "is_reserved": 0, "rental_uris": {"android": "https://dc.lft.to/lastmile_qr_scan", "ios": "https://dc.lft.to/lastmile_qr_scan"}, "lat": 38.88333816666667, "is_disabled": 0, "lon": -77.06561816666667}, {"fusion_lat": 0.0, "type": "electric_scooter", "name": "641989cea5ff62d80659dd4b873d66e7", "fusion_lon": 0.0, "bike_id": "641989cea5ff62d80659dd4b873d66e7", "is_reserved": 0, "rental_uris": {"android": "https://dc.lft.to/lastmile_qr_scan", "ios": "https://dc.lft.to/lastmile_qr_scan"}, "lat": 38.914511166666664, "is_disabled": 0, "lon": -77.0172555}, {"fusion_lat": 0.0, "type": "electric_bike", "name": "a8944c6b91cb7da071830da9f4d68c0f", "fusion_lon": 0.0, "bike_id": "a8944c6b91cb7da071830da9f4d68c0f", "is_reserved": 0, "rental_uris": {"android": "https://dc.lft.to/lastmile_qr_scan", "ios": "https://dc.lft.to/lastmile_qr_scan"}, "lat": 38.860443833333335, "is_disabled": 0, "lon": -77.09559033333333}, {"fusion_lat": 0.0, "type": "electric_scooter", "name": "d9e2be3d97a0f8bb384e454182ab758b", "fusion_lon": 0.0, "bike_id": "d9e2be3d97a0f8bb384e454182ab758b", "is_reserved": 0, "rental_uris": {"android": "https://dc.lft.to/lastmile_qr_scan", "ios": "https://dc.lft.to/lastmile_qr_scan"}, "lat": 38.90718833333333, "is_disabled": 0, "lon": -77.04167566666666}, {"fusion_lat": 0.0, "type": "electric_bike", "name": "43b0a9770666a086c538ff09a73c9d50", "fusion_lon": 0.0, "bike_id": "43b0a9770666a086c538ff09a73c9d50", "is_reserved": 0, "rental_uris": {"android": "https://dc.lft.to/lastmile_qr_scan", "ios": "https://dc.lft.to/lastmile_qr_scan"}, "lat": 39.03432016666667, "is_disabled": 0, "lon": -77.04087916666667}, {"fusion_lat": 0.0, "type": "electric_scooter", "name": "3574c055837af70d819a8b4dc5585e7c", "fusion_lon": 0.0, "bike_id": "3574c055837af70d819a8b4dc5585e7c", "is_reserved": 0, "rental_uris": {"android": "https://dc.lft.to/lastmile_qr_scan", "ios": "https://dc.lft.to/lastmile_qr_scan"}, "lat": 38.89363983333333, "is_disabled": 0, "lon": -76.94986516666667}, {"fusion_lat": 0.0, "type": "electric_scooter", "name": "00672da59557cf903a3186b81f803ff0", "fusion_lon": 0.0, "bike_id": "00672da59557cf903a3186b81f803ff0", "is_reserved": 0, "rental_uris": {"android": "https://dc.lft.to/lastmile_qr_scan", "ios": "https://dc.lft.to/lastmile_qr_scan"}, "lat": 38.895661, "is_disabled": 0, "lon": -77.04674516666667}, {"fusion_lat": 0.0, "type": "electric_scooter", "name": "b21716bf4a9422838454898b020b4a64", "fusion_lon": 0.0, "bike_id": "b21716bf4a9422838454898b020b4a64", "is_reserved": 0, "rental_uris": {"android": "https://dc.lft.to/lastmile_qr_scan", "ios": "https://dc.lft.to/lastmile_qr_scan"}, "lat": 38.921443333333336, "is_disabled": 0, "lon": -77.03503933333333}, {"fusion_lat": 0.0, "type": "electric_scooter", "name": "5f89f0e042b841d22be7bf552b03a960", "fusion_lon": 0.0, "bike_id": "5f89f0e042b841d22be7bf552b03a960", "is_reserved": 0, "rental_uris": {"android": "https://dc.lft.to/lastmile_qr_scan", "ios": "https://dc.lft.to/lastmile_qr_scan"}, "lat": 38.88713633333333, "is_disabled": 0, "lon": -77.02200383333333}, {"fusion_lat": 0.0, "type": "electric_scooter", "name": "9f5084076efbce1e58434d9cfdc80561", "fusion_lon": 0.0, "bike_id": "9f5084076efbce1e58434d9cfdc80561", "is_reserved": 0, "rental_uris": {"android": "https://dc.lft.to/lastmile_qr_scan", "ios": "https://dc.lft.to/lastmile_qr_scan"}, "lat": 38.95626266666667, "is_disabled": 0, "lon": -77.02457733333334}, {"fusion_lat": 0.0, "type": "electric_bike", "name": "a9ef0e1d0be3e971c56df89cd8513d38", "fusion_lon": 0.0, "bike_id": "a9ef0e1d0be3e971c56df89cd8513d38", "is_reserved": 0, "rental_uris": {"android": "https://dc.lft.to/lastmile_qr_scan", "ios": "https://dc.lft.to/lastmile_qr_scan"}, "lat": 38.9466905, "is_disabled": 0, "lon": -76.983039}, {"fusion_lat": 0.0, "type": "electric_scooter", "name": "198fe13301bed964782eaec3e6164fc3", "fusion_lon": 0.0, "bike_id": "198fe13301bed964782eaec3e6164fc3", "is_reserved": 0, "rental_uris": {"android": "https://dc.lft.to/lastmile_qr_scan", "ios": "https://dc.lft.to/lastmile_qr_scan"}, "lat": 38.93572266666666, "is_disabled": 0, "lon": -77.02117566666666}, {"fusion_lat": 0.0, "type": "electric_scooter", "name": "7cdbe15e0a665ff2f495d66ee342af2c", "fusion_lon": 0.0, "bike_id": "7cdbe15e0a665ff2f495d66ee342af2c", "is_reserved": 0, "rental_uris": {"android": "https://dc.lft.to/lastmile_qr_scan", "ios": "https://dc.lft.to/lastmile_qr_scan"}, "lat": 38.91959933333333, "is_disabled": 0, "lon": -77.0238045}, {"fusion_lat": 0.0, "type": "electric_scooter", "name": "01174341f4c459e3ef65f94065b740b8", "fusion_lon": 0.0, "bike_id": "01174341f4c459e3ef65f94065b740b8", "is_reserved": 0, "rental_uris": {"android": "https://dc.lft.to/lastmile_qr_scan", "ios": "https://dc.lft.to/lastmile_qr_scan"}, "lat": 38.902427833333334, "is_disabled": 0, "lon": -77.04350233333334}, {"fusion_lat": 0.0, "type": "electric_scooter", "name": "d6e0debc308338b66fbee6e92273728c", "fusion_lon": 0.0, "bike_id": "d6e0debc308338b66fbee6e92273728c", "is_reserved": 0, "rental_uris": {"android": "https://dc.lft.to/lastmile_qr_scan", "ios": "https://dc.lft.to/lastmile_qr_scan"}, "lat": 38.89911716666667, "is_disabled": 0, "lon": -76.93370683333333}, {"fusion_lat": 0.0, "type": "electric_bike", "name": "be6087d532aee12040b6f35d48ac6fc6", "fusion_lon": 0.0, "bike_id": "be6087d532aee12040b6f35d48ac6fc6", "is_reserved": 0, "rental_uris": {"android": "https://dc.lft.to/lastmile_qr_scan", "ios": "https://dc.lft.to/lastmile_qr_scan"}, "lat": 38.85208183333334, "is_disabled": 0, "lon": -77.10129633333334}, {"fusion_lat": 0.0, "type": "electric_scooter", "name": "5f214b7d198e22679cc5e8aa3c2b33b1", "fusion_lon": 0.0, "bike_id": "5f214b7d198e22679cc5e8aa3c2b33b1", "is_reserved": 0, "rental_uris": {"android": "https://dc.lft.to/lastmile_qr_scan", "ios": "https://dc.lft.to/lastmile_qr_scan"}, "lat": 38.86553116666666, "is_disabled": 0, "lon": -76.98873766666667}, {"fusion_lat": 0.0, "type": "electric_scooter", "name": "9b86a87996bdfb31e0d43f0f7ac688d9", "fusion_lon": 0.0, "bike_id": "9b86a87996bdfb31e0d43f0f7ac688d9", "is_reserved": 0, "rental_uris": {"android": "https://dc.lft.to/lastmile_qr_scan", "ios": "https://dc.lft.to/lastmile_qr_scan"}, "lat": 38.91981116666667, "is_disabled": 0, "lon": -77.03324516666666}, {"fusion_lat": 0.0, "type": "electric_scooter", "name": "c33c2d0c22d9514e87d9f7d0fa0f25ea", "fusion_lon": 0.0, "bike_id": "c33c2d0c22d9514e87d9f7d0fa0f25ea", "is_reserved": 0, "rental_uris": {"android": "https://dc.lft.to/lastmile_qr_scan", "ios": "https://dc.lft.to/lastmile_qr_scan"}, "lat": 38.885078666666665, "is_disabled": 0, "lon": -77.02021683333334}, {"fusion_lat": 0.0, "type": "electric_scooter", "name": "8241efbdd27e01d1a68c59aaa3b88b71", "fusion_lon": 0.0, "bike_id": "8241efbdd27e01d1a68c59aaa3b88b71", "is_reserved": 0, "rental_uris": {"android": "https://dc.lft.to/lastmile_qr_scan", "ios": "https://dc.lft.to/lastmile_qr_scan"}, "lat": 38.942053666666666, "is_disabled": 0, "lon": -77.025137}, {"fusion_lat": 0.0, "type": "electric_scooter", "name": "5e065170e8c7ff5717859171345b2c3d", "fusion_lon": 0.0, "bike_id": "5e065170e8c7ff5717859171345b2c3d", "is_reserved": 0, "rental_uris": {"android": "https://dc.lft.to/lastmile_qr_scan", "ios": "https://dc.lft.to/lastmile_qr_scan"}, "lat": 38.89240683333333, "is_disabled": 0, "lon": -77.031769}, {"fusion_lat": 0.0, "type": "electric_scooter", "name": "500d851ce8e3891a44121d7d52d7374b", "fusion_lon": 0.0, "bike_id": "500d851ce8e3891a44121d7d52d7374b", "is_reserved": 0, "rental_uris": {"android": "https://dc.lft.to/lastmile_qr_scan", "ios": "https://dc.lft.to/lastmile_qr_scan"}, "lat": 38.898849, "is_disabled": 0, "lon": -77.03945566666667}, {"fusion_lat": 0.0, "type": "electric_scooter", "name": "d2ab4374acb90504d0524c483c5ec791", "fusion_lon": 0.0, "bike_id": "d2ab4374acb90504d0524c483c5ec791", "is_reserved": 0, "rental_uris": {"android": "https://dc.lft.to/lastmile_qr_scan", "ios": "https://dc.lft.to/lastmile_qr_scan"}, "lat": 38.907258666666664, "is_disabled": 0, "lon": -77.03472316666667}, {"fusion_lat": 0.0, "type": "electric_scooter", "name": "713a6f55ac66e8fbd7c3bd59966aabb9", "fusion_lon": 0.0, "bike_id": "713a6f55ac66e8fbd7c3bd59966aabb9", "is_reserved": 0, "rental_uris": {"android": "https://dc.lft.to/lastmile_qr_scan", "ios": "https://dc.lft.to/lastmile_qr_scan"}, "lat": 38.92329216666667, "is_disabled": 0, "lon": -77.01953616666667}, {"fusion_lat": 0.0, "type": "electric_scooter", "name": "56f5171d3819a781ca214dfa1d465bb2", "fusion_lon": 0.0, "bike_id": "56f5171d3819a781ca214dfa1d465bb2", "is_reserved": 0, "rental_uris": {"android": "https://dc.lft.to/lastmile_qr_scan", "ios": "https://dc.lft.to/lastmile_qr_scan"}, "lat": 38.911524166666666, "is_disabled": 0, "lon": -77.04338566666667}, {"fusion_lat": 0.0, "type": "electric_scooter", "name": "12aaa2bd1d0a629f1a58362c0b35a495", "fusion_lon": 0.0, "bike_id": "12aaa2bd1d0a629f1a58362c0b35a495", "is_reserved": 0, "rental_uris": {"android": "https://dc.lft.to/lastmile_qr_scan", "ios": "https://dc.lft.to/lastmile_qr_scan"}, "lat": 38.91890383333333, "is_disabled": 0, "lon": -77.02973366666667}, {"fusion_lat": 0.0, "type": "electric_scooter", "name": "b9ee3721007c0cd0f0e8595672a65e23", "fusion_lon": 0.0, "bike_id": "b9ee3721007c0cd0f0e8595672a65e23", "is_reserved": 0, "rental_uris": {"android": "https://dc.lft.to/lastmile_qr_scan", "ios": "https://dc.lft.to/lastmile_qr_scan"}, "lat": 38.930441333333334, "is_disabled": 0, "lon": -77.03787233333334}, {"fusion_lat": 0.0, "type": "electric_scooter", "name": "9573d783d1bd176fb646973a02de356f", "fusion_lon": 0.0, "bike_id": "9573d783d1bd176fb646973a02de356f", "is_reserved": 0, "rental_uris": {"android": "https://dc.lft.to/lastmile_qr_scan", "ios": "https://dc.lft.to/lastmile_qr_scan"}, "lat": 38.8922655, "is_disabled": 0, "lon": -77.02177266666666}, {"fusion_lat": 0.0, "type": "electric_scooter", "name": "18dcc5fe1d22f6719521dea9071ef19d", "fusion_lon": 0.0, "bike_id": "18dcc5fe1d22f6719521dea9071ef19d", "is_reserved": 0, "rental_uris": {"android": "https://dc.lft.to/lastmile_qr_scan", "ios": "https://dc.lft.to/lastmile_qr_scan"}, "lat": 38.90106333333333, "is_disabled": 0, "lon": -77.032115}, {"fusion_lat": 0.0, "type": "electric_scooter", "name": "a14dbfbc76913cd0eef9f30988a4c3e0", "fusion_lon": 0.0, "bike_id": "a14dbfbc76913cd0eef9f30988a4c3e0", "is_reserved": 0, "rental_uris": {"android": "https://dc.lft.to/lastmile_qr_scan", "ios": "https://dc.lft.to/lastmile_qr_scan"}, "lat": 38.90427783333333, "is_disabled": 0, "lon": -77.04258}, {"fusion_lat": 0.0, "type": "electric_scooter", "name": "42298b23d3fbb27e5a71aea8b2e92cc3", "fusion_lon": 0.0, "bike_id": "42298b23d3fbb27e5a71aea8b2e92cc3", "is_reserved": 0, "rental_uris": {"android": "https://dc.lft.to/lastmile_qr_scan", "ios": "https://dc.lft.to/lastmile_qr_scan"}, "lat": 38.896310666666665, "is_disabled": 0, "lon": -77.0241065}, {"fusion_lat": 0.0, "type": "electric_scooter", "name": "e45a7cc4f2ee65c7e64384e11d243983", "fusion_lon": 0.0, "bike_id": "e45a7cc4f2ee65c7e64384e11d243983", "is_reserved": 0, "rental_uris": {"android": "https://dc.lft.to/lastmile_qr_scan", "ios": "https://dc.lft.to/lastmile_qr_scan"}, "lat": 38.912389833333336, "is_disabled": 0, "lon": -77.00915566666667}, {"fusion_lat": 0.0, "type": "electric_scooter", "name": "e0be93b70d0d0ea170f0ee2a42b57063", "fusion_lon": 0.0, "bike_id": "e0be93b70d0d0ea170f0ee2a42b57063", "is_reserved": 0, "rental_uris": {"android": "https://dc.lft.to/lastmile_qr_scan", "ios": "https://dc.lft.to/lastmile_qr_scan"}, "lat": 38.896685833333336, "is_disabled": 0, "lon": -76.94761316666667}, {"fusion_lat": 0.0, "type": "electric_bike", "name": "0b74e544f36e4e48f40b150dcdf746f7", "fusion_lon": 0.0, "bike_id": "0b74e544f36e4e48f40b150dcdf746f7", "is_reserved": 0, "rental_uris": {"android": "https://dc.lft.to/lastmile_qr_scan", "ios": "https://dc.lft.to/lastmile_qr_scan"}, "lat": 38.896156166666664, "is_disabled": 0, "lon": -76.90743916666666}, {"fusion_lat": 0.0, "type": "electric_scooter", "name": "4ef54f1acd993261b918ebbb2901079a", "fusion_lon": 0.0, "bike_id": "4ef54f1acd993261b918ebbb2901079a", "is_reserved": 0, "rental_uris": {"android": "https://dc.lft.to/lastmile_qr_scan", "ios": "https://dc.lft.to/lastmile_qr_scan"}, "lat": 38.9439815, "is_disabled": 0, "lon": -77.02680883333333}, {"fusion_lat": 0.0, "type": "electric_scooter", "name": "f890ebf03225e07b03e9205dbf5af0a8", "fusion_lon": 0.0, "bike_id": "f890ebf03225e07b03e9205dbf5af0a8", "is_reserved": 0, "rental_uris": {"android": "https://dc.lft.to/lastmile_qr_scan", "ios": "https://dc.lft.to/lastmile_qr_scan"}, "lat": 38.912562666666666, "is_disabled": 0, "lon": -77.02684333333333}, {"fusion_lat": 0.0, "type": "electric_scooter", "name": "938376661df48023341039db508b09ca", "fusion_lon": 0.0, "bike_id": "938376661df48023341039db508b09ca", "is_reserved": 0, "rental_uris": {"android": "https://dc.lft.to/lastmile_qr_scan", "ios": "https://dc.lft.to/lastmile_qr_scan"}, "lat": 38.928231, "is_disabled": 0, "lon": -77.0225355}, {"fusion_lat": 0.0, "type": "electric_scooter", "name": "e44dcb71ea211757d67ee32c4401edd2", "fusion_lon": 0.0, "bike_id": "e44dcb71ea211757d67ee32c4401edd2", "is_reserved": 0, "rental_uris": {"android": "https://dc.lft.to/lastmile_qr_scan", "ios": "https://dc.lft.to/lastmile_qr_scan"}, "lat": 38.8961315, "is_disabled": 0, "lon": -77.04599216666666}, {"fusion_lat": 0.0, "type": "electric_scooter", "name": "3349b6898a0139f090099e8ff46492b5", "fusion_lon": 0.0, "bike_id": "3349b6898a0139f090099e8ff46492b5", "is_reserved": 0, "rental_uris": {"android": "https://dc.lft.to/lastmile_qr_scan", "ios": "https://dc.lft.to/lastmile_qr_scan"}, "lat": 38.903917, "is_disabled": 0, "lon": -77.02990066666666}, {"fusion_lat": 0.0, "type": "electric_scooter", "name": "baafbc4940fa6d3edbfbdbefec6d9258", "fusion_lon": 0.0, "bike_id": "baafbc4940fa6d3edbfbdbefec6d9258", "is_reserved": 0, "rental_uris": {"android": "https://dc.lft.to/lastmile_qr_scan", "ios": "https://dc.lft.to/lastmile_qr_scan"}, "lat": 38.8666485, "is_disabled": 0, "lon": -76.98508933333333}, {"fusion_lat": 0.0, "type": "electric_scooter", "name": "b0732bc97066a4b86370b4e0e47d4551", "fusion_lon": 0.0, "bike_id": "b0732bc97066a4b86370b4e0e47d4551", "is_reserved": 0, "rental_uris": {"android": "https://dc.lft.to/lastmile_qr_scan", "ios": "https://dc.lft.to/lastmile_qr_scan"}, "lat": 38.87465316666667, "is_disabled": 0, "lon": -77.01588916666667}, {"fusion_lat": 0.0, "type": "electric_scooter", "name": "65f817eeace0d98c2c762ef093d21a1d", "fusion_lon": 0.0, "bike_id": "65f817eeace0d98c2c762ef093d21a1d", "is_reserved": 0, "rental_uris": {"android": "https://dc.lft.to/lastmile_qr_scan", "ios": "https://dc.lft.to/lastmile_qr_scan"}, "lat": 38.866597, "is_disabled": 0, "lon": -76.98880033333333}, {"fusion_lat": 0.0, "type": "electric_scooter", "name": "a8870bbcf0e10050405f42bf2f5cee30", "fusion_lon": 0.0, "bike_id": "a8870bbcf0e10050405f42bf2f5cee30", "is_reserved": 0, "rental_uris": {"android": "https://dc.lft.to/lastmile_qr_scan", "ios": "https://dc.lft.to/lastmile_qr_scan"}, "lat": 38.898830833333335, "is_disabled": 0, "lon": -77.032793}, {"fusion_lat": 0.0, "type": "electric_scooter", "name": "87179169f22061ef13a290fe45907634", "fusion_lon": 0.0, "bike_id": "87179169f22061ef13a290fe45907634", "is_reserved": 0, "rental_uris": {"android": "https://dc.lft.to/lastmile_qr_scan", "ios": "https://dc.lft.to/lastmile_qr_scan"}, "lat": 38.89301016666667, "is_disabled": 0, "lon": -77.01231683333333}, {"fusion_lat": 0.0, "type": "electric_scooter", "name": "7bbbab656b7d12ef73b8b4296d1a1bce", "fusion_lon": 0.0, "bike_id": "7bbbab656b7d12ef73b8b4296d1a1bce", "is_reserved": 0, "rental_uris": {"android": "https://dc.lft.to/lastmile_qr_scan", "ios": "https://dc.lft.to/lastmile_qr_scan"}, "lat": 38.91094666666667, "is_disabled": 0, "lon": -77.0317555}, {"fusion_lat": 0.0, "type": "electric_scooter", "name": "19b591d7bec582f3003d2b5405b02abb", "fusion_lon": 0.0, "bike_id": "19b591d7bec582f3003d2b5405b02abb", "is_reserved": 0, "rental_uris": {"android": "https://dc.lft.to/lastmile_qr_scan", "ios": "https://dc.lft.to/lastmile_qr_scan"}, "lat": 38.9026515, "is_disabled": 0, "lon": -77.0459415}, {"fusion_lat": 0.0, "type": "electric_scooter", "name": "475dd574dcf35902565be8ed17ffb701", "fusion_lon": 0.0, "bike_id": "475dd574dcf35902565be8ed17ffb701", "is_reserved": 0, "rental_uris": {"android": "https://dc.lft.to/lastmile_qr_scan", "ios": "https://dc.lft.to/lastmile_qr_scan"}, "lat": 38.92433, "is_disabled": 0, "lon": -77.04246033333334}, {"fusion_lat": 0.0, "type": "electric_scooter", "name": "6b39f6843c4e03c902db4194447a13ff", "fusion_lon": 0.0, "bike_id": "6b39f6843c4e03c902db4194447a13ff", "is_reserved": 0, "rental_uris": {"android": "https://dc.lft.to/lastmile_qr_scan", "ios": "https://dc.lft.to/lastmile_qr_scan"}, "lat": 38.93003, "is_disabled": 0, "lon": -77.055175}, {"fusion_lat": 0.0, "type": "electric_scooter", "name": "59e7b2a8581a462705ffa886462961f1", "fusion_lon": 0.0, "bike_id": "59e7b2a8581a462705ffa886462961f1", "is_reserved": 0, "rental_uris": {"android": "https://dc.lft.to/lastmile_qr_scan", "ios": "https://dc.lft.to/lastmile_qr_scan"}, "lat": 38.92464, "is_disabled": 0, "lon": -77.0396015}, {"fusion_lat": 0.0, "type": "electric_scooter", "name": "67830118dac06982bbd91fa4116394b5", "fusion_lon": 0.0, "bike_id": "67830118dac06982bbd91fa4116394b5", "is_reserved": 0, "rental_uris": {"android": "https://dc.lft.to/lastmile_qr_scan", "ios": "https://dc.lft.to/lastmile_qr_scan"}, "lat": 38.92702716666667, "is_disabled": 0, "lon": -77.041127}, {"fusion_lat": 0.0, "type": "electric_scooter", "name": "e5b29ae18a7b1bcfca926af43a765d5e", "fusion_lon": 0.0, "bike_id": "e5b29ae18a7b1bcfca926af43a765d5e", "is_reserved": 0, "rental_uris": {"android": "https://dc.lft.to/lastmile_qr_scan", "ios": "https://dc.lft.to/lastmile_qr_scan"}, "lat": 38.92223383333334, "is_disabled": 0, "lon": -77.04248583333333}, {"fusion_lat": 0.0, "type": "electric_scooter", "name": "6113a00f39a4b806ab24da42bcb476b8", "fusion_lon": 0.0, "bike_id": "6113a00f39a4b806ab24da42bcb476b8", "is_reserved": 0, "rental_uris": {"android": "https://dc.lft.to/lastmile_qr_scan", "ios": "https://dc.lft.to/lastmile_qr_scan"}, "lat": 38.892313, "is_disabled": 0, "lon": -77.019757}, {"fusion_lat": 0.0, "type": "electric_bike", "name": "c5f5148a408d255bc312045b7dbe8dc9", "fusion_lon": 0.0, "bike_id": "c5f5148a408d255bc312045b7dbe8dc9", "is_reserved": 0, "rental_uris": {"android": "https://dc.lft.to/lastmile_qr_scan", "ios": "https://dc.lft.to/lastmile_qr_scan"}, "lat": 38.993472833333335, "is_disabled": 0, "lon": -77.11570033333334}, {"fusion_lat": 0.0, "type": "electric_scooter", "name": "0e60618ce3e8bc2de00c8d07e92f4022", "fusion_lon": 0.0, "bike_id": "0e60618ce3e8bc2de00c8d07e92f4022", "is_reserved": 0, "rental_uris": {"android": "https://dc.lft.to/lastmile_qr_scan", "ios": "https://dc.lft.to/lastmile_qr_scan"}, "lat": 38.86654933333333, "is_disabled": 0, "lon": -76.98516566666666}, {"fusion_lat": 0.0, "type": "electric_scooter", "name": "a860e98a226bd500137f49ed77014f59", "fusion_lon": 0.0, "bike_id": "a860e98a226bd500137f49ed77014f59", "is_reserved": 0, "rental_uris": {"android": "https://dc.lft.to/lastmile_qr_scan", "ios": "https://dc.lft.to/lastmile_qr_scan"}, "lat": 38.901330333333334, "is_disabled": 0, "lon": -77.04385783333333}, {"fusion_lat": 0.0, "type": "electric_scooter", "name": "36ba8e109cd32cad6920fe3c3acf1213", "fusion_lon": 0.0, "bike_id": "36ba8e109cd32cad6920fe3c3acf1213", "is_reserved": 0, "rental_uris": {"android": "https://dc.lft.to/lastmile_qr_scan", "ios": "https://dc.lft.to/lastmile_qr_scan"}, "lat": 38.917283166666664, "is_disabled": 0, "lon": -77.032041}, {"fusion_lat": 0.0, "type": "electric_scooter", "name": "bf121ce5dc02091ed5154bfa1f8dc543", "fusion_lon": 0.0, "bike_id": "bf121ce5dc02091ed5154bfa1f8dc543", "is_reserved": 0, "rental_uris": {"android": "https://dc.lft.to/lastmile_qr_scan", "ios": "https://dc.lft.to/lastmile_qr_scan"}, "lat": 38.907745, "is_disabled": 0, "lon": -77.03499316666667}, {"fusion_lat": 0.0, "type": "electric_scooter", "name": "a054942bf5f83d3c950656525a58759f", "fusion_lon": 0.0, "bike_id": "a054942bf5f83d3c950656525a58759f", "is_reserved": 0, "rental_uris": {"android": "https://dc.lft.to/lastmile_qr_scan", "ios": "https://dc.lft.to/lastmile_qr_scan"}, "lat": 38.893186, "is_disabled": 0, "lon": -77.017831}, {"fusion_lat": 0.0, "type": "electric_scooter", "name": "a5a1cc79d2f31ce2367ec8a320ba461a", "fusion_lon": 0.0, "bike_id": "a5a1cc79d2f31ce2367ec8a320ba461a", "is_reserved": 0, "rental_uris": {"android": "https://dc.lft.to/lastmile_qr_scan", "ios": "https://dc.lft.to/lastmile_qr_scan"}, "lat": 38.94205816666667, "is_disabled": 0, "lon": -77.0251035}, {"fusion_lat": 0.0, "type": "electric_bike", "name": "dac245b5061b59f8f01f0f9d38f37668", "fusion_lon": 0.0, "bike_id": "dac245b5061b59f8f01f0f9d38f37668", "is_reserved": 0, "rental_uris": {"android": "https://dc.lft.to/lastmile_qr_scan", "ios": "https://dc.lft.to/lastmile_qr_scan"}, "lat": 38.956446666666665, "is_disabled": 0, "lon": -77.02247733333333}, {"fusion_lat": 0.0, "type": "electric_scooter", "name": "d2cad2352f4b34c6a0eb98178083d2c6", "fusion_lon": 0.0, "bike_id": "d2cad2352f4b34c6a0eb98178083d2c6", "is_reserved": 0, "rental_uris": {"android": "https://dc.lft.to/lastmile_qr_scan", "ios": "https://dc.lft.to/lastmile_qr_scan"}, "lat": 38.9033325, "is_disabled": 0, "lon": -77.04188933333333}, {"fusion_lat": 0.0, "type": "electric_scooter", "name": "e96e65681e5c8343fbd5121e015c3af6", "fusion_lon": 0.0, "bike_id": "e96e65681e5c8343fbd5121e015c3af6", "is_reserved": 0, "rental_uris": {"android": "https://dc.lft.to/lastmile_qr_scan", "ios": "https://dc.lft.to/lastmile_qr_scan"}, "lat": 38.891631333333336, "is_disabled": 0, "lon": -76.951819}, {"fusion_lat": 0.0, "type": "electric_scooter", "name": "04667c5c3b02575aa9bc884eb20e554b", "fusion_lon": 0.0, "bike_id": "04667c5c3b02575aa9bc884eb20e554b", "is_reserved": 0, "rental_uris": {"android": "https://dc.lft.to/lastmile_qr_scan", "ios": "https://dc.lft.to/lastmile_qr_scan"}, "lat": 38.88748416666667, "is_disabled": 0, "lon": -77.03159833333333}, {"fusion_lat": 0.0, "type": "electric_bike", "name": "a87d59c87151a24df9057f63367d75ea", "fusion_lon": 0.0, "bike_id": "a87d59c87151a24df9057f63367d75ea", "is_reserved": 0, "rental_uris": {"android": "https://dc.lft.to/lastmile_qr_scan", "ios": "https://dc.lft.to/lastmile_qr_scan"}, "lat": 38.79510583333333, "is_disabled": 0, "lon": -77.00696833333333}, {"fusion_lat": 0.0, "type": "electric_scooter", "name": "bac94b8362958c8f0fafb71bf928b4d0", "fusion_lon": 0.0, "bike_id": "bac94b8362958c8f0fafb71bf928b4d0", "is_reserved": 0, "rental_uris": {"android": "https://dc.lft.to/lastmile_qr_scan", "ios": "https://dc.lft.to/lastmile_qr_scan"}, "lat": 38.89226583333333, "is_disabled": 0, "lon": -77.031688}, {"fusion_lat": 0.0, "type": "electric_scooter", "name": "1d149cd035cdff7d3b8d10f1724efe4c", "fusion_lon": 0.0, "bike_id": "1d149cd035cdff7d3b8d10f1724efe4c", "is_reserved": 0, "rental_uris": {"android": "https://dc.lft.to/lastmile_qr_scan", "ios": "https://dc.lft.to/lastmile_qr_scan"}, "lat": 38.90110383333333, "is_disabled": 0, "lon": -77.04480416666667}, {"fusion_lat": 0.0, "type": "electric_scooter", "name": "21b107c5e75a15f1bf0d50ffb579de7c", "fusion_lon": 0.0, "bike_id": "21b107c5e75a15f1bf0d50ffb579de7c", "is_reserved": 0, "rental_uris": {"android": "https://dc.lft.to/lastmile_qr_scan", "ios": "https://dc.lft.to/lastmile_qr_scan"}, "lat": 38.862684, "is_disabled": 0, "lon": -76.99468}, {"fusion_lat": 0.0, "type": "electric_scooter", "name": "11fb736e172b26a2c6ca8a560fc4d395", "fusion_lon": 0.0, "bike_id": "11fb736e172b26a2c6ca8a560fc4d395", "is_reserved": 0, "rental_uris": {"android": "https://dc.lft.to/lastmile_qr_scan", "ios": "https://dc.lft.to/lastmile_qr_scan"}, "lat": 38.91978233333333, "is_disabled": 0, "lon": -77.02171083333333}, {"fusion_lat": 0.0, "type": "electric_scooter", "name": "e1cc9edda0bd341bfb07d3da74434423", "fusion_lon": 0.0, "bike_id": "e1cc9edda0bd341bfb07d3da74434423", "is_reserved": 0, "rental_uris": {"android": "https://dc.lft.to/lastmile_qr_scan", "ios": "https://dc.lft.to/lastmile_qr_scan"}, "lat": 38.910406333333334, "is_disabled": 0, "lon": -77.042845}, {"fusion_lat": 0.0, "type": "electric_scooter", "name": "154b16e0ec62272a760e9d1283027653", "fusion_lon": 0.0, "bike_id": "154b16e0ec62272a760e9d1283027653", "is_reserved": 0, "rental_uris": {"android": "https://dc.lft.to/lastmile_qr_scan", "ios": "https://dc.lft.to/lastmile_qr_scan"}, "lat": 38.8923775, "is_disabled": 0, "lon": -77.03189033333334}, {"fusion_lat": 0.0, "type": "electric_scooter", "name": "d37678ec9b085b9523e08d6c984b6963", "fusion_lon": 0.0, "bike_id": "d37678ec9b085b9523e08d6c984b6963", "is_reserved": 0, "rental_uris": {"android": "https://dc.lft.to/lastmile_qr_scan", "ios": "https://dc.lft.to/lastmile_qr_scan"}, "lat": 38.89740366666667, "is_disabled": 0, "lon": -77.02639833333333}, {"fusion_lat": 0.0, "type": "electric_scooter", "name": "2dd165a4ba094eafeefc63713000bc78", "fusion_lon": 0.0, "bike_id": "2dd165a4ba094eafeefc63713000bc78", "is_reserved": 0, "rental_uris": {"android": "https://dc.lft.to/lastmile_qr_scan", "ios": "https://dc.lft.to/lastmile_qr_scan"}, "lat": 38.91703533333333, "is_disabled": 0, "lon": -77.03515}, {"fusion_lat": 0.0, "type": "electric_scooter", "name": "76fe1761a7eb0e4c58d3a17abd2fb4c4", "fusion_lon": 0.0, "bike_id": "76fe1761a7eb0e4c58d3a17abd2fb4c4", "is_reserved": 0, "rental_uris": {"android": "https://dc.lft.to/lastmile_qr_scan", "ios": "https://dc.lft.to/lastmile_qr_scan"}, "lat": 38.88730416666667, "is_disabled": 0, "lon": -77.02823616666667}, {"fusion_lat": 0.0, "type": "electric_scooter", "name": "c56f7d8bfa3f54b97556f7e5a9922ee3", "fusion_lon": 0.0, "bike_id": "c56f7d8bfa3f54b97556f7e5a9922ee3", "is_reserved": 0, "rental_uris": {"android": "https://dc.lft.to/lastmile_qr_scan", "ios": "https://dc.lft.to/lastmile_qr_scan"}, "lat": 38.9026985, "is_disabled": 0, "lon": -77.02838283333334}, {"fusion_lat": 0.0, "type": "electric_scooter", "name": "64b19f0ff89b72c822bcfead54fc589b", "fusion_lon": 0.0, "bike_id": "64b19f0ff89b72c822bcfead54fc589b", "is_reserved": 0, "rental_uris": {"android": "https://dc.lft.to/lastmile_qr_scan", "ios": "https://dc.lft.to/lastmile_qr_scan"}, "lat": 38.90971716666667, "is_disabled": 0, "lon": -77.024262}, {"fusion_lat": 0.0, "type": "electric_scooter", "name": "28f480521e11b88d4bc4b17e7cd18c02", "fusion_lon": 0.0, "bike_id": "28f480521e11b88d4bc4b17e7cd18c02", "is_reserved": 0, "rental_uris": {"android": "https://dc.lft.to/lastmile_qr_scan", "ios": "https://dc.lft.to/lastmile_qr_scan"}, "lat": 38.873160166666665, "is_disabled": 0, "lon": -77.005735}, {"fusion_lat": 0.0, "type": "electric_scooter", "name": "47afeedc5364f030bfb944aa9c0adb24", "fusion_lon": 0.0, "bike_id": "47afeedc5364f030bfb944aa9c0adb24", "is_reserved": 0, "rental_uris": {"android": "https://dc.lft.to/lastmile_qr_scan", "ios": "https://dc.lft.to/lastmile_qr_scan"}, "lat": 38.93378933333334, "is_disabled": 0, "lon": -77.023558}, {"fusion_lat": 0.0, "type": "electric_scooter", "name": "49b41e12986613f2b349fc118e719b66", "fusion_lon": 0.0, "bike_id": "49b41e12986613f2b349fc118e719b66", "is_reserved": 0, "rental_uris": {"android": "https://dc.lft.to/lastmile_qr_scan", "ios": "https://dc.lft.to/lastmile_qr_scan"}, "lat": 38.9169275, "is_disabled": 0, "lon": -77.02594383333333}, {"fusion_lat": 0.0, "type": "electric_scooter", "name": "6fb31f37aca176df31d081142a972795", "fusion_lon": 0.0, "bike_id": "6fb31f37aca176df31d081142a972795", "is_reserved": 0, "rental_uris": {"android": "https://dc.lft.to/lastmile_qr_scan", "ios": "https://dc.lft.to/lastmile_qr_scan"}, "lat": 38.89038883333333, "is_disabled": 0, "lon": -77.029724}, {"fusion_lat": 0.0, "type": "electric_scooter", "name": "0dd0796c45858d1f09888b7c18743180", "fusion_lon": 0.0, "bike_id": "0dd0796c45858d1f09888b7c18743180", "is_reserved": 0, "rental_uris": {"android": "https://dc.lft.to/lastmile_qr_scan", "ios": "https://dc.lft.to/lastmile_qr_scan"}, "lat": 38.88813916666667, "is_disabled": 0, "lon": -76.93347933333334}, {"fusion_lat": 0.0, "type": "electric_scooter", "name": "9451a2b07c16009ad69b408a0db01a0e", "fusion_lon": 0.0, "bike_id": "9451a2b07c16009ad69b408a0db01a0e", "is_reserved": 0, "rental_uris": {"android": "https://dc.lft.to/lastmile_qr_scan", "ios": "https://dc.lft.to/lastmile_qr_scan"}, "lat": 38.893310666666665, "is_disabled": 0, "lon": -77.012041}, {"fusion_lat": 0.0, "type": "electric_scooter", "name": "5a9cb04c6676c763bdc6110be48d4317", "fusion_lon": 0.0, "bike_id": "5a9cb04c6676c763bdc6110be48d4317", "is_reserved": 0, "rental_uris": {"android": "https://dc.lft.to/lastmile_qr_scan", "ios": "https://dc.lft.to/lastmile_qr_scan"}, "lat": 38.91002616666667, "is_disabled": 0, "lon": -77.005491}, {"fusion_lat": 0.0, "type": "electric_scooter", "name": "af2d91b66bb545e610d316f0f0629abb", "fusion_lon": 0.0, "bike_id": "af2d91b66bb545e610d316f0f0629abb", "is_reserved": 0, "rental_uris": {"android": "https://dc.lft.to/lastmile_qr_scan", "ios": "https://dc.lft.to/lastmile_qr_scan"}, "lat": 38.89225866666666, "is_disabled": 0, "lon": -77.04331866666666}, {"fusion_lat": 0.0, "type": "electric_scooter", "name": "772fabd9b8d31301c16cdfb5965d2dea", "fusion_lon": 0.0, "bike_id": "772fabd9b8d31301c16cdfb5965d2dea", "is_reserved": 0, "rental_uris": {"android": "https://dc.lft.to/lastmile_qr_scan", "ios": "https://dc.lft.to/lastmile_qr_scan"}, "lat": 38.8998115, "is_disabled": 0, "lon": -77.018405}, {"fusion_lat": 0.0, "type": "electric_scooter", "name": "19f844667971f78ec744477933a4c462", "fusion_lon": 0.0, "bike_id": "19f844667971f78ec744477933a4c462", "is_reserved": 0, "rental_uris": {"android": "https://dc.lft.to/lastmile_qr_scan", "ios": "https://dc.lft.to/lastmile_qr_scan"}, "lat": 38.887791166666666, "is_disabled": 0, "lon": -76.9553645}, {"fusion_lat": 0.0, "type": "electric_scooter", "name": "ad609a072ed4e63e5988d2c9e7757e0c", "fusion_lon": 0.0, "bike_id": "ad609a072ed4e63e5988d2c9e7757e0c", "is_reserved": 0, "rental_uris": {"android": "https://dc.lft.to/lastmile_qr_scan", "ios": "https://dc.lft.to/lastmile_qr_scan"}, "lat": 38.90076333333333, "is_disabled": 0, "lon": -77.04879283333334}, {"fusion_lat": 0.0, "type": "electric_scooter", "name": "9805eeb789e4a32e4e93e2e64bf71c2d", "fusion_lon": 0.0, "bike_id": "9805eeb789e4a32e4e93e2e64bf71c2d", "is_reserved": 0, "rental_uris": {"android": "https://dc.lft.to/lastmile_qr_scan", "ios": "https://dc.lft.to/lastmile_qr_scan"}, "lat": 38.8922165, "is_disabled": 0, "lon": -77.02260166666667}, {"fusion_lat": 0.0, "type": "electric_bike", "name": "0637bb54b22f7e031d4ed9cb63a06dc4", "fusion_lon": 0.0, "bike_id": "0637bb54b22f7e031d4ed9cb63a06dc4", "is_reserved": 0, "rental_uris": {"android": "https://dc.lft.to/lastmile_qr_scan", "ios": "https://dc.lft.to/lastmile_qr_scan"}, "lat": 38.881409833333336, "is_disabled": 0, "lon": -77.1146625}, {"fusion_lat": 0.0, "type": "electric_scooter", "name": "e478d2b619e41ffbca56aef57f8e7c80", "fusion_lon": 0.0, "bike_id": "e478d2b619e41ffbca56aef57f8e7c80", "is_reserved": 0, "rental_uris": {"android": "https://dc.lft.to/lastmile_qr_scan", "ios": "https://dc.lft.to/lastmile_qr_scan"}, "lat": 38.892208833333335, "is_disabled": 0, "lon": -77.04236416666667}, {"fusion_lat": 0.0, "type": "electric_scooter", "name": "390d3afb36a7f843c83217ae9a722042", "fusion_lon": 0.0, "bike_id": "390d3afb36a7f843c83217ae9a722042", "is_reserved": 0, "rental_uris": {"android": "https://dc.lft.to/lastmile_qr_scan", "ios": "https://dc.lft.to/lastmile_qr_scan"}, "lat": 38.9240015, "is_disabled": 0, "lon": -77.03536533333333}, {"fusion_lat": 0.0, "type": "electric_scooter", "name": "9e698e581408a54e5bcf1dc45798fa66", "fusion_lon": 0.0, "bike_id": "9e698e581408a54e5bcf1dc45798fa66", "is_reserved": 0, "rental_uris": {"android": "https://dc.lft.to/lastmile_qr_scan", "ios": "https://dc.lft.to/lastmile_qr_scan"}, "lat": 38.93079766666666, "is_disabled": 0, "lon": -77.03487316666667}, {"fusion_lat": 0.0, "type": "electric_scooter", "name": "3f311e56742e128e9824ad632442734a", "fusion_lon": 0.0, "bike_id": "3f311e56742e128e9824ad632442734a", "is_reserved": 0, "rental_uris": {"android": "https://dc.lft.to/lastmile_qr_scan", "ios": "https://dc.lft.to/lastmile_qr_scan"}, "lat": 38.926741, "is_disabled": 0, "lon": -77.01509266666666}, {"fusion_lat": 0.0, "type": "electric_bike", "name": "17fe3a15d3beaf6a6895ea52d5acf06a", "fusion_lon": 0.0, "bike_id": "17fe3a15d3beaf6a6895ea52d5acf06a", "is_reserved": 0, "rental_uris": {"android": "https://dc.lft.to/lastmile_qr_scan", "ios": "https://dc.lft.to/lastmile_qr_scan"}, "lat": 38.90796183333333, "is_disabled": 0, "lon": -77.0716435}, {"fusion_lat": 0.0, "type": "electric_scooter", "name": "2a0de73f6e44526b2b8158d3a3733967", "fusion_lon": 0.0, "bike_id": "2a0de73f6e44526b2b8158d3a3733967", "is_reserved": 0, "rental_uris": {"android": "https://dc.lft.to/lastmile_qr_scan", "ios": "https://dc.lft.to/lastmile_qr_scan"}, "lat": 38.87040366666667, "is_disabled": 0, "lon": -77.00968583333334}, {"fusion_lat": 0.0, "type": "electric_scooter", "name": "af9c81da2457586de4e8224aa6c2c5c4", "fusion_lon": 0.0, "bike_id": "af9c81da2457586de4e8224aa6c2c5c4", "is_reserved": 0, "rental_uris": {"android": "https://dc.lft.to/lastmile_qr_scan", "ios": "https://dc.lft.to/lastmile_qr_scan"}, "lat": 38.919618166666666, "is_disabled": 0, "lon": -77.0250325}, {"fusion_lat": 0.0, "type": "electric_bike", "name": "7a21b10b698e438017b26ea0710ee9a3", "fusion_lon": 0.0, "bike_id": "7a21b10b698e438017b26ea0710ee9a3", "is_reserved": 0, "rental_uris": {"android": "https://dc.lft.to/lastmile_qr_scan", "ios": "https://dc.lft.to/lastmile_qr_scan"}, "lat": 38.9784285, "is_disabled": 0, "lon": -76.92885866666667}, {"fusion_lat": 0.0, "type": "electric_scooter", "name": "817786f71553d1cfbce96e90bf47381f", "fusion_lon": 0.0, "bike_id": "817786f71553d1cfbce96e90bf47381f", "is_reserved": 0, "rental_uris": {"android": "https://dc.lft.to/lastmile_qr_scan", "ios": "https://dc.lft.to/lastmile_qr_scan"}, "lat": 38.84312533333333, "is_disabled": 0, "lon": -76.9993595}, {"fusion_lat": 0.0, "type": "electric_scooter", "name": "f57031abd3cabf40adf98e89b8031113", "fusion_lon": 0.0, "bike_id": "f57031abd3cabf40adf98e89b8031113", "is_reserved": 0, "rental_uris": {"android": "https://dc.lft.to/lastmile_qr_scan", "ios": "https://dc.lft.to/lastmile_qr_scan"}, "lat": 38.868762833333335, "is_disabled": 0, "lon": -76.98234133333334}, {"fusion_lat": 0.0, "type": "electric_scooter", "name": "1a246464ff76de2ddd9d980b47212afb", "fusion_lon": 0.0, "bike_id": "1a246464ff76de2ddd9d980b47212afb", "is_reserved": 0, "rental_uris": {"android": "https://dc.lft.to/lastmile_qr_scan", "ios": "https://dc.lft.to/lastmile_qr_scan"}, "lat": 38.866988, "is_disabled": 0, "lon": -76.98710366666667}, {"fusion_lat": 0.0, "type": "electric_scooter", "name": "ede753a03cb347e3ac7f88fd669441cb", "fusion_lon": 0.0, "bike_id": "ede753a03cb347e3ac7f88fd669441cb", "is_reserved": 0, "rental_uris": {"android": "https://dc.lft.to/lastmile_qr_scan", "ios": "https://dc.lft.to/lastmile_qr_scan"}, "lat": 38.910541, "is_disabled": 0, "lon": -77.04349966666666}, {"fusion_lat": 0.0, "type": "electric_scooter", "name": "fd0d1b5d53d014d21d696992630a4a27", "fusion_lon": 0.0, "bike_id": "fd0d1b5d53d014d21d696992630a4a27", "is_reserved": 0, "rental_uris": {"android": "https://dc.lft.to/lastmile_qr_scan", "ios": "https://dc.lft.to/lastmile_qr_scan"}, "lat": 38.908026666666665, "is_disabled": 0, "lon": -77.04167266666667}, {"fusion_lat": 0.0, "type": "electric_bike", "name": "e69b2c8c7095f25b3e16a1ef6398ad18", "fusion_lon": 0.0, "bike_id": "e69b2c8c7095f25b3e16a1ef6398ad18", "is_reserved": 0, "rental_uris": {"android": "https://dc.lft.to/lastmile_qr_scan", "ios": "https://dc.lft.to/lastmile_qr_scan"}, "lat": 38.86937833333333, "is_disabled": 0, "lon": -77.09467566666666}, {"fusion_lat": 0.0, "type": "electric_scooter", "name": "1a31d41495d9236b98fa951ccaadb287", "fusion_lon": 0.0, "bike_id": "1a31d41495d9236b98fa951ccaadb287", "is_reserved": 0, "rental_uris": {"android": "https://dc.lft.to/lastmile_qr_scan", "ios": "https://dc.lft.to/lastmile_qr_scan"}, "lat": 38.905313, "is_disabled": 0, "lon": -77.04998033333334}, {"fusion_lat": 0.0, "type": "electric_scooter", "name": "8cee1a32f48d14e1450348c495907025", "fusion_lon": 0.0, "bike_id": "8cee1a32f48d14e1450348c495907025", "is_reserved": 0, "rental_uris": {"android": "https://dc.lft.to/lastmile_qr_scan", "ios": "https://dc.lft.to/lastmile_qr_scan"}, "lat": 38.892876, "is_disabled": 0, "lon": -77.0318295}, {"fusion_lat": 0.0, "type": "electric_scooter", "name": "ba4d68fc668e030a48ced60e7410cf36", "fusion_lon": 0.0, "bike_id": "ba4d68fc668e030a48ced60e7410cf36", "is_reserved": 0, "rental_uris": {"android": "https://dc.lft.to/lastmile_qr_scan", "ios": "https://dc.lft.to/lastmile_qr_scan"}, "lat": 38.905161666666665, "is_disabled": 0, "lon": -77.04832366666666}, {"fusion_lat": 0.0, "type": "electric_scooter", "name": "9c2d89f6b35b4d804933907de22d97f9", "fusion_lon": 0.0, "bike_id": "9c2d89f6b35b4d804933907de22d97f9", "is_reserved": 0, "rental_uris": {"android": "https://dc.lft.to/lastmile_qr_scan", "ios": "https://dc.lft.to/lastmile_qr_scan"}, "lat": 38.89221, "is_disabled": 0, "lon": -77.02346383333334}, {"fusion_lat": 0.0, "type": "electric_scooter", "name": "50783da9790924442debb54932c0be49", "fusion_lon": 0.0, "bike_id": "50783da9790924442debb54932c0be49", "is_reserved": 0, "rental_uris": {"android": "https://dc.lft.to/lastmile_qr_scan", "ios": "https://dc.lft.to/lastmile_qr_scan"}, "lat": 38.90132216666667, "is_disabled": 0, "lon": -77.04440166666667}, {"fusion_lat": 0.0, "type": "electric_scooter", "name": "5ed408c1b07e9fa015561b1707b7f565", "fusion_lon": 0.0, "bike_id": "5ed408c1b07e9fa015561b1707b7f565", "is_reserved": 0, "rental_uris": {"android": "https://dc.lft.to/lastmile_qr_scan", "ios": "https://dc.lft.to/lastmile_qr_scan"}, "lat": 38.90516016666667, "is_disabled": 0, "lon": -77.068596}, {"fusion_lat": 0.0, "type": "electric_scooter", "name": "6d67cf20e7c407e5afe985ccce274d1e", "fusion_lon": 0.0, "bike_id": "6d67cf20e7c407e5afe985ccce274d1e", "is_reserved": 0, "rental_uris": {"android": "https://dc.lft.to/lastmile_qr_scan", "ios": "https://dc.lft.to/lastmile_qr_scan"}, "lat": 38.88849066666667, "is_disabled": 0, "lon": -76.9267935}, {"fusion_lat": 0.0, "type": "electric_scooter", "name": "8e5720ff3fd9cfd566fc9d997595de5d", "fusion_lon": 0.0, "bike_id": "8e5720ff3fd9cfd566fc9d997595de5d", "is_reserved": 0, "rental_uris": {"android": "https://dc.lft.to/lastmile_qr_scan", "ios": "https://dc.lft.to/lastmile_qr_scan"}, "lat": 38.907223, "is_disabled": 0, "lon": -77.043497}, {"fusion_lat": 0.0, "type": "electric_scooter", "name": "a00e65bdf967a2c8915e17966efbd731", "fusion_lon": 0.0, "bike_id": "a00e65bdf967a2c8915e17966efbd731", "is_reserved": 0, "rental_uris": {"android": "https://dc.lft.to/lastmile_qr_scan", "ios": "https://dc.lft.to/lastmile_qr_scan"}, "lat": 38.924419, "is_disabled": 0, "lon": -77.02128016666667}, {"fusion_lat": 0.0, "type": "electric_scooter", "name": "159ccbed29f21b3345b782e82a791ccf", "fusion_lon": 0.0, "bike_id": "159ccbed29f21b3345b782e82a791ccf", "is_reserved": 0, "rental_uris": {"android": "https://dc.lft.to/lastmile_qr_scan", "ios": "https://dc.lft.to/lastmile_qr_scan"}, "lat": 38.9036505, "is_disabled": 0, "lon": -77.00726133333333}, {"fusion_lat": 0.0, "type": "electric_scooter", "name": "ea900aa9f9a7215c0d73747d485f7ad3", "fusion_lon": 0.0, "bike_id": "ea900aa9f9a7215c0d73747d485f7ad3", "is_reserved": 0, "rental_uris": {"android": "https://dc.lft.to/lastmile_qr_scan", "ios": "https://dc.lft.to/lastmile_qr_scan"}, "lat": 38.871975, "is_disabled": 0, "lon": -77.00575133333334},