{"data": {"bikes": [{"is_reserved": 0, "bike_id": "7e7b57f4419860e9fbab4fb1fd0310fb", "type": "electric_scooter", "name": "7e7b57f4419860e9fbab4fb1fd0310fb", "is_disabled": 0, "fusion_lon": 0.0, "rental_uris": {"android": "https://dc.lft.to/lastmile_qr_scan", "ios": "https://dc.lft.to/lastmile_qr_scan"}, "lat": 38.9133435, "lon": -77.013645, "fusion_lat": 0.0}, {"is_reserved": 0, "bike_id": "ab3c4b15c7b7b53c6a1d2e1a6be135ab", "type": "electric_scooter", "name": "ab3c4b15c7b7b53c6a1d2e1a6be135ab", "is_disabled": 0, "fusion_lon": 0.0, "rental_uris": {"android": "https://dc.lft.to/lastmile_qr_scan", "ios": "https://dc.lft.to/lastmile_qr_scan"}, "lat": 38.91329, "lon": -77.04534183333334, "fusion_lat": 0.0}, {"is_reserved": 0, "bike_id": "b60d542e0adeb628b6af56b931cfc4bf", "type": "electric_bike", "name": "b60d542e0adeb628b6af56b931cfc4bf", "is_disabled": 0, "fusion_lon": 0.0, "rental_uris": {"android": "https://dc.lft.to/lastmile_qr_scan", "ios": "https://dc.lft.to/lastmile_qr_scan"}, "lat": 38.94802583333333, "lon": -76.9597355, "fusion_lat": 0.0}, {"is_reserved": 0, "bike_id": "943b40a642423e2bbcd35c911dde9b5f", "type": "electric_scooter", "name": "943b40a642423e2bbcd35c911dde9b5f", "is_disabled": 0, "fusion_lon": 0.0, "rental_uris": {"android": "https://dc.lft.to/lastmile_qr_scan", "ios": "https://dc.lft.to/lastmile_qr_scan"}, "lat": 38.88709433333333, "lon": -77.01518366666667, "fusion_lat": 0.0}, {"is_reserved": 0, "bike_id": "8cde002535a67322d032f672f8e30bab", "type": "electric_bike", "name": "8cde002535a67322d032f672f8e30bab", "is_disabled": 0, "fusion_lon": 0.0, "rental_uris": {"android": "https://dc.lft.to/lastmile_qr_scan", "ios": "https://dc.lft.to/lastmile_qr_scan"}, "lat": 38.84914283333333, "lon": -77.07925816666666, "fusion_lat": 0.0}, {"is_reserved": 0, "bike_id": "cd56adf713cdf7c985d9aea482dfc334", "type": "electric_scooter", "name": "cd56adf713cdf7c985d9aea482dfc334", "is_disabled": 0, "fusion_lon": 0.0, "rental_uris": {"android": "https://dc.lft.to/lastmile_qr_scan", "ios": "https://dc.lft.to/lastmile_qr_scan"}, "lat": 38.918533833333335, "lon": -77.03883533333334, "fusion_lat": 0.0}, {"is_reserved": 0, "bike_id": "15e2317cf772ef190fbe902e8cf6c15a", "type": "electric_scooter", "name": "15e2317cf772ef190fbe902e8cf6c15a", "is_disabled": 0, "fusion_lon": 0.0, "rental_uris": {"android": "https://dc.lft.to/lastmile_qr_scan", "ios": "https://dc.lft.to/lastmile_qr_scan"}, "lat": 38.90303816666667, "lon": -77.01606583333333, "fusion_lat": 0.0}, {"is_reserved": 0, "bike_id": "4b4c0d3230731bc25a41b16ff64ba809", "type": "electric_scooter", "name": "4b4c0d3230731bc25a41b16ff64ba809", "is_disabled": 0, "fusion_lon": 0.0, "rental_uris": {"android": "https://dc.lft.to/lastmile_qr_scan", "ios": "https://dc.lft.to/lastmile_qr_scan"}, "lat": 38.9189175, "lon": -77.03837566666667, "fusion_lat": 0.0}, {"is_reserved": 0, "bike_id": "a53800bb821424b13494c8d8590cb51e", "type": "electric_scooter", "name": "a53800bb821424b13494c8d8590cb51e", "is_disabled": 0, "fusion_lon": 0.0, "rental_uris": {"android": "https://dc.lft.to/lastmile_qr_scan", "ios": "https://dc.lft.to/lastmile_qr_scan"}, "lat": 38.91924366666667, "lon": -77.0327395, "fusion_lat": 0.0}, {"is_reserved": 0, "bike_id": "b7db4b8d212f0491ef4b75100377c73a", "type": "electric_scooter", "name": "b7db4b8d212f0491ef4b75100377c73a", "is_disabled": 0, "fusion_lon": 0.0, "rental_uris": {"android": "https://dc.lft.to/lastmile_qr_scan", "ios": "https://dc.lft.to/lastmile_qr_scan"}, "lat": 38.87375983333333, "lon": -77.00125983333334, "fusion_lat": 0.0}, {"is_reserved": 0, "bike_id": "03a5e5ac7107a4d1320ddcb90c4b98f8", "type": "electric_scooter", "name": "03a5e5ac7107a4d1320ddcb90c4b98f8", "is_disabled": 0, "fusion_lon": 0.0, "rental_uris": {"android": "https://dc.lft.to/lastmile_qr_scan", "ios": "https://dc.lft.to/lastmile_qr_scan"}, "lat": 38.9071975, "lon": -77.047122, "fusion_lat": 0.0}, {"is_reserved": 0, "bike_id": "bb5f8d136b207793b981a7c96428f043", "type": "electric_scooter", "name": "bb5f8d136b207793b981a7c96428f043", "is_disabled": 0, "fusion_lon": 0.0, "rental_uris": {"android": "https://dc.lft.to/lastmile_qr_scan", "ios": "https://dc.lft.to/lastmile_qr_scan"}, "lat": 38.91818633333333, "lon": -77.0231905, "fusion_lat": 0.0}, {"is_reserved": 0, "bike_id": "2554e11746fad904eef78c257744c8f8", "type": "electric_scooter", "name": "2554e11746fad904eef78c257744c8f8", "is_disabled": 0, "fusion_lon": 0.0, "rental_uris": {"android": "https://dc.lft.to/lastmile_qr_scan", "ios": "https://dc.lft.to/lastmile_qr_scan"}, "lat": 38.87775883333333, "lon": -76.99620766666666, "fusion_lat": 0.0}, {"is_reserved": 0, "bike_id": "819cae8a2f6004177f7afb4a7c1cbf0f", "type": "electric_scooter", "name": "819cae8a2f6004177f7afb4a7c1cbf0f", "is_disabled": 0, "fusion_lon": 0.0, "rental_uris": {"android": "https://dc.lft.to/lastmile_qr_scan", "ios": "https://dc.lft.to/lastmile_qr_scan"}, "lat": 38.9214505, "lon": -77.02079916666666, "fusion_lat": 0.0}, {"is_reserved": 0, "bike_id": "b40b297afe0bb13f40791d50466ffcf3", "type": "electric_scooter", "name": "b40b297afe0bb13f40791d50466ffcf3", "is_disabled": 0, "fusion_lon": 0.0, "rental_uris": {"android": "https://dc.lft.to/lastmile_qr_scan", "ios": "https://dc.lft.to/lastmile_qr_scan"}, "lat": 38.89867233333333, "lon": -77.0391895, "fusion_lat": 0.0}, {"is_reserved": 0, "bike_id": "95ae414f9c0338d4e67c043cef5bc560", "type": "electric_scooter", "name": "95ae414f9c0338d4e67c043cef5bc560", "is_disabled": 0, "fusion_lon": 0.0, "rental_uris": {"android": "https://dc.lft.to/lastmile_qr_scan", "ios": "https://dc.lft.to/lastmile_qr_scan"}, "lat": 38.939556333333336, "lon": -77.03271533333333, "fusion_lat": 0.0}, {"is_reserved": 0, "bike_id": "b339e94892c80327772e4f0c87d6a366", "type": "electric_scooter", "name": "b339e94892c80327772e4f0c87d6a366", "is_disabled": 0, "fusion_lon": 0.0, "rental_uris": {"android": "https://dc.lft.to/lastmile_qr_scan", "ios": "https://dc.lft.to/lastmile_qr_scan"}, "lat": 38.876827666666664, "lon": -77.0178895, "fusion_lat": 0.0}, {"is_reserved": 0, "bike_id": "334e1e2203ef9eecdcd76897bacb12cd", "type": "electric_scooter", "name": "334e1e2203ef9eecdcd76897bacb12cd", "is_disabled": 0, "fusion_lon": 0.0, "rental_uris": {"android": "https://dc.lft.to/lastmile_qr_scan", "ios": "https://dc.lft.to/lastmile_qr_scan"}, "lat": 38.910969333333334, "lon": -77.02547716666666, "fusion_lat": 0.0}, {"is_reserved": 0, "bike_id": "ba72cbed0f3fe3ebe00f9f3885371247", "type": "electric_scooter", "name": "ba72cbed0f3fe3ebe00f9f3885371247", "is_disabled": 0, "fusion_lon": 0.0, "rental_uris": {"android": "https://dc.lft.to/lastmile_qr_scan", "ios": "https://dc.lft.to/lastmile_qr_scan"}, "lat": 38.88598566666667, "lon": -76.92498366666666, "fusion_lat": 0.0}, {"is_reserved": 0, "bike_id": "80f7c4566c93f0367a8df08ce22266fa", "type": "electric_scooter", "name": "80f7c4566c93f0367a8df08ce22266fa", "is_disabled": 0, "fusion_lon": 0.0, "rental_uris": {"android": "https://dc.lft.to/lastmile_qr_scan", "ios": "https://dc.lft.to/lastmile_qr_scan"}, "lat": 38.94875783333333, "lon": -77.06450483333333, "fusion_lat": 0.0}, {"is_reserved": 0, "bike_id": "db5db50534fb4674c49c91d59fa1c9fc", "type": "electric_scooter", "name": "db5db50534fb4674c49c91d59fa1c9fc", "is_disabled": 0, "fusion_lon": 0.0, "rental_uris": {"android": "https://dc.lft.to/lastmile_qr_scan", "ios": "https://dc.lft.to/lastmile_qr_scan"}, "lat": 38.913063666666666, "lon": -77.04266133333333, "fusion_lat": 0.0}, {"is_reserved": 0, "bike_id": "3c07a076441ba1edd1002a66c769dec5", "type": "electric_scooter", "name": "3c07a076441ba1edd1002a66c769dec5", "is_disabled": 0, "fusion_lon": 0.0, "rental_uris": {"android": "https://dc.lft.to/lastmile_qr_scan", "ios": "https://dc.lft.to/lastmile_qr_scan"}, "lat": 38.8963485, "lon": -77.0332255, "fusion_lat": 0.0}, {"is_reserved": 0, "bike_id": "b1ab6c9862156e8ed5f88e6de7e7ab3f", "type": "electric_scooter", "name": "b1ab6c9862156e8ed5f88e6de7e7ab3f", "is_disabled": 0, "fusion_lon": 0.0, "rental_uris": {"android": "https://dc.lft.to/lastmile_qr_scan", "ios": "https://dc.lft.to/lastmile_qr_scan"}, "lat": 38.906426833333335, "lon": -77.016892, "fusion_lat": 0.0}, {"is_reserved": 0, "bike_id": "14aa547c3b2a12df0eb05164425c8b1d", "type": "electric_scooter", "name": "14aa547c3b2a12df0eb05164425c8b1d", "is_disabled": 0, "fusion_lon": 0.0, "rental_uris": {"android": "https://dc.lft.to/lastmile_qr_scan", "ios": "https://dc.lft.to/lastmile_qr_scan"}, "lat": 38.89725416666667, "lon": -77.02675566666667, "fusion_lat": 0.0}, {"is_reserved": 0, "bike_id": "1beb40aafc341a04525532d8f1c9a764", "type": "electric_scooter", "name": "1beb40aafc341a04525532d8f1c9a764", "is_disabled": 0, "fusion_lon": 0.0, "rental_uris": {"android": "https://dc.lft.to/lastmile_qr_scan", "ios": "https://dc.lft.to/lastmile_qr_scan"}, "lat": 38.942718666666664, "lon": -77.0293565, "fusion_lat": 0.0}, {"is_reserved": 0, "bike_id": "b475412b6d9eca4d7497c0462e14a5d8", "type": "electric_bike", "name": "b475412b6d9eca4d7497c0462e14a5d8", "is_disabled": 0, "fusion_lon": 0.0, "rental_uris": {"android": "https://dc.lft.to/lastmile_qr_scan", "ios": "https://dc.lft.to/lastmile_qr_scan"}, "lat": 38.9352535, "lon": -77.05421766666667, "fusion_lat": 0.0}, {"is_reserved": 0, "bike_id": "47abe631c3a8797da7656d8c781af467", "type": "electric_scooter", "name": "47abe631c3a8797da7656d8c781af467", "is_disabled": 0, "fusion_lon": 0.0, "rental_uris": {"android": "https://dc.lft.to/lastmile_qr_scan", "ios": "https://dc.lft.to/lastmile_qr_scan"}, "lat": 38.927171, "lon": -77.05980583333333, "fusion_lat": 0.0}, {"is_reserved": 0, "bike_id": "e03779c6502c57344d31f5d336c8bb0f", "type": "electric_bike", "name": "e03779c6502c57344d31f5d336c8bb0f", "is_disabled": 0, "fusion_lon": 0.0, "rental_uris": {"android": "https://dc.lft.to/lastmile_qr_scan", "ios": "https://dc.lft.to/lastmile_qr_scan"}, "lat": 39.00381383333333, "lon": -77.0128925, "fusion_lat": 0.0}, {"is_reserved": 0, "bike_id": "dd5361a6b0199a952942ad563a15aa1e", "type": "electric_scooter", "name": "dd5361a6b0199a952942ad563a15aa1e", "is_disabled": 0, "fusion_lon": 0.0, "rental_uris": {"android": "https://dc.lft.to/lastmile_qr_scan", "ios": "https://dc.lft.to/lastmile_qr_scan"}, "lat": 38.926006, "lon": -77.02148383333333, "fusion_lat": 0.0}, {"is_reserved": 0, "bike_id": "f5ce6138a3fdec2cbcefd48bf7eb7d8b", "type": "electric_scooter", "name": "f5ce6138a3fdec2cbcefd48bf7eb7d8b", "is_disabled": 0, "fusion_lon": 0.0, "rental_uris": {"android": "https://dc.lft.to/lastmile_qr_scan", "ios": "https://dc.lft.to/lastmile_qr_scan"}, "lat": 38.89222816666667, "lon": -77.03968833333333, "fusion_lat": 0.0}, {"is_reserved": 0, "bike_id": "7fc1ae5898ca78d389aea1f040176ad8", "type": "electric_scooter", "name": "7fc1ae5898ca78d389aea1f040176ad8", "is_disabled": 0, "fusion_lon": 0.0, "rental_uris": {"android": "https://dc.lft.to/lastmile_qr_scan", "ios": "https://dc.lft.to/lastmile_qr_scan"}, "lat": 38.901280166666666, "lon": -77.01787183333333, "fusion_lat": 0.0}, {"is_reserved": 0, "bike_id": "0e7afd390e9e826ec5e384a0ece6b79d", "type": "electric_scooter", "name": "0e7afd390e9e826ec5e384a0ece6b79d", "is_disabled": 0, "fusion_lon": 0.0, "rental_uris": {"android": "https://dc.lft.to/lastmile_qr_scan", "ios": "https://dc.lft.to/lastmile_qr_scan"}, "lat": 38.944514833333336, "lon": -77.02338916666666, "fusion_lat": 0.0}, {"is_reserved": 0, "bike_id": "26b59ec3d06bb3073c3e6f5c430a3496", "type": "electric_scooter", "name": "26b59ec3d06bb3073c3e6f5c430a3496", "is_disabled": 0, "fusion_lon": 0.0, "rental_uris": {"android": "https://dc.lft.to/lastmile_qr_scan", "ios": "https://dc.lft.to/lastmile_qr_scan"}, "lat": 38.935397, "lon": -77.0309575, "fusion_lat": 0.0}, {"is_reserved": 0, "bike_id": "261e93d35e5bdc87a65eef0b8950077e", "type": "electric_scooter", "name": "261e93d35e5bdc87a65eef0b8950077e", "is_disabled": 0, "fusion_lon": 0.0, "rental_uris": {"android": "https://dc.lft.to/lastmile_qr_scan", "ios": "https://dc.lft.to/lastmile_qr_scan"}, "lat": 38.91516466666667, "lon": -77.034583, "fusion_lat": 0.0}, {"is_reserved": 0, "bike_id": "574b191a26d4131be0d070935a70317f", "type": "electric_scooter", "name": "574b191a26d4131be0d070935a70317f", "is_disabled": 0, "fusion_lon": 0.0, "rental_uris": {"android": "https://dc.lft.to/lastmile_qr_scan", "ios": "https://dc.lft.to/lastmile_qr_scan"}, "lat": 38.923611, "lon": -77.05041583333333, "fusion_lat": 0.0}, {"is_reserved": 0, "bike_id": "3afeca94ecf48eabc5d4cb5f2d399d31", "type": "electric_scooter", "name": "3afeca94ecf48eabc5d4cb5f2d399d31", "is_disabled": 0, "fusion_lon": 0.0, "rental_uris": {"android": "https://dc.lft.to/lastmile_qr_scan", "ios": "https://dc.lft.to/lastmile_qr_scan"}, "lat": 38.895004166666666, "lon": -76.94874233333333, "fusion_lat": 0.0}, {"is_reserved": 0, "bike_id": "b0777bc5d705aed0f8cec1055127e757", "type": "electric_scooter", "name": "b0777bc5d705aed0f8cec1055127e757", "is_disabled": 0, "fusion_lon": 0.0, "rental_uris": {"android": "https://dc.lft.to/lastmile_qr_scan", "ios": "https://dc.lft.to/lastmile_qr_scan"}, "lat": 38.941836333333335, "lon": -77.0240625, "fusion_lat": 0.0}, {"is_reserved": 0, "bike_id": "dc47457788613b1ad28874c95e560af9", "type": "electric_scooter", "name": "dc47457788613b1ad28874c95e560af9", "is_disabled": 0, "fusion_lon": 0.0, "rental_uris": {"android": "https://dc.lft.to/lastmile_qr_scan", "ios": "https://dc.lft.to/lastmile_qr_scan"}, "lat": 38.9076585, "lon": -77.0170285, "fusion_lat": 0.0}, {"is_reserved": 0, "bike_id": "d0721ef2ea7643bf1a197b5e16ba6bc2", "type": "electric_scooter", "name": "d0721ef2ea7643bf1a197b5e16ba6bc2", "is_disabled": 0, "fusion_lon": 0.0, "rental_uris": {"android": "https://dc.lft.to/lastmile_qr_scan", "ios": "https://dc.lft.to/lastmile_qr_scan"}, "lat": 38.9176845, "lon": -77.04416283333333, "fusion_lat": 0.0}, {"is_reserved": 0, "bike_id": "b96cfc26d5cd72625a7d360926530794", "type": "electric_scooter", "name": "b96cfc26d5cd72625a7d360926530794", "is_disabled": 0, "fusion_lon": 0.0, "rental_uris": {"android": "https://dc.lft.to/lastmile_qr_scan", "ios": "https://dc.lft.to/lastmile_qr_scan"}, "lat": 38.902378666666664, "lon": -77.001995, "fusion_lat": 0.0}, {"is_reserved": 0, "bike_id": "d863843ca9e85584f7bde7d8e6b42d42", "type": "electric_bike", "name": "d863843ca9e85584f7bde7d8e6b42d42", "is_disabled": 0, "fusion_lon": 0.0, "rental_uris": {"android": "https://dc.lft.to/lastmile_qr_scan", "ios": "https://dc.lft.to/lastmile_qr_scan"}, "lat": 38.87742733333333, "lon": -77.14872933333334, "fusion_lat": 0.0}, {"is_reserved": 0, "bike_id": "e40c7505d58fc803bf0df4179b75d3d7", "type": "electric_scooter", "name": "e40c7505d58fc803bf0df4179b75d3d7", "is_disabled": 0, "fusion_lon": 0.0, "rental_uris": {"android": "https://dc.lft.to/lastmile_qr_scan", "ios": "https://dc.lft.to/lastmile_qr_scan"}, "lat": 38.959195333333334, "lon": -77.02298133333333, "fusion_lat": 0.0}, {"is_reserved": 0, "bike_id": "4bc971880a8e5c4b2540a2e894f7060e", "type": "electric_scooter", "name": "4bc971880a8e5c4b2540a2e894f7060e", "is_disabled": 0, "fusion_lon": 0.0, "rental_uris": {"android": "https://dc.lft.to/lastmile_qr_scan", "ios": "https://dc.lft.to/lastmile_qr_scan"}, "lat": 38.906224, "lon": -77.02588666666666, "fusion_lat": 0.0}, {"is_reserved": 0, "bike_id": "57c06e6feaa9c2171b51d4fdab5be1b7", "type": "electric_scooter", "name": "57c06e6feaa9c2171b51d4fdab5be1b7", "is_disabled": 0, "fusion_lon": 0.0, "rental_uris": {"android": "https://dc.lft.to/lastmile_qr_scan", "ios": "https://dc.lft.to/lastmile_qr_scan"}, "lat": 38.94297183333333, "lon": -77.05929433333333, "fusion_lat": 0.0}, {"is_reserved": 0, "bike_id": "562046d226814081bbdb363ad3cf95ea", "type": "electric_scooter", "name": "562046d226814081bbdb363ad3cf95ea", "is_disabled": 0, "fusion_lon": 0.0, "rental_uris": {"android": "https://dc.lft.to/lastmile_qr_scan", "ios": "https://dc.lft.to/lastmile_qr_scan"}, "lat": 38.90037983333333, "lon": -77.04381316666667, "fusion_lat": 0.0}, {"is_reserved": 0, "bike_id": "05f6dad0155a610418dc2335ef56ec47", "type": "electric_scooter", "name": "05f6dad0155a610418dc2335ef56ec47", "is_disabled": 0, "fusion_lon": 0.0, "rental_uris": {"android": "https://dc.lft.to/lastmile_qr_scan", "ios": "https://dc.lft.to/lastmile_qr_scan"}, "lat": 38.898558666666666, "lon": -76.9318845, "fusion_lat": 0.0}, {"is_reserved": 0, "bike_id": "07dab1ebd09de384b93d9d72aa75b206", "type": "electric_scooter", "name": "07dab1ebd09de384b93d9d72aa75b206", "is_disabled": 0, "fusion_lon": 0.0, "rental_uris": {"android": "https://dc.lft.to/lastmile_qr_scan", "ios": "https://dc.lft.to/lastmile_qr_scan"}, "lat": 38.94446516666667, "lon": -77.063567, "fusion_lat": 0.0}, {"is_reserved": 0, "bike_id": "bddff66d5d07e3972704239088db8e87", "type": "electric_scooter", "name": "bddff66d5d07e3972704239088db8e87", "is_disabled": 0, "fusion_lon": 0.0, "rental_uris": {"android": "https://dc.lft.to/lastmile_qr_scan", "ios": "https://dc.lft.to/lastmile_qr_scan"}, "lat": 38.918064333333334, "lon": -77.06827266666667, "fusion_lat": 0.0}, {"is_reserved": 0, "bike_id": "c11bee780af80a17c610c1d50e0db5b4", "type": "electric_scooter", "name": "c11bee780af80a17c610c1d50e0db5b4", "is_disabled": 0, "fusion_lon": 0.0, "rental_uris": {"android": "https://dc.lft.to/lastmile_qr_scan", "ios": "https://dc.lft.to/lastmile_qr_scan"}, "lat": 38.965078, "lon": -77.062859, "fusion_lat": 0.0}, {"is_reserved": 0, "bike_id": "663ff72f1bf3f8bca921acd5b86e9265", "type": "electric_scooter", "name": "663ff72f1bf3f8bca921acd5b86e9265", "is_disabled": 0, "fusion_lon": 0.0, "rental_uris": {"android": "https://dc.lft.to/lastmile_qr_scan", "ios": "https://dc.lft.to/lastmile_qr_scan"}, "lat": 38.9058785, "lon": -76.98620466666667, "fusion_lat": 0.0}, {"is_reserved": 0, "bike_id": "91765899cfd29c562ca247c36e92d253", "type": "electric_scooter", "name": "91765899cfd29c562ca247c36e92d253", "is_disabled": 0, "fusion_lon": 0.0, "rental_uris": {"android": "https://dc.lft.to/lastmile_qr_scan", "ios": "https://dc.lft.to/lastmile_qr_scan"}, "lat": 38.93226966666667, "lon": -77.04118266666667, "fusion_lat": 0.0}, {"is_reserved": 0, "bike_id": "55fe3a1b8e7b1202375bc17d7489193b", "type": "electric_scooter", "name": "55fe3a1b8e7b1202375bc17d7489193b", "is_disabled": 0, "fusion_lon": 0.0, "rental_uris": {"android": "https://dc.lft.to/lastmile_qr_scan", "ios": "https://dc.lft.to/lastmile_qr_scan"}, "lat": 38.89262466666667, "lon": -76.98369466666666, "fusion_lat": 0.0}, {"is_reserved": 0, "bike_id": "97f45910034107323e9260c762c7894d", "type": "electric_scooter", "name": "97f45910034107323e9260c762c7894d", "is_disabled": 0, "fusion_lon": 0.0, "rental_uris": {"android": "https://dc.lft.to/lastmile_qr_scan", "ios": "https://dc.lft.to/lastmile_qr_scan"}, "lat": 38.899856166666666, "lon": -77.02204516666667, "fusion_lat": 0.0}, {"is_reserved": 0, "bike_id": "27cc5235d46ed5f4e75d944ea135f12c", "type": "electric_scooter", "name": "27cc5235d46ed5f4e75d944ea135f12c", "is_disabled": 0, "fusion_lon": 0.0, "rental_uris": {"android": "https://dc.lft.to/lastmile_qr_scan", "ios": "https://dc.lft.to/lastmile_qr_scan"}, "lat": 38.9394015, "lon": -77.032686, "fusion_lat": 0.0}, {"is_reserved": 0, "bike_id": "2577f3f36b19bd33e86d9323e438818a", "type": "electric_scooter", "name": "2577f3f36b19bd33e86d9323e438818a", "is_disabled": 0, "fusion_lon": 0.0, "rental_uris": {"android": "https://dc.lft.to/lastmile_qr_scan", "ios": "https://dc.lft.to/lastmile_qr_scan"}, "lat": 38.92095466666667, "lon": -77.02513683333333, "fusion_lat": 0.0}, {"is_reserved": 0, "bike_id": "d0be4a1eafe3a517377b5dcb77801131", "type": "electric_scooter", "name": "d0be4a1eafe3a517377b5dcb77801131", "is_disabled": 0, "fusion_lon": 0.0, "rental_uris": {"android": "https://dc.lft.to/lastmile_qr_scan", "ios": "https://dc.lft.to/lastmile_qr_scan"}, "lat": 38.90191983333333, "lon": -77.0384315, "fusion_lat": 0.0}, {"is_reserved": 0, "bike_id": "572e1629cda28829901c6d2b2e4f7c8b", "type": "electric_scooter", "name": "572e1629cda28829901c6d2b2e4f7c8b", "is_disabled": 0, "fusion_lon": 0.0, "rental_uris": {"android": "https://dc.lft.to/lastmile_qr_scan", "ios": "https://dc.lft.to/lastmile_qr_scan"}, "lat": 38.921532166666665, "lon": -77.03468333333333, "fusion_lat": 0.0}, {"is_reserved": 0, "bike_id": "d757dd3a4acdcb6cd76f33fc06cf299a", "type": "electric_scooter", "name": "d757dd3a4acdcb6cd76f33fc06cf299a", "is_disabled": 0, "fusion_lon": 0.0, "rental_uris": {"android": "https://dc.lft.to/lastmile_qr_scan", "ios": "https://dc.lft.to/lastmile_qr_scan"}, "lat": 38.89905366666667, "lon": -77.05006016666667, "fusion_lat": 0.0}, {"is_reserved": 0, "bike_id": "e0e285a64da8157bda9b8e7c581ed368", "type": "electric_scooter", "name": "e0e285a64da8157bda9b8e7c581ed368", "is_disabled": 0, "fusion_lon": 0.0, "rental_uris": {"android": "https://dc.lft.to/lastmile_qr_scan", "ios": "https://dc.lft.to/lastmile_qr_scan"}, "lat": 38.93060933333334, "lon": -77.03945033333333, "fusion_lat": 0.0}, {"is_reserved": 0, "bike_id": "bd598c56cdd65a36d23433a7729afa96", "type": "electric_scooter", "name": "bd598c56cdd65a36d23433a7729afa96", "is_disabled": 0, "fusion_lon": 0.0, "rental_uris": {"android": "https://dc.lft.to/lastmile_qr_scan", "ios": "https://dc.lft.to/lastmile_qr_scan"}, "lat": 38.916344333333335, "lon": -77.03501733333333, "fusion_lat": 0.0}, {"is_reserved": 0, "bike_id": "0025ff16e6075c5104b0046d2cb78578", "type": "electric_scooter", "name": "0025ff16e6075c5104b0046d2cb78578", "is_disabled": 0, "fusion_lon": 0.0, "rental_uris": {"android": "https://dc.lft.to/lastmile_qr_scan", "ios": "https://dc.lft.to/lastmile_qr_scan"}, "lat": 38.93580033333333, "lon": -77.02124916666666, "fusion_lat": 0.0}, {"is_reserved": 0, "bike_id": "1b47d7f5f2c1efddef0c19f4d31d3363", "type": "electric_scooter", "name": "1b47d7f5f2c1efddef0c19f4d31d3363", "is_disabled": 0, "fusion_lon": 0.0, "rental_uris": {"android": "https://dc.lft.to/lastmile_qr_scan", "ios": "https://dc.lft.to/lastmile_qr_scan"}, "lat": 38.918568, "lon": -77.03202533333334, "fusion_lat": 0.0}, {"is_reserved": 0, "bike_id": "e6161ebcf05286516472f619d8426526", "type": "electric_scooter", "name": "e6161ebcf05286516472f619d8426526", "is_disabled": 0, "fusion_lon": 0.0, "rental_uris": {"android": "https://dc.lft.to/lastmile_qr_scan", "ios": "https://dc.lft.to/lastmile_qr_scan"}, "lat": 38.9268645, "lon": -77.04058733333333, "fusion_lat": 0.0}, {"is_reserved": 0, "bike_id": "edf7956fcb3c96706cb8b0163b0e36f5", "type": "electric_scooter", "name": "edf7956fcb3c96706cb8b0163b0e36f5", "is_disabled": 0, "fusion_lon": 0.0, "rental_uris": {"android": "https://dc.lft.to/lastmile_qr_scan", "ios": "https://dc.lft.to/lastmile_qr_scan"}, "lat": 38.90534983333333, "lon": -77.049976, "fusion_lat": 0.0}, {"is_reserved": 0, "bike_id": "ad5652bc6696bde126696e6185a2d387", "type": "electric_scooter", "name": "ad5652bc6696bde126696e6185a2d387", "is_disabled": 0, "fusion_lon": 0.0, "rental_uris": {"android": "https://dc.lft.to/lastmile_qr_scan", "ios": "https://dc.lft.to/lastmile_qr_scan"}, "lat": 38.88869583333334, "lon": -77.0400065, "fusion_lat": 0.0}, {"is_reserved": 0, "bike_id": "f7e6f569627dcba785d740e3b9af3222", "type": "electric_scooter", "name": "f7e6f569627dcba785d740e3b9af3222", "is_disabled": 0, "fusion_lon": 0.0, "rental_uris": {"android": "https://dc.lft.to/lastmile_qr_scan", "ios": "https://dc.lft.to/lastmile_qr_scan"}, "lat": 38.921611666666664, "lon": -77.03385516666667, "fusion_lat": 0.0}, {"is_reserved": 0, "bike_id": "c7c5c46a95258c9171346fdeb31bbf70", "type": "electric_scooter", "name": "c7c5c46a95258c9171346fdeb31bbf70", "is_disabled": 0, "fusion_lon": 0.0, "rental_uris": {"android": "https://dc.lft.to/lastmile_qr_scan", "ios": "https://dc.lft.to/lastmile_qr_scan"}, "lat": 38.91584183333333, "lon": -76.98385933333333, "fusion_lat": 0.0}, {"is_reserved": 0, "bike_id": "9f3591542a323e5697364dc4b397416e", "type": "electric_scooter", "name": "9f3591542a323e5697364dc4b397416e", "is_disabled": 0, "fusion_lon": 0.0, "rental_uris": {"android": "https://dc.lft.to/lastmile_qr_scan", "ios": "https://dc.lft.to/lastmile_qr_scan"}, "lat": 38.921203166666665, "lon": -77.01208683333333, "fusion_lat": 0.0}, {"is_reserved": 0, "bike_id": "aff90d2540e76eedc9a2b8bffb1fbcc1", "type": "electric_scooter", "name": "aff90d2540e76eedc9a2b8bffb1fbcc1", "is_disabled": 0, "fusion_lon": 0.0, "rental_uris": {"android": "https://dc.lft.to/lastmile_qr_scan", "ios": "https://dc.lft.to/lastmile_qr_scan"}, "lat": 38.9216085, "lon": -77.03370333333334, "fusion_lat": 0.0}, {"is_reserved": 0, "bike_id": "294649e19e25778e6e4d18582e423172", "type": "electric_scooter", "name": "294649e19e25778e6e4d18582e423172", "is_disabled": 0, "fusion_lon": 0.0, "rental_uris": {"android": "https://dc.lft.to/lastmile_qr_scan", "ios": "https://dc.lft.to/lastmile_qr_scan"}, "lat": 38.89472216666667, "lon": -77.01080033333334, "fusion_lat": 0.0}, {"is_reserved": 0, "bike_id": "038d0438c4caf00936f2211cfcff016a", "type": "electric_bike", "name": "038d0438c4caf00936f2211cfcff016a", "is_disabled": 0, "fusion_lon": 0.0, "rental_uris": {"android": "https://dc.lft.to/lastmile_qr_scan", "ios": "https://dc.lft.to/lastmile_qr_scan"}, "lat": 38.98380733333333, "lon": -76.94722666666667, "fusion_lat": 0.0}, {"is_reserved": 0, "bike_id": "0dc7440e089ff48ca9870017628be20b", "type": "electric_scooter", "name": "0dc7440e089ff48ca9870017628be20b", "is_disabled": 0, "fusion_lon": 0.0, "rental_uris": {"android": "https://dc.lft.to/lastmile_qr_scan", "ios": "https://dc.lft.to/lastmile_qr_scan"}, "lat": 38.9214385, "lon": -77.04515133333334, "fusion_lat": 0.0}, {"is_reserved": 0, "bike_id": "d9403e62c549108dd935303d888cd4b8", "type": "electric_bike", "name": "d9403e62c549108dd935303d888cd4b8", "is_disabled": 0, "fusion_lon": 0.0, "rental_uris": {"android": "https://dc.lft.to/lastmile_qr_scan", "ios": "https://dc.lft.to/lastmile_qr_scan"}, "lat": 38.989624666666664, "lon": -77.09522966666667, "fusion_lat": 0.0}, {"is_reserved": 0, "bike_id": "7cee2c917909f767cf9dbf818810025e", "type": "electric_scooter", "name": "7cee2c917909f767cf9dbf818810025e", "is_disabled": 0, "fusion_lon": 0.0, "rental_uris": {"android": "https://dc.lft.to/lastmile_qr_scan", "ios": "https://dc.lft.to/lastmile_qr_scan"}, "lat": 38.924237, "lon": -77.05177033333334, "fusion_lat": 0.0}, {"is_reserved": 0, "bike_id": "3798f7b298fdd43128223d2dfd03cc26", "type": "electric_scooter", "name": "3798f7b298fdd43128223d2dfd03cc26", "is_disabled": 0, "fusion_lon": 0.0, "rental_uris": {"android": "https://dc.lft.to/lastmile_qr_scan", "ios": "https://dc.lft.to/lastmile_qr_scan"}, "lat": 38.895452666666664, "lon": -77.01103533333334, "fusion_lat": 0.0}, {"is_reserved": 0, "bike_id": "77c09032bbb195379dbde2415a85e81a", "type": "electric_scooter", "name": "77c09032bbb195379dbde2415a85e81a", "is_disabled": 0, "fusion_lon": 0.0, "rental_uris": {"android": "https://dc.lft.to/lastmile_qr_scan", "ios": "https://dc.lft.to/lastmile_qr_scan"}, "lat": 38.92469766666667, "lon": -77.0524, "fusion_lat": 0.0}, {"is_reserved": 0, "bike_id": "6b9047aca8c6380da364bb0069cc787f", "type": "electric_scooter", "name": "6b9047aca8c6380da364bb0069cc787f", "is_disabled": 0, "fusion_lon": 0.0, "rental_uris": {"android": "https://dc.lft.to/lastmile_qr_scan", "ios": "https://dc.lft.to/lastmile_qr_scan"}, "lat": 38.90639616666667, "lon": -77.00592933333333, "fusion_lat": 0.0}, {"is_reserved": 0, "bike_id": "b92fc2369060958a3460cea8fdb00ae3", "type": "electric_scooter", "name": "b92fc2369060958a3460cea8fdb00ae3", "is_disabled": 0, "fusion_lon": 0.0, "rental_uris": {"android": "https://dc.lft.to/lastmile_qr_scan", "ios": "https://dc.lft.to/lastmile_qr_scan"}, "lat": 38.873738833333334, "lon": -77.001352, "fusion_lat": 0.0}, {"is_reserved": 0, "bike_id": "387a728d2a2fbfa72d222e73f1a7b218", "type": "electric_bike", "name": "387a728d2a2fbfa72d222e73f1a7b218", "is_disabled": 0, "fusion_lon": 0.0, "rental_uris": {"android": "https://dc.lft.to/lastmile_qr_scan", "ios": "https://dc.lft.to/lastmile_qr_scan"}, "lat": 38.950858, "lon": -77.01225066666667, "fusion_lat": 0.0}, {"is_reserved": 0, "bike_id": "4ca40deb71ce9522e3eb9e340dd5f165", "type": "electric_scooter", "name": "4ca40deb71ce9522e3eb9e340dd5f165", "is_disabled": 0, "fusion_lon": 0.0, "rental_uris": {"android": "https://dc.lft.to/lastmile_qr_scan", "ios": "https://dc.lft.to/lastmile_qr_scan"}, "lat": 38.90375, "lon": -76.98074366666667, "fusion_lat": 0.0}, {"is_reserved": 0, "bike_id": "88d769bb03382b97854a99dabf7ddb96", "type": "electric_bike", "name": "88d769bb03382b97854a99dabf7ddb96", "is_disabled": 0, "fusion_lon": 0.0, "rental_uris": {"android": "https://dc.lft.to/lastmile_qr_scan", "ios": "https://dc.lft.to/lastmile_qr_scan"}, "lat": 38.876705, "lon": -77.00015866666666, "fusion_lat": 0.0}, {"is_reserved": 0, "bike_id": "ed3645445f0e27bb8ea1d32ba7b5d2a8", "type": "electric_bike", "name": "ed3645445f0e27bb8ea1d32ba7b5d2a8", "is_disabled": 0, "fusion_lon": 0.0, "rental_uris": {"android": "https://dc.lft.to/lastmile_qr_scan", "ios": "https://dc.lft.to/lastmile_qr_scan"}, "lat": 38.909055333333335, "lon": -77.09000916666666, "fusion_lat": 0.0}, {"is_reserved": 0, "bike_id": "01724ab3fe2965c58e608f9ad48476e6", "type": "electric_scooter", "name": "01724ab3fe2965c58e608f9ad48476e6", "is_disabled": 0, "fusion_lon": 0.0, "rental_uris": {"android": "https://dc.lft.to/lastmile_qr_scan", "ios": "https://dc.lft.to/lastmile_qr_scan"}, "lat": 38.910491, "lon": -77.03269916666666, "fusion_lat": 0.0}, {"is_reserved": 0, "bike_id": "3fbb1c0422ee87b850af2918000f75ca", "type": "electric_scooter", "name": "3fbb1c0422ee87b850af2918000f75ca", "is_disabled": 0, "fusion_lon": 0.0, "rental_uris": {"android": "https://dc.lft.to/lastmile_qr_scan", "ios": "https://dc.lft.to/lastmile_qr_scan"}, "lat": 38.91969733333333, "lon": -77.038602, "fusion_lat": 0.0}, {"is_reserved": 0, "bike_id": "0233ba2c3a7c7293ac4f0a30eaa5b4b9", "type": "electric_scooter", "name": "0233ba2c3a7c7293ac4f0a30eaa5b4b9", "is_disabled": 0, "fusion_lon": 0.0, "rental_uris": {"android": "https://dc.lft.to/lastmile_qr_scan", "ios": "https://dc.lft.to/lastmile_qr_scan"}, "lat": 38.9101095, "lon": -76.99388333333333, "fusion_lat": 0.0}, {"is_reserved": 0, "bike_id": "df63865b464b854d42dcb5eeb6ecea08", "type": "electric_bike", "name": "df63865b464b854d42dcb5eeb6ecea08", "is_disabled": 0, "fusion_lon": 0.0, "rental_uris": {"android": "https://dc.lft.to/lastmile_qr_scan", "ios": "https://dc.lft.to/lastmile_qr_scan"}, "lat": 38.89949283333333, "lon": -77.05000883333334, "fusion_lat": 0.0}, {"is_reserved": 0, "bike_id": "8140e243107e11cfb9e45719e49c9d5a", "type": "electric_scooter", "name": "8140e243107e11cfb9e45719e49c9d5a", "is_disabled": 0, "fusion_lon": 0.0, "rental_uris": {"android": "https://dc.lft.to/lastmile_qr_scan", "ios": "https://dc.lft.to/lastmile_qr_scan"}, "lat": 38.9621885, "lon": -77.02781783333333, "fusion_lat": 0.0}, {"is_reserved": 0, "bike_id": "2029a016ab31e127439f4b54fdfbe3b7", "type": "electric_scooter", "name": "2029a016ab31e127439f4b54fdfbe3b7", "is_disabled": 0, "fusion_lon": 0.0, "rental_uris": {"android": "https://dc.lft.to/lastmile_qr_scan", "ios": "https://dc.lft.to/lastmile_qr_scan"}, "lat": 38.920186, "lon": -77.071327, "fusion_lat": 0.0}, {"is_reserved": 0, "bike_id": "7f2efe673127a946950461000808e20a", "type": "electric_scooter", "name": "7f2efe673127a946950461000808e20a", "is_disabled": 0, "fusion_lon": 0.0, "rental_uris": {"android": "https://dc.lft.to/lastmile_qr_scan", "ios": "https://dc.lft.to/lastmile_qr_scan"}, "lat": 38.90304116666667, "lon": -77.03645183333333, "fusion_lat": 0.0}, {"is_reserved": 0, "bike_id": "235de71cf15a355d46a97852aaa43614", "type": "electric_scooter", "name": "235de71cf15a355d46a97852aaa43614", "is_disabled": 0, "fusion_lon": 0.0, "rental_uris": {"android": "https://dc.lft.to/lastmile_qr_scan", "ios": "https://dc.lft.to/lastmile_qr_scan"}, "lat": 38.92228466666667, "lon": -77.0443795, "fusion_lat": 0.0}, {"is_reserved": 0, "bike_id": "050388f35c964c9e5fd22fdb09bd7874", "type": "electric_scooter", "name": "050388f35c964c9e5fd22fdb09bd7874", "is_disabled": 0, "fusion_lon": 0.0, "rental_uris": {"android": "https://dc.lft.to/lastmile_qr_scan", "ios": "https://dc.lft.to/lastmile_qr_scan"}, "lat": 38.8986895, "lon": -76.94662133333334, "fusion_lat": 0.0}, {"is_reserved": 0, "bike_id": "5c3fe03e9394c7bb8656c5db45f7c8be", "type": "electric_scooter", "name": "5c3fe03e9394c7bb8656c5db45f7c8be", "is_disabled": 0, "fusion_lon": 0.0, "rental_uris": {"android": "https://dc.lft.to/lastmile_qr_scan", "ios": "https://dc.lft.to/lastmile_qr_scan"}, "lat": 38.91806366666667, "lon": -77.0271985, "fusion_lat": 0.0}, {"is_reserved": 0, "bike_id": "5fd98321f090dbff44007dec6fbdf009", "type": "electric_scooter", "name": "5fd98321f090dbff44007dec6fbdf009", "is_disabled": 0, "fusion_lon": 0.0, "rental_uris": {"android": "https://dc.lft.to/lastmile_qr_scan", "ios": "https://dc.lft.to/lastmile_qr_scan"}, "lat": 38.9228455, "lon": -77.03656616666666, "fusion_lat": 0.0}, {"is_reserved": 0, "bike_id": "d17ee669d0eef53ae5df052f06b89d4b", "type": "electric_scooter", "name": "d17ee669d0eef53ae5df052f06b89d4b", "is_disabled": 0, "fusion_lon": 0.0, "rental_uris": {"android": "https://dc.lft.to/lastmile_qr_scan", "ios": "https://dc.lft.to/lastmile_qr_scan"}, "lat": 38.896642166666666, "lon": -76.93200383333334, "fusion_lat": 0.0}, {"is_reserved": 0, "bike_id": "a8762c5876d4d4be032772a91d2a60a5", "type": "electric_scooter", "name": "a8762c5876d4d4be032772a91d2a60a5", "is_disabled": 0, "fusion_lon": 0.0, "rental_uris": {"android": "https://dc.lft.to/lastmile_qr_scan", "ios": "https://dc.lft.to/lastmile_qr_scan"}, "lat": 38.9256685, "lon": -77.02892383333334, "fusion_lat": 0.0}, {"is_reserved": 0, "bike_id": "f13cbf82569dced4cd0848e04229ffdf", "type": "electric_scooter", "name": "f13cbf82569dced4cd0848e04229ffdf", "is_disabled": 0, "fusion_lon": 0.0, "rental_uris": {"android": "https://dc.lft.to/lastmile_qr_scan", "ios": "https://dc.lft.to/lastmile_qr_scan"}, "lat": 38.896136166666665, "lon": -77.02261516666667, "fusion_lat": 0.0}, {"is_reserved": 0, "bike_id": "328d0b66b8a272eb45a768e7e3634ff6", "type": "electric_scooter", "name": "328d0b66b8a272eb45a768e7e3634ff6", "is_disabled": 0, "fusion_lon": 0.0, "rental_uris": {"android": "https://dc.lft.to/lastmile_qr_scan", "ios": "https://dc.lft.to/lastmile_qr_scan"}, "lat": 38.924577166666666, "lon": -77.039649, "fusion_lat": 0.0}, {"is_reserved": 0, "bike_id": "c2de78ff1ae261a2502d5a5cefa06ac2", "type": "electric_bike", "name": "c2de78ff1ae261a2502d5a5cefa06ac2", "is_disabled": 0, "fusion_lon": 0.0, "rental_uris": {"android": "https://dc.lft.to/lastmile_qr_scan", "ios": "https://dc.lft.to/lastmile_qr_scan"}, "lat": 38.8048245, "lon": -76.9909485, "fusion_lat": 0.0}, {"is_reserved": 0, "bike_id": "df73d88c6acc255246a2594a4a002cb5", "type": "electric_scooter", "name": "df73d88c6acc255246a2594a4a002cb5", "is_disabled": 0, "fusion_lon": 0.0, "rental_uris": {"android": "https://dc.lft.to/lastmile_qr_scan", "ios": "https://dc.lft.to/lastmile_qr_scan"}, "lat": 38.92284433333333, "lon": -77.0365655, "fusion_lat": 0.0}, {"is_reserved": 0, "bike_id": "f4ba91dce12ad74ebb6026e4c35eb38c", "type": "electric_scooter", "name": "f4ba91dce12ad74ebb6026e4c35eb38c", "is_disabled": 0, "fusion_lon": 0.0, "rental_uris": {"android": "https://dc.lft.to/lastmile_qr_scan", "ios": "https://dc.lft.to/lastmile_qr_scan"}, "lat": 38.948881, "lon": -77.018506, "fusion_lat": 0.0}, {"is_reserved": 0, "bike_id": "148a3d110faeb8e2bfa938bad83d8132", "type": "electric_bike", "name": "148a3d110faeb8e2bfa938bad83d8132", "is_disabled": 0, "fusion_lon": 0.0, "rental_uris": {"android": "https://dc.lft.to/lastmile_qr_scan", "ios": "https://dc.lft.to/lastmile_qr_scan"}, "lat": 38.944768333333336, "lon": -76.98688, "fusion_lat": 0.0}, {"is_reserved": 0, "bike_id": "ab60edf312a17891e544f409890674fb", "type": "electric_bike", "name": "ab60edf312a17891e544f409890674fb", "is_disabled": 0, "fusion_lon": 0.0, "rental_uris": {"android": "https://dc.lft.to/lastmile_qr_scan", "ios": "https://dc.lft.to/lastmile_qr_scan"}, "lat": 38.957745833333334, "lon": -77.08021566666666, "fusion_lat": 0.0}, {"is_reserved": 0, "bike_id": "12b89bb33e89b2cad8dd56fee9767300", "type": "electric_scooter", "name": "12b89bb33e89b2cad8dd56fee9767300", "is_disabled": 0, "fusion_lon": 0.0, "rental_uris": {"android": "https://dc.lft.to/lastmile_qr_scan", "ios": "https://dc.lft.to/lastmile_qr_scan"}, "lat": 38.92014016666667, "lon": -77.06364733333334, "fusion_lat": 0.0}, {"is_reserved": 0, "bike_id": "f032b88239b44d3c11f0fef372fcca2f", "type": "electric_scooter", "name": "f032b88239b44d3c11f0fef372fcca2f", "is_disabled": 0, "fusion_lon": 0.0, "rental_uris": {"android": "https://dc.lft.to/lastmile_qr_scan", "ios": "https://dc.lft.to/lastmile_qr_scan"}, "lat": 38.940824, "lon": -77.061357, "fusion_lat": 0.0}, {"is_reserved": 0, "bike_id": "051c7d05ca76695905163c30f79f6ab3", "type": "electric_scooter", "name": "051c7d05ca76695905163c30f79f6ab3", "is_disabled": 0, "fusion_lon": 0.0, "rental_uris": {"android": "https://dc.lft.to/lastmile_qr_scan", "ios": "https://dc.lft.to/lastmile_qr_scan"}, "lat": 38.9001325, "lon": -77.0275345, "fusion_lat": 0.0}, {"is_reserved": 0, "bike_id": "6f69ceaab781b3fe9097596ed9f43df5", "type": "electric_scooter", "name": "6f69ceaab781b3fe9097596ed9f43df5", "is_disabled": 0, "fusion_lon": 0.0, "rental_uris": {"android": "https://dc.lft.to/lastmile_qr_scan", "ios": "https://dc.lft.to/lastmile_qr_scan"}, "lat": 38.9196845, "lon": -77.0179915, "fusion_lat": 0.0}, {"is_reserved": 0, "bike_id": "b37107e242e3bd16a720626de14fde82", "type": "electric_scooter", "name": "b37107e242e3bd16a720626de14fde82", "is_disabled": 0, "fusion_lon": 0.0, "rental_uris": {"android": "https://dc.lft.to/lastmile_qr_scan", "ios": "https://dc.lft.to/lastmile_qr_scan"}, "lat": 38.94200466666667, "lon": -77.02345633333333, "fusion_lat": 0.0}, {"is_reserved": 0, "bike_id": "18d9b63fe61fd0a244597ef19eee63ad", "type": "electric_scooter", "name": "18d9b63fe61fd0a244597ef19eee63ad", "is_disabled": 0, "fusion_lon": 0.0, "rental_uris": {"android": "https://dc.lft.to/lastmile_qr_scan", "ios": "https://dc.lft.to/lastmile_qr_scan"}, "lat": 38.93105083333333, "lon": -77.03483166666666, "fusion_lat": 0.0}, {"is_reserved": 0, "bike_id": "a67a0ff69ecf472bc0ca51cbe9b3a87f", "type": "electric_scooter", "name": "a67a0ff69ecf472bc0ca51cbe9b3a87f", "is_disabled": 0, "fusion_lon": 0.0, "rental_uris": {"android": "https://dc.lft.to/lastmile_qr_scan", "ios": "https://dc.lft.to/lastmile_qr_scan"}, "lat": 38.914050333333336, "lon": -77.025915, "fusion_lat": 0.0}, {"is_reserved": 0, "bike_id": "ece8578ac4c20cf046d21c8cd113ccc9", "type": "electric_scooter", "name": "ece8578ac4c20cf046d21c8cd113ccc9", "is_disabled": 0, "fusion_lon": 0.0, "rental_uris": {"android": "https://dc.lft.to/lastmile_qr_scan", "ios": "https://dc.lft.to/lastmile_qr_scan"}, "lat": 38.877202833333335, "lon": -77.0057075, "fusion_lat": 0.0}, {"is_reserved": 0, "bike_id": "b899269280bc070d0f9aec198b3a2087", "type": "electric_scooter", "name": "b899269280bc070d0f9aec198b3a2087", "is_disabled": 0, "fusion_lon": 0.0, "rental_uris": {"android": "https://dc.lft.to/lastmile_qr_scan", "ios": "https://dc.lft.to/lastmile_qr_scan"}, "lat": 38.92329133333333, "lon": -77.019589, "fusion_lat": 0.0}, {"is_reserved": 0, "bike_id": "d9695d73fd9061acdc94557dbaa39eb5", "type": "electric_scooter", "name": "d9695d73fd9061acdc94557dbaa39eb5", "is_disabled": 0, "fusion_lon": 0.0, "rental_uris": {"android": "https://dc.lft.to/lastmile_qr_scan", "ios": "https://dc.lft.to/lastmile_qr_scan"}, "lat": 38.92966466666667, "lon": -77.03167466666666, "fusion_lat": 0.0}, {"is_reserved": 0, "bike_id": "7dea33fe94c6e4213cd4ef241b842190", "type": "electric_bike", "name": "7dea33fe94c6e4213cd4ef241b842190", "is_disabled": 0, "fusion_lon": 0.0, "rental_uris": {"android": "https://dc.lft.to/lastmile_qr_scan", "ios": "https://dc.lft.to/lastmile_qr_scan"}, "lat": 38.953156666666665, "lon": -77.02746233333333, "fusion_lat": 0.0}, {"is_reserved": 0, "bike_id": "0493cf48a59cd2ee759ff8e9205a4b9e", "type": "electric_scooter", "name": "0493cf48a59cd2ee759ff8e9205a4b9e", "is_disabled": 0, "fusion_lon": 0.0, "rental_uris": {"android": "https://dc.lft.to/lastmile_qr_scan", "ios": "https://dc.lft.to/lastmile_qr_scan"}, "lat": 38.922189833333334, "lon": -77.0319425, "fusion_lat": 0.0}, {"is_reserved": 0, "bike_id": "bab41a6b781de483370ec1099e75c6d1", "type": "electric_scooter", "name": "bab41a6b781de483370ec1099e75c6d1", "is_disabled": 0, "fusion_lon": 0.0, "rental_uris": {"android": "https://dc.lft.to/lastmile_qr_scan", "ios": "https://dc.lft.to/lastmile_qr_scan"}, "lat": 38.9497675, "lon": -77.02444666666666, "fusion_lat": 0.0}, {"is_reserved": 0, "bike_id": "6542b41c71adf24a6bbfda4f28d2a2b5", "type": "electric_scooter", "name": "6542b41c71adf24a6bbfda4f28d2a2b5", "is_disabled": 0, "fusion_lon": 0.0, "rental_uris": {"android": "https://dc.lft.to/lastmile_qr_scan", "ios": "https://dc.lft.to/lastmile_qr_scan"}, "lat": 38.9178815, "lon": -77.0229795, "fusion_lat": 0.0}, {"is_reserved": 0, "bike_id": "ae8e965350ea1df32a10073578314b26", "type": "electric_scooter", "name": "ae8e965350ea1df32a10073578314b26", "is_disabled": 0, "fusion_lon": 0.0, "rental_uris": {"android": "https://dc.lft.to/lastmile_qr_scan", "ios": "https://dc.lft.to/lastmile_qr_scan"}, "lat": 38.926405333333335, "lon": -77.03707283333334, "fusion_lat": 0.0}, {"is_reserved": 0, "bike_id": "21e39c88f52a8f0b48ff1fb7535ae3c7", "type": "electric_bike", "name": "21e39c88f52a8f0b48ff1fb7535ae3c7", "is_disabled": 0, "fusion_lon": 0.0, "rental_uris": {"android": "https://dc.lft.to/lastmile_qr_scan", "ios": "https://dc.lft.to/lastmile_qr_scan"}, "lat": 38.8767475, "lon": -77.01451333333333, "fusion_lat": 0.0}, {"is_reserved": 0, "bike_id": "7a225427b5ebbc8bf616b73266820c92", "type": "electric_scooter", "name": "7a225427b5ebbc8bf616b73266820c92", "is_disabled": 0, "fusion_lon": 0.0, "rental_uris": {"android": "https://dc.lft.to/lastmile_qr_scan", "ios": "https://dc.lft.to/lastmile_qr_scan"}, "lat": 38.9382385, "lon": -76.99046016666667, "fusion_lat": 0.0}, {"is_reserved": 0, "bike_id": "4a5e35126e1c48b5a806f90ed8844f18", "type": "electric_scooter", "name": "4a5e35126e1c48b5a806f90ed8844f18", "is_disabled": 0, "fusion_lon": 0.0, "rental_uris": {"android": "https://dc.lft.to/lastmile_qr_scan", "ios": "https://dc.lft.to/lastmile_qr_scan"}, "lat": 38.924598333333336, "lon": -76.9991255, "fusion_lat": 0.0}, {"is_reserved": 0, "bike_id": "054dd730b8dce005a44e8014775637c7", "type": "electric_bike", "name": "054dd730b8dce005a44e8014775637c7", "is_disabled": 0, "fusion_lon": 0.0, "rental_uris": {"android": "https://dc.lft.to/lastmile_qr_scan", "ios": "https://dc.lft.to/lastmile_qr_scan"}, "lat": 38.98507733333334, "lon": -76.98212866666667, "fusion_lat": 0.0}, {"is_reserved": 0, "bike_id": "b3f400c4682d23f0a2ba394f584e14de", "type": "electric_scooter", "name": "b3f400c4682d23f0a2ba394f584e14de", "is_disabled": 0, "fusion_lon": 0.0, "rental_uris": {"android": "https://dc.lft.to/lastmile_qr_scan", "ios": "https://dc.lft.to/lastmile_qr_scan"}, "lat": 38.92111283333333, "lon": -77.0411915, "fusion_lat": 0.0}, {"is_reserved": 0, "bike_id": "f62300556034be0f0450fdbe492e92ff", "type": "electric_scooter", "name": "f62300556034be0f0450fdbe492e92ff", "is_disabled": 0, "fusion_lon": 0.0, "rental_uris": {"android": "https://dc.lft.to/lastmile_qr_scan", "ios": "https://dc.lft.to/lastmile_qr_scan"}, "lat": 38.924432833333334, "lon": -77.02031166666667, "fusion_lat": 0.0}, {"is_reserved": 0, "bike_id": "b6bc467e40339fa422058fc2e26d792a", "type": "electric_scooter", "name": "b6bc467e40339fa422058fc2e26d792a", "is_disabled": 0, "fusion_lon": 0.0, "rental_uris": {"android": "https://dc.lft.to/lastmile_qr_scan", "ios": "https://dc.lft.to/lastmile_qr_scan"}, "lat": 38.924195166666664, "lon": -77.01943916666667, "fusion_lat": 0.0}, {"is_reserved": 0, "bike_id": "c4a4b83744e34a7adf3c939d333ba4ef", "type": "electric_scooter", "name": "c4a4b83744e34a7adf3c939d333ba4ef", "is_disabled": 0, "fusion_lon": 0.0, "rental_uris": {"android": "https://dc.lft.to/lastmile_qr_scan", "ios": "https://dc.lft.to/lastmile_qr_scan"}, "lat": 38.875446333333336, "lon": -77.006043, "fusion_lat": 0.0}, {"is_reserved": 0, "bike_id": "ca9f264b58edf0e19647729cc5646581", "type": "electric_scooter", "name": "ca9f264b58edf0e19647729cc5646581", "is_disabled": 0, "fusion_lon": 0.0, "rental_uris": {"android": "https://dc.lft.to/lastmile_qr_scan", "ios": "https://dc.lft.to/lastmile_qr_scan"}, "lat": 38.9065065, "lon": -77.011096, "fusion_lat": 0.0}, {"is_reserved": 0, "bike_id": "cf7f1df5848c2c0747a824c13f07db5e", "type": "electric_scooter", "name": "cf7f1df5848c2c0747a824c13f07db5e", "is_disabled": 0, "fusion_lon": 0.0, "rental_uris": {"android": "https://dc.lft.to/lastmile_qr_scan", "ios": "https://dc.lft.to/lastmile_qr_scan"}, "lat": 38.92442466666667, "lon": -77.03313983333334, "fusion_lat": 0.0}, {"is_reserved": 0, "bike_id": "67a8b5c1b5698c3e0e97c20b82b56a2b", "type": "electric_scooter", "name": "67a8b5c1b5698c3e0e97c20b82b56a2b", "is_disabled": 0, "fusion_lon": 0.0, "rental_uris": {"android": "https://dc.lft.to/lastmile_qr_scan", "ios": "https://dc.lft.to/lastmile_qr_scan"}, "lat": 38.9065255, "lon": -77.00602633333334, "fusion_lat": 0.0}, {"is_reserved": 0, "bike_id": "411bcdc5f27e7da9d98b478773bfea9a", "type": "electric_scooter", "name": "411bcdc5f27e7da9d98b478773bfea9a", "is_disabled": 0, "fusion_lon": 0.0, "rental_uris": {"android": "https://dc.lft.to/lastmile_qr_scan", "ios": "https://dc.lft.to/lastmile_qr_scan"}, "lat": 38.9082845, "lon": -76.99448166666667, "fusion_lat": 0.0}, {"is_reserved": 0, "bike_id": "75e4a44c7863bd34758f1a70aa1cab42", "type": "electric_scooter", "name": "75e4a44c7863bd34758f1a70aa1cab42", "is_disabled": 0, "fusion_lon": 0.0, "rental_uris": {"android": "https://dc.lft.to/lastmile_qr_scan", "ios": "https://dc.lft.to/lastmile_qr_scan"}, "lat": 38.91274383333333, "lon": -77.0238505, "fusion_lat": 0.0}, {"is_reserved": 0, "bike_id": "bc3573b97d73c21693293ac4217f6c4d", "type": "electric_scooter", "name": "bc3573b97d73c21693293ac4217f6c4d", "is_disabled": 0, "fusion_lon": 0.0, "rental_uris": {"android": "https://dc.lft.to/lastmile_qr_scan", "ios": "https://dc.lft.to/lastmile_qr_scan"}, "lat": 38.9233675, "lon": -77.03615733333334, "fusion_lat": 0.0}, {"is_reserved": 0, "bike_id": "2120c8cd4e82e5994b49c38fc8ac5b6a", "type": "electric_scooter", "name": "2120c8cd4e82e5994b49c38fc8ac5b6a", "is_disabled": 0, "fusion_lon": 0.0, "rental_uris": {"android": "https://dc.lft.to/lastmile_qr_scan", "ios": "https://dc.lft.to/lastmile_qr_scan"}, "lat": 38.9040955, "lon": -77.062831, "fusion_lat": 0.0}, {"is_reserved": 0, "bike_id": "75c638e636c3f5d2f0ce2abf6d3daa16", "type": "electric_scooter", "name": "75c638e636c3f5d2f0ce2abf6d3daa16", "is_disabled": 0, "fusion_lon": 0.0, "rental_uris": {"android": "https://dc.lft.to/lastmile_qr_scan", "ios": "https://dc.lft.to/lastmile_qr_scan"}, "lat": 38.887500333333335, "lon": -77.03150866666667, "fusion_lat": 0.0}, {"is_reserved": 0, "bike_id": "9b852e39344673c4f07cac11f355193a", "type": "electric_bike", "name": "9b852e39344673c4f07cac11f355193a", "is_disabled": 0, "fusion_lon": 0.0, "rental_uris": {"android": "https://dc.lft.to/lastmile_qr_scan", "ios": "https://dc.lft.to/lastmile_qr_scan"}, "lat": 38.95074666666667, "lon": -76.99597366666667, "fusion_lat": 0.0}, {"is_reserved": 0, "bike_id": "81cf31e459b529e1eeda76890bbb2efd", "type": "electric_scooter", "name": "81cf31e459b529e1eeda76890bbb2efd", "is_disabled": 0, "fusion_lon": 0.0, "rental_uris": {"android": "https://dc.lft.to/lastmile_qr_scan", "ios": "https://dc.lft.to/lastmile_qr_scan"}, "lat": 38.92474033333333, "lon": -77.02993916666667, "fusion_lat": 0.0}, {"is_reserved": 0, "bike_id": "129c4490b86d962e0ff49e3c79f62e8c", "type": "electric_bike", "name": "129c4490b86d962e0ff49e3c79f62e8c", "is_disabled": 0, "fusion_lon": 0.0, "rental_uris": {"android": "https://dc.lft.to/lastmile_qr_scan", "ios": "https://dc.lft.to/lastmile_qr_scan"}, "lat": 38.898083, "lon": -76.990049, "fusion_lat": 0.0}, {"is_reserved": 0, "bike_id": "e9bb73c72344bcc6b64d7c24f505d7e3", "type": "electric_scooter", "name": "e9bb73c72344bcc6b64d7c24f505d7e3", "is_disabled": 0, "fusion_lon": 0.0, "rental_uris": {"android": "https://dc.lft.to/lastmile_qr_scan", "ios": "https://dc.lft.to/lastmile_qr_scan"}, "lat": 38.90391783333333, "lon": -77.0684325, "fusion_lat": 0.0}, {"is_reserved": 0, "bike_id": "27c2b3d16d04e55215655bd2e0eb0565", "type": "electric_scooter", "name": "27c2b3d16d04e55215655bd2e0eb0565", "is_disabled": 0, "fusion_lon": 0.0, "rental_uris": {"android": "https://dc.lft.to/lastmile_qr_scan", "ios": "https://dc.lft.to/lastmile_qr_scan"}, "lat": 38.901337166666664, "lon": -77.04150283333334, "fusion_lat": 0.0}, {"is_reserved": 0, "bike_id": "0bd295ccf9115b393dd6b9d9fe938ee3", "type": "electric_scooter", "name": "0bd295ccf9115b393dd6b9d9fe938ee3", "is_disabled": 0, "fusion_lon": 0.0, "rental_uris": {"android": "https://dc.lft.to/lastmile_qr_scan", "ios": "https://dc.lft.to/lastmile_qr_scan"}, "lat": 38.916486166666665, "lon": -77.02882433333333, "fusion_lat": 0.0}, {"is_reserved": 0, "bike_id": "8f85ecceeeef35795f76bfb087750776", "type": "electric_scooter", "name": "8f85ecceeeef35795f76bfb087750776", "is_disabled": 0, "fusion_lon": 0.0, "rental_uris": {"android": "https://dc.lft.to/lastmile_qr_scan", "ios": "https://dc.lft.to/lastmile_qr_scan"}, "lat": 38.90966233333333, "lon": -77.03419083333333, "fusion_lat": 0.0}, {"is_reserved": 0, "bike_id": "75e96eb9eb4cf5fc50fac5761d495cb4", "type": "electric_scooter", "name": "75e96eb9eb4cf5fc50fac5761d495cb4", "is_disabled": 0, "fusion_lon": 0.0, "rental_uris": {"android": "https://dc.lft.to/lastmile_qr_scan", "ios": "https://dc.lft.to/lastmile_qr_scan"}, "lat": 38.885019666666665, "lon": -77.01973466666666, "fusion_lat": 0.0}, {"is_reserved": 0, "bike_id": "12c78eea97fb4eca74f96d9f6c4584de", "type": "electric_scooter", "name": "12c78eea97fb4eca74f96d9f6c4584de", "is_disabled": 0, "fusion_lon": 0.0, "rental_uris": {"android": "https://dc.lft.to/lastmile_qr_scan", "ios": "https://dc.lft.to/lastmile_qr_scan"}, "lat": 38.91693266666667, "lon": -77.02318033333333, "fusion_lat": 0.0}, {"is_reserved": 0, "bike_id": "6e8788cd8b5d177b8529414bf1cab4cf", "type": "electric_scooter", "name": "6e8788cd8b5d177b8529414bf1cab4cf", "is_disabled": 0, "fusion_lon": 0.0, "rental_uris": {"android": "https://dc.lft.to/lastmile_qr_scan", "ios": "https://dc.lft.to/lastmile_qr_scan"}, "lat": 38.903492166666666, "lon": -77.03120633333333, "fusion_lat": 0.0}, {"is_reserved": 0, "bike_id": "7cb5d7868d1e7f49529d975bf8a84252", "type": "electric_scooter", "name": "7cb5d7868d1e7f49529d975bf8a84252", "is_disabled": 0, "fusion_lon": 0.0, "rental_uris": {"android": "https://dc.lft.to/lastmile_qr_scan", "ios": "https://dc.lft.to/lastmile_qr_scan"}, "lat": 38.911189, "lon": -77.00350016666667, "fusion_lat": 0.0}, {"is_reserved": 0, "bike_id": "9b31c856fa0a5a354ed8642216ab6aab", "type": "electric_scooter", "name": "9b31c856fa0a5a354ed8642216ab6aab", "is_disabled": 0, "fusion_lon": 0.0, "rental_uris": {"android": "https://dc.lft.to/lastmile_qr_scan", "ios": "https://dc.lft.to/lastmile_qr_scan"}, "lat": 38.91923633333333, "lon": -77.03419666666667, "fusion_lat": 0.0}, {"is_reserved": 0, "bike_id": "ae84f6732e51759160b32a751ea78998", "type": "electric_scooter", "name": "ae84f6732e51759160b32a751ea78998", "is_disabled": 0, "fusion_lon": 0.0, "rental_uris": {"android": "https://dc.lft.to/lastmile_qr_scan", "ios": "https://dc.lft.to/lastmile_qr_scan"}, "lat": 38.8994655, "lon": -77.044885, "fusion_lat": 0.0}, {"is_reserved": 0, "bike_id": "1d0774ae7f37faad9e1701ee52b2d51d", "type": "electric_scooter", "name": "1d0774ae7f37faad9e1701ee52b2d51d", "is_disabled": 0, "fusion_lon": 0.0, "rental_uris": {"android": "https://dc.lft.to/lastmile_qr_scan", "ios": "https://dc.lft.to/lastmile_qr_scan"}, "lat": 38.89680633333333, "lon": -77.04318516666666, "fusion_lat": 0.0}, {"is_reserved": 0, "bike_id": "1618693655a0354148d43889b8f882ca", "type": "electric_scooter", "name": "1618693655a0354148d43889b8f882ca", "is_disabled": 0, "fusion_lon": 0.0, "rental_uris": {"android": "https://dc.lft.to/lastmile_qr_scan", "ios": "https://dc.lft.to/lastmile_qr_scan"}, "lat": 38.919455166666665, "lon": -77.04495216666666, "fusion_lat": 0.0}, {"is_reserved": 0, "bike_id": "ea2e8f7213ed14774f86c0933d741593", "type": "electric_scooter", "name": "ea2e8f7213ed14774f86c0933d741593", "is_disabled": 0, "fusion_lon": 0.0, "rental_uris": {"android": "https://dc.lft.to/lastmile_qr_scan", "ios": "https://dc.lft.to/lastmile_qr_scan"}, "lat": 38.876658, "lon": -77.002981, "fusion_lat": 0.0}, {"is_reserved": 0, "bike_id": "eee817c965bd82a0fce4cf9c02e1e61f", "type": "electric_scooter", "name": "eee817c965bd82a0fce4cf9c02e1e61f", "is_disabled": 0, "fusion_lon": 0.0, "rental_uris": {"android": "https://dc.lft.to/lastmile_qr_scan", "ios": "https://dc.lft.to/lastmile_qr_scan"}, "lat": 38.91980083333333, "lon": -77.03342283333333, "fusion_lat": 0.0}, {"is_reserved": 0, "bike_id": "e2c0f40054ebc83f1a6a8995b6b0d5c1", "type": "electric_scooter", "name": "e2c0f40054ebc83f1a6a8995b6b0d5c1", "is_disabled": 0, "fusion_lon": 0.0, "rental_uris": {"android": "https://dc.lft.to/lastmile_qr_scan", "ios": "https://dc.lft.to/lastmile_qr_scan"}, "lat": 38.91933516666667, "lon": -77.03111183333333, "fusion_lat": 0.0}, {"is_reserved": 0, "bike_id": "ede1964de8cb1d9e7a4a430c66e5503d", "type": "electric_scooter", "name": "ede1964de8cb1d9e7a4a430c66e5503d", "is_disabled": 0, "fusion_lon": 0.0, "rental_uris": {"android": "https://dc.lft.to/lastmile_qr_scan", "ios": "https://dc.lft.to/lastmile_qr_scan"}, "lat": 38.9106835, "lon": -77.05377766666666, "fusion_lat": 0.0}, {"is_reserved": 0, "bike_id": "c7bc32f6df7eec00c2c8a35157a82073", "type": "electric_scooter", "name": "c7bc32f6df7eec00c2c8a35157a82073", "is_disabled": 0, "fusion_lon": 0.0, "rental_uris": {"android": "https://dc.lft.to/lastmile_qr_scan", "ios": "https://dc.lft.to/lastmile_qr_scan"}, "lat": 38.917100833333336, "lon": -77.03873383333334, "fusion_lat": 0.0}, {"is_reserved": 0, "bike_id": "b89cf47497f45221e7912c499f5a4e6d", "type": "electric_bike", "name": "b89cf47497f45221e7912c499f5a4e6d", "is_disabled": 0, "fusion_lon": 0.0, "rental_uris": {"android": "https://dc.lft.to/lastmile_qr_scan", "ios": "https://dc.lft.to/lastmile_qr_scan"}, "lat": 38.807398166666665, "lon": -77.09686516666666, "fusion_lat": 0.0}, {"is_reserved": 0, "bike_id": "bfedfe3690ed348573cb7a755d22585e", "type": "electric_scooter", "name": "bfedfe3690ed348573cb7a755d22585e", "is_disabled": 0, "fusion_lon": 0.0, "rental_uris": {"android": "https://dc.lft.to/lastmile_qr_scan", "ios": "https://dc.lft.to/lastmile_qr_scan"}, "lat": 38.90257716666667, "lon": -77.03840283333334, "fusion_lat": 0.0}, {"is_reserved": 0, "bike_id": "5870a22f43d116f7beaff70f1f214e44", "type": "electric_scooter", "name": "5870a22f43d116f7beaff70f1f214e44", "is_disabled": 0, "fusion_lon": 0.0, "rental_uris": {"android": "https://dc.lft.to/lastmile_qr_scan", "ios": "https://dc.lft.to/lastmile_qr_scan"}, "lat": 38.931324000000004, "lon": -77.03255483333334, "fusion_lat": 0.0}, {"is_reserved": 0, "bike_id": "3925c2d79668a56911d256979f19d325", "type": "electric_scooter", "name": "3925c2d79668a56911d256979f19d325", "is_disabled": 0, "fusion_lon": 0.0, "rental_uris": {"android": "https://dc.lft.to/lastmile_qr_scan", "ios": "https://dc.lft.to/lastmile_qr_scan"}, "lat": 38.9031835, "lon": -76.99256633333333, "fusion_lat": 0.0}, {"is_reserved": 0, "bike_id": "eb06b49088bc6a9ba82233fc52cedd4c", "type": "electric_scooter", "name": "eb06b49088bc6a9ba82233fc52cedd4c", "is_disabled": 0, "fusion_lon": 0.0, "rental_uris": {"android": "https://dc.lft.to/lastmile_qr_scan", "ios": "https://dc.lft.to/lastmile_qr_scan"}, "lat": 38.93069466666667, "lon": -77.02331966666667, "fusion_lat": 0.0}, {"is_reserved": 0, "bike_id": "350f10096dea12d613e18bf0c826c0ca", "type": "electric_scooter", "name": "350f10096dea12d613e18bf0c826c0ca", "is_disabled": 0, "fusion_lon": 0.0, "rental_uris": {"android": "https://dc.lft.to/lastmile_qr_scan", "ios": "https://dc.lft.to/lastmile_qr_scan"}, "lat": 38.92444316666667, "lon": -77.019428, "fusion_lat": 0.0}, {"is_reserved": 0, "bike_id": "511223e545b6a3b2afad7ff357eadf13", "type": "electric_scooter", "name": "511223e545b6a3b2afad7ff357eadf13", "is_disabled": 0, "fusion_lon": 0.0, "rental_uris": {"android": "https://dc.lft.to/lastmile_qr_scan", "ios": "https://dc.lft.to/lastmile_qr_scan"}, "lat": 38.906282, "lon": -77.015303, "fusion_lat": 0.0}, {"is_reserved": 0, "bike_id": "7e2ea011ad68f7d47f07263ae7e26d55", "type": "electric_scooter", "name": "7e2ea011ad68f7d47f07263ae7e26d55", "is_disabled": 0, "fusion_lon": 0.0, "rental_uris": {"android": "https://dc.lft.to/lastmile_qr_scan", "ios": "https://dc.lft.to/lastmile_qr_scan"}, "lat": 38.9446015, "lon": -77.06347933333333, "fusion_lat": 0.0}, {"is_reserved": 0, "bike_id": "196983f4fc141e49d954138d4dd3d0ee", "type": "electric_scooter", "name": "196983f4fc141e49d954138d4dd3d0ee", "is_disabled": 0, "fusion_lon": 0.0, "rental_uris": {"android": "https://dc.lft.to/lastmile_qr_scan", "ios": "https://dc.lft.to/lastmile_qr_scan"}, "lat": 38.92536416666667, "lon": -77.03393733333333, "fusion_lat": 0.0}, {"is_reserved": 0, "bike_id": "de1868be83f5f29f6923c84e242a7dc3", "type": "electric_bike", "name": "de1868be83f5f29f6923c84e242a7dc3", "is_disabled": 0, "fusion_lon": 0.0, "rental_uris": {"android": "https://dc.lft.to/lastmile_qr_scan", "ios": "https://dc.lft.to/lastmile_qr_scan"}, "lat": 38.8717445, "lon": -77.23393333333334, "fusion_lat": 0.0}, {"is_reserved": 0, "bike_id": "dde2e9f343e7997b774ce89aed7c30dd", "type": "electric_scooter", "name": "dde2e9f343e7997b774ce89aed7c30dd", "is_disabled": 0, "fusion_lon": 0.0, "rental_uris": {"android": "https://dc.lft.to/lastmile_qr_scan", "ios": "https://dc.lft.to/lastmile_qr_scan"}, "lat": 38.9235315, "lon": -77.03408533333334, "fusion_lat": 0.0}, {"is_reserved": 0, "bike_id": "8f0d985eecc8b26e036af5a7254e4396", "type": "electric_scooter", "name": "8f0d985eecc8b26e036af5a7254e4396", "is_disabled": 0, "fusion_lon": 0.0, "rental_uris": {"android": "https://dc.lft.to/lastmile_qr_scan", "ios": "https://dc.lft.to/lastmile_qr_scan"}, "lat": 38.87274983333333, "lon": -77.01508733333333, "fusion_lat": 0.0}, {"is_reserved": 0, "bike_id": "33070dffcca1a24ea946d5317e50409c", "type": "electric_scooter", "name": "33070dffcca1a24ea946d5317e50409c", "is_disabled": 0, "fusion_lon": 0.0, "rental_uris": {"android": "https://dc.lft.to/lastmile_qr_scan", "ios": "https://dc.lft.to/lastmile_qr_scan"}, "lat": 38.902111166666664, "lon": -76.99241283333333, "fusion_lat": 0.0}, {"is_reserved": 0, "bike_id": "7190ebb6ea6ba6b7a0707907cd98fab4", "type": "electric_scooter", "name": "7190ebb6ea6ba6b7a0707907cd98fab4", "is_disabled": 0, "fusion_lon": 0.0, "rental_uris": {"android": "https://dc.lft.to/lastmile_qr_scan", "ios": "https://dc.lft.to/lastmile_qr_scan"}, "lat": 38.921318166666666, "lon": -77.02142383333333, "fusion_lat": 0.0}, {"is_reserved": 0, "bike_id": "8d4b9782492a60a244fe978fd280a85f", "type": "electric_scooter", "name": "8d4b9782492a60a244fe978fd280a85f", "is_disabled": 0, "fusion_lon": 0.0, "rental_uris": {"android": "https://dc.lft.to/lastmile_qr_scan", "ios": "https://dc.lft.to/lastmile_qr_scan"}, "lat": 38.89806266666667, "lon": -77.0461615, "fusion_lat": 0.0}, {"is_reserved": 0, "bike_id": "f7b589cbbf7380050521bc99be9560d8", "type": "electric_scooter", "name": "f7b589cbbf7380050521bc99be9560d8", "is_disabled": 0, "fusion_lon": 0.0, "rental_uris": {"android": "https://dc.lft.to/lastmile_qr_scan", "ios": "https://dc.lft.to/lastmile_qr_scan"}, "lat": 38.944132833333335, "lon": -77.01904083333334, "fusion_lat": 0.0}, {"is_reserved": 0, "bike_id": "80f2e5e70956491034cff7887bc62c84", "type": "electric_scooter", "name": "80f2e5e70956491034cff7887bc62c84", "is_disabled": 0, "fusion_lon": 0.0, "rental_uris": {"android": "https://dc.lft.to/lastmile_qr_scan", "ios": "https://dc.lft.to/lastmile_qr_scan"}, "lat": 38.9206045, "lon": -77.04245116666667, "fusion_lat": 0.0}, {"is_reserved": 0, "bike_id": "5e7c0a1ab3bb4120993bb36b4c2c50d1", "type": "electric_scooter", "name": "5e7c0a1ab3bb4120993bb36b4c2c50d1", "is_disabled": 0, "fusion_lon": 0.0, "rental_uris": {"android": "https://dc.lft.to/lastmile_qr_scan", "ios": "https://dc.lft.to/lastmile_qr_scan"}, "lat": 38.875455333333335, "lon": -77.00618116666666, "fusion_lat": 0.0}, {"is_reserved": 0, "bike_id": "52f712683ae9ce95be7f8ecc2c425059", "type": "electric_scooter", "name": "52f712683ae9ce95be7f8ecc2c425059", "is_disabled": 0, "fusion_lon": 0.0, "rental_uris": {"android": "https://dc.lft.to/lastmile_qr_scan", "ios": "https://dc.lft.to/lastmile_qr_scan"}, "lat": 38.92551016666667, "lon": -77.03222733333334, "fusion_lat": 0.0}, {"is_reserved": 0, "bike_id": "bf7d4f3e8c6cd78df63d65740eb02155", "type": "electric_scooter", "name": "bf7d4f3e8c6cd78df63d65740eb02155", "is_disabled": 0, "fusion_lon": 0.0, "rental_uris": {"android": "https://dc.lft.to/lastmile_qr_scan", "ios": "https://dc.lft.to/lastmile_qr_scan"}, "lat": 38.8950175, "lon": -76.94875733333333, "fusion_lat": 0.0}, {"is_reserved": 0, "bike_id": "fea85115c4181bca436be00178ec37ea", "type": "electric_scooter", "name": "fea85115c4181bca436be00178ec37ea", "is_disabled": 0, "fusion_lon": 0.0, "rental_uris": {"android": "https://dc.lft.to/lastmile_qr_scan", "ios": "https://dc.lft.to/lastmile_qr_scan"}, "lat": 38.90714366666667, "lon": -76.98565716666667, "fusion_lat": 0.0}, {"is_reserved": 0, "bike_id": "3f48bf18b9bafadfde61a3782106c6ae", "type": "electric_scooter", "name": "3f48bf18b9bafadfde61a3782106c6ae", "is_disabled": 0, "fusion_lon": 0.0, "rental_uris": {"android": "https://dc.lft.to/lastmile_qr_scan", "ios": "https://dc.lft.to/lastmile_qr_scan"}, "lat": 38.923478, "lon": -77.05476483333334, "fusion_lat": 0.0}, {"is_reserved": 0, "bike_id": "e4894a595fe06ac8e59a9ad2a75d8e53", "type": "electric_scooter", "name": "e4894a595fe06ac8e59a9ad2a75d8e53", "is_disabled": 0, "fusion_lon": 0.0, "rental_uris": {"android": "https://dc.lft.to/lastmile_qr_scan", "ios": "https://dc.lft.to/lastmile_qr_scan"}, "lat": 38.89557933333333, "lon": -77.021549, "fusion_lat": 0.0}, {"is_reserved": 0, "bike_id": "963a8bd6daba5e535dfe8a6cd2f3eda2", "type": "electric_scooter", "name": "963a8bd6daba5e535dfe8a6cd2f3eda2", "is_disabled": 0, "fusion_lon": 0.0, "rental_uris": {"android": "https://dc.lft.to/lastmile_qr_scan", "ios": "https://dc.lft.to/lastmile_qr_scan"}, "lat": 38.920935666666665, "lon": -77.02512416666667, "fusion_lat": 0.0}, {"is_reserved": 0, "bike_id": "603a88bcd65ee8422533d0ec0bb120f3", "type": "electric_bike", "name": "603a88bcd65ee8422533d0ec0bb120f3", "is_disabled": 0, "fusion_lon": 0.0, "rental_uris": {"android": "https://dc.lft.to/lastmile_qr_scan", "ios": "https://dc.lft.to/lastmile_qr_scan"}, "lat": 38.967743666666664, "lon": -76.99653383333333, "fusion_lat": 0.0}, {"is_reserved": 0, "bike_id": "505b01a91e21cf113bb34154dd75f84a", "type": "electric_scooter", "name": "505b01a91e21cf113bb34154dd75f84a", "is_disabled": 0, "fusion_lon": 0.0, "rental_uris": {"android": "https://dc.lft.to/lastmile_qr_scan", "ios": "https://dc.lft.to/lastmile_qr_scan"}, "lat": 38.902124, "lon": -77.02192516666666, "fusion_lat": 0.0}, {"is_reserved": 0, "bike_id": "9267ff5d45412f1ff64b5b1141509d31", "type": "electric_bike", "name": "9267ff5d45412f1ff64b5b1141509d31", "is_disabled": 0, "fusion_lon": 0.0, "rental_uris": {"android": "https://dc.lft.to/lastmile_qr_scan", "ios": "https://dc.lft.to/lastmile_qr_scan"}, "lat": 38.98555833333333, "lon": -77.003943, "fusion_lat": 0.0}, {"is_reserved": 0, "bike_id": "edcc4f50cc841d32e7cf44c3c603de69", "type": "electric_scooter", "name": "edcc4f50cc841d32e7cf44c3c603de69", "is_disabled": 0, "fusion_lon": 0.0, "rental_uris": {"android": "https://dc.lft.to/lastmile_qr_scan", "ios": "https://dc.lft.to/lastmile_qr_scan"}, "lat": 38.89561366666667, "lon": -77.02947816666666, "fusion_lat": 0.0}, {"is_reserved": 0, "bike_id": "6361aa3c7a73dcc33641086d515a6af6", "type": "electric_scooter", "name": "6361aa3c7a73dcc33641086d515a6af6", "is_disabled": 0, "fusion_lon": 0.0, "rental_uris": {"android": "https://dc.lft.to/lastmile_qr_scan", "ios": "https://dc.lft.to/lastmile_qr_scan"}, "lat": 38.89875583333333, "lon": -76.931848, "fusion_lat": 0.0}, {"is_reserved": 0, "bike_id": "f4e23437800bb490b54ee2a5adb0b4b7", "type": "electric_scooter", "name": "f4e23437800bb490b54ee2a5adb0b4b7", "is_disabled": 0, "fusion_lon": 0.0, "rental_uris": {"android": "https://dc.lft.to/lastmile_qr_scan", "ios": "https://dc.lft.to/lastmile_qr_scan"}, "lat": 38.927915666666664, "lon": -77.0315155, "fusion_lat": 0.0}, {"is_reserved": 0, "bike_id": "a15a834ceba8b61927f12c33a4ff17d9", "type": "electric_scooter", "name": "a15a834ceba8b61927f12c33a4ff17d9", "is_disabled": 0, "fusion_lon": 0.0, "rental_uris": {"android": "https://dc.lft.to/lastmile_qr_scan", "ios": "https://dc.lft.to/lastmile_qr_scan"}, "lat": 38.916681, "lon": -77.02197333333334, "fusion_lat": 0.0}, {"is_reserved": 0, "bike_id": "4d68667344e409f4fd06097029e7efc0", "type": "electric_scooter", "name": "4d68667344e409f4fd06097029e7efc0", "is_disabled": 0, "fusion_lon": 0.0, "rental_uris": {"android": "https://dc.lft.to/lastmile_qr_scan", "ios": "https://dc.lft.to/lastmile_qr_scan"}, "lat": 38.926561, "lon": -77.02283466666667, "fusion_lat": 0.0}, {"is_reserved": 0, "bike_id": "6952a3ae73bdc170f4fc2496f7064070", "type": "electric_bike", "name": "6952a3ae73bdc170f4fc2496f7064070", "is_disabled": 0, "fusion_lon": 0.0, "rental_uris": {"android": "https://dc.lft.to/lastmile_qr_scan", "ios": "https://dc.lft.to/lastmile_qr_scan"}, "lat": 38.95879333333333, "lon": -77.01027033333334, "fusion_lat": 0.0}, {"is_reserved": 0, "bike_id": "18bb898e05248fd4eef45812bc785bb8", "type": "electric_scooter", "name": "18bb898e05248fd4eef45812bc785bb8", "is_disabled": 0, "fusion_lon": 0.0, "rental_uris": {"android": "https://dc.lft.to/lastmile_qr_scan", "ios": "https://dc.lft.to/lastmile_qr_scan"}, "lat": 38.90011766666667, "lon": -77.01131716666667, "fusion_lat": 0.0}, {"is_reserved": 0, "bike_id": "98c160a189161ed2a7c3b87fdc6fad3f", "type": "electric_scooter", "name": "98c160a189161ed2a7c3b87fdc6fad3f", "is_disabled": 0, "fusion_lon": 0.0, "rental_uris": {"android": "https://dc.lft.to/lastmile_qr_scan", "ios": "https://dc.lft.to/lastmile_qr_scan"}, "lat": 38.8724, "lon": -76.96814283333333, "fusion_lat": 0.0}, {"is_reserved": 0, "bike_id": "471fba126bcee60e6729f289541ff14f", "type": "electric_scooter", "name": "471fba126bcee60e6729f289541ff14f", "is_disabled": 0, "fusion_lon": 0.0, "rental_uris": {"android": "https://dc.lft.to/lastmile_qr_scan", "ios": "https://dc.lft.to/lastmile_qr_scan"}, "lat": 38.90272733333333, "lon": -77.01771016666666, "fusion_lat": 0.0}, {"is_reserved": 0, "bike_id": "bc5998e0b46b34ff446f111b1b973502", "type": "electric_scooter", "name": "bc5998e0b46b34ff446f111b1b973502", "is_disabled": 0, "fusion_lon": 0.0, "rental_uris": {"android": "https://dc.lft.to/lastmile_qr_scan", "ios": "https://dc.lft.to/lastmile_qr_scan"}, "lat": 38.914406666666665, "lon": -77.02302483333334, "fusion_lat": 0.0}, {"is_reserved": 0, "bike_id": "476310634a57dd3141bb35662c4e7648", "type": "electric_scooter", "name": "476310634a57dd3141bb35662c4e7648", "is_disabled": 0, "fusion_lon": 0.0, "rental_uris": {"android": "https://dc.lft.to/lastmile_qr_scan", "ios": "https://dc.lft.to/lastmile_qr_scan"}, "lat": 38.910646666666665, "lon": -77.0538355, "fusion_lat": 0.0}, {"is_reserved": 0, "bike_id": "193acc2865cb46b5697510aad48c23e6", "type": "electric_scooter", "name": "193acc2865cb46b5697510aad48c23e6", "is_disabled": 0, "fusion_lon": 0.0, "rental_uris": {"android": "https://dc.lft.to/lastmile_qr_scan", "ios": "https://dc.lft.to/lastmile_qr_scan"}, "lat": 38.906054833333336, "lon": -77.0211135, "fusion_lat": 0.0}, {"is_reserved": 0, "bike_id": "c4cbd10f5ea43e44be376546732852e2", "type": "electric_scooter", "name": "c4cbd10f5ea43e44be376546732852e2", "is_disabled": 0, "fusion_lon": 0.0, "rental_uris": {"android": "https://dc.lft.to/lastmile_qr_scan", "ios": "https://dc.lft.to/lastmile_qr_scan"}, "lat": 38.8988805, "lon": -77.039012, "fusion_lat": 0.0}, {"is_reserved": 0, "bike_id": "1de3deac621343d11a56dd054ad8c39e", "type": "electric_scooter", "name": "1de3deac621343d11a56dd054ad8c39e", "is_disabled": 0, "fusion_lon": 0.0, "rental_uris": {"android": "https://dc.lft.to/lastmile_qr_scan", "ios": "https://dc.lft.to/lastmile_qr_scan"}, "lat": 38.91707383333333, "lon": -77.03875716666667, "fusion_lat": 0.0}, {"is_reserved": 0, "bike_id": "cd663d74cb06872860356b70a0fa76b2", "type": "electric_scooter", "name": "cd663d74cb06872860356b70a0fa76b2", "is_disabled": 0, "fusion_lon": 0.0, "rental_uris": {"android": "https://dc.lft.to/lastmile_qr_scan", "ios": "https://dc.lft.to/lastmile_qr_scan"}, "lat": 38.932598, "lon": -77.032577, "fusion_lat": 0.0}, {"is_reserved": 0, "bike_id": "9449f61cea58df13dea2c4177e201bb4", "type": "electric_scooter", "name": "9449f61cea58df13dea2c4177e201bb4", "is_disabled": 0, "fusion_lon": 0.0, "rental_uris": {"android": "https://dc.lft.to/lastmile_qr_scan", "ios": "https://dc.lft.to/lastmile_qr_scan"}, "lat": 38.8848005, "lon": -77.03348283333334, "fusion_lat": 0.0}, {"is_reserved": 0, "bike_id": "702bc10a46390c5c9421c662dd1920cf", "type": "electric_scooter", "name": "702bc10a46390c5c9421c662dd1920cf", "is_disabled": 0, "fusion_lon": 0.0, "rental_uris": {"android": "https://dc.lft.to/lastmile_qr_scan", "ios": "https://dc.lft.to/lastmile_qr_scan"}, "lat": 38.93619483333333, "lon": -77.03274083333334, "fusion_lat": 0.0}, {"is_reserved": 0, "bike_id": "b49b5f8958b4231fb667ba69c4146870", "type": "electric_scooter", "name": "b49b5f8958b4231fb667ba69c4146870", "is_disabled": 0, "fusion_lon": 0.0, "rental_uris": {"android": "https://dc.lft.to/lastmile_qr_scan", "ios": "https://dc.lft.to/lastmile_qr_scan"}, "lat": 38.90143366666667, "lon": -77.0439645, "fusion_lat": 0.0}, {"is_reserved": 0, "bike_id": "cada81cd8e498a86b8cdc37de16f7681", "type": "electric_scooter", "name": "cada81cd8e498a86b8cdc37de16f7681", "is_disabled": 0, "fusion_lon": 0.0, "rental_uris": {"android": "https://dc.lft.to/lastmile_qr_scan", "ios": "https://dc.lft.to/lastmile_qr_scan"}, "lat": 38.9362885, "lon": -77.03658883333334, "fusion_lat": 0.0}, {"is_reserved": 0, "bike_id": "e3a3fd7ecd99278668d0931238a77b05", "type": "electric_scooter", "name": "e3a3fd7ecd99278668d0931238a77b05", "is_disabled": 0, "fusion_lon": 0.0, "rental_uris": {"android": "https://dc.lft.to/lastmile_qr_scan", "ios": "https://dc.lft.to/lastmile_qr_scan"}, "lat": 38.9028535, "lon": -77.01748116666667, "fusion_lat": 0.0}, {"is_reserved": 0, "bike_id": "be8add975e43bf839e5f268395e36b07", "type": "electric_scooter", "name": "be8add975e43bf839e5f268395e36b07", "is_disabled": 0, "fusion_lon": 0.0, "rental_uris": {"android": "https://dc.lft.to/lastmile_qr_scan", "ios": "https://dc.lft.to/lastmile_qr_scan"}, "lat": 38.88742116666667, "lon": -77.02127966666667, "fusion_lat": 0.0}, {"is_reserved": 0, "bike_id": "d68ea384b9ed49b902b28c7875a7839a", "type": "electric_scooter", "name": "d68ea384b9ed49b902b28c7875a7839a", "is_disabled": 0, "fusion_lon": 0.0, "rental_uris": {"android": "https://dc.lft.to/lastmile_qr_scan", "ios": "https://dc.lft.to/lastmile_qr_scan"}, "lat": 38.913281833333336, "lon": -77.04535966666667, "fusion_lat": 0.0}, {"is_reserved": 0, "bike_id": "d535bee54df8db0037a8745b6aea0283", "type": "electric_scooter", "name": "d535bee54df8db0037a8745b6aea0283", "is_disabled": 0, "fusion_lon": 0.0, "rental_uris": {"android": "https://dc.lft.to/lastmile_qr_scan", "ios": "https://dc.lft.to/lastmile_qr_scan"}, "lat": 38.9156725, "lon": -77.04612483333334, "fusion_lat": 0.0}, {"is_reserved": 0, "bike_id": "0b2cacf0125855dbaba12bf766202c63", "type": "electric_scooter", "name": "0b2cacf0125855dbaba12bf766202c63", "is_disabled": 0, "fusion_lon": 0.0, "rental_uris": {"android": "https://dc.lft.to/lastmile_qr_scan", "ios": "https://dc.lft.to/lastmile_qr_scan"}, "lat": 38.908945833333334, "lon": -77.00263633333333, "fusion_lat": 0.0}, {"is_reserved": 0, "bike_id": "3d0f37afd1fa2225be5c8095b30a04e0", "type": "electric_scooter", "name": "3d0f37afd1fa2225be5c8095b30a04e0", "is_disabled": 0, "fusion_lon": 0.0, "rental_uris": {"android": "https://dc.lft.to/lastmile_qr_scan", "ios": "https://dc.lft.to/lastmile_qr_scan"}, "lat": 38.91560233333333, "lon": -77.06795033333333, "fusion_lat": 0.0}, {"is_reserved": 0, "bike_id": "27f066934d61d47d8778f972dce69f66", "type": "electric_scooter", "name": "27f066934d61d47d8778f972dce69f66", "is_disabled": 0, "fusion_lon": 0.0, "rental_uris": {"android": "https://dc.lft.to/lastmile_qr_scan", "ios": "https://dc.lft.to/lastmile_qr_scan"}, "lat": 38.916662333333335, "lon": -77.0385085, "fusion_lat": 0.0}, {"is_reserved": 0, "bike_id": "f9b4ee2b294e033c6debe3b8a97bceb9", "type": "electric_scooter", "name": "f9b4ee2b294e033c6debe3b8a97bceb9", "is_disabled": 0, "fusion_lon": 0.0, "rental_uris": {"android": "https://dc.lft.to/lastmile_qr_scan", "ios": "https://dc.lft.to/lastmile_qr_scan"}, "lat": 38.911908, "lon": -77.0608395, "fusion_lat": 0.0}, {"is_reserved": 0, "bike_id": "1b2a59ff037cbb0f989554d611b26690", "type": "electric_scooter", "name": "1b2a59ff037cbb0f989554d611b26690", "is_disabled": 0, "fusion_lon": 0.0, "rental_uris": {"android": "https://dc.lft.to/lastmile_qr_scan", "ios": "https://dc.lft.to/lastmile_qr_scan"}, "lat": 38.941796, "lon": -77.03652566666666, "fusion_lat": 0.0}, {"is_reserved": 0, "bike_id": "4b7c1750086335fd70d5871e89c0128b", "type": "electric_scooter", "name": "4b7c1750086335fd70d5871e89c0128b", "is_disabled": 0, "fusion_lon": 0.0, "rental_uris": {"android": "https://dc.lft.to/lastmile_qr_scan", "ios": "https://dc.lft.to/lastmile_qr_scan"}, "lat": 38.927107166666666, "lon": -77.0209105, "fusion_lat": 0.0}, {"is_reserved": 0, "bike_id": "b6714fdab198b4dff36d01ef6fcc7ac2", "type": "electric_scooter", "name": "b6714fdab198b4dff36d01ef6fcc7ac2", "is_disabled": 0, "fusion_lon": 0.0, "rental_uris": {"android": "https://dc.lft.to/lastmile_qr_scan", "ios": "https://dc.lft.to/lastmile_qr_scan"}, "lat": 38.934415666666666, "lon": -77.03442083333333, "fusion_lat": 0.0}, {"is_reserved": 0, "bike_id": "e73da607b144768a1c7b853a7f2c0deb", "type": "electric_scooter", "name": "e73da607b144768a1c7b853a7f2c0deb", "is_disabled": 0, "fusion_lon": 0.0, "rental_uris": {"android": "https://dc.lft.to/lastmile_qr_scan", "ios": "https://dc.lft.to/lastmile_qr_scan"}, "lat": 38.935714833333336, "lon": -77.0335255, "fusion_lat": 0.0}, {"is_reserved": 0, "bike_id": "d8ece29280e3542b8d64e928d7c4d5a7", "type": "electric_scooter", "name": "d8ece29280e3542b8d64e928d7c4d5a7", "is_disabled": 0, "fusion_lon": 0.0, "rental_uris": {"android": "https://dc.lft.to/lastmile_qr_scan", "ios": "https://dc.lft.to/lastmile_qr_scan"}, "lat": 38.920705833333336, "lon": -77.04378633333333, "fusion_lat": 0.0}, {"is_reserved": 0, "bike_id": "64a06d55db852407da8214ef9ea85c25", "type": "electric_scooter", "name": "64a06d55db852407da8214ef9ea85c25", "is_disabled": 0, "fusion_lon": 0.0, "rental_uris": {"android": "https://dc.lft.to/lastmile_qr_scan", "ios": "https://dc.lft.to/lastmile_qr_scan"}, "lat": 38.92088433333333, "lon": -77.02516666666666, "fusion_lat": 0.0}, {"is_reserved": 0, "bike_id": "447302c7c34111d74c58388bc558ed4e", "type": "electric_scooter", "name": "447302c7c34111d74c58388bc558ed4e", "is_disabled": 0, "fusion_lon": 0.0, "rental_uris": {"android": "https://dc.lft.to/lastmile_qr_scan", "ios": "https://dc.lft.to/lastmile_qr_scan"}, "lat": 38.898275, "lon": -77.0461055, "fusion_lat": 0.0}, {"is_reserved": 0, "bike_id": "1161b9bb026b1b5c685584cd6aec89ef", "type": "electric_scooter", "name": "1161b9bb026b1b5c685584cd6aec89ef", "is_disabled": 0, "fusion_lon": 0.0, "rental_uris": {"android": "https://dc.lft.to/lastmile_qr_scan", "ios": "https://dc.lft.to/lastmile_qr_scan"}, "lat": 38.90975566666667, "lon": -77.00896066666667, "fusion_lat": 0.0}, {"is_reserved": 0, "bike_id": "20a849288b28f2a07a607c25fe77612d", "type": "electric_scooter", "name": "20a849288b28f2a07a607c25fe77612d", "is_disabled": 0, "fusion_lon": 0.0, "rental_uris": {"android": "https://dc.lft.to/lastmile_qr_scan", "ios": "https://dc.lft.to/lastmile_qr_scan"}, "lat": 38.880934833333335, "lon": -77.025878, "fusion_lat": 0.0}, {"is_reserved": 0, "bike_id": "7f6d5babab7e888c7ee1e760a366a7af", "type": "electric_scooter", "name": "7f6d5babab7e888c7ee1e760a366a7af", "is_disabled": 0, "fusion_lon": 0.0, "rental_uris": {"android": "https://dc.lft.to/lastmile_qr_scan", "ios": "https://dc.lft.to/lastmile_qr_scan"}, "lat": 38.91857983333333, "lon": -76.9609155, "fusion_lat": 0.0}, {"is_reserved": 0, "bike_id": "c4deed27646fe6483c2a549f37f071cd", "type": "electric_scooter", "name": "c4deed27646fe6483c2a549f37f071cd", "is_disabled": 0, "fusion_lon": 0.0, "rental_uris": {"android": "https://dc.lft.to/lastmile_qr_scan", "ios": "https://dc.lft.to/lastmile_qr_scan"}, "lat": 38.90276633333333, "lon": -77.01773566666667, "fusion_lat": 0.0}, {"is_reserved": 0, "bike_id": "30234809b2fb8e13b4cfbe550051ea45", "type": "electric_scooter", "name": "30234809b2fb8e13b4cfbe550051ea45", "is_disabled": 0, "fusion_lon": 0.0, "rental_uris": {"android": "https://dc.lft.to/lastmile_qr_scan", "ios": "https://dc.lft.to/lastmile_qr_scan"}, "lat": 38.899476666666665, "lon": -77.03226666666667, "fusion_lat": 0.0}, {"is_reserved": 0, "bike_id": "eaa364ef9634e11254a5ef2688484ea4", "type": "electric_scooter", "name": "eaa364ef9634e11254a5ef2688484ea4", "is_disabled": 0, "fusion_lon": 0.0, "rental_uris": {"android": "https://dc.lft.to/lastmile_qr_scan", "ios": "https://dc.lft.to/lastmile_qr_scan"}, "lat": 38.8969075, "lon": -77.04337866666667, "fusion_lat": 0.0}, {"is_reserved": 0, "bike_id": "8014e90524e2c266900bf70e61de4b51", "type": "electric_bike", "name": "8014e90524e2c266900bf70e61de4b51", "is_disabled": 0, "fusion_lon": 0.0, "rental_uris": {"android": "https://dc.lft.to/lastmile_qr_scan", "ios": "https://dc.lft.to/lastmile_qr_scan"}, "lat": 38.96559383333334, "lon": -77.028248, "fusion_lat": 0.0}, {"is_reserved": 0, "bike_id": "986e4445c33160d88090cf95a039dd44", "type": "electric_scooter", "name": "986e4445c33160d88090cf95a039dd44", "is_disabled": 0, "fusion_lon": 0.0, "rental_uris": {"android": "https://dc.lft.to/lastmile_qr_scan", "ios": "https://dc.lft.to/lastmile_qr_scan"}, "lat": 38.924262666666664, "lon": -77.042415, "fusion_lat": 0.0}, {"is_reserved": 0, "bike_id": "5bcedd3d7ee398803df4a7adba20cd58", "type": "electric_scooter", "name": "5bcedd3d7ee398803df4a7adba20cd58", "is_disabled": 0, "fusion_lon": 0.0, "rental_uris": {"android": "https://dc.lft.to/lastmile_qr_scan", "ios": "https://dc.lft.to/lastmile_qr_scan"}, "lat": 38.904595666666665, "lon": -77.04836066666667, "fusion_lat": 0.0}, {"is_reserved": 0, "bike_id": "464ec445f903865f7e73a1f8ac86a3ac", "type": "electric_bike", "name": "464ec445f903865f7e73a1f8ac86a3ac", "is_disabled": 0, "fusion_lon": 0.0, "rental_uris": {"android": "https://dc.lft.to/lastmile_qr_scan", "ios": "https://dc.lft.to/lastmile_qr_scan"}, "lat": 38.864905, "lon": -76.97748566666667, "fusion_lat": 0.0}, {"is_reserved": 0, "bike_id": "1dabc496c4f434b7a3bf5bbcbd90e6ca", "type": "electric_scooter", "name": "1dabc496c4f434b7a3bf5bbcbd90e6ca", "is_disabled": 0, "fusion_lon": 0.0, "rental_uris": {"android": "https://dc.lft.to/lastmile_qr_scan", "ios": "https://dc.lft.to/lastmile_qr_scan"}, "lat": 38.908087, "lon": -77.08397983333333, "fusion_lat": 0.0}, {"is_reserved": 0, "bike_id": "e69b530892ab7cb0c482939293b25af8", "type": "electric_scooter", "name": "e69b530892ab7cb0c482939293b25af8", "is_disabled": 0, "fusion_lon": 0.0, "rental_uris": {"android": "https://dc.lft.to/lastmile_qr_scan", "ios": "https://dc.lft.to/lastmile_qr_scan"}, "lat": 38.9130015, "lon": -77.01738983333334, "fusion_lat": 0.0}, {"is_reserved": 0, "bike_id": "4bf480fd8e4972b0604e02ec79969439", "type": "electric_scooter", "name": "4bf480fd8e4972b0604e02ec79969439", "is_disabled": 0, "fusion_lon": 0.0, "rental_uris": {"android": "https://dc.lft.to/lastmile_qr_scan", "ios": "https://dc.lft.to/lastmile_qr_scan"}, "lat": 38.956507, "lon": -77.01320733333333, "fusion_lat": 0.0}, {"is_reserved": 0, "bike_id": "231f1b8b92dc407cb5b75ce98f4435c7", "type": "electric_scooter", "name": "231f1b8b92dc407cb5b75ce98f4435c7", "is_disabled": 0, "fusion_lon": 0.0, "rental_uris": {"android": "https://dc.lft.to/lastmile_qr_scan", "ios": "https://dc.lft.to/lastmile_qr_scan"}, "lat": 38.902424, "lon": -76.98964383333333, "fusion_lat": 0.0}, {"is_reserved": 0, "bike_id": "cd63fd4edd556f079467e1ba55b95aee", "type": "electric_scooter", "name": "cd63fd4edd556f079467e1ba55b95aee", "is_disabled": 0, "fusion_lon": 0.0, "rental_uris": {"android": "https://dc.lft.to/lastmile_qr_scan", "ios": "https://dc.lft.to/lastmile_qr_scan"}, "lat": 38.886213, "lon": -77.01795033333333, "fusion_lat": 0.0}, {"is_reserved": 0, "bike_id": "3bddce7662d8eec267253b55b6bf5d5d", "type": "electric_scooter", "name": "3bddce7662d8eec267253b55b6bf5d5d", "is_disabled": 0, "fusion_lon": 0.0, "rental_uris": {"android": "https://dc.lft.to/lastmile_qr_scan", "ios": "https://dc.lft.to/lastmile_qr_scan"}, "lat": 38.9446245, "lon": -77.006575, "fusion_lat": 0.0}, {"is_reserved": 0, "bike_id": "24656a5321353fffc6cf3f6e8ac0163e", "type": "electric_scooter", "name": "24656a5321353fffc6cf3f6e8ac0163e", "is_disabled": 0, "fusion_lon": 0.0, "rental_uris": {"android": "https://dc.lft.to/lastmile_qr_scan", "ios": "https://dc.lft.to/lastmile_qr_scan"}, "lat": 38.901486166666665, "lon": -77.04130266666667, "fusion_lat": 0.0}, {"is_reserved": 0, "bike_id": "05c3d84187466044d11b698806c2ba09", "type": "electric_scooter", "name": "05c3d84187466044d11b698806c2ba09", "is_disabled": 0, "fusion_lon": 0.0, "rental_uris": {"android": "https://dc.lft.to/lastmile_qr_scan", "ios": "https://dc.lft.to/lastmile_qr_scan"}, "lat": 38.909775833333335, "lon": -77.04869933333333, "fusion_lat": 0.0}, {"is_reserved": 0, "bike_id": "0590d1f4be5508d1bfde389bacd45811", "type": "electric_scooter", "name": "0590d1f4be5508d1bfde389bacd45811", "is_disabled": 0, "fusion_lon": 0.0, "rental_uris": {"android": "https://dc.lft.to/lastmile_qr_scan", "ios": "https://dc.lft.to/lastmile_qr_scan"}, "lat": 38.89048566666666, "lon": -76.98980566666667, "fusion_lat": 0.0}, {"is_reserved": 0, "bike_id": "8a2788358cb887ce9cb61821f53377f2", "type": "electric_scooter", "name": "8a2788358cb887ce9cb61821f53377f2", "is_disabled": 0, "fusion_lon": 0.0, "rental_uris": {"android": "https://dc.lft.to/lastmile_qr_scan", "ios": "https://dc.lft.to/lastmile_qr_scan"}, "lat": 38.914184166666665, "lon": -77.01797166666667, "fusion_lat": 0.0}, {"is_reserved": 0, "bike_id": "93c31cc897d8173d6378fbe0c931814e", "type": "electric_scooter", "name": "93c31cc897d8173d6378fbe0c931814e", "is_disabled": 0, "fusion_lon": 0.0, "rental_uris": {"android": "https://dc.lft.to/lastmile_qr_scan", "ios": "https://dc.lft.to/lastmile_qr_scan"}, "lat": 38.909871, "lon": -77.064814, "fusion_lat": 0.0}, {"is_reserved": 0, "bike_id": "83a3a7a7b27cbdc60a8041b897d7e43c", "type": "electric_scooter", "name": "83a3a7a7b27cbdc60a8041b897d7e43c", "is_disabled": 0, "fusion_lon": 0.0, "rental_uris": {"android": "https://dc.lft.to/lastmile_qr_scan", "ios": "https://dc.lft.to/lastmile_qr_scan"}, "lat": 38.915854833333334, "lon": -76.98387933333333, "fusion_lat": 0.0}, {"is_reserved": 0, "bike_id": "a79a8d6eaa4245a78e96b9040dbd57e9", "type": "electric_bike", "name": "a79a8d6eaa4245a78e96b9040dbd57e9", "is_disabled": 0, "fusion_lon": 0.0, "rental_uris": {"android": "https://dc.lft.to/lastmile_qr_scan", "ios": "https://dc.lft.to/lastmile_qr_scan"}, "lat": 38.87579366666667, "lon": -77.23411533333334, "fusion_lat": 0.0}, {"is_reserved": 0, "bike_id": "70b4d3bfe4de6f3fe926ea5826faca0f", "type": "electric_scooter", "name": "70b4d3bfe4de6f3fe926ea5826faca0f", "is_disabled": 0, "fusion_lon": 0.0, "rental_uris": {"android": "https://dc.lft.to/lastmile_qr_scan", "ios": "https://dc.lft.to/lastmile_qr_scan"}, "lat": 38.9056865, "lon": -77.00128316666667, "fusion_lat": 0.0}, {"is_reserved": 0, "bike_id": "6d0d9ccc9dc1e821fa8b33d885e74b3d", "type": "electric_scooter", "name": "6d0d9ccc9dc1e821fa8b33d885e74b3d", "is_disabled": 0, "fusion_lon": 0.0, "rental_uris": {"android": "https://dc.lft.to/lastmile_qr_scan", "ios": "https://dc.lft.to/lastmile_qr_scan"}, "lat": 38.90980533333333, "lon": -77.008938, "fusion_lat": 0.0}, {"is_reserved": 0, "bike_id": "e9c5a09009c5f4e1a2fc0768e094e463", "type": "electric_scooter", "name": "e9c5a09009c5f4e1a2fc0768e094e463", "is_disabled": 0, "fusion_lon": 0.0, "rental_uris": {"android": "https://dc.lft.to/lastmile_qr_scan", "ios": "https://dc.lft.to/lastmile_qr_scan"}, "lat": 38.878822, "lon": -77.0004615, "fusion_lat": 0.0}, {"is_reserved": 0, "bike_id": "eaba8c80b146f03b6f10f6e22234b4ab", "type": "electric_scooter", "name": "eaba8c80b146f03b6f10f6e22234b4ab", "is_disabled": 0, "fusion_lon": 0.0, "rental_uris": {"android": "https://dc.lft.to/lastmile_qr_scan", "ios": "https://dc.lft.to/lastmile_qr_scan"}, "lat": 38.888611, "lon": -76.979063, "fusion_lat": 0.0}, {"is_reserved": 0, "bike_id": "2a5525546822890731939fb02c7db07b", "type": "electric_scooter", "name": "2a5525546822890731939fb02c7db07b", "is_disabled": 0, "fusion_lon": 0.0, "rental_uris": {"android": "https://dc.lft.to/lastmile_qr_scan", "ios": "https://dc.lft.to/lastmile_qr_scan"}, "lat": 38.918209833333336, "lon": -77.01210083333334, "fusion_lat": 0.0}, {"is_reserved": 0, "bike_id": "51eca9f02ac1230ba5f08edb6de12609", "type": "electric_scooter", "name": "51eca9f02ac1230ba5f08edb6de12609", "is_disabled": 0, "fusion_lon": 0.0, "rental_uris": {"android": "https://dc.lft.to/lastmile_qr_scan", "ios": "https://dc.lft.to/lastmile_qr_scan"}, "lat": 38.84721116666667, "lon": -76.96819583333334, "fusion_lat": 0.0}, {"is_reserved": 0, "bike_id": "aa758b4b17e901bf98a986af55e582b4", "type": "electric_scooter", "name": "aa758b4b17e901bf98a986af55e582b4", "is_disabled": 0, "fusion_lon": 0.0, "rental_uris": {"android": "https://dc.lft.to/lastmile_qr_scan", "ios": "https://dc.lft.to/lastmile_qr_scan"}, "lat": 38.90044833333333, "lon": -76.98824566666667, "fusion_lat": 0.0}, {"is_reserved": 0, "bike_id": "a0425e0b8084241c22a20cc64c49f8be", "type": "electric_scooter", "name": "a0425e0b8084241c22a20cc64c49f8be", "is_disabled": 0, "fusion_lon": 0.0, "rental_uris": {"android": "https://dc.lft.to/lastmile_qr_scan", "ios": "https://dc.lft.to/lastmile_qr_scan"}, "lat": 38.9078335, "lon": -77.06300033333333, "fusion_lat": 0.0}, {"is_reserved": 0, "bike_id": "b4a03d86837fc0b75902fcf7ce8af4d0", "type": "electric_scooter", "name": "b4a03d86837fc0b75902fcf7ce8af4d0", "is_disabled": 0, "fusion_lon": 0.0, "rental_uris": {"android": "https://dc.lft.to/lastmile_qr_scan", "ios": "https://dc.lft.to/lastmile_qr_scan"}, "lat": 38.90396783333333, "lon": -76.99045033333333, "fusion_lat": 0.0}, {"is_reserved": 0, "bike_id": "dd59a28054eba9f46cddaff037433a94", "type": "electric_scooter", "name": "dd59a28054eba9f46cddaff037433a94", "is_disabled": 0, "fusion_lon": 0.0, "rental_uris": {"android": "https://dc.lft.to/lastmile_qr_scan", "ios": "https://dc.lft.to/lastmile_qr_scan"}, "lat": 38.89216783333333, "lon": -77.02413566666667, "fusion_lat": 0.0}, {"is_reserved": 0, "bike_id": "664855b11719eb3662b2971b4a8a2052", "type": "electric_bike", "name": "664855b11719eb3662b2971b4a8a2052", "is_disabled": 0, "fusion_lon": 0.0, "rental_uris": {"android": "https://dc.lft.to/lastmile_qr_scan", "ios": "https://dc.lft.to/lastmile_qr_scan"}, "lat": 38.895575, "lon": -77.12727433333333, "fusion_lat": 0.0}, {"is_reserved": 0, "bike_id": "1b9c224680538fb0c2cb7faa8fceaaef", "type": "electric_scooter", "name": "1b9c224680538fb0c2cb7faa8fceaaef", "is_disabled": 0, "fusion_lon": 0.0, "rental_uris": {"android": "https://dc.lft.to/lastmile_qr_scan", "ios": "https://dc.lft.to/lastmile_qr_scan"}, "lat": 38.92252766666667, "lon": -77.04714816666667, "fusion_lat": 0.0}, {"is_reserved": 0, "bike_id": "3b7e2fdb068753eba7817d0c00639406", "type": "electric_scooter", "name": "3b7e2fdb068753eba7817d0c00639406", "is_disabled": 0, "fusion_lon": 0.0, "rental_uris": {"android": "https://dc.lft.to/lastmile_qr_scan", "ios": "https://dc.lft.to/lastmile_qr_scan"}, "lat": 38.924168, "lon": -77.01950016666666, "fusion_lat": 0.0}, {"is_reserved": 0, "bike_id": "c4ead9cfc28fa62036f1f473be6ee217", "type": "electric_scooter", "name": "c4ead9cfc28fa62036f1f473be6ee217", "is_disabled": 0, "fusion_lon": 0.0, "rental_uris": {"android": "https://dc.lft.to/lastmile_qr_scan", "ios": "https://dc.lft.to/lastmile_qr_scan"}, "lat": 38.9291175, "lon": -77.01872366666667, "fusion_lat": 0.0}, {"is_reserved": 0, "bike_id": "9072c2033f34388be218941b3992fe3e", "type": "electric_scooter", "name": "9072c2033f34388be218941b3992fe3e", "is_disabled": 0, "fusion_lon": 0.0, "rental_uris": {"android": "https://dc.lft.to/lastmile_qr_scan", "ios": "https://dc.lft.to/lastmile_qr_scan"}, "lat": 38.91910983333333, "lon": -77.04473433333334, "fusion_lat": 0.0}, {"is_reserved": 0, "bike_id": "9421313f75ebe0421fa605de792663f2", "type": "electric_scooter", "name": "9421313f75ebe0421fa605de792663f2", "is_disabled": 0, "fusion_lon": 0.0, "rental_uris": {"android": "https://dc.lft.to/lastmile_qr_scan", "ios": "https://dc.lft.to/lastmile_qr_scan"}, "lat": 38.924445, "lon": -77.02986733333333, "fusion_lat": 0.0}, {"is_reserved": 0, "bike_id": "a2e8b58fa9064abe198edf116307be94", "type": "electric_scooter", "name": "a2e8b58fa9064abe198edf116307be94", "is_disabled": 0, "fusion_lon": 0.0, "rental_uris": {"android": "https://dc.lft.to/lastmile_qr_scan", "ios": "https://dc.lft.to/lastmile_qr_scan"}, "lat": 38.94307033333333, "lon": -77.02950383333334, "fusion_lat": 0.0}, {"is_reserved": 0, "bike_id": "9f2af443f997d77a11ce14d230595e19", "type": "electric_scooter", "name": "9f2af443f997d77a11ce14d230595e19", "is_disabled": 0, "fusion_lon": 0.0, "rental_uris": {"android": "https://dc.lft.to/lastmile_qr_scan", "ios": "https://dc.lft.to/lastmile_qr_scan"}, "lat": 38.913320666666664, "lon": -77.0197905, "fusion_lat": 0.0}, {"is_reserved": 0, "bike_id": "ca5f3bf8e91c070cf77de13e7522bdc7", "type": "electric_scooter", "name": "ca5f3bf8e91c070cf77de13e7522bdc7", "is_disabled": 0, "fusion_lon": 0.0, "rental_uris": {"android": "https://dc.lft.to/lastmile_qr_scan", "ios": "https://dc.lft.to/lastmile_qr_scan"}, "lat": 38.95543683333333, "lon": -77.02781316666666, "fusion_lat": 0.0}, {"is_reserved": 0, "bike_id": "1687ee772a864e234439eeb4ba70ffaa", "type": "electric_scooter", "name": "1687ee772a864e234439eeb4ba70ffaa", "is_disabled": 0, "fusion_lon": 0.0, "rental_uris": {"android": "https://dc.lft.to/lastmile_qr_scan", "ios": "https://dc.lft.to/lastmile_qr_scan"}, "lat": 38.89838533333333, "lon": -77.049878, "fusion_lat": 0.0}, {"is_reserved": 0, "bike_id": "e81b00b6db801bf4aee7647f0fb31704", "type": "electric_scooter", "name": "e81b00b6db801bf4aee7647f0fb31704", "is_disabled": 0, "fusion_lon": 0.0, "rental_uris": {"android": "https://dc.lft.to/lastmile_qr_scan", "ios": "https://dc.lft.to/lastmile_qr_scan"}, "lat": 38.905173833333336, "lon": -77.06033833333333, "fusion_lat": 0.0}, {"is_reserved": 0, "bike_id": "c6292a57c5bab19d5f8e81d74c253ba5", "type": "electric_scooter", "name": "c6292a57c5bab19d5f8e81d74c253ba5", "is_disabled": 0, "fusion_lon": 0.0, "rental_uris": {"android": "https://dc.lft.to/lastmile_qr_scan", "ios": "https://dc.lft.to/lastmile_qr_scan"}, "lat": 38.922222166666664, "lon": -76.98370366666667, "fusion_lat": 0.0}, {"is_reserved": 0, "bike_id": "98a4ecdd7c86332ceb29d15dd0aa85cb", "type": "electric_scooter", "name": "98a4ecdd7c86332ceb29d15dd0aa85cb", "is_disabled": 0, "fusion_lon": 0.0, "rental_uris": {"android": "https://dc.lft.to/lastmile_qr_scan", "ios": "https://dc.lft.to/lastmile_qr_scan"}, "lat": 38.913643, "lon": -77.07228616666667, "fusion_lat": 0.0}, {"is_reserved": 0, "bike_id": "fa6a6943b4b776a33140f3f997b5e232", "type": "electric_scooter", "name": "fa6a6943b4b776a33140f3f997b5e232", "is_disabled": 0, "fusion_lon": 0.0, "rental_uris": {"android": "https://dc.lft.to/lastmile_qr_scan", "ios": "https://dc.lft.to/lastmile_qr_scan"}, "lat": 38.92368233333333, "lon": -77.02061633333334, "fusion_lat": 0.0}, {"is_reserved": 0, "bike_id": "f03f2a14ed1e11edf23c04826002b3d3", "type": "electric_scooter", "name": "f03f2a14ed1e11edf23c04826002b3d3", "is_disabled": 0, "fusion_lon": 0.0, "rental_uris": {"android": "https://dc.lft.to/lastmile_qr_scan", "ios": "https://dc.lft.to/lastmile_qr_scan"}, "lat": 38.92161616666667, "lon": -77.03462283333333, "fusion_lat": 0.0}, {"is_reserved": 0, "bike_id": "d6da8c10bd795fbd1d291070a07bd435", "type": "electric_bike", "name": "d6da8c10bd795fbd1d291070a07bd435", "is_disabled": 0, "fusion_lon": 0.0, "rental_uris": {"android": "https://dc.lft.to/lastmile_qr_scan", "ios": "https://dc.lft.to/lastmile_qr_scan"}, "lat": 38.819439, "lon": -77.002071, "fusion_lat": 0.0}, {"is_reserved": 0, "bike_id": "85c2ed902ce2b5baec6b7184e27c91ca", "type": "electric_scooter", "name": "85c2ed902ce2b5baec6b7184e27c91ca", "is_disabled": 0, "fusion_lon": 0.0, "rental_uris": {"android": "https://dc.lft.to/lastmile_qr_scan", "ios": "https://dc.lft.to/lastmile_qr_scan"}, "lat": 38.95186616666667, "lon": -77.02639516666666, "fusion_lat": 0.0}, {"is_reserved": 0, "bike_id": "86c1f4dfdb6d3e5cc73482a3a023a0ba", "type": "electric_bike", "name": "86c1f4dfdb6d3e5cc73482a3a023a0ba", "is_disabled": 0, "fusion_lon": 0.0, "rental_uris": {"android": "https://dc.lft.to/lastmile_qr_scan", "ios": "https://dc.lft.to/lastmile_qr_scan"}, "lat": 38.925367666666666, "lon": -77.0011375, "fusion_lat": 0.0}, {"is_reserved": 0, "bike_id": "cabcf96b5877a107c7bab868b41e8b2a", "type": "electric_bike", "name": "cabcf96b5877a107c7bab868b41e8b2a", "is_disabled": 0, "fusion_lon": 0.0, "rental_uris": {"android": "https://dc.lft.to/lastmile_qr_scan", "ios": "https://dc.lft.to/lastmile_qr_scan"}, "lat": 39.0229925, "lon": -77.0210845, "fusion_lat": 0.0}, {"is_reserved": 0, "bike_id": "497f2b4424f746619105024c06da4b9c", "type": "electric_bike", "name": "497f2b4424f746619105024c06da4b9c", "is_disabled": 0, "fusion_lon": 0.0, "rental_uris": {"android": "https://dc.lft.to/lastmile_qr_scan", "ios": "https://dc.lft.to/lastmile_qr_scan"}, "lat": 38.944742833333336, "lon": -76.98689266666666, "fusion_lat": 0.0}, {"is_reserved": 0, "bike_id": "7c37fd53751ff205ab8da5187053f769", "type": "electric_scooter", "name": "7c37fd53751ff205ab8da5187053f769", "is_disabled": 0, "fusion_lon": 0.0, "rental_uris": {"android": "https://dc.lft.to/lastmile_qr_scan", "ios": "https://dc.lft.to/lastmile_qr_scan"}, "lat": 38.895641, "lon": -77.02922316666667, "fusion_lat": 0.0}, {"is_reserved": 0, "bike_id": "7316b3cd9ea5633c269dc70c59454a48", "type": "electric_scooter", "name": "7316b3cd9ea5633c269dc70c59454a48", "is_disabled": 0, "fusion_lon": 0.0, "rental_uris": {"android": "https://dc.lft.to/lastmile_qr_scan", "ios": "https://dc.lft.to/lastmile_qr_scan"}, "lat": 38.925444166666665, "lon": -77.022755, "fusion_lat": 0.0}, {"is_reserved": 0, "bike_id": "64a5c0b695de3264b9c502e9ef108313", "type": "electric_bike", "name": "64a5c0b695de3264b9c502e9ef108313", "is_disabled": 0, "fusion_lon": 0.0, "rental_uris": {"android": "https://dc.lft.to/lastmile_qr_scan", "ios": "https://dc.lft.to/lastmile_qr_scan"}, "lat": 38.91862833333333, "lon": -76.9609185, "fusion_lat": 0.0}, {"is_reserved": 0, "bike_id": "97723e4f45bf93e74a62af64e125b712", "type": "electric_scooter", "name": "97723e4f45bf93e74a62af64e125b712", "is_disabled": 0, "fusion_lon": 0.0, "rental_uris": {"android": "https://dc.lft.to/lastmile_qr_scan", "ios": "https://dc.lft.to/lastmile_qr_scan"}, "lat": 38.90382833333334, "lon": -77.026254, "fusion_lat": 0.0}, {"is_reserved": 0, "bike_id": "d291730dbf55846744dd7d2df3132d0c", "type": "electric_bike", "name": "d291730dbf55846744dd7d2df3132d0c", "is_disabled": 0, "fusion_lon": 0.0, "rental_uris": {"android": "https://dc.lft.to/lastmile_qr_scan", "ios": "https://dc.lft.to/lastmile_qr_scan"}, "lat": 38.93597283333333, "lon": -77.02115566666667, "fusion_lat": 0.0}, {"is_reserved": 0, "bike_id": "927031fbadaac89866a2deb9b2239d74", "type": "electric_scooter", "name": "927031fbadaac89866a2deb9b2239d74", "is_disabled": 0, "fusion_lon": 0.0, "rental_uris": {"android": "https://dc.lft.to/lastmile_qr_scan", "ios": "https://dc.lft.to/lastmile_qr_scan"}, "lat": 38.91839733333333, "lon": -77.03190683333334, "fusion_lat": 0.0}, {"is_reserved": 0, "bike_id": "ce94fbf55ae5cc582e4d174c8cb7add2", "type": "electric_scooter", "name": "ce94fbf55ae5cc582e4d174c8cb7add2", "is_disabled": 0, "fusion_lon": 0.0, "rental_uris": {"android": "https://dc.lft.to/lastmile_qr_scan", "ios": "https://dc.lft.to/lastmile_qr_scan"}, "lat": 38.9297725, "lon": -77.03772083333334, "fusion_lat": 0.0}, {"is_reserved": 0, "bike_id": "094bac37b36a527efdc06f51c892cbdd", "type": "electric_scooter", "name": "094bac37b36a527efdc06f51c892cbdd", "is_disabled": 0, "fusion_lon": 0.0, "rental_uris": {"android": "https://dc.lft.to/lastmile_qr_scan", "ios": "https://dc.lft.to/lastmile_qr_scan"}, "lat": 38.8785685, "lon": -77.00889083333334, "fusion_lat": 0.0}, {"is_reserved": 0, "bike_id": "e8b8abf6a4ef60f74bb98d8947155910", "type": "electric_scooter", "name": "e8b8abf6a4ef60f74bb98d8947155910", "is_disabled": 0, "fusion_lon": 0.0, "rental_uris": {"android": "https://dc.lft.to/lastmile_qr_scan", "ios": "https://dc.lft.to/lastmile_qr_scan"}, "lat": 38.905617, "lon": -77.06283183333333, "fusion_lat": 0.0}, {"is_reserved": 0, "bike_id": "4e15ab70de6040e1c522982709259543", "type": "electric_scooter", "name": "4e15ab70de6040e1c522982709259543", "is_disabled": 0, "fusion_lon": 0.0, "rental_uris": {"android": "https://dc.lft.to/lastmile_qr_scan", "ios": "https://dc.lft.to/lastmile_qr_scan"}, "lat": 38.9204235, "lon": -77.0237145, "fusion_lat": 0.0}, {"is_reserved": 0, "bike_id": "efe5655e76fd867b7271099b53404a05", "type": "electric_scooter", "name": "efe5655e76fd867b7271099b53404a05", "is_disabled": 0, "fusion_lon": 0.0, "rental_uris": {"android": "https://dc.lft.to/lastmile_qr_scan", "ios": "https://dc.lft.to/lastmile_qr_scan"}, "lat": 38.923804, "lon": -77.029514, "fusion_lat": 0.0}, {"is_reserved": 0, "bike_id": "3a8fdd16a365779706af019f2b956f47", "type": "electric_scooter", "name": "3a8fdd16a365779706af019f2b956f47", "is_disabled": 0, "fusion_lon": 0.0, "rental_uris": {"android": "https://dc.lft.to/lastmile_qr_scan", "ios": "https://dc.lft.to/lastmile_qr_scan"}, "lat": 38.930722, "lon": -77.023317, "fusion_lat": 0.0}, {"is_reserved": 0, "bike_id": "ca2633a7d3667bab7994c45b32e6d3b3", "type": "electric_scooter", "name": "ca2633a7d3667bab7994c45b32e6d3b3", "is_disabled": 0, "fusion_lon": 0.0, "rental_uris": {"android": "https://dc.lft.to/lastmile_qr_scan", "ios": "https://dc.lft.to/lastmile_qr_scan"}, "lat": 38.930995833333334, "lon": -77.02480433333334, "fusion_lat": 0.0}, {"is_reserved": 0, "bike_id": "cfa541777f8fca3bc36a792fea60c95e", "type": "electric_scooter", "name": "cfa541777f8fca3bc36a792fea60c95e", "is_disabled": 0, "fusion_lon": 0.0, "rental_uris": {"android": "https://dc.lft.to/lastmile_qr_scan", "ios": "https://dc.lft.to/lastmile_qr_scan"}, "lat": 38.91413416666666, "lon": -77.0218135, "fusion_lat": 0.0}, {"is_reserved": 0, "bike_id": "bf4d4b6061919bdf49aeb6ee9c662de3", "type": "electric_scooter", "name": "bf4d4b6061919bdf49aeb6ee9c662de3", "is_disabled": 0, "fusion_lon": 0.0, "rental_uris": {"android": "https://dc.lft.to/lastmile_qr_scan", "ios": "https://dc.lft.to/lastmile_qr_scan"}, "lat": 38.9436315, "lon": -77.06102616666666, "fusion_lat": 0.0},