{"data": {"bikes": [{"bike_id": "e2d8c8d6d9e2dbeccf2b31a36d3f8067", "fusion_lon": 0.0, "name": "e2d8c8d6d9e2dbeccf2b31a36d3f8067", "lat": 38.885282833333335, "is_disabled": 0, "is_reserved": 0, "lon": -76.92918616666667, "type": "electric_scooter", "fusion_lat": 0.0, "rental_uris": {"android": "https://dc.lft.to/lastmile_qr_scan", "ios": "https://dc.lft.to/lastmile_qr_scan"}}, {"bike_id": "837af1194c8df9c3800fcf57d00aff42", "fusion_lon": 0.0, "name": "837af1194c8df9c3800fcf57d00aff42", "lat": 38.90535766666667, "is_disabled": 0, "is_reserved": 0, "lon": -77.03245333333334, "type": "electric_scooter", "fusion_lat": 0.0, "rental_uris": {"android": "https://dc.lft.to/lastmile_qr_scan", "ios": "https://dc.lft.to/lastmile_qr_scan"}}, {"bike_id": "78cdcb2462374fb6bf1395492275aa2d", "fusion_lon": 0.0, "name": "78cdcb2462374fb6bf1395492275aa2d", "lat": 38.892727666666666, "is_disabled": 0, "is_reserved": 0, "lon": -77.05030383333333, "type": "electric_scooter", "fusion_lat": 0.0, "rental_uris": {"android": "https://dc.lft.to/lastmile_qr_scan", "ios": "https://dc.lft.to/lastmile_qr_scan"}}, {"bike_id": "da18e39eb651d798857ba4e45bd55562", "fusion_lon": 0.0, "name": "da18e39eb651d798857ba4e45bd55562", "lat": 38.9079695, "is_disabled": 0, "is_reserved": 0, "lon": -77.04344366666666, "type": "electric_scooter", "fusion_lat": 0.0, "rental_uris": {"android": "https://dc.lft.to/lastmile_qr_scan", "ios": "https://dc.lft.to/lastmile_qr_scan"}}, {"bike_id": "575e772e6faefcba1cad23620b5dacfb", "fusion_lon": 0.0, "name": "575e772e6faefcba1cad23620b5dacfb", "lat": 38.917506333333336, "is_disabled": 0, "is_reserved": 0, "lon": -77.02796816666667, "type": "electric_scooter", "fusion_lat": 0.0, "rental_uris": {"android": "https://dc.lft.to/lastmile_qr_scan", "ios": "https://dc.lft.to/lastmile_qr_scan"}}, {"bike_id": "4ac3fa3c09e7d783d1b84ac48e3ba10e", "fusion_lon": 0.0, "name": "4ac3fa3c09e7d783d1b84ac48e3ba10e", "lat": 38.87581566666667, "is_disabled": 0, "is_reserved": 0, "lon": -77.2341505, "type": "electric_bike", "fusion_lat": 0.0, "rental_uris": {"android": "https://dc.lft.to/lastmile_qr_scan", "ios": "https://dc.lft.to/lastmile_qr_scan"}}, {"bike_id": "d869f71440c2b2f910c9dd0f82898f30", "fusion_lon": 0.0, "name": "d869f71440c2b2f910c9dd0f82898f30", "lat": 38.892367666666665, "is_disabled": 0, "is_reserved": 0, "lon": -77.02612633333334, "type": "electric_scooter", "fusion_lat": 0.0, "rental_uris": {"android": "https://dc.lft.to/lastmile_qr_scan", "ios": "https://dc.lft.to/lastmile_qr_scan"}}, {"bike_id": "e715db1dc80bd955d16df9fe0ea21326", "fusion_lon": 0.0, "name": "e715db1dc80bd955d16df9fe0ea21326", "lat": 38.8923765, "is_disabled": 0, "is_reserved": 0, "lon": -77.02610066666666, "type": "electric_scooter", "fusion_lat": 0.0, "rental_uris": {"android": "https://dc.lft.to/lastmile_qr_scan", "ios": "https://dc.lft.to/lastmile_qr_scan"}}, {"bike_id": "6edcb786a96eb4e3417f399c5bd65874", "fusion_lon": 0.0, "name": "6edcb786a96eb4e3417f399c5bd65874", "lat": 38.897311, "is_disabled": 0, "is_reserved": 0, "lon": -77.02758366666667, "type": "electric_scooter", "fusion_lat": 0.0, "rental_uris": {"android": "https://dc.lft.to/lastmile_qr_scan", "ios": "https://dc.lft.to/lastmile_qr_scan"}}, {"bike_id": "0285eee37f83f7bffbee53a109a2bdf8", "fusion_lon": 0.0, "name": "0285eee37f83f7bffbee53a109a2bdf8", "lat": 38.9324625, "is_disabled": 0, "is_reserved": 0, "lon": -77.03266433333333, "type": "electric_scooter", "fusion_lat": 0.0, "rental_uris": {"android": "https://dc.lft.to/lastmile_qr_scan", "ios": "https://dc.lft.to/lastmile_qr_scan"}}, {"bike_id": "8083d680ad098cf8d251f25f4befe420", "fusion_lon": 0.0, "name": "8083d680ad098cf8d251f25f4befe420", "lat": 38.92863966666667, "is_disabled": 0, "is_reserved": 0, "lon": -77.03237116666666, "type": "electric_scooter", "fusion_lat": 0.0, "rental_uris": {"android": "https://dc.lft.to/lastmile_qr_scan", "ios": "https://dc.lft.to/lastmile_qr_scan"}}, {"bike_id": "c63d718530c0f576c11fba0fa3ca1382", "fusion_lon": 0.0, "name": "c63d718530c0f576c11fba0fa3ca1382", "lat": 38.93000833333333, "is_disabled": 0, "is_reserved": 0, "lon": -77.03794883333333, "type": "electric_scooter", "fusion_lat": 0.0, "rental_uris": {"android": "https://dc.lft.to/lastmile_qr_scan", "ios": "https://dc.lft.to/lastmile_qr_scan"}}, {"bike_id": "809803d97c784de09f30da6f076876f2", "fusion_lon": 0.0, "name": "809803d97c784de09f30da6f076876f2", "lat": 38.916075, "is_disabled": 0, "is_reserved": 0, "lon": -77.03143016666667, "type": "electric_scooter", "fusion_lat": 0.0, "rental_uris": {"android": "https://dc.lft.to/lastmile_qr_scan", "ios": "https://dc.lft.to/lastmile_qr_scan"}}, {"bike_id": "738d6952730314186e309d99d0af23ab", "fusion_lon": 0.0, "name": "738d6952730314186e309d99d0af23ab", "lat": 38.895115833333335, "is_disabled": 0, "is_reserved": 0, "lon": -77.0230615, "type": "electric_scooter", "fusion_lat": 0.0, "rental_uris": {"android": "https://dc.lft.to/lastmile_qr_scan", "ios": "https://dc.lft.to/lastmile_qr_scan"}}, {"bike_id": "f1c835d189bb8b12e65d0e617ee0a8a0", "fusion_lon": 0.0, "name": "f1c835d189bb8b12e65d0e617ee0a8a0", "lat": 38.90731983333333, "is_disabled": 0, "is_reserved": 0, "lon": -77.02359266666667, "type": "electric_scooter", "fusion_lat": 0.0, "rental_uris": {"android": "https://dc.lft.to/lastmile_qr_scan", "ios": "https://dc.lft.to/lastmile_qr_scan"}}, {"bike_id": "1b838ccf8266a6ed9108d76c2ddde1e3", "fusion_lon": 0.0, "name": "1b838ccf8266a6ed9108d76c2ddde1e3", "lat": 38.898410166666665, "is_disabled": 0, "is_reserved": 0, "lon": -76.94630116666667, "type": "electric_scooter", "fusion_lat": 0.0, "rental_uris": {"android": "https://dc.lft.to/lastmile_qr_scan", "ios": "https://dc.lft.to/lastmile_qr_scan"}}, {"bike_id": "28a2904fd133b831a130bfb771943ff5", "fusion_lon": 0.0, "name": "28a2904fd133b831a130bfb771943ff5", "lat": 38.90520566666667, "is_disabled": 0, "is_reserved": 0, "lon": -77.04925916666667, "type": "electric_scooter", "fusion_lat": 0.0, "rental_uris": {"android": "https://dc.lft.to/lastmile_qr_scan", "ios": "https://dc.lft.to/lastmile_qr_scan"}}, {"bike_id": "cca20b2de85fa9b295bede9de9178d01", "fusion_lon": 0.0, "name": "cca20b2de85fa9b295bede9de9178d01", "lat": 38.915903, "is_disabled": 0, "is_reserved": 0, "lon": -77.0459765, "type": "electric_scooter", "fusion_lat": 0.0, "rental_uris": {"android": "https://dc.lft.to/lastmile_qr_scan", "ios": "https://dc.lft.to/lastmile_qr_scan"}}, {"bike_id": "dc678bc95ec19f1a5729ef1915df05bf", "fusion_lon": 0.0, "name": "dc678bc95ec19f1a5729ef1915df05bf", "lat": 38.906442, "is_disabled": 0, "is_reserved": 0, "lon": -77.04155, "type": "electric_scooter", "fusion_lat": 0.0, "rental_uris": {"android": "https://dc.lft.to/lastmile_qr_scan", "ios": "https://dc.lft.to/lastmile_qr_scan"}}, {"bike_id": "076a169f67a8f6444ef1bf66854ff63d", "fusion_lon": 0.0, "name": "076a169f67a8f6444ef1bf66854ff63d", "lat": 38.887661666666666, "is_disabled": 0, "is_reserved": 0, "lon": -76.97748266666666, "type": "electric_scooter", "fusion_lat": 0.0, "rental_uris": {"android": "https://dc.lft.to/lastmile_qr_scan", "ios": "https://dc.lft.to/lastmile_qr_scan"}}, {"bike_id": "b6b934461093456742100c7daeaeb783", "fusion_lon": 0.0, "name": "b6b934461093456742100c7daeaeb783", "lat": 38.88648833333333, "is_disabled": 0, "is_reserved": 0, "lon": -77.028232, "type": "electric_scooter", "fusion_lat": 0.0, "rental_uris": {"android": "https://dc.lft.to/lastmile_qr_scan", "ios": "https://dc.lft.to/lastmile_qr_scan"}}, {"bike_id": "282073858d717d60c08546a6a5a7217d", "fusion_lon": 0.0, "name": "282073858d717d60c08546a6a5a7217d", "lat": 38.904321, "is_disabled": 0, "is_reserved": 0, "lon": -77.04357983333334, "type": "electric_scooter", "fusion_lat": 0.0, "rental_uris": {"android": "https://dc.lft.to/lastmile_qr_scan", "ios": "https://dc.lft.to/lastmile_qr_scan"}}, {"bike_id": "44d204af04117fdc33fd28780c44800a", "fusion_lon": 0.0, "name": "44d204af04117fdc33fd28780c44800a", "lat": 38.984608333333334, "is_disabled": 0, "is_reserved": 0, "lon": -76.97049933333334, "type": "electric_bike", "fusion_lat": 0.0, "rental_uris": {"android": "https://dc.lft.to/lastmile_qr_scan", "ios": "https://dc.lft.to/lastmile_qr_scan"}}, {"bike_id": "3e52f1319082446da3cf990eeb8a56ed", "fusion_lon": 0.0, "name": "3e52f1319082446da3cf990eeb8a56ed", "lat": 38.910721333333335, "is_disabled": 0, "is_reserved": 0, "lon": -76.98529566666667, "type": "electric_scooter", "fusion_lat": 0.0, "rental_uris": {"android": "https://dc.lft.to/lastmile_qr_scan", "ios": "https://dc.lft.to/lastmile_qr_scan"}}, {"bike_id": "dc1123a12bd02a6bb14340c762e74c44", "fusion_lon": 0.0, "name": "dc1123a12bd02a6bb14340c762e74c44", "lat": 38.8913575, "is_disabled": 0, "is_reserved": 0, "lon": -76.99090683333333, "type": "electric_scooter", "fusion_lat": 0.0, "rental_uris": {"android": "https://dc.lft.to/lastmile_qr_scan", "ios": "https://dc.lft.to/lastmile_qr_scan"}}, {"bike_id": "afd54ddd4afd3fbfa5526ef819b7ffa3", "fusion_lon": 0.0, "name": "afd54ddd4afd3fbfa5526ef819b7ffa3", "lat": 38.85523033333333, "is_disabled": 0, "is_reserved": 0, "lon": -76.98434, "type": "electric_bike", "fusion_lat": 0.0, "rental_uris": {"android": "https://dc.lft.to/lastmile_qr_scan", "ios": "https://dc.lft.to/lastmile_qr_scan"}}, {"bike_id": "8e7211b93747112335e71c5fe85e8fbe", "fusion_lon": 0.0, "name": "8e7211b93747112335e71c5fe85e8fbe", "lat": 38.9310075, "is_disabled": 0, "is_reserved": 0, "lon": -77.02478883333333, "type": "electric_scooter", "fusion_lat": 0.0, "rental_uris": {"android": "https://dc.lft.to/lastmile_qr_scan", "ios": "https://dc.lft.to/lastmile_qr_scan"}}, {"bike_id": "21241e0e0c5c021084b3dd46a5709d5c", "fusion_lon": 0.0, "name": "21241e0e0c5c021084b3dd46a5709d5c", "lat": 38.92489833333333, "is_disabled": 0, "is_reserved": 0, "lon": -77.05112483333333, "type": "electric_scooter", "fusion_lat": 0.0, "rental_uris": {"android": "https://dc.lft.to/lastmile_qr_scan", "ios": "https://dc.lft.to/lastmile_qr_scan"}}, {"bike_id": "92bb5b8070cb6c4368c962bb2226bb66", "fusion_lon": 0.0, "name": "92bb5b8070cb6c4368c962bb2226bb66", "lat": 38.912255333333334, "is_disabled": 0, "is_reserved": 0, "lon": -77.07687333333334, "type": "electric_scooter", "fusion_lat": 0.0, "rental_uris": {"android": "https://dc.lft.to/lastmile_qr_scan", "ios": "https://dc.lft.to/lastmile_qr_scan"}}, {"bike_id": "e88c1b5d22d5ecdca138a978c89b2c22", "fusion_lon": 0.0, "name": "e88c1b5d22d5ecdca138a978c89b2c22", "lat": 38.91821216666666, "is_disabled": 0, "is_reserved": 0, "lon": -77.04169583333334, "type": "electric_scooter", "fusion_lat": 0.0, "rental_uris": {"android": "https://dc.lft.to/lastmile_qr_scan", "ios": "https://dc.lft.to/lastmile_qr_scan"}}, {"bike_id": "3ccc33000f268a8f9eb61feb26cdf86b", "fusion_lon": 0.0, "name": "3ccc33000f268a8f9eb61feb26cdf86b", "lat": 38.8990595, "is_disabled": 0, "is_reserved": 0, "lon": -77.0392945, "type": "electric_scooter", "fusion_lat": 0.0, "rental_uris": {"android": "https://dc.lft.to/lastmile_qr_scan", "ios": "https://dc.lft.to/lastmile_qr_scan"}}, {"bike_id": "d15a7e34d72c35c4b30b888e4f7ffd24", "fusion_lon": 0.0, "name": "d15a7e34d72c35c4b30b888e4f7ffd24", "lat": 38.91298116666667, "is_disabled": 0, "is_reserved": 0, "lon": -77.04545266666666, "type": "electric_scooter", "fusion_lat": 0.0, "rental_uris": {"android": "https://dc.lft.to/lastmile_qr_scan", "ios": "https://dc.lft.to/lastmile_qr_scan"}}, {"bike_id": "29b5f4c74d4ffea40045d6bf00aed21a", "fusion_lon": 0.0, "name": "29b5f4c74d4ffea40045d6bf00aed21a", "lat": 38.932528, "is_disabled": 0, "is_reserved": 0, "lon": -77.03102133333333, "type": "electric_scooter", "fusion_lat": 0.0, "rental_uris": {"android": "https://dc.lft.to/lastmile_qr_scan", "ios": "https://dc.lft.to/lastmile_qr_scan"}}, {"bike_id": "1a6d4c9360746e7570811aa4ffda4055", "fusion_lon": 0.0, "name": "1a6d4c9360746e7570811aa4ffda4055", "lat": 38.90838383333333, "is_disabled": 0, "is_reserved": 0, "lon": -76.99184516666666, "type": "electric_scooter", "fusion_lat": 0.0, "rental_uris": {"android": "https://dc.lft.to/lastmile_qr_scan", "ios": "https://dc.lft.to/lastmile_qr_scan"}}, {"bike_id": "7d1f2cf452dbd0dc6161d568ed31eb47", "fusion_lon": 0.0, "name": "7d1f2cf452dbd0dc6161d568ed31eb47", "lat": 38.87886566666667, "is_disabled": 0, "is_reserved": 0, "lon": -77.00133233333334, "type": "electric_scooter", "fusion_lat": 0.0, "rental_uris": {"android": "https://dc.lft.to/lastmile_qr_scan", "ios": "https://dc.lft.to/lastmile_qr_scan"}}, {"bike_id": "797168cd66f15bfaed418dbc4b8ede43", "fusion_lon": 0.0, "name": "797168cd66f15bfaed418dbc4b8ede43", "lat": 38.904486166666665, "is_disabled": 0, "is_reserved": 0, "lon": -76.97423083333334, "type": "electric_scooter", "fusion_lat": 0.0, "rental_uris": {"android": "https://dc.lft.to/lastmile_qr_scan", "ios": "https://dc.lft.to/lastmile_qr_scan"}}, {"bike_id": "143f0b15043cd3a512f6639b17fcf612", "fusion_lon": 0.0, "name": "143f0b15043cd3a512f6639b17fcf612", "lat": 38.896085666666664, "is_disabled": 0, "is_reserved": 0, "lon": -76.9927615, "type": "electric_scooter", "fusion_lat": 0.0, "rental_uris": {"android": "https://dc.lft.to/lastmile_qr_scan", "ios": "https://dc.lft.to/lastmile_qr_scan"}}, {"bike_id": "7ee9432e559d1b01047f43fd739e8cec", "fusion_lon": 0.0, "name": "7ee9432e559d1b01047f43fd739e8cec", "lat": 38.919896, "is_disabled": 0, "is_reserved": 0, "lon": -77.02380133333334, "type": "electric_scooter", "fusion_lat": 0.0, "rental_uris": {"android": "https://dc.lft.to/lastmile_qr_scan", "ios": "https://dc.lft.to/lastmile_qr_scan"}}, {"bike_id": "6f7f1abba8e99fa72405be77f3986a36", "fusion_lon": 0.0, "name": "6f7f1abba8e99fa72405be77f3986a36", "lat": 38.90146566666667, "is_disabled": 0, "is_reserved": 0, "lon": -77.00916966666666, "type": "electric_scooter", "fusion_lat": 0.0, "rental_uris": {"android": "https://dc.lft.to/lastmile_qr_scan", "ios": "https://dc.lft.to/lastmile_qr_scan"}}, {"bike_id": "10a17ff69be7a82f341a1836d1deeb5d", "fusion_lon": 0.0, "name": "10a17ff69be7a82f341a1836d1deeb5d", "lat": 38.926105666666665, "is_disabled": 0, "is_reserved": 0, "lon": -77.0215705, "type": "electric_scooter", "fusion_lat": 0.0, "rental_uris": {"android": "https://dc.lft.to/lastmile_qr_scan", "ios": "https://dc.lft.to/lastmile_qr_scan"}}, {"bike_id": "c67e6d83776e86f57182716bbb4e739a", "fusion_lon": 0.0, "name": "c67e6d83776e86f57182716bbb4e739a", "lat": 38.928651333333335, "is_disabled": 0, "is_reserved": 0, "lon": -77.03287266666666, "type": "electric_scooter", "fusion_lat": 0.0, "rental_uris": {"android": "https://dc.lft.to/lastmile_qr_scan", "ios": "https://dc.lft.to/lastmile_qr_scan"}}, {"bike_id": "9163df1575c09b3b5aab722efa369d0b", "fusion_lon": 0.0, "name": "9163df1575c09b3b5aab722efa369d0b", "lat": 38.904096333333335, "is_disabled": 0, "is_reserved": 0, "lon": -76.992777, "type": "electric_scooter", "fusion_lat": 0.0, "rental_uris": {"android": "https://dc.lft.to/lastmile_qr_scan", "ios": "https://dc.lft.to/lastmile_qr_scan"}}, {"bike_id": "e8d47143e5321d8bb37768bdf07c66e2", "fusion_lon": 0.0, "name": "e8d47143e5321d8bb37768bdf07c66e2", "lat": 38.908308166666664, "is_disabled": 0, "is_reserved": 0, "lon": -76.99961, "type": "electric_scooter", "fusion_lat": 0.0, "rental_uris": {"android": "https://dc.lft.to/lastmile_qr_scan", "ios": "https://dc.lft.to/lastmile_qr_scan"}}, {"bike_id": "86d0b5037d6644cc63941c93db087c3f", "fusion_lon": 0.0, "name": "86d0b5037d6644cc63941c93db087c3f", "lat": 38.8922585, "is_disabled": 0, "is_reserved": 0, "lon": -77.04375033333334, "type": "electric_scooter", "fusion_lat": 0.0, "rental_uris": {"android": "https://dc.lft.to/lastmile_qr_scan", "ios": "https://dc.lft.to/lastmile_qr_scan"}}, {"bike_id": "bcb5d95a9f397aba3769171f18764f97", "fusion_lon": 0.0, "name": "bcb5d95a9f397aba3769171f18764f97", "lat": 38.892071, "is_disabled": 0, "is_reserved": 0, "lon": -76.99708116666666, "type": "electric_scooter", "fusion_lat": 0.0, "rental_uris": {"android": "https://dc.lft.to/lastmile_qr_scan", "ios": "https://dc.lft.to/lastmile_qr_scan"}}, {"bike_id": "2762c5bb5018d34f6c35f261b29944b2", "fusion_lon": 0.0, "name": "2762c5bb5018d34f6c35f261b29944b2", "lat": 38.936030833333334, "is_disabled": 0, "is_reserved": 0, "lon": -77.05855683333333, "type": "electric_scooter", "fusion_lat": 0.0, "rental_uris": {"android": "https://dc.lft.to/lastmile_qr_scan", "ios": "https://dc.lft.to/lastmile_qr_scan"}}, {"bike_id": "643f000c5cb908d827d94c28af97c227", "fusion_lon": 0.0, "name": "643f000c5cb908d827d94c28af97c227", "lat": 38.89784616666667, "is_disabled": 0, "is_reserved": 0, "lon": -76.93112416666666, "type": "electric_scooter", "fusion_lat": 0.0, "rental_uris": {"android": "https://dc.lft.to/lastmile_qr_scan", "ios": "https://dc.lft.to/lastmile_qr_scan"}}, {"bike_id": "42d2e45f02255c17c0918fe14de85269", "fusion_lon": 0.0, "name": "42d2e45f02255c17c0918fe14de85269", "lat": 38.86503833333333, "is_disabled": 0, "is_reserved": 0, "lon": -76.99, "type": "electric_scooter", "fusion_lat": 0.0, "rental_uris": {"android": "https://dc.lft.to/lastmile_qr_scan", "ios": "https://dc.lft.to/lastmile_qr_scan"}}, {"bike_id": "5cfcdc794b88a60f4b33f2e5fb772755", "fusion_lon": 0.0, "name": "5cfcdc794b88a60f4b33f2e5fb772755", "lat": 38.90264783333333, "is_disabled": 0, "is_reserved": 0, "lon": -77.03530116666667, "type": "electric_scooter", "fusion_lat": 0.0, "rental_uris": {"android": "https://dc.lft.to/lastmile_qr_scan", "ios": "https://dc.lft.to/lastmile_qr_scan"}}, {"bike_id": "87b762f88d647d39f71f14eaeb98a819", "fusion_lon": 0.0, "name": "87b762f88d647d39f71f14eaeb98a819", "lat": 38.915555166666664, "is_disabled": 0, "is_reserved": 0, "lon": -77.02350133333333, "type": "electric_scooter", "fusion_lat": 0.0, "rental_uris": {"android": "https://dc.lft.to/lastmile_qr_scan", "ios": "https://dc.lft.to/lastmile_qr_scan"}}, {"bike_id": "e820756af6f978d3b4604899350a938e", "fusion_lon": 0.0, "name": "e820756af6f978d3b4604899350a938e", "lat": 38.85899716666667, "is_disabled": 0, "is_reserved": 0, "lon": -77.095563, "type": "electric_bike", "fusion_lat": 0.0, "rental_uris": {"android": "https://dc.lft.to/lastmile_qr_scan", "ios": "https://dc.lft.to/lastmile_qr_scan"}}, {"bike_id": "893ce768b41b9154f4371eef85da6993", "fusion_lon": 0.0, "name": "893ce768b41b9154f4371eef85da6993", "lat": 38.907856, "is_disabled": 0, "is_reserved": 0, "lon": -77.00023933333334, "type": "electric_scooter", "fusion_lat": 0.0, "rental_uris": {"android": "https://dc.lft.to/lastmile_qr_scan", "ios": "https://dc.lft.to/lastmile_qr_scan"}}, {"bike_id": "4a4355fbf3d42e75aeca2ec5db8db06b", "fusion_lon": 0.0, "name": "4a4355fbf3d42e75aeca2ec5db8db06b", "lat": 38.89224083333333, "is_disabled": 0, "is_reserved": 0, "lon": -77.03338083333334, "type": "electric_scooter", "fusion_lat": 0.0, "rental_uris": {"android": "https://dc.lft.to/lastmile_qr_scan", "ios": "https://dc.lft.to/lastmile_qr_scan"}}, {"bike_id": "353f2ab3306bab9672afd9c5760abf7f", "fusion_lon": 0.0, "name": "353f2ab3306bab9672afd9c5760abf7f", "lat": 38.901582833333336, "is_disabled": 0, "is_reserved": 0, "lon": -77.0134775, "type": "electric_scooter", "fusion_lat": 0.0, "rental_uris": {"android": "https://dc.lft.to/lastmile_qr_scan", "ios": "https://dc.lft.to/lastmile_qr_scan"}}, {"bike_id": "54542d3a153ff8f763a9468587657645", "fusion_lon": 0.0, "name": "54542d3a153ff8f763a9468587657645", "lat": 38.8951885, "is_disabled": 0, "is_reserved": 0, "lon": -77.00211983333334, "type": "electric_scooter", "fusion_lat": 0.0, "rental_uris": {"android": "https://dc.lft.to/lastmile_qr_scan", "ios": "https://dc.lft.to/lastmile_qr_scan"}}, {"bike_id": "1c15b43853820c29cce4c39cb29da7f6", "fusion_lon": 0.0, "name": "1c15b43853820c29cce4c39cb29da7f6", "lat": 38.900307, "is_disabled": 0, "is_reserved": 0, "lon": -77.01173633333333, "type": "electric_scooter", "fusion_lat": 0.0, "rental_uris": {"android": "https://dc.lft.to/lastmile_qr_scan", "ios": "https://dc.lft.to/lastmile_qr_scan"}}, {"bike_id": "fef08a61a92299f276b3dfcb74db5972", "fusion_lon": 0.0, "name": "fef08a61a92299f276b3dfcb74db5972", "lat": 38.91341766666667, "is_disabled": 0, "is_reserved": 0, "lon": -77.03172666666667, "type": "electric_scooter", "fusion_lat": 0.0, "rental_uris": {"android": "https://dc.lft.to/lastmile_qr_scan", "ios": "https://dc.lft.to/lastmile_qr_scan"}}, {"bike_id": "5cdca5d6727ca667bf1264fcc5dc52e4", "fusion_lon": 0.0, "name": "5cdca5d6727ca667bf1264fcc5dc52e4", "lat": 38.91987316666667, "is_disabled": 0, "is_reserved": 0, "lon": -77.02373133333333, "type": "electric_scooter", "fusion_lat": 0.0, "rental_uris": {"android": "https://dc.lft.to/lastmile_qr_scan", "ios": "https://dc.lft.to/lastmile_qr_scan"}}, {"bike_id": "46c2d47cfa6476ad6fdf353994f3cbbf", "fusion_lon": 0.0, "name": "46c2d47cfa6476ad6fdf353994f3cbbf", "lat": 38.85773066666667, "is_disabled": 0, "is_reserved": 0, "lon": -76.9875185, "type": "electric_bike", "fusion_lat": 0.0, "rental_uris": {"android": "https://dc.lft.to/lastmile_qr_scan", "ios": "https://dc.lft.to/lastmile_qr_scan"}}, {"bike_id": "1f460664271bdd611b16fbaf47365bd3", "fusion_lon": 0.0, "name": "1f460664271bdd611b16fbaf47365bd3", "lat": 38.917106, "is_disabled": 0, "is_reserved": 0, "lon": -77.03143366666667, "type": "electric_scooter", "fusion_lat": 0.0, "rental_uris": {"android": "https://dc.lft.to/lastmile_qr_scan", "ios": "https://dc.lft.to/lastmile_qr_scan"}}, {"bike_id": "bc9f73b5e559984c8a0fc2cf7b60552e", "fusion_lon": 0.0, "name": "bc9f73b5e559984c8a0fc2cf7b60552e", "lat": 38.879882, "is_disabled": 0, "is_reserved": 0, "lon": -77.02407116666667, "type": "electric_scooter", "fusion_lat": 0.0, "rental_uris": {"android": "https://dc.lft.to/lastmile_qr_scan", "ios": "https://dc.lft.to/lastmile_qr_scan"}}, {"bike_id": "bd763b9c59337f1da94e87397b593f8d", "fusion_lon": 0.0, "name": "bd763b9c59337f1da94e87397b593f8d", "lat": 38.85796883333333, "is_disabled": 0, "is_reserved": 0, "lon": -76.98907066666666, "type": "electric_scooter", "fusion_lat": 0.0, "rental_uris": {"android": "https://dc.lft.to/lastmile_qr_scan", "ios": "https://dc.lft.to/lastmile_qr_scan"}}, {"bike_id": "d1f8468794da19c41eccc7692fae2f49", "fusion_lon": 0.0, "name": "d1f8468794da19c41eccc7692fae2f49", "lat": 38.92880533333334, "is_disabled": 0, "is_reserved": 0, "lon": -77.0136665, "type": "electric_scooter", "fusion_lat": 0.0, "rental_uris": {"android": "https://dc.lft.to/lastmile_qr_scan", "ios": "https://dc.lft.to/lastmile_qr_scan"}}, {"bike_id": "ee3bb6ded514801f4c1d34ea81e85c2a", "fusion_lon": 0.0, "name": "ee3bb6ded514801f4c1d34ea81e85c2a", "lat": 38.939523333333334, "is_disabled": 0, "is_reserved": 0, "lon": -77.08593866666666, "type": "electric_scooter", "fusion_lat": 0.0, "rental_uris": {"android": "https://dc.lft.to/lastmile_qr_scan", "ios": "https://dc.lft.to/lastmile_qr_scan"}}, {"bike_id": "2c8aff6fae24e610d12a8a131dc87bd7", "fusion_lon": 0.0, "name": "2c8aff6fae24e610d12a8a131dc87bd7", "lat": 38.903044, "is_disabled": 0, "is_reserved": 0, "lon": -77.03385666666667, "type": "electric_scooter", "fusion_lat": 0.0, "rental_uris": {"android": "https://dc.lft.to/lastmile_qr_scan", "ios": "https://dc.lft.to/lastmile_qr_scan"}}, {"bike_id": "658eca53682d9f444870ca1bca581ca9", "fusion_lon": 0.0, "name": "658eca53682d9f444870ca1bca581ca9", "lat": 38.94432666666667, "is_disabled": 0, "is_reserved": 0, "lon": -77.02603266666667, "type": "electric_bike", "fusion_lat": 0.0, "rental_uris": {"android": "https://dc.lft.to/lastmile_qr_scan", "ios": "https://dc.lft.to/lastmile_qr_scan"}}, {"bike_id": "0730c44348faaac563af224a8fe29217", "fusion_lon": 0.0, "name": "0730c44348faaac563af224a8fe29217", "lat": 38.905008333333335, "is_disabled": 0, "is_reserved": 0, "lon": -77.000989, "type": "electric_scooter", "fusion_lat": 0.0, "rental_uris": {"android": "https://dc.lft.to/lastmile_qr_scan", "ios": "https://dc.lft.to/lastmile_qr_scan"}}, {"bike_id": "b3852402310dc716e6f07b58407f8402", "fusion_lon": 0.0, "name": "b3852402310dc716e6f07b58407f8402", "lat": 38.79857333333333, "is_disabled": 0, "is_reserved": 0, "lon": -77.0630705, "type": "electric_bike", "fusion_lat": 0.0, "rental_uris": {"android": "https://dc.lft.to/lastmile_qr_scan", "ios": "https://dc.lft.to/lastmile_qr_scan"}}, {"bike_id": "c8cb96bf37e975321c97516cb12494e8", "fusion_lon": 0.0, "name": "c8cb96bf37e975321c97516cb12494e8", "lat": 38.887309333333334, "is_disabled": 0, "is_reserved": 0, "lon": -77.02834033333333, "type": "electric_scooter", "fusion_lat": 0.0, "rental_uris": {"android": "https://dc.lft.to/lastmile_qr_scan", "ios": "https://dc.lft.to/lastmile_qr_scan"}}, {"bike_id": "70f4a81706e5efa89d4b2d3d7978bad2", "fusion_lon": 0.0, "name": "70f4a81706e5efa89d4b2d3d7978bad2", "lat": 38.92219216666667, "is_disabled": 0, "is_reserved": 0, "lon": -77.04241983333333, "type": "electric_scooter", "fusion_lat": 0.0, "rental_uris": {"android": "https://dc.lft.to/lastmile_qr_scan", "ios": "https://dc.lft.to/lastmile_qr_scan"}}, {"bike_id": "903299dc7cd548f0ae9b6a1ca31ad880", "fusion_lon": 0.0, "name": "903299dc7cd548f0ae9b6a1ca31ad880", "lat": 38.910733666666665, "is_disabled": 0, "is_reserved": 0, "lon": -77.030319, "type": "electric_scooter", "fusion_lat": 0.0, "rental_uris": {"android": "https://dc.lft.to/lastmile_qr_scan", "ios": "https://dc.lft.to/lastmile_qr_scan"}}, {"bike_id": "b1914e59790ca140afa70f6a529ab0ed", "fusion_lon": 0.0, "name": "b1914e59790ca140afa70f6a529ab0ed", "lat": 38.93587683333333, "is_disabled": 0, "is_reserved": 0, "lon": -77.02855266666667, "type": "electric_scooter", "fusion_lat": 0.0, "rental_uris": {"android": "https://dc.lft.to/lastmile_qr_scan", "ios": "https://dc.lft.to/lastmile_qr_scan"}}, {"bike_id": "c885ae19372a72ceea036afd57696d89", "fusion_lon": 0.0, "name": "c885ae19372a72ceea036afd57696d89", "lat": 38.927166, "is_disabled": 0, "is_reserved": 0, "lon": -77.020874, "type": "electric_scooter", "fusion_lat": 0.0, "rental_uris": {"android": "https://dc.lft.to/lastmile_qr_scan", "ios": "https://dc.lft.to/lastmile_qr_scan"}}, {"bike_id": "d56ac5ec14f040e86769d56c12b1960b", "fusion_lon": 0.0, "name": "d56ac5ec14f040e86769d56c12b1960b", "lat": 38.895301333333336, "is_disabled": 0, "is_reserved": 0, "lon": -76.94889516666667, "type": "electric_scooter", "fusion_lat": 0.0, "rental_uris": {"android": "https://dc.lft.to/lastmile_qr_scan", "ios": "https://dc.lft.to/lastmile_qr_scan"}}, {"bike_id": "7a0ceebf03cae9a8d5822aa3a8a79f84", "fusion_lon": 0.0, "name": "7a0ceebf03cae9a8d5822aa3a8a79f84", "lat": 38.9013585, "is_disabled": 0, "is_reserved": 0, "lon": -77.04439666666667, "type": "electric_scooter", "fusion_lat": 0.0, "rental_uris": {"android": "https://dc.lft.to/lastmile_qr_scan", "ios": "https://dc.lft.to/lastmile_qr_scan"}}, {"bike_id": "76a161af0caef1cb2a4aaf036289522f", "fusion_lon": 0.0, "name": "76a161af0caef1cb2a4aaf036289522f", "lat": 38.94753516666667, "is_disabled": 0, "is_reserved": 0, "lon": -77.0072135, "type": "electric_scooter", "fusion_lat": 0.0, "rental_uris": {"android": "https://dc.lft.to/lastmile_qr_scan", "ios": "https://dc.lft.to/lastmile_qr_scan"}}, {"bike_id": "8b48333f32e635175faa751c2936f7b7", "fusion_lon": 0.0, "name": "8b48333f32e635175faa751c2936f7b7", "lat": 38.923448666666665, "is_disabled": 0, "is_reserved": 0, "lon": -77.05118883333333, "type": "electric_scooter", "fusion_lat": 0.0, "rental_uris": {"android": "https://dc.lft.to/lastmile_qr_scan", "ios": "https://dc.lft.to/lastmile_qr_scan"}}, {"bike_id": "597389ebcaf5ac578204499292bf62a1", "fusion_lon": 0.0, "name": "597389ebcaf5ac578204499292bf62a1", "lat": 38.900965166666666, "is_disabled": 0, "is_reserved": 0, "lon": -77.02723816666666, "type": "electric_scooter", "fusion_lat": 0.0, "rental_uris": {"android": "https://dc.lft.to/lastmile_qr_scan", "ios": "https://dc.lft.to/lastmile_qr_scan"}}, {"bike_id": "4e295d1fb71ee9304ded91afa9d7b8f4", "fusion_lon": 0.0, "name": "4e295d1fb71ee9304ded91afa9d7b8f4", "lat": 38.907420333333334, "is_disabled": 0, "is_reserved": 0, "lon": -77.04338933333334, "type": "electric_scooter", "fusion_lat": 0.0, "rental_uris": {"android": "https://dc.lft.to/lastmile_qr_scan", "ios": "https://dc.lft.to/lastmile_qr_scan"}}, {"bike_id": "3766bb9004e60433040a63829f52d749", "fusion_lon": 0.0, "name": "3766bb9004e60433040a63829f52d749", "lat": 38.90045166666667, "is_disabled": 0, "is_reserved": 0, "lon": -77.04345416666666, "type": "electric_scooter", "fusion_lat": 0.0, "rental_uris": {"android": "https://dc.lft.to/lastmile_qr_scan", "ios": "https://dc.lft.to/lastmile_qr_scan"}}, {"bike_id": "1d2879ca50258fdc67123042311979b2", "fusion_lon": 0.0, "name": "1d2879ca50258fdc67123042311979b2", "lat": 38.908638, "is_disabled": 0, "is_reserved": 0, "lon": -77.012909, "type": "electric_scooter", "fusion_lat": 0.0, "rental_uris": {"android": "https://dc.lft.to/lastmile_qr_scan", "ios": "https://dc.lft.to/lastmile_qr_scan"}}, {"bike_id": "af5b48646d97d92be7486138404d992a", "fusion_lon": 0.0, "name": "af5b48646d97d92be7486138404d992a", "lat": 38.902459, "is_disabled": 0, "is_reserved": 0, "lon": -77.033418, "type": "electric_scooter", "fusion_lat": 0.0, "rental_uris": {"android": "https://dc.lft.to/lastmile_qr_scan", "ios": "https://dc.lft.to/lastmile_qr_scan"}}, {"bike_id": "d8930714dbc0bd58ee1efac3fb86e525", "fusion_lon": 0.0, "name": "d8930714dbc0bd58ee1efac3fb86e525", "lat": 38.926133, "is_disabled": 0, "is_reserved": 0, "lon": -77.02215516666666, "type": "electric_scooter", "fusion_lat": 0.0, "rental_uris": {"android": "https://dc.lft.to/lastmile_qr_scan", "ios": "https://dc.lft.to/lastmile_qr_scan"}}, {"bike_id": "78f383a3d91c5e0d3885df0ffac9c2f7", "fusion_lon": 0.0, "name": "78f383a3d91c5e0d3885df0ffac9c2f7", "lat": 38.9186535, "is_disabled": 0, "is_reserved": 0, "lon": -77.04759483333333, "type": "electric_scooter", "fusion_lat": 0.0, "rental_uris": {"android": "https://dc.lft.to/lastmile_qr_scan", "ios": "https://dc.lft.to/lastmile_qr_scan"}}, {"bike_id": "30c238ed74596719e71a64837dba1499", "fusion_lon": 0.0, "name": "30c238ed74596719e71a64837dba1499", "lat": 38.91742133333333, "is_disabled": 0, "is_reserved": 0, "lon": -77.03194433333333, "type": "electric_scooter", "fusion_lat": 0.0, "rental_uris": {"android": "https://dc.lft.to/lastmile_qr_scan", "ios": "https://dc.lft.to/lastmile_qr_scan"}}, {"bike_id": "9e71a0c0f4b514dbc6719f8a70597ad1", "fusion_lon": 0.0, "name": "9e71a0c0f4b514dbc6719f8a70597ad1", "lat": 38.867255, "is_disabled": 0, "is_reserved": 0, "lon": -76.98698233333333, "type": "electric_scooter", "fusion_lat": 0.0, "rental_uris": {"android": "https://dc.lft.to/lastmile_qr_scan", "ios": "https://dc.lft.to/lastmile_qr_scan"}}, {"bike_id": "8c8e9fb142c26df4b6a9cd34936ad0d1", "fusion_lon": 0.0, "name": "8c8e9fb142c26df4b6a9cd34936ad0d1", "lat": 38.884881666666665, "is_disabled": 0, "is_reserved": 0, "lon": -77.00713766666667, "type": "electric_scooter", "fusion_lat": 0.0, "rental_uris": {"android": "https://dc.lft.to/lastmile_qr_scan", "ios": "https://dc.lft.to/lastmile_qr_scan"}}, {"bike_id": "cac49e96fb95b308c296232dc0c0cf8c", "fusion_lon": 0.0, "name": "cac49e96fb95b308c296232dc0c0cf8c", "lat": 38.90805316666667, "is_disabled": 0, "is_reserved": 0, "lon": -77.03857266666667, "type": "electric_scooter", "fusion_lat": 0.0, "rental_uris": {"android": "https://dc.lft.to/lastmile_qr_scan", "ios": "https://dc.lft.to/lastmile_qr_scan"}}, {"bike_id": "164196ac364419ec478351e1eb16fd9e", "fusion_lon": 0.0, "name": "164196ac364419ec478351e1eb16fd9e", "lat": 38.9164065, "is_disabled": 0, "is_reserved": 0, "lon": -77.04784066666667, "type": "electric_scooter", "fusion_lat": 0.0, "rental_uris": {"android": "https://dc.lft.to/lastmile_qr_scan", "ios": "https://dc.lft.to/lastmile_qr_scan"}}, {"bike_id": "59ccde917997d04876a4c486f8b2c4eb", "fusion_lon": 0.0, "name": "59ccde917997d04876a4c486f8b2c4eb", "lat": 38.89917116666667, "is_disabled": 0, "is_reserved": 0, "lon": -77.0330005, "type": "electric_scooter", "fusion_lat": 0.0, "rental_uris": {"android": "https://dc.lft.to/lastmile_qr_scan", "ios": "https://dc.lft.to/lastmile_qr_scan"}}, {"bike_id": "a8955edaaba08f5453c92b67f975c940", "fusion_lon": 0.0, "name": "a8955edaaba08f5453c92b67f975c940", "lat": 38.921031, "is_disabled": 0, "is_reserved": 0, "lon": -77.01314916666666, "type": "electric_scooter", "fusion_lat": 0.0, "rental_uris": {"android": "https://dc.lft.to/lastmile_qr_scan", "ios": "https://dc.lft.to/lastmile_qr_scan"}}, {"bike_id": "b8509440ae40a937d76bf520cf51ed2f", "fusion_lon": 0.0, "name": "b8509440ae40a937d76bf520cf51ed2f", "lat": 38.895149833333335, "is_disabled": 0, "is_reserved": 0, "lon": -77.0218865, "type": "electric_scooter", "fusion_lat": 0.0, "rental_uris": {"android": "https://dc.lft.to/lastmile_qr_scan", "ios": "https://dc.lft.to/lastmile_qr_scan"}}, {"bike_id": "1720dcdba8583fb468b5cb1fc1bfa0c2", "fusion_lon": 0.0, "name": "1720dcdba8583fb468b5cb1fc1bfa0c2", "lat": 38.91703, "is_disabled": 0, "is_reserved": 0, "lon": -77.03473516666666, "type": "electric_scooter", "fusion_lat": 0.0, "rental_uris": {"android": "https://dc.lft.to/lastmile_qr_scan", "ios": "https://dc.lft.to/lastmile_qr_scan"}}, {"bike_id": "19d1c92cfc862cd0e6ef1f0a10338db2", "fusion_lon": 0.0, "name": "19d1c92cfc862cd0e6ef1f0a10338db2", "lat": 38.921244, "is_disabled": 0, "is_reserved": 0, "lon": -77.04389283333333, "type": "electric_scooter", "fusion_lat": 0.0, "rental_uris": {"android": "https://dc.lft.to/lastmile_qr_scan", "ios": "https://dc.lft.to/lastmile_qr_scan"}}, {"bike_id": "c6643b8511525823a1278601ef548f5f", "fusion_lon": 0.0, "name": "c6643b8511525823a1278601ef548f5f", "lat": 38.884622, "is_disabled": 0, "is_reserved": 0, "lon": -76.949744, "type": "electric_scooter", "fusion_lat": 0.0, "rental_uris": {"android": "https://dc.lft.to/lastmile_qr_scan", "ios": "https://dc.lft.to/lastmile_qr_scan"}}, {"bike_id": "8cb85d1b84d0bce97e20c1385c5d2817", "fusion_lon": 0.0, "name": "8cb85d1b84d0bce97e20c1385c5d2817", "lat": 38.936714, "is_disabled": 0, "is_reserved": 0, "lon": -77.03590416666667, "type": "electric_scooter", "fusion_lat": 0.0, "rental_uris": {"android": "https://dc.lft.to/lastmile_qr_scan", "ios": "https://dc.lft.to/lastmile_qr_scan"}}, {"bike_id": "b2a033d817454dc0918cea3201fad24d", "fusion_lon": 0.0, "name": "b2a033d817454dc0918cea3201fad24d", "lat": 38.902534333333335, "is_disabled": 0, "is_reserved": 0, "lon": -77.0457955, "type": "electric_scooter", "fusion_lat": 0.0, "rental_uris": {"android": "https://dc.lft.to/lastmile_qr_scan", "ios": "https://dc.lft.to/lastmile_qr_scan"}}, {"bike_id": "a5fe2786c0c509a000af9c063142e436", "fusion_lon": 0.0, "name": "a5fe2786c0c509a000af9c063142e436", "lat": 38.883293, "is_disabled": 0, "is_reserved": 0, "lon": -77.01772416666667, "type": "electric_scooter", "fusion_lat": 0.0, "rental_uris": {"android": "https://dc.lft.to/lastmile_qr_scan", "ios": "https://dc.lft.to/lastmile_qr_scan"}}, {"bike_id": "6c6e9ccfaad2ebda7d9f214846c880be", "fusion_lon": 0.0, "name": "6c6e9ccfaad2ebda7d9f214846c880be", "lat": 38.884259166666666, "is_disabled": 0, "is_reserved": 0, "lon": -77.03053133333333, "type": "electric_scooter", "fusion_lat": 0.0, "rental_uris": {"android": "https://dc.lft.to/lastmile_qr_scan", "ios": "https://dc.lft.to/lastmile_qr_scan"}}, {"bike_id": "af27c33f321a7d5a2022a95a52740d3d", "fusion_lon": 0.0, "name": "af27c33f321a7d5a2022a95a52740d3d", "lat": 38.9318525, "is_disabled": 0, "is_reserved": 0, "lon": -77.04299016666667, "type": "electric_scooter", "fusion_lat": 0.0, "rental_uris": {"android": "https://dc.lft.to/lastmile_qr_scan", "ios": "https://dc.lft.to/lastmile_qr_scan"}}, {"bike_id": "d867400df26808be214fb36a8af22bc2", "fusion_lon": 0.0, "name": "d867400df26808be214fb36a8af22bc2", "lat": 38.935823, "is_disabled": 0, "is_reserved": 0, "lon": -77.03808933333333, "type": "electric_scooter", "fusion_lat": 0.0, "rental_uris": {"android": "https://dc.lft.to/lastmile_qr_scan", "ios": "https://dc.lft.to/lastmile_qr_scan"}}, {"bike_id": "b5bfb7feb5ea687283a02e49c76ec258", "fusion_lon": 0.0, "name": "b5bfb7feb5ea687283a02e49c76ec258", "lat": 38.911160833333334, "is_disabled": 0, "is_reserved": 0, "lon": -77.02207466666667, "type": "electric_scooter", "fusion_lat": 0.0, "rental_uris": {"android": "https://dc.lft.to/lastmile_qr_scan", "ios": "https://dc.lft.to/lastmile_qr_scan"}}, {"bike_id": "95ef065a362d8b00d9a2a15bb18b05fd", "fusion_lon": 0.0, "name": "95ef065a362d8b00d9a2a15bb18b05fd", "lat": 38.90397083333333, "is_disabled": 0, "is_reserved": 0, "lon": -76.9846615, "type": "electric_scooter", "fusion_lat": 0.0, "rental_uris": {"android": "https://dc.lft.to/lastmile_qr_scan", "ios": "https://dc.lft.to/lastmile_qr_scan"}}, {"bike_id": "ac0f4a6e17103cc92e6c3e27998970fc", "fusion_lon": 0.0, "name": "ac0f4a6e17103cc92e6c3e27998970fc", "lat": 38.887095333333335, "is_disabled": 0, "is_reserved": 0, "lon": -77.02207133333333, "type": "electric_scooter", "fusion_lat": 0.0, "rental_uris": {"android": "https://dc.lft.to/lastmile_qr_scan", "ios": "https://dc.lft.to/lastmile_qr_scan"}}, {"bike_id": "313c41b6163999b89db760e944d90b59", "fusion_lon": 0.0, "name": "313c41b6163999b89db760e944d90b59", "lat": 38.91708716666667, "is_disabled": 0, "is_reserved": 0, "lon": -77.03229166666667, "type": "electric_scooter", "fusion_lat": 0.0, "rental_uris": {"android": "https://dc.lft.to/lastmile_qr_scan", "ios": "https://dc.lft.to/lastmile_qr_scan"}}, {"bike_id": "fe187dd4fc8099a3f2fee935cd5914bc", "fusion_lon": 0.0, "name": "fe187dd4fc8099a3f2fee935cd5914bc", "lat": 38.92316433333333, "is_disabled": 0, "is_reserved": 0, "lon": -77.0437695, "type": "electric_scooter", "fusion_lat": 0.0, "rental_uris": {"android": "https://dc.lft.to/lastmile_qr_scan", "ios": "https://dc.lft.to/lastmile_qr_scan"}}, {"bike_id": "50752340bbb3ec203d33ac4c774efd2c", "fusion_lon": 0.0, "name": "50752340bbb3ec203d33ac4c774efd2c", "lat": 38.9072235, "is_disabled": 0, "is_reserved": 0, "lon": -77.0013535, "type": "electric_scooter", "fusion_lat": 0.0, "rental_uris": {"android": "https://dc.lft.to/lastmile_qr_scan", "ios": "https://dc.lft.to/lastmile_qr_scan"}}, {"bike_id": "793e8eea6eb3861db567a9b2e87cba2a", "fusion_lon": 0.0, "name": "793e8eea6eb3861db567a9b2e87cba2a", "lat": 38.90432883333333, "is_disabled": 0, "is_reserved": 0, "lon": -77.043499, "type": "electric_scooter", "fusion_lat": 0.0, "rental_uris": {"android": "https://dc.lft.to/lastmile_qr_scan", "ios": "https://dc.lft.to/lastmile_qr_scan"}}, {"bike_id": "51bf76383b85c74f1fa797ac49c9de1c", "fusion_lon": 0.0, "name": "51bf76383b85c74f1fa797ac49c9de1c", "lat": 38.91988116666667, "is_disabled": 0, "is_reserved": 0, "lon": -76.9730735, "type": "electric_scooter", "fusion_lat": 0.0, "rental_uris": {"android": "https://dc.lft.to/lastmile_qr_scan", "ios": "https://dc.lft.to/lastmile_qr_scan"}}, {"bike_id": "e51d9ac0cc7d0047beccd30ad0ee1d32", "fusion_lon": 0.0, "name": "e51d9ac0cc7d0047beccd30ad0ee1d32", "lat": 38.88180966666667, "is_disabled": 0, "is_reserved": 0, "lon": -76.95899283333333, "type": "electric_scooter", "fusion_lat": 0.0, "rental_uris": {"android": "https://dc.lft.to/lastmile_qr_scan", "ios": "https://dc.lft.to/lastmile_qr_scan"}}, {"bike_id": "65c6567ae3fa7e7b52a47ed0a6380ddd", "fusion_lon": 0.0, "name": "65c6567ae3fa7e7b52a47ed0a6380ddd", "lat": 38.91686516666667, "is_disabled": 0, "is_reserved": 0, "lon": -77.02957933333333, "type": "electric_scooter", "fusion_lat": 0.0, "rental_uris": {"android": "https://dc.lft.to/lastmile_qr_scan", "ios": "https://dc.lft.to/lastmile_qr_scan"}}, {"bike_id": "04af91143599212b6b7de0998ba1ee49", "fusion_lon": 0.0, "name": "04af91143599212b6b7de0998ba1ee49", "lat": 38.90463833333333, "is_disabled": 0, "is_reserved": 0, "lon": -77.06526, "type": "electric_scooter", "fusion_lat": 0.0, "rental_uris": {"android": "https://dc.lft.to/lastmile_qr_scan", "ios": "https://dc.lft.to/lastmile_qr_scan"}}, {"bike_id": "ab7cd3f9473c22f3c67f05bf063bea9e", "fusion_lon": 0.0, "name": "ab7cd3f9473c22f3c67f05bf063bea9e", "lat": 38.94051133333333, "is_disabled": 0, "is_reserved": 0, "lon": -77.02977783333333, "type": "electric_scooter", "fusion_lat": 0.0, "rental_uris": {"android": "https://dc.lft.to/lastmile_qr_scan", "ios": "https://dc.lft.to/lastmile_qr_scan"}}, {"bike_id": "653832e97c76d5f5881ac15be153a3bf", "fusion_lon": 0.0, "name": "653832e97c76d5f5881ac15be153a3bf", "lat": 38.909562, "is_disabled": 0, "is_reserved": 0, "lon": -77.033457, "type": "electric_scooter", "fusion_lat": 0.0, "rental_uris": {"android": "https://dc.lft.to/lastmile_qr_scan", "ios": "https://dc.lft.to/lastmile_qr_scan"}}, {"bike_id": "d4cdd112281c04388c61bbb6245672df", "fusion_lon": 0.0, "name": "d4cdd112281c04388c61bbb6245672df", "lat": 38.903031166666665, "is_disabled": 0, "is_reserved": 0, "lon": -76.9765365, "type": "electric_bike", "fusion_lat": 0.0, "rental_uris": {"android": "https://dc.lft.to/lastmile_qr_scan", "ios": "https://dc.lft.to/lastmile_qr_scan"}}, {"bike_id": "b2a90633261d079d8002500ad72566cf", "fusion_lon": 0.0, "name": "b2a90633261d079d8002500ad72566cf", "lat": 38.94244583333333, "is_disabled": 0, "is_reserved": 0, "lon": -77.02168316666666, "type": "electric_scooter", "fusion_lat": 0.0, "rental_uris": {"android": "https://dc.lft.to/lastmile_qr_scan", "ios": "https://dc.lft.to/lastmile_qr_scan"}}, {"bike_id": "ccc94d8fae34924ec12a87ccf0e63dc3", "fusion_lon": 0.0, "name": "ccc94d8fae34924ec12a87ccf0e63dc3", "lat": 38.901493, "is_disabled": 0, "is_reserved": 0, "lon": -77.04231266666666, "type": "electric_scooter", "fusion_lat": 0.0, "rental_uris": {"android": "https://dc.lft.to/lastmile_qr_scan", "ios": "https://dc.lft.to/lastmile_qr_scan"}}, {"bike_id": "079c04d47e80cc55bd912ca85e609145", "fusion_lon": 0.0, "name": "079c04d47e80cc55bd912ca85e609145", "lat": 38.908424, "is_disabled": 0, "is_reserved": 0, "lon": -77.04339933333333, "type": "electric_scooter", "fusion_lat": 0.0, "rental_uris": {"android": "https://dc.lft.to/lastmile_qr_scan", "ios": "https://dc.lft.to/lastmile_qr_scan"}}, {"bike_id": "b6e73054bb61de7fac4baf4686fc9162", "fusion_lon": 0.0, "name": "b6e73054bb61de7fac4baf4686fc9162", "lat": 38.90290433333333, "is_disabled": 0, "is_reserved": 0, "lon": -76.97635683333333, "type": "electric_scooter", "fusion_lat": 0.0, "rental_uris": {"android": "https://dc.lft.to/lastmile_qr_scan", "ios": "https://dc.lft.to/lastmile_qr_scan"}}, {"bike_id": "f04812a63bc2bb3b202982770d141a99", "fusion_lon": 0.0, "name": "f04812a63bc2bb3b202982770d141a99", "lat": 38.933922833333334, "is_disabled": 0, "is_reserved": 0, "lon": -77.05740466666667, "type": "electric_scooter", "fusion_lat": 0.0, "rental_uris": {"android": "https://dc.lft.to/lastmile_qr_scan", "ios": "https://dc.lft.to/lastmile_qr_scan"}}, {"bike_id": "cf1bacf637f8efe63b6f5a36a87c3232", "fusion_lon": 0.0, "name": "cf1bacf637f8efe63b6f5a36a87c3232", "lat": 38.92461683333333, "is_disabled": 0, "is_reserved": 0, "lon": -77.0226125, "type": "electric_scooter", "fusion_lat": 0.0, "rental_uris": {"android": "https://dc.lft.to/lastmile_qr_scan", "ios": "https://dc.lft.to/lastmile_qr_scan"}}, {"bike_id": "e979d82ac38c205b9c05405a60f332f8", "fusion_lon": 0.0, "name": "e979d82ac38c205b9c05405a60f332f8", "lat": 38.91831583333333, "is_disabled": 0, "is_reserved": 0, "lon": -77.036366, "type": "electric_scooter", "fusion_lat": 0.0, "rental_uris": {"android": "https://dc.lft.to/lastmile_qr_scan", "ios": "https://dc.lft.to/lastmile_qr_scan"}}, {"bike_id": "3cb0e62eb33bbf52f56bc87f70b52012", "fusion_lon": 0.0, "name": "3cb0e62eb33bbf52f56bc87f70b52012", "lat": 38.90337616666667, "is_disabled": 0, "is_reserved": 0, "lon": -77.05274883333334, "type": "electric_scooter", "fusion_lat": 0.0, "rental_uris": {"android": "https://dc.lft.to/lastmile_qr_scan", "ios": "https://dc.lft.to/lastmile_qr_scan"}}, {"bike_id": "cc63198ee92a4c1e03809541838b4ced", "fusion_lon": 0.0, "name": "cc63198ee92a4c1e03809541838b4ced", "lat": 38.9977635, "is_disabled": 0, "is_reserved": 0, "lon": -77.04715766666666, "type": "electric_bike", "fusion_lat": 0.0, "rental_uris": {"android": "https://dc.lft.to/lastmile_qr_scan", "ios": "https://dc.lft.to/lastmile_qr_scan"}}, {"bike_id": "9d0e5f69ae0588e1816dd7aa0c22b0bc", "fusion_lon": 0.0, "name": "9d0e5f69ae0588e1816dd7aa0c22b0bc", "lat": 38.926952666666665, "is_disabled": 0, "is_reserved": 0, "lon": -77.03233383333334, "type": "electric_scooter", "fusion_lat": 0.0, "rental_uris": {"android": "https://dc.lft.to/lastmile_qr_scan", "ios": "https://dc.lft.to/lastmile_qr_scan"}}, {"bike_id": "c2f253d07c87373ab0bfabd29e4e2706", "fusion_lon": 0.0, "name": "c2f253d07c87373ab0bfabd29e4e2706", "lat": 38.8921505, "is_disabled": 0, "is_reserved": 0, "lon": -77.045052, "type": "electric_scooter", "fusion_lat": 0.0, "rental_uris": {"android": "https://dc.lft.to/lastmile_qr_scan", "ios": "https://dc.lft.to/lastmile_qr_scan"}}, {"bike_id": "ae36ddceadc697d66debcff296167b85", "fusion_lon": 0.0, "name": "ae36ddceadc697d66debcff296167b85", "lat": 38.96200233333333, "is_disabled": 0, "is_reserved": 0, "lon": -77.02230033333333, "type": "electric_scooter", "fusion_lat": 0.0, "rental_uris": {"android": "https://dc.lft.to/lastmile_qr_scan", "ios": "https://dc.lft.to/lastmile_qr_scan"}}, {"bike_id": "93ae088f9cb83af4a26a6fb1176bf4a1", "fusion_lon": 0.0, "name": "93ae088f9cb83af4a26a6fb1176bf4a1", "lat": 38.926082666666666, "is_disabled": 0, "is_reserved": 0, "lon": -77.02156266666667, "type": "electric_scooter", "fusion_lat": 0.0, "rental_uris": {"android": "https://dc.lft.to/lastmile_qr_scan", "ios": "https://dc.lft.to/lastmile_qr_scan"}}, {"bike_id": "c4942ac0d5594b7faf1b63a496230150", "fusion_lon": 0.0, "name": "c4942ac0d5594b7faf1b63a496230150", "lat": 38.930513, "is_disabled": 0, "is_reserved": 0, "lon": -77.03264683333333, "type": "electric_scooter", "fusion_lat": 0.0, "rental_uris": {"android": "https://dc.lft.to/lastmile_qr_scan", "ios": "https://dc.lft.to/lastmile_qr_scan"}}, {"bike_id": "61aa5c05c2cad2934fc14778c934761e", "fusion_lon": 0.0, "name": "61aa5c05c2cad2934fc14778c934761e", "lat": 38.9049835, "is_disabled": 0, "is_reserved": 0, "lon": -76.98134616666667, "type": "electric_scooter", "fusion_lat": 0.0, "rental_uris": {"android": "https://dc.lft.to/lastmile_qr_scan", "ios": "https://dc.lft.to/lastmile_qr_scan"}}, {"bike_id": "0fc8e5eaf08c3ccf6565f075057b8eb1", "fusion_lon": 0.0, "name": "0fc8e5eaf08c3ccf6565f075057b8eb1", "lat": 38.9219455, "is_disabled": 0, "is_reserved": 0, "lon": -77.01835266666667, "type": "electric_scooter", "fusion_lat": 0.0, "rental_uris": {"android": "https://dc.lft.to/lastmile_qr_scan", "ios": "https://dc.lft.to/lastmile_qr_scan"}}, {"bike_id": "0ed2a60e2a9f9a355e42ee285795c6ff", "fusion_lon": 0.0, "name": "0ed2a60e2a9f9a355e42ee285795c6ff", "lat": 38.903757166666665, "is_disabled": 0, "is_reserved": 0, "lon": -77.050437, "type": "electric_scooter", "fusion_lat": 0.0, "rental_uris": {"android": "https://dc.lft.to/lastmile_qr_scan", "ios": "https://dc.lft.to/lastmile_qr_scan"}}, {"bike_id": "910bc8c51ff06d3ec91ff02ddfc116a8", "fusion_lon": 0.0, "name": "910bc8c51ff06d3ec91ff02ddfc116a8", "lat": 38.900225166666665, "is_disabled": 0, "is_reserved": 0, "lon": -76.97401166666667, "type": "electric_scooter", "fusion_lat": 0.0, "rental_uris": {"android": "https://dc.lft.to/lastmile_qr_scan", "ios": "https://dc.lft.to/lastmile_qr_scan"}}, {"bike_id": "552b290de13baeecbd7152168f05d3ea", "fusion_lon": 0.0, "name": "552b290de13baeecbd7152168f05d3ea", "lat": 38.94521616666667, "is_disabled": 0, "is_reserved": 0, "lon": -77.02273416666667, "type": "electric_scooter", "fusion_lat": 0.0, "rental_uris": {"android": "https://dc.lft.to/lastmile_qr_scan", "ios": "https://dc.lft.to/lastmile_qr_scan"}}, {"bike_id": "b4af3301585208abc0c8999f42a0907f", "fusion_lon": 0.0, "name": "b4af3301585208abc0c8999f42a0907f", "lat": 38.912215, "is_disabled": 0, "is_reserved": 0, "lon": -77.03655316666666, "type": "electric_scooter", "fusion_lat": 0.0, "rental_uris": {"android": "https://dc.lft.to/lastmile_qr_scan", "ios": "https://dc.lft.to/lastmile_qr_scan"}}, {"bike_id": "c99ddb4e16891093e8975f836342a032", "fusion_lon": 0.0, "name": "c99ddb4e16891093e8975f836342a032", "lat": 38.9001815, "is_disabled": 0, "is_reserved": 0, "lon": -76.98680333333333, "type": "electric_bike", "fusion_lat": 0.0, "rental_uris": {"android": "https://dc.lft.to/lastmile_qr_scan", "ios": "https://dc.lft.to/lastmile_qr_scan"}}, {"bike_id": "0d2ac8b965f459e546d2cfe7ec8f73ac", "fusion_lon": 0.0, "name": "0d2ac8b965f459e546d2cfe7ec8f73ac", "lat": 38.93458566666666, "is_disabled": 0, "is_reserved": 0, "lon": -77.0306825, "type": "electric_scooter", "fusion_lat": 0.0, "rental_uris": {"android": "https://dc.lft.to/lastmile_qr_scan", "ios": "https://dc.lft.to/lastmile_qr_scan"}}, {"bike_id": "32cab86b4dcdd7f9b1e2124093d95b20", "fusion_lon": 0.0, "name": "32cab86b4dcdd7f9b1e2124093d95b20", "lat": 38.913303666666664, "is_disabled": 0, "is_reserved": 0, "lon": -77.04862516666667, "type": "electric_scooter", "fusion_lat": 0.0, "rental_uris": {"android": "https://dc.lft.to/lastmile_qr_scan", "ios": "https://dc.lft.to/lastmile_qr_scan"}}, {"bike_id": "f6fb56d1904bf4ee6becfbcf69afc2c0", "fusion_lon": 0.0, "name": "f6fb56d1904bf4ee6becfbcf69afc2c0", "lat": 38.96505966666667, "is_disabled": 0, "is_reserved": 0, "lon": -77.025961, "type": "electric_scooter", "fusion_lat": 0.0, "rental_uris": {"android": "https://dc.lft.to/lastmile_qr_scan", "ios": "https://dc.lft.to/lastmile_qr_scan"}}, {"bike_id": "6d79ef97c4ae776466f9c30825a7471a", "fusion_lon": 0.0, "name": "6d79ef97c4ae776466f9c30825a7471a", "lat": 38.9013065, "is_disabled": 0, "is_reserved": 0, "lon": -77.04624683333333, "type": "electric_scooter", "fusion_lat": 0.0, "rental_uris": {"android": "https://dc.lft.to/lastmile_qr_scan", "ios": "https://dc.lft.to/lastmile_qr_scan"}}, {"bike_id": "8c0fcf2f8771e8627bf844a7d4c63fda", "fusion_lon": 0.0, "name": "8c0fcf2f8771e8627bf844a7d4c63fda", "lat": 38.8676245, "is_disabled": 0, "is_reserved": 0, "lon": -76.98276766666666, "type": "electric_scooter", "fusion_lat": 0.0, "rental_uris": {"android": "https://dc.lft.to/lastmile_qr_scan", "ios": "https://dc.lft.to/lastmile_qr_scan"}}, {"bike_id": "97dccf1390a86fb20d249b07d886413f", "fusion_lon": 0.0, "name": "97dccf1390a86fb20d249b07d886413f", "lat": 38.884884, "is_disabled": 0, "is_reserved": 0, "lon": -77.00708183333333, "type": "electric_scooter", "fusion_lat": 0.0, "rental_uris": {"android": "https://dc.lft.to/lastmile_qr_scan", "ios": "https://dc.lft.to/lastmile_qr_scan"}}, {"bike_id": "3e0d757bbd4dcb3aa5b920293fd7743f", "fusion_lon": 0.0, "name": "3e0d757bbd4dcb3aa5b920293fd7743f", "lat": 38.894284, "is_disabled": 0, "is_reserved": 0, "lon": -76.977193, "type": "electric_scooter", "fusion_lat": 0.0, "rental_uris": {"android": "https://dc.lft.to/lastmile_qr_scan", "ios": "https://dc.lft.to/lastmile_qr_scan"}}, {"bike_id": "6cebb616288b738943ca33e9545321e6", "fusion_lon": 0.0, "name": "6cebb616288b738943ca33e9545321e6", "lat": 38.90388, "is_disabled": 0, "is_reserved": 0, "lon": -77.0342905, "type": "electric_scooter", "fusion_lat": 0.0, "rental_uris": {"android": "https://dc.lft.to/lastmile_qr_scan", "ios": "https://dc.lft.to/lastmile_qr_scan"}}, {"bike_id": "79356058d7bc516fc6fb92225f208c6e", "fusion_lon": 0.0, "name": "79356058d7bc516fc6fb92225f208c6e", "lat": 38.89762433333333, "is_disabled": 0, "is_reserved": 0, "lon": -76.9855215, "type": "electric_scooter", "fusion_lat": 0.0, "rental_uris": {"android": "https://dc.lft.to/lastmile_qr_scan", "ios": "https://dc.lft.to/lastmile_qr_scan"}}, {"bike_id": "41933242661a8c21f909dc95986d8a28", "fusion_lon": 0.0, "name": "41933242661a8c21f909dc95986d8a28", "lat": 38.9140785, "is_disabled": 0, "is_reserved": 0, "lon": -77.02657683333334, "type": "electric_scooter", "fusion_lat": 0.0, "rental_uris": {"android": "https://dc.lft.to/lastmile_qr_scan", "ios": "https://dc.lft.to/lastmile_qr_scan"}}, {"bike_id": "5efc9860c5e2a27a38ad93cf1d1b900f", "fusion_lon": 0.0, "name": "5efc9860c5e2a27a38ad93cf1d1b900f", "lat": 38.936044, "is_disabled": 0, "is_reserved": 0, "lon": -77.0586675, "type": "electric_scooter", "fusion_lat": 0.0, "rental_uris": {"android": "https://dc.lft.to/lastmile_qr_scan", "ios": "https://dc.lft.to/lastmile_qr_scan"}}, {"bike_id": "307bf9c86e3b20a94a4db984ceea5bfe", "fusion_lon": 0.0, "name": "307bf9c86e3b20a94a4db984ceea5bfe", "lat": 38.898376, "is_disabled": 0, "is_reserved": 0, "lon": -76.93178033333334, "type": "electric_scooter", "fusion_lat": 0.0, "rental_uris": {"android": "https://dc.lft.to/lastmile_qr_scan", "ios": "https://dc.lft.to/lastmile_qr_scan"}}, {"bike_id": "377ffc7172396fb75798cff83fa58852", "fusion_lon": 0.0, "name": "377ffc7172396fb75798cff83fa58852", "lat": 38.92353516666667, "is_disabled": 0, "is_reserved": 0, "lon": -77.035306, "type": "electric_scooter", "fusion_lat": 0.0, "rental_uris": {"android": "https://dc.lft.to/lastmile_qr_scan", "ios": "https://dc.lft.to/lastmile_qr_scan"}}, {"bike_id": "4e2c2e63fb55d30f727e7701dd1987dc", "fusion_lon": 0.0, "name": "4e2c2e63fb55d30f727e7701dd1987dc", "lat": 38.9130405, "is_disabled": 0, "is_reserved": 0, "lon": -77.04536066666667, "type": "electric_scooter", "fusion_lat": 0.0, "rental_uris": {"android": "https://dc.lft.to/lastmile_qr_scan", "ios": "https://dc.lft.to/lastmile_qr_scan"}}, {"bike_id": "be16b776612dd4866d2af2ceb2f67c5b", "fusion_lon": 0.0, "name": "be16b776612dd4866d2af2ceb2f67c5b", "lat": 38.89908166666667, "is_disabled": 0, "is_reserved": 0, "lon": -77.003374, "type": "electric_scooter", "fusion_lat": 0.0, "rental_uris": {"android": "https://dc.lft.to/lastmile_qr_scan", "ios": "https://dc.lft.to/lastmile_qr_scan"}}, {"bike_id": "c77fe920fa7566eb83d49fe5d4ad6a9c", "fusion_lon": 0.0, "name": "c77fe920fa7566eb83d49fe5d4ad6a9c", "lat": 38.931232666666666, "is_disabled": 0, "is_reserved": 0, "lon": -77.03822766666667, "type": "electric_scooter", "fusion_lat": 0.0, "rental_uris": {"android": "https://dc.lft.to/lastmile_qr_scan", "ios": "https://dc.lft.to/lastmile_qr_scan"}}, {"bike_id": "389bb157741f62d78157744d68037031", "fusion_lon": 0.0, "name": "389bb157741f62d78157744d68037031", "lat": 38.84052233333333, "is_disabled": 0, "is_reserved": 0, "lon": -76.97666583333333, "type": "electric_scooter", "fusion_lat": 0.0, "rental_uris": {"android": "https://dc.lft.to/lastmile_qr_scan", "ios": "https://dc.lft.to/lastmile_qr_scan"}}, {"bike_id": "a97fee22a8b837d633dade1f45096085", "fusion_lon": 0.0, "name": "a97fee22a8b837d633dade1f45096085", "lat": 38.90511866666667, "is_disabled": 0, "is_reserved": 0, "lon": -77.04918666666667, "type": "electric_scooter", "fusion_lat": 0.0, "rental_uris": {"android": "https://dc.lft.to/lastmile_qr_scan", "ios": "https://dc.lft.to/lastmile_qr_scan"}}, {"bike_id": "47f0c40439e5647d919cfed504689720", "fusion_lon": 0.0, "name": "47f0c40439e5647d919cfed504689720", "lat": 38.89600983333333, "is_disabled": 0, "is_reserved": 0, "lon": -77.02629833333333, "type": "electric_scooter", "fusion_lat": 0.0, "rental_uris": {"android": "https://dc.lft.to/lastmile_qr_scan", "ios": "https://dc.lft.to/lastmile_qr_scan"}}, {"bike_id": "59b4b6a783f4717a0fe1448ada11792e", "fusion_lon": 0.0, "name": "59b4b6a783f4717a0fe1448ada11792e", "lat": 38.9236795, "is_disabled": 0, "is_reserved": 0, "lon": -77.05024716666667, "type": "electric_scooter", "fusion_lat": 0.0, "rental_uris": {"android": "https://dc.lft.to/lastmile_qr_scan", "ios": "https://dc.lft.to/lastmile_qr_scan"}}, {"bike_id": "649614a051efd0daa03425a7407451cf", "fusion_lon": 0.0, "name": "649614a051efd0daa03425a7407451cf", "lat": 38.89220483333333, "is_disabled": 0, "is_reserved": 0, "lon": -77.02010266666667, "type": "electric_scooter", "fusion_lat": 0.0, "rental_uris": {"android": "https://dc.lft.to/lastmile_qr_scan", "ios": "https://dc.lft.to/lastmile_qr_scan"}}, {"bike_id": "281bb3a1536f972d3daeac8e3a5feea8", "fusion_lon": 0.0, "name": "281bb3a1536f972d3daeac8e3a5feea8", "lat": 38.9034055, "is_disabled": 0, "is_reserved": 0, "lon": -77.04493833333333, "type": "electric_scooter", "fusion_lat": 0.0, "rental_uris": {"android": "https://dc.lft.to/lastmile_qr_scan", "ios": "https://dc.lft.to/lastmile_qr_scan"}}, {"bike_id": "9790963c6b2d9d168c62a85759289a0c", "fusion_lon": 0.0, "name": "9790963c6b2d9d168c62a85759289a0c", "lat": 38.89843716666667, "is_disabled": 0, "is_reserved": 0, "lon": -77.02860633333333, "type": "electric_scooter", "fusion_lat": 0.0, "rental_uris": {"android": "https://dc.lft.to/lastmile_qr_scan", "ios": "https://dc.lft.to/lastmile_qr_scan"}}, {"bike_id": "23148ad78f1f70a6e62fc677712f8c45", "fusion_lon": 0.0, "name": "23148ad78f1f70a6e62fc677712f8c45", "lat": 38.91909733333333, "is_disabled": 0, "is_reserved": 0, "lon": -77.04464783333333, "type": "electric_scooter", "fusion_lat": 0.0, "rental_uris": {"android": "https://dc.lft.to/lastmile_qr_scan", "ios": "https://dc.lft.to/lastmile_qr_scan"}}, {"bike_id": "1d3272f162448e79ca9edc07d8825996", "fusion_lon": 0.0, "name": "1d3272f162448e79ca9edc07d8825996", "lat": 38.899203, "is_disabled": 0, "is_reserved": 0, "lon": -76.9853665, "type": "electric_scooter", "fusion_lat": 0.0, "rental_uris": {"android": "https://dc.lft.to/lastmile_qr_scan", "ios": "https://dc.lft.to/lastmile_qr_scan"}}, {"bike_id": "0f34452429f7b85d0d30497105ea8f48", "fusion_lon": 0.0, "name": "0f34452429f7b85d0d30497105ea8f48", "lat": 38.855761, "is_disabled": 0, "is_reserved": 0, "lon": -76.96649966666666, "type": "electric_scooter", "fusion_lat": 0.0, "rental_uris": {"android": "https://dc.lft.to/lastmile_qr_scan", "ios": "https://dc.lft.to/lastmile_qr_scan"}}, {"bike_id": "d276d3e77e9a5d800af563ae3ff1b05d", "fusion_lon": 0.0, "name": "d276d3e77e9a5d800af563ae3ff1b05d", "lat": 38.972551333333335, "is_disabled": 0, "is_reserved": 0, "lon": -76.992744, "type": "electric_bike", "fusion_lat": 0.0, "rental_uris": {"android": "https://dc.lft.to/lastmile_qr_scan", "ios": "https://dc.lft.to/lastmile_qr_scan"}}, {"bike_id": "afb549f3eb4584b496e45a6aa8715f8d", "fusion_lon": 0.0, "name": "afb549f3eb4584b496e45a6aa8715f8d", "lat": 38.91267066666666, "is_disabled": 0, "is_reserved": 0, "lon": -77.0221715, "type": "electric_scooter", "fusion_lat": 0.0, "rental_uris": {"android": "https://dc.lft.to/lastmile_qr_scan", "ios": "https://dc.lft.to/lastmile_qr_scan"}}, {"bike_id": "8b9a06ed19a0490a638bead5b2fe32b6", "fusion_lon": 0.0, "name": "8b9a06ed19a0490a638bead5b2fe32b6", "lat": 38.9173855, "is_disabled": 0, "is_reserved": 0, "lon": -77.02117766666667, "type": "electric_scooter", "fusion_lat": 0.0, "rental_uris": {"android": "https://dc.lft.to/lastmile_qr_scan", "ios": "https://dc.lft.to/lastmile_qr_scan"}}, {"bike_id": "b3792c02986d3eb62a40b84e36a777fe", "fusion_lon": 0.0, "name": "b3792c02986d3eb62a40b84e36a777fe", "lat": 38.898341, "is_disabled": 0, "is_reserved": 0, "lon": -77.02515116666666, "type": "electric_scooter", "fusion_lat": 0.0, "rental_uris": {"android": "https://dc.lft.to/lastmile_qr_scan", "ios": "https://dc.lft.to/lastmile_qr_scan"}}, {"bike_id": "0ca14091a4e48c24091a8739e6ef300c", "fusion_lon": 0.0, "name": "0ca14091a4e48c24091a8739e6ef300c", "lat": 38.923251666666665, "is_disabled": 0, "is_reserved": 0, "lon": -77.02962133333334, "type": "electric_scooter", "fusion_lat": 0.0, "rental_uris": {"android": "https://dc.lft.to/lastmile_qr_scan", "ios": "https://dc.lft.to/lastmile_qr_scan"}}, {"bike_id": "b570a1794c5a4b7b187939c1cbb5f370", "fusion_lon": 0.0, "name": "b570a1794c5a4b7b187939c1cbb5f370", "lat": 38.90574766666667, "is_disabled": 0, "is_reserved": 0, "lon": -77.048696, "type": "electric_scooter", "fusion_lat": 0.0, "rental_uris": {"android": "https://dc.lft.to/lastmile_qr_scan", "ios": "https://dc.lft.to/lastmile_qr_scan"}}, {"bike_id": "84a62d9610c1d1078f61d5be6efbe502", "fusion_lon": 0.0, "name": "84a62d9610c1d1078f61d5be6efbe502", "lat": 38.90665033333333, "is_disabled": 0, "is_reserved": 0, "lon": -77.07514933333333, "type": "electric_scooter", "fusion_lat": 0.0, "rental_uris": {"android": "https://dc.lft.to/lastmile_qr_scan", "ios": "https://dc.lft.to/lastmile_qr_scan"}}, {"bike_id": "9f2d6f48e7ef6c8efe660e91bf349160", "fusion_lon": 0.0, "name": "9f2d6f48e7ef6c8efe660e91bf349160", "lat": 38.93745283333333, "is_disabled": 0, "is_reserved": 0, "lon": -77.085943, "type": "electric_scooter", "fusion_lat": 0.0, "rental_uris": {"android": "https://dc.lft.to/lastmile_qr_scan", "ios": "https://dc.lft.to/lastmile_qr_scan"}}, {"bike_id": "723a5e3fe47299b4f4dd2e7e23998700", "fusion_lon": 0.0, "name": "723a5e3fe47299b4f4dd2e7e23998700", "lat": 38.905094166666665, "is_disabled": 0, "is_reserved": 0, "lon": -77.06135183333333, "type": "electric_scooter", "fusion_lat": 0.0, "rental_uris": {"android": "https://dc.lft.to/lastmile_qr_scan", "ios": "https://dc.lft.to/lastmile_qr_scan"}}, {"bike_id": "dcfa02c2d61bdddd0c9bd3bd4126edf1", "fusion_lon": 0.0, "name": "dcfa02c2d61bdddd0c9bd3bd4126edf1", "lat": 38.89222, "is_disabled": 0, "is_reserved": 0, "lon": -77.0222825, "type": "electric_scooter", "fusion_lat": 0.0, "rental_uris": {"android": "https://dc.lft.to/lastmile_qr_scan", "ios": "https://dc.lft.to/lastmile_qr_scan"}}, {"bike_id": "a2a24ffba9e34fa09709c0dff7b7ace7", "fusion_lon": 0.0, "name": "a2a24ffba9e34fa09709c0dff7b7ace7", "lat": 38.88308983333334, "is_disabled": 0, "is_reserved": 0, "lon": -77.01361816666666, "type": "electric_scooter", "fusion_lat": 0.0, "rental_uris": {"android": "https://dc.lft.to/lastmile_qr_scan", "ios": "https://dc.lft.to/lastmile_qr_scan"}}, {"bike_id": "9f3d2dd757e17b442d44d45f12988424", "fusion_lon": 0.0, "name": "9f3d2dd757e17b442d44d45f12988424", "lat": 38.898368166666664, "is_disabled": 0, "is_reserved": 0, "lon": -77.03184183333333, "type": "electric_scooter", "fusion_lat": 0.0, "rental_uris": {"android": "https://dc.lft.to/lastmile_qr_scan", "ios": "https://dc.lft.to/lastmile_qr_scan"}}, {"bike_id": "0c09e42031709edf32c87fb802e3d3c5", "fusion_lon": 0.0, "name": "0c09e42031709edf32c87fb802e3d3c5", "lat": 38.8922205, "is_disabled": 0, "is_reserved": 0, "lon": -77.04310483333333, "type": "electric_scooter", "fusion_lat": 0.0, "rental_uris": {"android": "https://dc.lft.to/lastmile_qr_scan", "ios": "https://dc.lft.to/lastmile_qr_scan"}}, {"bike_id": "cd8f873ed16fd1f1a7292a64c3c6a0e9", "fusion_lon": 0.0, "name": "cd8f873ed16fd1f1a7292a64c3c6a0e9", "lat": 38.916929, "is_disabled": 0, "is_reserved": 0, "lon": -77.0259575, "type": "electric_scooter", "fusion_lat": 0.0, "rental_uris": {"android": "https://dc.lft.to/lastmile_qr_scan", "ios": "https://dc.lft.to/lastmile_qr_scan"}}, {"bike_id": "4ddf2a6fbbb2bc66229b89d57c859e4a", "fusion_lon": 0.0, "name": "4ddf2a6fbbb2bc66229b89d57c859e4a", "lat": 38.933157333333334, "is_disabled": 0, "is_reserved": 0, "lon": -77.03420433333334, "type": "electric_scooter", "fusion_lat": 0.0, "rental_uris": {"android": "https://dc.lft.to/lastmile_qr_scan", "ios": "https://dc.lft.to/lastmile_qr_scan"}}, {"bike_id": "a65ab3959c6b3d1f06d1f0e17d0c457c", "fusion_lon": 0.0, "name": "a65ab3959c6b3d1f06d1f0e17d0c457c", "lat": 38.89217816666667, "is_disabled": 0, "is_reserved": 0, "lon": -77.02221266666666, "type": "electric_scooter", "fusion_lat": 0.0, "rental_uris": {"android": "https://dc.lft.to/lastmile_qr_scan", "ios": "https://dc.lft.to/lastmile_qr_scan"}}, {"bike_id": "2588083f91861871f4f81899ae393b4d", "fusion_lon": 0.0, "name": "2588083f91861871f4f81899ae393b4d", "lat": 38.9482005, "is_disabled": 0, "is_reserved": 0, "lon": -77.02944966666666, "type": "electric_bike", "fusion_lat": 0.0, "rental_uris": {"android": "https://dc.lft.to/lastmile_qr_scan", "ios": "https://dc.lft.to/lastmile_qr_scan"}}, {"bike_id": "c879eead393465262fc6a68cb68d99fd", "fusion_lon": 0.0, "name": "c879eead393465262fc6a68cb68d99fd", "lat": 38.92329216666667, "is_disabled": 0, "is_reserved": 0, "lon": -77.01962683333333, "type": "electric_scooter", "fusion_lat": 0.0, "rental_uris": {"android": "https://dc.lft.to/lastmile_qr_scan", "ios": "https://dc.lft.to/lastmile_qr_scan"}}, {"bike_id": "e577ecebf06f1ff09ec313f6a98129f4", "fusion_lon": 0.0, "name": "e577ecebf06f1ff09ec313f6a98129f4", "lat": 39.0107505, "is_disabled": 0, "is_reserved": 0, "lon": -76.91068833333334, "type": "electric_bike", "fusion_lat": 0.0, "rental_uris": {"android": "https://dc.lft.to/lastmile_qr_scan", "ios": "https://dc.lft.to/lastmile_qr_scan"}}, {"bike_id": "2668915abb91fd48cf733a5f73cbdfc1", "fusion_lon": 0.0, "name": "2668915abb91fd48cf733a5f73cbdfc1", "lat": 38.93243183333333, "is_disabled": 0, "is_reserved": 0, "lon": -76.99586583333334, "type": "electric_scooter", "fusion_lat": 0.0, "rental_uris": {"android": "https://dc.lft.to/lastmile_qr_scan", "ios": "https://dc.lft.to/lastmile_qr_scan"}}, {"bike_id": "1de17f7612de3358416d0798f7290b75", "fusion_lon": 0.0, "name": "1de17f7612de3358416d0798f7290b75", "lat": 38.91114983333333, "is_disabled": 0, "is_reserved": 0, "lon": -77.03312583333333, "type": "electric_scooter", "fusion_lat": 0.0, "rental_uris": {"android": "https://dc.lft.to/lastmile_qr_scan", "ios": "https://dc.lft.to/lastmile_qr_scan"}}, {"bike_id": "15909bc40c2822d6ad1e634a30d6f476", "fusion_lon": 0.0, "name": "15909bc40c2822d6ad1e634a30d6f476", "lat": 38.89848883333333, "is_disabled": 0, "is_reserved": 0, "lon": -77.01885033333333, "type": "electric_scooter", "fusion_lat": 0.0, "rental_uris": {"android": "https://dc.lft.to/lastmile_qr_scan", "ios": "https://dc.lft.to/lastmile_qr_scan"}}, {"bike_id": "643ddbe261f688e1949af458f9b9247b", "fusion_lon": 0.0, "name": "643ddbe261f688e1949af458f9b9247b", "lat": 38.928752833333334, "is_disabled": 0, "is_reserved": 0, "lon": -77.03282016666667, "type": "electric_scooter", "fusion_lat": 0.0, "rental_uris": {"android": "https://dc.lft.to/lastmile_qr_scan", "ios": "https://dc.lft.to/lastmile_qr_scan"}}, {"bike_id": "48fa6ff4b931d191ed3ef26f49582f45", "fusion_lon": 0.0, "name": "48fa6ff4b931d191ed3ef26f49582f45", "lat": 38.8767875, "is_disabled": 0, "is_reserved": 0, "lon": -77.00742183333334, "type": "electric_scooter", "fusion_lat": 0.0, "rental_uris": {"android": "https://dc.lft.to/lastmile_qr_scan", "ios": "https://dc.lft.to/lastmile_qr_scan"}}, {"bike_id": "aa5e704a8fe7395a58a5f14ef6db6e24", "fusion_lon": 0.0, "name": "aa5e704a8fe7395a58a5f14ef6db6e24", "lat": 38.93504466666667, "is_disabled": 0, "is_reserved": 0, "lon": -77.0583345, "type": "electric_scooter", "fusion_lat": 0.0, "rental_uris": {"android": "https://dc.lft.to/lastmile_qr_scan", "ios": "https://dc.lft.to/lastmile_qr_scan"}}, {"bike_id": "22af5cfeeb169835c58c1c869245d50c", "fusion_lon": 0.0, "name": "22af5cfeeb169835c58c1c869245d50c", "lat": 38.89837833333333, "is_disabled": 0, "is_reserved": 0, "lon": -77.0126855, "type": "electric_scooter", "fusion_lat": 0.0, "rental_uris": {"android": "https://dc.lft.to/lastmile_qr_scan", "ios": "https://dc.lft.to/lastmile_qr_scan"}}, {"bike_id": "b5da6989d03c92dcccaa689d1a247765", "fusion_lon": 0.0, "name": "b5da6989d03c92dcccaa689d1a247765", "lat": 38.94470966666667, "is_disabled": 0, "is_reserved": 0, "lon": -77.0235755, "type": "electric_scooter", "fusion_lat": 0.0, "rental_uris": {"android": "https://dc.lft.to/lastmile_qr_scan", "ios": "https://dc.lft.to/lastmile_qr_scan"}}, {"bike_id": "01a94b897d617bc86686f594d097e914", "fusion_lon": 0.0, "name": "01a94b897d617bc86686f594d097e914", "lat": 38.904112833333336, "is_disabled": 0, "is_reserved": 0, "lon": -76.97330016666666, "type": "electric_scooter", "fusion_lat": 0.0, "rental_uris": {"android": "https://dc.lft.to/lastmile_qr_scan", "ios": "https://dc.lft.to/lastmile_qr_scan"}}, {"bike_id": "a4820d9a61a2096c5c359dc793ac8c82", "fusion_lon": 0.0, "name": "a4820d9a61a2096c5c359dc793ac8c82", "lat": 38.90855466666667, "is_disabled": 0, "is_reserved": 0, "lon": -76.99793266666667, "type": "electric_scooter", "fusion_lat": 0.0, "rental_uris": {"android": "https://dc.lft.to/lastmile_qr_scan", "ios": "https://dc.lft.to/lastmile_qr_scan"}}, {"bike_id": "10168fe93b5744bcb445bfc8334427d4", "fusion_lon": 0.0, "name": "10168fe93b5744bcb445bfc8334427d4", "lat": 38.90715383333333, "is_disabled": 0, "is_reserved": 0, "lon": -77.0433005, "type": "electric_scooter", "fusion_lat": 0.0, "rental_uris": {"android": "https://dc.lft.to/lastmile_qr_scan", "ios": "https://dc.lft.to/lastmile_qr_scan"}}, {"bike_id": "76f1b6782aa293eb65b08d63f6038a00", "fusion_lon": 0.0, "name": "76f1b6782aa293eb65b08d63f6038a00", "lat": 38.907724333333334, "is_disabled": 0, "is_reserved": 0, "lon": -77.03996266666667, "type": "electric_scooter", "fusion_lat": 0.0, "rental_uris": {"android": "https://dc.lft.to/lastmile_qr_scan", "ios": "https://dc.lft.to/lastmile_qr_scan"}}, {"bike_id": "78dfe5cdcd0dd961a91d07612f9b5789", "fusion_lon": 0.0, "name": "78dfe5cdcd0dd961a91d07612f9b5789", "lat": 38.92881716666667, "is_disabled": 0, "is_reserved": 0, "lon": -77.02705216666666, "type": "electric_scooter", "fusion_lat": 0.0, "rental_uris": {"android": "https://dc.lft.to/lastmile_qr_scan", "ios": "https://dc.lft.to/lastmile_qr_scan"}}, {"bike_id": "4c4e45af83b203af886ce039c8a4edf3", "fusion_lon": 0.0, "name": "4c4e45af83b203af886ce039c8a4edf3", "lat": 38.91570183333333, "is_disabled": 0, "is_reserved": 0, "lon": -77.0384785, "type": "electric_scooter", "fusion_lat": 0.0, "rental_uris": {"android": "https://dc.lft.to/lastmile_qr_scan", "ios": "https://dc.lft.to/lastmile_qr_scan"}}, {"bike_id": "32fb3cfb4c563a288ef3e28b02a7a837", "fusion_lon": 0.0, "name": "32fb3cfb4c563a288ef3e28b02a7a837", "lat": 38.89243366666667, "is_disabled": 0, "is_reserved": 0, "lon": -77.033506, "type": "electric_scooter", "fusion_lat": 0.0, "rental_uris": {"android": "https://dc.lft.to/lastmile_qr_scan", "ios": "https://dc.lft.to/lastmile_qr_scan"}}, {"bike_id": "6c7a1d4d59c34bedc899558dee809465", "fusion_lon": 0.0, "name": "6c7a1d4d59c34bedc899558dee809465", "lat": 38.91708033333333, "is_disabled": 0, "is_reserved": 0, "lon": -77.03469116666666, "type": "electric_scooter", "fusion_lat": 0.0, "rental_uris": {"android": "https://dc.lft.to/lastmile_qr_scan", "ios": "https://dc.lft.to/lastmile_qr_scan"}}, {"bike_id": "0580bf49b317099a92cecbc496c4880f", "fusion_lon": 0.0, "name": "0580bf49b317099a92cecbc496c4880f", "lat": 38.930243833333336, "is_disabled": 0, "is_reserved": 0, "lon": -77.032957, "type": "electric_scooter", "fusion_lat": 0.0, "rental_uris": {"android": "https://dc.lft.to/lastmile_qr_scan", "ios": "https://dc.lft.to/lastmile_qr_scan"}}, {"bike_id": "510df0756566b4218ef760606eb86174", "fusion_lon": 0.0, "name": "510df0756566b4218ef760606eb86174", "lat": 38.924541, "is_disabled": 0, "is_reserved": 0, "lon": -77.052364, "type": "electric_scooter", "fusion_lat": 0.0, "rental_uris": {"android": "https://dc.lft.to/lastmile_qr_scan", "ios": "https://dc.lft.to/lastmile_qr_scan"}}, {"bike_id": "a87904d7d66472a3ee9b094544af7750", "fusion_lon": 0.0, "name": "a87904d7d66472a3ee9b094544af7750", "lat": 38.8983265, "is_disabled": 0, "is_reserved": 0, "lon": -77.0316415, "type": "electric_scooter", "fusion_lat": 0.0, "rental_uris": {"android": "https://dc.lft.to/lastmile_qr_scan", "ios": "https://dc.lft.to/lastmile_qr_scan"}}, {"bike_id": "8c7e8624451aad0c866abfc5543deb88", "fusion_lon": 0.0, "name": "8c7e8624451aad0c866abfc5543deb88", "lat": 38.90974383333333, "is_disabled": 0, "is_reserved": 0, "lon": -77.03437616666666, "type": "electric_scooter", "fusion_lat": 0.0, "rental_uris": {"android": "https://dc.lft.to/lastmile_qr_scan", "ios": "https://dc.lft.to/lastmile_qr_scan"}}, {"bike_id": "7500e088608766a6c9c28ee0ed569334", "fusion_lon": 0.0, "name": "7500e088608766a6c9c28ee0ed569334", "lat": 38.913174833333336, "is_disabled": 0, "is_reserved": 0, "lon": -77.01511533333333, "type": "electric_scooter", "fusion_lat": 0.0, "rental_uris": {"android": "https://dc.lft.to/lastmile_qr_scan", "ios": "https://dc.lft.to/lastmile_qr_scan"}}, {"bike_id": "444dcb19a4bfefc620f6a8a4f41eba13", "fusion_lon": 0.0, "name": "444dcb19a4bfefc620f6a8a4f41eba13", "lat": 38.90260266666667, "is_disabled": 0, "is_reserved": 0, "lon": -76.9746055, "type": "electric_scooter", "fusion_lat": 0.0, "rental_uris": {"android": "https://dc.lft.to/lastmile_qr_scan", "ios": "https://dc.lft.to/lastmile_qr_scan"}}, {"bike_id": "0393c5520cbdbba031b3434c873de120", "fusion_lon": 0.0, "name": "0393c5520cbdbba031b3434c873de120", "lat": 38.92489583333333, "is_disabled": 0, "is_reserved": 0, "lon": -77.039297, "type": "electric_scooter", "fusion_lat": 0.0, "rental_uris": {"android": "https://dc.lft.to/lastmile_qr_scan", "ios": "https://dc.lft.to/lastmile_qr_scan"}}, {"bike_id": "4322d80ec1c6eac32bf8c4cdcd4f737c", "fusion_lon": 0.0, "name": "4322d80ec1c6eac32bf8c4cdcd4f737c", "lat": 38.928382666666664, "is_disabled": 0, "is_reserved": 0, "lon": -77.0329965, "type": "electric_scooter", "fusion_lat": 0.0, "rental_uris": {"android": "https://dc.lft.to/lastmile_qr_scan", "ios": "https://dc.lft.to/lastmile_qr_scan"}}, {"bike_id": "88c986fce20c195cf064a914896fc3a6", "fusion_lon": 0.0, "name": "88c986fce20c195cf064a914896fc3a6", "lat": 38.91115466666667, "is_disabled": 0, "is_reserved": 0, "lon": -77.04458316666667, "type": "electric_scooter", "fusion_lat": 0.0, "rental_uris": {"android": "https://dc.lft.to/lastmile_qr_scan", "ios": "https://dc.lft.to/lastmile_qr_scan"}}, {"bike_id": "398cb1da2d95862a985a7956603164a6", "fusion_lon": 0.0, "name": "398cb1da2d95862a985a7956603164a6", "lat": 38.93458033333334, "is_disabled": 0, "is_reserved": 0, "lon": -77.04123666666666, "type": "electric_scooter", "fusion_lat": 0.0, "rental_uris": {"android": "https://dc.lft.to/lastmile_qr_scan", "ios": "https://dc.lft.to/lastmile_qr_scan"}}, {"bike_id": "e8b5d51e79d532c26f1f202fc9fd6bbc", "fusion_lon": 0.0, "name": "e8b5d51e79d532c26f1f202fc9fd6bbc", "lat": 38.955881833333336, "is_disabled": 0, "is_reserved": 0, "lon": -77.00635916666667, "type": "electric_scooter", "fusion_lat": 0.0, "rental_uris": {"android": "https://dc.lft.to/lastmile_qr_scan", "ios": "https://dc.lft.to/lastmile_qr_scan"}}, {"bike_id": "d7a8edc44a26c3905fc0cc54b8232bb1", "fusion_lon": 0.0, "name": "d7a8edc44a26c3905fc0cc54b8232bb1", "lat": 38.89859633333333, "is_disabled": 0, "is_reserved": 0, "lon": -76.94641516666667, "type": "electric_scooter", "fusion_lat": 0.0, "rental_uris": {"android": "https://dc.lft.to/lastmile_qr_scan", "ios": "https://dc.lft.to/lastmile_qr_scan"}}, {"bike_id": "7c7d602a0e368a5dead92d730e2f92cd", "fusion_lon": 0.0, "name": "7c7d602a0e368a5dead92d730e2f92cd", "lat": 38.842796666666665, "is_disabled": 0, "is_reserved": 0, "lon": -77.04490966666667, "type": "electric_bike", "fusion_lat": 0.0, "rental_uris": {"android": "https://dc.lft.to/lastmile_qr_scan", "ios": "https://dc.lft.to/lastmile_qr_scan"}}, {"bike_id": "a31130104b67f0880fe219268f5c3263", "fusion_lon": 0.0, "name": "a31130104b67f0880fe219268f5c3263", "lat": 38.8848365, "is_disabled": 0, "is_reserved": 0, "lon": -77.007041, "type": "electric_scooter", "fusion_lat": 0.0, "rental_uris": {"android": "https://dc.lft.to/lastmile_qr_scan", "ios": "https://dc.lft.to/lastmile_qr_scan"}}, {"bike_id": "762ddc33fae359bc48210ccf66388ba5", "fusion_lon": 0.0, "name": "762ddc33fae359bc48210ccf66388ba5", "lat": 38.910872, "is_disabled": 0, "is_reserved": 0, "lon": -77.03843833333333, "type": "electric_scooter", "fusion_lat": 0.0, "rental_uris": {"android": "https://dc.lft.to/lastmile_qr_scan", "ios": "https://dc.lft.to/lastmile_qr_scan"}}, {"bike_id": "e3c7c06324ab06fd9527aa347b22f65c", "fusion_lon": 0.0, "name": "e3c7c06324ab06fd9527aa347b22f65c", "lat": 38.903864666666664, "is_disabled": 0, "is_reserved": 0, "lon": -77.01638833333334, "type": "electric_scooter", "fusion_lat": 0.0, "rental_uris": {"android": "https://dc.lft.to/lastmile_qr_scan", "ios": "https://dc.lft.to/lastmile_qr_scan"}}, {"bike_id": "85c2978f5e734021f72b874d7753a091", "fusion_lon": 0.0, "name": "85c2978f5e734021f72b874d7753a091", "lat": 38.866839, "is_disabled": 0, "is_reserved": 0, "lon": -76.985605, "type": "electric_scooter", "fusion_lat": 0.0, "rental_uris": {"android": "https://dc.lft.to/lastmile_qr_scan", "ios": "https://dc.lft.to/lastmile_qr_scan"}}, {"bike_id": "ed05185fbdb664d7252d412abcc2f84b", "fusion_lon": 0.0, "name": "ed05185fbdb664d7252d412abcc2f84b", "lat": 38.90247166666666, "is_disabled": 0, "is_reserved": 0, "lon": -77.034264, "type": "electric_scooter", "fusion_lat": 0.0, "rental_uris": {"android": "https://dc.lft.to/lastmile_qr_scan", "ios": "https://dc.lft.to/lastmile_qr_scan"}}, {"bike_id": "ad33057f8ca831923e25136f9fac0a0b", "fusion_lon": 0.0, "name": "ad33057f8ca831923e25136f9fac0a0b", "lat": 38.899999, "is_disabled": 0, "is_reserved": 0, "lon": -77.00674483333333, "type": "electric_scooter", "fusion_lat": 0.0, "rental_uris": {"android": "https://dc.lft.to/lastmile_qr_scan", "ios": "https://dc.lft.to/lastmile_qr_scan"}}, {"bike_id": "ec37d9470f8343785e38c08595bbbf2e", "fusion_lon": 0.0, "name": "ec37d9470f8343785e38c08595bbbf2e", "lat": 38.91612933333333, "is_disabled": 0, "is_reserved": 0, "lon": -77.04620283333334, "type": "electric_scooter", "fusion_lat": 0.0, "rental_uris": {"android": "https://dc.lft.to/lastmile_qr_scan", "ios": "https://dc.lft.to/lastmile_qr_scan"}}, {"bike_id": "bb8cdcb0a731367c1798d01a39114565", "fusion_lon": 0.0, "name": "bb8cdcb0a731367c1798d01a39114565", "lat": 38.917219833333334, "is_disabled": 0, "is_reserved": 0, "lon": -77.02602966666667, "type": "electric_scooter", "fusion_lat": 0.0, "rental_uris": {"android": "https://dc.lft.to/lastmile_qr_scan", "ios": "https://dc.lft.to/lastmile_qr_scan"}}, {"bike_id": "36489f518de6978e8f9bd32890396076", "fusion_lon": 0.0, "name": "36489f518de6978e8f9bd32890396076", "lat": 38.88590533333333, "is_disabled": 0, "is_reserved": 0, "lon": -77.017183, "type": "electric_scooter", "fusion_lat": 0.0, "rental_uris": {"android": "https://dc.lft.to/lastmile_qr_scan", "ios": "https://dc.lft.to/lastmile_qr_scan"}}, {"bike_id": "d81694a975ca77530698604a57fd05e7", "fusion_lon": 0.0, "name": "d81694a975ca77530698604a57fd05e7", "lat": 38.923481, "is_disabled": 0, "is_reserved": 0, "lon": -77.04350616666666, "type": "electric_scooter", "fusion_lat": 0.0, "rental_uris": {"android": "https://dc.lft.to/lastmile_qr_scan", "ios": "https://dc.lft.to/lastmile_qr_scan"}}, {"bike_id": "0540edab1fc2eefcb2101fc667392f9e", "fusion_lon": 0.0, "name": "0540edab1fc2eefcb2101fc667392f9e", "lat": 38.89804766666666, "is_disabled": 0, "is_reserved": 0, "lon": -77.02823766666667, "type": "electric_scooter", "fusion_lat": 0.0, "rental_uris": {"android": "https://dc.lft.to/lastmile_qr_scan", "ios": "https://dc.lft.to/lastmile_qr_scan"}}, {"bike_id": "b9ac74d21a75f5b28bcaf606acc7c3d4", "fusion_lon": 0.0, "name": "b9ac74d21a75f5b28bcaf606acc7c3d4", "lat": 38.93397983333333, "is_disabled": 0, "is_reserved": 0, "lon": -77.05738216666667, "type": "electric_scooter", "fusion_lat": 0.0, "rental_uris": {"android": "https://dc.lft.to/lastmile_qr_scan", "ios": "https://dc.lft.to/lastmile_qr_scan"}}, {"bike_id": "667923a544b9423e74b277edc6c7245b", "fusion_lon": 0.0, "name": "667923a544b9423e74b277edc6c7245b", "lat": 38.909793666666666, "is_disabled": 0, "is_reserved": 0, "lon": -77.0343335, "type": "electric_scooter", "fusion_lat": 0.0, "rental_uris": {"android": "https://dc.lft.to/lastmile_qr_scan", "ios": "https://dc.lft.to/lastmile_qr_scan"}}, {"bike_id": "ef00697e38094c553d3bbfb710258eb7", "fusion_lon": 0.0, "name": "ef00697e38094c553d3bbfb710258eb7", "lat": 38.896693, "is_disabled": 0, "is_reserved": 0, "lon": -77.00513133333334, "type": "electric_scooter", "fusion_lat": 0.0, "rental_uris": {"android": "https://dc.lft.to/lastmile_qr_scan", "ios": "https://dc.lft.to/lastmile_qr_scan"}}, {"bike_id": "5fc111f758f31f4b977634851c8a7c66", "fusion_lon": 0.0, "name": "5fc111f758f31f4b977634851c8a7c66", "lat": 38.910455666666664, "is_disabled": 0, "is_reserved": 0, "lon": -77.04096033333333, "type": "electric_scooter", "fusion_lat": 0.0, "rental_uris": {"android": "https://dc.lft.to/lastmile_qr_scan", "ios": "https://dc.lft.to/lastmile_qr_scan"}}, {"bike_id": "01759bb829d5e44d80716cb1feb426e3", "fusion_lon": 0.0, "name": "01759bb829d5e44d80716cb1feb426e3", "lat": 38.9240965, "is_disabled": 0, "is_reserved": 0, "lon": -77.020357, "type": "electric_scooter", "fusion_lat": 0.0, "rental_uris": {"android": "https://dc.lft.to/lastmile_qr_scan", "ios": "https://dc.lft.to/lastmile_qr_scan"}}, {"bike_id": "df24561194e18ca3c0202261ee5d7875", "fusion_lon": 0.0, "name": "df24561194e18ca3c0202261ee5d7875", "lat": 38.88733366666666, "is_disabled": 0, "is_reserved": 0, "lon": -77.02578466666667, "type": "electric_scooter", "fusion_lat": 0.0, "rental_uris": {"android": "https://dc.lft.to/lastmile_qr_scan", "ios": "https://dc.lft.to/lastmile_qr_scan"}}, {"bike_id": "dffd69015982152916fb5395e08f3992", "fusion_lon": 0.0, "name": "dffd69015982152916fb5395e08f3992", "lat": 38.90652766666667, "is_disabled": 0, "is_reserved": 0, "lon": -77.02390766666667, "type": "electric_scooter", "fusion_lat": 0.0, "rental_uris": {"android": "https://dc.lft.to/lastmile_qr_scan", "ios": "https://dc.lft.to/lastmile_qr_scan"}}, {"bike_id": "e012fd5ebca6edcf827ca82eaea66030", "fusion_lon": 0.0, "name": "e012fd5ebca6edcf827ca82eaea66030", "lat": 38.90145783333333, "is_disabled": 0, "is_reserved": 0, "lon": -77.03565033333334, "type": "electric_scooter", "fusion_lat": 0.0, "rental_uris": {"android": "https://dc.lft.to/lastmile_qr_scan", "ios": "https://dc.lft.to/lastmile_qr_scan"}}, {"bike_id": "c3c536e46fb9564c03935cebddebd986", "fusion_lon": 0.0, "name": "c3c536e46fb9564c03935cebddebd986", "lat": 38.866813, "is_disabled": 0, "is_reserved": 0, "lon": -76.98570616666666, "type": "electric_scooter", "fusion_lat": 0.0, "rental_uris": {"android": "https://dc.lft.to/lastmile_qr_scan", "ios": "https://dc.lft.to/lastmile_qr_scan"}}, {"bike_id": "6c3b083989ef8a965ba0aa2f0aee7f18", "fusion_lon": 0.0, "name": "6c3b083989ef8a965ba0aa2f0aee7f18", "lat": 38.91115333333333, "is_disabled": 0, "is_reserved": 0, "lon": -77.03560916666666, "type": "electric_scooter", "fusion_lat": 0.0, "rental_uris": {"android": "https://dc.lft.to/lastmile_qr_scan", "ios": "https://dc.lft.to/lastmile_qr_scan"}}, {"bike_id": "1031536cf3ae7a5d0cbd2fa1de8fbb83", "fusion_lon": 0.0, "name": "1031536cf3ae7a5d0cbd2fa1de8fbb83", "lat": 38.898141, "is_disabled": 0, "is_reserved": 0, "lon": -77.024045, "type": "electric_scooter", "fusion_lat": 0.0, "rental_uris": {"android": "https://dc.lft.to/lastmile_qr_scan", "ios": "https://dc.lft.to/lastmile_qr_scan"}}, {"bike_id": "15527cccc3134fd030723e358ec25f8b", "fusion_lon": 0.0, "name": "15527cccc3134fd030723e358ec25f8b", "lat": 38.944385833333335, "is_disabled": 0, "is_reserved": 0, "lon": -77.06405333333333, "type": "electric_scooter", "fusion_lat": 0.0, "rental_uris": {"android": "https://dc.lft.to/lastmile_qr_scan", "ios": "https://dc.lft.to/lastmile_qr_scan"}}, {"bike_id": "2d9b3242241b06e117b490601668f0a7", "fusion_lon": 0.0, "name": "2d9b3242241b06e117b490601668f0a7", "lat": 38.90383166666667, "is_disabled": 0, "is_reserved": 0, "lon": -77.01640083333334, "type": "electric_scooter", "fusion_lat": 0.0, "rental_uris": {"android": "https://dc.lft.to/lastmile_qr_scan", "ios": "https://dc.lft.to/lastmile_qr_scan"}}, {"bike_id": "ea204d04538002700286f79ce1c07d1e", "fusion_lon": 0.0, "name": "ea204d04538002700286f79ce1c07d1e", "lat": 38.92324883333333, "is_disabled": 0, "is_reserved": 0, "lon": -77.019533, "type": "electric_scooter", "fusion_lat": 0.0, "rental_uris": {"android": "https://dc.lft.to/lastmile_qr_scan", "ios": "https://dc.lft.to/lastmile_qr_scan"}}, {"bike_id": "684c7395e9b71052f1d4b177a35a9740", "fusion_lon": 0.0, "name": "684c7395e9b71052f1d4b177a35a9740", "lat": 38.8921845, "is_disabled": 0, "is_reserved": 0, "lon": -77.02012366666666, "type": "electric_scooter", "fusion_lat": 0.0, "rental_uris": {"android": "https://dc.lft.to/lastmile_qr_scan", "ios": "https://dc.lft.to/lastmile_qr_scan"}}, {"bike_id": "ff7c0a89395f29bdd661409da453455c", "fusion_lon": 0.0, "name": "ff7c0a89395f29bdd661409da453455c", "lat": 38.931712, "is_disabled": 0, "is_reserved": 0, "lon": -77.04296583333333, "type": "electric_scooter", "fusion_lat": 0.0, "rental_uris": {"android": "https://dc.lft.to/lastmile_qr_scan", "ios": "https://dc.lft.to/lastmile_qr_scan"}}, {"bike_id": "efac46c0a788d7f4ad7dd53140ebb3c4", "fusion_lon": 0.0, "name": "efac46c0a788d7f4ad7dd53140ebb3c4", "lat": 38.88554233333333, "is_disabled": 0, "is_reserved": 0, "lon": -76.99775383333333, "type": "electric_scooter", "fusion_lat": 0.0, "rental_uris": {"android": "https://dc.lft.to/lastmile_qr_scan", "ios": "https://dc.lft.to/lastmile_qr_scan"}}, {"bike_id": "6e20fb9d030bd88ab581c8347824345f", "fusion_lon": 0.0, "name": "6e20fb9d030bd88ab581c8347824345f", "lat": 38.909555833333336, "is_disabled": 0, "is_reserved": 0, "lon": -77.03281383333334, "type": "electric_scooter", "fusion_lat": 0.0, "rental_uris": {"android": "https://dc.lft.to/lastmile_qr_scan", "ios": "https://dc.lft.to/lastmile_qr_scan"}}, {"bike_id": "391e9a43a22a4886f90d86bf32ba4fe4", "fusion_lon": 0.0, "name": "391e9a43a22a4886f90d86bf32ba4fe4", "lat": 38.9097555, "is_disabled": 0, "is_reserved": 0, "lon": -77.03437816666667, "type": "electric_scooter", "fusion_lat": 0.0, "rental_uris": {"android": "https://dc.lft.to/lastmile_qr_scan", "ios": "https://dc.lft.to/lastmile_qr_scan"}}, {"bike_id": "86404455cac1f4ee4d2a681f46901580", "fusion_lon": 0.0, "name": "86404455cac1f4ee4d2a681f46901580", "lat": 38.909769833333335, "is_disabled": 0, "is_reserved": 0, "lon": -77.03440166666667, "type": "electric_scooter", "fusion_lat": 0.0, "rental_uris": {"android": "https://dc.lft.to/lastmile_qr_scan", "ios": "https://dc.lft.to/lastmile_qr_scan"}}, {"bike_id": "25878decd28522fe5ffb68356bf8208f", "fusion_lon": 0.0, "name": "25878decd28522fe5ffb68356bf8208f", "lat": 38.88000483333333, "is_disabled": 0, "is_reserved": 0, "lon": -76.99506, "type": "electric_scooter", "fusion_lat": 0.0, "rental_uris": {"android": "https://dc.lft.to/lastmile_qr_scan", "ios": "https://dc.lft.to/lastmile_qr_scan"}}, {"bike_id": "c6ae572f9643855fcd6a47ac9861d0f8", "fusion_lon": 0.0, "name": "c6ae572f9643855fcd6a47ac9861d0f8", "lat": 38.892514166666665, "is_disabled": 0, "is_reserved": 0, "lon": -77.03954133333333, "type": "electric_scooter", "fusion_lat": 0.0, "rental_uris": {"android": "https://dc.lft.to/lastmile_qr_scan", "ios": "https://dc.lft.to/lastmile_qr_scan"}}, {"bike_id": "d32f8306f8e0ee51fbf6e2a787ec9f33", "fusion_lon": 0.0, "name": "d32f8306f8e0ee51fbf6e2a787ec9f33", "lat": 38.918227, "is_disabled": 0, "is_reserved": 0, "lon": -77.04024183333334, "type": "electric_scooter", "fusion_lat": 0.0, "rental_uris": {"android": "https://dc.lft.to/lastmile_qr_scan", "ios": "https://dc.lft.to/lastmile_qr_scan"}}, {"bike_id": "18f68add8794a699a67d100740cf0506", "fusion_lon": 0.0, "name": "18f68add8794a699a67d100740cf0506", "lat": 38.920517833333335, "is_disabled": 0, "is_reserved": 0, "lon": -77.04192233333333, "type": "electric_scooter", "fusion_lat": 0.0, "rental_uris": {"android": "https://dc.lft.to/lastmile_qr_scan", "ios": "https://dc.lft.to/lastmile_qr_scan"}}, {"bike_id": "f33bcfa65e1cd877b59995697523c8a4", "fusion_lon": 0.0, "name": "f33bcfa65e1cd877b59995697523c8a4", "lat": 38.940544333333335, "is_disabled": 0, "is_reserved": 0, "lon": -76.90419083333333, "type": "electric_bike", "fusion_lat": 0.0, "rental_uris": {"android": "https://dc.lft.to/lastmile_qr_scan", "ios": "https://dc.lft.to/lastmile_qr_scan"}}, {"bike_id": "abb873e017fd2a39dbc435d9d36ea187", "fusion_lon": 0.0, "name": "abb873e017fd2a39dbc435d9d36ea187", "lat": 38.9166245, "is_disabled": 0, "is_reserved": 0, "lon": -77.03462066666667, "type": "electric_scooter", "fusion_lat": 0.0, "rental_uris": {"android": "https://dc.lft.to/lastmile_qr_scan", "ios": "https://dc.lft.to/lastmile_qr_scan"}}, {"bike_id": "fb9079d6c2594fc74d7c5bd6f2b065dd", "fusion_lon": 0.0, "name": "fb9079d6c2594fc74d7c5bd6f2b065dd", "lat": 38.975202333333336, "is_disabled": 0, "is_reserved": 0, "lon": -77.0168455, "type": "electric_bike", "fusion_lat": 0.0, "rental_uris": {"android": "https://dc.lft.to/lastmile_qr_scan", "ios": "https://dc.lft.to/lastmile_qr_scan"}}, {"bike_id": "b6484e18886ba6f59b6ef915821b9499", "fusion_lon": 0.0, "name": "b6484e18886ba6f59b6ef915821b9499", "lat": 38.917835, "is_disabled": 0, "is_reserved": 0, "lon": -77.02298933333333, "type": "electric_scooter", "fusion_lat": 0.0, "rental_uris": {"android": "https://dc.lft.to/lastmile_qr_scan", "ios": "https://dc.lft.to/lastmile_qr_scan"}}, {"bike_id": "52d940944e7a3a26c74eda829e130d24", "fusion_lon": 0.0, "name": "52d940944e7a3a26c74eda829e130d24", "lat": 38.92286333333333, "is_disabled": 0, "is_reserved": 0, "lon": -77.02959883333334, "type": "electric_scooter", "fusion_lat": 0.0, "rental_uris": {"android": "https://dc.lft.to/lastmile_qr_scan", "ios": "https://dc.lft.to/lastmile_qr_scan"}}, {"bike_id": "85d3be7957384a3ab5f5ca4bf60e136b", "fusion_lon": 0.0, "name": "85d3be7957384a3ab5f5ca4bf60e136b", "lat": 38.902500333333336, "is_disabled": 0, "is_reserved": 0, "lon": -77.04005866666667, "type": "electric_scooter", "fusion_lat": 0.0, "rental_uris": {"android": "https://dc.lft.to/lastmile_qr_scan", "ios": "https://dc.lft.to/lastmile_qr_scan"}}, {"bike_id": "d2a2d87fd7af5d333aa2d67b6347dd26", "fusion_lon": 0.0, "name": "d2a2d87fd7af5d333aa2d67b6347dd26", "lat": 38.923952166666666, "is_disabled": 0, "is_reserved": 0, "lon": -77.0243425, "type": "electric_scooter", "fusion_lat": 0.0, "rental_uris": {"android": "https://dc.lft.to/lastmile_qr_scan", "ios": "https://dc.lft.to/lastmile_qr_scan"}}, {"bike_id": "d9255fd394241ad984d6f5a5398466e6", "fusion_lon": 0.0, "name": "d9255fd394241ad984d6f5a5398466e6", "lat": 38.9031985, "is_disabled": 0, "is_reserved": 0, "lon": -77.04182066666667, "type": "electric_scooter", "fusion_lat": 0.0, "rental_uris": {"android": "https://dc.lft.to/lastmile_qr_scan", "ios": "https://dc.lft.to/lastmile_qr_scan"}}, {"bike_id": "e455dda8ed5dc11daafccdc969c6ef9d", "fusion_lon": 0.0, "name": "e455dda8ed5dc11daafccdc969c6ef9d", "lat": 38.994472333333334, "is_disabled": 0, "is_reserved": 0, "lon": -76.99588066666666, "type": "electric_bike", "fusion_lat": 0.0, "rental_uris": {"android": "https://dc.lft.to/lastmile_qr_scan", "ios": "https://dc.lft.to/lastmile_qr_scan"}}, {"bike_id": "e93e3ec3136e21f717ac861d67e9b5b1", "fusion_lon": 0.0, "name": "e93e3ec3136e21f717ac861d67e9b5b1", "lat": 38.92246316666667, "is_disabled": 0, "is_reserved": 0, "lon": -77.08075016666666, "type": "electric_scooter", "fusion_lat": 0.0, "rental_uris": {"android": "https://dc.lft.to/lastmile_qr_scan", "ios": "https://dc.lft.to/lastmile_qr_scan"}}, {"bike_id": "abebfad5037fcd57f72e9c94058a2362", "fusion_lon": 0.0, "name": "abebfad5037fcd57f72e9c94058a2362", "lat": 38.90414533333333, "is_disabled": 0, "is_reserved": 0, "lon": -77.02411666666667, "type": "electric_scooter", "fusion_lat": 0.0, "rental_uris": {"android": "https://dc.lft.to/lastmile_qr_scan", "ios": "https://dc.lft.to/lastmile_qr_scan"}}, {"bike_id": "74c64dfdaabe196c242c749d88a72a5d", "fusion_lon": 0.0, "name": "74c64dfdaabe196c242c749d88a72a5d", "lat": 38.913065833333334, "is_disabled": 0, "is_reserved": 0, "lon": -77.03184183333333, "type": "electric_scooter", "fusion_lat": 0.0, "rental_uris": {"android": "https://dc.lft.to/lastmile_qr_scan", "ios": "https://dc.lft.to/lastmile_qr_scan"}}, {"bike_id": "ac6ad7909aa5eba0f69f7d37c0db1601", "fusion_lon": 0.0, "name": "ac6ad7909aa5eba0f69f7d37c0db1601", "lat": 38.89831383333333, "is_disabled": 0, "is_reserved": 0, "lon": -77.048312, "type": "electric_scooter", "fusion_lat": 0.0, "rental_uris": {"android": "https://dc.lft.to/lastmile_qr_scan", "ios": "https://dc.lft.to/lastmile_qr_scan"}}, {"bike_id": "dbc7b3dae7d4fb35828694554fd538ba", "fusion_lon": 0.0, "name": "dbc7b3dae7d4fb35828694554fd538ba", "lat": 38.9418305, "is_disabled": 0, "is_reserved": 0, "lon": -77.02407033333333, "type": "electric_scooter", "fusion_lat": 0.0, "rental_uris": {"android": "https://dc.lft.to/lastmile_qr_scan", "ios": "https://dc.lft.to/lastmile_qr_scan"}}, {"bike_id": "814f078527b9e29a0988bde295ae4044", "fusion_lon": 0.0, "name": "814f078527b9e29a0988bde295ae4044", "lat": 38.905167666666664, "is_disabled": 0, "is_reserved": 0, "lon": -77.04190966666667, "type": "electric_scooter", "fusion_lat": 0.0, "rental_uris": {"android": "https://dc.lft.to/lastmile_qr_scan", "ios": "https://dc.lft.to/lastmile_qr_scan"}}, {"bike_id": "ebd3fa21281e710bd4331ccc8492bd5e", "fusion_lon": 0.0, "name": "ebd3fa21281e710bd4331ccc8492bd5e", "lat": 38.949627166666666, "is_disabled": 0, "is_reserved": 0, "lon": -77.07526883333334, "type": "electric_scooter", "fusion_lat": 0.0, "rental_uris": {"android": "https://dc.lft.to/lastmile_qr_scan", "ios": "https://dc.lft.to/lastmile_qr_scan"}}, {"bike_id": "48beb53efff55e6d05cdc45b47f0d7be", "fusion_lon": 0.0, "name": "48beb53efff55e6d05cdc45b47f0d7be", "lat": 38.90374, "is_disabled": 0, "is_reserved": 0, "lon": -77.03400783333333, "type": "electric_scooter", "fusion_lat": 0.0, "rental_uris": {"android": "https://dc.lft.to/lastmile_qr_scan", "ios": "https://dc.lft.to/lastmile_qr_scan"}}, {"bike_id": "4b417e9d16b9d084250642201606379c", "fusion_lon": 0.0, "name": "4b417e9d16b9d084250642201606379c", "lat": 38.88406, "is_disabled": 0, "is_reserved": 0, "lon": -76.9304165, "type": "electric_scooter", "fusion_lat": 0.0, "rental_uris": {"android": "https://dc.lft.to/lastmile_qr_scan", "ios": "https://dc.lft.to/lastmile_qr_scan"}}, {"bike_id": "cb916791ecaacf4d8d95db9fffcdda9b", "fusion_lon": 0.0, "name": "cb916791ecaacf4d8d95db9fffcdda9b", "lat": 38.9067665, "is_disabled": 0, "is_reserved": 0, "lon": -77.03759866666667, "type": "electric_scooter", "fusion_lat": 0.0, "rental_uris": {"android": "https://dc.lft.to/lastmile_qr_scan", "ios": "https://dc.lft.to/lastmile_qr_scan"}}, {"bike_id": "b4baa39fcdf937f3ec95e192be69ce88", "fusion_lon": 0.0, "name": "b4baa39fcdf937f3ec95e192be69ce88", "lat": 38.90995733333333, "is_disabled": 0, "is_reserved": 0, "lon": -77.026883, "type": "electric_scooter", "fusion_lat": 0.0, "rental_uris": {"android": "https://dc.lft.to/lastmile_qr_scan", "ios": "https://dc.lft.to/lastmile_qr_scan"}}, {"bike_id": "9364507266188ef8b9063240ccf744fd", "fusion_lon": 0.0, "name": "9364507266188ef8b9063240ccf744fd", "lat": 38.9347035, "is_disabled": 0, "is_reserved": 0, "lon": -77.0296585, "type": "electric_scooter", "fusion_lat": 0.0, "rental_uris": {"android": "https://dc.lft.to/lastmile_qr_scan", "ios": "https://dc.lft.to/lastmile_qr_scan"}}, {"bike_id": "6104309cc3cb6f0499ee1576e7433f0f", "fusion_lon": 0.0, "name": "6104309cc3cb6f0499ee1576e7433f0f", "lat": 38.90961566666667, "is_disabled": 0, "is_reserved": 0, "lon": -77.0228235, "type": "electric_scooter", "fusion_lat": 0.0, "rental_uris": {"android": "https://dc.lft.to/lastmile_qr_scan", "ios": "https://dc.lft.to/lastmile_qr_scan"}}, {"bike_id": "e555f65995ae7a80a515811454528608", "fusion_lon": 0.0, "name": "e555f65995ae7a80a515811454528608", "lat": 38.898729833333334, "is_disabled": 0, "is_reserved": 0, "lon": -76.9318515, "type": "electric_scooter", "fusion_lat": 0.0, "rental_uris": {"android": "https://dc.lft.to/lastmile_qr_scan", "ios": "https://dc.lft.to/lastmile_qr_scan"}}, {"bike_id": "847edfc53643739e64fcbc5b79213ffb", "fusion_lon": 0.0, "name": "847edfc53643739e64fcbc5b79213ffb", "lat": 38.924096166666665, "is_disabled": 0, "is_reserved": 0, "lon": -77.02713766666666, "type": "electric_scooter", "fusion_lat": 0.0, "rental_uris": {"android": "https://dc.lft.to/lastmile_qr_scan", "ios": "https://dc.lft.to/lastmile_qr_scan"}}, {"bike_id": "292dc2d0a9ed4c1b5f5cb76410b92b8a", "fusion_lon": 0.0, "name": "292dc2d0a9ed4c1b5f5cb76410b92b8a", "lat": 38.925672, "is_disabled": 0, "is_reserved": 0, "lon": -77.02706366666666, "type": "electric_scooter", "fusion_lat": 0.0, "rental_uris": {"android": "https://dc.lft.to/lastmile_qr_scan", "ios": "https://dc.lft.to/lastmile_qr_scan"}}, {"bike_id": "b2c2c5cf6b8024282f50ebe6c84fd5bd", "fusion_lon": 0.0, "name": "b2c2c5cf6b8024282f50ebe6c84fd5bd", "lat": 38.901969666666666, "is_disabled": 0, "is_reserved": 0, "lon": -77.02378733333333, "type": "electric_scooter", "fusion_lat": 0.0, "rental_uris": {"android": "https://dc.lft.to/lastmile_qr_scan", "ios": "https://dc.lft.to/lastmile_qr_scan"}}, {"bike_id": "a5456c42d5076125149acab470044dee", "fusion_lon": 0.0, "name": "a5456c42d5076125149acab470044dee", "lat": 38.9050645, "is_disabled": 0, "is_reserved": 0, "lon": -77.0602905, "type": "electric_bike", "fusion_lat": 0.0, "rental_uris": {"android": "https://dc.lft.to/lastmile_qr_scan", "ios": "https://dc.lft.to/lastmile_qr_scan"}}, {"bike_id": "dc35337b85ce869554a0b9117f1edef3", "fusion_lon": 0.0, "name": "dc35337b85ce869554a0b9117f1edef3", "lat": 38.892699666666665, "is_disabled": 0, "is_reserved": 0, "lon": -76.95113, "type": "electric_bike", "fusion_lat": 0.0, "rental_uris": {"android": "https://dc.lft.to/lastmile_qr_scan", "ios": "https://dc.lft.to/lastmile_qr_scan"}}, {"bike_id": "a0adb873c04ed755179e871b438d0ebc", "fusion_lon": 0.0, "name": "a0adb873c04ed755179e871b438d0ebc", "lat": 38.8849715, "is_disabled": 0, "is_reserved": 0, "lon": -77.0069735, "type": "electric_scooter", "fusion_lat": 0.0, "rental_uris": {"android": "https://dc.lft.to/lastmile_qr_scan", "ios": "https://dc.lft.to/lastmile_qr_scan"}}, {"bike_id": "d902a1f4556aea359ba4ef1f2941339f", "fusion_lon": 0.0, "name": "d902a1f4556aea359ba4ef1f2941339f", "lat": 38.8655325, "is_disabled": 0, "is_reserved": 0, "lon": -76.98345983333333, "type": "electric_scooter", "fusion_lat": 0.0, "rental_uris": {"android": "https://dc.lft.to/lastmile_qr_scan", "ios": "https://dc.lft.to/lastmile_qr_scan"}}, {"bike_id": "6bfa847482750f6c0212885afa77df83", "fusion_lon": 0.0, "name": "6bfa847482750f6c0212885afa77df83", "lat": 38.896879, "is_disabled": 0, "is_reserved": 0, "lon": -77.04661233333333, "type": "electric_scooter", "fusion_lat": 0.0, "rental_uris": {"android": "https://dc.lft.to/lastmile_qr_scan", "ios": "https://dc.lft.to/lastmile_qr_scan"}}, {"bike_id": "61ce702a11a2547a50167fd16d613f3b", "fusion_lon": 0.0, "name": "61ce702a11a2547a50167fd16d613f3b", "lat": 38.90559733333333, "is_disabled": 0, "is_reserved": 0, "lon": -77.013101, "type": "electric_scooter", "fusion_lat": 0.0, "rental_uris": {"android": "https://dc.lft.to/lastmile_qr_scan", "ios": "https://dc.lft.to/lastmile_qr_scan"}}, {"bike_id": "1d84b0ac7201ca592fb4f340d4da7407", "fusion_lon": 0.0, "name": "1d84b0ac7201ca592fb4f340d4da7407", "lat": 38.9168785, "is_disabled": 0, "is_reserved": 0, "lon": -77.03766116666667, "type": "electric_scooter", "fusion_lat": 0.0, "rental_uris": {"android": "https://dc.lft.to/lastmile_qr_scan", "ios": "https://dc.lft.to/lastmile_qr_scan"}}, {"bike_id": "ae995fef229416fde6f4489f2e60ebfd", "fusion_lon": 0.0, "name": "ae995fef229416fde6f4489f2e60ebfd", "lat": 38.89214716666667, "is_disabled": 0, "is_reserved": 0, "lon": -77.043134, "type": "electric_scooter", "fusion_lat": 0.0, "rental_uris": {"android": "https://dc.lft.to/lastmile_qr_scan", "ios": "https://dc.lft.to/lastmile_qr_scan"}}, {"bike_id": "089a5658100f3a98554351b61559ea04", "fusion_lon": 0.0, "name": "089a5658100f3a98554351b61559ea04", "lat": 38.917799333333335, "is_disabled": 0, "is_reserved": 0, "lon": -77.02285483333333, "type": "electric_scooter", "fusion_lat": 0.0, "rental_uris": {"android": "https://dc.lft.to/lastmile_qr_scan", "ios": "https://dc.lft.to/lastmile_qr_scan"}}, {"bike_id": "2611937faa308a69021aefd8bfc6d393", "fusion_lon": 0.0, "name": "2611937faa308a69021aefd8bfc6d393", "lat": 38.89227666666667, "is_disabled": 0, "is_reserved": 0, "lon": -77.04328466666666, "type": "electric_scooter", "fusion_lat": 0.0, "rental_uris": {"android": "https://dc.lft.to/lastmile_qr_scan", "ios": "https://dc.lft.to/lastmile_qr_scan"}}, {"bike_id": "96185d5566ddbe0e4033779114486599", "fusion_lon": 0.0, "name": "96185d5566ddbe0e4033779114486599", "lat": 38.923401, "is_disabled": 0, "is_reserved": 0, "lon": -77.03517066666667, "type": "electric_scooter", "fusion_lat": 0.0, "rental_uris": {"android": "https://dc.lft.to/lastmile_qr_scan", "ios": "https://dc.lft.to/lastmile_qr_scan"}},