{"data": {"bikes": [{"is_disabled": 0, "fusion_lat": 0.0, "lat": 38.87473466666667, "type": "electric_scooter", "lon": -77.00935383333334, "is_reserved": 0, "fusion_lon": 0.0, "bike_id": "a896ba34a38b1f8a27abd8ff7936bdd8", "name": "a896ba34a38b1f8a27abd8ff7936bdd8", "rental_uris": {"ios": "https://dc.lft.to/lastmile_qr_scan", "android": "https://dc.lft.to/lastmile_qr_scan"}}, {"is_disabled": 0, "fusion_lat": 0.0, "lat": 38.93057316666667, "type": "electric_scooter", "lon": -77.0418045, "is_reserved": 0, "fusion_lon": 0.0, "bike_id": "9d9969005d5656b913aa215decae4e7a", "name": "9d9969005d5656b913aa215decae4e7a", "rental_uris": {"ios": "https://dc.lft.to/lastmile_qr_scan", "android": "https://dc.lft.to/lastmile_qr_scan"}}, {"is_disabled": 0, "fusion_lat": 0.0, "lat": 38.91717883333333, "type": "electric_scooter", "lon": -77.038373, "is_reserved": 0, "fusion_lon": 0.0, "bike_id": "eac145dd3332812ff3a70b20e1e95823", "name": "eac145dd3332812ff3a70b20e1e95823", "rental_uris": {"ios": "https://dc.lft.to/lastmile_qr_scan", "android": "https://dc.lft.to/lastmile_qr_scan"}}, {"is_disabled": 0, "fusion_lat": 0.0, "lat": 38.902609166666664, "type": "electric_scooter", "lon": -77.01728983333334, "is_reserved": 0, "fusion_lon": 0.0, "bike_id": "a456d8a9b185f1533e39a164175c6339", "name": "a456d8a9b185f1533e39a164175c6339", "rental_uris": {"ios": "https://dc.lft.to/lastmile_qr_scan", "android": "https://dc.lft.to/lastmile_qr_scan"}}, {"is_disabled": 0, "fusion_lat": 0.0, "lat": 38.89907633333333, "type": "electric_scooter", "lon": -76.93352866666666, "is_reserved": 0, "fusion_lon": 0.0, "bike_id": "6b36c132c2eb308149ffb01d51056292", "name": "6b36c132c2eb308149ffb01d51056292", "rental_uris": {"ios": "https://dc.lft.to/lastmile_qr_scan", "android": "https://dc.lft.to/lastmile_qr_scan"}}, {"is_disabled": 0, "fusion_lat": 0.0, "lat": 38.916242833333335, "type": "electric_scooter", "lon": -77.03208083333334, "is_reserved": 0, "fusion_lon": 0.0, "bike_id": "6fc0e796883f3a7db327ce974d654be2", "name": "6fc0e796883f3a7db327ce974d654be2", "rental_uris": {"ios": "https://dc.lft.to/lastmile_qr_scan", "android": "https://dc.lft.to/lastmile_qr_scan"}}, {"is_disabled": 0, "fusion_lat": 0.0, "lat": 38.858086, "type": "electric_scooter", "lon": -76.986577, "is_reserved": 0, "fusion_lon": 0.0, "bike_id": "c50695d1be3357038fa3b514ce2bed77", "name": "c50695d1be3357038fa3b514ce2bed77", "rental_uris": {"ios": "https://dc.lft.to/lastmile_qr_scan", "android": "https://dc.lft.to/lastmile_qr_scan"}}, {"is_disabled": 0, "fusion_lat": 0.0, "lat": 38.89016433333333, "type": "electric_scooter", "lon": -76.93743333333333, "is_reserved": 0, "fusion_lon": 0.0, "bike_id": "a0d5c182d62307706d3d3dbc59fd59ad", "name": "a0d5c182d62307706d3d3dbc59fd59ad", "rental_uris": {"ios": "https://dc.lft.to/lastmile_qr_scan", "android": "https://dc.lft.to/lastmile_qr_scan"}}, {"is_disabled": 0, "fusion_lat": 0.0, "lat": 38.90864283333333, "type": "electric_scooter", "lon": -77.0859085, "is_reserved": 0, "fusion_lon": 0.0, "bike_id": "8a17ed33fe59e1919d2abacb53220376", "name": "8a17ed33fe59e1919d2abacb53220376", "rental_uris": {"ios": "https://dc.lft.to/lastmile_qr_scan", "android": "https://dc.lft.to/lastmile_qr_scan"}}, {"is_disabled": 0, "fusion_lat": 0.0, "lat": 38.90142783333334, "type": "electric_scooter", "lon": -77.0404105, "is_reserved": 0, "fusion_lon": 0.0, "bike_id": "e4a76790aceb91e1bd1795a96e3b534a", "name": "e4a76790aceb91e1bd1795a96e3b534a", "rental_uris": {"ios": "https://dc.lft.to/lastmile_qr_scan", "android": "https://dc.lft.to/lastmile_qr_scan"}}, {"is_disabled": 0, "fusion_lat": 0.0, "lat": 38.930368, "type": "electric_scooter", "lon": -77.0321745, "is_reserved": 0, "fusion_lon": 0.0, "bike_id": "e972fd01f1b2cbe7bea73aff60c3d275", "name": "e972fd01f1b2cbe7bea73aff60c3d275", "rental_uris": {"ios": "https://dc.lft.to/lastmile_qr_scan", "android": "https://dc.lft.to/lastmile_qr_scan"}}, {"is_disabled": 0, "fusion_lat": 0.0, "lat": 38.90108333333333, "type": "electric_scooter", "lon": -77.05134416666667, "is_reserved": 0, "fusion_lon": 0.0, "bike_id": "ee1612f49914a93e23e3a9636a76f523", "name": "ee1612f49914a93e23e3a9636a76f523", "rental_uris": {"ios": "https://dc.lft.to/lastmile_qr_scan", "android": "https://dc.lft.to/lastmile_qr_scan"}}, {"is_disabled": 0, "fusion_lat": 0.0, "lat": 38.893379333333336, "type": "electric_scooter", "lon": -76.92883633333334, "is_reserved": 0, "fusion_lon": 0.0, "bike_id": "ca05f18837e3d6f64e4d40e09f345d5a", "name": "ca05f18837e3d6f64e4d40e09f345d5a", "rental_uris": {"ios": "https://dc.lft.to/lastmile_qr_scan", "android": "https://dc.lft.to/lastmile_qr_scan"}}, {"is_disabled": 0, "fusion_lat": 0.0, "lat": 38.920453333333334, "type": "electric_scooter", "lon": -77.04178216666666, "is_reserved": 0, "fusion_lon": 0.0, "bike_id": "29e4c0581dc8b81a4dda9f0b1676d6b9", "name": "29e4c0581dc8b81a4dda9f0b1676d6b9", "rental_uris": {"ios": "https://dc.lft.to/lastmile_qr_scan", "android": "https://dc.lft.to/lastmile_qr_scan"}}, {"is_disabled": 0, "fusion_lat": 0.0, "lat": 38.907955, "type": "electric_scooter", "lon": -76.99699966666667, "is_reserved": 0, "fusion_lon": 0.0, "bike_id": "4f40d7b937682fa907d44a96ae688a8e", "name": "4f40d7b937682fa907d44a96ae688a8e", "rental_uris": {"ios": "https://dc.lft.to/lastmile_qr_scan", "android": "https://dc.lft.to/lastmile_qr_scan"}}, {"is_disabled": 0, "fusion_lat": 0.0, "lat": 38.920566666666666, "type": "electric_scooter", "lon": -77.03377116666667, "is_reserved": 0, "fusion_lon": 0.0, "bike_id": "d30d4cf04cc1617cb0d38794496faee7", "name": "d30d4cf04cc1617cb0d38794496faee7", "rental_uris": {"ios": "https://dc.lft.to/lastmile_qr_scan", "android": "https://dc.lft.to/lastmile_qr_scan"}}, {"is_disabled": 0, "fusion_lat": 0.0, "lat": 38.941796, "type": "electric_scooter", "lon": -77.030943, "is_reserved": 0, "fusion_lon": 0.0, "bike_id": "cbf2f5be2759fde0f02dd57ce33d0210", "name": "cbf2f5be2759fde0f02dd57ce33d0210", "rental_uris": {"ios": "https://dc.lft.to/lastmile_qr_scan", "android": "https://dc.lft.to/lastmile_qr_scan"}}, {"is_disabled": 0, "fusion_lat": 0.0, "lat": 38.87391683333333, "type": "electric_scooter", "lon": -77.00089333333334, "is_reserved": 0, "fusion_lon": 0.0, "bike_id": "20c889c2963b1b757025bff0cf9ab773", "name": "20c889c2963b1b757025bff0cf9ab773", "rental_uris": {"ios": "https://dc.lft.to/lastmile_qr_scan", "android": "https://dc.lft.to/lastmile_qr_scan"}}, {"is_disabled": 0, "fusion_lat": 0.0, "lat": 38.9032875, "type": "electric_scooter", "lon": -77.05169433333333, "is_reserved": 0, "fusion_lon": 0.0, "bike_id": "92c93866de5532730541416683b6baac", "name": "92c93866de5532730541416683b6baac", "rental_uris": {"ios": "https://dc.lft.to/lastmile_qr_scan", "android": "https://dc.lft.to/lastmile_qr_scan"}}, {"is_disabled": 0, "fusion_lat": 0.0, "lat": 38.90412283333333, "type": "electric_scooter", "lon": -77.03208, "is_reserved": 0, "fusion_lon": 0.0, "bike_id": "5d4756ccde25fb90c2a73dba7394a1d0", "name": "5d4756ccde25fb90c2a73dba7394a1d0", "rental_uris": {"ios": "https://dc.lft.to/lastmile_qr_scan", "android": "https://dc.lft.to/lastmile_qr_scan"}}, {"is_disabled": 0, "fusion_lat": 0.0, "lat": 38.916785833333336, "type": "electric_scooter", "lon": -77.03686666666667, "is_reserved": 0, "fusion_lon": 0.0, "bike_id": "8aa8e4ab2b29bf22cb0e567c6cc46584", "name": "8aa8e4ab2b29bf22cb0e567c6cc46584", "rental_uris": {"ios": "https://dc.lft.to/lastmile_qr_scan", "android": "https://dc.lft.to/lastmile_qr_scan"}}, {"is_disabled": 0, "fusion_lat": 0.0, "lat": 38.876267666666664, "type": "electric_scooter", "lon": -76.96524666666667, "is_reserved": 0, "fusion_lon": 0.0, "bike_id": "536c2285cf882bd9c95d977ce887c0ec", "name": "536c2285cf882bd9c95d977ce887c0ec", "rental_uris": {"ios": "https://dc.lft.to/lastmile_qr_scan", "android": "https://dc.lft.to/lastmile_qr_scan"}}, {"is_disabled": 0, "fusion_lat": 0.0, "lat": 38.91017516666667, "type": "electric_scooter", "lon": -77.02913783333334, "is_reserved": 0, "fusion_lon": 0.0, "bike_id": "f0274d74ccf0a934bc3c78f3b77c3657", "name": "f0274d74ccf0a934bc3c78f3b77c3657", "rental_uris": {"ios": "https://dc.lft.to/lastmile_qr_scan", "android": "https://dc.lft.to/lastmile_qr_scan"}}, {"is_disabled": 0, "fusion_lat": 0.0, "lat": 38.92186983333333, "type": "electric_scooter", "lon": -77.03205333333334, "is_reserved": 0, "fusion_lon": 0.0, "bike_id": "87a443cd331568e28608e085dd981ebf", "name": "87a443cd331568e28608e085dd981ebf", "rental_uris": {"ios": "https://dc.lft.to/lastmile_qr_scan", "android": "https://dc.lft.to/lastmile_qr_scan"}}, {"is_disabled": 0, "fusion_lat": 0.0, "lat": 38.89328166666667, "type": "electric_scooter", "lon": -76.92991183333334, "is_reserved": 0, "fusion_lon": 0.0, "bike_id": "1c4e2e9a069474c30cf15bb704084c28", "name": "1c4e2e9a069474c30cf15bb704084c28", "rental_uris": {"ios": "https://dc.lft.to/lastmile_qr_scan", "android": "https://dc.lft.to/lastmile_qr_scan"}}, {"is_disabled": 0, "fusion_lat": 0.0, "lat": 38.9051405, "type": "electric_scooter", "lon": -76.98835083333333, "is_reserved": 0, "fusion_lon": 0.0, "bike_id": "6256e06c4cb2738c3c827646fbfd5170", "name": "6256e06c4cb2738c3c827646fbfd5170", "rental_uris": {"ios": "https://dc.lft.to/lastmile_qr_scan", "android": "https://dc.lft.to/lastmile_qr_scan"}}, {"is_disabled": 0, "fusion_lat": 0.0, "lat": 38.90504133333334, "type": "electric_scooter", "lon": -77.05130183333333, "is_reserved": 0, "fusion_lon": 0.0, "bike_id": "32258919c6f2ef6f3414f9f818ce6d45", "name": "32258919c6f2ef6f3414f9f818ce6d45", "rental_uris": {"ios": "https://dc.lft.to/lastmile_qr_scan", "android": "https://dc.lft.to/lastmile_qr_scan"}}, {"is_disabled": 0, "fusion_lat": 0.0, "lat": 38.990752666666666, "type": "electric_bike", "lon": -76.87470333333333, "is_reserved": 0, "fusion_lon": 0.0, "bike_id": "b985fe13c3eb5bdc85dba1d3bedead4d", "name": "b985fe13c3eb5bdc85dba1d3bedead4d", "rental_uris": {"ios": "https://dc.lft.to/lastmile_qr_scan", "android": "https://dc.lft.to/lastmile_qr_scan"}}, {"is_disabled": 0, "fusion_lat": 0.0, "lat": 38.9079595, "type": "electric_scooter", "lon": -77.02392666666667, "is_reserved": 0, "fusion_lon": 0.0, "bike_id": "f24cede630d958259b0501c3909b41cb", "name": "f24cede630d958259b0501c3909b41cb", "rental_uris": {"ios": "https://dc.lft.to/lastmile_qr_scan", "android": "https://dc.lft.to/lastmile_qr_scan"}}, {"is_disabled": 0, "fusion_lat": 0.0, "lat": 38.9194125, "type": "electric_scooter", "lon": -77.0813605, "is_reserved": 0, "fusion_lon": 0.0, "bike_id": "0d97ac470e8b7f6a7783c2ff10020940", "name": "0d97ac470e8b7f6a7783c2ff10020940", "rental_uris": {"ios": "https://dc.lft.to/lastmile_qr_scan", "android": "https://dc.lft.to/lastmile_qr_scan"}}, {"is_disabled": 0, "fusion_lat": 0.0, "lat": 38.861052, "type": "electric_scooter", "lon": -76.9833955, "is_reserved": 0, "fusion_lon": 0.0, "bike_id": "eebce21069afdb954f27d3576265e991", "name": "eebce21069afdb954f27d3576265e991", "rental_uris": {"ios": "https://dc.lft.to/lastmile_qr_scan", "android": "https://dc.lft.to/lastmile_qr_scan"}}, {"is_disabled": 0, "fusion_lat": 0.0, "lat": 38.919263, "type": "electric_scooter", "lon": -77.0317085, "is_reserved": 0, "fusion_lon": 0.0, "bike_id": "eae5e499d953fd537a7ca447b1543632", "name": "eae5e499d953fd537a7ca447b1543632", "rental_uris": {"ios": "https://dc.lft.to/lastmile_qr_scan", "android": "https://dc.lft.to/lastmile_qr_scan"}}, {"is_disabled": 0, "fusion_lat": 0.0, "lat": 38.93192366666667, "type": "electric_scooter", "lon": -77.028393, "is_reserved": 0, "fusion_lon": 0.0, "bike_id": "5cf97d65a4de65a6748d60a7ac8fb46b", "name": "5cf97d65a4de65a6748d60a7ac8fb46b", "rental_uris": {"ios": "https://dc.lft.to/lastmile_qr_scan", "android": "https://dc.lft.to/lastmile_qr_scan"}}, {"is_disabled": 0, "fusion_lat": 0.0, "lat": 38.887691, "type": "electric_scooter", "lon": -77.02228633333333, "is_reserved": 0, "fusion_lon": 0.0, "bike_id": "3b45c6134d10ea3c58d3082ca71f4292", "name": "3b45c6134d10ea3c58d3082ca71f4292", "rental_uris": {"ios": "https://dc.lft.to/lastmile_qr_scan", "android": "https://dc.lft.to/lastmile_qr_scan"}}, {"is_disabled": 0, "fusion_lat": 0.0, "lat": 38.884325, "type": "electric_scooter", "lon": -76.957567, "is_reserved": 0, "fusion_lon": 0.0, "bike_id": "f6dc47bd0dcfefce2c0a41745b44df89", "name": "f6dc47bd0dcfefce2c0a41745b44df89", "rental_uris": {"ios": "https://dc.lft.to/lastmile_qr_scan", "android": "https://dc.lft.to/lastmile_qr_scan"}}, {"is_disabled": 0, "fusion_lat": 0.0, "lat": 38.9006395, "type": "electric_scooter", "lon": -76.933876, "is_reserved": 0, "fusion_lon": 0.0, "bike_id": "c6aca094f841c39a55582b0bdba039f3", "name": "c6aca094f841c39a55582b0bdba039f3", "rental_uris": {"ios": "https://dc.lft.to/lastmile_qr_scan", "android": "https://dc.lft.to/lastmile_qr_scan"}}, {"is_disabled": 0, "fusion_lat": 0.0, "lat": 38.915548, "type": "electric_scooter", "lon": -77.03065083333334, "is_reserved": 0, "fusion_lon": 0.0, "bike_id": "ba89c82fdd05e42ef7d61b4a6b47a8d6", "name": "ba89c82fdd05e42ef7d61b4a6b47a8d6", "rental_uris": {"ios": "https://dc.lft.to/lastmile_qr_scan", "android": "https://dc.lft.to/lastmile_qr_scan"}}, {"is_disabled": 0, "fusion_lat": 0.0, "lat": 38.922904, "type": "electric_scooter", "lon": -77.02075616666667, "is_reserved": 0, "fusion_lon": 0.0, "bike_id": "f437366955364faed6e507f5d01a601b", "name": "f437366955364faed6e507f5d01a601b", "rental_uris": {"ios": "https://dc.lft.to/lastmile_qr_scan", "android": "https://dc.lft.to/lastmile_qr_scan"}}, {"is_disabled": 0, "fusion_lat": 0.0, "lat": 38.84609916666667, "type": "electric_bike", "lon": -76.9781805, "is_reserved": 0, "fusion_lon": 0.0, "bike_id": "578853f51bc1f3595ba022ca45e4375e", "name": "578853f51bc1f3595ba022ca45e4375e", "rental_uris": {"ios": "https://dc.lft.to/lastmile_qr_scan", "android": "https://dc.lft.to/lastmile_qr_scan"}}, {"is_disabled": 0, "fusion_lat": 0.0, "lat": 38.896171333333335, "type": "electric_scooter", "lon": -77.0404565, "is_reserved": 0, "fusion_lon": 0.0, "bike_id": "ea1138fea8bce662244c2e42a69adf09", "name": "ea1138fea8bce662244c2e42a69adf09", "rental_uris": {"ios": "https://dc.lft.to/lastmile_qr_scan", "android": "https://dc.lft.to/lastmile_qr_scan"}}, {"is_disabled": 0, "fusion_lat": 0.0, "lat": 38.912735, "type": "electric_scooter", "lon": -77.02244016666667, "is_reserved": 0, "fusion_lon": 0.0, "bike_id": "6157d3d8d9fe2746b55fb6f7fe418d4b", "name": "6157d3d8d9fe2746b55fb6f7fe418d4b", "rental_uris": {"ios": "https://dc.lft.to/lastmile_qr_scan", "android": "https://dc.lft.to/lastmile_qr_scan"}}, {"is_disabled": 0, "fusion_lat": 0.0, "lat": 38.92496833333333, "type": "electric_scooter", "lon": -77.02151683333334, "is_reserved": 0, "fusion_lon": 0.0, "bike_id": "1e2c1a5263542f4d9c77e2625ec8a859", "name": "1e2c1a5263542f4d9c77e2625ec8a859", "rental_uris": {"ios": "https://dc.lft.to/lastmile_qr_scan", "android": "https://dc.lft.to/lastmile_qr_scan"}}, {"is_disabled": 0, "fusion_lat": 0.0, "lat": 38.9037545, "type": "electric_scooter", "lon": -77.038843, "is_reserved": 0, "fusion_lon": 0.0, "bike_id": "34113652b440b5522e11719c8c69f77d", "name": "34113652b440b5522e11719c8c69f77d", "rental_uris": {"ios": "https://dc.lft.to/lastmile_qr_scan", "android": "https://dc.lft.to/lastmile_qr_scan"}}, {"is_disabled": 0, "fusion_lat": 0.0, "lat": 38.90927633333333, "type": "electric_scooter", "lon": -76.99957633333334, "is_reserved": 0, "fusion_lon": 0.0, "bike_id": "212cd1965c020076f94ed86da5dab039", "name": "212cd1965c020076f94ed86da5dab039", "rental_uris": {"ios": "https://dc.lft.to/lastmile_qr_scan", "android": "https://dc.lft.to/lastmile_qr_scan"}}, {"is_disabled": 0, "fusion_lat": 0.0, "lat": 39.058121666666665, "type": "electric_bike", "lon": -77.12624333333333, "is_reserved": 0, "fusion_lon": 0.0, "bike_id": "507d4d965b3f160d3279f356e87b60df", "name": "507d4d965b3f160d3279f356e87b60df", "rental_uris": {"ios": "https://dc.lft.to/lastmile_qr_scan", "android": "https://dc.lft.to/lastmile_qr_scan"}}, {"is_disabled": 0, "fusion_lat": 0.0, "lat": 38.90779033333333, "type": "electric_scooter", "lon": -77.03476416666666, "is_reserved": 0, "fusion_lon": 0.0, "bike_id": "78333d367fb17e509df5fe01eef60a0a", "name": "78333d367fb17e509df5fe01eef60a0a", "rental_uris": {"ios": "https://dc.lft.to/lastmile_qr_scan", "android": "https://dc.lft.to/lastmile_qr_scan"}}, {"is_disabled": 0, "fusion_lat": 0.0, "lat": 38.91188733333333, "type": "electric_scooter", "lon": -77.00440783333333, "is_reserved": 0, "fusion_lon": 0.0, "bike_id": "864232d74fde61a8d4d357856de0e235", "name": "864232d74fde61a8d4d357856de0e235", "rental_uris": {"ios": "https://dc.lft.to/lastmile_qr_scan", "android": "https://dc.lft.to/lastmile_qr_scan"}}, {"is_disabled": 0, "fusion_lat": 0.0, "lat": 38.953542166666665, "type": "electric_bike", "lon": -76.98090866666666, "is_reserved": 0, "fusion_lon": 0.0, "bike_id": "5fb666331dd5c48cee533f3aacdae5ab", "name": "5fb666331dd5c48cee533f3aacdae5ab", "rental_uris": {"ios": "https://dc.lft.to/lastmile_qr_scan", "android": "https://dc.lft.to/lastmile_qr_scan"}}, {"is_disabled": 0, "fusion_lat": 0.0, "lat": 38.846107, "type": "electric_bike", "lon": -76.96910033333333, "is_reserved": 0, "fusion_lon": 0.0, "bike_id": "60f326f5c34fedea2f12262a55428b5a", "name": "60f326f5c34fedea2f12262a55428b5a", "rental_uris": {"ios": "https://dc.lft.to/lastmile_qr_scan", "android": "https://dc.lft.to/lastmile_qr_scan"}}, {"is_disabled": 0, "fusion_lat": 0.0, "lat": 38.89555983333333, "type": "electric_scooter", "lon": -76.9304265, "is_reserved": 0, "fusion_lon": 0.0, "bike_id": "f3d211ba8c4a4602c52f88332a7591d8", "name": "f3d211ba8c4a4602c52f88332a7591d8", "rental_uris": {"ios": "https://dc.lft.to/lastmile_qr_scan", "android": "https://dc.lft.to/lastmile_qr_scan"}}, {"is_disabled": 0, "fusion_lat": 0.0, "lat": 38.854830166666666, "type": "electric_bike", "lon": -77.11605116666667, "is_reserved": 0, "fusion_lon": 0.0, "bike_id": "46b46f1c03a48ab186419238051c7db3", "name": "46b46f1c03a48ab186419238051c7db3", "rental_uris": {"ios": "https://dc.lft.to/lastmile_qr_scan", "android": "https://dc.lft.to/lastmile_qr_scan"}}, {"is_disabled": 0, "fusion_lat": 0.0, "lat": 38.87496383333333, "type": "electric_scooter", "lon": -76.99799616666667, "is_reserved": 0, "fusion_lon": 0.0, "bike_id": "3c73e62c72fbf7a8995c3765cef4c46f", "name": "3c73e62c72fbf7a8995c3765cef4c46f", "rental_uris": {"ios": "https://dc.lft.to/lastmile_qr_scan", "android": "https://dc.lft.to/lastmile_qr_scan"}}, {"is_disabled": 0, "fusion_lat": 0.0, "lat": 38.899078, "type": "electric_scooter", "lon": -76.93354433333333, "is_reserved": 0, "fusion_lon": 0.0, "bike_id": "d63cfc3ca35acf46edd26ab233396279", "name": "d63cfc3ca35acf46edd26ab233396279", "rental_uris": {"ios": "https://dc.lft.to/lastmile_qr_scan", "android": "https://dc.lft.to/lastmile_qr_scan"}}, {"is_disabled": 0, "fusion_lat": 0.0, "lat": 38.89195816666667, "type": "electric_scooter", "lon": -77.02379333333333, "is_reserved": 0, "fusion_lon": 0.0, "bike_id": "52980dd14791459aeea4f3270d88f1b2", "name": "52980dd14791459aeea4f3270d88f1b2", "rental_uris": {"ios": "https://dc.lft.to/lastmile_qr_scan", "android": "https://dc.lft.to/lastmile_qr_scan"}}, {"is_disabled": 0, "fusion_lat": 0.0, "lat": 38.924156833333335, "type": "electric_scooter", "lon": -77.02238366666667, "is_reserved": 0, "fusion_lon": 0.0, "bike_id": "1988b7320a174b73057b62da2159d718", "name": "1988b7320a174b73057b62da2159d718", "rental_uris": {"ios": "https://dc.lft.to/lastmile_qr_scan", "android": "https://dc.lft.to/lastmile_qr_scan"}}, {"is_disabled": 0, "fusion_lat": 0.0, "lat": 38.90418233333333, "type": "electric_scooter", "lon": -77.02073566666667, "is_reserved": 0, "fusion_lon": 0.0, "bike_id": "5bd4a66c7b45643f63921e4a9139e62a", "name": "5bd4a66c7b45643f63921e4a9139e62a", "rental_uris": {"ios": "https://dc.lft.to/lastmile_qr_scan", "android": "https://dc.lft.to/lastmile_qr_scan"}}, {"is_disabled": 0, "fusion_lat": 0.0, "lat": 38.88516833333333, "type": "electric_scooter", "lon": -77.033502, "is_reserved": 0, "fusion_lon": 0.0, "bike_id": "5357f645791d10f227130df2d07eb9d8", "name": "5357f645791d10f227130df2d07eb9d8", "rental_uris": {"ios": "https://dc.lft.to/lastmile_qr_scan", "android": "https://dc.lft.to/lastmile_qr_scan"}}, {"is_disabled": 0, "fusion_lat": 0.0, "lat": 38.858125333333334, "type": "electric_scooter", "lon": -76.98995366666666, "is_reserved": 0, "fusion_lon": 0.0, "bike_id": "fad35a6a63ff4d741e1eaf8f29be22ec", "name": "fad35a6a63ff4d741e1eaf8f29be22ec", "rental_uris": {"ios": "https://dc.lft.to/lastmile_qr_scan", "android": "https://dc.lft.to/lastmile_qr_scan"}}, {"is_disabled": 0, "fusion_lat": 0.0, "lat": 38.94014, "type": "electric_scooter", "lon": -77.071715, "is_reserved": 0, "fusion_lon": 0.0, "bike_id": "6de2bd6cf2be132493dd1a96b4e09d27", "name": "6de2bd6cf2be132493dd1a96b4e09d27", "rental_uris": {"ios": "https://dc.lft.to/lastmile_qr_scan", "android": "https://dc.lft.to/lastmile_qr_scan"}}, {"is_disabled": 0, "fusion_lat": 0.0, "lat": 38.904943833333334, "type": "electric_scooter", "lon": -77.06021516666667, "is_reserved": 0, "fusion_lon": 0.0, "bike_id": "5e29b7051d0f21e50f2871aab230570a", "name": "5e29b7051d0f21e50f2871aab230570a", "rental_uris": {"ios": "https://dc.lft.to/lastmile_qr_scan", "android": "https://dc.lft.to/lastmile_qr_scan"}}, {"is_disabled": 0, "fusion_lat": 0.0, "lat": 38.890147, "type": "electric_scooter", "lon": -76.9374335, "is_reserved": 0, "fusion_lon": 0.0, "bike_id": "419bd0a4e5ad01ca7998bb1980ae699a", "name": "419bd0a4e5ad01ca7998bb1980ae699a", "rental_uris": {"ios": "https://dc.lft.to/lastmile_qr_scan", "android": "https://dc.lft.to/lastmile_qr_scan"}}, {"is_disabled": 0, "fusion_lat": 0.0, "lat": 38.91713416666666, "type": "electric_scooter", "lon": -77.00890066666666, "is_reserved": 0, "fusion_lon": 0.0, "bike_id": "c4f932e1af8957a0d8bdf83afc67bfad", "name": "c4f932e1af8957a0d8bdf83afc67bfad", "rental_uris": {"ios": "https://dc.lft.to/lastmile_qr_scan", "android": "https://dc.lft.to/lastmile_qr_scan"}}, {"is_disabled": 0, "fusion_lat": 0.0, "lat": 38.935877833333336, "type": "electric_scooter", "lon": -77.03502533333334, "is_reserved": 0, "fusion_lon": 0.0, "bike_id": "a46f8da75f5ae57c2d3e54565e349293", "name": "a46f8da75f5ae57c2d3e54565e349293", "rental_uris": {"ios": "https://dc.lft.to/lastmile_qr_scan", "android": "https://dc.lft.to/lastmile_qr_scan"}}, {"is_disabled": 0, "fusion_lat": 0.0, "lat": 38.863771166666666, "type": "electric_scooter", "lon": -76.99063633333333, "is_reserved": 0, "fusion_lon": 0.0, "bike_id": "080d8eaff0d00b0a1b12147275b7b9af", "name": "080d8eaff0d00b0a1b12147275b7b9af", "rental_uris": {"ios": "https://dc.lft.to/lastmile_qr_scan", "android": "https://dc.lft.to/lastmile_qr_scan"}}, {"is_disabled": 0, "fusion_lat": 0.0, "lat": 38.93907766666667, "type": "electric_scooter", "lon": -77.06040883333333, "is_reserved": 0, "fusion_lon": 0.0, "bike_id": "14014ef01d3632cf3f81091c776fe9e2", "name": "14014ef01d3632cf3f81091c776fe9e2", "rental_uris": {"ios": "https://dc.lft.to/lastmile_qr_scan", "android": "https://dc.lft.to/lastmile_qr_scan"}}, {"is_disabled": 0, "fusion_lat": 0.0, "lat": 38.912144, "type": "electric_scooter", "lon": -77.0384135, "is_reserved": 0, "fusion_lon": 0.0, "bike_id": "482e53192e804a75b4181807c61b0beb", "name": "482e53192e804a75b4181807c61b0beb", "rental_uris": {"ios": "https://dc.lft.to/lastmile_qr_scan", "android": "https://dc.lft.to/lastmile_qr_scan"}}, {"is_disabled": 0, "fusion_lat": 0.0, "lat": 38.90584366666667, "type": "electric_scooter", "lon": -77.00610733333333, "is_reserved": 0, "fusion_lon": 0.0, "bike_id": "4d27360f77a3ce8f56ab32426c0a2346", "name": "4d27360f77a3ce8f56ab32426c0a2346", "rental_uris": {"ios": "https://dc.lft.to/lastmile_qr_scan", "android": "https://dc.lft.to/lastmile_qr_scan"}}, {"is_disabled": 0, "fusion_lat": 0.0, "lat": 38.86528083333333, "type": "electric_scooter", "lon": -76.99035716666667, "is_reserved": 0, "fusion_lon": 0.0, "bike_id": "ccee3990b819c2369ddd844953b7c38d", "name": "ccee3990b819c2369ddd844953b7c38d", "rental_uris": {"ios": "https://dc.lft.to/lastmile_qr_scan", "android": "https://dc.lft.to/lastmile_qr_scan"}}, {"is_disabled": 0, "fusion_lat": 0.0, "lat": 38.93978766666667, "type": "electric_scooter", "lon": -77.03141133333334, "is_reserved": 0, "fusion_lon": 0.0, "bike_id": "e19ff16fe19e02e0c782121a5f9ea558", "name": "e19ff16fe19e02e0c782121a5f9ea558", "rental_uris": {"ios": "https://dc.lft.to/lastmile_qr_scan", "android": "https://dc.lft.to/lastmile_qr_scan"}}, {"is_disabled": 0, "fusion_lat": 0.0, "lat": 38.9138715, "type": "electric_scooter", "lon": -76.98420466666667, "is_reserved": 0, "fusion_lon": 0.0, "bike_id": "fd6655685092e8ccb0b156003b6815a0", "name": "fd6655685092e8ccb0b156003b6815a0", "rental_uris": {"ios": "https://dc.lft.to/lastmile_qr_scan", "android": "https://dc.lft.to/lastmile_qr_scan"}}, {"is_disabled": 0, "fusion_lat": 0.0, "lat": 38.90202466666667, "type": "electric_scooter", "lon": -77.02378466666667, "is_reserved": 0, "fusion_lon": 0.0, "bike_id": "85daebc725ac819e89c8578cf54e69a7", "name": "85daebc725ac819e89c8578cf54e69a7", "rental_uris": {"ios": "https://dc.lft.to/lastmile_qr_scan", "android": "https://dc.lft.to/lastmile_qr_scan"}}, {"is_disabled": 0, "fusion_lat": 0.0, "lat": 38.91417416666667, "type": "electric_scooter", "lon": -77.01958216666667, "is_reserved": 0, "fusion_lon": 0.0, "bike_id": "5d1b9bd7aad45d985621c6d13e80f34b", "name": "5d1b9bd7aad45d985621c6d13e80f34b", "rental_uris": {"ios": "https://dc.lft.to/lastmile_qr_scan", "android": "https://dc.lft.to/lastmile_qr_scan"}}, {"is_disabled": 0, "fusion_lat": 0.0, "lat": 38.8578945, "type": "electric_bike", "lon": -77.09961916666667, "is_reserved": 0, "fusion_lon": 0.0, "bike_id": "7edfc6505dfed37bebaebe1019a30614", "name": "7edfc6505dfed37bebaebe1019a30614", "rental_uris": {"ios": "https://dc.lft.to/lastmile_qr_scan", "android": "https://dc.lft.to/lastmile_qr_scan"}}, {"is_disabled": 0, "fusion_lat": 0.0, "lat": 38.952713333333335, "type": "electric_bike", "lon": -77.06981266666666, "is_reserved": 0, "fusion_lon": 0.0, "bike_id": "477cdffc93b505ef42a1748ed440681a", "name": "477cdffc93b505ef42a1748ed440681a", "rental_uris": {"ios": "https://dc.lft.to/lastmile_qr_scan", "android": "https://dc.lft.to/lastmile_qr_scan"}}, {"is_disabled": 0, "fusion_lat": 0.0, "lat": 38.876584666666666, "type": "electric_scooter", "lon": -77.00419633333334, "is_reserved": 0, "fusion_lon": 0.0, "bike_id": "6356b36ec80bd7ad96bf85ba950d0106", "name": "6356b36ec80bd7ad96bf85ba950d0106", "rental_uris": {"ios": "https://dc.lft.to/lastmile_qr_scan", "android": "https://dc.lft.to/lastmile_qr_scan"}}, {"is_disabled": 0, "fusion_lat": 0.0, "lat": 38.9191035, "type": "electric_scooter", "lon": -77.0462885, "is_reserved": 0, "fusion_lon": 0.0, "bike_id": "b1c6e94713307e0d5e554f2572e16312", "name": "b1c6e94713307e0d5e554f2572e16312", "rental_uris": {"ios": "https://dc.lft.to/lastmile_qr_scan", "android": "https://dc.lft.to/lastmile_qr_scan"}}, {"is_disabled": 0, "fusion_lat": 0.0, "lat": 38.91695883333333, "type": "electric_scooter", "lon": -77.03107066666666, "is_reserved": 0, "fusion_lon": 0.0, "bike_id": "149c4c6c581d4216d7dbdf0df516f657", "name": "149c4c6c581d4216d7dbdf0df516f657", "rental_uris": {"ios": "https://dc.lft.to/lastmile_qr_scan", "android": "https://dc.lft.to/lastmile_qr_scan"}}, {"is_disabled": 0, "fusion_lat": 0.0, "lat": 38.885795, "type": "electric_scooter", "lon": -77.01542, "is_reserved": 0, "fusion_lon": 0.0, "bike_id": "0ba3a492909225a224c68b66dcb63703", "name": "0ba3a492909225a224c68b66dcb63703", "rental_uris": {"ios": "https://dc.lft.to/lastmile_qr_scan", "android": "https://dc.lft.to/lastmile_qr_scan"}}, {"is_disabled": 0, "fusion_lat": 0.0, "lat": 38.909820833333335, "type": "electric_scooter", "lon": -77.0317655, "is_reserved": 0, "fusion_lon": 0.0, "bike_id": "4c14f3c682cda85cd516936e2f7e6efc", "name": "4c14f3c682cda85cd516936e2f7e6efc", "rental_uris": {"ios": "https://dc.lft.to/lastmile_qr_scan", "android": "https://dc.lft.to/lastmile_qr_scan"}}, {"is_disabled": 0, "fusion_lat": 0.0, "lat": 38.88428616666667, "type": "electric_scooter", "lon": -77.02560316666667, "is_reserved": 0, "fusion_lon": 0.0, "bike_id": "e0d028841b8f157d7b2a088ab946b985", "name": "e0d028841b8f157d7b2a088ab946b985", "rental_uris": {"ios": "https://dc.lft.to/lastmile_qr_scan", "android": "https://dc.lft.to/lastmile_qr_scan"}}, {"is_disabled": 0, "fusion_lat": 0.0, "lat": 38.92175316666667, "type": "electric_scooter", "lon": -77.0422915, "is_reserved": 0, "fusion_lon": 0.0, "bike_id": "9ba56096f504c2c950e46a66f80aa66a", "name": "9ba56096f504c2c950e46a66f80aa66a", "rental_uris": {"ios": "https://dc.lft.to/lastmile_qr_scan", "android": "https://dc.lft.to/lastmile_qr_scan"}}, {"is_disabled": 0, "fusion_lat": 0.0, "lat": 38.92483333333333, "type": "electric_scooter", "lon": -77.0283945, "is_reserved": 0, "fusion_lon": 0.0, "bike_id": "66d288180a25419da266b7e445d10a53", "name": "66d288180a25419da266b7e445d10a53", "rental_uris": {"ios": "https://dc.lft.to/lastmile_qr_scan", "android": "https://dc.lft.to/lastmile_qr_scan"}}, {"is_disabled": 0, "fusion_lat": 0.0, "lat": 38.920127666666666, "type": "electric_scooter", "lon": -77.07126316666667, "is_reserved": 0, "fusion_lon": 0.0, "bike_id": "a6254c8934f18b9ef9c3640f24f356f0", "name": "a6254c8934f18b9ef9c3640f24f356f0", "rental_uris": {"ios": "https://dc.lft.to/lastmile_qr_scan", "android": "https://dc.lft.to/lastmile_qr_scan"}}, {"is_disabled": 0, "fusion_lat": 0.0, "lat": 38.9258405, "type": "electric_scooter", "lon": -77.03918183333333, "is_reserved": 0, "fusion_lon": 0.0, "bike_id": "49702e0143d2b370fa24dee167ff9011", "name": "49702e0143d2b370fa24dee167ff9011", "rental_uris": {"ios": "https://dc.lft.to/lastmile_qr_scan", "android": "https://dc.lft.to/lastmile_qr_scan"}}, {"is_disabled": 0, "fusion_lat": 0.0, "lat": 38.928026833333334, "type": "electric_scooter", "lon": -77.02720416666666, "is_reserved": 0, "fusion_lon": 0.0, "bike_id": "50481ce79db7528a0742fd09116d8f38", "name": "50481ce79db7528a0742fd09116d8f38", "rental_uris": {"ios": "https://dc.lft.to/lastmile_qr_scan", "android": "https://dc.lft.to/lastmile_qr_scan"}}, {"is_disabled": 0, "fusion_lat": 0.0, "lat": 38.928392, "type": "electric_scooter", "lon": -77.0550515, "is_reserved": 0, "fusion_lon": 0.0, "bike_id": "6c665cbc767d85ef63da279878f7782f", "name": "6c665cbc767d85ef63da279878f7782f", "rental_uris": {"ios": "https://dc.lft.to/lastmile_qr_scan", "android": "https://dc.lft.to/lastmile_qr_scan"}}, {"is_disabled": 0, "fusion_lat": 0.0, "lat": 38.91865516666667, "type": "electric_scooter", "lon": -77.03561983333333, "is_reserved": 0, "fusion_lon": 0.0, "bike_id": "92269d95ea87a9a4ddb9d558fe7ddcff", "name": "92269d95ea87a9a4ddb9d558fe7ddcff", "rental_uris": {"ios": "https://dc.lft.to/lastmile_qr_scan", "android": "https://dc.lft.to/lastmile_qr_scan"}}, {"is_disabled": 0, "fusion_lat": 0.0, "lat": 38.925066, "type": "electric_scooter", "lon": -77.03882033333333, "is_reserved": 0, "fusion_lon": 0.0, "bike_id": "f06d9219df930a94a3c4847aa611b5cc", "name": "f06d9219df930a94a3c4847aa611b5cc", "rental_uris": {"ios": "https://dc.lft.to/lastmile_qr_scan", "android": "https://dc.lft.to/lastmile_qr_scan"}}, {"is_disabled": 0, "fusion_lat": 0.0, "lat": 38.898787, "type": "electric_scooter", "lon": -76.93187783333333, "is_reserved": 0, "fusion_lon": 0.0, "bike_id": "8a9e3fd426392f66d3de910774cbf154", "name": "8a9e3fd426392f66d3de910774cbf154", "rental_uris": {"ios": "https://dc.lft.to/lastmile_qr_scan", "android": "https://dc.lft.to/lastmile_qr_scan"}}, {"is_disabled": 0, "fusion_lat": 0.0, "lat": 38.879655, "type": "electric_bike", "lon": -77.01012433333334, "is_reserved": 0, "fusion_lon": 0.0, "bike_id": "b85d7e3984e9edc3ace1309752c368cc", "name": "b85d7e3984e9edc3ace1309752c368cc", "rental_uris": {"ios": "https://dc.lft.to/lastmile_qr_scan", "android": "https://dc.lft.to/lastmile_qr_scan"}}, {"is_disabled": 0, "fusion_lat": 0.0, "lat": 38.97087783333333, "type": "electric_bike", "lon": -77.069644, "is_reserved": 0, "fusion_lon": 0.0, "bike_id": "645c1d2feb76b72f2072db10ba810dad", "name": "645c1d2feb76b72f2072db10ba810dad", "rental_uris": {"ios": "https://dc.lft.to/lastmile_qr_scan", "android": "https://dc.lft.to/lastmile_qr_scan"}}, {"is_disabled": 0, "fusion_lat": 0.0, "lat": 38.899892333333334, "type": "electric_scooter", "lon": -77.02681516666667, "is_reserved": 0, "fusion_lon": 0.0, "bike_id": "9e06a4f36594abdc7fd7e1085df2ba91", "name": "9e06a4f36594abdc7fd7e1085df2ba91", "rental_uris": {"ios": "https://dc.lft.to/lastmile_qr_scan", "android": "https://dc.lft.to/lastmile_qr_scan"}}, {"is_disabled": 0, "fusion_lat": 0.0, "lat": 38.915623333333336, "type": "electric_scooter", "lon": -77.0487075, "is_reserved": 0, "fusion_lon": 0.0, "bike_id": "d12535b1aa34fb6a361fbe46014e54e6", "name": "d12535b1aa34fb6a361fbe46014e54e6", "rental_uris": {"ios": "https://dc.lft.to/lastmile_qr_scan", "android": "https://dc.lft.to/lastmile_qr_scan"}}, {"is_disabled": 0, "fusion_lat": 0.0, "lat": 38.92585283333333, "type": "electric_scooter", "lon": -77.00478833333334, "is_reserved": 0, "fusion_lon": 0.0, "bike_id": "218b33e477c612cd47dd3a954525f472", "name": "218b33e477c612cd47dd3a954525f472", "rental_uris": {"ios": "https://dc.lft.to/lastmile_qr_scan", "android": "https://dc.lft.to/lastmile_qr_scan"}}, {"is_disabled": 0, "fusion_lat": 0.0, "lat": 38.90054, "type": "electric_scooter", "lon": -77.00186283333333, "is_reserved": 0, "fusion_lon": 0.0, "bike_id": "7290d13c796e086bc0cc0e2cb68ad1ed", "name": "7290d13c796e086bc0cc0e2cb68ad1ed", "rental_uris": {"ios": "https://dc.lft.to/lastmile_qr_scan", "android": "https://dc.lft.to/lastmile_qr_scan"}}, {"is_disabled": 0, "fusion_lat": 0.0, "lat": 38.88502866666666, "type": "electric_scooter", "lon": -77.01555083333334, "is_reserved": 0, "fusion_lon": 0.0, "bike_id": "4fef25dfb01294986b40fd0b2038b297", "name": "4fef25dfb01294986b40fd0b2038b297", "rental_uris": {"ios": "https://dc.lft.to/lastmile_qr_scan", "android": "https://dc.lft.to/lastmile_qr_scan"}}, {"is_disabled": 0, "fusion_lat": 0.0, "lat": 38.903135, "type": "electric_scooter", "lon": -76.97798983333334, "is_reserved": 0, "fusion_lon": 0.0, "bike_id": "77a20fa9c4949388862c24ebfedeae55", "name": "77a20fa9c4949388862c24ebfedeae55", "rental_uris": {"ios": "https://dc.lft.to/lastmile_qr_scan", "android": "https://dc.lft.to/lastmile_qr_scan"}}, {"is_disabled": 0, "fusion_lat": 0.0, "lat": 38.85561383333334, "type": "electric_scooter", "lon": -76.99497883333333, "is_reserved": 0, "fusion_lon": 0.0, "bike_id": "6c74491877804507041628bbcb44059f", "name": "6c74491877804507041628bbcb44059f", "rental_uris": {"ios": "https://dc.lft.to/lastmile_qr_scan", "android": "https://dc.lft.to/lastmile_qr_scan"}}, {"is_disabled": 0, "fusion_lat": 0.0, "lat": 38.92721183333333, "type": "electric_scooter", "lon": -77.03655816666667, "is_reserved": 0, "fusion_lon": 0.0, "bike_id": "ffad118798f02c735886f85920d7251d", "name": "ffad118798f02c735886f85920d7251d", "rental_uris": {"ios": "https://dc.lft.to/lastmile_qr_scan", "android": "https://dc.lft.to/lastmile_qr_scan"}}, {"is_disabled": 0, "fusion_lat": 0.0, "lat": 38.92008233333333, "type": "electric_scooter", "lon": -77.0218605, "is_reserved": 0, "fusion_lon": 0.0, "bike_id": "0042176977bea13aa9f0717173cd2a40", "name": "0042176977bea13aa9f0717173cd2a40", "rental_uris": {"ios": "https://dc.lft.to/lastmile_qr_scan", "android": "https://dc.lft.to/lastmile_qr_scan"}}, {"is_disabled": 0, "fusion_lat": 0.0, "lat": 38.905738166666666, "type": "electric_scooter", "lon": -77.0060935, "is_reserved": 0, "fusion_lon": 0.0, "bike_id": "5484cddb33843d83b62c3be60ccf225a", "name": "5484cddb33843d83b62c3be60ccf225a", "rental_uris": {"ios": "https://dc.lft.to/lastmile_qr_scan", "android": "https://dc.lft.to/lastmile_qr_scan"}}, {"is_disabled": 0, "fusion_lat": 0.0, "lat": 38.90276383333333, "type": "electric_scooter", "lon": -77.040187, "is_reserved": 0, "fusion_lon": 0.0, "bike_id": "f1dc0e90b487e40bc9267ca2fe874070", "name": "f1dc0e90b487e40bc9267ca2fe874070", "rental_uris": {"ios": "https://dc.lft.to/lastmile_qr_scan", "android": "https://dc.lft.to/lastmile_qr_scan"}}, {"is_disabled": 0, "fusion_lat": 0.0, "lat": 38.924572833333336, "type": "electric_bike", "lon": -76.97558666666667, "is_reserved": 0, "fusion_lon": 0.0, "bike_id": "2436714eac3a412c4c29451de5842158", "name": "2436714eac3a412c4c29451de5842158", "rental_uris": {"ios": "https://dc.lft.to/lastmile_qr_scan", "android": "https://dc.lft.to/lastmile_qr_scan"}}, {"is_disabled": 0, "fusion_lat": 0.0, "lat": 38.915566, "type": "electric_scooter", "lon": -77.02152733333334, "is_reserved": 0, "fusion_lon": 0.0, "bike_id": "58d867841e2b6cbd327913f07a7fecf1", "name": "58d867841e2b6cbd327913f07a7fecf1", "rental_uris": {"ios": "https://dc.lft.to/lastmile_qr_scan", "android": "https://dc.lft.to/lastmile_qr_scan"}}, {"is_disabled": 0, "fusion_lat": 0.0, "lat": 38.93246283333333, "type": "electric_scooter", "lon": -77.02948933333333, "is_reserved": 0, "fusion_lon": 0.0, "bike_id": "3089a944066bc1ca76c1faa860ccc152", "name": "3089a944066bc1ca76c1faa860ccc152", "rental_uris": {"ios": "https://dc.lft.to/lastmile_qr_scan", "android": "https://dc.lft.to/lastmile_qr_scan"}}, {"is_disabled": 0, "fusion_lat": 0.0, "lat": 38.917433833333334, "type": "electric_scooter", "lon": -77.03466516666667, "is_reserved": 0, "fusion_lon": 0.0, "bike_id": "7cf313303d512dca7fd6f1abe53c372e", "name": "7cf313303d512dca7fd6f1abe53c372e", "rental_uris": {"ios": "https://dc.lft.to/lastmile_qr_scan", "android": "https://dc.lft.to/lastmile_qr_scan"}}, {"is_disabled": 0, "fusion_lat": 0.0, "lat": 38.923181166666666, "type": "electric_scooter", "lon": -77.04091, "is_reserved": 0, "fusion_lon": 0.0, "bike_id": "4a1ae166d19baa437f99baf4b7b8e629", "name": "4a1ae166d19baa437f99baf4b7b8e629", "rental_uris": {"ios": "https://dc.lft.to/lastmile_qr_scan", "android": "https://dc.lft.to/lastmile_qr_scan"}}, {"is_disabled": 0, "fusion_lat": 0.0, "lat": 38.919686166666665, "type": "electric_scooter", "lon": -77.0395465, "is_reserved": 0, "fusion_lon": 0.0, "bike_id": "4a34646491bedd5e89fdf469c9ce172d", "name": "4a34646491bedd5e89fdf469c9ce172d", "rental_uris": {"ios": "https://dc.lft.to/lastmile_qr_scan", "android": "https://dc.lft.to/lastmile_qr_scan"}}, {"is_disabled": 0, "fusion_lat": 0.0, "lat": 38.899444, "type": "electric_scooter", "lon": -76.99015533333333, "is_reserved": 0, "fusion_lon": 0.0, "bike_id": "438b4c3f59064a86b1f06fc7b24224e3", "name": "438b4c3f59064a86b1f06fc7b24224e3", "rental_uris": {"ios": "https://dc.lft.to/lastmile_qr_scan", "android": "https://dc.lft.to/lastmile_qr_scan"}}, {"is_disabled": 0, "fusion_lat": 0.0, "lat": 38.917343, "type": "electric_scooter", "lon": -77.04176433333333, "is_reserved": 0, "fusion_lon": 0.0, "bike_id": "fddf03be5f0d43be0d23d44377f79941", "name": "fddf03be5f0d43be0d23d44377f79941", "rental_uris": {"ios": "https://dc.lft.to/lastmile_qr_scan", "android": "https://dc.lft.to/lastmile_qr_scan"}}, {"is_disabled": 0, "fusion_lat": 0.0, "lat": 38.919273833333335, "type": "electric_scooter", "lon": -77.031699, "is_reserved": 0, "fusion_lon": 0.0, "bike_id": "4c9a2c487f7350968c6d41f124b5d3cd", "name": "4c9a2c487f7350968c6d41f124b5d3cd", "rental_uris": {"ios": "https://dc.lft.to/lastmile_qr_scan", "android": "https://dc.lft.to/lastmile_qr_scan"}}, {"is_disabled": 0, "fusion_lat": 0.0, "lat": 38.95295183333333, "type": "electric_bike", "lon": -77.06837466666667, "is_reserved": 0, "fusion_lon": 0.0, "bike_id": "a442f8456a7505cd8f2a2135563b8310", "name": "a442f8456a7505cd8f2a2135563b8310", "rental_uris": {"ios": "https://dc.lft.to/lastmile_qr_scan", "android": "https://dc.lft.to/lastmile_qr_scan"}}, {"is_disabled": 0, "fusion_lat": 0.0, "lat": 38.906523, "type": "electric_scooter", "lon": -76.98374516666667, "is_reserved": 0, "fusion_lon": 0.0, "bike_id": "9e994bbe15235b4623a2550dec8cdf22", "name": "9e994bbe15235b4623a2550dec8cdf22", "rental_uris": {"ios": "https://dc.lft.to/lastmile_qr_scan", "android": "https://dc.lft.to/lastmile_qr_scan"}}, {"is_disabled": 0, "fusion_lat": 0.0, "lat": 38.9395915, "type": "electric_bike", "lon": -77.360943, "is_reserved": 0, "fusion_lon": 0.0, "bike_id": "4f823bc0c0f4a7df3c0c34cb140adc8c", "name": "4f823bc0c0f4a7df3c0c34cb140adc8c", "rental_uris": {"ios": "https://dc.lft.to/lastmile_qr_scan", "android": "https://dc.lft.to/lastmile_qr_scan"}}, {"is_disabled": 0, "fusion_lat": 0.0, "lat": 38.89556566666667, "type": "electric_scooter", "lon": -76.930788, "is_reserved": 0, "fusion_lon": 0.0, "bike_id": "f7bdb7fc334a6473da25fd623b4b5756", "name": "f7bdb7fc334a6473da25fd623b4b5756", "rental_uris": {"ios": "https://dc.lft.to/lastmile_qr_scan", "android": "https://dc.lft.to/lastmile_qr_scan"}}, {"is_disabled": 0, "fusion_lat": 0.0, "lat": 38.903636666666664, "type": "electric_scooter", "lon": -77.02919716666666, "is_reserved": 0, "fusion_lon": 0.0, "bike_id": "1d01da49fafaa0245a7d832651fc2374", "name": "1d01da49fafaa0245a7d832651fc2374", "rental_uris": {"ios": "https://dc.lft.to/lastmile_qr_scan", "android": "https://dc.lft.to/lastmile_qr_scan"}}, {"is_disabled": 0, "fusion_lat": 0.0, "lat": 38.92750083333333, "type": "electric_scooter", "lon": -77.0248305, "is_reserved": 0, "fusion_lon": 0.0, "bike_id": "95a3d49c2725d3da66910083043cf31d", "name": "95a3d49c2725d3da66910083043cf31d", "rental_uris": {"ios": "https://dc.lft.to/lastmile_qr_scan", "android": "https://dc.lft.to/lastmile_qr_scan"}}, {"is_disabled": 0, "fusion_lat": 0.0, "lat": 38.941693, "type": "electric_scooter", "lon": -77.02344883333333, "is_reserved": 0, "fusion_lon": 0.0, "bike_id": "9431ef73c2cbbe905afb06a5959dbe54", "name": "9431ef73c2cbbe905afb06a5959dbe54", "rental_uris": {"ios": "https://dc.lft.to/lastmile_qr_scan", "android": "https://dc.lft.to/lastmile_qr_scan"}}, {"is_disabled": 0, "fusion_lat": 0.0, "lat": 38.929753166666664, "type": "electric_scooter", "lon": -77.03659916666666, "is_reserved": 0, "fusion_lon": 0.0, "bike_id": "76bea493ed50c9000cd0522712780572", "name": "76bea493ed50c9000cd0522712780572", "rental_uris": {"ios": "https://dc.lft.to/lastmile_qr_scan", "android": "https://dc.lft.to/lastmile_qr_scan"}}, {"is_disabled": 0, "fusion_lat": 0.0, "lat": 38.923775, "type": "electric_scooter", "lon": -77.02558583333334, "is_reserved": 0, "fusion_lon": 0.0, "bike_id": "dba3a32456604e5b3922f0f5dbdff68f", "name": "dba3a32456604e5b3922f0f5dbdff68f", "rental_uris": {"ios": "https://dc.lft.to/lastmile_qr_scan", "android": "https://dc.lft.to/lastmile_qr_scan"}}, {"is_disabled": 0, "fusion_lat": 0.0, "lat": 38.94164683333333, "type": "electric_scooter", "lon": -77.02532083333334, "is_reserved": 0, "fusion_lon": 0.0, "bike_id": "66f4e4236351b216fbf9b848c8440357", "name": "66f4e4236351b216fbf9b848c8440357", "rental_uris": {"ios": "https://dc.lft.to/lastmile_qr_scan", "android": "https://dc.lft.to/lastmile_qr_scan"}}, {"is_disabled": 0, "fusion_lat": 0.0, "lat": 38.909592333333336, "type": "electric_scooter", "lon": -77.01440533333333, "is_reserved": 0, "fusion_lon": 0.0, "bike_id": "795d6b3c2755b8fad1bca5d83e2b7da4", "name": "795d6b3c2755b8fad1bca5d83e2b7da4", "rental_uris": {"ios": "https://dc.lft.to/lastmile_qr_scan", "android": "https://dc.lft.to/lastmile_qr_scan"}}, {"is_disabled": 0, "fusion_lat": 0.0, "lat": 38.9207485, "type": "electric_scooter", "lon": -77.02391616666667, "is_reserved": 0, "fusion_lon": 0.0, "bike_id": "90c6f9d6fc046ba67d896264f03418f4", "name": "90c6f9d6fc046ba67d896264f03418f4", "rental_uris": {"ios": "https://dc.lft.to/lastmile_qr_scan", "android": "https://dc.lft.to/lastmile_qr_scan"}}, {"is_disabled": 0, "fusion_lat": 0.0, "lat": 38.905018, "type": "electric_scooter", "lon": -77.06283683333334, "is_reserved": 0, "fusion_lon": 0.0, "bike_id": "58490267c3a8aff0c62a8cb07558735a", "name": "58490267c3a8aff0c62a8cb07558735a", "rental_uris": {"ios": "https://dc.lft.to/lastmile_qr_scan", "android": "https://dc.lft.to/lastmile_qr_scan"}}, {"is_disabled": 0, "fusion_lat": 0.0, "lat": 38.92455866666667, "type": "electric_scooter", "lon": -77.03268366666667, "is_reserved": 0, "fusion_lon": 0.0, "bike_id": "cb8e9c4367f219df88df8a4589d293ba", "name": "cb8e9c4367f219df88df8a4589d293ba", "rental_uris": {"ios": "https://dc.lft.to/lastmile_qr_scan", "android": "https://dc.lft.to/lastmile_qr_scan"}}, {"is_disabled": 0, "fusion_lat": 0.0, "lat": 38.89602716666667, "type": "electric_scooter", "lon": -77.027956, "is_reserved": 0, "fusion_lon": 0.0, "bike_id": "9aaad62a038a1008861b54cbc5f382e2", "name": "9aaad62a038a1008861b54cbc5f382e2", "rental_uris": {"ios": "https://dc.lft.to/lastmile_qr_scan", "android": "https://dc.lft.to/lastmile_qr_scan"}}, {"is_disabled": 0, "fusion_lat": 0.0, "lat": 38.862789166666666, "type": "electric_scooter", "lon": -76.992349, "is_reserved": 0, "fusion_lon": 0.0, "bike_id": "f71c766012ea0409164c1af64a22154d", "name": "f71c766012ea0409164c1af64a22154d", "rental_uris": {"ios": "https://dc.lft.to/lastmile_qr_scan", "android": "https://dc.lft.to/lastmile_qr_scan"}}, {"is_disabled": 0, "fusion_lat": 0.0, "lat": 38.91547966666667, "type": "electric_scooter", "lon": -77.03843583333334, "is_reserved": 0, "fusion_lon": 0.0, "bike_id": "1a214b04b6134be9a89c90395d160684", "name": "1a214b04b6134be9a89c90395d160684", "rental_uris": {"ios": "https://dc.lft.to/lastmile_qr_scan", "android": "https://dc.lft.to/lastmile_qr_scan"}}, {"is_disabled": 0, "fusion_lat": 0.0, "lat": 38.91104, "type": "electric_scooter", "lon": -77.04827566666667, "is_reserved": 0, "fusion_lon": 0.0, "bike_id": "12acf0ec42e4987b5939c1898b3c5367", "name": "12acf0ec42e4987b5939c1898b3c5367", "rental_uris": {"ios": "https://dc.lft.to/lastmile_qr_scan", "android": "https://dc.lft.to/lastmile_qr_scan"}}, {"is_disabled": 0, "fusion_lat": 0.0, "lat": 38.929469, "type": "electric_bike", "lon": -77.04396833333334, "is_reserved": 0, "fusion_lon": 0.0, "bike_id": "8fc8984accecf5ab0eb150fc3bd02fdd", "name": "8fc8984accecf5ab0eb150fc3bd02fdd", "rental_uris": {"ios": "https://dc.lft.to/lastmile_qr_scan", "android": "https://dc.lft.to/lastmile_qr_scan"}}, {"is_disabled": 0, "fusion_lat": 0.0, "lat": 39.088556833333335, "type": "electric_bike", "lon": -77.17841983333334, "is_reserved": 0, "fusion_lon": 0.0, "bike_id": "b84ffd26083c14e983b8ab504da8c524", "name": "b84ffd26083c14e983b8ab504da8c524", "rental_uris": {"ios": "https://dc.lft.to/lastmile_qr_scan", "android": "https://dc.lft.to/lastmile_qr_scan"}}, {"is_disabled": 0, "fusion_lat": 0.0, "lat": 38.92211283333334, "type": "electric_scooter", "lon": -77.03291916666667, "is_reserved": 0, "fusion_lon": 0.0, "bike_id": "a11ef2d64d3bad001f4086dea67e7fd7", "name": "a11ef2d64d3bad001f4086dea67e7fd7", "rental_uris": {"ios": "https://dc.lft.to/lastmile_qr_scan", "android": "https://dc.lft.to/lastmile_qr_scan"}}, {"is_disabled": 0, "fusion_lat": 0.0, "lat": 38.901555, "type": "electric_scooter", "lon": -76.97629733333333, "is_reserved": 0, "fusion_lon": 0.0, "bike_id": "f950421ee1d59970d37a620bbb9e1e47", "name": "f950421ee1d59970d37a620bbb9e1e47", "rental_uris": {"ios": "https://dc.lft.to/lastmile_qr_scan", "android": "https://dc.lft.to/lastmile_qr_scan"}}, {"is_disabled": 0, "fusion_lat": 0.0, "lat": 38.929505666666664, "type": "electric_bike", "lon": -77.037735, "is_reserved": 0, "fusion_lon": 0.0, "bike_id": "62748c31e4ebeaf1dbdf3751985fad2e", "name": "62748c31e4ebeaf1dbdf3751985fad2e", "rental_uris": {"ios": "https://dc.lft.to/lastmile_qr_scan", "android": "https://dc.lft.to/lastmile_qr_scan"}}, {"is_disabled": 0, "fusion_lat": 0.0, "lat": 38.91926316666667, "type": "electric_scooter", "lon": -77.03174333333334, "is_reserved": 0, "fusion_lon": 0.0, "bike_id": "7d97e75b414192a01953d67219bd7a75", "name": "7d97e75b414192a01953d67219bd7a75", "rental_uris": {"ios": "https://dc.lft.to/lastmile_qr_scan", "android": "https://dc.lft.to/lastmile_qr_scan"}}, {"is_disabled": 0, "fusion_lat": 0.0, "lat": 38.9405375, "type": "electric_bike", "lon": -76.95383333333334, "is_reserved": 0, "fusion_lon": 0.0, "bike_id": "5d180c23e2059889a06fdfa48181468d", "name": "5d180c23e2059889a06fdfa48181468d", "rental_uris": {"ios": "https://dc.lft.to/lastmile_qr_scan", "android": "https://dc.lft.to/lastmile_qr_scan"}}, {"is_disabled": 0, "fusion_lat": 0.0, "lat": 38.898084833333336, "type": "electric_bike", "lon": -76.99071483333333, "is_reserved": 0, "fusion_lon": 0.0, "bike_id": "f554a641736c5379ebb41ff470447029", "name": "f554a641736c5379ebb41ff470447029", "rental_uris": {"ios": "https://dc.lft.to/lastmile_qr_scan", "android": "https://dc.lft.to/lastmile_qr_scan"}}, {"is_disabled": 0, "fusion_lat": 0.0, "lat": 38.9284675, "type": "electric_bike", "lon": -77.0206235, "is_reserved": 0, "fusion_lon": 0.0, "bike_id": "7a489820dc513b82878240dde89171f7", "name": "7a489820dc513b82878240dde89171f7", "rental_uris": {"ios": "https://dc.lft.to/lastmile_qr_scan", "android": "https://dc.lft.to/lastmile_qr_scan"}}, {"is_disabled": 0, "fusion_lat": 0.0, "lat": 38.887231166666666, "type": "electric_scooter", "lon": -77.03214933333334, "is_reserved": 0, "fusion_lon": 0.0, "bike_id": "59087cf2aef8fb7bf2b388706e00e2cf", "name": "59087cf2aef8fb7bf2b388706e00e2cf", "rental_uris": {"ios": "https://dc.lft.to/lastmile_qr_scan", "android": "https://dc.lft.to/lastmile_qr_scan"}}, {"is_disabled": 0, "fusion_lat": 0.0, "lat": 38.92856116666667, "type": "electric_bike", "lon": -77.2222365, "is_reserved": 0, "fusion_lon": 0.0, "bike_id": "1a3672aad0aa5c9d7f26d6ee407147ff", "name": "1a3672aad0aa5c9d7f26d6ee407147ff", "rental_uris": {"ios": "https://dc.lft.to/lastmile_qr_scan", "android": "https://dc.lft.to/lastmile_qr_scan"}}, {"is_disabled": 0, "fusion_lat": 0.0, "lat": 38.98363883333333, "type": "electric_scooter", "lon": -77.02644583333333, "is_reserved": 0, "fusion_lon": 0.0, "bike_id": "193a4623175a5cfd2c19713c572e636e", "name": "193a4623175a5cfd2c19713c572e636e", "rental_uris": {"ios": "https://dc.lft.to/lastmile_qr_scan", "android": "https://dc.lft.to/lastmile_qr_scan"}}, {"is_disabled": 0, "fusion_lat": 0.0, "lat": 38.88407616666667, "type": "electric_scooter", "lon": -77.03049566666667, "is_reserved": 0, "fusion_lon": 0.0, "bike_id": "1e68316b7339375b2c5bf7abb3762bbc", "name": "1e68316b7339375b2c5bf7abb3762bbc", "rental_uris": {"ios": "https://dc.lft.to/lastmile_qr_scan", "android": "https://dc.lft.to/lastmile_qr_scan"}}, {"is_disabled": 0, "fusion_lat": 0.0, "lat": 38.89964533333333, "type": "electric_bike", "lon": -77.05499883333333, "is_reserved": 0, "fusion_lon": 0.0, "bike_id": "6c5f4aa49eb757c2380ae86208939005", "name": "6c5f4aa49eb757c2380ae86208939005", "rental_uris": {"ios": "https://dc.lft.to/lastmile_qr_scan", "android": "https://dc.lft.to/lastmile_qr_scan"}}, {"is_disabled": 0, "fusion_lat": 0.0, "lat": 38.92315466666667, "type": "electric_scooter", "lon": -77.04517666666666, "is_reserved": 0, "fusion_lon": 0.0, "bike_id": "f78b7889a77b849383dad449723329ca", "name": "f78b7889a77b849383dad449723329ca", "rental_uris": {"ios": "https://dc.lft.to/lastmile_qr_scan", "android": "https://dc.lft.to/lastmile_qr_scan"}}, {"is_disabled": 0, "fusion_lat": 0.0, "lat": 38.90515466666667, "type": "electric_scooter", "lon": -77.04345833333333, "is_reserved": 0, "fusion_lon": 0.0, "bike_id": "94ff6eb7f5c1e4a0f435d4f4abbc03bb", "name": "94ff6eb7f5c1e4a0f435d4f4abbc03bb", "rental_uris": {"ios": "https://dc.lft.to/lastmile_qr_scan", "android": "https://dc.lft.to/lastmile_qr_scan"}}, {"is_disabled": 0, "fusion_lat": 0.0, "lat": 38.8429225, "type": "electric_scooter", "lon": -76.9995015, "is_reserved": 0, "fusion_lon": 0.0, "bike_id": "8cafa4ef65286d51399eafbf5a3abef9", "name": "8cafa4ef65286d51399eafbf5a3abef9", "rental_uris": {"ios": "https://dc.lft.to/lastmile_qr_scan", "android": "https://dc.lft.to/lastmile_qr_scan"}}, {"is_disabled": 0, "fusion_lat": 0.0, "lat": 38.914753166666664, "type": "electric_scooter", "lon": -77.03839866666667, "is_reserved": 0, "fusion_lon": 0.0, "bike_id": "25cfae0ded1081c340f3bc0b5776e13e", "name": "25cfae0ded1081c340f3bc0b5776e13e", "rental_uris": {"ios": "https://dc.lft.to/lastmile_qr_scan", "android": "https://dc.lft.to/lastmile_qr_scan"}}, {"is_disabled": 0, "fusion_lat": 0.0, "lat": 38.97368183333333, "type": "electric_scooter", "lon": -77.01863683333333, "is_reserved": 0, "fusion_lon": 0.0, "bike_id": "424f019753766edc7a4ce4bddf36ca7a", "name": "424f019753766edc7a4ce4bddf36ca7a", "rental_uris": {"ios": "https://dc.lft.to/lastmile_qr_scan", "android": "https://dc.lft.to/lastmile_qr_scan"}}, {"is_disabled": 0, "fusion_lat": 0.0, "lat": 38.867223333333335, "type": "electric_scooter", "lon": -76.987873, "is_reserved": 0, "fusion_lon": 0.0, "bike_id": "3dd98ccf7294231ac4436f1e71a59b7f", "name": "3dd98ccf7294231ac4436f1e71a59b7f", "rental_uris": {"ios": "https://dc.lft.to/lastmile_qr_scan", "android": "https://dc.lft.to/lastmile_qr_scan"}}, {"is_disabled": 0, "fusion_lat": 0.0, "lat": 38.90264366666667, "type": "electric_scooter", "lon": -77.017381, "is_reserved": 0, "fusion_lon": 0.0, "bike_id": "260ddaea25a0d52983d5dc9e1a94e7c0", "name": "260ddaea25a0d52983d5dc9e1a94e7c0", "rental_uris": {"ios": "https://dc.lft.to/lastmile_qr_scan", "android": "https://dc.lft.to/lastmile_qr_scan"}}, {"is_disabled": 0, "fusion_lat": 0.0, "lat": 38.91663916666667, "type": "electric_scooter", "lon": -77.00659666666667, "is_reserved": 0, "fusion_lon": 0.0, "bike_id": "0037d831b6e80bd029a0fe7bc39b6634", "name": "0037d831b6e80bd029a0fe7bc39b6634", "rental_uris": {"ios": "https://dc.lft.to/lastmile_qr_scan", "android": "https://dc.lft.to/lastmile_qr_scan"}}, {"is_disabled": 0, "fusion_lat": 0.0, "lat": 38.91981083333334, "type": "electric_scooter", "lon": -77.04162733333334, "is_reserved": 0, "fusion_lon": 0.0, "bike_id": "2ce577a84005967d77a8eed164d1bac1", "name": "2ce577a84005967d77a8eed164d1bac1", "rental_uris": {"ios": "https://dc.lft.to/lastmile_qr_scan", "android": "https://dc.lft.to/lastmile_qr_scan"}}, {"is_disabled": 0, "fusion_lat": 0.0, "lat": 38.87633533333333, "type": "electric_scooter", "lon": -77.016434, "is_reserved": 0, "fusion_lon": 0.0, "bike_id": "2acc6e5fd78159b064ae44c49b44035b", "name": "2acc6e5fd78159b064ae44c49b44035b", "rental_uris": {"ios": "https://dc.lft.to/lastmile_qr_scan", "android": "https://dc.lft.to/lastmile_qr_scan"}}, {"is_disabled": 0, "fusion_lat": 0.0, "lat": 38.940507333333336, "type": "electric_scooter", "lon": -77.09267833333334, "is_reserved": 0, "fusion_lon": 0.0, "bike_id": "3f77ab95e8b82339386be845581f58ef", "name": "3f77ab95e8b82339386be845581f58ef", "rental_uris": {"ios": "https://dc.lft.to/lastmile_qr_scan", "android": "https://dc.lft.to/lastmile_qr_scan"}}, {"is_disabled": 0, "fusion_lat": 0.0, "lat": 38.9014705, "type": "electric_scooter", "lon": -77.03856783333333, "is_reserved": 0, "fusion_lon": 0.0, "bike_id": "11a646be6ac18698d590117bac15d520", "name": "11a646be6ac18698d590117bac15d520", "rental_uris": {"ios": "https://dc.lft.to/lastmile_qr_scan", "android": "https://dc.lft.to/lastmile_qr_scan"}}, {"is_disabled": 0, "fusion_lat": 0.0, "lat": 38.901402, "type": "electric_scooter", "lon": -77.01807866666667, "is_reserved": 0, "fusion_lon": 0.0, "bike_id": "6338afebb85d31fedd9fdc7072b542e1", "name": "6338afebb85d31fedd9fdc7072b542e1", "rental_uris": {"ios": "https://dc.lft.to/lastmile_qr_scan", "android": "https://dc.lft.to/lastmile_qr_scan"}}, {"is_disabled": 0, "fusion_lat": 0.0, "lat": 38.90504083333333, "type": "electric_scooter", "lon": -77.02948933333333, "is_reserved": 0, "fusion_lon": 0.0, "bike_id": "9c80fa2ab9d0cdecead09c251c2e86e9", "name": "9c80fa2ab9d0cdecead09c251c2e86e9", "rental_uris": {"ios": "https://dc.lft.to/lastmile_qr_scan", "android": "https://dc.lft.to/lastmile_qr_scan"}}, {"is_disabled": 0, "fusion_lat": 0.0, "lat": 38.921522333333336, "type": "electric_scooter", "lon": -77.03865183333333, "is_reserved": 0, "fusion_lon": 0.0, "bike_id": "00e214a61c00e50991b8715ca74fcc25", "name": "00e214a61c00e50991b8715ca74fcc25", "rental_uris": {"ios": "https://dc.lft.to/lastmile_qr_scan", "android": "https://dc.lft.to/lastmile_qr_scan"}}, {"is_disabled": 0, "fusion_lat": 0.0, "lat": 38.892506833333336, "type": "electric_scooter", "lon": -76.943296, "is_reserved": 0, "fusion_lon": 0.0, "bike_id": "6b197ca1ba8cbd107333ea4619473e2b", "name": "6b197ca1ba8cbd107333ea4619473e2b", "rental_uris": {"ios": "https://dc.lft.to/lastmile_qr_scan", "android": "https://dc.lft.to/lastmile_qr_scan"}}, {"is_disabled": 0, "fusion_lat": 0.0, "lat": 38.90143416666667, "type": "electric_scooter", "lon": -76.99797033333333, "is_reserved": 0, "fusion_lon": 0.0, "bike_id": "45ebe82e820754e77efbc58019ab88c1", "name": "45ebe82e820754e77efbc58019ab88c1", "rental_uris": {"ios": "https://dc.lft.to/lastmile_qr_scan", "android": "https://dc.lft.to/lastmile_qr_scan"}}, {"is_disabled": 0, "fusion_lat": 0.0, "lat": 38.912754666666665, "type": "electric_scooter", "lon": -77.04170833333333, "is_reserved": 0, "fusion_lon": 0.0, "bike_id": "ca5a7d857b44c71361479660947bab3f", "name": "ca5a7d857b44c71361479660947bab3f", "rental_uris": {"ios": "https://dc.lft.to/lastmile_qr_scan", "android": "https://dc.lft.to/lastmile_qr_scan"}}, {"is_disabled": 0, "fusion_lat": 0.0, "lat": 38.948007833333335, "type": "electric_bike", "lon": -77.00809916666667, "is_reserved": 0, "fusion_lon": 0.0, "bike_id": "f643c7c6e1e830c5663dc295c555beff", "name": "f643c7c6e1e830c5663dc295c555beff", "rental_uris": {"ios": "https://dc.lft.to/lastmile_qr_scan", "android": "https://dc.lft.to/lastmile_qr_scan"}}, {"is_disabled": 0, "fusion_lat": 0.0, "lat": 38.87146116666667, "type": "electric_bike", "lon": -76.93665783333333, "is_reserved": 0, "fusion_lon": 0.0, "bike_id": "e53dd2687310c0e2db2cc0705e5483b0", "name": "e53dd2687310c0e2db2cc0705e5483b0", "rental_uris": {"ios": "https://dc.lft.to/lastmile_qr_scan", "android": "https://dc.lft.to/lastmile_qr_scan"}}, {"is_disabled": 0, "fusion_lat": 0.0, "lat": 38.95356683333333, "type": "electric_bike", "lon": -76.98086483333333, "is_reserved": 0, "fusion_lon": 0.0, "bike_id": "de5a3c602513b866a9a6b4fc0b5411aa", "name": "de5a3c602513b866a9a6b4fc0b5411aa", "rental_uris": {"ios": "https://dc.lft.to/lastmile_qr_scan", "android": "https://dc.lft.to/lastmile_qr_scan"}}, {"is_disabled": 0, "fusion_lat": 0.0, "lat": 38.908501, "type": "electric_scooter", "lon": -77.02458733333333, "is_reserved": 0, "fusion_lon": 0.0, "bike_id": "2d329c1c795dafb2a9e351b1017bb248", "name": "2d329c1c795dafb2a9e351b1017bb248", "rental_uris": {"ios": "https://dc.lft.to/lastmile_qr_scan", "android": "https://dc.lft.to/lastmile_qr_scan"}}, {"is_disabled": 0, "fusion_lat": 0.0, "lat": 38.89610866666666, "type": "electric_scooter", "lon": -76.99414316666666, "is_reserved": 0, "fusion_lon": 0.0, "bike_id": "b5324b358d7c66f6a38dbf4a786f1d8b", "name": "b5324b358d7c66f6a38dbf4a786f1d8b", "rental_uris": {"ios": "https://dc.lft.to/lastmile_qr_scan", "android": "https://dc.lft.to/lastmile_qr_scan"}}, {"is_disabled": 0, "fusion_lat": 0.0, "lat": 38.924961, "type": "electric_scooter", "lon": -77.02155783333333, "is_reserved": 0, "fusion_lon": 0.0, "bike_id": "47f10644c716a8a63c1c380e79d40560", "name": "47f10644c716a8a63c1c380e79d40560", "rental_uris": {"ios": "https://dc.lft.to/lastmile_qr_scan", "android": "https://dc.lft.to/lastmile_qr_scan"}}, {"is_disabled": 0, "fusion_lat": 0.0, "lat": 38.89990733333333, "type": "electric_scooter", "lon": -77.006197, "is_reserved": 0, "fusion_lon": 0.0, "bike_id": "8001dfb11fd01044d70f41ec0431ad34", "name": "8001dfb11fd01044d70f41ec0431ad34", "rental_uris": {"ios": "https://dc.lft.to/lastmile_qr_scan", "android": "https://dc.lft.to/lastmile_qr_scan"}}, {"is_disabled": 0, "fusion_lat": 0.0, "lat": 38.90153183333334, "type": "electric_scooter", "lon": -77.02533983333333, "is_reserved": 0, "fusion_lon": 0.0, "bike_id": "f2f151a8bd2b315083922d39efc04d52", "name": "f2f151a8bd2b315083922d39efc04d52", "rental_uris": {"ios": "https://dc.lft.to/lastmile_qr_scan", "android": "https://dc.lft.to/lastmile_qr_scan"}}, {"is_disabled": 0, "fusion_lat": 0.0, "lat": 38.883147, "type": "electric_scooter", "lon": -77.00937716666667, "is_reserved": 0, "fusion_lon": 0.0, "bike_id": "f16dcbf87681cfcb560ba70fd0822019", "name": "f16dcbf87681cfcb560ba70fd0822019", "rental_uris": {"ios": "https://dc.lft.to/lastmile_qr_scan", "android": "https://dc.lft.to/lastmile_qr_scan"}}, {"is_disabled": 0, "fusion_lat": 0.0, "lat": 38.938279333333334, "type": "electric_bike", "lon": -77.03287183333333, "is_reserved": 0, "fusion_lon": 0.0, "bike_id": "f8e540326737fc7c0c95bc88efc5ae55", "name": "f8e540326737fc7c0c95bc88efc5ae55", "rental_uris": {"ios": "https://dc.lft.to/lastmile_qr_scan", "android": "https://dc.lft.to/lastmile_qr_scan"}}, {"is_disabled": 0, "fusion_lat": 0.0, "lat": 38.9228995, "type": "electric_scooter", "lon": -77.0319805, "is_reserved": 0, "fusion_lon": 0.0, "bike_id": "7f0a5e464c947899a82d29305510d931", "name": "7f0a5e464c947899a82d29305510d931", "rental_uris": {"ios": "https://dc.lft.to/lastmile_qr_scan", "android": "https://dc.lft.to/lastmile_qr_scan"}}, {"is_disabled": 0, "fusion_lat": 0.0, "lat": 38.8990525, "type": "electric_scooter", "lon": -77.03288183333333, "is_reserved": 0, "fusion_lon": 0.0, "bike_id": "24d605766842b5f7e9054660f5aaf9b2", "name": "24d605766842b5f7e9054660f5aaf9b2", "rental_uris": {"ios": "https://dc.lft.to/lastmile_qr_scan", "android": "https://dc.lft.to/lastmile_qr_scan"}}, {"is_disabled": 0, "fusion_lat": 0.0, "lat": 38.875407833333334, "type": "electric_scooter", "lon": -77.0005585, "is_reserved": 0, "fusion_lon": 0.0, "bike_id": "1336599423ca77b1085b0a5870814a71", "name": "1336599423ca77b1085b0a5870814a71", "rental_uris": {"ios": "https://dc.lft.to/lastmile_qr_scan", "android": "https://dc.lft.to/lastmile_qr_scan"}}, {"is_disabled": 0, "fusion_lat": 0.0, "lat": 38.94891833333333, "type": "electric_bike", "lon": -76.9637635, "is_reserved": 0, "fusion_lon": 0.0, "bike_id": "037116d6c5f08225afe88a38a9759de5", "name": "037116d6c5f08225afe88a38a9759de5", "rental_uris": {"ios": "https://dc.lft.to/lastmile_qr_scan", "android": "https://dc.lft.to/lastmile_qr_scan"}}, {"is_disabled": 0, "fusion_lat": 0.0, "lat": 38.91613666666667, "type": "electric_scooter", "lon": -77.02712466666667, "is_reserved": 0, "fusion_lon": 0.0, "bike_id": "2c82a86482b4c703f0455eb81f4c7008", "name": "2c82a86482b4c703f0455eb81f4c7008", "rental_uris": {"ios": "https://dc.lft.to/lastmile_qr_scan", "android": "https://dc.lft.to/lastmile_qr_scan"}}, {"is_disabled": 0, "fusion_lat": 0.0, "lat": 38.8845035, "type": "electric_scooter", "lon": -77.00575766666667, "is_reserved": 0, "fusion_lon": 0.0, "bike_id": "06f69b4c29763d08b0ea842c9cc41a72", "name": "06f69b4c29763d08b0ea842c9cc41a72", "rental_uris": {"ios": "https://dc.lft.to/lastmile_qr_scan", "android": "https://dc.lft.to/lastmile_qr_scan"}}, {"is_disabled": 0, "fusion_lat": 0.0, "lat": 38.915903, "type": "electric_scooter", "lon": -77.02301883333334, "is_reserved": 0, "fusion_lon": 0.0, "bike_id": "f786da1de1d5fe4ba2f95700622184e7", "name": "f786da1de1d5fe4ba2f95700622184e7", "rental_uris": {"ios": "https://dc.lft.to/lastmile_qr_scan", "android": "https://dc.lft.to/lastmile_qr_scan"}}, {"is_disabled": 0, "fusion_lat": 0.0, "lat": 38.90391283333334, "type": "electric_scooter", "lon": -77.03873066666667, "is_reserved": 0, "fusion_lon": 0.0, "bike_id": "526d9a7bd8919e9ba682132e8fb1769c", "name": "526d9a7bd8919e9ba682132e8fb1769c", "rental_uris": {"ios": "https://dc.lft.to/lastmile_qr_scan", "android": "https://dc.lft.to/lastmile_qr_scan"}}, {"is_disabled": 0, "fusion_lat": 0.0, "lat": 38.898296, "type": "electric_scooter", "lon": -77.05029116666667, "is_reserved": 0, "fusion_lon": 0.0, "bike_id": "9f8b8faf90c9ac8cf71e567624204f94", "name": "9f8b8faf90c9ac8cf71e567624204f94", "rental_uris": {"ios": "https://dc.lft.to/lastmile_qr_scan", "android": "https://dc.lft.to/lastmile_qr_scan"}}, {"is_disabled": 0, "fusion_lat": 0.0, "lat": 38.902192666666664, "type": "electric_bike", "lon": -76.9505295, "is_reserved": 0, "fusion_lon": 0.0, "bike_id": "ae3e46d94f274409220c1e58a3cd05ff", "name": "ae3e46d94f274409220c1e58a3cd05ff", "rental_uris": {"ios": "https://dc.lft.to/lastmile_qr_scan", "android": "https://dc.lft.to/lastmile_qr_scan"}}, {"is_disabled": 0, "fusion_lat": 0.0, "lat": 38.92198616666667, "type": "electric_scooter", "lon": -77.04016233333333, "is_reserved": 0, "fusion_lon": 0.0, "bike_id": "2ed6c6f2aaa704bb8ae0cc91e6905717", "name": "2ed6c6f2aaa704bb8ae0cc91e6905717", "rental_uris": {"ios": "https://dc.lft.to/lastmile_qr_scan", "android": "https://dc.lft.to/lastmile_qr_scan"}}, {"is_disabled": 0, "fusion_lat": 0.0, "lat": 38.93237216666667, "type": "electric_scooter", "lon": -77.03291, "is_reserved": 0, "fusion_lon": 0.0, "bike_id": "331baf4be431fd744a0bbe7af4a773b3", "name": "331baf4be431fd744a0bbe7af4a773b3", "rental_uris": {"ios": "https://dc.lft.to/lastmile_qr_scan", "android": "https://dc.lft.to/lastmile_qr_scan"}}, {"is_disabled": 0, "fusion_lat": 0.0, "lat": 38.931338833333335, "type": "electric_scooter", "lon": -77.05612583333334, "is_reserved": 0, "fusion_lon": 0.0, "bike_id": "7f9b3e3464b354ec4da03fdae84d1c81", "name": "7f9b3e3464b354ec4da03fdae84d1c81", "rental_uris": {"ios": "https://dc.lft.to/lastmile_qr_scan", "android": "https://dc.lft.to/lastmile_qr_scan"}}, {"is_disabled": 0, "fusion_lat": 0.0, "lat": 38.903665833333335, "type": "electric_scooter", "lon": -77.04261133333333, "is_reserved": 0, "fusion_lon": 0.0, "bike_id": "46b465c8218ed8327cef6f4250d12d91", "name": "46b465c8218ed8327cef6f4250d12d91", "rental_uris": {"ios": "https://dc.lft.to/lastmile_qr_scan", "android": "https://dc.lft.to/lastmile_qr_scan"}}, {"is_disabled": 0, "fusion_lat": 0.0, "lat": 38.931816833333336, "type": "electric_bike", "lon": -77.03445366666666, "is_reserved": 0, "fusion_lon": 0.0, "bike_id": "570f3e153b242782513772445d04ddc1", "name": "570f3e153b242782513772445d04ddc1", "rental_uris": {"ios": "https://dc.lft.to/lastmile_qr_scan", "android": "https://dc.lft.to/lastmile_qr_scan"}}, {"is_disabled": 0, "fusion_lat": 0.0, "lat": 38.85919033333333, "type": "electric_scooter", "lon": -76.98977516666666, "is_reserved": 0, "fusion_lon": 0.0, "bike_id": "07408970fc037d9fa2ccaee3d65236ea", "name": "07408970fc037d9fa2ccaee3d65236ea", "rental_uris": {"ios": "https://dc.lft.to/lastmile_qr_scan", "android": "https://dc.lft.to/lastmile_qr_scan"}}, {"is_disabled": 0, "fusion_lat": 0.0, "lat": 38.866583, "type": "electric_scooter", "lon": -76.98878633333334, "is_reserved": 0, "fusion_lon": 0.0, "bike_id": "ea3f6385e6011cd87f3bff2c0cfad309", "name": "ea3f6385e6011cd87f3bff2c0cfad309", "rental_uris": {"ios": "https://dc.lft.to/lastmile_qr_scan", "android": "https://dc.lft.to/lastmile_qr_scan"}}, {"is_disabled": 0, "fusion_lat": 0.0, "lat": 38.939739, "type": "electric_scooter", "lon": -77.035903, "is_reserved": 0, "fusion_lon": 0.0, "bike_id": "4e914df24762a292f78a552319324cb0", "name": "4e914df24762a292f78a552319324cb0", "rental_uris": {"ios": "https://dc.lft.to/lastmile_qr_scan", "android": "https://dc.lft.to/lastmile_qr_scan"}}, {"is_disabled": 0, "fusion_lat": 0.0, "lat": 38.904843166666666, "type": "electric_scooter", "lon": -77.048803, "is_reserved": 0, "fusion_lon": 0.0, "bike_id": "f478936c7a4d8808f8a077ec94e7710e", "name": "f478936c7a4d8808f8a077ec94e7710e", "rental_uris": {"ios": "https://dc.lft.to/lastmile_qr_scan", "android": "https://dc.lft.to/lastmile_qr_scan"}}, {"is_disabled": 0, "fusion_lat": 0.0, "lat": 38.93455816666667, "type": "electric_scooter", "lon": -77.030504, "is_reserved": 0, "fusion_lon": 0.0, "bike_id": "b0dc192cfa8e5fe019e7f991a10c4294", "name": "b0dc192cfa8e5fe019e7f991a10c4294", "rental_uris": {"ios": "https://dc.lft.to/lastmile_qr_scan", "android": "https://dc.lft.to/lastmile_qr_scan"}}, {"is_disabled": 0, "fusion_lat": 0.0, "lat": 38.94206233333333, "type": "electric_bike", "lon": -77.018263, "is_reserved": 0, "fusion_lon": 0.0, "bike_id": "a5517270fe8ad98d05442afffb5109d5", "name": "a5517270fe8ad98d05442afffb5109d5", "rental_uris": {"ios": "https://dc.lft.to/lastmile_qr_scan", "android": "https://dc.lft.to/lastmile_qr_scan"}}, {"is_disabled": 0, "fusion_lat": 0.0, "lat": 38.894777, "type": "electric_scooter", "lon": -77.05020016666667, "is_reserved": 0, "fusion_lon": 0.0, "bike_id": "4c35021bada637a450c0ec228d0b2811", "name": "4c35021bada637a450c0ec228d0b2811", "rental_uris": {"ios": "https://dc.lft.to/lastmile_qr_scan", "android": "https://dc.lft.to/lastmile_qr_scan"}}, {"is_disabled": 0, "fusion_lat": 0.0, "lat": 38.9026545, "type": "electric_scooter", "lon": -77.0600945, "is_reserved": 0, "fusion_lon": 0.0, "bike_id": "ad850bc12312dafce3baac818d3f880c", "name": "ad850bc12312dafce3baac818d3f880c", "rental_uris": {"ios": "https://dc.lft.to/lastmile_qr_scan", "android": "https://dc.lft.to/lastmile_qr_scan"}}, {"is_disabled": 0, "fusion_lat": 0.0, "lat": 38.924902333333335, "type": "electric_scooter", "lon": -77.02135233333334, "is_reserved": 0, "fusion_lon": 0.0, "bike_id": "aee03832c7e9a03120787f802e339e48", "name": "aee03832c7e9a03120787f802e339e48", "rental_uris": {"ios": "https://dc.lft.to/lastmile_qr_scan", "android": "https://dc.lft.to/lastmile_qr_scan"}}, {"is_disabled": 0, "fusion_lat": 0.0, "lat": 38.90990866666667, "type": "electric_scooter", "lon": -77.03859016666667, "is_reserved": 0, "fusion_lon": 0.0, "bike_id": "a1ca96f314555fd003eb3fc150e0fca1", "name": "a1ca96f314555fd003eb3fc150e0fca1", "rental_uris": {"ios": "https://dc.lft.to/lastmile_qr_scan", "android": "https://dc.lft.to/lastmile_qr_scan"}}, {"is_disabled": 0, "fusion_lat": 0.0, "lat": 38.9133915, "type": "electric_scooter", "lon": -77.00220533333334, "is_reserved": 0, "fusion_lon": 0.0, "bike_id": "d3067d3fbcbd7e7372d9373a3a49df9e", "name": "d3067d3fbcbd7e7372d9373a3a49df9e", "rental_uris": {"ios": "https://dc.lft.to/lastmile_qr_scan", "android": "https://dc.lft.to/lastmile_qr_scan"}}, {"is_disabled": 0, "fusion_lat": 0.0, "lat": 38.90808716666667, "type": "electric_scooter", "lon": -77.04353016666667, "is_reserved": 0, "fusion_lon": 0.0, "bike_id": "3600587206cdc72da93a737f5f4affb9", "name": "3600587206cdc72da93a737f5f4affb9", "rental_uris": {"ios": "https://dc.lft.to/lastmile_qr_scan", "android": "https://dc.lft.to/lastmile_qr_scan"}}, {"is_disabled": 0, "fusion_lat": 0.0, "lat": 38.861115, "type": "electric_scooter", "lon": -76.9676825, "is_reserved": 0, "fusion_lon": 0.0, "bike_id": "fe88f2556766c8450596f7e7d56c34cd", "name": "fe88f2556766c8450596f7e7d56c34cd", "rental_uris": {"ios": "https://dc.lft.to/lastmile_qr_scan", "android": "https://dc.lft.to/lastmile_qr_scan"}}, {"is_disabled": 0, "fusion_lat": 0.0, "lat": 38.912684666666664, "type": "electric_scooter", "lon": -77.03076133333333, "is_reserved": 0, "fusion_lon": 0.0, "bike_id": "39f35617b8fe0033e9801a2b6271db6d", "name": "39f35617b8fe0033e9801a2b6271db6d", "rental_uris": {"ios": "https://dc.lft.to/lastmile_qr_scan", "android": "https://dc.lft.to/lastmile_qr_scan"}}, {"is_disabled": 0, "fusion_lat": 0.0, "lat": 38.905873666666665, "type": "electric_scooter", "lon": -77.06513933333333, "is_reserved": 0, "fusion_lon": 0.0, "bike_id": "9f618a15aa47742107ebaed49acc1193", "name": "9f618a15aa47742107ebaed49acc1193", "rental_uris": {"ios": "https://dc.lft.to/lastmile_qr_scan", "android": "https://dc.lft.to/lastmile_qr_scan"}}, {"is_disabled": 0, "fusion_lat": 0.0, "lat": 38.907693333333334, "type": "electric_scooter", "lon": -77.04358333333333, "is_reserved": 0, "fusion_lon": 0.0, "bike_id": "5f86a62235186e3fe07d09634a5e16f7", "name": "5f86a62235186e3fe07d09634a5e16f7", "rental_uris": {"ios": "https://dc.lft.to/lastmile_qr_scan", "android": "https://dc.lft.to/lastmile_qr_scan"}}, {"is_disabled": 0, "fusion_lat": 0.0, "lat": 38.861036, "type": "electric_scooter", "lon": -76.98365616666666, "is_reserved": 0, "fusion_lon": 0.0, "bike_id": "267e8df80d184fba4d05923e9674d320", "name": "267e8df80d184fba4d05923e9674d320", "rental_uris": {"ios": "https://dc.lft.to/lastmile_qr_scan", "android": "https://dc.lft.to/lastmile_qr_scan"}}, {"is_disabled": 0, "fusion_lat": 0.0, "lat": 38.89783083333333, "type": "electric_scooter", "lon": -77.03194366666666, "is_reserved": 0, "fusion_lon": 0.0, "bike_id": "f01079ab414879bf603df9895163bd38", "name": "f01079ab414879bf603df9895163bd38", "rental_uris": {"ios": "https://dc.lft.to/lastmile_qr_scan", "android": "https://dc.lft.to/lastmile_qr_scan"}}, {"is_disabled": 0, "fusion_lat": 0.0, "lat": 38.890787833333334, "type": "electric_scooter", "lon": -76.9835925, "is_reserved": 0, "fusion_lon": 0.0, "bike_id": "72825f8c6528757ec2fba546ad69df4a", "name": "72825f8c6528757ec2fba546ad69df4a", "rental_uris": {"ios": "https://dc.lft.to/lastmile_qr_scan", "android": "https://dc.lft.to/lastmile_qr_scan"}}, {"is_disabled": 0, "fusion_lat": 0.0, "lat": 38.90557733333333, "type": "electric_scooter", "lon": -77.02485866666666, "is_reserved": 0, "fusion_lon": 0.0, "bike_id": "fd599c9bade175c5053479dd3155684f", "name": "fd599c9bade175c5053479dd3155684f", "rental_uris": {"ios": "https://dc.lft.to/lastmile_qr_scan", "android": "https://dc.lft.to/lastmile_qr_scan"}}, {"is_disabled": 0, "fusion_lat": 0.0, "lat": 38.936851833333336, "type": "electric_scooter", "lon": -77.0362665, "is_reserved": 0, "fusion_lon": 0.0, "bike_id": "ea32aaf2985c3951edca71c97f7f937e", "name": "ea32aaf2985c3951edca71c97f7f937e", "rental_uris": {"ios": "https://dc.lft.to/lastmile_qr_scan", "android": "https://dc.lft.to/lastmile_qr_scan"}}, {"is_disabled": 0, "fusion_lat": 0.0, "lat": 38.899053333333335, "type": "electric_scooter", "lon": -77.0408785, "is_reserved": 0, "fusion_lon": 0.0, "bike_id": "0e80a5bb725736dc5295ea525a9b9d56", "name": "0e80a5bb725736dc5295ea525a9b9d56", "rental_uris": {"ios": "https://dc.lft.to/lastmile_qr_scan", "android": "https://dc.lft.to/lastmile_qr_scan"}}, {"is_disabled": 0, "fusion_lat": 0.0, "lat": 38.92337416666667, "type": "electric_scooter", "lon": -77.01900883333333, "is_reserved": 0, "fusion_lon": 0.0, "bike_id": "f2419e0579786f636eb171e437f79fdb", "name": "f2419e0579786f636eb171e437f79fdb", "rental_uris": {"ios": "https://dc.lft.to/lastmile_qr_scan", "android": "https://dc.lft.to/lastmile_qr_scan"}}, {"is_disabled": 0, "fusion_lat": 0.0, "lat": 38.910112166666664, "type": "electric_scooter", "lon": -76.99384583333334, "is_reserved": 0, "fusion_lon": 0.0, "bike_id": "4cda334426c03d792598968e43e1dce8", "name": "4cda334426c03d792598968e43e1dce8", "rental_uris": {"ios": "https://dc.lft.to/lastmile_qr_scan", "android": "https://dc.lft.to/lastmile_qr_scan"}}, {"is_disabled": 0, "fusion_lat": 0.0, "lat": 38.870994333333336, "type": "electric_scooter", "lon": -77.012011, "is_reserved": 0, "fusion_lon": 0.0, "bike_id": "98d6e576d5d15501914ccb0d63b2fa39", "name": "98d6e576d5d15501914ccb0d63b2fa39", "rental_uris": {"ios": "https://dc.lft.to/lastmile_qr_scan", "android": "https://dc.lft.to/lastmile_qr_scan"}}, {"is_disabled": 0, "fusion_lat": 0.0, "lat": 38.88340016666667, "type": "electric_scooter", "lon": -77.031455, "is_reserved": 0, "fusion_lon": 0.0, "bike_id": "97a664c4d25f1af434e18c1cc9816fbf", "name": "97a664c4d25f1af434e18c1cc9816fbf", "rental_uris": {"ios": "https://dc.lft.to/lastmile_qr_scan", "android": "https://dc.lft.to/lastmile_qr_scan"}}, {"is_disabled": 0, "fusion_lat": 0.0, "lat": 38.91767, "type": "electric_scooter", "lon": -77.040417, "is_reserved": 0, "fusion_lon": 0.0, "bike_id": "c5dd7f61139db07192ac4cb776330da7", "name": "c5dd7f61139db07192ac4cb776330da7", "rental_uris": {"ios": "https://dc.lft.to/lastmile_qr_scan", "android": "https://dc.lft.to/lastmile_qr_scan"}}, {"is_disabled": 0, "fusion_lat": 0.0, "lat": 38.947150666666666, "type": "electric_scooter", "lon": -77.03340316666667, "is_reserved": 0, "fusion_lon": 0.0, "bike_id": "a74e704e174a3bed4e4ccee21626ee67", "name": "a74e704e174a3bed4e4ccee21626ee67", "rental_uris": {"ios": "https://dc.lft.to/lastmile_qr_scan", "android": "https://dc.lft.to/lastmile_qr_scan"}}, {"is_disabled": 0, "fusion_lat": 0.0, "lat": 38.807527, "type": "electric_bike", "lon": -77.0945345, "is_reserved": 0, "fusion_lon": 0.0, "bike_id": "1e42ecddcf75632a966987d9c880ff17", "name": "1e42ecddcf75632a966987d9c880ff17", "rental_uris": {"ios": "https://dc.lft.to/lastmile_qr_scan", "android": "https://dc.lft.to/lastmile_qr_scan"}}, {"is_disabled": 0, "fusion_lat": 0.0, "lat": 38.93709966666667, "type": "electric_scooter", "lon": -77.02937316666667, "is_reserved": 0, "fusion_lon": 0.0, "bike_id": "5aee21ea0bb2ce6960b7d9c2107e2b35", "name": "5aee21ea0bb2ce6960b7d9c2107e2b35", "rental_uris": {"ios": "https://dc.lft.to/lastmile_qr_scan", "android": "https://dc.lft.to/lastmile_qr_scan"}}, {"is_disabled": 0, "fusion_lat": 0.0, "lat": 38.90496183333333, "type": "electric_scooter", "lon": -77.0259095, "is_reserved": 0, "fusion_lon": 0.0, "bike_id": "e5f871624bab61142fd84def9c466598", "name": "e5f871624bab61142fd84def9c466598", "rental_uris": {"ios": "https://dc.lft.to/lastmile_qr_scan", "android": "https://dc.lft.to/lastmile_qr_scan"}}, {"is_disabled": 0, "fusion_lat": 0.0, "lat": 38.92879516666667, "type": "electric_scooter", "lon": -77.01381133333334, "is_reserved": 0, "fusion_lon": 0.0, "bike_id": "975df265e82770bbd5633dcf18242bfa", "name": "975df265e82770bbd5633dcf18242bfa", "rental_uris": {"ios": "https://dc.lft.to/lastmile_qr_scan", "android": "https://dc.lft.to/lastmile_qr_scan"}}, {"is_disabled": 0, "fusion_lat": 0.0, "lat": 38.884937666666666, "type": "electric_scooter", "lon": -77.00345983333334, "is_reserved": 0, "fusion_lon": 0.0, "bike_id": "4c37ff5959fd053b7f4360f1803837d7", "name": "4c37ff5959fd053b7f4360f1803837d7", "rental_uris": {"ios": "https://dc.lft.to/lastmile_qr_scan", "android": "https://dc.lft.to/lastmile_qr_scan"}}, {"is_disabled": 0, "fusion_lat": 0.0, "lat": 38.89749333333334, "type": "electric_scooter", "lon": -77.00775633333333, "is_reserved": 0, "fusion_lon": 0.0, "bike_id": "5ed690a0abfcc99e6b4d3185155f42ba", "name": "5ed690a0abfcc99e6b4d3185155f42ba", "rental_uris": {"ios": "https://dc.lft.to/lastmile_qr_scan", "android": "https://dc.lft.to/lastmile_qr_scan"}}, {"is_disabled": 0, "fusion_lat": 0.0, "lat": 38.88995033333333, "type": "electric_scooter", "lon": -76.95566966666667, "is_reserved": 0, "fusion_lon": 0.0, "bike_id": "2af8439f1a9710f2e42949e1931c76f2", "name": "2af8439f1a9710f2e42949e1931c76f2", "rental_uris": {"ios": "https://dc.lft.to/lastmile_qr_scan", "android": "https://dc.lft.to/lastmile_qr_scan"}}, {"is_disabled": 0, "fusion_lat": 0.0, "lat": 38.957903, "type": "electric_bike", "lon": -77.00198066666667, "is_reserved": 0, "fusion_lon": 0.0, "bike_id": "622065247f4dbe873c5f92ad3125d1c1", "name": "622065247f4dbe873c5f92ad3125d1c1", "rental_uris": {"ios": "https://dc.lft.to/lastmile_qr_scan", "android": "https://dc.lft.to/lastmile_qr_scan"}}, {"is_disabled": 0, "fusion_lat": 0.0, "lat": 38.8549685, "type": "electric_bike", "lon": -76.984183, "is_reserved": 0, "fusion_lon": 0.0, "bike_id": "3a381e6aaa3abed6583257b42451d90f", "name": "3a381e6aaa3abed6583257b42451d90f", "rental_uris": {"ios": "https://dc.lft.to/lastmile_qr_scan", "android": "https://dc.lft.to/lastmile_qr_scan"}}, {"is_disabled": 0, "fusion_lat": 0.0, "lat": 38.92174083333333, "type": "electric_scooter", "lon": -77.0402, "is_reserved": 0, "fusion_lon": 0.0, "bike_id": "67c61117ecfbe05be87329b9a041c2d0", "name": "67c61117ecfbe05be87329b9a041c2d0", "rental_uris": {"ios": "https://dc.lft.to/lastmile_qr_scan", "android": "https://dc.lft.to/lastmile_qr_scan"}}, {"is_disabled": 0, "fusion_lat": 0.0, "lat": 38.89834333333334, "type": "electric_scooter", "lon": -77.00751716666667, "is_reserved": 0, "fusion_lon": 0.0, "bike_id": "9ae361867cafa82bdb556ac7f53e8b2e", "name": "9ae361867cafa82bdb556ac7f53e8b2e", "rental_uris": {"ios": "https://dc.lft.to/lastmile_qr_scan", "android": "https://dc.lft.to/lastmile_qr_scan"}}, {"is_disabled": 0, "fusion_lat": 0.0, "lat": 38.892875833333335, "type": "electric_scooter", "lon": -76.99854016666667, "is_reserved": 0, "fusion_lon": 0.0, "bike_id": "b5e64c41520b9036cc581c881ea1a23a", "name": "b5e64c41520b9036cc581c881ea1a23a", "rental_uris": {"ios": "https://dc.lft.to/lastmile_qr_scan", "android": "https://dc.lft.to/lastmile_qr_scan"}}, {"is_disabled": 0, "fusion_lat": 0.0, "lat": 38.9126855, "type": "electric_scooter", "lon": -77.0226955, "is_reserved": 0, "fusion_lon": 0.0, "bike_id": "fa85071dcc680bdbdd87fe533bdb08d8", "name": "fa85071dcc680bdbdd87fe533bdb08d8", "rental_uris": {"ios": "https://dc.lft.to/lastmile_qr_scan", "android": "https://dc.lft.to/lastmile_qr_scan"}}, {"is_disabled": 0, "fusion_lat": 0.0, "lat": 38.93431566666667, "type": "electric_scooter", "lon": -77.04002783333334, "is_reserved": 0, "fusion_lon": 0.0, "bike_id": "faa85191980a473c0c7745056c1a10f9", "name": "faa85191980a473c0c7745056c1a10f9", "rental_uris": {"ios": "https://dc.lft.to/lastmile_qr_scan", "android": "https://dc.lft.to/lastmile_qr_scan"}}, {"is_disabled": 0, "fusion_lat": 0.0, "lat": 38.91597433333333, "type": "electric_scooter", "lon": -77.01176083333333, "is_reserved": 0, "fusion_lon": 0.0, "bike_id": "67c2cd19a02938b8e1ca3f914a6814fd", "name": "67c2cd19a02938b8e1ca3f914a6814fd", "rental_uris": {"ios": "https://dc.lft.to/lastmile_qr_scan", "android": "https://dc.lft.to/lastmile_qr_scan"}}, {"is_disabled": 0, "fusion_lat": 0.0, "lat": 38.902775, "type": "electric_scooter", "lon": -77.0418365, "is_reserved": 0, "fusion_lon": 0.0, "bike_id": "5ee3fe27f9328966e0aa12dbe820a79f", "name": "5ee3fe27f9328966e0aa12dbe820a79f", "rental_uris": {"ios": "https://dc.lft.to/lastmile_qr_scan", "android": "https://dc.lft.to/lastmile_qr_scan"}}, {"is_disabled": 0, "fusion_lat": 0.0, "lat": 38.887296666666664, "type": "electric_scooter", "lon": -77.003189, "is_reserved": 0, "fusion_lon": 0.0, "bike_id": "08c3d4aa69d551f7e0605b9eb1f3c95a", "name": "08c3d4aa69d551f7e0605b9eb1f3c95a", "rental_uris": {"ios": "https://dc.lft.to/lastmile_qr_scan", "android": "https://dc.lft.to/lastmile_qr_scan"}}, {"is_disabled": 0, "fusion_lat": 0.0, "lat": 38.837265333333335, "type": "electric_bike", "lon": -76.99756266666667, "is_reserved": 0, "fusion_lon": 0.0, "bike_id": "0042309a16de8b492b68a3caf207dc70", "name": "0042309a16de8b492b68a3caf207dc70", "rental_uris": {"ios": "https://dc.lft.to/lastmile_qr_scan", "android": "https://dc.lft.to/lastmile_qr_scan"}}, {"is_disabled": 0, "fusion_lat": 0.0, "lat": 38.923276666666666, "type": "electric_scooter", "lon": -77.03899316666667, "is_reserved": 0, "fusion_lon": 0.0, "bike_id": "a2b447419e8f20d626e0b0897b8310cd", "name": "a2b447419e8f20d626e0b0897b8310cd", "rental_uris": {"ios": "https://dc.lft.to/lastmile_qr_scan", "android": "https://dc.lft.to/lastmile_qr_scan"}}, {"is_disabled": 0, "fusion_lat": 0.0, "lat": 38.89466083333333, "type": "electric_scooter", "lon": -76.99378183333333, "is_reserved": 0, "fusion_lon": 0.0, "bike_id": "d413d5ad0a710b72961bc49777335e56", "name": "d413d5ad0a710b72961bc49777335e56", "rental_uris": {"ios": "https://dc.lft.to/lastmile_qr_scan", "android": "https://dc.lft.to/lastmile_qr_scan"}}, {"is_disabled": 0, "fusion_lat": 0.0, "lat": 38.923131, "type": "electric_scooter", "lon": -77.02111483333333, "is_reserved": 0, "fusion_lon": 0.0, "bike_id": "cad43b0cfe5485563599c99652d101d2", "name": "cad43b0cfe5485563599c99652d101d2", "rental_uris": {"ios": "https://dc.lft.to/lastmile_qr_scan", "android": "https://dc.lft.to/lastmile_qr_scan"}}, {"is_disabled": 0, "fusion_lat": 0.0, "lat": 38.9169135, "type": "electric_scooter", "lon": -77.02895716666667, "is_reserved": 0, "fusion_lon": 0.0, "bike_id": "b9ff9a6ac47b0508a71905c1a3cd5f32", "name": "b9ff9a6ac47b0508a71905c1a3cd5f32", "rental_uris": {"ios": "https://dc.lft.to/lastmile_qr_scan", "android": "https://dc.lft.to/lastmile_qr_scan"}}, {"is_disabled": 0, "fusion_lat": 0.0, "lat": 38.915536, "type": "electric_scooter", "lon": -77.035107, "is_reserved": 0, "fusion_lon": 0.0, "bike_id": "576133def1a341628d40d95bb1aa5fd7", "name": "576133def1a341628d40d95bb1aa5fd7", "rental_uris": {"ios": "https://dc.lft.to/lastmile_qr_scan", "android": "https://dc.lft.to/lastmile_qr_scan"}}, {"is_disabled": 0, "fusion_lat": 0.0, "lat": 39.03049983333333, "type": "electric_bike", "lon": -77.09487666666666, "is_reserved": 0, "fusion_lon": 0.0, "bike_id": "9f028db14d2dc9c4218938f8d9b1d0d0", "name": "9f028db14d2dc9c4218938f8d9b1d0d0", "rental_uris": {"ios": "https://dc.lft.to/lastmile_qr_scan", "android": "https://dc.lft.to/lastmile_qr_scan"}}, {"is_disabled": 0, "fusion_lat": 0.0, "lat": 38.907219833333336, "type": "electric_scooter", "lon": -77.03306916666666, "is_reserved": 0, "fusion_lon": 0.0, "bike_id": "8290590b98c1c67a62836b357fb7c74d", "name": "8290590b98c1c67a62836b357fb7c74d", "rental_uris": {"ios": "https://dc.lft.to/lastmile_qr_scan", "android": "https://dc.lft.to/lastmile_qr_scan"}}, {"is_disabled": 0, "fusion_lat": 0.0, "lat": 38.89247233333333, "type": "electric_bike", "lon": -76.98541333333333, "is_reserved": 0, "fusion_lon": 0.0, "bike_id": "efabdc9aab8375edd01c3720485c40bc", "name": "efabdc9aab8375edd01c3720485c40bc", "rental_uris": {"ios": "https://dc.lft.to/lastmile_qr_scan", "android": "https://dc.lft.to/lastmile_qr_scan"}}, {"is_disabled": 0, "fusion_lat": 0.0, "lat": 38.90500216666667, "type": "electric_scooter", "lon": -77.0628035, "is_reserved": 0, "fusion_lon": 0.0, "bike_id": "8890c16b9c1ebcda80a033a8bc48e6fa", "name": "8890c16b9c1ebcda80a033a8bc48e6fa", "rental_uris": {"ios": "https://dc.lft.to/lastmile_qr_scan", "android": "https://dc.lft.to/lastmile_qr_scan"}}, {"is_disabled": 0, "fusion_lat": 0.0, "lat": 38.897714666666666, "type": "electric_scooter", "lon": -76.97725883333334, "is_reserved": 0, "fusion_lon": 0.0, "bike_id": "4ac2509938e1a6bd774743beeabc0339", "name": "4ac2509938e1a6bd774743beeabc0339", "rental_uris": {"ios": "https://dc.lft.to/lastmile_qr_scan", "android": "https://dc.lft.to/lastmile_qr_scan"}}, {"is_disabled": 0, "fusion_lat": 0.0, "lat": 38.8870645, "type": "electric_scooter", "lon": -77.00152183333333, "is_reserved": 0, "fusion_lon": 0.0, "bike_id": "f58683ffa92e4c6aef3829a534cdab02", "name": "f58683ffa92e4c6aef3829a534cdab02", "rental_uris": {"ios": "https://dc.lft.to/lastmile_qr_scan", "android": "https://dc.lft.to/lastmile_qr_scan"}}, {"is_disabled": 0, "fusion_lat": 0.0, "lat": 38.91775766666667, "type": "electric_scooter", "lon": -76.9732645, "is_reserved": 0, "fusion_lon": 0.0, "bike_id": "d26c28b8945a099dfe9fdbe772b82a02", "name": "d26c28b8945a099dfe9fdbe772b82a02", "rental_uris": {"ios": "https://dc.lft.to/lastmile_qr_scan", "android": "https://dc.lft.to/lastmile_qr_scan"}}, {"is_disabled": 0, "fusion_lat": 0.0, "lat": 38.921819166666666, "type": "electric_scooter", "lon": -77.04231016666667, "is_reserved": 0, "fusion_lon": 0.0, "bike_id": "4797b6aeeca08e680704a799bcde36fe", "name": "4797b6aeeca08e680704a799bcde36fe", "rental_uris": {"ios": "https://dc.lft.to/lastmile_qr_scan", "android": "https://dc.lft.to/lastmile_qr_scan"}}, {"is_disabled": 0, "fusion_lat": 0.0, "lat": 38.923203, "type": "electric_scooter", "lon": -77.03954016666667, "is_reserved": 0, "fusion_lon": 0.0, "bike_id": "aa5a9a73a0a0085303007e2fa2bdffd4", "name": "aa5a9a73a0a0085303007e2fa2bdffd4", "rental_uris": {"ios": "https://dc.lft.to/lastmile_qr_scan", "android": "https://dc.lft.to/lastmile_qr_scan"}}, {"is_disabled": 0, "fusion_lat": 0.0, "lat": 38.903781, "type": "electric_scooter", "lon": -77.04456483333334, "is_reserved": 0, "fusion_lon": 0.0, "bike_id": "5e53b5d0c8e3178aad5cada15e955469", "name": "5e53b5d0c8e3178aad5cada15e955469", "rental_uris": {"ios": "https://dc.lft.to/lastmile_qr_scan", "android": "https://dc.lft.to/lastmile_qr_scan"}}, {"is_disabled": 0, "fusion_lat": 0.0, "lat": 38.911039, "type": "electric_scooter", "lon": -77.002141, "is_reserved": 0, "fusion_lon": 0.0, "bike_id": "fdb02e3707ed86d8ec497db7a9163231", "name": "fdb02e3707ed86d8ec497db7a9163231", "rental_uris": {"ios": "https://dc.lft.to/lastmile_qr_scan", "android": "https://dc.lft.to/lastmile_qr_scan"}}, {"is_disabled": 0, "fusion_lat": 0.0, "lat": 38.896097833333336, "type": "electric_scooter", "lon": -77.0440735, "is_reserved": 0, "fusion_lon": 0.0, "bike_id": "9276cbf368080284ad265568ba121ef6", "name": "9276cbf368080284ad265568ba121ef6", "rental_uris": {"ios": "https://dc.lft.to/lastmile_qr_scan", "android": "https://dc.lft.to/lastmile_qr_scan"}}, {"is_disabled": 0, "fusion_lat": 0.0, "lat": 38.907145, "type": "electric_scooter", "lon": -77.02970883333333, "is_reserved": 0, "fusion_lon": 0.0, "bike_id": "646f285158d359a621fd8b6feb95c199", "name": "646f285158d359a621fd8b6feb95c199", "rental_uris": {"ios": "https://dc.lft.to/lastmile_qr_scan", "android": "https://dc.lft.to/lastmile_qr_scan"}}, {"is_disabled": 0, "fusion_lat": 0.0, "lat": 38.902469333333336, "type": "electric_scooter", "lon": -77.01748283333333, "is_reserved": 0, "fusion_lon": 0.0, "bike_id": "562bc59efc423c6a43846f85319ee9e7", "name": "562bc59efc423c6a43846f85319ee9e7", "rental_uris": {"ios": "https://dc.lft.to/lastmile_qr_scan", "android": "https://dc.lft.to/lastmile_qr_scan"}}, {"is_disabled": 0, "fusion_lat": 0.0, "lat": 38.92148433333333, "type": "electric_scooter", "lon": -77.04216883333333, "is_reserved": 0, "fusion_lon": 0.0, "bike_id": "0a247a384296569a9dd270b7b97b7e44", "name": "0a247a384296569a9dd270b7b97b7e44", "rental_uris": {"ios": "https://dc.lft.to/lastmile_qr_scan", "android": "https://dc.lft.to/lastmile_qr_scan"}}, {"is_disabled": 0, "fusion_lat": 0.0, "lat": 38.9188735, "type": "electric_scooter", "lon": -77.0392335, "is_reserved": 0, "fusion_lon": 0.0, "bike_id": "712a1f254083adb3f5d8514151660a81", "name": "712a1f254083adb3f5d8514151660a81", "rental_uris": {"ios": "https://dc.lft.to/lastmile_qr_scan", "android": "https://dc.lft.to/lastmile_qr_scan"}}, {"is_disabled": 0, "fusion_lat": 0.0, "lat": 38.930974166666665, "type": "electric_scooter", "lon": -77.02505, "is_reserved": 0, "fusion_lon": 0.0, "bike_id": "eb084d5ad3bc44aedd8562e1306e6e20", "name": "eb084d5ad3bc44aedd8562e1306e6e20", "rental_uris": {"ios": "https://dc.lft.to/lastmile_qr_scan", "android": "https://dc.lft.to/lastmile_qr_scan"}}, {"is_disabled": 0, "fusion_lat": 0.0, "lat": 38.905643, "type": "electric_scooter", "lon": -77.03469216666667, "is_reserved": 0, "fusion_lon": 0.0, "bike_id": "bc86b9c243ce2026c00d5de3e59df7b2", "name": "bc86b9c243ce2026c00d5de3e59df7b2", "rental_uris": {"ios": "https://dc.lft.to/lastmile_qr_scan", "android": "https://dc.lft.to/lastmile_qr_scan"}}, {"is_disabled": 0, "fusion_lat": 0.0, "lat": 38.92150383333333, "type": "electric_scooter", "lon": -77.02421666666666, "is_reserved": 0, "fusion_lon": 0.0, "bike_id": "aa0d48e6f0ff6e08498de7f491debc91", "name": "aa0d48e6f0ff6e08498de7f491debc91", "rental_uris": {"ios": "https://dc.lft.to/lastmile_qr_scan", "android": "https://dc.lft.to/lastmile_qr_scan"}}, {"is_disabled": 0, "fusion_lat": 0.0, "lat": 38.89563016666666, "type": "electric_bike", "lon": -77.12731866666667, "is_reserved": 0, "fusion_lon": 0.0, "bike_id": "03bf5248775f9a73ceb964ec295ee4c2", "name": "03bf5248775f9a73ceb964ec295ee4c2", "rental_uris": {"ios": "https://dc.lft.to/lastmile_qr_scan", "android": "https://dc.lft.to/lastmile_qr_scan"}}, {"is_disabled": 0, "fusion_lat": 0.0, "lat": 38.918745333333334, "type": "electric_scooter", "lon": -77.02596166666666, "is_reserved": 0, "fusion_lon": 0.0, "bike_id": "e94aa14dd5ab9c72470673a9c65a265e", "name": "e94aa14dd5ab9c72470673a9c65a265e", "rental_uris": {"ios": "https://dc.lft.to/lastmile_qr_scan", "android": "https://dc.lft.to/lastmile_qr_scan"}}, {"is_disabled": 0, "fusion_lat": 0.0, "lat": 38.89609733333333, "type": "electric_scooter", "lon": -76.955916, "is_reserved": 0, "fusion_lon": 0.0, "bike_id": "af80ae5d0e2acd5010eaa6670a81d558", "name": "af80ae5d0e2acd5010eaa6670a81d558", "rental_uris": {"ios": "https://dc.lft.to/lastmile_qr_scan", "android": "https://dc.lft.to/lastmile_qr_scan"}}, {"is_disabled": 0, "fusion_lat": 0.0, "lat": 38.91415, "type": "electric_scooter", "lon": -77.01954183333334, "is_reserved": 0, "fusion_lon": 0.0, "bike_id": "ad2f585fe6909152bafc16f358e3487a", "name": "ad2f585fe6909152bafc16f358e3487a", "rental_uris": {"ios": "https://dc.lft.to/lastmile_qr_scan", "android": "https://dc.lft.to/lastmile_qr_scan"}}, {"is_disabled": 0, "fusion_lat": 0.0, "lat": 38.933150499999996, "type": "electric_scooter", "lon": -77.0328315, "is_reserved": 0, "fusion_lon": 0.0, "bike_id": "30c66d71cfdafcb32e4bc31649a5eda3", "name": "30c66d71cfdafcb32e4bc31649a5eda3", "rental_uris": {"ios": "https://dc.lft.to/lastmile_qr_scan", "android": "https://dc.lft.to/lastmile_qr_scan"}}, {"is_disabled": 0, "fusion_lat": 0.0, "lat": 38.965066666666665, "type": "electric_bike", "lon": -77.0281535, "is_reserved": 0, "fusion_lon": 0.0, "bike_id": "9d7e996a510aff48648e2bba4ac1db50", "name": "9d7e996a510aff48648e2bba4ac1db50", "rental_uris": {"ios": "https://dc.lft.to/lastmile_qr_scan", "android": "https://dc.lft.to/lastmile_qr_scan"}}, {"is_disabled": 0, "fusion_lat": 0.0, "lat": 38.9255115, "type": "electric_scooter", "lon": -77.05300266666667, "is_reserved": 0, "fusion_lon": 0.0, "bike_id": "3e2b0189726d2dafa6d859438c8c0a12", "name": "3e2b0189726d2dafa6d859438c8c0a12", "rental_uris": {"ios": "https://dc.lft.to/lastmile_qr_scan", "android": "https://dc.lft.to/lastmile_qr_scan"}}, {"is_disabled": 0, "fusion_lat": 0.0, "lat": 38.903757166666665, "type": "electric_scooter", "lon": -77.01098583333334, "is_reserved": 0, "fusion_lon": 0.0, "bike_id": "5b0c805ac994300b6acf62fe0307af6d", "name": "5b0c805ac994300b6acf62fe0307af6d", "rental_uris": {"ios": "https://dc.lft.to/lastmile_qr_scan", "android": "https://dc.lft.to/lastmile_qr_scan"}}, {"is_disabled": 0, "fusion_lat": 0.0, "lat": 38.951932, "type": "electric_bike", "lon": -76.9672125, "is_reserved": 0, "fusion_lon": 0.0, "bike_id": "9e6bf93787ea84009229efb585e0d0b3", "name": "9e6bf93787ea84009229efb585e0d0b3", "rental_uris": {"ios": "https://dc.lft.to/lastmile_qr_scan", "android": "https://dc.lft.to/lastmile_qr_scan"}}, {"is_disabled": 0, "fusion_lat": 0.0, "lat": 38.903404333333334, "type": "electric_scooter", "lon": -76.97559, "is_reserved": 0, "fusion_lon": 0.0, "bike_id": "89cb2148652dc606777228eb95fb5d55", "name": "89cb2148652dc606777228eb95fb5d55", "rental_uris": {"ios": "https://dc.lft.to/lastmile_qr_scan", "android": "https://dc.lft.to/lastmile_qr_scan"}}, {"is_disabled": 0, "fusion_lat": 0.0, "lat": 38.91326216666667, "type": "electric_scooter", "lon": -77.03010833333333, "is_reserved": 0, "fusion_lon": 0.0, "bike_id": "9a2827c3259574bc06a3ff193698760b", "name": "9a2827c3259574bc06a3ff193698760b", "rental_uris": {"ios": "https://dc.lft.to/lastmile_qr_scan", "android": "https://dc.lft.to/lastmile_qr_scan"}}, {"is_disabled": 0, "fusion_lat": 0.0, "lat": 38.9981635, "type": "electric_bike", "lon": -76.8837335, "is_reserved": 0, "fusion_lon": 0.0, "bike_id": "963577d063e1645a34ef5cc2a86d27aa", "name": "963577d063e1645a34ef5cc2a86d27aa", "rental_uris": {"ios": "https://dc.lft.to/lastmile_qr_scan", "android": "https://dc.lft.to/lastmile_qr_scan"}}, {"is_disabled": 0, "fusion_lat": 0.0, "lat": 38.9416605, "type": "electric_scooter", "lon": -77.04129683333333, "is_reserved": 0, "fusion_lon": 0.0, "bike_id": "74bf5374e2f7c62a32967609235ed89b", "name": "74bf5374e2f7c62a32967609235ed89b", "rental_uris": {"ios": "https://dc.lft.to/lastmile_qr_scan", "android": "https://dc.lft.to/lastmile_qr_scan"}}, {"is_disabled": 0, "fusion_lat": 0.0, "lat": 38.906846, "type": "electric_scooter", "lon": -77.063559, "is_reserved": 0, "fusion_lon": 0.0, "bike_id": "d1ee46aa963ca3af36039c7589bf446f", "name": "d1ee46aa963ca3af36039c7589bf446f", "rental_uris": {"ios": "https://dc.lft.to/lastmile_qr_scan", "android": "https://dc.lft.to/lastmile_qr_scan"}}, {"is_disabled": 0, "fusion_lat": 0.0, "lat": 38.8638805, "type": "electric_bike", "lon": -76.98989466666667, "is_reserved": 0, "fusion_lon": 0.0, "bike_id": "2a556adaa9e0d1febf01144aef807e90", "name": "2a556adaa9e0d1febf01144aef807e90", "rental_uris": {"ios": "https://dc.lft.to/lastmile_qr_scan", "android": "https://dc.lft.to/lastmile_qr_scan"}}, {"is_disabled": 0, "fusion_lat": 0.0, "lat": 38.911275333333336, "type": "electric_scooter", "lon": -77.0445345, "is_reserved": 0, "fusion_lon": 0.0, "bike_id": "f419ed49d6e8ac8a9790183aa3b0c329", "name": "f419ed49d6e8ac8a9790183aa3b0c329", "rental_uris": {"ios": "https://dc.lft.to/lastmile_qr_scan", "android": "https://dc.lft.to/lastmile_qr_scan"}}, {"is_disabled": 0, "fusion_lat": 0.0, "lat": 38.89225233333333, "type": "electric_scooter", "lon": -77.04444133333334, "is_reserved": 0, "fusion_lon": 0.0, "bike_id": "8cd6bd76ed944561d404676ac40f966f", "name": "8cd6bd76ed944561d404676ac40f966f", "rental_uris": {"ios": "https://dc.lft.to/lastmile_qr_scan", "android": "https://dc.lft.to/lastmile_qr_scan"}}, {"is_disabled": 0, "fusion_lat": 0.0, "lat": 38.914274, "type": "electric_scooter", "lon": -77.03221216666667, "is_reserved": 0, "fusion_lon": 0.0, "bike_id": "801da1b3b00d4919931f57fb0ef2af82", "name": "801da1b3b00d4919931f57fb0ef2af82", "rental_uris": {"ios": "https://dc.lft.to/lastmile_qr_scan", "android": "https://dc.lft.to/lastmile_qr_scan"}}, {"is_disabled": 0, "fusion_lat": 0.0, "lat": 38.91761316666667, "type": "electric_scooter", "lon": -77.0039975, "is_reserved": 0, "fusion_lon": 0.0, "bike_id": "b19c3fc529713e49aa9ecfc5507c2f8e", "name": "b19c3fc529713e49aa9ecfc5507c2f8e", "rental_uris": {"ios": "https://dc.lft.to/lastmile_qr_scan", "android": "https://dc.lft.to/lastmile_qr_scan"}}, {"is_disabled": 0, "fusion_lat": 0.0, "lat": 38.9077815, "type": "electric_scooter", "lon": -77.038587, "is_reserved": 0, "fusion_lon": 0.0, "bike_id": "c3aba8ad0b64f8e36ed639b8a4d6948a", "name": "c3aba8ad0b64f8e36ed639b8a4d6948a", "rental_uris": {"ios": "https://dc.lft.to/lastmile_qr_scan", "android": "https://dc.lft.to/lastmile_qr_scan"}}, {"is_disabled": 0, "fusion_lat": 0.0, "lat": 38.9236395, "type": "electric_scooter", "lon": -77.05128133333334, "is_reserved": 0, "fusion_lon": 0.0, "bike_id": "96d5e190b856ad12efc2fa6b3f80cad3", "name": "96d5e190b856ad12efc2fa6b3f80cad3", "rental_uris": {"ios": "https://dc.lft.to/lastmile_qr_scan", "android": "https://dc.lft.to/lastmile_qr_scan"}}, {"is_disabled": 0, "fusion_lat": 0.0, "lat": 38.914006666666666, "type": "electric_scooter", "lon": -77.03923733333333, "is_reserved": 0, "fusion_lon": 0.0, "bike_id": "1399e405f5a37f167881040d21ba9aec", "name": "1399e405f5a37f167881040d21ba9aec", "rental_uris": {"ios": "https://dc.lft.to/lastmile_qr_scan", "android": "https://dc.lft.to/lastmile_qr_scan"}}, {"is_disabled": 0, "fusion_lat": 0.0, "lat": 38.921430666666666, "type": "electric_scooter", "lon": -77.017838, "is_reserved": 0, "fusion_lon": 0.0, "bike_id": "331e67299345c46f1e79683bb52d8591", "name": "331e67299345c46f1e79683bb52d8591", "rental_uris": {"ios": "https://dc.lft.to/lastmile_qr_scan", "android": "https://dc.lft.to/lastmile_qr_scan"}}, {"is_disabled": 0, "fusion_lat": 0.0, "lat": 38.8724325, "type": "electric_scooter", "lon": -76.97724133333334, "is_reserved": 0, "fusion_lon": 0.0, "bike_id": "f91f84a1bfd4758d72ca679bafb263ff", "name": "f91f84a1bfd4758d72ca679bafb263ff", "rental_uris": {"ios": "https://dc.lft.to/lastmile_qr_scan", "android": "https://dc.lft.to/lastmile_qr_scan"}}, {"is_disabled": 0, "fusion_lat": 0.0, "lat": 38.89536533333333, "type": "electric_scooter", "lon": -76.9488665, "is_reserved": 0, "fusion_lon": 0.0, "bike_id": "df1ed9d557b493cf985ebc71c9b1ff9f", "name": "df1ed9d557b493cf985ebc71c9b1ff9f", "rental_uris": {"ios": "https://dc.lft.to/lastmile_qr_scan", "android": "https://dc.lft.to/lastmile_qr_scan"}}, {"is_disabled": 0, "fusion_lat": 0.0, "lat": 38.85522533333334, "type": "electric_scooter", "lon": -76.96915016666667, "is_reserved": 0, "fusion_lon": 0.0, "bike_id": "30abaafa74ac541c00c3c6d465664f1a", "name": "30abaafa74ac541c00c3c6d465664f1a", "rental_uris": {"ios": "https://dc.lft.to/lastmile_qr_scan", "android": "https://dc.lft.to/lastmile_qr_scan"}},