{"data": {"bikes": [{"lon": -77.02895116666667, "bike_id": "f3e62fb932d7c8541b0845c922c33580", "lat": 38.940378333333335, "fusion_lon": 0.0, "fusion_lat": 0.0, "type": "electric_scooter", "name": "f3e62fb932d7c8541b0845c922c33580", "is_disabled": 0, "rental_uris": {"ios": "https://dc.lft.to/lastmile_qr_scan", "android": "https://dc.lft.to/lastmile_qr_scan"}, "is_reserved": 0}, {"lon": -77.02509016666667, "bike_id": "a58d95df06b7ae461ecb8ade79ac3470", "lat": 38.91921033333333, "fusion_lon": 0.0, "fusion_lat": 0.0, "type": "electric_scooter", "name": "a58d95df06b7ae461ecb8ade79ac3470", "is_disabled": 0, "rental_uris": {"ios": "https://dc.lft.to/lastmile_qr_scan", "android": "https://dc.lft.to/lastmile_qr_scan"}, "is_reserved": 0}, {"lon": -77.01549583333333, "bike_id": "c15f549ccdd6e0f1cc8ecee6286f7aec", "lat": 38.891749, "fusion_lon": 0.0, "fusion_lat": 0.0, "type": "electric_scooter", "name": "c15f549ccdd6e0f1cc8ecee6286f7aec", "is_disabled": 0, "rental_uris": {"ios": "https://dc.lft.to/lastmile_qr_scan", "android": "https://dc.lft.to/lastmile_qr_scan"}, "is_reserved": 0}, {"lon": -77.04866316666667, "bike_id": "c5efc2afc66a2a5fba5715e36d316ac8", "lat": 38.8928345, "fusion_lon": 0.0, "fusion_lat": 0.0, "type": "electric_scooter", "name": "c5efc2afc66a2a5fba5715e36d316ac8", "is_disabled": 0, "rental_uris": {"ios": "https://dc.lft.to/lastmile_qr_scan", "android": "https://dc.lft.to/lastmile_qr_scan"}, "is_reserved": 0}, {"lon": -77.027902, "bike_id": "ab3f0b86a3086cb6a2cde1b71faea491", "lat": 38.961296833333336, "fusion_lon": 0.0, "fusion_lat": 0.0, "type": "electric_scooter", "name": "ab3f0b86a3086cb6a2cde1b71faea491", "is_disabled": 0, "rental_uris": {"ios": "https://dc.lft.to/lastmile_qr_scan", "android": "https://dc.lft.to/lastmile_qr_scan"}, "is_reserved": 0}, {"lon": -77.04582783333333, "bike_id": "153d9606f8802f94639c3bc13c59ea5d", "lat": 38.913338333333336, "fusion_lon": 0.0, "fusion_lat": 0.0, "type": "electric_scooter", "name": "153d9606f8802f94639c3bc13c59ea5d", "is_disabled": 0, "rental_uris": {"ios": "https://dc.lft.to/lastmile_qr_scan", "android": "https://dc.lft.to/lastmile_qr_scan"}, "is_reserved": 0}, {"lon": -76.9948375, "bike_id": "8202ee1e608e6df5624d26739a20f53c", "lat": 38.89741216666667, "fusion_lon": 0.0, "fusion_lat": 0.0, "type": "electric_scooter", "name": "8202ee1e608e6df5624d26739a20f53c", "is_disabled": 0, "rental_uris": {"ios": "https://dc.lft.to/lastmile_qr_scan", "android": "https://dc.lft.to/lastmile_qr_scan"}, "is_reserved": 0}, {"lon": -77.05479716666666, "bike_id": "36323082538059479173492959c0cf76", "lat": 38.935381166666666, "fusion_lon": 0.0, "fusion_lat": 0.0, "type": "electric_scooter", "name": "36323082538059479173492959c0cf76", "is_disabled": 0, "rental_uris": {"ios": "https://dc.lft.to/lastmile_qr_scan", "android": "https://dc.lft.to/lastmile_qr_scan"}, "is_reserved": 0}, {"lon": -77.0214385, "bike_id": "75f6817010986899e66af6fc6c1a1133", "lat": 38.8949885, "fusion_lon": 0.0, "fusion_lat": 0.0, "type": "electric_scooter", "name": "75f6817010986899e66af6fc6c1a1133", "is_disabled": 0, "rental_uris": {"ios": "https://dc.lft.to/lastmile_qr_scan", "android": "https://dc.lft.to/lastmile_qr_scan"}, "is_reserved": 0}, {"lon": -77.00890116666666, "bike_id": "f39ee3b1a8edb3e7a494c9da1fe99028", "lat": 38.926498, "fusion_lon": 0.0, "fusion_lat": 0.0, "type": "electric_scooter", "name": "f39ee3b1a8edb3e7a494c9da1fe99028", "is_disabled": 0, "rental_uris": {"ios": "https://dc.lft.to/lastmile_qr_scan", "android": "https://dc.lft.to/lastmile_qr_scan"}, "is_reserved": 0}, {"lon": -77.02696916666666, "bike_id": "b1e0bfc0a0b7726b6dbb9bd048b5848f", "lat": 38.908408666666666, "fusion_lon": 0.0, "fusion_lat": 0.0, "type": "electric_scooter", "name": "b1e0bfc0a0b7726b6dbb9bd048b5848f", "is_disabled": 0, "rental_uris": {"ios": "https://dc.lft.to/lastmile_qr_scan", "android": "https://dc.lft.to/lastmile_qr_scan"}, "is_reserved": 0}, {"lon": -76.98618183333333, "bike_id": "55101e5de98e1a6cd3929ede6783d204", "lat": 38.9058375, "fusion_lon": 0.0, "fusion_lat": 0.0, "type": "electric_scooter", "name": "55101e5de98e1a6cd3929ede6783d204", "is_disabled": 0, "rental_uris": {"ios": "https://dc.lft.to/lastmile_qr_scan", "android": "https://dc.lft.to/lastmile_qr_scan"}, "is_reserved": 0}, {"lon": -76.98712533333334, "bike_id": "608bf230c3dd923a939c44ca00049b23", "lat": 38.86693566666667, "fusion_lon": 0.0, "fusion_lat": 0.0, "type": "electric_scooter", "name": "608bf230c3dd923a939c44ca00049b23", "is_disabled": 0, "rental_uris": {"ios": "https://dc.lft.to/lastmile_qr_scan", "android": "https://dc.lft.to/lastmile_qr_scan"}, "is_reserved": 0}, {"lon": -77.019794, "bike_id": "b5ba182f0cf95b83cf1eff62a0ee96b8", "lat": 38.96025083333333, "fusion_lon": 0.0, "fusion_lat": 0.0, "type": "electric_scooter", "name": "b5ba182f0cf95b83cf1eff62a0ee96b8", "is_disabled": 0, "rental_uris": {"ios": "https://dc.lft.to/lastmile_qr_scan", "android": "https://dc.lft.to/lastmile_qr_scan"}, "is_reserved": 0}, {"lon": -76.93174466666666, "bike_id": "1feb5b6bfde261fbf03641b4a1a8c773", "lat": 38.898845, "fusion_lon": 0.0, "fusion_lat": 0.0, "type": "electric_scooter", "name": "1feb5b6bfde261fbf03641b4a1a8c773", "is_disabled": 0, "rental_uris": {"ios": "https://dc.lft.to/lastmile_qr_scan", "android": "https://dc.lft.to/lastmile_qr_scan"}, "is_reserved": 0}, {"lon": -77.03204366666667, "bike_id": "1bccaab6c5076da914167bf1f0e2436b", "lat": 38.938654, "fusion_lon": 0.0, "fusion_lat": 0.0, "type": "electric_scooter", "name": "1bccaab6c5076da914167bf1f0e2436b", "is_disabled": 0, "rental_uris": {"ios": "https://dc.lft.to/lastmile_qr_scan", "android": "https://dc.lft.to/lastmile_qr_scan"}, "is_reserved": 0}, {"lon": -77.01412883333333, "bike_id": "5a9e0f651e1eb12bc9d59313153282e3", "lat": 38.92839383333333, "fusion_lon": 0.0, "fusion_lat": 0.0, "type": "electric_scooter", "name": "5a9e0f651e1eb12bc9d59313153282e3", "is_disabled": 0, "rental_uris": {"ios": "https://dc.lft.to/lastmile_qr_scan", "android": "https://dc.lft.to/lastmile_qr_scan"}, "is_reserved": 0}, {"lon": -77.0200255, "bike_id": "fc6145e1a9d07105a8ac326e86831616", "lat": 38.88740216666667, "fusion_lon": 0.0, "fusion_lat": 0.0, "type": "electric_scooter", "name": "fc6145e1a9d07105a8ac326e86831616", "is_disabled": 0, "rental_uris": {"ios": "https://dc.lft.to/lastmile_qr_scan", "android": "https://dc.lft.to/lastmile_qr_scan"}, "is_reserved": 0}, {"lon": -77.04332216666667, "bike_id": "61aae104b5f8e7c4f3aafef4b522730d", "lat": 38.916013666666665, "fusion_lon": 0.0, "fusion_lat": 0.0, "type": "electric_scooter", "name": "61aae104b5f8e7c4f3aafef4b522730d", "is_disabled": 0, "rental_uris": {"ios": "https://dc.lft.to/lastmile_qr_scan", "android": "https://dc.lft.to/lastmile_qr_scan"}, "is_reserved": 0}, {"lon": -77.00154133333334, "bike_id": "11ba2212f47f9db7b8a175ab738d5889", "lat": 38.842680666666666, "fusion_lon": 0.0, "fusion_lat": 0.0, "type": "electric_scooter", "name": "11ba2212f47f9db7b8a175ab738d5889", "is_disabled": 0, "rental_uris": {"ios": "https://dc.lft.to/lastmile_qr_scan", "android": "https://dc.lft.to/lastmile_qr_scan"}, "is_reserved": 0}, {"lon": -77.04530116666666, "bike_id": "645700258fd9f90abdac9e7235929782", "lat": 38.913284166666664, "fusion_lon": 0.0, "fusion_lat": 0.0, "type": "electric_scooter", "name": "645700258fd9f90abdac9e7235929782", "is_disabled": 0, "rental_uris": {"ios": "https://dc.lft.to/lastmile_qr_scan", "android": "https://dc.lft.to/lastmile_qr_scan"}, "is_reserved": 0}, {"lon": -77.02214266666667, "bike_id": "206dfe625a596c8708c8add5d236e973", "lat": 38.90195166666667, "fusion_lon": 0.0, "fusion_lat": 0.0, "type": "electric_scooter", "name": "206dfe625a596c8708c8add5d236e973", "is_disabled": 0, "rental_uris": {"ios": "https://dc.lft.to/lastmile_qr_scan", "android": "https://dc.lft.to/lastmile_qr_scan"}, "is_reserved": 0}, {"lon": -76.987138, "bike_id": "2b594326c8e7be1e9ca6d2771b4b4cb4", "lat": 38.867, "fusion_lon": 0.0, "fusion_lat": 0.0, "type": "electric_scooter", "name": "2b594326c8e7be1e9ca6d2771b4b4cb4", "is_disabled": 0, "rental_uris": {"ios": "https://dc.lft.to/lastmile_qr_scan", "android": "https://dc.lft.to/lastmile_qr_scan"}, "is_reserved": 0}, {"lon": -77.03812466666666, "bike_id": "2cde5e4c68228647fe878f763fca31b0", "lat": 38.925453833333336, "fusion_lon": 0.0, "fusion_lat": 0.0, "type": "electric_scooter", "name": "2cde5e4c68228647fe878f763fca31b0", "is_disabled": 0, "rental_uris": {"ios": "https://dc.lft.to/lastmile_qr_scan", "android": "https://dc.lft.to/lastmile_qr_scan"}, "is_reserved": 0}, {"lon": -77.06108433333333, "bike_id": "f684be29319bdce2c4e98d947b93d2c7", "lat": 38.9436465, "fusion_lon": 0.0, "fusion_lat": 0.0, "type": "electric_scooter", "name": "f684be29319bdce2c4e98d947b93d2c7", "is_disabled": 0, "rental_uris": {"ios": "https://dc.lft.to/lastmile_qr_scan", "android": "https://dc.lft.to/lastmile_qr_scan"}, "is_reserved": 0}, {"lon": -77.03178116666666, "bike_id": "743d4b3de552e22be055f87a6a1fc9ee", "lat": 38.9360325, "fusion_lon": 0.0, "fusion_lat": 0.0, "type": "electric_scooter", "name": "743d4b3de552e22be055f87a6a1fc9ee", "is_disabled": 0, "rental_uris": {"ios": "https://dc.lft.to/lastmile_qr_scan", "android": "https://dc.lft.to/lastmile_qr_scan"}, "is_reserved": 0}, {"lon": -77.0423405, "bike_id": "3a5ef6ec0cf75431ad287a6d2a9fb0d3", "lat": 38.91640116666667, "fusion_lon": 0.0, "fusion_lat": 0.0, "type": "electric_scooter", "name": "3a5ef6ec0cf75431ad287a6d2a9fb0d3", "is_disabled": 0, "rental_uris": {"ios": "https://dc.lft.to/lastmile_qr_scan", "android": "https://dc.lft.to/lastmile_qr_scan"}, "is_reserved": 0}, {"lon": -77.03339916666667, "bike_id": "cc0e21e385d42af712b7ac13eb3f5deb", "lat": 38.91915266666667, "fusion_lon": 0.0, "fusion_lat": 0.0, "type": "electric_scooter", "name": "cc0e21e385d42af712b7ac13eb3f5deb", "is_disabled": 0, "rental_uris": {"ios": "https://dc.lft.to/lastmile_qr_scan", "android": "https://dc.lft.to/lastmile_qr_scan"}, "is_reserved": 0}, {"lon": -77.03006233333333, "bike_id": "eb1ffd263b19a402e6377fb73c78d557", "lat": 38.916955, "fusion_lon": 0.0, "fusion_lat": 0.0, "type": "electric_scooter", "name": "eb1ffd263b19a402e6377fb73c78d557", "is_disabled": 0, "rental_uris": {"ios": "https://dc.lft.to/lastmile_qr_scan", "android": "https://dc.lft.to/lastmile_qr_scan"}, "is_reserved": 0}, {"lon": -76.99472116666666, "bike_id": "e9bd106766c7cb1d0e83649808b9fa05", "lat": 38.862157333333336, "fusion_lon": 0.0, "fusion_lat": 0.0, "type": "electric_scooter", "name": "e9bd106766c7cb1d0e83649808b9fa05", "is_disabled": 0, "rental_uris": {"ios": "https://dc.lft.to/lastmile_qr_scan", "android": "https://dc.lft.to/lastmile_qr_scan"}, "is_reserved": 0}, {"lon": -77.0037725, "bike_id": "1442697b38371e575f136ea683bb73b6", "lat": 38.895205833333335, "fusion_lon": 0.0, "fusion_lat": 0.0, "type": "electric_scooter", "name": "1442697b38371e575f136ea683bb73b6", "is_disabled": 0, "rental_uris": {"ios": "https://dc.lft.to/lastmile_qr_scan", "android": "https://dc.lft.to/lastmile_qr_scan"}, "is_reserved": 0}, {"lon": -76.988426, "bike_id": "4fef2cb510ae1151df70c14f24578405", "lat": 38.900688333333335, "fusion_lon": 0.0, "fusion_lat": 0.0, "type": "electric_scooter", "name": "4fef2cb510ae1151df70c14f24578405", "is_disabled": 0, "rental_uris": {"ios": "https://dc.lft.to/lastmile_qr_scan", "android": "https://dc.lft.to/lastmile_qr_scan"}, "is_reserved": 0}, {"lon": -77.01834333333333, "bike_id": "f0ae3ddf49e708739a289838ff55ecee", "lat": 38.92139, "fusion_lon": 0.0, "fusion_lat": 0.0, "type": "electric_scooter", "name": "f0ae3ddf49e708739a289838ff55ecee", "is_disabled": 0, "rental_uris": {"ios": "https://dc.lft.to/lastmile_qr_scan", "android": "https://dc.lft.to/lastmile_qr_scan"}, "is_reserved": 0}, {"lon": -77.04493816666667, "bike_id": "c976b538df6a351db284dd1a0541aa79", "lat": 38.907342166666666, "fusion_lon": 0.0, "fusion_lat": 0.0, "type": "electric_scooter", "name": "c976b538df6a351db284dd1a0541aa79", "is_disabled": 0, "rental_uris": {"ios": "https://dc.lft.to/lastmile_qr_scan", "android": "https://dc.lft.to/lastmile_qr_scan"}, "is_reserved": 0}, {"lon": -77.05611933333333, "bike_id": "71306a4e4f661e59a87b478566c65ba6", "lat": 38.93160433333333, "fusion_lon": 0.0, "fusion_lat": 0.0, "type": "electric_scooter", "name": "71306a4e4f661e59a87b478566c65ba6", "is_disabled": 0, "rental_uris": {"ios": "https://dc.lft.to/lastmile_qr_scan", "android": "https://dc.lft.to/lastmile_qr_scan"}, "is_reserved": 0}, {"lon": -77.014407, "bike_id": "99337df0d497cf2785bf97e4b9e822c0", "lat": 38.920684, "fusion_lon": 0.0, "fusion_lat": 0.0, "type": "electric_scooter", "name": "99337df0d497cf2785bf97e4b9e822c0", "is_disabled": 0, "rental_uris": {"ios": "https://dc.lft.to/lastmile_qr_scan", "android": "https://dc.lft.to/lastmile_qr_scan"}, "is_reserved": 0}, {"lon": -77.02369916666666, "bike_id": "879d33ffa99f050b9aeedeb8826719e1", "lat": 38.88474266666667, "fusion_lon": 0.0, "fusion_lat": 0.0, "type": "electric_scooter", "name": "879d33ffa99f050b9aeedeb8826719e1", "is_disabled": 0, "rental_uris": {"ios": "https://dc.lft.to/lastmile_qr_scan", "android": "https://dc.lft.to/lastmile_qr_scan"}, "is_reserved": 0}, {"lon": -77.027563, "bike_id": "315b1a8bbf19d0c0cce315a883875fa0", "lat": 38.91692666666667, "fusion_lon": 0.0, "fusion_lat": 0.0, "type": "electric_scooter", "name": "315b1a8bbf19d0c0cce315a883875fa0", "is_disabled": 0, "rental_uris": {"ios": "https://dc.lft.to/lastmile_qr_scan", "android": "https://dc.lft.to/lastmile_qr_scan"}, "is_reserved": 0}, {"lon": -76.99290966666666, "bike_id": "734984ee2c97d328add56b8dbbd1b0b3", "lat": 38.898839, "fusion_lon": 0.0, "fusion_lat": 0.0, "type": "electric_scooter", "name": "734984ee2c97d328add56b8dbbd1b0b3", "is_disabled": 0, "rental_uris": {"ios": "https://dc.lft.to/lastmile_qr_scan", "android": "https://dc.lft.to/lastmile_qr_scan"}, "is_reserved": 0}, {"lon": -77.05117366666667, "bike_id": "08b3535b3c03a251e04d4a3279412897", "lat": 38.923428666666666, "fusion_lon": 0.0, "fusion_lat": 0.0, "type": "electric_scooter", "name": "08b3535b3c03a251e04d4a3279412897", "is_disabled": 0, "rental_uris": {"ios": "https://dc.lft.to/lastmile_qr_scan", "android": "https://dc.lft.to/lastmile_qr_scan"}, "is_reserved": 0}, {"lon": -77.0422445, "bike_id": "d0b91f5d0704b8383d74240745a27d3b", "lat": 38.91338433333333, "fusion_lon": 0.0, "fusion_lat": 0.0, "type": "electric_scooter", "name": "d0b91f5d0704b8383d74240745a27d3b", "is_disabled": 0, "rental_uris": {"ios": "https://dc.lft.to/lastmile_qr_scan", "android": "https://dc.lft.to/lastmile_qr_scan"}, "is_reserved": 0}, {"lon": -77.02165416666666, "bike_id": "adf6ed5a935322a835e6de1765911c2c", "lat": 38.9299395, "fusion_lon": 0.0, "fusion_lat": 0.0, "type": "electric_scooter", "name": "adf6ed5a935322a835e6de1765911c2c", "is_disabled": 0, "rental_uris": {"ios": "https://dc.lft.to/lastmile_qr_scan", "android": "https://dc.lft.to/lastmile_qr_scan"}, "is_reserved": 0}, {"lon": -77.03560233333333, "bike_id": "b521a56033c090d23a3e629a10f765b3", "lat": 38.924662166666664, "fusion_lon": 0.0, "fusion_lat": 0.0, "type": "electric_scooter", "name": "b521a56033c090d23a3e629a10f765b3", "is_disabled": 0, "rental_uris": {"ios": "https://dc.lft.to/lastmile_qr_scan", "android": "https://dc.lft.to/lastmile_qr_scan"}, "is_reserved": 0}, {"lon": -77.026086, "bike_id": "f2d025d0b26d7969ecf2f738f1e26702", "lat": 38.93489916666667, "fusion_lon": 0.0, "fusion_lat": 0.0, "type": "electric_scooter", "name": "f2d025d0b26d7969ecf2f738f1e26702", "is_disabled": 0, "rental_uris": {"ios": "https://dc.lft.to/lastmile_qr_scan", "android": "https://dc.lft.to/lastmile_qr_scan"}, "is_reserved": 0}, {"lon": -77.03448966666667, "bike_id": "4740c7724a36caa0add6373bcf9aa405", "lat": 38.905258, "fusion_lon": 0.0, "fusion_lat": 0.0, "type": "electric_scooter", "name": "4740c7724a36caa0add6373bcf9aa405", "is_disabled": 0, "rental_uris": {"ios": "https://dc.lft.to/lastmile_qr_scan", "android": "https://dc.lft.to/lastmile_qr_scan"}, "is_reserved": 0}, {"lon": -77.03839033333334, "bike_id": "ce46a9f9e275f1db6c5335a0660ff29d", "lat": 38.90986616666667, "fusion_lon": 0.0, "fusion_lat": 0.0, "type": "electric_scooter", "name": "ce46a9f9e275f1db6c5335a0660ff29d", "is_disabled": 0, "rental_uris": {"ios": "https://dc.lft.to/lastmile_qr_scan", "android": "https://dc.lft.to/lastmile_qr_scan"}, "is_reserved": 0}, {"lon": -77.03580533333333, "bike_id": "34376dfb94f7a60dd29996c67b28a3d0", "lat": 38.91044133333333, "fusion_lon": 0.0, "fusion_lat": 0.0, "type": "electric_scooter", "name": "34376dfb94f7a60dd29996c67b28a3d0", "is_disabled": 0, "rental_uris": {"ios": "https://dc.lft.to/lastmile_qr_scan", "android": "https://dc.lft.to/lastmile_qr_scan"}, "is_reserved": 0}, {"lon": -77.03273083333333, "bike_id": "cf4a79c4934b6238a52a41ab4fef8a6d", "lat": 38.93204933333333, "fusion_lon": 0.0, "fusion_lat": 0.0, "type": "electric_scooter", "name": "cf4a79c4934b6238a52a41ab4fef8a6d", "is_disabled": 0, "rental_uris": {"ios": "https://dc.lft.to/lastmile_qr_scan", "android": "https://dc.lft.to/lastmile_qr_scan"}, "is_reserved": 0}, {"lon": -77.0249515, "bike_id": "13ba08a4485e37d55e1d864fbf50226b", "lat": 38.92052233333333, "fusion_lon": 0.0, "fusion_lat": 0.0, "type": "electric_scooter", "name": "13ba08a4485e37d55e1d864fbf50226b", "is_disabled": 0, "rental_uris": {"ios": "https://dc.lft.to/lastmile_qr_scan", "android": "https://dc.lft.to/lastmile_qr_scan"}, "is_reserved": 0}, {"lon": -77.032588, "bike_id": "79acc8f26eec0fa61dd798d836c5b9e5", "lat": 38.93772883333333, "fusion_lon": 0.0, "fusion_lat": 0.0, "type": "electric_scooter", "name": "79acc8f26eec0fa61dd798d836c5b9e5", "is_disabled": 0, "rental_uris": {"ios": "https://dc.lft.to/lastmile_qr_scan", "android": "https://dc.lft.to/lastmile_qr_scan"}, "is_reserved": 0}, {"lon": -77.0465115, "bike_id": "574ed86e053c7623ff5eaf662d064aa0", "lat": 38.91424116666666, "fusion_lon": 0.0, "fusion_lat": 0.0, "type": "electric_scooter", "name": "574ed86e053c7623ff5eaf662d064aa0", "is_disabled": 0, "rental_uris": {"ios": "https://dc.lft.to/lastmile_qr_scan", "android": "https://dc.lft.to/lastmile_qr_scan"}, "is_reserved": 0}, {"lon": -77.03481266666667, "bike_id": "4f8c0629609a47480a3a073ca1c1a8d3", "lat": 38.9344015, "fusion_lon": 0.0, "fusion_lat": 0.0, "type": "electric_scooter", "name": "4f8c0629609a47480a3a073ca1c1a8d3", "is_disabled": 0, "rental_uris": {"ios": "https://dc.lft.to/lastmile_qr_scan", "android": "https://dc.lft.to/lastmile_qr_scan"}, "is_reserved": 0}, {"lon": -77.00380266666667, "bike_id": "15e5bb493ff024f53195f83bbd72c079", "lat": 38.835988, "fusion_lon": 0.0, "fusion_lat": 0.0, "type": "electric_bike", "name": "15e5bb493ff024f53195f83bbd72c079", "is_disabled": 0, "rental_uris": {"ios": "https://dc.lft.to/lastmile_qr_scan", "android": "https://dc.lft.to/lastmile_qr_scan"}, "is_reserved": 0}, {"lon": -77.04167166666667, "bike_id": "cda793061006c26748057beaafe12f42", "lat": 38.91395116666666, "fusion_lon": 0.0, "fusion_lat": 0.0, "type": "electric_scooter", "name": "cda793061006c26748057beaafe12f42", "is_disabled": 0, "rental_uris": {"ios": "https://dc.lft.to/lastmile_qr_scan", "android": "https://dc.lft.to/lastmile_qr_scan"}, "is_reserved": 0}, {"lon": -77.03907433333333, "bike_id": "ce49befe2478e0a181cc261a6c3ea64f", "lat": 38.914216833333334, "fusion_lon": 0.0, "fusion_lat": 0.0, "type": "electric_scooter", "name": "ce49befe2478e0a181cc261a6c3ea64f", "is_disabled": 0, "rental_uris": {"ios": "https://dc.lft.to/lastmile_qr_scan", "android": "https://dc.lft.to/lastmile_qr_scan"}, "is_reserved": 0}, {"lon": -77.032201, "bike_id": "167f14a708507e2e9348e0218747e6ec", "lat": 38.908679, "fusion_lon": 0.0, "fusion_lat": 0.0, "type": "electric_scooter", "name": "167f14a708507e2e9348e0218747e6ec", "is_disabled": 0, "rental_uris": {"ios": "https://dc.lft.to/lastmile_qr_scan", "android": "https://dc.lft.to/lastmile_qr_scan"}, "is_reserved": 0}, {"lon": -77.08336066666666, "bike_id": "3272802676b4e19c2fb409125b2165af", "lat": 38.85438116666667, "fusion_lon": 0.0, "fusion_lat": 0.0, "type": "electric_bike", "name": "3272802676b4e19c2fb409125b2165af", "is_disabled": 0, "rental_uris": {"ios": "https://dc.lft.to/lastmile_qr_scan", "android": "https://dc.lft.to/lastmile_qr_scan"}, "is_reserved": 0}, {"lon": -77.03199766666667, "bike_id": "54c90ca9c9b15f6b0c4a1ad7ea2d3ba5", "lat": 38.90948366666667, "fusion_lon": 0.0, "fusion_lat": 0.0, "type": "electric_scooter", "name": "54c90ca9c9b15f6b0c4a1ad7ea2d3ba5", "is_disabled": 0, "rental_uris": {"ios": "https://dc.lft.to/lastmile_qr_scan", "android": "https://dc.lft.to/lastmile_qr_scan"}, "is_reserved": 0}, {"lon": -77.03586516666667, "bike_id": "8d6c3a0ad7f1960d5b9c80dae5968631", "lat": 38.992241666666665, "fusion_lon": 0.0, "fusion_lat": 0.0, "type": "electric_scooter", "name": "8d6c3a0ad7f1960d5b9c80dae5968631", "is_disabled": 0, "rental_uris": {"ios": "https://dc.lft.to/lastmile_qr_scan", "android": "https://dc.lft.to/lastmile_qr_scan"}, "is_reserved": 0}, {"lon": -77.03835466666666, "bike_id": "3904c5ced219c046906e27f4bb323e8b", "lat": 38.90407116666667, "fusion_lon": 0.0, "fusion_lat": 0.0, "type": "electric_scooter", "name": "3904c5ced219c046906e27f4bb323e8b", "is_disabled": 0, "rental_uris": {"ios": "https://dc.lft.to/lastmile_qr_scan", "android": "https://dc.lft.to/lastmile_qr_scan"}, "is_reserved": 0}, {"lon": -77.02510816666667, "bike_id": "c82046476ceefa8f2ebe0b2d859d5071", "lat": 38.9040605, "fusion_lon": 0.0, "fusion_lat": 0.0, "type": "electric_scooter", "name": "c82046476ceefa8f2ebe0b2d859d5071", "is_disabled": 0, "rental_uris": {"ios": "https://dc.lft.to/lastmile_qr_scan", "android": "https://dc.lft.to/lastmile_qr_scan"}, "is_reserved": 0}, {"lon": -76.97818716666667, "bike_id": "6378d77ed36d6b5d92cf511276d37f6b", "lat": 38.8436905, "fusion_lon": 0.0, "fusion_lat": 0.0, "type": "electric_bike", "name": "6378d77ed36d6b5d92cf511276d37f6b", "is_disabled": 0, "rental_uris": {"ios": "https://dc.lft.to/lastmile_qr_scan", "android": "https://dc.lft.to/lastmile_qr_scan"}, "is_reserved": 0}, {"lon": -77.03322733333333, "bike_id": "a4e7945b413d4b6ad7192c8f77db33ef", "lat": 38.92157266666667, "fusion_lon": 0.0, "fusion_lat": 0.0, "type": "electric_scooter", "name": "a4e7945b413d4b6ad7192c8f77db33ef", "is_disabled": 0, "rental_uris": {"ios": "https://dc.lft.to/lastmile_qr_scan", "android": "https://dc.lft.to/lastmile_qr_scan"}, "is_reserved": 0}, {"lon": -77.00924333333333, "bike_id": "dba229009a54cde94e029a1548c4a8e6", "lat": 38.8997885, "fusion_lon": 0.0, "fusion_lat": 0.0, "type": "electric_scooter", "name": "dba229009a54cde94e029a1548c4a8e6", "is_disabled": 0, "rental_uris": {"ios": "https://dc.lft.to/lastmile_qr_scan", "android": "https://dc.lft.to/lastmile_qr_scan"}, "is_reserved": 0}, {"lon": -77.0397765, "bike_id": "9aa017e46738bc1251a4ce2787fda17b", "lat": 38.927995333333335, "fusion_lon": 0.0, "fusion_lat": 0.0, "type": "electric_scooter", "name": "9aa017e46738bc1251a4ce2787fda17b", "is_disabled": 0, "rental_uris": {"ios": "https://dc.lft.to/lastmile_qr_scan", "android": "https://dc.lft.to/lastmile_qr_scan"}, "is_reserved": 0}, {"lon": -77.02205683333334, "bike_id": "36f852b74cd5a32da897919cb6fe8750", "lat": 38.9003655, "fusion_lon": 0.0, "fusion_lat": 0.0, "type": "electric_scooter", "name": "36f852b74cd5a32da897919cb6fe8750", "is_disabled": 0, "rental_uris": {"ios": "https://dc.lft.to/lastmile_qr_scan", "android": "https://dc.lft.to/lastmile_qr_scan"}, "is_reserved": 0}, {"lon": -76.98519833333333, "bike_id": "5bceeddb8690ca3ce657b74f7cf213bc", "lat": 38.86682166666667, "fusion_lon": 0.0, "fusion_lat": 0.0, "type": "electric_scooter", "name": "5bceeddb8690ca3ce657b74f7cf213bc", "is_disabled": 0, "rental_uris": {"ios": "https://dc.lft.to/lastmile_qr_scan", "android": "https://dc.lft.to/lastmile_qr_scan"}, "is_reserved": 0}, {"lon": -77.03516516666667, "bike_id": "4d6482e347815684ba5db935750c9f34", "lat": 38.923375166666666, "fusion_lon": 0.0, "fusion_lat": 0.0, "type": "electric_scooter", "name": "4d6482e347815684ba5db935750c9f34", "is_disabled": 0, "rental_uris": {"ios": "https://dc.lft.to/lastmile_qr_scan", "android": "https://dc.lft.to/lastmile_qr_scan"}, "is_reserved": 0}, {"lon": -77.00292883333333, "bike_id": "e63f4420f43b532fbb85de0064fc89f9", "lat": 38.901228, "fusion_lon": 0.0, "fusion_lat": 0.0, "type": "electric_scooter", "name": "e63f4420f43b532fbb85de0064fc89f9", "is_disabled": 0, "rental_uris": {"ios": "https://dc.lft.to/lastmile_qr_scan", "android": "https://dc.lft.to/lastmile_qr_scan"}, "is_reserved": 0}, {"lon": -77.01136933333333, "bike_id": "186514ad673c40fb4befd9eddc22be28", "lat": 38.9063905, "fusion_lon": 0.0, "fusion_lat": 0.0, "type": "electric_scooter", "name": "186514ad673c40fb4befd9eddc22be28", "is_disabled": 0, "rental_uris": {"ios": "https://dc.lft.to/lastmile_qr_scan", "android": "https://dc.lft.to/lastmile_qr_scan"}, "is_reserved": 0}, {"lon": -77.02658966666667, "bike_id": "d70701f57fc4106875e0dd7c5777a105", "lat": 38.897469666666666, "fusion_lon": 0.0, "fusion_lat": 0.0, "type": "electric_scooter", "name": "d70701f57fc4106875e0dd7c5777a105", "is_disabled": 0, "rental_uris": {"ios": "https://dc.lft.to/lastmile_qr_scan", "android": "https://dc.lft.to/lastmile_qr_scan"}, "is_reserved": 0}, {"lon": -76.97300683333333, "bike_id": "6c170ea66ca1fe4405941a301005dda1", "lat": 38.916494166666666, "fusion_lon": 0.0, "fusion_lat": 0.0, "type": "electric_bike", "name": "6c170ea66ca1fe4405941a301005dda1", "is_disabled": 0, "rental_uris": {"ios": "https://dc.lft.to/lastmile_qr_scan", "android": "https://dc.lft.to/lastmile_qr_scan"}, "is_reserved": 0}, {"lon": -77.0264865, "bike_id": "2698350ae4caa9b0c7854e4a9a3d4547", "lat": 38.924747333333336, "fusion_lon": 0.0, "fusion_lat": 0.0, "type": "electric_scooter", "name": "2698350ae4caa9b0c7854e4a9a3d4547", "is_disabled": 0, "rental_uris": {"ios": "https://dc.lft.to/lastmile_qr_scan", "android": "https://dc.lft.to/lastmile_qr_scan"}, "is_reserved": 0}, {"lon": -76.9654205, "bike_id": "9c6101d6e76731dbe709b5b2ed14dd17", "lat": 38.91840783333333, "fusion_lon": 0.0, "fusion_lat": 0.0, "type": "electric_scooter", "name": "9c6101d6e76731dbe709b5b2ed14dd17", "is_disabled": 0, "rental_uris": {"ios": "https://dc.lft.to/lastmile_qr_scan", "android": "https://dc.lft.to/lastmile_qr_scan"}, "is_reserved": 0}, {"lon": -76.94996383333333, "bike_id": "2a264370af875356980e0f8c4acda4ff", "lat": 38.893818333333336, "fusion_lon": 0.0, "fusion_lat": 0.0, "type": "electric_scooter", "name": "2a264370af875356980e0f8c4acda4ff", "is_disabled": 0, "rental_uris": {"ios": "https://dc.lft.to/lastmile_qr_scan", "android": "https://dc.lft.to/lastmile_qr_scan"}, "is_reserved": 0}, {"lon": -77.02693383333333, "bike_id": "2d87d77c925f52f1403cf484b5ba2e8b", "lat": 38.90840266666667, "fusion_lon": 0.0, "fusion_lat": 0.0, "type": "electric_scooter", "name": "2d87d77c925f52f1403cf484b5ba2e8b", "is_disabled": 0, "rental_uris": {"ios": "https://dc.lft.to/lastmile_qr_scan", "android": "https://dc.lft.to/lastmile_qr_scan"}, "is_reserved": 0}, {"lon": -77.23329666666666, "bike_id": "aa699aec96cac1157729555016ca34c3", "lat": 38.872749166666665, "fusion_lon": 0.0, "fusion_lat": 0.0, "type": "electric_bike", "name": "aa699aec96cac1157729555016ca34c3", "is_disabled": 0, "rental_uris": {"ios": "https://dc.lft.to/lastmile_qr_scan", "android": "https://dc.lft.to/lastmile_qr_scan"}, "is_reserved": 0}, {"lon": -76.9887745, "bike_id": "03722a6c1ad9b48f9ffd3c2d31868cae", "lat": 38.86661983333333, "fusion_lon": 0.0, "fusion_lat": 0.0, "type": "electric_scooter", "name": "03722a6c1ad9b48f9ffd3c2d31868cae", "is_disabled": 0, "rental_uris": {"ios": "https://dc.lft.to/lastmile_qr_scan", "android": "https://dc.lft.to/lastmile_qr_scan"}, "is_reserved": 0}, {"lon": -77.05001316666667, "bike_id": "fc205f90e49d1bb45e3e5ec365e8acaf", "lat": 38.892286666666664, "fusion_lon": 0.0, "fusion_lat": 0.0, "type": "electric_scooter", "name": "fc205f90e49d1bb45e3e5ec365e8acaf", "is_disabled": 0, "rental_uris": {"ios": "https://dc.lft.to/lastmile_qr_scan", "android": "https://dc.lft.to/lastmile_qr_scan"}, "is_reserved": 0}, {"lon": -76.994446, "bike_id": "6a8195ff1e797f23c53e8660e79284c0", "lat": 38.862795, "fusion_lon": 0.0, "fusion_lat": 0.0, "type": "electric_scooter", "name": "6a8195ff1e797f23c53e8660e79284c0", "is_disabled": 0, "rental_uris": {"ios": "https://dc.lft.to/lastmile_qr_scan", "android": "https://dc.lft.to/lastmile_qr_scan"}, "is_reserved": 0}, {"lon": -77.001023, "bike_id": "5920e8c5106ca93130a5be55f0e75dce", "lat": 38.912376333333334, "fusion_lon": 0.0, "fusion_lat": 0.0, "type": "electric_scooter", "name": "5920e8c5106ca93130a5be55f0e75dce", "is_disabled": 0, "rental_uris": {"ios": "https://dc.lft.to/lastmile_qr_scan", "android": "https://dc.lft.to/lastmile_qr_scan"}, "is_reserved": 0}, {"lon": -77.0676875, "bike_id": "eabe9e9d2ae3220cad07ed134a932ae1", "lat": 38.9049565, "fusion_lon": 0.0, "fusion_lat": 0.0, "type": "electric_scooter", "name": "eabe9e9d2ae3220cad07ed134a932ae1", "is_disabled": 0, "rental_uris": {"ios": "https://dc.lft.to/lastmile_qr_scan", "android": "https://dc.lft.to/lastmile_qr_scan"}, "is_reserved": 0}, {"lon": -77.03450716666667, "bike_id": "c020643e64f6c11a41bb62eb142fa766", "lat": 38.90575366666667, "fusion_lon": 0.0, "fusion_lat": 0.0, "type": "electric_scooter", "name": "c020643e64f6c11a41bb62eb142fa766", "is_disabled": 0, "rental_uris": {"ios": "https://dc.lft.to/lastmile_qr_scan", "android": "https://dc.lft.to/lastmile_qr_scan"}, "is_reserved": 0}, {"lon": -76.99930833333333, "bike_id": "ae93b625f3a993641871c09b8f4f097f", "lat": 38.84313216666666, "fusion_lon": 0.0, "fusion_lat": 0.0, "type": "electric_scooter", "name": "ae93b625f3a993641871c09b8f4f097f", "is_disabled": 0, "rental_uris": {"ios": "https://dc.lft.to/lastmile_qr_scan", "android": "https://dc.lft.to/lastmile_qr_scan"}, "is_reserved": 0}, {"lon": -77.03630466666667, "bike_id": "871d9cce9d908617ac75dec3dcfc5b12", "lat": 38.930774666666665, "fusion_lon": 0.0, "fusion_lat": 0.0, "type": "electric_scooter", "name": "871d9cce9d908617ac75dec3dcfc5b12", "is_disabled": 0, "rental_uris": {"ios": "https://dc.lft.to/lastmile_qr_scan", "android": "https://dc.lft.to/lastmile_qr_scan"}, "is_reserved": 0}, {"lon": -77.07451233333333, "bike_id": "7b71b78f56f225fa5ef885ce895db0e9", "lat": 38.94509166666667, "fusion_lon": 0.0, "fusion_lat": 0.0, "type": "electric_scooter", "name": "7b71b78f56f225fa5ef885ce895db0e9", "is_disabled": 0, "rental_uris": {"ios": "https://dc.lft.to/lastmile_qr_scan", "android": "https://dc.lft.to/lastmile_qr_scan"}, "is_reserved": 0}, {"lon": -77.05160216666667, "bike_id": "a72de87e387b44c9dcc7336ab6d54961", "lat": 38.927332166666666, "fusion_lon": 0.0, "fusion_lat": 0.0, "type": "electric_scooter", "name": "a72de87e387b44c9dcc7336ab6d54961", "is_disabled": 0, "rental_uris": {"ios": "https://dc.lft.to/lastmile_qr_scan", "android": "https://dc.lft.to/lastmile_qr_scan"}, "is_reserved": 0}, {"lon": -77.125253, "bike_id": "497b29bb29ab402591a7bb718408459d", "lat": 39.056331, "fusion_lon": 0.0, "fusion_lat": 0.0, "type": "electric_bike", "name": "497b29bb29ab402591a7bb718408459d", "is_disabled": 0, "rental_uris": {"ios": "https://dc.lft.to/lastmile_qr_scan", "android": "https://dc.lft.to/lastmile_qr_scan"}, "is_reserved": 0}, {"lon": -77.02712383333333, "bike_id": "b6201727a502e6c8f322769dd5893bca", "lat": 38.90670016666667, "fusion_lon": 0.0, "fusion_lat": 0.0, "type": "electric_scooter", "name": "b6201727a502e6c8f322769dd5893bca", "is_disabled": 0, "rental_uris": {"ios": "https://dc.lft.to/lastmile_qr_scan", "android": "https://dc.lft.to/lastmile_qr_scan"}, "is_reserved": 0}, {"lon": -76.93733583333334, "bike_id": "3dc84625baf3d62076b44822876d2a0e", "lat": 38.890127166666666, "fusion_lon": 0.0, "fusion_lat": 0.0, "type": "electric_scooter", "name": "3dc84625baf3d62076b44822876d2a0e", "is_disabled": 0, "rental_uris": {"ios": "https://dc.lft.to/lastmile_qr_scan", "android": "https://dc.lft.to/lastmile_qr_scan"}, "is_reserved": 0}, {"lon": -77.03427616666667, "bike_id": "1e15d329ad44b2576a4434977bd27c88", "lat": 38.909791, "fusion_lon": 0.0, "fusion_lat": 0.0, "type": "electric_scooter", "name": "1e15d329ad44b2576a4434977bd27c88", "is_disabled": 0, "rental_uris": {"ios": "https://dc.lft.to/lastmile_qr_scan", "android": "https://dc.lft.to/lastmile_qr_scan"}, "is_reserved": 0}, {"lon": -77.017396, "bike_id": "b393643cd8503514c47ea40b3810550d", "lat": 38.9420505, "fusion_lon": 0.0, "fusion_lat": 0.0, "type": "electric_scooter", "name": "b393643cd8503514c47ea40b3810550d", "is_disabled": 0, "rental_uris": {"ios": "https://dc.lft.to/lastmile_qr_scan", "android": "https://dc.lft.to/lastmile_qr_scan"}, "is_reserved": 0}, {"lon": -77.0261565, "bike_id": "3068d5de98de014dcd2d5345ffdf203b", "lat": 38.900377166666665, "fusion_lon": 0.0, "fusion_lat": 0.0, "type": "electric_scooter", "name": "3068d5de98de014dcd2d5345ffdf203b", "is_disabled": 0, "rental_uris": {"ios": "https://dc.lft.to/lastmile_qr_scan", "android": "https://dc.lft.to/lastmile_qr_scan"}, "is_reserved": 0}, {"lon": -77.0130035, "bike_id": "0dad9f44c3c779494abc71f0914d39f9", "lat": 38.91423283333334, "fusion_lon": 0.0, "fusion_lat": 0.0, "type": "electric_scooter", "name": "0dad9f44c3c779494abc71f0914d39f9", "is_disabled": 0, "rental_uris": {"ios": "https://dc.lft.to/lastmile_qr_scan", "android": "https://dc.lft.to/lastmile_qr_scan"}, "is_reserved": 0}, {"lon": -77.0585925, "bike_id": "7d7e07e7931be471c52928826e715059", "lat": 38.93545683333333, "fusion_lon": 0.0, "fusion_lat": 0.0, "type": "electric_scooter", "name": "7d7e07e7931be471c52928826e715059", "is_disabled": 0, "rental_uris": {"ios": "https://dc.lft.to/lastmile_qr_scan", "android": "https://dc.lft.to/lastmile_qr_scan"}, "is_reserved": 0}, {"lon": -77.04848083333333, "bike_id": "6a1a7531f1d6354c621a9db4fa5d9a99", "lat": 38.91513666666667, "fusion_lon": 0.0, "fusion_lat": 0.0, "type": "electric_scooter", "name": "6a1a7531f1d6354c621a9db4fa5d9a99", "is_disabled": 0, "rental_uris": {"ios": "https://dc.lft.to/lastmile_qr_scan", "android": "https://dc.lft.to/lastmile_qr_scan"}, "is_reserved": 0}, {"lon": -77.04191716666666, "bike_id": "e2ba1316aae812eff43108460e57c33f", "lat": 38.899783166666666, "fusion_lon": 0.0, "fusion_lat": 0.0, "type": "electric_scooter", "name": "e2ba1316aae812eff43108460e57c33f", "is_disabled": 0, "rental_uris": {"ios": "https://dc.lft.to/lastmile_qr_scan", "android": "https://dc.lft.to/lastmile_qr_scan"}, "is_reserved": 0}, {"lon": -77.02210183333334, "bike_id": "1c01d200d5ed8ae0a0a8baa55b9c0f2d", "lat": 38.88730833333334, "fusion_lon": 0.0, "fusion_lat": 0.0, "type": "electric_scooter", "name": "1c01d200d5ed8ae0a0a8baa55b9c0f2d", "is_disabled": 0, "rental_uris": {"ios": "https://dc.lft.to/lastmile_qr_scan", "android": "https://dc.lft.to/lastmile_qr_scan"}, "is_reserved": 0}, {"lon": -77.0329545, "bike_id": "f942bbfda3e91a77814430bf4210a966", "lat": 38.95647233333333, "fusion_lon": 0.0, "fusion_lat": 0.0, "type": "electric_scooter", "name": "f942bbfda3e91a77814430bf4210a966", "is_disabled": 0, "rental_uris": {"ios": "https://dc.lft.to/lastmile_qr_scan", "android": "https://dc.lft.to/lastmile_qr_scan"}, "is_reserved": 0}, {"lon": -76.99794783333333, "bike_id": "cb0d2da4c9079219a432e01e719cbef4", "lat": 38.956422833333335, "fusion_lon": 0.0, "fusion_lat": 0.0, "type": "electric_bike", "name": "cb0d2da4c9079219a432e01e719cbef4", "is_disabled": 0, "rental_uris": {"ios": "https://dc.lft.to/lastmile_qr_scan", "android": "https://dc.lft.to/lastmile_qr_scan"}, "is_reserved": 0}, {"lon": -77.0256505, "bike_id": "bbed7a420f5f5d0f211798727c79832a", "lat": 38.8829885, "fusion_lon": 0.0, "fusion_lat": 0.0, "type": "electric_scooter", "name": "bbed7a420f5f5d0f211798727c79832a", "is_disabled": 0, "rental_uris": {"ios": "https://dc.lft.to/lastmile_qr_scan", "android": "https://dc.lft.to/lastmile_qr_scan"}, "is_reserved": 0}, {"lon": -77.02400683333333, "bike_id": "047b90880feebb614a787d7ee558a584", "lat": 38.8813635, "fusion_lon": 0.0, "fusion_lat": 0.0, "type": "electric_scooter", "name": "047b90880feebb614a787d7ee558a584", "is_disabled": 0, "rental_uris": {"ios": "https://dc.lft.to/lastmile_qr_scan", "android": "https://dc.lft.to/lastmile_qr_scan"}, "is_reserved": 0}, {"lon": -76.99468383333334, "bike_id": "ce23e1f21ce684f168f2a3e25e4a2e0b", "lat": 38.88270683333333, "fusion_lon": 0.0, "fusion_lat": 0.0, "type": "electric_scooter", "name": "ce23e1f21ce684f168f2a3e25e4a2e0b", "is_disabled": 0, "rental_uris": {"ios": "https://dc.lft.to/lastmile_qr_scan", "android": "https://dc.lft.to/lastmile_qr_scan"}, "is_reserved": 0}, {"lon": -76.97324316666666, "bike_id": "3d8e30ac0c8827cafb0c3d77620b43bd", "lat": 38.904792, "fusion_lon": 0.0, "fusion_lat": 0.0, "type": "electric_bike", "name": "3d8e30ac0c8827cafb0c3d77620b43bd", "is_disabled": 0, "rental_uris": {"ios": "https://dc.lft.to/lastmile_qr_scan", "android": "https://dc.lft.to/lastmile_qr_scan"}, "is_reserved": 0}, {"lon": -77.03994716666666, "bike_id": "67bef7330b96f1663c7d2a1bcd40af6f", "lat": 38.93335866666666, "fusion_lon": 0.0, "fusion_lat": 0.0, "type": "electric_scooter", "name": "67bef7330b96f1663c7d2a1bcd40af6f", "is_disabled": 0, "rental_uris": {"ios": "https://dc.lft.to/lastmile_qr_scan", "android": "https://dc.lft.to/lastmile_qr_scan"}, "is_reserved": 0}, {"lon": -77.01621666666666, "bike_id": "a02e4b9cf4abbbc8df77e512d9e4d55a", "lat": 38.899647, "fusion_lon": 0.0, "fusion_lat": 0.0, "type": "electric_scooter", "name": "a02e4b9cf4abbbc8df77e512d9e4d55a", "is_disabled": 0, "rental_uris": {"ios": "https://dc.lft.to/lastmile_qr_scan", "android": "https://dc.lft.to/lastmile_qr_scan"}, "is_reserved": 0}, {"lon": -77.03458533333334, "bike_id": "70eeee9e2b6ae14a5b2c53187c0996ee", "lat": 38.91711633333333, "fusion_lon": 0.0, "fusion_lat": 0.0, "type": "electric_scooter", "name": "70eeee9e2b6ae14a5b2c53187c0996ee", "is_disabled": 0, "rental_uris": {"ios": "https://dc.lft.to/lastmile_qr_scan", "android": "https://dc.lft.to/lastmile_qr_scan"}, "is_reserved": 0}, {"lon": -77.038368, "bike_id": "838501d692b26d8cd522247cb07f412e", "lat": 38.9103565, "fusion_lon": 0.0, "fusion_lat": 0.0, "type": "electric_scooter", "name": "838501d692b26d8cd522247cb07f412e", "is_disabled": 0, "rental_uris": {"ios": "https://dc.lft.to/lastmile_qr_scan", "android": "https://dc.lft.to/lastmile_qr_scan"}, "is_reserved": 0}, {"lon": -77.0317625, "bike_id": "b73034f7ffb79dd913805fd7a241d22d", "lat": 38.9126185, "fusion_lon": 0.0, "fusion_lat": 0.0, "type": "electric_scooter", "name": "b73034f7ffb79dd913805fd7a241d22d", "is_disabled": 0, "rental_uris": {"ios": "https://dc.lft.to/lastmile_qr_scan", "android": "https://dc.lft.to/lastmile_qr_scan"}, "is_reserved": 0}, {"lon": -77.01936566666667, "bike_id": "ca0ef9d6fe9c99e8148f477dec8b0aad", "lat": 38.9352355, "fusion_lon": 0.0, "fusion_lat": 0.0, "type": "electric_scooter", "name": "ca0ef9d6fe9c99e8148f477dec8b0aad", "is_disabled": 0, "rental_uris": {"ios": "https://dc.lft.to/lastmile_qr_scan", "android": "https://dc.lft.to/lastmile_qr_scan"}, "is_reserved": 0}, {"lon": -77.034339, "bike_id": "a2692eabb803c98b5fb019c1ac7e0e90", "lat": 38.90971866666667, "fusion_lon": 0.0, "fusion_lat": 0.0, "type": "electric_scooter", "name": "a2692eabb803c98b5fb019c1ac7e0e90", "is_disabled": 0, "rental_uris": {"ios": "https://dc.lft.to/lastmile_qr_scan", "android": "https://dc.lft.to/lastmile_qr_scan"}, "is_reserved": 0}, {"lon": -77.03208816666667, "bike_id": "854118a7f2a1ac3462dbbdf63f6fd336", "lat": 38.919264166666665, "fusion_lon": 0.0, "fusion_lat": 0.0, "type": "electric_scooter", "name": "854118a7f2a1ac3462dbbdf63f6fd336", "is_disabled": 0, "rental_uris": {"ios": "https://dc.lft.to/lastmile_qr_scan", "android": "https://dc.lft.to/lastmile_qr_scan"}, "is_reserved": 0}, {"lon": -77.02501266666667, "bike_id": "9808599a1b6e8aeb131f7cc806907577", "lat": 38.92058333333333, "fusion_lon": 0.0, "fusion_lat": 0.0, "type": "electric_scooter", "name": "9808599a1b6e8aeb131f7cc806907577", "is_disabled": 0, "rental_uris": {"ios": "https://dc.lft.to/lastmile_qr_scan", "android": "https://dc.lft.to/lastmile_qr_scan"}, "is_reserved": 0}, {"lon": -76.9952945, "bike_id": "2c8386a79b31357a7fd602f831b47a45", "lat": 38.883728833333336, "fusion_lon": 0.0, "fusion_lat": 0.0, "type": "electric_scooter", "name": "2c8386a79b31357a7fd602f831b47a45", "is_disabled": 0, "rental_uris": {"ios": "https://dc.lft.to/lastmile_qr_scan", "android": "https://dc.lft.to/lastmile_qr_scan"}, "is_reserved": 0}, {"lon": -77.027781, "bike_id": "c8b0e26b0087d16ee5432dae87fd3ed6", "lat": 38.91708083333333, "fusion_lon": 0.0, "fusion_lat": 0.0, "type": "electric_scooter", "name": "c8b0e26b0087d16ee5432dae87fd3ed6", "is_disabled": 0, "rental_uris": {"ios": "https://dc.lft.to/lastmile_qr_scan", "android": "https://dc.lft.to/lastmile_qr_scan"}, "is_reserved": 0}, {"lon": -77.00212666666667, "bike_id": "47b3b8a6b4c23a9e5bd04255c39be41c", "lat": 38.90023033333333, "fusion_lon": 0.0, "fusion_lat": 0.0, "type": "electric_scooter", "name": "47b3b8a6b4c23a9e5bd04255c39be41c", "is_disabled": 0, "rental_uris": {"ios": "https://dc.lft.to/lastmile_qr_scan", "android": "https://dc.lft.to/lastmile_qr_scan"}, "is_reserved": 0}, {"lon": -77.00643816666667, "bike_id": "d5368ffd6b364af3b992568a16eab52c", "lat": 38.9261705, "fusion_lon": 0.0, "fusion_lat": 0.0, "type": "electric_scooter", "name": "d5368ffd6b364af3b992568a16eab52c", "is_disabled": 0, "rental_uris": {"ios": "https://dc.lft.to/lastmile_qr_scan", "android": "https://dc.lft.to/lastmile_qr_scan"}, "is_reserved": 0}, {"lon": -77.02186483333334, "bike_id": "77f96769b36ad8f9c6360b3441483d30", "lat": 38.896121, "fusion_lon": 0.0, "fusion_lat": 0.0, "type": "electric_scooter", "name": "77f96769b36ad8f9c6360b3441483d30", "is_disabled": 0, "rental_uris": {"ios": "https://dc.lft.to/lastmile_qr_scan", "android": "https://dc.lft.to/lastmile_qr_scan"}, "is_reserved": 0}, {"lon": -76.974781, "bike_id": "79428bec1ea7ba0f39e24b50b49cb642", "lat": 38.90351483333333, "fusion_lon": 0.0, "fusion_lat": 0.0, "type": "electric_scooter", "name": "79428bec1ea7ba0f39e24b50b49cb642", "is_disabled": 0, "rental_uris": {"ios": "https://dc.lft.to/lastmile_qr_scan", "android": "https://dc.lft.to/lastmile_qr_scan"}, "is_reserved": 0}, {"lon": -77.06520816666666, "bike_id": "8b82022d4cba06a21b978a6858d9b056", "lat": 38.903815, "fusion_lon": 0.0, "fusion_lat": 0.0, "type": "electric_scooter", "name": "8b82022d4cba06a21b978a6858d9b056", "is_disabled": 0, "rental_uris": {"ios": "https://dc.lft.to/lastmile_qr_scan", "android": "https://dc.lft.to/lastmile_qr_scan"}, "is_reserved": 0}, {"lon": -77.08068133333333, "bike_id": "13dbd86c57696ff989c975a781b25934", "lat": 39.05279383333333, "fusion_lon": 0.0, "fusion_lat": 0.0, "type": "electric_bike", "name": "13dbd86c57696ff989c975a781b25934", "is_disabled": 0, "rental_uris": {"ios": "https://dc.lft.to/lastmile_qr_scan", "android": "https://dc.lft.to/lastmile_qr_scan"}, "is_reserved": 0}, {"lon": -76.99081483333333, "bike_id": "278b385fb8b39c2bf26bf527acdf8144", "lat": 38.862355666666666, "fusion_lon": 0.0, "fusion_lat": 0.0, "type": "electric_bike", "name": "278b385fb8b39c2bf26bf527acdf8144", "is_disabled": 0, "rental_uris": {"ios": "https://dc.lft.to/lastmile_qr_scan", "android": "https://dc.lft.to/lastmile_qr_scan"}, "is_reserved": 0}, {"lon": -77.02230466666667, "bike_id": "440dd254e85b91c757d608e6beac1231", "lat": 38.95683316666667, "fusion_lon": 0.0, "fusion_lat": 0.0, "type": "electric_bike", "name": "440dd254e85b91c757d608e6beac1231", "is_disabled": 0, "rental_uris": {"ios": "https://dc.lft.to/lastmile_qr_scan", "android": "https://dc.lft.to/lastmile_qr_scan"}, "is_reserved": 0}, {"lon": -76.9901775, "bike_id": "04cd6ba9a0c356535536c79968fbeed7", "lat": 38.866449333333335, "fusion_lon": 0.0, "fusion_lat": 0.0, "type": "electric_scooter", "name": "04cd6ba9a0c356535536c79968fbeed7", "is_disabled": 0, "rental_uris": {"ios": "https://dc.lft.to/lastmile_qr_scan", "android": "https://dc.lft.to/lastmile_qr_scan"}, "is_reserved": 0}, {"lon": -77.05186733333333, "bike_id": "19faf712f5547505dece7e071cb27cc5", "lat": 38.89930916666667, "fusion_lon": 0.0, "fusion_lat": 0.0, "type": "electric_scooter", "name": "19faf712f5547505dece7e071cb27cc5", "is_disabled": 0, "rental_uris": {"ios": "https://dc.lft.to/lastmile_qr_scan", "android": "https://dc.lft.to/lastmile_qr_scan"}, "is_reserved": 0}, {"lon": -77.04033066666666, "bike_id": "e7dcf54c7b09b065e1b9bb51f515251f", "lat": 38.918719, "fusion_lon": 0.0, "fusion_lat": 0.0, "type": "electric_scooter", "name": "e7dcf54c7b09b065e1b9bb51f515251f", "is_disabled": 0, "rental_uris": {"ios": "https://dc.lft.to/lastmile_qr_scan", "android": "https://dc.lft.to/lastmile_qr_scan"}, "is_reserved": 0}, {"lon": -77.02306933333334, "bike_id": "a6bef427f8ecbe7e0c8d5bc4d24884d9", "lat": 38.917838, "fusion_lon": 0.0, "fusion_lat": 0.0, "type": "electric_scooter", "name": "a6bef427f8ecbe7e0c8d5bc4d24884d9", "is_disabled": 0, "rental_uris": {"ios": "https://dc.lft.to/lastmile_qr_scan", "android": "https://dc.lft.to/lastmile_qr_scan"}, "is_reserved": 0}, {"lon": -77.01770833333333, "bike_id": "9b06a6abe2a26c7f4effe962581446c5", "lat": 38.883862, "fusion_lon": 0.0, "fusion_lat": 0.0, "type": "electric_scooter", "name": "9b06a6abe2a26c7f4effe962581446c5", "is_disabled": 0, "rental_uris": {"ios": "https://dc.lft.to/lastmile_qr_scan", "android": "https://dc.lft.to/lastmile_qr_scan"}, "is_reserved": 0}, {"lon": -77.0566075, "bike_id": "c8722874ff9821ba895e9ca69aea7c9a", "lat": 38.895452, "fusion_lon": 0.0, "fusion_lat": 0.0, "type": "electric_scooter", "name": "c8722874ff9821ba895e9ca69aea7c9a", "is_disabled": 0, "rental_uris": {"ios": "https://dc.lft.to/lastmile_qr_scan", "android": "https://dc.lft.to/lastmile_qr_scan"}, "is_reserved": 0}, {"lon": -77.048747, "bike_id": "1d2e9662717b2bbfde3bb38d0c1e435d", "lat": 38.89232783333333, "fusion_lon": 0.0, "fusion_lat": 0.0, "type": "electric_scooter", "name": "1d2e9662717b2bbfde3bb38d0c1e435d", "is_disabled": 0, "rental_uris": {"ios": "https://dc.lft.to/lastmile_qr_scan", "android": "https://dc.lft.to/lastmile_qr_scan"}, "is_reserved": 0}, {"lon": -77.02214983333333, "bike_id": "1dcc812001ddf9542282ddcdcce2d3cb", "lat": 38.901195, "fusion_lon": 0.0, "fusion_lat": 0.0, "type": "electric_scooter", "name": "1dcc812001ddf9542282ddcdcce2d3cb", "is_disabled": 0, "rental_uris": {"ios": "https://dc.lft.to/lastmile_qr_scan", "android": "https://dc.lft.to/lastmile_qr_scan"}, "is_reserved": 0}, {"lon": -77.0580565, "bike_id": "cc7fcb82abb94da7b4c94148631b79ca", "lat": 38.93512883333333, "fusion_lon": 0.0, "fusion_lat": 0.0, "type": "electric_scooter", "name": "cc7fcb82abb94da7b4c94148631b79ca", "is_disabled": 0, "rental_uris": {"ios": "https://dc.lft.to/lastmile_qr_scan", "android": "https://dc.lft.to/lastmile_qr_scan"}, "is_reserved": 0}, {"lon": -77.077606, "bike_id": "0ee3cab1a3832a7a1b0347b2270efee6", "lat": 38.92551566666667, "fusion_lon": 0.0, "fusion_lat": 0.0, "type": "electric_scooter", "name": "0ee3cab1a3832a7a1b0347b2270efee6", "is_disabled": 0, "rental_uris": {"ios": "https://dc.lft.to/lastmile_qr_scan", "android": "https://dc.lft.to/lastmile_qr_scan"}, "is_reserved": 0}, {"lon": -77.02592233333333, "bike_id": "266c640f9424e53e23facda3a022669b", "lat": 38.9430115, "fusion_lon": 0.0, "fusion_lat": 0.0, "type": "electric_scooter", "name": "266c640f9424e53e23facda3a022669b", "is_disabled": 0, "rental_uris": {"ios": "https://dc.lft.to/lastmile_qr_scan", "android": "https://dc.lft.to/lastmile_qr_scan"}, "is_reserved": 0}, {"lon": -77.044312, "bike_id": "0fcacd5ac5262d99698db8b4492b795a", "lat": 38.921250666666666, "fusion_lon": 0.0, "fusion_lat": 0.0, "type": "electric_scooter", "name": "0fcacd5ac5262d99698db8b4492b795a", "is_disabled": 0, "rental_uris": {"ios": "https://dc.lft.to/lastmile_qr_scan", "android": "https://dc.lft.to/lastmile_qr_scan"}, "is_reserved": 0}, {"lon": -77.01661516666667, "bike_id": "f6f5b79f83756f2ed20214cdfcc4634c", "lat": 38.92895733333334, "fusion_lon": 0.0, "fusion_lat": 0.0, "type": "electric_scooter", "name": "f6f5b79f83756f2ed20214cdfcc4634c", "is_disabled": 0, "rental_uris": {"ios": "https://dc.lft.to/lastmile_qr_scan", "android": "https://dc.lft.to/lastmile_qr_scan"}, "is_reserved": 0}, {"lon": -77.03375916666667, "bike_id": "69f4c3e4953b2d13f5f57ecafddbc0ef", "lat": 38.900069, "fusion_lon": 0.0, "fusion_lat": 0.0, "type": "electric_scooter", "name": "69f4c3e4953b2d13f5f57ecafddbc0ef", "is_disabled": 0, "rental_uris": {"ios": "https://dc.lft.to/lastmile_qr_scan", "android": "https://dc.lft.to/lastmile_qr_scan"}, "is_reserved": 0}, {"lon": -77.04158616666666, "bike_id": "da7360b19e0952ceac9c62da59ffde11", "lat": 38.91248916666667, "fusion_lon": 0.0, "fusion_lat": 0.0, "type": "electric_scooter", "name": "da7360b19e0952ceac9c62da59ffde11", "is_disabled": 0, "rental_uris": {"ios": "https://dc.lft.to/lastmile_qr_scan", "android": "https://dc.lft.to/lastmile_qr_scan"}, "is_reserved": 0}, {"lon": -77.0216755, "bike_id": "2b781c9af2d1c4613c26a18e913b61ff", "lat": 38.90845633333333, "fusion_lon": 0.0, "fusion_lat": 0.0, "type": "electric_scooter", "name": "2b781c9af2d1c4613c26a18e913b61ff", "is_disabled": 0, "rental_uris": {"ios": "https://dc.lft.to/lastmile_qr_scan", "android": "https://dc.lft.to/lastmile_qr_scan"}, "is_reserved": 0}, {"lon": -77.06286116666666, "bike_id": "f1ae4b270f81a5c71b895b8f26b3a082", "lat": 38.905332, "fusion_lon": 0.0, "fusion_lat": 0.0, "type": "electric_scooter", "name": "f1ae4b270f81a5c71b895b8f26b3a082", "is_disabled": 0, "rental_uris": {"ios": "https://dc.lft.to/lastmile_qr_scan", "android": "https://dc.lft.to/lastmile_qr_scan"}, "is_reserved": 0}, {"lon": -76.93125233333333, "bike_id": "c0f3074399b5a397a01e9c4177a8564a", "lat": 38.87849583333333, "fusion_lon": 0.0, "fusion_lat": 0.0, "type": "electric_scooter", "name": "c0f3074399b5a397a01e9c4177a8564a", "is_disabled": 0, "rental_uris": {"ios": "https://dc.lft.to/lastmile_qr_scan", "android": "https://dc.lft.to/lastmile_qr_scan"}, "is_reserved": 0}, {"lon": -77.02494166666666, "bike_id": "9786e88072a2d4a8a7ab1180e5c6ecce", "lat": 38.919102, "fusion_lon": 0.0, "fusion_lat": 0.0, "type": "electric_scooter", "name": "9786e88072a2d4a8a7ab1180e5c6ecce", "is_disabled": 0, "rental_uris": {"ios": "https://dc.lft.to/lastmile_qr_scan", "android": "https://dc.lft.to/lastmile_qr_scan"}, "is_reserved": 0}, {"lon": -77.04379983333334, "bike_id": "c6ddfae2e3c96b551ba5575f64b20a4e", "lat": 38.920657166666665, "fusion_lon": 0.0, "fusion_lat": 0.0, "type": "electric_scooter", "name": "c6ddfae2e3c96b551ba5575f64b20a4e", "is_disabled": 0, "rental_uris": {"ios": "https://dc.lft.to/lastmile_qr_scan", "android": "https://dc.lft.to/lastmile_qr_scan"}, "is_reserved": 0}, {"lon": -76.98245466666667, "bike_id": "81d34f1f64e62d6ff3af1812e7f36a12", "lat": 38.86457266666667, "fusion_lon": 0.0, "fusion_lat": 0.0, "type": "electric_scooter", "name": "81d34f1f64e62d6ff3af1812e7f36a12", "is_disabled": 0, "rental_uris": {"ios": "https://dc.lft.to/lastmile_qr_scan", "android": "https://dc.lft.to/lastmile_qr_scan"}, "is_reserved": 0}, {"lon": -77.00062466666667, "bike_id": "715409ac42608cda6c07e08dfc4da785", "lat": 38.88678066666667, "fusion_lon": 0.0, "fusion_lat": 0.0, "type": "electric_scooter", "name": "715409ac42608cda6c07e08dfc4da785", "is_disabled": 0, "rental_uris": {"ios": "https://dc.lft.to/lastmile_qr_scan", "android": "https://dc.lft.to/lastmile_qr_scan"}, "is_reserved": 0}, {"lon": -76.9978435, "bike_id": "4b3c734a59b7cdcc08c29882b4725ca4", "lat": 38.8908855, "fusion_lon": 0.0, "fusion_lat": 0.0, "type": "electric_scooter", "name": "4b3c734a59b7cdcc08c29882b4725ca4", "is_disabled": 0, "rental_uris": {"ios": "https://dc.lft.to/lastmile_qr_scan", "android": "https://dc.lft.to/lastmile_qr_scan"}, "is_reserved": 0}, {"lon": -77.02089433333333, "bike_id": "ca9e79dc7938057b6e23a36b0f861905", "lat": 38.911253, "fusion_lon": 0.0, "fusion_lat": 0.0, "type": "electric_scooter", "name": "ca9e79dc7938057b6e23a36b0f861905", "is_disabled": 0, "rental_uris": {"ios": "https://dc.lft.to/lastmile_qr_scan", "android": "https://dc.lft.to/lastmile_qr_scan"}, "is_reserved": 0}, {"lon": -77.02300733333334, "bike_id": "d4032d10740815992cdb3ef954f6523a", "lat": 38.9184405, "fusion_lon": 0.0, "fusion_lat": 0.0, "type": "electric_scooter", "name": "d4032d10740815992cdb3ef954f6523a", "is_disabled": 0, "rental_uris": {"ios": "https://dc.lft.to/lastmile_qr_scan", "android": "https://dc.lft.to/lastmile_qr_scan"}, "is_reserved": 0}, {"lon": -77.02444816666667, "bike_id": "26bc43ca4bdce40db46d4f699a2af397", "lat": 38.902577666666666, "fusion_lon": 0.0, "fusion_lat": 0.0, "type": "electric_scooter", "name": "26bc43ca4bdce40db46d4f699a2af397", "is_disabled": 0, "rental_uris": {"ios": "https://dc.lft.to/lastmile_qr_scan", "android": "https://dc.lft.to/lastmile_qr_scan"}, "is_reserved": 0}, {"lon": -76.9810595, "bike_id": "7b457440cf292c6cdb40fe943ea16f09", "lat": 38.877267, "fusion_lon": 0.0, "fusion_lat": 0.0, "type": "electric_bike", "name": "7b457440cf292c6cdb40fe943ea16f09", "is_disabled": 0, "rental_uris": {"ios": "https://dc.lft.to/lastmile_qr_scan", "android": "https://dc.lft.to/lastmile_qr_scan"}, "is_reserved": 0}, {"lon": -76.99924066666667, "bike_id": "8d516dec77050e2bf426280d05e4c207", "lat": 38.8897055, "fusion_lon": 0.0, "fusion_lat": 0.0, "type": "electric_scooter", "name": "8d516dec77050e2bf426280d05e4c207", "is_disabled": 0, "rental_uris": {"ios": "https://dc.lft.to/lastmile_qr_scan", "android": "https://dc.lft.to/lastmile_qr_scan"}, "is_reserved": 0}, {"lon": -77.0323435, "bike_id": "fa7ed75880e1a8f92c93e1afe51b0cf7", "lat": 38.929909, "fusion_lon": 0.0, "fusion_lat": 0.0, "type": "electric_scooter", "name": "fa7ed75880e1a8f92c93e1afe51b0cf7", "is_disabled": 0, "rental_uris": {"ios": "https://dc.lft.to/lastmile_qr_scan", "android": "https://dc.lft.to/lastmile_qr_scan"}, "is_reserved": 0}, {"lon": -77.032969, "bike_id": "0b0090ab983f4ebb4e539f4da999f81b", "lat": 38.93039983333333, "fusion_lon": 0.0, "fusion_lat": 0.0, "type": "electric_scooter", "name": "0b0090ab983f4ebb4e539f4da999f81b", "is_disabled": 0, "rental_uris": {"ios": "https://dc.lft.to/lastmile_qr_scan", "android": "https://dc.lft.to/lastmile_qr_scan"}, "is_reserved": 0}, {"lon": -77.03665966666667, "bike_id": "617b8af1eba979db2185c4173e277393", "lat": 38.933394, "fusion_lon": 0.0, "fusion_lat": 0.0, "type": "electric_scooter", "name": "617b8af1eba979db2185c4173e277393", "is_disabled": 0, "rental_uris": {"ios": "https://dc.lft.to/lastmile_qr_scan", "android": "https://dc.lft.to/lastmile_qr_scan"}, "is_reserved": 0}, {"lon": -77.033248, "bike_id": "68fc2dd62ff4707a3966bd4aa27ee021", "lat": 38.92649616666667, "fusion_lon": 0.0, "fusion_lat": 0.0, "type": "electric_scooter", "name": "68fc2dd62ff4707a3966bd4aa27ee021", "is_disabled": 0, "rental_uris": {"ios": "https://dc.lft.to/lastmile_qr_scan", "android": "https://dc.lft.to/lastmile_qr_scan"}, "is_reserved": 0}, {"lon": -77.03857716666667, "bike_id": "0fe1caf5aa271b27156ac7f40e26ef3f", "lat": 38.91714566666667, "fusion_lon": 0.0, "fusion_lat": 0.0, "type": "electric_scooter", "name": "0fe1caf5aa271b27156ac7f40e26ef3f", "is_disabled": 0, "rental_uris": {"ios": "https://dc.lft.to/lastmile_qr_scan", "android": "https://dc.lft.to/lastmile_qr_scan"}, "is_reserved": 0}, {"lon": -77.03113483333334, "bike_id": "f036433ef35048464d9f999034be014d", "lat": 38.897144833333336, "fusion_lon": 0.0, "fusion_lat": 0.0, "type": "electric_scooter", "name": "f036433ef35048464d9f999034be014d", "is_disabled": 0, "rental_uris": {"ios": "https://dc.lft.to/lastmile_qr_scan", "android": "https://dc.lft.to/lastmile_qr_scan"}, "is_reserved": 0}, {"lon": -77.00076066666666, "bike_id": "8458b57f715d13c398eb5b1e9c1ba718", "lat": 38.901416166666664, "fusion_lon": 0.0, "fusion_lat": 0.0, "type": "electric_scooter", "name": "8458b57f715d13c398eb5b1e9c1ba718", "is_disabled": 0, "rental_uris": {"ios": "https://dc.lft.to/lastmile_qr_scan", "android": "https://dc.lft.to/lastmile_qr_scan"}, "is_reserved": 0}, {"lon": -77.00958866666667, "bike_id": "be9c0bcb2852d876b07ad08c428aa6d2", "lat": 38.92129416666667, "fusion_lon": 0.0, "fusion_lat": 0.0, "type": "electric_scooter", "name": "be9c0bcb2852d876b07ad08c428aa6d2", "is_disabled": 0, "rental_uris": {"ios": "https://dc.lft.to/lastmile_qr_scan", "android": "https://dc.lft.to/lastmile_qr_scan"}, "is_reserved": 0}, {"lon": -77.032448, "bike_id": "18d8282af37d1881892dc48d8ceb4e28", "lat": 38.905468, "fusion_lon": 0.0, "fusion_lat": 0.0, "type": "electric_scooter", "name": "18d8282af37d1881892dc48d8ceb4e28", "is_disabled": 0, "rental_uris": {"ios": "https://dc.lft.to/lastmile_qr_scan", "android": "https://dc.lft.to/lastmile_qr_scan"}, "is_reserved": 0}, {"lon": -76.9833985, "bike_id": "6cf1ddf3d16d765da11faa9feced8ede", "lat": 38.86639316666667, "fusion_lon": 0.0, "fusion_lat": 0.0, "type": "electric_scooter", "name": "6cf1ddf3d16d765da11faa9feced8ede", "is_disabled": 0, "rental_uris": {"ios": "https://dc.lft.to/lastmile_qr_scan", "android": "https://dc.lft.to/lastmile_qr_scan"}, "is_reserved": 0}, {"lon": -76.98038233333334, "bike_id": "7923e4bf7b4853843ff6a0c71b0eb622", "lat": 38.8896375, "fusion_lon": 0.0, "fusion_lat": 0.0, "type": "electric_scooter", "name": "7923e4bf7b4853843ff6a0c71b0eb622", "is_disabled": 0, "rental_uris": {"ios": "https://dc.lft.to/lastmile_qr_scan", "android": "https://dc.lft.to/lastmile_qr_scan"}, "is_reserved": 0}, {"lon": -76.9318725, "bike_id": "56fc2f6fd7eeb66d6ffe5d1c80cb4695", "lat": 38.898742, "fusion_lon": 0.0, "fusion_lat": 0.0, "type": "electric_scooter", "name": "56fc2f6fd7eeb66d6ffe5d1c80cb4695", "is_disabled": 0, "rental_uris": {"ios": "https://dc.lft.to/lastmile_qr_scan", "android": "https://dc.lft.to/lastmile_qr_scan"}, "is_reserved": 0}, {"lon": -77.0326835, "bike_id": "efef0a194bebe991b696a6d73fbab6e6", "lat": 38.9071915, "fusion_lon": 0.0, "fusion_lat": 0.0, "type": "electric_scooter", "name": "efef0a194bebe991b696a6d73fbab6e6", "is_disabled": 0, "rental_uris": {"ios": "https://dc.lft.to/lastmile_qr_scan", "android": "https://dc.lft.to/lastmile_qr_scan"}, "is_reserved": 0}, {"lon": -77.0774865, "bike_id": "4f92057a01dc1d9cd9cdadc4967e4541", "lat": 38.841897833333334, "fusion_lon": 0.0, "fusion_lat": 0.0, "type": "electric_bike", "name": "4f92057a01dc1d9cd9cdadc4967e4541", "is_disabled": 0, "rental_uris": {"ios": "https://dc.lft.to/lastmile_qr_scan", "android": "https://dc.lft.to/lastmile_qr_scan"}, "is_reserved": 0}, {"lon": -77.08006466666667, "bike_id": "f9381b11a0904c6a97eb8e34f4e359cc", "lat": 38.96484733333333, "fusion_lon": 0.0, "fusion_lat": 0.0, "type": "electric_scooter", "name": "f9381b11a0904c6a97eb8e34f4e359cc", "is_disabled": 0, "rental_uris": {"ios": "https://dc.lft.to/lastmile_qr_scan", "android": "https://dc.lft.to/lastmile_qr_scan"}, "is_reserved": 0}, {"lon": -77.0149655, "bike_id": "f34c088a9ab6cc9fd1b0e4d3bb1b4469", "lat": 38.91756266666667, "fusion_lon": 0.0, "fusion_lat": 0.0, "type": "electric_scooter", "name": "f34c088a9ab6cc9fd1b0e4d3bb1b4469", "is_disabled": 0, "rental_uris": {"ios": "https://dc.lft.to/lastmile_qr_scan", "android": "https://dc.lft.to/lastmile_qr_scan"}, "is_reserved": 0}, {"lon": -76.99011783333333, "bike_id": "48c692c095c67de45210d0826ea0d2c2", "lat": 38.882690333333336, "fusion_lon": 0.0, "fusion_lat": 0.0, "type": "electric_scooter", "name": "48c692c095c67de45210d0826ea0d2c2", "is_disabled": 0, "rental_uris": {"ios": "https://dc.lft.to/lastmile_qr_scan", "android": "https://dc.lft.to/lastmile_qr_scan"}, "is_reserved": 0}, {"lon": -77.02397433333333, "bike_id": "fa2a0e1d2932203ba9231fa9d6d9f78e", "lat": 38.91426933333334, "fusion_lon": 0.0, "fusion_lat": 0.0, "type": "electric_scooter", "name": "fa2a0e1d2932203ba9231fa9d6d9f78e", "is_disabled": 0, "rental_uris": {"ios": "https://dc.lft.to/lastmile_qr_scan", "android": "https://dc.lft.to/lastmile_qr_scan"}, "is_reserved": 0}, {"lon": -77.003726, "bike_id": "3c1f62ee6baab70e8e910d4eb6e38a06", "lat": 38.897313833333335, "fusion_lon": 0.0, "fusion_lat": 0.0, "type": "electric_scooter", "name": "3c1f62ee6baab70e8e910d4eb6e38a06", "is_disabled": 0, "rental_uris": {"ios": "https://dc.lft.to/lastmile_qr_scan", "android": "https://dc.lft.to/lastmile_qr_scan"}, "is_reserved": 0}, {"lon": -76.9220215, "bike_id": "1e653e023cd62827b086604be9703f7f", "lat": 38.89497816666667, "fusion_lon": 0.0, "fusion_lat": 0.0, "type": "electric_bike", "name": "1e653e023cd62827b086604be9703f7f", "is_disabled": 0, "rental_uris": {"ios": "https://dc.lft.to/lastmile_qr_scan", "android": "https://dc.lft.to/lastmile_qr_scan"}, "is_reserved": 0}, {"lon": -77.07898833333333, "bike_id": "a23f83ad13c16cbf448a11ac259f2f75", "lat": 38.839318166666665, "fusion_lon": 0.0, "fusion_lat": 0.0, "type": "electric_bike", "name": "a23f83ad13c16cbf448a11ac259f2f75", "is_disabled": 0, "rental_uris": {"ios": "https://dc.lft.to/lastmile_qr_scan", "android": "https://dc.lft.to/lastmile_qr_scan"}, "is_reserved": 0}, {"lon": -77.0253755, "bike_id": "ca520a6952083742b41488efca398fe4", "lat": 38.94099033333333, "fusion_lon": 0.0, "fusion_lat": 0.0, "type": "electric_scooter", "name": "ca520a6952083742b41488efca398fe4", "is_disabled": 0, "rental_uris": {"ios": "https://dc.lft.to/lastmile_qr_scan", "android": "https://dc.lft.to/lastmile_qr_scan"}, "is_reserved": 0}, {"lon": -77.03778516666667, "bike_id": "451c2d5e3d207871bffbabbba331ee6b", "lat": 38.92963983333333, "fusion_lon": 0.0, "fusion_lat": 0.0, "type": "electric_scooter", "name": "451c2d5e3d207871bffbabbba331ee6b", "is_disabled": 0, "rental_uris": {"ios": "https://dc.lft.to/lastmile_qr_scan", "android": "https://dc.lft.to/lastmile_qr_scan"}, "is_reserved": 0}, {"lon": -77.03966816666667, "bike_id": "d1bb13dfcc98f54c9b92046eeddb374e", "lat": 38.916258166666665, "fusion_lon": 0.0, "fusion_lat": 0.0, "type": "electric_scooter", "name": "d1bb13dfcc98f54c9b92046eeddb374e", "is_disabled": 0, "rental_uris": {"ios": "https://dc.lft.to/lastmile_qr_scan", "android": "https://dc.lft.to/lastmile_qr_scan"}, "is_reserved": 0}, {"lon": -76.98405166666667, "bike_id": "6fa9313025ce7b866fda0f0a085dfd4a", "lat": 38.90628983333333, "fusion_lon": 0.0, "fusion_lat": 0.0, "type": "electric_scooter", "name": "6fa9313025ce7b866fda0f0a085dfd4a", "is_disabled": 0, "rental_uris": {"ios": "https://dc.lft.to/lastmile_qr_scan", "android": "https://dc.lft.to/lastmile_qr_scan"}, "is_reserved": 0}, {"lon": -76.98928583333333, "bike_id": "67d11d45b87f8586295c1be1a21ac956", "lat": 38.91834216666667, "fusion_lon": 0.0, "fusion_lat": 0.0, "type": "electric_scooter", "name": "67d11d45b87f8586295c1be1a21ac956", "is_disabled": 0, "rental_uris": {"ios": "https://dc.lft.to/lastmile_qr_scan", "android": "https://dc.lft.to/lastmile_qr_scan"}, "is_reserved": 0}, {"lon": -76.9962465, "bike_id": "be9ac845e435ad027ab45e6599196832", "lat": 38.901036833333336, "fusion_lon": 0.0, "fusion_lat": 0.0, "type": "electric_scooter", "name": "be9ac845e435ad027ab45e6599196832", "is_disabled": 0, "rental_uris": {"ios": "https://dc.lft.to/lastmile_qr_scan", "android": "https://dc.lft.to/lastmile_qr_scan"}, "is_reserved": 0}, {"lon": -76.98771983333333, "bike_id": "25ba176f971fd9f761a79c8c253f9bb5", "lat": 38.866076166666666, "fusion_lon": 0.0, "fusion_lat": 0.0, "type": "electric_bike", "name": "25ba176f971fd9f761a79c8c253f9bb5", "is_disabled": 0, "rental_uris": {"ios": "https://dc.lft.to/lastmile_qr_scan", "android": "https://dc.lft.to/lastmile_qr_scan"}, "is_reserved": 0}, {"lon": -77.0395725, "bike_id": "2590f2c3d4e56e2b33727cd43a987785", "lat": 38.89239633333333, "fusion_lon": 0.0, "fusion_lat": 0.0, "type": "electric_scooter", "name": "2590f2c3d4e56e2b33727cd43a987785", "is_disabled": 0, "rental_uris": {"ios": "https://dc.lft.to/lastmile_qr_scan", "android": "https://dc.lft.to/lastmile_qr_scan"}, "is_reserved": 0}, {"lon": -77.02569416666667, "bike_id": "827ade909c1ca29594b9ab105ac77dc4", "lat": 38.91340183333333, "fusion_lon": 0.0, "fusion_lat": 0.0, "type": "electric_scooter", "name": "827ade909c1ca29594b9ab105ac77dc4", "is_disabled": 0, "rental_uris": {"ios": "https://dc.lft.to/lastmile_qr_scan", "android": "https://dc.lft.to/lastmile_qr_scan"}, "is_reserved": 0}, {"lon": -77.0262165, "bike_id": "820ad7220ebc510690bdd0b67441c50f", "lat": 38.933556833333334, "fusion_lon": 0.0, "fusion_lat": 0.0, "type": "electric_scooter", "name": "820ad7220ebc510690bdd0b67441c50f", "is_disabled": 0, "rental_uris": {"ios": "https://dc.lft.to/lastmile_qr_scan", "android": "https://dc.lft.to/lastmile_qr_scan"}, "is_reserved": 0}, {"lon": -77.04323333333333, "bike_id": "4c4e50e9cac93d830aa3431dce9afeb7", "lat": 38.92251916666667, "fusion_lon": 0.0, "fusion_lat": 0.0, "type": "electric_scooter", "name": "4c4e50e9cac93d830aa3431dce9afeb7", "is_disabled": 0, "rental_uris": {"ios": "https://dc.lft.to/lastmile_qr_scan", "android": "https://dc.lft.to/lastmile_qr_scan"}, "is_reserved": 0}, {"lon": -77.041805, "bike_id": "3ab8f17d60ee002cfd6637fbfafa026c", "lat": 38.91978233333333, "fusion_lon": 0.0, "fusion_lat": 0.0, "type": "electric_scooter", "name": "3ab8f17d60ee002cfd6637fbfafa026c", "is_disabled": 0, "rental_uris": {"ios": "https://dc.lft.to/lastmile_qr_scan", "android": "https://dc.lft.to/lastmile_qr_scan"}, "is_reserved": 0}, {"lon": -77.00360166666667, "bike_id": "db71eb8685f2a1b9e89e05ec2fad756e", "lat": 38.8804805, "fusion_lon": 0.0, "fusion_lat": 0.0, "type": "electric_scooter", "name": "db71eb8685f2a1b9e89e05ec2fad756e", "is_disabled": 0, "rental_uris": {"ios": "https://dc.lft.to/lastmile_qr_scan", "android": "https://dc.lft.to/lastmile_qr_scan"}, "is_reserved": 0}, {"lon": -77.0819435, "bike_id": "4ab30100069f0803ab9117912c776038", "lat": 38.9351115, "fusion_lon": 0.0, "fusion_lat": 0.0, "type": "electric_scooter", "name": "4ab30100069f0803ab9117912c776038", "is_disabled": 0, "rental_uris": {"ios": "https://dc.lft.to/lastmile_qr_scan", "android": "https://dc.lft.to/lastmile_qr_scan"}, "is_reserved": 0}, {"lon": -77.02697416666666, "bike_id": "03f45051d7349570802d0f96eabde03b", "lat": 38.900675666666665, "fusion_lon": 0.0, "fusion_lat": 0.0, "type": "electric_scooter", "name": "03f45051d7349570802d0f96eabde03b", "is_disabled": 0, "rental_uris": {"ios": "https://dc.lft.to/lastmile_qr_scan", "android": "https://dc.lft.to/lastmile_qr_scan"}, "is_reserved": 0}, {"lon": -77.02816083333333, "bike_id": "36204fd876fe1b5e49311e138bb27e5e", "lat": 38.93169266666666, "fusion_lon": 0.0, "fusion_lat": 0.0, "type": "electric_scooter", "name": "36204fd876fe1b5e49311e138bb27e5e", "is_disabled": 0, "rental_uris": {"ios": "https://dc.lft.to/lastmile_qr_scan", "android": "https://dc.lft.to/lastmile_qr_scan"}, "is_reserved": 0}, {"lon": -77.04470333333333, "bike_id": "12ffe4f5104f188a26bf932614b322a9", "lat": 38.90546633333334, "fusion_lon": 0.0, "fusion_lat": 0.0, "type": "electric_scooter", "name": "12ffe4f5104f188a26bf932614b322a9", "is_disabled": 0, "rental_uris": {"ios": "https://dc.lft.to/lastmile_qr_scan", "android": "https://dc.lft.to/lastmile_qr_scan"}, "is_reserved": 0}, {"lon": -76.91600283333334, "bike_id": "7c8980bf477f87972d4013be46983f3a", "lat": 38.87982983333333, "fusion_lon": 0.0, "fusion_lat": 0.0, "type": "electric_bike", "name": "7c8980bf477f87972d4013be46983f3a", "is_disabled": 0, "rental_uris": {"ios": "https://dc.lft.to/lastmile_qr_scan", "android": "https://dc.lft.to/lastmile_qr_scan"}, "is_reserved": 0}, {"lon": -76.9732755, "bike_id": "98b2740563f57a6031cc022219291687", "lat": 38.904773666666664, "fusion_lon": 0.0, "fusion_lat": 0.0, "type": "electric_bike", "name": "98b2740563f57a6031cc022219291687", "is_disabled": 0, "rental_uris": {"ios": "https://dc.lft.to/lastmile_qr_scan", "android": "https://dc.lft.to/lastmile_qr_scan"}, "is_reserved": 0}, {"lon": -77.03285933333333, "bike_id": "044a8ccde4877c527031d8b1b9883110", "lat": 38.934842333333336, "fusion_lon": 0.0, "fusion_lat": 0.0, "type": "electric_scooter", "name": "044a8ccde4877c527031d8b1b9883110", "is_disabled": 0, "rental_uris": {"ios": "https://dc.lft.to/lastmile_qr_scan", "android": "https://dc.lft.to/lastmile_qr_scan"}, "is_reserved": 0}, {"lon": -77.02693816666667, "bike_id": "6b665cf7267049b50cb331c82ee3747c", "lat": 38.916899666666666, "fusion_lon": 0.0, "fusion_lat": 0.0, "type": "electric_scooter", "name": "6b665cf7267049b50cb331c82ee3747c", "is_disabled": 0, "rental_uris": {"ios": "https://dc.lft.to/lastmile_qr_scan", "android": "https://dc.lft.to/lastmile_qr_scan"}, "is_reserved": 0}, {"lon": -77.04190983333334, "bike_id": "7b371a83af0fbbadc175e1f7fa813d35", "lat": 38.911239, "fusion_lon": 0.0, "fusion_lat": 0.0, "type": "electric_scooter", "name": "7b371a83af0fbbadc175e1f7fa813d35", "is_disabled": 0, "rental_uris": {"ios": "https://dc.lft.to/lastmile_qr_scan", "android": "https://dc.lft.to/lastmile_qr_scan"}, "is_reserved": 0}, {"lon": -76.93029383333334, "bike_id": "1a8f363b3aeade3d00689d702e384054", "lat": 38.900122833333334, "fusion_lon": 0.0, "fusion_lat": 0.0, "type": "electric_scooter", "name": "1a8f363b3aeade3d00689d702e384054", "is_disabled": 0, "rental_uris": {"ios": "https://dc.lft.to/lastmile_qr_scan", "android": "https://dc.lft.to/lastmile_qr_scan"}, "is_reserved": 0}, {"lon": -76.995026, "bike_id": "4a49cec485d6b4a7717627cbe293ef93", "lat": 38.88306983333333, "fusion_lon": 0.0, "fusion_lat": 0.0, "type": "electric_scooter", "name": "4a49cec485d6b4a7717627cbe293ef93", "is_disabled": 0, "rental_uris": {"ios": "https://dc.lft.to/lastmile_qr_scan", "android": "https://dc.lft.to/lastmile_qr_scan"}, "is_reserved": 0}, {"lon": -77.05860716666666, "bike_id": "3f2663766cb65b1f4f587ee80fd6f7d1", "lat": 38.93605516666667, "fusion_lon": 0.0, "fusion_lat": 0.0, "type": "electric_scooter", "name": "3f2663766cb65b1f4f587ee80fd6f7d1", "is_disabled": 0, "rental_uris": {"ios": "https://dc.lft.to/lastmile_qr_scan", "android": "https://dc.lft.to/lastmile_qr_scan"}, "is_reserved": 0}, {"lon": -77.02949116666667, "bike_id": "04b13283cf0bf672041b1a721c5d0f12", "lat": 38.905001, "fusion_lon": 0.0, "fusion_lat": 0.0, "type": "electric_scooter", "name": "04b13283cf0bf672041b1a721c5d0f12", "is_disabled": 0, "rental_uris": {"ios": "https://dc.lft.to/lastmile_qr_scan", "android": "https://dc.lft.to/lastmile_qr_scan"}, "is_reserved": 0}, {"lon": -77.01895983333333, "bike_id": "d894e97eac547fa20f3e11c32ce3fb9a", "lat": 38.904519666666666, "fusion_lon": 0.0, "fusion_lat": 0.0, "type": "electric_scooter", "name": "d894e97eac547fa20f3e11c32ce3fb9a", "is_disabled": 0, "rental_uris": {"ios": "https://dc.lft.to/lastmile_qr_scan", "android": "https://dc.lft.to/lastmile_qr_scan"}, "is_reserved": 0}, {"lon": -77.05312466666666, "bike_id": "21ff10600e32b4de0ec552d83ea59ef7", "lat": 38.926339166666665, "fusion_lon": 0.0, "fusion_lat": 0.0, "type": "electric_scooter", "name": "21ff10600e32b4de0ec552d83ea59ef7", "is_disabled": 0, "rental_uris": {"ios": "https://dc.lft.to/lastmile_qr_scan", "android": "https://dc.lft.to/lastmile_qr_scan"}, "is_reserved": 0}, {"lon": -77.0021535, "bike_id": "9e66bae19903e57ee9cd1dadb97226a0", "lat": 38.895428833333334, "fusion_lon": 0.0, "fusion_lat": 0.0, "type": "electric_scooter", "name": "9e66bae19903e57ee9cd1dadb97226a0", "is_disabled": 0, "rental_uris": {"ios": "https://dc.lft.to/lastmile_qr_scan", "android": "https://dc.lft.to/lastmile_qr_scan"}, "is_reserved": 0}, {"lon": -77.02041966666667, "bike_id": "f84dc8372b7cf0a591103d92d873548f", "lat": 38.91557983333333, "fusion_lon": 0.0, "fusion_lat": 0.0, "type": "electric_scooter", "name": "f84dc8372b7cf0a591103d92d873548f", "is_disabled": 0, "rental_uris": {"ios": "https://dc.lft.to/lastmile_qr_scan", "android": "https://dc.lft.to/lastmile_qr_scan"}, "is_reserved": 0}, {"lon": -77.0203845, "bike_id": "37d7a160e4c0eda1c6b9655f406fbf91", "lat": 38.908646833333336, "fusion_lon": 0.0, "fusion_lat": 0.0, "type": "electric_scooter", "name": "37d7a160e4c0eda1c6b9655f406fbf91", "is_disabled": 0, "rental_uris": {"ios": "https://dc.lft.to/lastmile_qr_scan", "android": "https://dc.lft.to/lastmile_qr_scan"}, "is_reserved": 0}, {"lon": -77.0052635, "bike_id": "93143bd29873ed5b896f80c450587c92", "lat": 38.929713, "fusion_lon": 0.0, "fusion_lat": 0.0, "type": "electric_scooter", "name": "93143bd29873ed5b896f80c450587c92", "is_disabled": 0, "rental_uris": {"ios": "https://dc.lft.to/lastmile_qr_scan", "android": "https://dc.lft.to/lastmile_qr_scan"}, "is_reserved": 0}, {"lon": -77.01476833333334, "bike_id": "249b7f799a08dcbb26c316e14eadc209", "lat": 38.940648833333334, "fusion_lon": 0.0, "fusion_lat": 0.0, "type": "electric_bike", "name": "249b7f799a08dcbb26c316e14eadc209", "is_disabled": 0, "rental_uris": {"ios": "https://dc.lft.to/lastmile_qr_scan", "android": "https://dc.lft.to/lastmile_qr_scan"}, "is_reserved": 0}, {"lon": -77.02265016666666, "bike_id": "b59e86a13d63fece21c464c4f0364c01", "lat": 38.93756, "fusion_lon": 0.0, "fusion_lat": 0.0, "type": "electric_scooter", "name": "b59e86a13d63fece21c464c4f0364c01", "is_disabled": 0, "rental_uris": {"ios": "https://dc.lft.to/lastmile_qr_scan", "android": "https://dc.lft.to/lastmile_qr_scan"}, "is_reserved": 0}, {"lon": -77.03267666666666, "bike_id": "2b367406f08d2d0f0540c3eacdc1fbf8", "lat": 38.915603833333336, "fusion_lon": 0.0, "fusion_lat": 0.0, "type": "electric_scooter", "name": "2b367406f08d2d0f0540c3eacdc1fbf8", "is_disabled": 0, "rental_uris": {"ios": "https://dc.lft.to/lastmile_qr_scan", "android": "https://dc.lft.to/lastmile_qr_scan"}, "is_reserved": 0}, {"lon": -77.00345666666666, "bike_id": "f201f3ea1c5c69aef0b6934cd832648d", "lat": 38.899204833333336, "fusion_lon": 0.0, "fusion_lat": 0.0, "type": "electric_scooter", "name": "f201f3ea1c5c69aef0b6934cd832648d", "is_disabled": 0, "rental_uris": {"ios": "https://dc.lft.to/lastmile_qr_scan", "android": "https://dc.lft.to/lastmile_qr_scan"}, "is_reserved": 0}, {"lon": -77.02671416666666, "bike_id": "00aa21bbd24f245a662ab4ca93a13786", "lat": 38.9218085, "fusion_lon": 0.0, "fusion_lat": 0.0, "type": "electric_scooter", "name": "00aa21bbd24f245a662ab4ca93a13786", "is_disabled": 0, "rental_uris": {"ios": "https://dc.lft.to/lastmile_qr_scan", "android": "https://dc.lft.to/lastmile_qr_scan"}, "is_reserved": 0}, {"lon": -77.05412266666667, "bike_id": "83a8d06e027fbd2257a3d279d2b6a576", "lat": 38.95046166666667, "fusion_lon": 0.0, "fusion_lat": 0.0, "type": "electric_scooter", "name": "83a8d06e027fbd2257a3d279d2b6a576", "is_disabled": 0, "rental_uris": {"ios": "https://dc.lft.to/lastmile_qr_scan", "android": "https://dc.lft.to/lastmile_qr_scan"}, "is_reserved": 0}, {"lon": -77.04349933333333, "bike_id": "51f694c6967599a9ebe0074edff9e6d0", "lat": 38.921725333333335, "fusion_lon": 0.0, "fusion_lat": 0.0, "type": "electric_scooter", "name": "51f694c6967599a9ebe0074edff9e6d0", "is_disabled": 0, "rental_uris": {"ios": "https://dc.lft.to/lastmile_qr_scan", "android": "https://dc.lft.to/lastmile_qr_scan"}, "is_reserved": 0}, {"lon": -77.0271595, "bike_id": "f2608e383d2eafe3de0a304849e54afe", "lat": 38.9095, "fusion_lon": 0.0, "fusion_lat": 0.0, "type": "electric_scooter", "name": "f2608e383d2eafe3de0a304849e54afe", "is_disabled": 0, "rental_uris": {"ios": "https://dc.lft.to/lastmile_qr_scan", "android": "https://dc.lft.to/lastmile_qr_scan"}, "is_reserved": 0}, {"lon": -77.00605966666667, "bike_id": "81d137046fc7967dd8712cf747b56d78", "lat": 38.906372833333336, "fusion_lon": 0.0, "fusion_lat": 0.0, "type": "electric_scooter", "name": "81d137046fc7967dd8712cf747b56d78", "is_disabled": 0, "rental_uris": {"ios": "https://dc.lft.to/lastmile_qr_scan", "android": "https://dc.lft.to/lastmile_qr_scan"}, "is_reserved": 0}, {"lon": -77.05138483333333, "bike_id": "6eae4bf5dedebc216261d50919c669d9", "lat": 38.905632, "fusion_lon": 0.0, "fusion_lat": 0.0, "type": "electric_scooter", "name": "6eae4bf5dedebc216261d50919c669d9", "is_disabled": 0, "rental_uris": {"ios": "https://dc.lft.to/lastmile_qr_scan", "android": "https://dc.lft.to/lastmile_qr_scan"}, "is_reserved": 0}, {"lon": -77.04444566666666, "bike_id": "4060211022a2a6f8f6cf908eb0da40b0", "lat": 38.921674833333334, "fusion_lon": 0.0, "fusion_lat": 0.0, "type": "electric_scooter", "name": "4060211022a2a6f8f6cf908eb0da40b0", "is_disabled": 0, "rental_uris": {"ios": "https://dc.lft.to/lastmile_qr_scan", "android": "https://dc.lft.to/lastmile_qr_scan"}, "is_reserved": 0}, {"lon": -77.03989116666666, "bike_id": "7ad4f26b44af7eedfc597b23e6fa5ce3", "lat": 38.93338983333334, "fusion_lon": 0.0, "fusion_lat": 0.0, "type": "electric_scooter", "name": "7ad4f26b44af7eedfc597b23e6fa5ce3", "is_disabled": 0, "rental_uris": {"ios": "https://dc.lft.to/lastmile_qr_scan", "android": "https://dc.lft.to/lastmile_qr_scan"}, "is_reserved": 0}, {"lon": -76.977265, "bike_id": "5ece28f1e6dfa8eda273513c72bd1364", "lat": 38.872435333333335, "fusion_lon": 0.0, "fusion_lat": 0.0, "type": "electric_scooter", "name": "5ece28f1e6dfa8eda273513c72bd1364", "is_disabled": 0, "rental_uris": {"ios": "https://dc.lft.to/lastmile_qr_scan", "android": "https://dc.lft.to/lastmile_qr_scan"}, "is_reserved": 0}, {"lon": -77.03983416666667, "bike_id": "962d8638e419c51ea9505133e4485e47", "lat": 38.89223766666667, "fusion_lon": 0.0, "fusion_lat": 0.0, "type": "electric_scooter", "name": "962d8638e419c51ea9505133e4485e47", "is_disabled": 0, "rental_uris": {"ios": "https://dc.lft.to/lastmile_qr_scan", "android": "https://dc.lft.to/lastmile_qr_scan"}, "is_reserved": 0}, {"lon": -77.07389616666667, "bike_id": "24a15c25683e23e119b74bc21ef2776d", "lat": 38.9617415, "fusion_lon": 0.0, "fusion_lat": 0.0, "type": "electric_bike", "name": "24a15c25683e23e119b74bc21ef2776d", "is_disabled": 0, "rental_uris": {"ios": "https://dc.lft.to/lastmile_qr_scan", "android": "https://dc.lft.to/lastmile_qr_scan"}, "is_reserved": 0}, {"lon": -77.0356865, "bike_id": "a6830908900e81bd0eda735eb949f156", "lat": 38.91778583333333, "fusion_lon": 0.0, "fusion_lat": 0.0, "type": "electric_scooter", "name": "a6830908900e81bd0eda735eb949f156", "is_disabled": 0, "rental_uris": {"ios": "https://dc.lft.to/lastmile_qr_scan", "android": "https://dc.lft.to/lastmile_qr_scan"}, "is_reserved": 0}, {"lon": -76.92995366666666, "bike_id": "558cd30ee324cd35c12f42181202d2bf", "lat": 38.90183966666667, "fusion_lon": 0.0, "fusion_lat": 0.0, "type": "electric_scooter", "name": "558cd30ee324cd35c12f42181202d2bf", "is_disabled": 0, "rental_uris": {"ios": "https://dc.lft.to/lastmile_qr_scan", "android": "https://dc.lft.to/lastmile_qr_scan"}, "is_reserved": 0}, {"lon": -77.03226733333334, "bike_id": "4566933ff66ac13b14ffb4e39f09675e", "lat": 38.89648583333334, "fusion_lon": 0.0, "fusion_lat": 0.0, "type": "electric_scooter", "name": "4566933ff66ac13b14ffb4e39f09675e", "is_disabled": 0, "rental_uris": {"ios": "https://dc.lft.to/lastmile_qr_scan", "android": "https://dc.lft.to/lastmile_qr_scan"}, "is_reserved": 0}, {"lon": -77.01993633333333, "bike_id": "1bfbc7d71f0fc148c79a618a6cd2af82", "lat": 38.902452333333336, "fusion_lon": 0.0, "fusion_lat": 0.0, "type": "electric_scooter", "name": "1bfbc7d71f0fc148c79a618a6cd2af82", "is_disabled": 0, "rental_uris": {"ios": "https://dc.lft.to/lastmile_qr_scan", "android": "https://dc.lft.to/lastmile_qr_scan"}, "is_reserved": 0}, {"lon": -77.038651, "bike_id": "f74751310594057a1ce2f4116770edbb", "lat": 38.906654333333336, "fusion_lon": 0.0, "fusion_lat": 0.0, "type": "electric_scooter", "name": "f74751310594057a1ce2f4116770edbb", "is_disabled": 0, "rental_uris": {"ios": "https://dc.lft.to/lastmile_qr_scan", "android": "https://dc.lft.to/lastmile_qr_scan"}, "is_reserved": 0}, {"lon": -77.0435155, "bike_id": "8a9c0f44d8fd6dcc75842069c93b6e4e", "lat": 38.907715333333336, "fusion_lon": 0.0, "fusion_lat": 0.0, "type": "electric_scooter", "name": "8a9c0f44d8fd6dcc75842069c93b6e4e", "is_disabled": 0, "rental_uris": {"ios": "https://dc.lft.to/lastmile_qr_scan", "android": "https://dc.lft.to/lastmile_qr_scan"}, "is_reserved": 0}, {"lon": -77.01411816666666, "bike_id": "2184d8a39a4d2a542de03b58de17adf0", "lat": 38.92811833333333, "fusion_lon": 0.0, "fusion_lat": 0.0, "type": "electric_scooter", "name": "2184d8a39a4d2a542de03b58de17adf0", "is_disabled": 0, "rental_uris": {"ios": "https://dc.lft.to/lastmile_qr_scan", "android": "https://dc.lft.to/lastmile_qr_scan"}, "is_reserved": 0}, {"lon": -77.02713383333334, "bike_id": "4a89b9d2349b245d082920e79e6f0137", "lat": 38.9258835, "fusion_lon": 0.0, "fusion_lat": 0.0, "type": "electric_scooter", "name": "4a89b9d2349b245d082920e79e6f0137", "is_disabled": 0, "rental_uris": {"ios": "https://dc.lft.to/lastmile_qr_scan", "android": "https://dc.lft.to/lastmile_qr_scan"}, "is_reserved": 0}, {"lon": -77.040221, "bike_id": "b7966362113aa63a1d69604413ee49b7", "lat": 38.91116516666666, "fusion_lon": 0.0, "fusion_lat": 0.0, "type": "electric_scooter", "name": "b7966362113aa63a1d69604413ee49b7", "is_disabled": 0, "rental_uris": {"ios": "https://dc.lft.to/lastmile_qr_scan", "android": "https://dc.lft.to/lastmile_qr_scan"}, "is_reserved": 0}, {"lon": -76.9402895, "bike_id": "63ee370e73e4f3bc512d6c87cef638df", "lat": 38.908214666666666, "fusion_lon": 0.0, "fusion_lat": 0.0, "type": "electric_bike", "name": "63ee370e73e4f3bc512d6c87cef638df", "is_disabled": 0, "rental_uris": {"ios": "https://dc.lft.to/lastmile_qr_scan", "android": "https://dc.lft.to/lastmile_qr_scan"}, "is_reserved": 0}, {"lon": -77.0352115, "bike_id": "e8f36c193a0326ecaeab2002ffd7002c", "lat": 38.92733483333333, "fusion_lon": 0.0, "fusion_lat": 0.0, "type": "electric_scooter", "name": "e8f36c193a0326ecaeab2002ffd7002c", "is_disabled": 0, "rental_uris": {"ios": "https://dc.lft.to/lastmile_qr_scan", "android": "https://dc.lft.to/lastmile_qr_scan"}, "is_reserved": 0}, {"lon": -77.03629416666666, "bike_id": "4779d605c5b1e6721eb7c3a6b9eba26f", "lat": 38.94492016666667, "fusion_lon": 0.0, "fusion_lat": 0.0, "type": "electric_scooter", "name": "4779d605c5b1e6721eb7c3a6b9eba26f", "is_disabled": 0, "rental_uris": {"ios": "https://dc.lft.to/lastmile_qr_scan", "android": "https://dc.lft.to/lastmile_qr_scan"}, "is_reserved": 0}, {"lon": -77.04870316666667, "bike_id": "668b4f680bec916a2a50c2ac48c54e8c", "lat": 38.89271, "fusion_lon": 0.0, "fusion_lat": 0.0, "type": "electric_scooter", "name": "668b4f680bec916a2a50c2ac48c54e8c", "is_disabled": 0, "rental_uris": {"ios": "https://dc.lft.to/lastmile_qr_scan", "android": "https://dc.lft.to/lastmile_qr_scan"}, "is_reserved": 0}, {"lon": -76.96524033333333, "bike_id": "9d3d27825ce057c8a245316d08389c54", "lat": 38.87630633333333, "fusion_lon": 0.0, "fusion_lat": 0.0, "type": "electric_scooter", "name": "9d3d27825ce057c8a245316d08389c54", "is_disabled": 0, "rental_uris": {"ios": "https://dc.lft.to/lastmile_qr_scan", "android": "https://dc.lft.to/lastmile_qr_scan"}, "is_reserved": 0}, {"lon": -77.05470883333334, "bike_id": "5f57d55522e6fb1496e9a47c97d2827a", "lat": 38.92568283333333, "fusion_lon": 0.0, "fusion_lat": 0.0, "type": "electric_scooter", "name": "5f57d55522e6fb1496e9a47c97d2827a", "is_disabled": 0, "rental_uris": {"ios": "https://dc.lft.to/lastmile_qr_scan", "android": "https://dc.lft.to/lastmile_qr_scan"}, "is_reserved": 0}, {"lon": -77.02172633333333, "bike_id": "c195aa5de9ee6b5683f56f02516bca9a", "lat": 38.942905333333336, "fusion_lon": 0.0, "fusion_lat": 0.0, "type": "electric_scooter", "name": "c195aa5de9ee6b5683f56f02516bca9a", "is_disabled": 0, "rental_uris": {"ios": "https://dc.lft.to/lastmile_qr_scan", "android": "https://dc.lft.to/lastmile_qr_scan"}, "is_reserved": 0}, {"lon": -77.02106466666666, "bike_id": "f21f15f0248680122570dd434e7e7d0d", "lat": 38.90554683333333, "fusion_lon": 0.0, "fusion_lat": 0.0, "type": "electric_scooter", "name": "f21f15f0248680122570dd434e7e7d0d", "is_disabled": 0, "rental_uris": {"ios": "https://dc.lft.to/lastmile_qr_scan", "android": "https://dc.lft.to/lastmile_qr_scan"}, "is_reserved": 0}, {"lon": -77.0231825, "bike_id": "9c35057b6bbc5d482c10617456d8a008", "lat": 38.924121666666665, "fusion_lon": 0.0, "fusion_lat": 0.0, "type": "electric_scooter", "name": "9c35057b6bbc5d482c10617456d8a008", "is_disabled": 0, "rental_uris": {"ios": "https://dc.lft.to/lastmile_qr_scan", "android": "https://dc.lft.to/lastmile_qr_scan"}, "is_reserved": 0}, {"lon": -77.04161883333333, "bike_id": "2b37164ac66175120b5efbd23f60cdf6", "lat": 38.919865333333334, "fusion_lon": 0.0, "fusion_lat": 0.0, "type": "electric_scooter", "name": "2b37164ac66175120b5efbd23f60cdf6", "is_disabled": 0, "rental_uris": {"ios": "https://dc.lft.to/lastmile_qr_scan", "android": "https://dc.lft.to/lastmile_qr_scan"}, "is_reserved": 0}, {"lon": -77.03681266666666, "bike_id": "72658b815c0657c6824d862526e04b68", "lat": 38.9392695, "fusion_lon": 0.0, "fusion_lat": 0.0, "type": "electric_scooter", "name": "72658b815c0657c6824d862526e04b68", "is_disabled": 0, "rental_uris": {"ios": "https://dc.lft.to/lastmile_qr_scan", "android": "https://dc.lft.to/lastmile_qr_scan"}, "is_reserved": 0}, {"lon": -77.02974866666666, "bike_id": "719deb82a13ad6be5c90f3b682ca52e1", "lat": 38.916641166666665, "fusion_lon": 0.0, "fusion_lat": 0.0, "type": "electric_scooter", "name": "719deb82a13ad6be5c90f3b682ca52e1", "is_disabled": 0, "rental_uris": {"ios": "https://dc.lft.to/lastmile_qr_scan", "android": "https://dc.lft.to/lastmile_qr_scan"}, "is_reserved": 0}, {"lon": -77.0332945, "bike_id": "52cc8a4e45b781169eaffc613f250a17", "lat": 38.898200833333334, "fusion_lon": 0.0, "fusion_lat": 0.0, "type": "electric_scooter", "name": "52cc8a4e45b781169eaffc613f250a17", "is_disabled": 0, "rental_uris": {"ios": "https://dc.lft.to/lastmile_qr_scan", "android": "https://dc.lft.to/lastmile_qr_scan"}, "is_reserved": 0}, {"lon": -77.0387335, "bike_id": "a35508f0e6855410860b64e533a99053", "lat": 38.92149933333334, "fusion_lon": 0.0, "fusion_lat": 0.0, "type": "electric_scooter", "name": "a35508f0e6855410860b64e533a99053", "is_disabled": 0, "rental_uris": {"ios": "https://dc.lft.to/lastmile_qr_scan", "android": "https://dc.lft.to/lastmile_qr_scan"}, "is_reserved": 0}, {"lon": -77.064173, "bike_id": "8087be7b2e57339c945386ba3595bc5c", "lat": 38.993334833333336, "fusion_lon": 0.0, "fusion_lat": 0.0, "type": "electric_scooter", "name": "8087be7b2e57339c945386ba3595bc5c", "is_disabled": 0, "rental_uris": {"ios": "https://dc.lft.to/lastmile_qr_scan", "android": "https://dc.lft.to/lastmile_qr_scan"}, "is_reserved": 0}, {"lon": -77.05701333333333, "bike_id": "423e8bdf36b8ce8de52fdf4c7c828abd", "lat": 38.905444, "fusion_lon": 0.0, "fusion_lat": 0.0, "type": "electric_scooter", "name": "423e8bdf36b8ce8de52fdf4c7c828abd", "is_disabled": 0, "rental_uris": {"ios": "https://dc.lft.to/lastmile_qr_scan", "android": "https://dc.lft.to/lastmile_qr_scan"}, "is_reserved": 0}, {"lon": -77.01635016666667, "bike_id": "5f6fd4ad1aa09895ad1bb345c93d498b", "lat": 38.90336933333333, "fusion_lon": 0.0, "fusion_lat": 0.0, "type": "electric_scooter", "name": "5f6fd4ad1aa09895ad1bb345c93d498b", "is_disabled": 0, "rental_uris": {"ios": "https://dc.lft.to/lastmile_qr_scan", "android": "https://dc.lft.to/lastmile_qr_scan"}, "is_reserved": 0}, {"lon": -77.04365533333333, "bike_id": "493660db56763d2dfbc6a146bb442ea0", "lat": 38.921479166666664, "fusion_lon": 0.0, "fusion_lat": 0.0, "type": "electric_scooter", "name": "493660db56763d2dfbc6a146bb442ea0", "is_disabled": 0, "rental_uris": {"ios": "https://dc.lft.to/lastmile_qr_scan", "android": "https://dc.lft.to/lastmile_qr_scan"}, "is_reserved": 0}, {"lon": -77.04173833333333, "bike_id": "e08fca99efe0199ef4d2645b403562a0", "lat": 38.917894, "fusion_lon": 0.0, "fusion_lat": 0.0, "type": "electric_scooter", "name": "e08fca99efe0199ef4d2645b403562a0", "is_disabled": 0, "rental_uris": {"ios": "https://dc.lft.to/lastmile_qr_scan", "android": "https://dc.lft.to/lastmile_qr_scan"}, "is_reserved": 0}, {"lon": -77.02116333333333, "bike_id": "400cd3b849651d0bc2f2e1f8f20ae145", "lat": 38.93701083333333, "fusion_lon": 0.0, "fusion_lat": 0.0, "type": "electric_scooter", "name": "400cd3b849651d0bc2f2e1f8f20ae145", "is_disabled": 0, "rental_uris": {"ios": "https://dc.lft.to/lastmile_qr_scan", "android": "https://dc.lft.to/lastmile_qr_scan"}, "is_reserved": 0}, {"lon": -77.02978266666666, "bike_id": "c412fa4c4c2ff2a0adfa99b86d8372c1", "lat": 38.932485666666665, "fusion_lon": 0.0, "fusion_lat": 0.0, "type": "electric_scooter", "name": "c412fa4c4c2ff2a0adfa99b86d8372c1", "is_disabled": 0, "rental_uris": {"ios": "https://dc.lft.to/lastmile_qr_scan", "android": "https://dc.lft.to/lastmile_qr_scan"}, "is_reserved": 0}, {"lon": -77.00835966666666, "bike_id": "f58b1ab82d4f63fda92d0c242ccc8114", "lat": 38.87899, "fusion_lon": 0.0, "fusion_lat": 0.0, "type": "electric_scooter", "name": "f58b1ab82d4f63fda92d0c242ccc8114", "is_disabled": 0, "rental_uris": {"ios": "https://dc.lft.to/lastmile_qr_scan", "android": "https://dc.lft.to/lastmile_qr_scan"}, "is_reserved": 0}, {"lon": -77.041111, "bike_id": "00545530f2fec5db291052d61518a03f", "lat": 38.924516833333335, "fusion_lon": 0.0, "fusion_lat": 0.0, "type": "electric_scooter", "name": "00545530f2fec5db291052d61518a03f", "is_disabled": 0, "rental_uris": {"ios": "https://dc.lft.to/lastmile_qr_scan", "android": "https://dc.lft.to/lastmile_qr_scan"}, "is_reserved": 0}, {"lon": -77.0244755, "bike_id": "5560e18fb2ce230fd571169c030c7a0e", "lat": 38.91409683333333, "fusion_lon": 0.0, "fusion_lat": 0.0, "type": "electric_scooter", "name": "5560e18fb2ce230fd571169c030c7a0e", "is_disabled": 0, "rental_uris": {"ios": "https://dc.lft.to/lastmile_qr_scan", "android": "https://dc.lft.to/lastmile_qr_scan"}, "is_reserved": 0}, {"lon": -77.03823033333333, "bike_id": "03ea15147df24e8a62033122b93802f4", "lat": 38.91028683333333, "fusion_lon": 0.0, "fusion_lat": 0.0, "type": "electric_scooter", "name": "03ea15147df24e8a62033122b93802f4", "is_disabled": 0, "rental_uris": {"ios": "https://dc.lft.to/lastmile_qr_scan", "android": "https://dc.lft.to/lastmile_qr_scan"}, "is_reserved": 0}, {"lon": -76.98353, "bike_id": "90e99029cd2d7ee354825e66f1b66f94", "lat": 38.862604, "fusion_lon": 0.0, "fusion_lat": 0.0, "type": "electric_bike", "name": "90e99029cd2d7ee354825e66f1b66f94", "is_disabled": 0, "rental_uris": {"ios": "https://dc.lft.to/lastmile_qr_scan", "android": "https://dc.lft.to/lastmile_qr_scan"}, "is_reserved": 0}, {"lon": -77.010941, "bike_id": "5568f74fe8a31261918834515ff3f88b", "lat": 38.90362, "fusion_lon": 0.0, "fusion_lat": 0.0, "type": "electric_scooter", "name": "5568f74fe8a31261918834515ff3f88b", "is_disabled": 0, "rental_uris": {"ios": "https://dc.lft.to/lastmile_qr_scan", "android": "https://dc.lft.to/lastmile_qr_scan"}, "is_reserved": 0}, {"lon": -77.0007295, "bike_id": "672cc5241d6633ee7c817d4f35258435", "lat": 38.899948333333334, "fusion_lon": 0.0, "fusion_lat": 0.0, "type": "electric_scooter", "name": "672cc5241d6633ee7c817d4f35258435", "is_disabled": 0, "rental_uris": {"ios": "https://dc.lft.to/lastmile_qr_scan", "android": "https://dc.lft.to/lastmile_qr_scan"}, "is_reserved": 0}, {"lon": -77.036062, "bike_id": "39138c23a6990a9d4e086c24141f936b", "lat": 38.92851183333333, "fusion_lon": 0.0, "fusion_lat": 0.0, "type": "electric_scooter", "name": "39138c23a6990a9d4e086c24141f936b", "is_disabled": 0, "rental_uris": {"ios": "https://dc.lft.to/lastmile_qr_scan", "android": "https://dc.lft.to/lastmile_qr_scan"}, "is_reserved": 0}, {"lon": -77.04379783333333, "bike_id": "2834d4818859605fb87c05c65caaa27f", "lat": 38.918714, "fusion_lon": 0.0, "fusion_lat": 0.0, "type": "electric_scooter", "name": "2834d4818859605fb87c05c65caaa27f", "is_disabled": 0, "rental_uris": {"ios": "https://dc.lft.to/lastmile_qr_scan", "android": "https://dc.lft.to/lastmile_qr_scan"}, "is_reserved": 0}, {"lon": -77.0486935, "bike_id": "3a3714e90ffb937eb09a874cd4d3898b", "lat": 38.91620416666667, "fusion_lon": 0.0, "fusion_lat": 0.0, "type": "electric_scooter", "name": "3a3714e90ffb937eb09a874cd4d3898b", "is_disabled": 0, "rental_uris": {"ios": "https://dc.lft.to/lastmile_qr_scan", "android": "https://dc.lft.to/lastmile_qr_scan"}, "is_reserved": 0}, {"lon": -76.98848333333333, "bike_id": "7061dbd280c8c808a865350b0a84fde5", "lat": 38.901277, "fusion_lon": 0.0, "fusion_lat": 0.0, "type": "electric_scooter", "name": "7061dbd280c8c808a865350b0a84fde5", "is_disabled": 0, "rental_uris": {"ios": "https://dc.lft.to/lastmile_qr_scan", "android": "https://dc.lft.to/lastmile_qr_scan"}, "is_reserved": 0}, {"lon": -77.0355015, "bike_id": "88c94c0d266ccb0aecda2b34a05ae0e3", "lat": 38.9241425, "fusion_lon": 0.0, "fusion_lat": 0.0, "type": "electric_scooter", "name": "88c94c0d266ccb0aecda2b34a05ae0e3", "is_disabled": 0, "rental_uris": {"ios": "https://dc.lft.to/lastmile_qr_scan", "android": "https://dc.lft.to/lastmile_qr_scan"}, "is_reserved": 0}, {"lon": -77.025088, "bike_id": "03e5452303235ca5d74bb1a748e9e6b5", "lat": 38.920525166666664, "fusion_lon": 0.0, "fusion_lat": 0.0, "type": "electric_scooter", "name": "03e5452303235ca5d74bb1a748e9e6b5", "is_disabled": 0, "rental_uris": {"ios": "https://dc.lft.to/lastmile_qr_scan", "android": "https://dc.lft.to/lastmile_qr_scan"}, "is_reserved": 0}, {"lon": -76.97731116666667, "bike_id": "a87290ca479aff63c15c89bc8bda1970", "lat": 38.8646715, "fusion_lon": 0.0, "fusion_lat": 0.0, "type": "electric_scooter", "name": "a87290ca479aff63c15c89bc8bda1970", "is_disabled": 0, "rental_uris": {"ios": "https://dc.lft.to/lastmile_qr_scan", "android": "https://dc.lft.to/lastmile_qr_scan"}, "is_reserved": 0}, {"lon": -77.01929783333334, "bike_id": "6b9585697bc7637c464a47ae25fc8b67", "lat": 38.89440183333333, "fusion_lon": 0.0, "fusion_lat": 0.0, "type": "electric_scooter", "name": "6b9585697bc7637c464a47ae25fc8b67", "is_disabled": 0, "rental_uris": {"ios": "https://dc.lft.to/lastmile_qr_scan", "android": "https://dc.lft.to/lastmile_qr_scan"}, "is_reserved": 0}, {"lon": -77.0280895, "bike_id": "b0f52105de7034287a878b9efc3694ae", "lat": 38.930815, "fusion_lon": 0.0, "fusion_lat": 0.0, "type": "electric_scooter", "name": "b0f52105de7034287a878b9efc3694ae", "is_disabled": 0, "rental_uris": {"ios": "https://dc.lft.to/lastmile_qr_scan", "android": "https://dc.lft.to/lastmile_qr_scan"}, "is_reserved": 0}, {"lon": -77.0199865, "bike_id": "8b9d53f0aecc31391d35c1d05ee201ab", "lat": 38.91362633333333, "fusion_lon": 0.0, "fusion_lat": 0.0, "type": "electric_scooter", "name": "8b9d53f0aecc31391d35c1d05ee201ab", "is_disabled": 0, "rental_uris": {"ios": "https://dc.lft.to/lastmile_qr_scan", "android": "https://dc.lft.to/lastmile_qr_scan"}, "is_reserved": 0}, {"lon": -77.029864, "bike_id": "9c29ab28d15773083bfbf1a8bd5edb64", "lat": 38.92470566666667, "fusion_lon": 0.0, "fusion_lat": 0.0, "type": "electric_scooter", "name": "9c29ab28d15773083bfbf1a8bd5edb64", "is_disabled": 0, "rental_uris": {"ios": "https://dc.lft.to/lastmile_qr_scan", "android": "https://dc.lft.to/lastmile_qr_scan"}, "is_reserved": 0}, {"lon": -76.99957483333333, "bike_id": "f63b4fc615abce91718b7f525347df26", "lat": 38.904057333333334, "fusion_lon": 0.0, "fusion_lat": 0.0, "type": "electric_scooter", "name": "f63b4fc615abce91718b7f525347df26", "is_disabled": 0, "rental_uris": {"ios": "https://dc.lft.to/lastmile_qr_scan", "android": "https://dc.lft.to/lastmile_qr_scan"}, "is_reserved": 0}, {"lon": -77.023941, "bike_id": "b05db99e08fefa78bef8a1ee12ed7eec", "lat": 38.90415333333333, "fusion_lon": 0.0, "fusion_lat": 0.0, "type": "electric_scooter", "name": "b05db99e08fefa78bef8a1ee12ed7eec", "is_disabled": 0, "rental_uris": {"ios": "https://dc.lft.to/lastmile_qr_scan", "android": "https://dc.lft.to/lastmile_qr_scan"}, "is_reserved": 0}, {"lon": -77.101242, "bike_id": "737a3d939312d0b8bf8f1e1c6377aab5", "lat": 38.8521045, "fusion_lon": 0.0, "fusion_lat": 0.0, "type": "electric_bike", "name": "737a3d939312d0b8bf8f1e1c6377aab5", "is_disabled": 0, "rental_uris": {"ios": "https://dc.lft.to/lastmile_qr_scan", "android": "https://dc.lft.to/lastmile_qr_scan"}, "is_reserved": 0}, {"lon": -76.95746066666666, "bike_id": "7c3ebb06a5b50d84c2e1bcb4693e249f", "lat": 38.884309333333334, "fusion_lon": 0.0, "fusion_lat": 0.0, "type": "electric_scooter", "name": "7c3ebb06a5b50d84c2e1bcb4693e249f", "is_disabled": 0, "rental_uris": {"ios": "https://dc.lft.to/lastmile_qr_scan", "android": "https://dc.lft.to/lastmile_qr_scan"}, "is_reserved": 0}, {"lon": -77.02964616666667, "bike_id": "396bd9561af1f7b07ef3a4da418fac83", "lat": 38.92489333333333, "fusion_lon": 0.0, "fusion_lat": 0.0, "type": "electric_scooter", "name": "396bd9561af1f7b07ef3a4da418fac83", "is_disabled": 0, "rental_uris": {"ios": "https://dc.lft.to/lastmile_qr_scan", "android": "https://dc.lft.to/lastmile_qr_scan"}, "is_reserved": 0}, {"lon": -77.086835, "bike_id": "7550b8581012be2993ad97749c5a9ee9", "lat": 38.87393683333333, "fusion_lon": 0.0, "fusion_lat": 0.0, "type": "electric_bike", "name": "7550b8581012be2993ad97749c5a9ee9", "is_disabled": 0, "rental_uris": {"ios": "https://dc.lft.to/lastmile_qr_scan", "android": "https://dc.lft.to/lastmile_qr_scan"}, "is_reserved": 0}, {"lon": -77.0250745, "bike_id": "875598a141ff45458f5b3e0c90d24deb", "lat": 38.9264185, "fusion_lon": 0.0, "fusion_lat": 0.0, "type": "electric_scooter", "name": "875598a141ff45458f5b3e0c90d24deb", "is_disabled": 0, "rental_uris": {"ios": "https://dc.lft.to/lastmile_qr_scan", "android": "https://dc.lft.to/lastmile_qr_scan"}, "is_reserved": 0}, {"lon": -77.02839633333333, "bike_id": "10795c3c2e7ccda4ba9cfcd4dcd976f1", "lat": 38.9257385, "fusion_lon": 0.0, "fusion_lat": 0.0, "type": "electric_scooter", "name": "10795c3c2e7ccda4ba9cfcd4dcd976f1", "is_disabled": 0, "rental_uris": {"ios": "https://dc.lft.to/lastmile_qr_scan", "android": "https://dc.lft.to/lastmile_qr_scan"}, "is_reserved": 0}, {"lon": -77.0416335, "bike_id": "1162967fd26d5e697987fb2bdea98187", "lat": 38.914888833333336, "fusion_lon": 0.0, "fusion_lat": 0.0, "type": "electric_scooter", "name": "1162967fd26d5e697987fb2bdea98187", "is_disabled": 0, "rental_uris": {"ios": "https://dc.lft.to/lastmile_qr_scan", "android": "https://dc.lft.to/lastmile_qr_scan"}, "is_reserved": 0}, {"lon": -77.03918233333333, "bike_id": "89a45cd6deb931ae679b39ac11cbbaf3", "lat": 38.925704, "fusion_lon": 0.0, "fusion_lat": 0.0, "type": "electric_scooter", "name": "89a45cd6deb931ae679b39ac11cbbaf3", "is_disabled": 0, "rental_uris": {"ios": "https://dc.lft.to/lastmile_qr_scan", "android": "https://dc.lft.to/lastmile_qr_scan"}, "is_reserved": 0}, {"lon": -77.02766966666667, "bike_id": "29f9126578a106753ef1819c3c4fe248", "lat": 38.934559, "fusion_lon": 0.0, "fusion_lat": 0.0, "type": "electric_scooter", "name": "29f9126578a106753ef1819c3c4fe248", "is_disabled": 0, "rental_uris": {"ios": "https://dc.lft.to/lastmile_qr_scan", "android": "https://dc.lft.to/lastmile_qr_scan"}, "is_reserved": 0}, {"lon": -77.16620783333333, "bike_id": "2bd4567d2c2b74f065e126c4e9bd4925", "lat": 38.888368, "fusion_lon": 0.0, "fusion_lat": 0.0, "type": "electric_bike", "name": "2bd4567d2c2b74f065e126c4e9bd4925", "is_disabled": 0, "rental_uris": {"ios": "https://dc.lft.to/lastmile_qr_scan", "android": "https://dc.lft.to/lastmile_qr_scan"}, "is_reserved": 0}, {"lon": -77.0434015, "bike_id": "2272fdb0795b40344e4cf2c1144ff4ec", "lat": 38.90566966666667, "fusion_lon": 0.0, "fusion_lat": 0.0, "type": "electric_scooter", "name": "2272fdb0795b40344e4cf2c1144ff4ec", "is_disabled": 0, "rental_uris": {"ios": "https://dc.lft.to/lastmile_qr_scan", "android": "https://dc.lft.to/lastmile_qr_scan"}, "is_reserved": 0}, {"lon": -77.04660883333334, "bike_id": "b07b1fc87a557c98f1e48207e357563d", "lat": 38.907785833333335, "fusion_lon": 0.0, "fusion_lat": 0.0, "type": "electric_scooter", "name": "b07b1fc87a557c98f1e48207e357563d", "is_disabled": 0, "rental_uris": {"ios": "https://dc.lft.to/lastmile_qr_scan", "android": "https://dc.lft.to/lastmile_qr_scan"}, "is_reserved": 0}, {"lon": -76.9952165, "bike_id": "478a1cadd4e879a44b39341c87575a75", "lat": 38.8917155, "fusion_lon": 0.0, "fusion_lat": 0.0, "type": "electric_scooter", "name": "478a1cadd4e879a44b39341c87575a75", "is_disabled": 0, "rental_uris": {"ios": "https://dc.lft.to/lastmile_qr_scan", "android": "https://dc.lft.to/lastmile_qr_scan"}, "is_reserved": 0},