{"data": {"bikes": [{"bike_id": "e83dfb249fc66ccb3ed785187a45f3c7", "fusion_lon": 0.0, "lon": -77.04493166666667, "name": "e83dfb249fc66ccb3ed785187a45f3c7", "is_disabled": 0, "rental_uris": {"android": "https://dc.lft.to/lastmile_qr_scan", "ios": "https://dc.lft.to/lastmile_qr_scan"}, "type": "electric_scooter", "lat": 38.913689833333336, "is_reserved": 0, "fusion_lat": 0.0}, {"bike_id": "37fd04b9fb39d8434a713042baee4e94", "fusion_lon": 0.0, "lon": -76.98882183333333, "name": "37fd04b9fb39d8434a713042baee4e94", "is_disabled": 0, "rental_uris": {"android": "https://dc.lft.to/lastmile_qr_scan", "ios": "https://dc.lft.to/lastmile_qr_scan"}, "type": "electric_scooter", "lat": 38.86655, "is_reserved": 0, "fusion_lat": 0.0}, {"bike_id": "0ff745597a98b471abc6f6d25ca4b3a0", "fusion_lon": 0.0, "lon": -77.01287183333334, "name": "0ff745597a98b471abc6f6d25ca4b3a0", "is_disabled": 0, "rental_uris": {"android": "https://dc.lft.to/lastmile_qr_scan", "ios": "https://dc.lft.to/lastmile_qr_scan"}, "type": "electric_bike", "lat": 38.87177966666667, "is_reserved": 0, "fusion_lat": 0.0}, {"bike_id": "99fd7e32369f8afe85fa534dc3c5be17", "fusion_lon": 0.0, "lon": -77.0280815, "name": "99fd7e32369f8afe85fa534dc3c5be17", "is_disabled": 0, "rental_uris": {"android": "https://dc.lft.to/lastmile_qr_scan", "ios": "https://dc.lft.to/lastmile_qr_scan"}, "type": "electric_scooter", "lat": 38.93077733333333, "is_reserved": 0, "fusion_lat": 0.0}, {"bike_id": "f1825f65c7bbd1b4697be5892f2c3d06", "fusion_lon": 0.0, "lon": -77.04617033333334, "name": "f1825f65c7bbd1b4697be5892f2c3d06", "is_disabled": 0, "rental_uris": {"android": "https://dc.lft.to/lastmile_qr_scan", "ios": "https://dc.lft.to/lastmile_qr_scan"}, "type": "electric_scooter", "lat": 38.909606833333335, "is_reserved": 0, "fusion_lat": 0.0}, {"bike_id": "b37f2ce80d8541cc2ac96181f0c3f15a", "fusion_lon": 0.0, "lon": -77.00304683333333, "name": "b37f2ce80d8541cc2ac96181f0c3f15a", "is_disabled": 0, "rental_uris": {"android": "https://dc.lft.to/lastmile_qr_scan", "ios": "https://dc.lft.to/lastmile_qr_scan"}, "type": "electric_scooter", "lat": 38.89225866666666, "is_reserved": 0, "fusion_lat": 0.0}, {"bike_id": "c836fa99aa157fe25812136386f7dfa3", "fusion_lon": 0.0, "lon": -77.05118016666667, "name": "c836fa99aa157fe25812136386f7dfa3", "is_disabled": 0, "rental_uris": {"android": "https://dc.lft.to/lastmile_qr_scan", "ios": "https://dc.lft.to/lastmile_qr_scan"}, "type": "electric_scooter", "lat": 38.9051185, "is_reserved": 0, "fusion_lat": 0.0}, {"bike_id": "94ace98de9d264d48a9008a7e80b8871", "fusion_lon": 0.0, "lon": -76.99091183333333, "name": "94ace98de9d264d48a9008a7e80b8871", "is_disabled": 0, "rental_uris": {"android": "https://dc.lft.to/lastmile_qr_scan", "ios": "https://dc.lft.to/lastmile_qr_scan"}, "type": "electric_scooter", "lat": 38.8823525, "is_reserved": 0, "fusion_lat": 0.0}, {"bike_id": "84b93f9bbbe9ddd039543d1ba0bdd888", "fusion_lon": 0.0, "lon": -77.021606, "name": "84b93f9bbbe9ddd039543d1ba0bdd888", "is_disabled": 0, "rental_uris": {"android": "https://dc.lft.to/lastmile_qr_scan", "ios": "https://dc.lft.to/lastmile_qr_scan"}, "type": "electric_scooter", "lat": 38.92608633333333, "is_reserved": 0, "fusion_lat": 0.0}, {"bike_id": "05e5c4559258dd089f2042e4ea56b895", "fusion_lon": 0.0, "lon": -77.05583966666667, "name": "05e5c4559258dd089f2042e4ea56b895", "is_disabled": 0, "rental_uris": {"android": "https://dc.lft.to/lastmile_qr_scan", "ios": "https://dc.lft.to/lastmile_qr_scan"}, "type": "electric_scooter", "lat": 38.89325066666667, "is_reserved": 0, "fusion_lat": 0.0}, {"bike_id": "94166dd19f9a3a9ae7902692f3fcfd4c", "fusion_lon": 0.0, "lon": -77.0218585, "name": "94166dd19f9a3a9ae7902692f3fcfd4c", "is_disabled": 0, "rental_uris": {"android": "https://dc.lft.to/lastmile_qr_scan", "ios": "https://dc.lft.to/lastmile_qr_scan"}, "type": "electric_scooter", "lat": 38.894740166666665, "is_reserved": 0, "fusion_lat": 0.0}, {"bike_id": "5f66fbd43e440cd41b8373e2840479ee", "fusion_lon": 0.0, "lon": -76.98543283333333, "name": "5f66fbd43e440cd41b8373e2840479ee", "is_disabled": 0, "rental_uris": {"android": "https://dc.lft.to/lastmile_qr_scan", "ios": "https://dc.lft.to/lastmile_qr_scan"}, "type": "electric_scooter", "lat": 38.8799415, "is_reserved": 0, "fusion_lat": 0.0}, {"bike_id": "94eef3b61dc45d989d4ff7d062dfec31", "fusion_lon": 0.0, "lon": -76.99612216666667, "name": "94eef3b61dc45d989d4ff7d062dfec31", "is_disabled": 0, "rental_uris": {"android": "https://dc.lft.to/lastmile_qr_scan", "ios": "https://dc.lft.to/lastmile_qr_scan"}, "type": "electric_scooter", "lat": 38.90061516666667, "is_reserved": 0, "fusion_lat": 0.0}, {"bike_id": "8abad8d869ec339b6ea48181c4ac373a", "fusion_lon": 0.0, "lon": -76.9721515, "name": "8abad8d869ec339b6ea48181c4ac373a", "is_disabled": 0, "rental_uris": {"android": "https://dc.lft.to/lastmile_qr_scan", "ios": "https://dc.lft.to/lastmile_qr_scan"}, "type": "electric_scooter", "lat": 38.897975833333334, "is_reserved": 0, "fusion_lat": 0.0}, {"bike_id": "c15d1b33a2fd3e2a2c29244d8f4be600", "fusion_lon": 0.0, "lon": -77.052103, "name": "c15d1b33a2fd3e2a2c29244d8f4be600", "is_disabled": 0, "rental_uris": {"android": "https://dc.lft.to/lastmile_qr_scan", "ios": "https://dc.lft.to/lastmile_qr_scan"}, "type": "electric_scooter", "lat": 38.924329666666665, "is_reserved": 0, "fusion_lat": 0.0}, {"bike_id": "29fbc2cf54f74adc6ffc630c60167d90", "fusion_lon": 0.0, "lon": -77.04151566666667, "name": "29fbc2cf54f74adc6ffc630c60167d90", "is_disabled": 0, "rental_uris": {"android": "https://dc.lft.to/lastmile_qr_scan", "ios": "https://dc.lft.to/lastmile_qr_scan"}, "type": "electric_scooter", "lat": 38.91592033333333, "is_reserved": 0, "fusion_lat": 0.0}, {"bike_id": "7d470a62595812e9b8ecf8895c48da53", "fusion_lon": 0.0, "lon": -77.05212333333333, "name": "7d470a62595812e9b8ecf8895c48da53", "is_disabled": 0, "rental_uris": {"android": "https://dc.lft.to/lastmile_qr_scan", "ios": "https://dc.lft.to/lastmile_qr_scan"}, "type": "electric_scooter", "lat": 38.92492583333333, "is_reserved": 0, "fusion_lat": 0.0}, {"bike_id": "6fee9c5558f5d1c02bac8f5cece8a60c", "fusion_lon": 0.0, "lon": -77.0092165, "name": "6fee9c5558f5d1c02bac8f5cece8a60c", "is_disabled": 0, "rental_uris": {"android": "https://dc.lft.to/lastmile_qr_scan", "ios": "https://dc.lft.to/lastmile_qr_scan"}, "type": "electric_scooter", "lat": 38.82782183333333, "is_reserved": 0, "fusion_lat": 0.0}, {"bike_id": "e15c1f0708ab33eb40fd12a9839841f5", "fusion_lon": 0.0, "lon": -77.03077283333333, "name": "e15c1f0708ab33eb40fd12a9839841f5", "is_disabled": 0, "rental_uris": {"android": "https://dc.lft.to/lastmile_qr_scan", "ios": "https://dc.lft.to/lastmile_qr_scan"}, "type": "electric_scooter", "lat": 38.91107916666667, "is_reserved": 0, "fusion_lat": 0.0}, {"bike_id": "6b085a691aa25d6d20dce7377a5295d0", "fusion_lon": 0.0, "lon": -76.9981405, "name": "6b085a691aa25d6d20dce7377a5295d0", "is_disabled": 0, "rental_uris": {"android": "https://dc.lft.to/lastmile_qr_scan", "ios": "https://dc.lft.to/lastmile_qr_scan"}, "type": "electric_bike", "lat": 38.91012533333333, "is_reserved": 0, "fusion_lat": 0.0}, {"bike_id": "f393c7b2bb56b2ce1704561eced731d9", "fusion_lon": 0.0, "lon": -77.00590883333334, "name": "f393c7b2bb56b2ce1704561eced731d9", "is_disabled": 0, "rental_uris": {"android": "https://dc.lft.to/lastmile_qr_scan", "ios": "https://dc.lft.to/lastmile_qr_scan"}, "type": "electric_scooter", "lat": 38.90650516666667, "is_reserved": 0, "fusion_lat": 0.0}, {"bike_id": "515a2212787d431dace80bf0deb30dbc", "fusion_lon": 0.0, "lon": -76.9949455, "name": "515a2212787d431dace80bf0deb30dbc", "is_disabled": 0, "rental_uris": {"android": "https://dc.lft.to/lastmile_qr_scan", "ios": "https://dc.lft.to/lastmile_qr_scan"}, "type": "electric_scooter", "lat": 38.89157933333333, "is_reserved": 0, "fusion_lat": 0.0}, {"bike_id": "32bc1dd3368cea1a9c1265806b28aaf8", "fusion_lon": 0.0, "lon": -77.0318395, "name": "32bc1dd3368cea1a9c1265806b28aaf8", "is_disabled": 0, "rental_uris": {"android": "https://dc.lft.to/lastmile_qr_scan", "ios": "https://dc.lft.to/lastmile_qr_scan"}, "type": "electric_scooter", "lat": 38.92481466666667, "is_reserved": 0, "fusion_lat": 0.0}, {"bike_id": "c7480aaf5423330b146e09b2de6bef68", "fusion_lon": 0.0, "lon": -77.02899516666666, "name": "c7480aaf5423330b146e09b2de6bef68", "is_disabled": 0, "rental_uris": {"android": "https://dc.lft.to/lastmile_qr_scan", "ios": "https://dc.lft.to/lastmile_qr_scan"}, "type": "electric_scooter", "lat": 38.9281505, "is_reserved": 0, "fusion_lat": 0.0}, {"bike_id": "11f9962a48c1b3eab231a7eec3ab8e90", "fusion_lon": 0.0, "lon": -77.02169833333333, "name": "11f9962a48c1b3eab231a7eec3ab8e90", "is_disabled": 0, "rental_uris": {"android": "https://dc.lft.to/lastmile_qr_scan", "ios": "https://dc.lft.to/lastmile_qr_scan"}, "type": "electric_scooter", "lat": 38.942889666666666, "is_reserved": 0, "fusion_lat": 0.0}, {"bike_id": "08acb3705e78bfbfadb19a28c1e131d7", "fusion_lon": 0.0, "lon": -76.98088633333333, "name": "08acb3705e78bfbfadb19a28c1e131d7", "is_disabled": 0, "rental_uris": {"android": "https://dc.lft.to/lastmile_qr_scan", "ios": "https://dc.lft.to/lastmile_qr_scan"}, "type": "electric_bike", "lat": 38.953510333333334, "is_reserved": 0, "fusion_lat": 0.0}, {"bike_id": "15a4426297f03f992812fef2f896b865", "fusion_lon": 0.0, "lon": -77.02763233333333, "name": "15a4426297f03f992812fef2f896b865", "is_disabled": 0, "rental_uris": {"android": "https://dc.lft.to/lastmile_qr_scan", "ios": "https://dc.lft.to/lastmile_qr_scan"}, "type": "electric_scooter", "lat": 38.9542595, "is_reserved": 0, "fusion_lat": 0.0}, {"bike_id": "496a7cce459b957d2c7705f5271687bb", "fusion_lon": 0.0, "lon": -77.02816416666667, "name": "496a7cce459b957d2c7705f5271687bb", "is_disabled": 0, "rental_uris": {"android": "https://dc.lft.to/lastmile_qr_scan", "ios": "https://dc.lft.to/lastmile_qr_scan"}, "type": "electric_scooter", "lat": 38.93170833333333, "is_reserved": 0, "fusion_lat": 0.0}, {"bike_id": "1de271fd220efbbae8643b8183e7659b", "fusion_lon": 0.0, "lon": -77.042627, "name": "1de271fd220efbbae8643b8183e7659b", "is_disabled": 0, "rental_uris": {"android": "https://dc.lft.to/lastmile_qr_scan", "ios": "https://dc.lft.to/lastmile_qr_scan"}, "type": "electric_scooter", "lat": 38.90853083333333, "is_reserved": 0, "fusion_lat": 0.0}, {"bike_id": "7c0e49a1783b99ad8d51e90c1864a097", "fusion_lon": 0.0, "lon": -77.01534666666667, "name": "7c0e49a1783b99ad8d51e90c1864a097", "is_disabled": 0, "rental_uris": {"android": "https://dc.lft.to/lastmile_qr_scan", "ios": "https://dc.lft.to/lastmile_qr_scan"}, "type": "electric_scooter", "lat": 38.8873885, "is_reserved": 0, "fusion_lat": 0.0}, {"bike_id": "5575435228e4d078682af530731e8516", "fusion_lon": 0.0, "lon": -77.04788533333334, "name": "5575435228e4d078682af530731e8516", "is_disabled": 0, "rental_uris": {"android": "https://dc.lft.to/lastmile_qr_scan", "ios": "https://dc.lft.to/lastmile_qr_scan"}, "type": "electric_scooter", "lat": 38.8936795, "is_reserved": 0, "fusion_lat": 0.0}, {"bike_id": "0860fb4008db04b8804a01c4000ebac8", "fusion_lon": 0.0, "lon": -77.02006466666667, "name": "0860fb4008db04b8804a01c4000ebac8", "is_disabled": 0, "rental_uris": {"android": "https://dc.lft.to/lastmile_qr_scan", "ios": "https://dc.lft.to/lastmile_qr_scan"}, "type": "electric_scooter", "lat": 38.92411966666667, "is_reserved": 0, "fusion_lat": 0.0}, {"bike_id": "12c7fad2a01c8c34da2225294f9f53dd", "fusion_lon": 0.0, "lon": -76.9652305, "name": "12c7fad2a01c8c34da2225294f9f53dd", "is_disabled": 0, "rental_uris": {"android": "https://dc.lft.to/lastmile_qr_scan", "ios": "https://dc.lft.to/lastmile_qr_scan"}, "type": "electric_scooter", "lat": 38.87624566666667, "is_reserved": 0, "fusion_lat": 0.0}, {"bike_id": "b341c9dd064288aff56e834ade9bd511", "fusion_lon": 0.0, "lon": -77.04393333333333, "name": "b341c9dd064288aff56e834ade9bd511", "is_disabled": 0, "rental_uris": {"android": "https://dc.lft.to/lastmile_qr_scan", "ios": "https://dc.lft.to/lastmile_qr_scan"}, "type": "electric_scooter", "lat": 38.91405066666667, "is_reserved": 0, "fusion_lat": 0.0}, {"bike_id": "88fd9b5e9669f5db2e198ef8df4a3323", "fusion_lon": 0.0, "lon": -76.98577316666666, "name": "88fd9b5e9669f5db2e198ef8df4a3323", "is_disabled": 0, "rental_uris": {"android": "https://dc.lft.to/lastmile_qr_scan", "ios": "https://dc.lft.to/lastmile_qr_scan"}, "type": "electric_scooter", "lat": 38.854442, "is_reserved": 0, "fusion_lat": 0.0}, {"bike_id": "b7dbac99c84d6af69b6d633bbbcae628", "fusion_lon": 0.0, "lon": -77.026279, "name": "b7dbac99c84d6af69b6d633bbbcae628", "is_disabled": 0, "rental_uris": {"android": "https://dc.lft.to/lastmile_qr_scan", "ios": "https://dc.lft.to/lastmile_qr_scan"}, "type": "electric_bike", "lat": 38.962199166666664, "is_reserved": 0, "fusion_lat": 0.0}, {"bike_id": "0ec28e148c7939a4c5a0a44910160d9a", "fusion_lon": 0.0, "lon": -76.93134166666667, "name": "0ec28e148c7939a4c5a0a44910160d9a", "is_disabled": 0, "rental_uris": {"android": "https://dc.lft.to/lastmile_qr_scan", "ios": "https://dc.lft.to/lastmile_qr_scan"}, "type": "electric_scooter", "lat": 38.893390833333335, "is_reserved": 0, "fusion_lat": 0.0}, {"bike_id": "81abd48f1465d659597eb065aad767ed", "fusion_lon": 0.0, "lon": -77.04399783333334, "name": "81abd48f1465d659597eb065aad767ed", "is_disabled": 0, "rental_uris": {"android": "https://dc.lft.to/lastmile_qr_scan", "ios": "https://dc.lft.to/lastmile_qr_scan"}, "type": "electric_scooter", "lat": 38.920693166666666, "is_reserved": 0, "fusion_lat": 0.0}, {"bike_id": "d4af0273348bd7cced87753993878788", "fusion_lon": 0.0, "lon": -77.03286366666667, "name": "d4af0273348bd7cced87753993878788", "is_disabled": 0, "rental_uris": {"android": "https://dc.lft.to/lastmile_qr_scan", "ios": "https://dc.lft.to/lastmile_qr_scan"}, "type": "electric_scooter", "lat": 38.92937583333333, "is_reserved": 0, "fusion_lat": 0.0}, {"bike_id": "2b0dbe297f080acdfa2b5493b5069174", "fusion_lon": 0.0, "lon": -77.04338316666667, "name": "2b0dbe297f080acdfa2b5493b5069174", "is_disabled": 0, "rental_uris": {"android": "https://dc.lft.to/lastmile_qr_scan", "ios": "https://dc.lft.to/lastmile_qr_scan"}, "type": "electric_scooter", "lat": 38.9033965, "is_reserved": 0, "fusion_lat": 0.0}, {"bike_id": "e0cd1be9580723d16e585e65a5c3666a", "fusion_lon": 0.0, "lon": -77.01779066666667, "name": "e0cd1be9580723d16e585e65a5c3666a", "is_disabled": 0, "rental_uris": {"android": "https://dc.lft.to/lastmile_qr_scan", "ios": "https://dc.lft.to/lastmile_qr_scan"}, "type": "electric_scooter", "lat": 38.90781283333333, "is_reserved": 0, "fusion_lat": 0.0}, {"bike_id": "a65346d768ba365a9736404befc0b7e1", "fusion_lon": 0.0, "lon": -77.02474366666667, "name": "a65346d768ba365a9736404befc0b7e1", "is_disabled": 0, "rental_uris": {"android": "https://dc.lft.to/lastmile_qr_scan", "ios": "https://dc.lft.to/lastmile_qr_scan"}, "type": "electric_scooter", "lat": 38.918122, "is_reserved": 0, "fusion_lat": 0.0}, {"bike_id": "79b86a80522805f97409e745ece1bc26", "fusion_lon": 0.0, "lon": -77.02360066666667, "name": "79b86a80522805f97409e745ece1bc26", "is_disabled": 0, "rental_uris": {"android": "https://dc.lft.to/lastmile_qr_scan", "ios": "https://dc.lft.to/lastmile_qr_scan"}, "type": "electric_scooter", "lat": 38.92511833333333, "is_reserved": 0, "fusion_lat": 0.0}, {"bike_id": "301f7cf1358d56db807c9866953fd107", "fusion_lon": 0.0, "lon": -77.03568, "name": "301f7cf1358d56db807c9866953fd107", "is_disabled": 0, "rental_uris": {"android": "https://dc.lft.to/lastmile_qr_scan", "ios": "https://dc.lft.to/lastmile_qr_scan"}, "type": "electric_scooter", "lat": 38.90836433333333, "is_reserved": 0, "fusion_lat": 0.0}, {"bike_id": "1eb183a91f8f3812cf208db2add4ae0c", "fusion_lon": 0.0, "lon": -77.0819045, "name": "1eb183a91f8f3812cf208db2add4ae0c", "is_disabled": 0, "rental_uris": {"android": "https://dc.lft.to/lastmile_qr_scan", "ios": "https://dc.lft.to/lastmile_qr_scan"}, "type": "electric_bike", "lat": 38.855656833333335, "is_reserved": 0, "fusion_lat": 0.0}, {"bike_id": "a6599f1092e78709feb0700255f35f59", "fusion_lon": 0.0, "lon": -77.00564633333333, "name": "a6599f1092e78709feb0700255f35f59", "is_disabled": 0, "rental_uris": {"android": "https://dc.lft.to/lastmile_qr_scan", "ios": "https://dc.lft.to/lastmile_qr_scan"}, "type": "electric_scooter", "lat": 38.88500633333334, "is_reserved": 0, "fusion_lat": 0.0}, {"bike_id": "da8ece9425900c6f841d7dbd530e29f4", "fusion_lon": 0.0, "lon": -76.95182883333334, "name": "da8ece9425900c6f841d7dbd530e29f4", "is_disabled": 0, "rental_uris": {"android": "https://dc.lft.to/lastmile_qr_scan", "ios": "https://dc.lft.to/lastmile_qr_scan"}, "type": "electric_scooter", "lat": 38.90737283333333, "is_reserved": 0, "fusion_lat": 0.0}, {"bike_id": "308e21f0fc02c410c2915f595ded9006", "fusion_lon": 0.0, "lon": -76.98974933333334, "name": "308e21f0fc02c410c2915f595ded9006", "is_disabled": 0, "rental_uris": {"android": "https://dc.lft.to/lastmile_qr_scan", "ios": "https://dc.lft.to/lastmile_qr_scan"}, "type": "electric_scooter", "lat": 38.86513683333333, "is_reserved": 0, "fusion_lat": 0.0}, {"bike_id": "bba3cce05bf46da1988659f37b799928", "fusion_lon": 0.0, "lon": -76.937288, "name": "bba3cce05bf46da1988659f37b799928", "is_disabled": 0, "rental_uris": {"android": "https://dc.lft.to/lastmile_qr_scan", "ios": "https://dc.lft.to/lastmile_qr_scan"}, "type": "electric_scooter", "lat": 38.8901095, "is_reserved": 0, "fusion_lat": 0.0}, {"bike_id": "a972d73c35370c6cd0cc7431af2505bc", "fusion_lon": 0.0, "lon": -77.00132516666666, "name": "a972d73c35370c6cd0cc7431af2505bc", "is_disabled": 0, "rental_uris": {"android": "https://dc.lft.to/lastmile_qr_scan", "ios": "https://dc.lft.to/lastmile_qr_scan"}, "type": "electric_scooter", "lat": 38.90508633333334, "is_reserved": 0, "fusion_lat": 0.0}, {"bike_id": "0690d45be886337196d5d1dc971fcdc0", "fusion_lon": 0.0, "lon": -77.00398666666666, "name": "0690d45be886337196d5d1dc971fcdc0", "is_disabled": 0, "rental_uris": {"android": "https://dc.lft.to/lastmile_qr_scan", "ios": "https://dc.lft.to/lastmile_qr_scan"}, "type": "electric_scooter", "lat": 38.876576, "is_reserved": 0, "fusion_lat": 0.0}, {"bike_id": "611774244454078bdde20b512c4a1178", "fusion_lon": 0.0, "lon": -77.041869, "name": "611774244454078bdde20b512c4a1178", "is_disabled": 0, "rental_uris": {"android": "https://dc.lft.to/lastmile_qr_scan", "ios": "https://dc.lft.to/lastmile_qr_scan"}, "type": "electric_scooter", "lat": 38.90576, "is_reserved": 0, "fusion_lat": 0.0}, {"bike_id": "03cb429c754fe3584c869f0aa7d6f7fc", "fusion_lon": 0.0, "lon": -77.04191583333333, "name": "03cb429c754fe3584c869f0aa7d6f7fc", "is_disabled": 0, "rental_uris": {"android": "https://dc.lft.to/lastmile_qr_scan", "ios": "https://dc.lft.to/lastmile_qr_scan"}, "type": "electric_scooter", "lat": 38.9262055, "is_reserved": 0, "fusion_lat": 0.0}, {"bike_id": "e60623b614741921d6e51c6755a1c58f", "fusion_lon": 0.0, "lon": -76.91164, "name": "e60623b614741921d6e51c6755a1c58f", "is_disabled": 0, "rental_uris": {"android": "https://dc.lft.to/lastmile_qr_scan", "ios": "https://dc.lft.to/lastmile_qr_scan"}, "type": "electric_scooter", "lat": 38.894248, "is_reserved": 0, "fusion_lat": 0.0}, {"bike_id": "9a9d722f5fdb7b2bea339868b9157e9b", "fusion_lon": 0.0, "lon": -77.034483, "name": "9a9d722f5fdb7b2bea339868b9157e9b", "is_disabled": 0, "rental_uris": {"android": "https://dc.lft.to/lastmile_qr_scan", "ios": "https://dc.lft.to/lastmile_qr_scan"}, "type": "electric_scooter", "lat": 38.90424383333333, "is_reserved": 0, "fusion_lat": 0.0}, {"bike_id": "f50091a00ff8f3ea11240701d065eb11", "fusion_lon": 0.0, "lon": -76.94632266666666, "name": "f50091a00ff8f3ea11240701d065eb11", "is_disabled": 0, "rental_uris": {"android": "https://dc.lft.to/lastmile_qr_scan", "ios": "https://dc.lft.to/lastmile_qr_scan"}, "type": "electric_scooter", "lat": 38.898415666666665, "is_reserved": 0, "fusion_lat": 0.0}, {"bike_id": "058f07dbf60b0c73214fcb7fd46c1255", "fusion_lon": 0.0, "lon": -77.0325965, "name": "058f07dbf60b0c73214fcb7fd46c1255", "is_disabled": 0, "rental_uris": {"android": "https://dc.lft.to/lastmile_qr_scan", "ios": "https://dc.lft.to/lastmile_qr_scan"}, "type": "electric_scooter", "lat": 38.91406, "is_reserved": 0, "fusion_lat": 0.0}, {"bike_id": "2ef7826d200ed7cb87536e4797b3704d", "fusion_lon": 0.0, "lon": -77.05137366666666, "name": "2ef7826d200ed7cb87536e4797b3704d", "is_disabled": 0, "rental_uris": {"android": "https://dc.lft.to/lastmile_qr_scan", "ios": "https://dc.lft.to/lastmile_qr_scan"}, "type": "electric_scooter", "lat": 38.90552133333333, "is_reserved": 0, "fusion_lat": 0.0}, {"bike_id": "b895ae6c91db60f7f3f2c8d852cede41", "fusion_lon": 0.0, "lon": -77.02400066666667, "name": "b895ae6c91db60f7f3f2c8d852cede41", "is_disabled": 0, "rental_uris": {"android": "https://dc.lft.to/lastmile_qr_scan", "ios": "https://dc.lft.to/lastmile_qr_scan"}, "type": "electric_scooter", "lat": 38.8971665, "is_reserved": 0, "fusion_lat": 0.0}, {"bike_id": "544e9087923d2373c68ca450b709e80c", "fusion_lon": 0.0, "lon": -77.020023, "name": "544e9087923d2373c68ca450b709e80c", "is_disabled": 0, "rental_uris": {"android": "https://dc.lft.to/lastmile_qr_scan", "ios": "https://dc.lft.to/lastmile_qr_scan"}, "type": "electric_scooter", "lat": 38.913084833333336, "is_reserved": 0, "fusion_lat": 0.0}, {"bike_id": "9b98047c3c4a1e165e99ab4bd8265726", "fusion_lon": 0.0, "lon": -77.00337916666666, "name": "9b98047c3c4a1e165e99ab4bd8265726", "is_disabled": 0, "rental_uris": {"android": "https://dc.lft.to/lastmile_qr_scan", "ios": "https://dc.lft.to/lastmile_qr_scan"}, "type": "electric_scooter", "lat": 38.891827, "is_reserved": 0, "fusion_lat": 0.0}, {"bike_id": "7fe1e99cd75971564657f14f335d5ee8", "fusion_lon": 0.0, "lon": -77.05417283333334, "name": "7fe1e99cd75971564657f14f335d5ee8", "is_disabled": 0, "rental_uris": {"android": "https://dc.lft.to/lastmile_qr_scan", "ios": "https://dc.lft.to/lastmile_qr_scan"}, "type": "electric_scooter", "lat": 38.90243916666667, "is_reserved": 0, "fusion_lat": 0.0}, {"bike_id": "a0df1329bb952b1bf02d7a3b20f62bbb", "fusion_lon": 0.0, "lon": -77.02948066666667, "name": "a0df1329bb952b1bf02d7a3b20f62bbb", "is_disabled": 0, "rental_uris": {"android": "https://dc.lft.to/lastmile_qr_scan", "ios": "https://dc.lft.to/lastmile_qr_scan"}, "type": "electric_scooter", "lat": 38.89877883333333, "is_reserved": 0, "fusion_lat": 0.0}, {"bike_id": "07f2ce3c32a2bd0a8ac6a3c8f07b2ac0", "fusion_lon": 0.0, "lon": -76.98111983333334, "name": "07f2ce3c32a2bd0a8ac6a3c8f07b2ac0", "is_disabled": 0, "rental_uris": {"android": "https://dc.lft.to/lastmile_qr_scan", "ios": "https://dc.lft.to/lastmile_qr_scan"}, "type": "electric_bike", "lat": 38.914735666666665, "is_reserved": 0, "fusion_lat": 0.0}, {"bike_id": "ebe80db5ab520763d5420c535aa14637", "fusion_lon": 0.0, "lon": -77.02192333333333, "name": "ebe80db5ab520763d5420c535aa14637", "is_disabled": 0, "rental_uris": {"android": "https://dc.lft.to/lastmile_qr_scan", "ios": "https://dc.lft.to/lastmile_qr_scan"}, "type": "electric_scooter", "lat": 38.911424833333335, "is_reserved": 0, "fusion_lat": 0.0}, {"bike_id": "bb76236da53cb7d8711c2504a4e0535c", "fusion_lon": 0.0, "lon": -76.994092, "name": "bb76236da53cb7d8711c2504a4e0535c", "is_disabled": 0, "rental_uris": {"android": "https://dc.lft.to/lastmile_qr_scan", "ios": "https://dc.lft.to/lastmile_qr_scan"}, "type": "electric_scooter", "lat": 38.8778265, "is_reserved": 0, "fusion_lat": 0.0}, {"bike_id": "9625c5fabc9fff3db4ec6e954789c836", "fusion_lon": 0.0, "lon": -77.0323025, "name": "9625c5fabc9fff3db4ec6e954789c836", "is_disabled": 0, "rental_uris": {"android": "https://dc.lft.to/lastmile_qr_scan", "ios": "https://dc.lft.to/lastmile_qr_scan"}, "type": "electric_scooter", "lat": 38.91401916666667, "is_reserved": 0, "fusion_lat": 0.0}, {"bike_id": "36c2f2d3c5a27b97f343ebe67d40dff9", "fusion_lon": 0.0, "lon": -76.9994545, "name": "36c2f2d3c5a27b97f343ebe67d40dff9", "is_disabled": 0, "rental_uris": {"android": "https://dc.lft.to/lastmile_qr_scan", "ios": "https://dc.lft.to/lastmile_qr_scan"}, "type": "electric_scooter", "lat": 38.8429315, "is_reserved": 0, "fusion_lat": 0.0}, {"bike_id": "9862654e6dce986827ffddc26172b54d", "fusion_lon": 0.0, "lon": -77.043359, "name": "9862654e6dce986827ffddc26172b54d", "is_disabled": 0, "rental_uris": {"android": "https://dc.lft.to/lastmile_qr_scan", "ios": "https://dc.lft.to/lastmile_qr_scan"}, "type": "electric_scooter", "lat": 38.9085645, "is_reserved": 0, "fusion_lat": 0.0}, {"bike_id": "1673d4a8c39f6acdf8b36f6e4b6a36ed", "fusion_lon": 0.0, "lon": -76.93194683333333, "name": "1673d4a8c39f6acdf8b36f6e4b6a36ed", "is_disabled": 0, "rental_uris": {"android": "https://dc.lft.to/lastmile_qr_scan", "ios": "https://dc.lft.to/lastmile_qr_scan"}, "type": "electric_scooter", "lat": 38.89876533333333, "is_reserved": 0, "fusion_lat": 0.0}, {"bike_id": "616e331c4c5270478d26ea2e3ef5f2e8", "fusion_lon": 0.0, "lon": -77.0020535, "name": "616e331c4c5270478d26ea2e3ef5f2e8", "is_disabled": 0, "rental_uris": {"android": "https://dc.lft.to/lastmile_qr_scan", "ios": "https://dc.lft.to/lastmile_qr_scan"}, "type": "electric_scooter", "lat": 38.9002385, "is_reserved": 0, "fusion_lat": 0.0}, {"bike_id": "fd2a565aeb89cbaf2429b8a742ba5362", "fusion_lon": 0.0, "lon": -76.9354125, "name": "fd2a565aeb89cbaf2429b8a742ba5362", "is_disabled": 0, "rental_uris": {"android": "https://dc.lft.to/lastmile_qr_scan", "ios": "https://dc.lft.to/lastmile_qr_scan"}, "type": "electric_bike", "lat": 38.9555505, "is_reserved": 0, "fusion_lat": 0.0}, {"bike_id": "8ff7f617ea3802e8b94879c9bdc0f6f0", "fusion_lon": 0.0, "lon": -77.04478083333333, "name": "8ff7f617ea3802e8b94879c9bdc0f6f0", "is_disabled": 0, "rental_uris": {"android": "https://dc.lft.to/lastmile_qr_scan", "ios": "https://dc.lft.to/lastmile_qr_scan"}, "type": "electric_scooter", "lat": 38.922374, "is_reserved": 0, "fusion_lat": 0.0}, {"bike_id": "60d044f39481349d68a2549b505e8ed9", "fusion_lon": 0.0, "lon": -77.04722366666667, "name": "60d044f39481349d68a2549b505e8ed9", "is_disabled": 0, "rental_uris": {"android": "https://dc.lft.to/lastmile_qr_scan", "ios": "https://dc.lft.to/lastmile_qr_scan"}, "type": "electric_scooter", "lat": 38.906024333333335, "is_reserved": 0, "fusion_lat": 0.0}, {"bike_id": "ebf3d4d54fda3f995068595163706e58", "fusion_lon": 0.0, "lon": -77.015821, "name": "ebf3d4d54fda3f995068595163706e58", "is_disabled": 0, "rental_uris": {"android": "https://dc.lft.to/lastmile_qr_scan", "ios": "https://dc.lft.to/lastmile_qr_scan"}, "type": "electric_scooter", "lat": 38.89178116666667, "is_reserved": 0, "fusion_lat": 0.0}, {"bike_id": "5b392f10044cdd3e0e6f90757aa3910a", "fusion_lon": 0.0, "lon": -77.02803166666666, "name": "5b392f10044cdd3e0e6f90757aa3910a", "is_disabled": 0, "rental_uris": {"android": "https://dc.lft.to/lastmile_qr_scan", "ios": "https://dc.lft.to/lastmile_qr_scan"}, "type": "electric_scooter", "lat": 38.89915216666667, "is_reserved": 0, "fusion_lat": 0.0}, {"bike_id": "088850e326541132e93c32a14f40df7c", "fusion_lon": 0.0, "lon": -77.01781283333334, "name": "088850e326541132e93c32a14f40df7c", "is_disabled": 0, "rental_uris": {"android": "https://dc.lft.to/lastmile_qr_scan", "ios": "https://dc.lft.to/lastmile_qr_scan"}, "type": "electric_scooter", "lat": 38.88406333333333, "is_reserved": 0, "fusion_lat": 0.0}, {"bike_id": "f89b55c8522f4b5a3a1e6d788bf420bf", "fusion_lon": 0.0, "lon": -76.9850155, "name": "f89b55c8522f4b5a3a1e6d788bf420bf", "is_disabled": 0, "rental_uris": {"android": "https://dc.lft.to/lastmile_qr_scan", "ios": "https://dc.lft.to/lastmile_qr_scan"}, "type": "electric_scooter", "lat": 38.866659166666665, "is_reserved": 0, "fusion_lat": 0.0}, {"bike_id": "8cc4a13ae5a2c1b3ad18cef44012627c", "fusion_lon": 0.0, "lon": -77.0515145, "name": "8cc4a13ae5a2c1b3ad18cef44012627c", "is_disabled": 0, "rental_uris": {"android": "https://dc.lft.to/lastmile_qr_scan", "ios": "https://dc.lft.to/lastmile_qr_scan"}, "type": "electric_scooter", "lat": 38.90535, "is_reserved": 0, "fusion_lat": 0.0}, {"bike_id": "e58b1c277390b9eb52c8cc0a307a40f6", "fusion_lon": 0.0, "lon": -77.03543166666667, "name": "e58b1c277390b9eb52c8cc0a307a40f6", "is_disabled": 0, "rental_uris": {"android": "https://dc.lft.to/lastmile_qr_scan", "ios": "https://dc.lft.to/lastmile_qr_scan"}, "type": "electric_scooter", "lat": 38.92411216666667, "is_reserved": 0, "fusion_lat": 0.0}, {"bike_id": "c27a35697059cec70a1df323e68cefbd", "fusion_lon": 0.0, "lon": -76.98990333333333, "name": "c27a35697059cec70a1df323e68cefbd", "is_disabled": 0, "rental_uris": {"android": "https://dc.lft.to/lastmile_qr_scan", "ios": "https://dc.lft.to/lastmile_qr_scan"}, "type": "electric_bike", "lat": 38.86386066666667, "is_reserved": 0, "fusion_lat": 0.0}, {"bike_id": "31e373b0e546df99f64789f614752c8e", "fusion_lon": 0.0, "lon": -77.03310833333333, "name": "31e373b0e546df99f64789f614752c8e", "is_disabled": 0, "rental_uris": {"android": "https://dc.lft.to/lastmile_qr_scan", "ios": "https://dc.lft.to/lastmile_qr_scan"}, "type": "electric_scooter", "lat": 38.93193183333333, "is_reserved": 0, "fusion_lat": 0.0}, {"bike_id": "e0c8fca9b1b035ecccb35a0e6b1e0519", "fusion_lon": 0.0, "lon": -77.04615733333333, "name": "e0c8fca9b1b035ecccb35a0e6b1e0519", "is_disabled": 0, "rental_uris": {"android": "https://dc.lft.to/lastmile_qr_scan", "ios": "https://dc.lft.to/lastmile_qr_scan"}, "type": "electric_scooter", "lat": 38.902657, "is_reserved": 0, "fusion_lat": 0.0}, {"bike_id": "0d18943eb12920f8d40a15bff4273bfa", "fusion_lon": 0.0, "lon": -77.05860433333334, "name": "0d18943eb12920f8d40a15bff4273bfa", "is_disabled": 0, "rental_uris": {"android": "https://dc.lft.to/lastmile_qr_scan", "ios": "https://dc.lft.to/lastmile_qr_scan"}, "type": "electric_scooter", "lat": 38.936074166666664, "is_reserved": 0, "fusion_lat": 0.0}, {"bike_id": "e738d53ab737b282a5870cc747a1938c", "fusion_lon": 0.0, "lon": -77.05532266666667, "name": "e738d53ab737b282a5870cc747a1938c", "is_disabled": 0, "rental_uris": {"android": "https://dc.lft.to/lastmile_qr_scan", "ios": "https://dc.lft.to/lastmile_qr_scan"}, "type": "electric_scooter", "lat": 38.930149166666666, "is_reserved": 0, "fusion_lat": 0.0}, {"bike_id": "9b10534d2653763a62453721a9f7ccfa", "fusion_lon": 0.0, "lon": -77.012282, "name": "9b10534d2653763a62453721a9f7ccfa", "is_disabled": 0, "rental_uris": {"android": "https://dc.lft.to/lastmile_qr_scan", "ios": "https://dc.lft.to/lastmile_qr_scan"}, "type": "electric_scooter", "lat": 38.931086, "is_reserved": 0, "fusion_lat": 0.0}, {"bike_id": "58e8eb38036b81537df441384b567b4f", "fusion_lon": 0.0, "lon": -77.02325933333333, "name": "58e8eb38036b81537df441384b567b4f", "is_disabled": 0, "rental_uris": {"android": "https://dc.lft.to/lastmile_qr_scan", "ios": "https://dc.lft.to/lastmile_qr_scan"}, "type": "electric_scooter", "lat": 38.8956395, "is_reserved": 0, "fusion_lat": 0.0}, {"bike_id": "acd63dec58e697505b61cd6931a9845b", "fusion_lon": 0.0, "lon": -77.02826233333333, "name": "acd63dec58e697505b61cd6931a9845b", "is_disabled": 0, "rental_uris": {"android": "https://dc.lft.to/lastmile_qr_scan", "ios": "https://dc.lft.to/lastmile_qr_scan"}, "type": "electric_scooter", "lat": 38.8873005, "is_reserved": 0, "fusion_lat": 0.0}, {"bike_id": "0894c74581fc222f5a7254bc8cce81f7", "fusion_lon": 0.0, "lon": -77.02764233333333, "name": "0894c74581fc222f5a7254bc8cce81f7", "is_disabled": 0, "rental_uris": {"android": "https://dc.lft.to/lastmile_qr_scan", "ios": "https://dc.lft.to/lastmile_qr_scan"}, "type": "electric_scooter", "lat": 38.95426466666667, "is_reserved": 0, "fusion_lat": 0.0}, {"bike_id": "c2b73a7ff7bc1c92767380d17c54c07a", "fusion_lon": 0.0, "lon": -76.98834166666667, "name": "c2b73a7ff7bc1c92767380d17c54c07a", "is_disabled": 0, "rental_uris": {"android": "https://dc.lft.to/lastmile_qr_scan", "ios": "https://dc.lft.to/lastmile_qr_scan"}, "type": "electric_scooter", "lat": 38.900310833333336, "is_reserved": 0, "fusion_lat": 0.0}, {"bike_id": "6b2496c9c204cf79bf09f47bc25e68f1", "fusion_lon": 0.0, "lon": -77.02806283333334, "name": "6b2496c9c204cf79bf09f47bc25e68f1", "is_disabled": 0, "rental_uris": {"android": "https://dc.lft.to/lastmile_qr_scan", "ios": "https://dc.lft.to/lastmile_qr_scan"}, "type": "electric_scooter", "lat": 38.93079683333333, "is_reserved": 0, "fusion_lat": 0.0}, {"bike_id": "c64f3a6bea3906d5408acfd27b022752", "fusion_lon": 0.0, "lon": -77.0411815, "name": "c64f3a6bea3906d5408acfd27b022752", "is_disabled": 0, "rental_uris": {"android": "https://dc.lft.to/lastmile_qr_scan", "ios": "https://dc.lft.to/lastmile_qr_scan"}, "type": "electric_scooter", "lat": 38.92172883333333, "is_reserved": 0, "fusion_lat": 0.0}, {"bike_id": "4e3bf9a33146fb255da6c9eb2421f7f5", "fusion_lon": 0.0, "lon": -77.01950666666667, "name": "4e3bf9a33146fb255da6c9eb2421f7f5", "is_disabled": 0, "rental_uris": {"android": "https://dc.lft.to/lastmile_qr_scan", "ios": "https://dc.lft.to/lastmile_qr_scan"}, "type": "electric_scooter", "lat": 38.923316166666666, "is_reserved": 0, "fusion_lat": 0.0}, {"bike_id": "68cd380ca64f3fd3d96ae0177dc0b119", "fusion_lon": 0.0, "lon": -77.04308666666667, "name": "68cd380ca64f3fd3d96ae0177dc0b119", "is_disabled": 0, "rental_uris": {"android": "https://dc.lft.to/lastmile_qr_scan", "ios": "https://dc.lft.to/lastmile_qr_scan"}, "type": "electric_scooter", "lat": 38.918764, "is_reserved": 0, "fusion_lat": 0.0}, {"bike_id": "0cfa7ee466d11e9e5352ca33a5f39af5", "fusion_lon": 0.0, "lon": -77.044801, "name": "0cfa7ee466d11e9e5352ca33a5f39af5", "is_disabled": 0, "rental_uris": {"android": "https://dc.lft.to/lastmile_qr_scan", "ios": "https://dc.lft.to/lastmile_qr_scan"}, "type": "electric_scooter", "lat": 38.9136315, "is_reserved": 0, "fusion_lat": 0.0}, {"bike_id": "6535a0e3411a62270969ba2849a97316", "fusion_lon": 0.0, "lon": -77.024325, "name": "6535a0e3411a62270969ba2849a97316", "is_disabled": 0, "rental_uris": {"android": "https://dc.lft.to/lastmile_qr_scan", "ios": "https://dc.lft.to/lastmile_qr_scan"}, "type": "electric_scooter", "lat": 38.90211866666667, "is_reserved": 0, "fusion_lat": 0.0}, {"bike_id": "1f4f9772be632e5744186570f27814e6", "fusion_lon": 0.0, "lon": -77.00201083333333, "name": "1f4f9772be632e5744186570f27814e6", "is_disabled": 0, "rental_uris": {"android": "https://dc.lft.to/lastmile_qr_scan", "ios": "https://dc.lft.to/lastmile_qr_scan"}, "type": "electric_scooter", "lat": 38.9023805, "is_reserved": 0, "fusion_lat": 0.0}, {"bike_id": "5a930396e1861a004da2facca7ad4b44", "fusion_lon": 0.0, "lon": -76.9373105, "name": "5a930396e1861a004da2facca7ad4b44", "is_disabled": 0, "rental_uris": {"android": "https://dc.lft.to/lastmile_qr_scan", "ios": "https://dc.lft.to/lastmile_qr_scan"}, "type": "electric_scooter", "lat": 38.8901305, "is_reserved": 0, "fusion_lat": 0.0}, {"bike_id": "6813321ebc6b00040358ff63cc62659e", "fusion_lon": 0.0, "lon": -77.0222475, "name": "6813321ebc6b00040358ff63cc62659e", "is_disabled": 0, "rental_uris": {"android": "https://dc.lft.to/lastmile_qr_scan", "ios": "https://dc.lft.to/lastmile_qr_scan"}, "type": "electric_scooter", "lat": 38.89217766666667, "is_reserved": 0, "fusion_lat": 0.0}, {"bike_id": "cfc7b7151b9cdd6280ca64de695f839a", "fusion_lon": 0.0, "lon": -77.01401116666666, "name": "cfc7b7151b9cdd6280ca64de695f839a", "is_disabled": 0, "rental_uris": {"android": "https://dc.lft.to/lastmile_qr_scan", "ios": "https://dc.lft.to/lastmile_qr_scan"}, "type": "electric_scooter", "lat": 38.88746533333333, "is_reserved": 0, "fusion_lat": 0.0}, {"bike_id": "833feeb19aaabdd09ac65673cfd6e13a", "fusion_lon": 0.0, "lon": -77.0737035, "name": "833feeb19aaabdd09ac65673cfd6e13a", "is_disabled": 0, "rental_uris": {"android": "https://dc.lft.to/lastmile_qr_scan", "ios": "https://dc.lft.to/lastmile_qr_scan"}, "type": "electric_bike", "lat": 38.961714666666666, "is_reserved": 0, "fusion_lat": 0.0}, {"bike_id": "61eee3eca9c5fbdf3417543b0c2fd76b", "fusion_lon": 0.0, "lon": -77.00592883333333, "name": "61eee3eca9c5fbdf3417543b0c2fd76b", "is_disabled": 0, "rental_uris": {"android": "https://dc.lft.to/lastmile_qr_scan", "ios": "https://dc.lft.to/lastmile_qr_scan"}, "type": "electric_scooter", "lat": 38.90554866666667, "is_reserved": 0, "fusion_lat": 0.0}, {"bike_id": "1beb2355cc7977dc9ad9ca462b02a86f", "fusion_lon": 0.0, "lon": -77.003359, "name": "1beb2355cc7977dc9ad9ca462b02a86f", "is_disabled": 0, "rental_uris": {"android": "https://dc.lft.to/lastmile_qr_scan", "ios": "https://dc.lft.to/lastmile_qr_scan"}, "type": "electric_scooter", "lat": 38.889879, "is_reserved": 0, "fusion_lat": 0.0}, {"bike_id": "3f31378fc3950d39f9ce9ed5bbc502f7", "fusion_lon": 0.0, "lon": -77.04671666666667, "name": "3f31378fc3950d39f9ce9ed5bbc502f7", "is_disabled": 0, "rental_uris": {"android": "https://dc.lft.to/lastmile_qr_scan", "ios": "https://dc.lft.to/lastmile_qr_scan"}, "type": "electric_scooter", "lat": 38.89947766666667, "is_reserved": 0, "fusion_lat": 0.0}, {"bike_id": "fbd12f23ffd97a4014a10f8d8146c574", "fusion_lon": 0.0, "lon": -77.00969833333333, "name": "fbd12f23ffd97a4014a10f8d8146c574", "is_disabled": 0, "rental_uris": {"android": "https://dc.lft.to/lastmile_qr_scan", "ios": "https://dc.lft.to/lastmile_qr_scan"}, "type": "electric_bike", "lat": 38.96131583333333, "is_reserved": 0, "fusion_lat": 0.0}, {"bike_id": "de7db36ce2180cc6bdae2220395127d2", "fusion_lon": 0.0, "lon": -77.04832516666667, "name": "de7db36ce2180cc6bdae2220395127d2", "is_disabled": 0, "rental_uris": {"android": "https://dc.lft.to/lastmile_qr_scan", "ios": "https://dc.lft.to/lastmile_qr_scan"}, "type": "electric_scooter", "lat": 38.91040866666667, "is_reserved": 0, "fusion_lat": 0.0}, {"bike_id": "70c29b79e1401759ee7bf74a49c699da", "fusion_lon": 0.0, "lon": -76.99702766666667, "name": "70c29b79e1401759ee7bf74a49c699da", "is_disabled": 0, "rental_uris": {"android": "https://dc.lft.to/lastmile_qr_scan", "ios": "https://dc.lft.to/lastmile_qr_scan"}, "type": "electric_scooter", "lat": 38.84426116666667, "is_reserved": 0, "fusion_lat": 0.0}, {"bike_id": "bf7922578037606917f2dfc095110fb0", "fusion_lon": 0.0, "lon": -77.034463, "name": "bf7922578037606917f2dfc095110fb0", "is_disabled": 0, "rental_uris": {"android": "https://dc.lft.to/lastmile_qr_scan", "ios": "https://dc.lft.to/lastmile_qr_scan"}, "type": "electric_scooter", "lat": 38.907973166666665, "is_reserved": 0, "fusion_lat": 0.0}, {"bike_id": "51ef970f3737d4a8738434ce77f4f982", "fusion_lon": 0.0, "lon": -77.0033065, "name": "51ef970f3737d4a8738434ce77f4f982", "is_disabled": 0, "rental_uris": {"android": "https://dc.lft.to/lastmile_qr_scan", "ios": "https://dc.lft.to/lastmile_qr_scan"}, "type": "electric_scooter", "lat": 38.893509333333334, "is_reserved": 0, "fusion_lat": 0.0}, {"bike_id": "382f227e2c2694d7c8eafb3a4912f417", "fusion_lon": 0.0, "lon": -77.02693266666667, "name": "382f227e2c2694d7c8eafb3a4912f417", "is_disabled": 0, "rental_uris": {"android": "https://dc.lft.to/lastmile_qr_scan", "ios": "https://dc.lft.to/lastmile_qr_scan"}, "type": "electric_scooter", "lat": 38.9112225, "is_reserved": 0, "fusion_lat": 0.0}, {"bike_id": "347703dd8d4c22fd6cbe62a0724cc4cb", "fusion_lon": 0.0, "lon": -77.04171866666667, "name": "347703dd8d4c22fd6cbe62a0724cc4cb", "is_disabled": 0, "rental_uris": {"android": "https://dc.lft.to/lastmile_qr_scan", "ios": "https://dc.lft.to/lastmile_qr_scan"}, "type": "electric_scooter", "lat": 38.91853666666667, "is_reserved": 0, "fusion_lat": 0.0}, {"bike_id": "d7f9b300cc9049eaa038018f8bb70b2b", "fusion_lon": 0.0, "lon": -76.980751, "name": "d7f9b300cc9049eaa038018f8bb70b2b", "is_disabled": 0, "rental_uris": {"android": "https://dc.lft.to/lastmile_qr_scan", "ios": "https://dc.lft.to/lastmile_qr_scan"}, "type": "electric_bike", "lat": 38.90171816666667, "is_reserved": 0, "fusion_lat": 0.0}, {"bike_id": "452ee43026bdf3b5de11654ebe7a51e1", "fusion_lon": 0.0, "lon": -77.04004883333333, "name": "452ee43026bdf3b5de11654ebe7a51e1", "is_disabled": 0, "rental_uris": {"android": "https://dc.lft.to/lastmile_qr_scan", "ios": "https://dc.lft.to/lastmile_qr_scan"}, "type": "electric_scooter", "lat": 38.90337433333333, "is_reserved": 0, "fusion_lat": 0.0}, {"bike_id": "9432ef92f3eb0a7ae818b8db1e182f66", "fusion_lon": 0.0, "lon": -77.02896216666667, "name": "9432ef92f3eb0a7ae818b8db1e182f66", "is_disabled": 0, "rental_uris": {"android": "https://dc.lft.to/lastmile_qr_scan", "ios": "https://dc.lft.to/lastmile_qr_scan"}, "type": "electric_scooter", "lat": 38.9005185, "is_reserved": 0, "fusion_lat": 0.0}, {"bike_id": "da2db83a2a7d225c1ed0aed91e350d4c", "fusion_lon": 0.0, "lon": -77.0240005, "name": "da2db83a2a7d225c1ed0aed91e350d4c", "is_disabled": 0, "rental_uris": {"android": "https://dc.lft.to/lastmile_qr_scan", "ios": "https://dc.lft.to/lastmile_qr_scan"}, "type": "electric_scooter", "lat": 38.90851966666666, "is_reserved": 0, "fusion_lat": 0.0}, {"bike_id": "ee0bab6fd525b18211c3de3c4a7b02de", "fusion_lon": 0.0, "lon": -77.04173366666667, "name": "ee0bab6fd525b18211c3de3c4a7b02de", "is_disabled": 0, "rental_uris": {"android": "https://dc.lft.to/lastmile_qr_scan", "ios": "https://dc.lft.to/lastmile_qr_scan"}, "type": "electric_scooter", "lat": 38.917318333333334, "is_reserved": 0, "fusion_lat": 0.0}, {"bike_id": "f9ddea8d4d27a8c196a95683e7565cb4", "fusion_lon": 0.0, "lon": -76.933457, "name": "f9ddea8d4d27a8c196a95683e7565cb4", "is_disabled": 0, "rental_uris": {"android": "https://dc.lft.to/lastmile_qr_scan", "ios": "https://dc.lft.to/lastmile_qr_scan"}, "type": "electric_scooter", "lat": 38.89909333333333, "is_reserved": 0, "fusion_lat": 0.0}, {"bike_id": "19cbf1d7b7ca75f7e9e111b305eccf42", "fusion_lon": 0.0, "lon": -77.03842483333334, "name": "19cbf1d7b7ca75f7e9e111b305eccf42", "is_disabled": 0, "rental_uris": {"android": "https://dc.lft.to/lastmile_qr_scan", "ios": "https://dc.lft.to/lastmile_qr_scan"}, "type": "electric_scooter", "lat": 38.915645833333336, "is_reserved": 0, "fusion_lat": 0.0}, {"bike_id": "4f629d2ea1e5a322e300166108556770", "fusion_lon": 0.0, "lon": -77.03263166666666, "name": "4f629d2ea1e5a322e300166108556770", "is_disabled": 0, "rental_uris": {"android": "https://dc.lft.to/lastmile_qr_scan", "ios": "https://dc.lft.to/lastmile_qr_scan"}, "type": "electric_scooter", "lat": 38.937754, "is_reserved": 0, "fusion_lat": 0.0}, {"bike_id": "2f98af944d1035541e72a4080855238a", "fusion_lon": 0.0, "lon": -77.0413905, "name": "2f98af944d1035541e72a4080855238a", "is_disabled": 0, "rental_uris": {"android": "https://dc.lft.to/lastmile_qr_scan", "ios": "https://dc.lft.to/lastmile_qr_scan"}, "type": "electric_scooter", "lat": 38.89348416666667, "is_reserved": 0, "fusion_lat": 0.0}, {"bike_id": "5a996b90aa8a79df59a4c26a1a8a9e5d", "fusion_lon": 0.0, "lon": -77.02478183333334, "name": "5a996b90aa8a79df59a4c26a1a8a9e5d", "is_disabled": 0, "rental_uris": {"android": "https://dc.lft.to/lastmile_qr_scan", "ios": "https://dc.lft.to/lastmile_qr_scan"}, "type": "electric_scooter", "lat": 38.90969616666667, "is_reserved": 0, "fusion_lat": 0.0}, {"bike_id": "6aa84be742c4fc1f9f9b7c8112c76153", "fusion_lon": 0.0, "lon": -77.04813416666667, "name": "6aa84be742c4fc1f9f9b7c8112c76153", "is_disabled": 0, "rental_uris": {"android": "https://dc.lft.to/lastmile_qr_scan", "ios": "https://dc.lft.to/lastmile_qr_scan"}, "type": "electric_scooter", "lat": 38.90209433333333, "is_reserved": 0, "fusion_lat": 0.0}, {"bike_id": "61609ec39f4c4f96d4e3bf4c055acfee", "fusion_lon": 0.0, "lon": -77.04674333333334, "name": "61609ec39f4c4f96d4e3bf4c055acfee", "is_disabled": 0, "rental_uris": {"android": "https://dc.lft.to/lastmile_qr_scan", "ios": "https://dc.lft.to/lastmile_qr_scan"}, "type": "electric_scooter", "lat": 38.90556433333333, "is_reserved": 0, "fusion_lat": 0.0}, {"bike_id": "4f383da2f412f64bdcd6fb9651cae10e", "fusion_lon": 0.0, "lon": -77.009602, "name": "4f383da2f412f64bdcd6fb9651cae10e", "is_disabled": 0, "rental_uris": {"android": "https://dc.lft.to/lastmile_qr_scan", "ios": "https://dc.lft.to/lastmile_qr_scan"}, "type": "electric_scooter", "lat": 38.90785183333333, "is_reserved": 0, "fusion_lat": 0.0}, {"bike_id": "323dd484234b35662336ead3c9f7854e", "fusion_lon": 0.0, "lon": -76.96934333333333, "name": "323dd484234b35662336ead3c9f7854e", "is_disabled": 0, "rental_uris": {"android": "https://dc.lft.to/lastmile_qr_scan", "ios": "https://dc.lft.to/lastmile_qr_scan"}, "type": "electric_bike", "lat": 38.95188816666667, "is_reserved": 0, "fusion_lat": 0.0}, {"bike_id": "662c5d96974a8632ba205877346523c3", "fusion_lon": 0.0, "lon": -76.99544616666667, "name": "662c5d96974a8632ba205877346523c3", "is_disabled": 0, "rental_uris": {"android": "https://dc.lft.to/lastmile_qr_scan", "ios": "https://dc.lft.to/lastmile_qr_scan"}, "type": "electric_scooter", "lat": 38.92664116666667, "is_reserved": 0, "fusion_lat": 0.0}, {"bike_id": "0679c0ca02496ac2dab4fea7b0375a30", "fusion_lon": 0.0, "lon": -77.0980515, "name": "0679c0ca02496ac2dab4fea7b0375a30", "is_disabled": 0, "rental_uris": {"android": "https://dc.lft.to/lastmile_qr_scan", "ios": "https://dc.lft.to/lastmile_qr_scan"}, "type": "electric_bike", "lat": 38.85023183333333, "is_reserved": 0, "fusion_lat": 0.0}, {"bike_id": "6258f7fdd7f3616f8dce74f9937f07ec", "fusion_lon": 0.0, "lon": -76.97942333333333, "name": "6258f7fdd7f3616f8dce74f9937f07ec", "is_disabled": 0, "rental_uris": {"android": "https://dc.lft.to/lastmile_qr_scan", "ios": "https://dc.lft.to/lastmile_qr_scan"}, "type": "electric_scooter", "lat": 38.945182, "is_reserved": 0, "fusion_lat": 0.0}, {"bike_id": "80661c919667cb6ebb655b8469501f51", "fusion_lon": 0.0, "lon": -77.02936916666667, "name": "80661c919667cb6ebb655b8469501f51", "is_disabled": 0, "rental_uris": {"android": "https://dc.lft.to/lastmile_qr_scan", "ios": "https://dc.lft.to/lastmile_qr_scan"}, "type": "electric_scooter", "lat": 38.90727233333333, "is_reserved": 0, "fusion_lat": 0.0}, {"bike_id": "bbfb7746965a58316f56b6f1ac4ce3a2", "fusion_lon": 0.0, "lon": -76.92882916666667, "name": "bbfb7746965a58316f56b6f1ac4ce3a2", "is_disabled": 0, "rental_uris": {"android": "https://dc.lft.to/lastmile_qr_scan", "ios": "https://dc.lft.to/lastmile_qr_scan"}, "type": "electric_scooter", "lat": 38.88527533333333, "is_reserved": 0, "fusion_lat": 0.0}, {"bike_id": "58e36afc0902cd8d39663010326259f6", "fusion_lon": 0.0, "lon": -77.00120466666667, "name": "58e36afc0902cd8d39663010326259f6", "is_disabled": 0, "rental_uris": {"android": "https://dc.lft.to/lastmile_qr_scan", "ios": "https://dc.lft.to/lastmile_qr_scan"}, "type": "electric_scooter", "lat": 38.90763916666667, "is_reserved": 0, "fusion_lat": 0.0}, {"bike_id": "6fff7cfad9b5073200e16b6d9432d8ca", "fusion_lon": 0.0, "lon": -77.09958866666666, "name": "6fff7cfad9b5073200e16b6d9432d8ca", "is_disabled": 0, "rental_uris": {"android": "https://dc.lft.to/lastmile_qr_scan", "ios": "https://dc.lft.to/lastmile_qr_scan"}, "type": "electric_bike", "lat": 38.857869666666666, "is_reserved": 0, "fusion_lat": 0.0}, {"bike_id": "4ef3aed64c16e6fd5094277f5fc24f78", "fusion_lon": 0.0, "lon": -77.03180066666667, "name": "4ef3aed64c16e6fd5094277f5fc24f78", "is_disabled": 0, "rental_uris": {"android": "https://dc.lft.to/lastmile_qr_scan", "ios": "https://dc.lft.to/lastmile_qr_scan"}, "type": "electric_scooter", "lat": 38.895736166666666, "is_reserved": 0, "fusion_lat": 0.0}, {"bike_id": "2cb0c7e0edd619c44ba8f0d8aa02162d", "fusion_lon": 0.0, "lon": -77.01752583333334, "name": "2cb0c7e0edd619c44ba8f0d8aa02162d", "is_disabled": 0, "rental_uris": {"android": "https://dc.lft.to/lastmile_qr_scan", "ios": "https://dc.lft.to/lastmile_qr_scan"}, "type": "electric_scooter", "lat": 38.87714666666667, "is_reserved": 0, "fusion_lat": 0.0}, {"bike_id": "05cfacdd09d76a73c7122bee794632c0", "fusion_lon": 0.0, "lon": -77.0461325, "name": "05cfacdd09d76a73c7122bee794632c0", "is_disabled": 0, "rental_uris": {"android": "https://dc.lft.to/lastmile_qr_scan", "ios": "https://dc.lft.to/lastmile_qr_scan"}, "type": "electric_scooter", "lat": 38.89611416666666, "is_reserved": 0, "fusion_lat": 0.0}, {"bike_id": "91b36a1821bed1230bc95a2399674d7e", "fusion_lon": 0.0, "lon": -77.02307883333333, "name": "91b36a1821bed1230bc95a2399674d7e", "is_disabled": 0, "rental_uris": {"android": "https://dc.lft.to/lastmile_qr_scan", "ios": "https://dc.lft.to/lastmile_qr_scan"}, "type": "electric_scooter", "lat": 38.91781866666667, "is_reserved": 0, "fusion_lat": 0.0}, {"bike_id": "6f7a178afa3ba4c51fe3d66fcac7a3d7", "fusion_lon": 0.0, "lon": -77.02210783333334, "name": "6f7a178afa3ba4c51fe3d66fcac7a3d7", "is_disabled": 0, "rental_uris": {"android": "https://dc.lft.to/lastmile_qr_scan", "ios": "https://dc.lft.to/lastmile_qr_scan"}, "type": "electric_scooter", "lat": 38.915591166666665, "is_reserved": 0, "fusion_lat": 0.0}, {"bike_id": "7810fb384cda6a8ca32734434eef5c17", "fusion_lon": 0.0, "lon": -77.0322655, "name": "7810fb384cda6a8ca32734434eef5c17", "is_disabled": 0, "rental_uris": {"android": "https://dc.lft.to/lastmile_qr_scan", "ios": "https://dc.lft.to/lastmile_qr_scan"}, "type": "electric_scooter", "lat": 38.9052915, "is_reserved": 0, "fusion_lat": 0.0}, {"bike_id": "5d4ca48473cac56aa3169a006e0d6ec1", "fusion_lon": 0.0, "lon": -77.0198735, "name": "5d4ca48473cac56aa3169a006e0d6ec1", "is_disabled": 0, "rental_uris": {"android": "https://dc.lft.to/lastmile_qr_scan", "ios": "https://dc.lft.to/lastmile_qr_scan"}, "type": "electric_bike", "lat": 38.922780833333334, "is_reserved": 0, "fusion_lat": 0.0}, {"bike_id": "06af4feebe7f48c7e1c43b40b180ebc4", "fusion_lon": 0.0, "lon": -77.0032045, "name": "06af4feebe7f48c7e1c43b40b180ebc4", "is_disabled": 0, "rental_uris": {"android": "https://dc.lft.to/lastmile_qr_scan", "ios": "https://dc.lft.to/lastmile_qr_scan"}, "type": "electric_scooter", "lat": 38.907485, "is_reserved": 0, "fusion_lat": 0.0}, {"bike_id": "ae4f5aee3a5ec4bd9b8eacb798c19263", "fusion_lon": 0.0, "lon": -77.00238533333334, "name": "ae4f5aee3a5ec4bd9b8eacb798c19263", "is_disabled": 0, "rental_uris": {"android": "https://dc.lft.to/lastmile_qr_scan", "ios": "https://dc.lft.to/lastmile_qr_scan"}, "type": "electric_scooter", "lat": 38.87481116666667, "is_reserved": 0, "fusion_lat": 0.0}, {"bike_id": "74b181a848c056385846e12f96ae5a0e", "fusion_lon": 0.0, "lon": -77.028139, "name": "74b181a848c056385846e12f96ae5a0e", "is_disabled": 0, "rental_uris": {"android": "https://dc.lft.to/lastmile_qr_scan", "ios": "https://dc.lft.to/lastmile_qr_scan"}, "type": "electric_scooter", "lat": 38.914267333333335, "is_reserved": 0, "fusion_lat": 0.0}, {"bike_id": "5811581f6c635bd5d9ad43b8750e0f03", "fusion_lon": 0.0, "lon": -77.05230583333334, "name": "5811581f6c635bd5d9ad43b8750e0f03", "is_disabled": 0, "rental_uris": {"android": "https://dc.lft.to/lastmile_qr_scan", "ios": "https://dc.lft.to/lastmile_qr_scan"}, "type": "electric_scooter", "lat": 38.9269145, "is_reserved": 0, "fusion_lat": 0.0}, {"bike_id": "66da750551ce6d36ddae0731e776be04", "fusion_lon": 0.0, "lon": -77.03451166666666, "name": "66da750551ce6d36ddae0731e776be04", "is_disabled": 0, "rental_uris": {"android": "https://dc.lft.to/lastmile_qr_scan", "ios": "https://dc.lft.to/lastmile_qr_scan"}, "type": "electric_scooter", "lat": 38.908028, "is_reserved": 0, "fusion_lat": 0.0}, {"bike_id": "3083f062c5bddd32f7a48b3d49d21eef", "fusion_lon": 0.0, "lon": -76.99815083333333, "name": "3083f062c5bddd32f7a48b3d49d21eef", "is_disabled": 0, "rental_uris": {"android": "https://dc.lft.to/lastmile_qr_scan", "ios": "https://dc.lft.to/lastmile_qr_scan"}, "type": "electric_scooter", "lat": 38.8443015, "is_reserved": 0, "fusion_lat": 0.0}, {"bike_id": "6858d1f166967177cb37f96ee7023829", "fusion_lon": 0.0, "lon": -76.98651183333334, "name": "6858d1f166967177cb37f96ee7023829", "is_disabled": 0, "rental_uris": {"android": "https://dc.lft.to/lastmile_qr_scan", "ios": "https://dc.lft.to/lastmile_qr_scan"}, "type": "electric_scooter", "lat": 38.858047, "is_reserved": 0, "fusion_lat": 0.0}, {"bike_id": "f0eec670fb4a6a2f0b5bbae7a6cc780b", "fusion_lon": 0.0, "lon": -77.0096645, "name": "f0eec670fb4a6a2f0b5bbae7a6cc780b", "is_disabled": 0, "rental_uris": {"android": "https://dc.lft.to/lastmile_qr_scan", "ios": "https://dc.lft.to/lastmile_qr_scan"}, "type": "electric_scooter", "lat": 38.907810166666664, "is_reserved": 0, "fusion_lat": 0.0}, {"bike_id": "00fc23a2899504d67f862c9f9737187a", "fusion_lon": 0.0, "lon": -76.98923383333333, "name": "00fc23a2899504d67f862c9f9737187a", "is_disabled": 0, "rental_uris": {"android": "https://dc.lft.to/lastmile_qr_scan", "ios": "https://dc.lft.to/lastmile_qr_scan"}, "type": "electric_scooter", "lat": 38.8581115, "is_reserved": 0, "fusion_lat": 0.0}, {"bike_id": "815eb5dc8920b966dd9282ed4509e140", "fusion_lon": 0.0, "lon": -77.038691, "name": "815eb5dc8920b966dd9282ed4509e140", "is_disabled": 0, "rental_uris": {"android": "https://dc.lft.to/lastmile_qr_scan", "ios": "https://dc.lft.to/lastmile_qr_scan"}, "type": "electric_scooter", "lat": 38.912596, "is_reserved": 0, "fusion_lat": 0.0}, {"bike_id": "dcee5b2edc62d424fa21ce5779c0793d", "fusion_lon": 0.0, "lon": -77.04050416666666, "name": "dcee5b2edc62d424fa21ce5779c0793d", "is_disabled": 0, "rental_uris": {"android": "https://dc.lft.to/lastmile_qr_scan", "ios": "https://dc.lft.to/lastmile_qr_scan"}, "type": "electric_scooter", "lat": 38.89896783333333, "is_reserved": 0, "fusion_lat": 0.0}, {"bike_id": "29283f3b6afe9b7327d182e5c3c15258", "fusion_lon": 0.0, "lon": -76.98823266666666, "name": "29283f3b6afe9b7327d182e5c3c15258", "is_disabled": 0, "rental_uris": {"android": "https://dc.lft.to/lastmile_qr_scan", "ios": "https://dc.lft.to/lastmile_qr_scan"}, "type": "electric_scooter", "lat": 38.90025383333333, "is_reserved": 0, "fusion_lat": 0.0}, {"bike_id": "f15b2ba386b3051557128d022adda8b0", "fusion_lon": 0.0, "lon": -77.0272245, "name": "f15b2ba386b3051557128d022adda8b0", "is_disabled": 0, "rental_uris": {"android": "https://dc.lft.to/lastmile_qr_scan", "ios": "https://dc.lft.to/lastmile_qr_scan"}, "type": "electric_scooter", "lat": 38.94084516666667, "is_reserved": 0, "fusion_lat": 0.0}, {"bike_id": "ec06bf4a8a0e9f52fe2ddcd5c638d606", "fusion_lon": 0.0, "lon": -76.99753016666666, "name": "ec06bf4a8a0e9f52fe2ddcd5c638d606", "is_disabled": 0, "rental_uris": {"android": "https://dc.lft.to/lastmile_qr_scan", "ios": "https://dc.lft.to/lastmile_qr_scan"}, "type": "electric_scooter", "lat": 38.932259333333334, "is_reserved": 0, "fusion_lat": 0.0}, {"bike_id": "5420df015d97921c6461f3e82a69cf55", "fusion_lon": 0.0, "lon": -77.04285016666667, "name": "5420df015d97921c6461f3e82a69cf55", "is_disabled": 0, "rental_uris": {"android": "https://dc.lft.to/lastmile_qr_scan", "ios": "https://dc.lft.to/lastmile_qr_scan"}, "type": "electric_scooter", "lat": 38.92279166666667, "is_reserved": 0, "fusion_lat": 0.0}, {"bike_id": "d4f4297eb455c622e088cd1757f8a9c3", "fusion_lon": 0.0, "lon": -77.00197366666667, "name": "d4f4297eb455c622e088cd1757f8a9c3", "is_disabled": 0, "rental_uris": {"android": "https://dc.lft.to/lastmile_qr_scan", "ios": "https://dc.lft.to/lastmile_qr_scan"}, "type": "electric_scooter", "lat": 38.907875, "is_reserved": 0, "fusion_lat": 0.0}, {"bike_id": "9025a038a3cdcc35eb0c8ed1e68b9353", "fusion_lon": 0.0, "lon": -77.033901, "name": "9025a038a3cdcc35eb0c8ed1e68b9353", "is_disabled": 0, "rental_uris": {"android": "https://dc.lft.to/lastmile_qr_scan", "ios": "https://dc.lft.to/lastmile_qr_scan"}, "type": "electric_scooter", "lat": 38.92841683333333, "is_reserved": 0, "fusion_lat": 0.0}, {"bike_id": "862c37a4c8f7933e2989504709bc0935", "fusion_lon": 0.0, "lon": -77.03544916666667, "name": "862c37a4c8f7933e2989504709bc0935", "is_disabled": 0, "rental_uris": {"android": "https://dc.lft.to/lastmile_qr_scan", "ios": "https://dc.lft.to/lastmile_qr_scan"}, "type": "electric_scooter", "lat": 38.9247195, "is_reserved": 0, "fusion_lat": 0.0}, {"bike_id": "fe11f605096217deff6bdece0b899c7c", "fusion_lon": 0.0, "lon": -77.01654816666667, "name": "fe11f605096217deff6bdece0b899c7c", "is_disabled": 0, "rental_uris": {"android": "https://dc.lft.to/lastmile_qr_scan", "ios": "https://dc.lft.to/lastmile_qr_scan"}, "type": "electric_scooter", "lat": 38.88110733333333, "is_reserved": 0, "fusion_lat": 0.0}, {"bike_id": "4752ae32c01fec3dee67b230c5d69b19", "fusion_lon": 0.0, "lon": -77.10087366666667, "name": "4752ae32c01fec3dee67b230c5d69b19", "is_disabled": 0, "rental_uris": {"android": "https://dc.lft.to/lastmile_qr_scan", "ios": "https://dc.lft.to/lastmile_qr_scan"}, "type": "electric_bike", "lat": 38.9595695, "is_reserved": 0, "fusion_lat": 0.0}, {"bike_id": "637159cc8fac98f39d2ada22bf79bc11", "fusion_lon": 0.0, "lon": -77.04888616666666, "name": "637159cc8fac98f39d2ada22bf79bc11", "is_disabled": 0, "rental_uris": {"android": "https://dc.lft.to/lastmile_qr_scan", "ios": "https://dc.lft.to/lastmile_qr_scan"}, "type": "electric_scooter", "lat": 38.900770666666666, "is_reserved": 0, "fusion_lat": 0.0}, {"bike_id": "0233d4bc1038f6de05ba2a4e343f3a96", "fusion_lon": 0.0, "lon": -77.032941, "name": "0233d4bc1038f6de05ba2a4e343f3a96", "is_disabled": 0, "rental_uris": {"android": "https://dc.lft.to/lastmile_qr_scan", "ios": "https://dc.lft.to/lastmile_qr_scan"}, "type": "electric_scooter", "lat": 38.916285333333335, "is_reserved": 0, "fusion_lat": 0.0}, {"bike_id": "ee2f4c90d65c68ae812c59a8755e4b0e", "fusion_lon": 0.0, "lon": -77.03578183333333, "name": "ee2f4c90d65c68ae812c59a8755e4b0e", "is_disabled": 0, "rental_uris": {"android": "https://dc.lft.to/lastmile_qr_scan", "ios": "https://dc.lft.to/lastmile_qr_scan"}, "type": "electric_scooter", "lat": 38.92792266666667, "is_reserved": 0, "fusion_lat": 0.0}, {"bike_id": "427d537c3cf81bb96d8446f197134de8", "fusion_lon": 0.0, "lon": -76.95018583333334, "name": "427d537c3cf81bb96d8446f197134de8", "is_disabled": 0, "rental_uris": {"android": "https://dc.lft.to/lastmile_qr_scan", "ios": "https://dc.lft.to/lastmile_qr_scan"}, "type": "electric_scooter", "lat": 38.89389366666666, "is_reserved": 0, "fusion_lat": 0.0}, {"bike_id": "47696c456e9fcf4ef35a6ff316ca23f8", "fusion_lon": 0.0, "lon": -77.03658116666666, "name": "47696c456e9fcf4ef35a6ff316ca23f8", "is_disabled": 0, "rental_uris": {"android": "https://dc.lft.to/lastmile_qr_scan", "ios": "https://dc.lft.to/lastmile_qr_scan"}, "type": "electric_scooter", "lat": 38.928612333333334, "is_reserved": 0, "fusion_lat": 0.0}, {"bike_id": "54633c384babd8461fb05258c4709cca", "fusion_lon": 0.0, "lon": -76.994281, "name": "54633c384babd8461fb05258c4709cca", "is_disabled": 0, "rental_uris": {"android": "https://dc.lft.to/lastmile_qr_scan", "ios": "https://dc.lft.to/lastmile_qr_scan"}, "type": "electric_scooter", "lat": 38.903146666666665, "is_reserved": 0, "fusion_lat": 0.0}, {"bike_id": "beb512e39516705bb559e274d6cac010", "fusion_lon": 0.0, "lon": -77.03799, "name": "beb512e39516705bb559e274d6cac010", "is_disabled": 0, "rental_uris": {"android": "https://dc.lft.to/lastmile_qr_scan", "ios": "https://dc.lft.to/lastmile_qr_scan"}, "type": "electric_scooter", "lat": 38.92505416666667, "is_reserved": 0, "fusion_lat": 0.0}, {"bike_id": "cf863397f8487c2a15797cf603e34573", "fusion_lon": 0.0, "lon": -77.02988316666666, "name": "cf863397f8487c2a15797cf603e34573", "is_disabled": 0, "rental_uris": {"android": "https://dc.lft.to/lastmile_qr_scan", "ios": "https://dc.lft.to/lastmile_qr_scan"}, "type": "electric_scooter", "lat": 38.884174, "is_reserved": 0, "fusion_lat": 0.0}, {"bike_id": "ac9b4de2ec9614b8d4313f8ac914439a", "fusion_lon": 0.0, "lon": -77.0320705, "name": "ac9b4de2ec9614b8d4313f8ac914439a", "is_disabled": 0, "rental_uris": {"android": "https://dc.lft.to/lastmile_qr_scan", "ios": "https://dc.lft.to/lastmile_qr_scan"}, "type": "electric_scooter", "lat": 38.914737833333334, "is_reserved": 0, "fusion_lat": 0.0}, {"bike_id": "ab4c48ba43c567eb700d7eff850eda84", "fusion_lon": 0.0, "lon": -77.07823166666667, "name": "ab4c48ba43c567eb700d7eff850eda84", "is_disabled": 0, "rental_uris": {"android": "https://dc.lft.to/lastmile_qr_scan", "ios": "https://dc.lft.to/lastmile_qr_scan"}, "type": "electric_bike", "lat": 38.9127445, "is_reserved": 0, "fusion_lat": 0.0}, {"bike_id": "698468018df4a61b5d4f60c9af79f9cb", "fusion_lon": 0.0, "lon": -77.0418235, "name": "698468018df4a61b5d4f60c9af79f9cb", "is_disabled": 0, "rental_uris": {"android": "https://dc.lft.to/lastmile_qr_scan", "ios": "https://dc.lft.to/lastmile_qr_scan"}, "type": "electric_scooter", "lat": 38.8929835, "is_reserved": 0, "fusion_lat": 0.0}, {"bike_id": "07b9c72974ffa7e050df12fd0da60ae3", "fusion_lon": 0.0, "lon": -77.034682, "name": "07b9c72974ffa7e050df12fd0da60ae3", "is_disabled": 0, "rental_uris": {"android": "https://dc.lft.to/lastmile_qr_scan", "ios": "https://dc.lft.to/lastmile_qr_scan"}, "type": "electric_scooter", "lat": 38.9038135, "is_reserved": 0, "fusion_lat": 0.0}, {"bike_id": "ecebd6045521e48b628acafea0018cb1", "fusion_lon": 0.0, "lon": -77.027292, "name": "ecebd6045521e48b628acafea0018cb1", "is_disabled": 0, "rental_uris": {"android": "https://dc.lft.to/lastmile_qr_scan", "ios": "https://dc.lft.to/lastmile_qr_scan"}, "type": "electric_scooter", "lat": 38.928344333333335, "is_reserved": 0, "fusion_lat": 0.0}, {"bike_id": "45781fe9a92d8c63ad60075ca4596d48", "fusion_lon": 0.0, "lon": -77.03346333333333, "name": "45781fe9a92d8c63ad60075ca4596d48", "is_disabled": 0, "rental_uris": {"android": "https://dc.lft.to/lastmile_qr_scan", "ios": "https://dc.lft.to/lastmile_qr_scan"}, "type": "electric_scooter", "lat": 38.90269766666667, "is_reserved": 0, "fusion_lat": 0.0}, {"bike_id": "9da46e523726f2564ce092340a43f30c", "fusion_lon": 0.0, "lon": -77.01963566666667, "name": "9da46e523726f2564ce092340a43f30c", "is_disabled": 0, "rental_uris": {"android": "https://dc.lft.to/lastmile_qr_scan", "ios": "https://dc.lft.to/lastmile_qr_scan"}, "type": "electric_scooter", "lat": 38.956524, "is_reserved": 0, "fusion_lat": 0.0}, {"bike_id": "97773e2b66973784b09200ba8174bb4a", "fusion_lon": 0.0, "lon": -77.04530533333333, "name": "97773e2b66973784b09200ba8174bb4a", "is_disabled": 0, "rental_uris": {"android": "https://dc.lft.to/lastmile_qr_scan", "ios": "https://dc.lft.to/lastmile_qr_scan"}, "type": "electric_scooter", "lat": 38.9035055, "is_reserved": 0, "fusion_lat": 0.0}, {"bike_id": "75b2583940f18f2c90f03932f9c51cb2", "fusion_lon": 0.0, "lon": -77.0269465, "name": "75b2583940f18f2c90f03932f9c51cb2", "is_disabled": 0, "rental_uris": {"android": "https://dc.lft.to/lastmile_qr_scan", "ios": "https://dc.lft.to/lastmile_qr_scan"}, "type": "electric_scooter", "lat": 38.911212166666665, "is_reserved": 0, "fusion_lat": 0.0}, {"bike_id": "5233714314ddb63055cded86de954eda", "fusion_lon": 0.0, "lon": -77.0221365, "name": "5233714314ddb63055cded86de954eda", "is_disabled": 0, "rental_uris": {"android": "https://dc.lft.to/lastmile_qr_scan", "ios": "https://dc.lft.to/lastmile_qr_scan"}, "type": "electric_scooter", "lat": 38.87902966666667, "is_reserved": 0, "fusion_lat": 0.0}, {"bike_id": "df54da78e5e422be253e4f6b2dd13cc5", "fusion_lon": 0.0, "lon": -77.04144883333333, "name": "df54da78e5e422be253e4f6b2dd13cc5", "is_disabled": 0, "rental_uris": {"android": "https://dc.lft.to/lastmile_qr_scan", "ios": "https://dc.lft.to/lastmile_qr_scan"}, "type": "electric_scooter", "lat": 38.9154985, "is_reserved": 0, "fusion_lat": 0.0}, {"bike_id": "e47a22299b0415731d147abec55f6131", "fusion_lon": 0.0, "lon": -77.02623883333334, "name": "e47a22299b0415731d147abec55f6131", "is_disabled": 0, "rental_uris": {"android": "https://dc.lft.to/lastmile_qr_scan", "ios": "https://dc.lft.to/lastmile_qr_scan"}, "type": "electric_scooter", "lat": 38.896238333333336, "is_reserved": 0, "fusion_lat": 0.0}, {"bike_id": "4466af2dc5ab542ad3dcc42d9b677370", "fusion_lon": 0.0, "lon": -77.1145865, "name": "4466af2dc5ab542ad3dcc42d9b677370", "is_disabled": 0, "rental_uris": {"android": "https://dc.lft.to/lastmile_qr_scan", "ios": "https://dc.lft.to/lastmile_qr_scan"}, "type": "electric_bike", "lat": 38.88126616666667, "is_reserved": 0, "fusion_lat": 0.0}, {"bike_id": "867d184e76e971a2ce28a42f3af76102", "fusion_lon": 0.0, "lon": -77.0237285, "name": "867d184e76e971a2ce28a42f3af76102", "is_disabled": 0, "rental_uris": {"android": "https://dc.lft.to/lastmile_qr_scan", "ios": "https://dc.lft.to/lastmile_qr_scan"}, "type": "electric_scooter", "lat": 38.91974833333333, "is_reserved": 0, "fusion_lat": 0.0}, {"bike_id": "a677dd42ebee70a54cfa46b273b88e8c", "fusion_lon": 0.0, "lon": -76.98885383333334, "name": "a677dd42ebee70a54cfa46b273b88e8c", "is_disabled": 0, "rental_uris": {"android": "https://dc.lft.to/lastmile_qr_scan", "ios": "https://dc.lft.to/lastmile_qr_scan"}, "type": "electric_scooter", "lat": 38.86644733333333, "is_reserved": 0, "fusion_lat": 0.0}, {"bike_id": "9fdab02e824b35c8d240cb5f4dd05cc2", "fusion_lon": 0.0, "lon": -77.127299, "name": "9fdab02e824b35c8d240cb5f4dd05cc2", "is_disabled": 0, "rental_uris": {"android": "https://dc.lft.to/lastmile_qr_scan", "ios": "https://dc.lft.to/lastmile_qr_scan"}, "type": "electric_bike", "lat": 38.89560633333333, "is_reserved": 0, "fusion_lat": 0.0}, {"bike_id": "5e858b5c1c3305a3919b8be788da56a7", "fusion_lon": 0.0, "lon": -77.05276016666667, "name": "5e858b5c1c3305a3919b8be788da56a7", "is_disabled": 0, "rental_uris": {"android": "https://dc.lft.to/lastmile_qr_scan", "ios": "https://dc.lft.to/lastmile_qr_scan"}, "type": "electric_scooter", "lat": 38.92536916666667, "is_reserved": 0, "fusion_lat": 0.0}, {"bike_id": "769c9016faed451ffe78f8b067dd684d", "fusion_lon": 0.0, "lon": -77.0269335, "name": "769c9016faed451ffe78f8b067dd684d", "is_disabled": 0, "rental_uris": {"android": "https://dc.lft.to/lastmile_qr_scan", "ios": "https://dc.lft.to/lastmile_qr_scan"}, "type": "electric_scooter", "lat": 38.906844666666665, "is_reserved": 0, "fusion_lat": 0.0}, {"bike_id": "e43e6f95d8663c179e664bb863852fd5", "fusion_lon": 0.0, "lon": -76.99328483333333, "name": "e43e6f95d8663c179e664bb863852fd5", "is_disabled": 0, "rental_uris": {"android": "https://dc.lft.to/lastmile_qr_scan", "ios": "https://dc.lft.to/lastmile_qr_scan"}, "type": "electric_scooter", "lat": 38.924437833333336, "is_reserved": 0, "fusion_lat": 0.0}, {"bike_id": "3e78d5dbcf87e5eb83c7b75e3372b12d", "fusion_lon": 0.0, "lon": -77.02981833333334, "name": "3e78d5dbcf87e5eb83c7b75e3372b12d", "is_disabled": 0, "rental_uris": {"android": "https://dc.lft.to/lastmile_qr_scan", "ios": "https://dc.lft.to/lastmile_qr_scan"}, "type": "electric_scooter", "lat": 38.9346965, "is_reserved": 0, "fusion_lat": 0.0}, {"bike_id": "3a4cb5a5da55d4e359a6c3b68a279f08", "fusion_lon": 0.0, "lon": -77.04015833333334, "name": "3a4cb5a5da55d4e359a6c3b68a279f08", "is_disabled": 0, "rental_uris": {"android": "https://dc.lft.to/lastmile_qr_scan", "ios": "https://dc.lft.to/lastmile_qr_scan"}, "type": "electric_bike", "lat": 38.79324366666667, "is_reserved": 0, "fusion_lat": 0.0}, {"bike_id": "4d76c9b6b82b4b217bc5ad8ebd0ba341", "fusion_lon": 0.0, "lon": -77.05228116666666, "name": "4d76c9b6b82b4b217bc5ad8ebd0ba341", "is_disabled": 0, "rental_uris": {"android": "https://dc.lft.to/lastmile_qr_scan", "ios": "https://dc.lft.to/lastmile_qr_scan"}, "type": "electric_scooter", "lat": 38.924566, "is_reserved": 0, "fusion_lat": 0.0}, {"bike_id": "ac5458936ed17e8bd6aaa2d6bfd0c590", "fusion_lon": 0.0, "lon": -77.0012935, "name": "ac5458936ed17e8bd6aaa2d6bfd0c590", "is_disabled": 0, "rental_uris": {"android": "https://dc.lft.to/lastmile_qr_scan", "ios": "https://dc.lft.to/lastmile_qr_scan"}, "type": "electric_scooter", "lat": 38.905365, "is_reserved": 0, "fusion_lat": 0.0}, {"bike_id": "d2f5f04e21fab4f85e253b5326e36e64", "fusion_lon": 0.0, "lon": -76.97238283333333, "name": "d2f5f04e21fab4f85e253b5326e36e64", "is_disabled": 0, "rental_uris": {"android": "https://dc.lft.to/lastmile_qr_scan", "ios": "https://dc.lft.to/lastmile_qr_scan"}, "type": "electric_bike", "lat": 38.949023833333335, "is_reserved": 0, "fusion_lat": 0.0}, {"bike_id": "92d05e213f6ae832e433fc74810e95e2", "fusion_lon": 0.0, "lon": -77.0858835, "name": "92d05e213f6ae832e433fc74810e95e2", "is_disabled": 0, "rental_uris": {"android": "https://dc.lft.to/lastmile_qr_scan", "ios": "https://dc.lft.to/lastmile_qr_scan"}, "type": "electric_bike", "lat": 38.84437583333333, "is_reserved": 0, "fusion_lat": 0.0}, {"bike_id": "fc36501a71ea95b2da2fce73edc32bf6", "fusion_lon": 0.0, "lon": -77.10706166666667, "name": "fc36501a71ea95b2da2fce73edc32bf6", "is_disabled": 0, "rental_uris": {"android": "https://dc.lft.to/lastmile_qr_scan", "ios": "https://dc.lft.to/lastmile_qr_scan"}, "type": "electric_bike", "lat": 38.964867166666664, "is_reserved": 0, "fusion_lat": 0.0}, {"bike_id": "b7448482d62c8c62679a6247aafbbfc3", "fusion_lon": 0.0, "lon": -76.99935216666667, "name": "b7448482d62c8c62679a6247aafbbfc3", "is_disabled": 0, "rental_uris": {"android": "https://dc.lft.to/lastmile_qr_scan", "ios": "https://dc.lft.to/lastmile_qr_scan"}, "type": "electric_scooter", "lat": 38.89204483333333, "is_reserved": 0, "fusion_lat": 0.0}, {"bike_id": "f847c3daaba272298fd4f0314ada5f24", "fusion_lon": 0.0, "lon": -77.03335183333333, "name": "f847c3daaba272298fd4f0314ada5f24", "is_disabled": 0, "rental_uris": {"android": "https://dc.lft.to/lastmile_qr_scan", "ios": "https://dc.lft.to/lastmile_qr_scan"}, "type": "electric_scooter", "lat": 38.90130166666667, "is_reserved": 0, "fusion_lat": 0.0}, {"bike_id": "804828d77ce57bf9ee5d446efdaf33bf", "fusion_lon": 0.0, "lon": -77.04700283333334, "name": "804828d77ce57bf9ee5d446efdaf33bf", "is_disabled": 0, "rental_uris": {"android": "https://dc.lft.to/lastmile_qr_scan", "ios": "https://dc.lft.to/lastmile_qr_scan"}, "type": "electric_scooter", "lat": 38.90966383333333, "is_reserved": 0, "fusion_lat": 0.0}, {"bike_id": "5ab4cf1dd827f79829284d790f17fc96", "fusion_lon": 0.0, "lon": -77.24443116666667, "name": "5ab4cf1dd827f79829284d790f17fc96", "is_disabled": 0, "rental_uris": {"android": "https://dc.lft.to/lastmile_qr_scan", "ios": "https://dc.lft.to/lastmile_qr_scan"}, "type": "electric_bike", "lat": 38.881922, "is_reserved": 0, "fusion_lat": 0.0}, {"bike_id": "1965b0e588e140356ebe9b2619d3f1d6", "fusion_lon": 0.0, "lon": -77.003526, "name": "1965b0e588e140356ebe9b2619d3f1d6", "is_disabled": 0, "rental_uris": {"android": "https://dc.lft.to/lastmile_qr_scan", "ios": "https://dc.lft.to/lastmile_qr_scan"}, "type": "electric_scooter", "lat": 38.901454333333334, "is_reserved": 0, "fusion_lat": 0.0}, {"bike_id": "4e609b9440618c3c89a30b8ba17e34e9", "fusion_lon": 0.0, "lon": -77.02085333333333, "name": "4e609b9440618c3c89a30b8ba17e34e9", "is_disabled": 0, "rental_uris": {"android": "https://dc.lft.to/lastmile_qr_scan", "ios": "https://dc.lft.to/lastmile_qr_scan"}, "type": "electric_scooter", "lat": 38.89768866666667, "is_reserved": 0, "fusion_lat": 0.0}, {"bike_id": "b727941506e4910fe1e2e7eb99d017a5", "fusion_lon": 0.0, "lon": -77.04327916666666, "name": "b727941506e4910fe1e2e7eb99d017a5", "is_disabled": 0, "rental_uris": {"android": "https://dc.lft.to/lastmile_qr_scan", "ios": "https://dc.lft.to/lastmile_qr_scan"}, "type": "electric_scooter", "lat": 38.89223116666667, "is_reserved": 0, "fusion_lat": 0.0}, {"bike_id": "6e2d9b7fe46948ceb2c400bef0acb41b", "fusion_lon": 0.0, "lon": -76.93751583333334, "name": "6e2d9b7fe46948ceb2c400bef0acb41b", "is_disabled": 0, "rental_uris": {"android": "https://dc.lft.to/lastmile_qr_scan", "ios": "https://dc.lft.to/lastmile_qr_scan"}, "type": "electric_scooter", "lat": 38.89041983333333, "is_reserved": 0, "fusion_lat": 0.0}, {"bike_id": "c525ab6615d7842f87b43e966f07946b", "fusion_lon": 0.0, "lon": -77.027029, "name": "c525ab6615d7842f87b43e966f07946b", "is_disabled": 0, "rental_uris": {"android": "https://dc.lft.to/lastmile_qr_scan", "ios": "https://dc.lft.to/lastmile_qr_scan"}, "type": "electric_scooter", "lat": 38.917256, "is_reserved": 0, "fusion_lat": 0.0}, {"bike_id": "70f7409594fba05337128a5235b45f51", "fusion_lon": 0.0, "lon": -77.0236315, "name": "70f7409594fba05337128a5235b45f51", "is_disabled": 0, "rental_uris": {"android": "https://dc.lft.to/lastmile_qr_scan", "ios": "https://dc.lft.to/lastmile_qr_scan"}, "type": "electric_bike", "lat": 38.879130833333335, "is_reserved": 0, "fusion_lat": 0.0}, {"bike_id": "f4813ec770be688af17154d14efbb3fa", "fusion_lon": 0.0, "lon": -76.97181466666666, "name": "f4813ec770be688af17154d14efbb3fa", "is_disabled": 0, "rental_uris": {"android": "https://dc.lft.to/lastmile_qr_scan", "ios": "https://dc.lft.to/lastmile_qr_scan"}, "type": "electric_bike", "lat": 38.91648333333333, "is_reserved": 0, "fusion_lat": 0.0}, {"bike_id": "66c598365c7e08e3c294a28f747986db", "fusion_lon": 0.0, "lon": -77.03166866666666, "name": "66c598365c7e08e3c294a28f747986db", "is_disabled": 0, "rental_uris": {"android": "https://dc.lft.to/lastmile_qr_scan", "ios": "https://dc.lft.to/lastmile_qr_scan"}, "type": "electric_scooter", "lat": 38.902465, "is_reserved": 0, "fusion_lat": 0.0}, {"bike_id": "68644951fb1dbecddc639aa117679615", "fusion_lon": 0.0, "lon": -76.9952715, "name": "68644951fb1dbecddc639aa117679615", "is_disabled": 0, "rental_uris": {"android": "https://dc.lft.to/lastmile_qr_scan", "ios": "https://dc.lft.to/lastmile_qr_scan"}, "type": "electric_scooter", "lat": 38.86245666666667, "is_reserved": 0, "fusion_lat": 0.0}, {"bike_id": "9de962c85ee9e89e31dffcb4ddd3786e", "fusion_lon": 0.0, "lon": -77.04330083333333, "name": "9de962c85ee9e89e31dffcb4ddd3786e", "is_disabled": 0, "rental_uris": {"android": "https://dc.lft.to/lastmile_qr_scan", "ios": "https://dc.lft.to/lastmile_qr_scan"}, "type": "electric_scooter", "lat": 38.89223883333333, "is_reserved": 0, "fusion_lat": 0.0}, {"bike_id": "fb1d4730d5f3e38f26c0071483c3eebc", "fusion_lon": 0.0, "lon": -77.0217215, "name": "fb1d4730d5f3e38f26c0071483c3eebc", "is_disabled": 0, "rental_uris": {"android": "https://dc.lft.to/lastmile_qr_scan", "ios": "https://dc.lft.to/lastmile_qr_scan"}, "type": "electric_scooter", "lat": 38.883195666666666, "is_reserved": 0, "fusion_lat": 0.0}, {"bike_id": "a6ea19f7cedc334fd40956de7491dcf7", "fusion_lon": 0.0, "lon": -77.041787, "name": "a6ea19f7cedc334fd40956de7491dcf7", "is_disabled": 0, "rental_uris": {"android": "https://dc.lft.to/lastmile_qr_scan", "ios": "https://dc.lft.to/lastmile_qr_scan"}, "type": "electric_scooter", "lat": 38.9036145, "is_reserved": 0, "fusion_lat": 0.0}, {"bike_id": "476ce6ce5ff430f0cc311b342b07bb26", "fusion_lon": 0.0, "lon": -77.03218316666667, "name": "476ce6ce5ff430f0cc311b342b07bb26", "is_disabled": 0, "rental_uris": {"android": "https://dc.lft.to/lastmile_qr_scan", "ios": "https://dc.lft.to/lastmile_qr_scan"}, "type": "electric_scooter", "lat": 38.96157733333333, "is_reserved": 0, "fusion_lat": 0.0}, {"bike_id": "e68baea1f6f510f345b2b0a3c1ffae0b", "fusion_lon": 0.0, "lon": -77.233192, "name": "e68baea1f6f510f345b2b0a3c1ffae0b", "is_disabled": 0, "rental_uris": {"android": "https://dc.lft.to/lastmile_qr_scan", "ios": "https://dc.lft.to/lastmile_qr_scan"}, "type": "electric_bike", "lat": 38.872827, "is_reserved": 0, "fusion_lat": 0.0}, {"bike_id": "471fdc8cd4ad7871a0083ba78520188e", "fusion_lon": 0.0, "lon": -77.03059433333334, "name": "471fdc8cd4ad7871a0083ba78520188e", "is_disabled": 0, "rental_uris": {"android": "https://dc.lft.to/lastmile_qr_scan", "ios": "https://dc.lft.to/lastmile_qr_scan"}, "type": "electric_bike", "lat": 38.9595075, "is_reserved": 0, "fusion_lat": 0.0}, {"bike_id": "c7ac6f9179f87ce4f2f4327e8f15ef41", "fusion_lon": 0.0, "lon": -76.99793883333334, "name": "c7ac6f9179f87ce4f2f4327e8f15ef41", "is_disabled": 0, "rental_uris": {"android": "https://dc.lft.to/lastmile_qr_scan", "ios": "https://dc.lft.to/lastmile_qr_scan"}, "type": "electric_scooter", "lat": 38.874918666666666, "is_reserved": 0, "fusion_lat": 0.0}, {"bike_id": "2805492871bdfed6ccc315c27fba728c", "fusion_lon": 0.0, "lon": -76.9835995, "name": "2805492871bdfed6ccc315c27fba728c", "is_disabled": 0, "rental_uris": {"android": "https://dc.lft.to/lastmile_qr_scan", "ios": "https://dc.lft.to/lastmile_qr_scan"}, "type": "electric_scooter", "lat": 38.906319333333336, "is_reserved": 0, "fusion_lat": 0.0}, {"bike_id": "f9f28cc63cdf8e90fd3de27463a1fbe3", "fusion_lon": 0.0, "lon": -76.93732333333334, "name": "f9f28cc63cdf8e90fd3de27463a1fbe3", "is_disabled": 0, "rental_uris": {"android": "https://dc.lft.to/lastmile_qr_scan", "ios": "https://dc.lft.to/lastmile_qr_scan"}, "type": "electric_scooter", "lat": 38.8901425, "is_reserved": 0, "fusion_lat": 0.0}, {"bike_id": "eb2dd09160f08dbacf954a6ae4b9948a", "fusion_lon": 0.0, "lon": -77.01987516666667, "name": "eb2dd09160f08dbacf954a6ae4b9948a", "is_disabled": 0, "rental_uris": {"android": "https://dc.lft.to/lastmile_qr_scan", "ios": "https://dc.lft.to/lastmile_qr_scan"}, "type": "electric_scooter", "lat": 38.931220833333334, "is_reserved": 0, "fusion_lat": 0.0}, {"bike_id": "ae573212faba6a6c057fdadafd500293", "fusion_lon": 0.0, "lon": -77.03550566666667, "name": "ae573212faba6a6c057fdadafd500293", "is_disabled": 0, "rental_uris": {"android": "https://dc.lft.to/lastmile_qr_scan", "ios": "https://dc.lft.to/lastmile_qr_scan"}, "type": "electric_scooter", "lat": 38.9082195, "is_reserved": 0, "fusion_lat": 0.0}, {"bike_id": "87e63fffb4243618621d296ee3b845c6", "fusion_lon": 0.0, "lon": -77.02618716666667, "name": "87e63fffb4243618621d296ee3b845c6", "is_disabled": 0, "rental_uris": {"android": "https://dc.lft.to/lastmile_qr_scan", "ios": "https://dc.lft.to/lastmile_qr_scan"}, "type": "electric_bike", "lat": 38.969272833333335, "is_reserved": 0, "fusion_lat": 0.0}, {"bike_id": "8bc6fe79c3f07fe2e24dc2f6a15d7af1", "fusion_lon": 0.0, "lon": -77.0282085, "name": "8bc6fe79c3f07fe2e24dc2f6a15d7af1", "is_disabled": 0, "rental_uris": {"android": "https://dc.lft.to/lastmile_qr_scan", "ios": "https://dc.lft.to/lastmile_qr_scan"}, "type": "electric_scooter", "lat": 38.92064083333333, "is_reserved": 0, "fusion_lat": 0.0}, {"bike_id": "e7c447b5c26ea52d08f9e3f39937bc5f", "fusion_lon": 0.0, "lon": -76.96525883333334, "name": "e7c447b5c26ea52d08f9e3f39937bc5f", "is_disabled": 0, "rental_uris": {"android": "https://dc.lft.to/lastmile_qr_scan", "ios": "https://dc.lft.to/lastmile_qr_scan"}, "type": "electric_scooter", "lat": 38.87626366666667, "is_reserved": 0, "fusion_lat": 0.0}, {"bike_id": "de70caf590953cac06945220f83fa6bb", "fusion_lon": 0.0, "lon": -77.034245, "name": "de70caf590953cac06945220f83fa6bb", "is_disabled": 0, "rental_uris": {"android": "https://dc.lft.to/lastmile_qr_scan", "ios": "https://dc.lft.to/lastmile_qr_scan"}, "type": "electric_bike", "lat": 38.96617833333333, "is_reserved": 0, "fusion_lat": 0.0}, {"bike_id": "89cefec33950b8de6fd41ff285db47a1", "fusion_lon": 0.0, "lon": -76.98708033333334, "name": "89cefec33950b8de6fd41ff285db47a1", "is_disabled": 0, "rental_uris": {"android": "https://dc.lft.to/lastmile_qr_scan", "ios": "https://dc.lft.to/lastmile_qr_scan"}, "type": "electric_scooter", "lat": 38.86696233333333, "is_reserved": 0, "fusion_lat": 0.0}, {"bike_id": "853908feb6f753fe46c983dd400f3e3f", "fusion_lon": 0.0, "lon": -77.03840866666667, "name": "853908feb6f753fe46c983dd400f3e3f", "is_disabled": 0, "rental_uris": {"android": "https://dc.lft.to/lastmile_qr_scan", "ios": "https://dc.lft.to/lastmile_qr_scan"}, "type": "electric_scooter", "lat": 38.91016916666667, "is_reserved": 0, "fusion_lat": 0.0}, {"bike_id": "272ceefece8af4dd57d0c36f1453855d", "fusion_lon": 0.0, "lon": -76.96524983333333, "name": "272ceefece8af4dd57d0c36f1453855d", "is_disabled": 0, "rental_uris": {"android": "https://dc.lft.to/lastmile_qr_scan", "ios": "https://dc.lft.to/lastmile_qr_scan"}, "type": "electric_scooter", "lat": 38.8762775, "is_reserved": 0, "fusion_lat": 0.0}, {"bike_id": "ea1fb8182046bedfbbb86f3a18e4659f", "fusion_lon": 0.0, "lon": -77.00404083333333, "name": "ea1fb8182046bedfbbb86f3a18e4659f", "is_disabled": 0, "rental_uris": {"android": "https://dc.lft.to/lastmile_qr_scan", "ios": "https://dc.lft.to/lastmile_qr_scan"}, "type": "electric_scooter", "lat": 38.876546833333336, "is_reserved": 0, "fusion_lat": 0.0}, {"bike_id": "d409faff2ab62fa9c07215cbf2f59fe1", "fusion_lon": 0.0, "lon": -77.03528533333333, "name": "d409faff2ab62fa9c07215cbf2f59fe1", "is_disabled": 0, "rental_uris": {"android": "https://dc.lft.to/lastmile_qr_scan", "ios": "https://dc.lft.to/lastmile_qr_scan"}, "type": "electric_scooter", "lat": 38.916887833333334, "is_reserved": 0, "fusion_lat": 0.0}, {"bike_id": "0d22d85f8690191c93f46e2f50047b2b", "fusion_lon": 0.0, "lon": -77.021938, "name": "0d22d85f8690191c93f46e2f50047b2b", "is_disabled": 0, "rental_uris": {"android": "https://dc.lft.to/lastmile_qr_scan", "ios": "https://dc.lft.to/lastmile_qr_scan"}, "type": "electric_scooter", "lat": 38.9109655, "is_reserved": 0, "fusion_lat": 0.0}, {"bike_id": "a900957c52de5520e6440d611b3634bf", "fusion_lon": 0.0, "lon": -77.11798666666667, "name": "a900957c52de5520e6440d611b3634bf", "is_disabled": 0, "rental_uris": {"android": "https://dc.lft.to/lastmile_qr_scan", "ios": "https://dc.lft.to/lastmile_qr_scan"}, "type": "electric_bike", "lat": 38.873718, "is_reserved": 0, "fusion_lat": 0.0}, {"bike_id": "b8b05609c627aa4592517887d19da979", "fusion_lon": 0.0, "lon": -77.04128233333333, "name": "b8b05609c627aa4592517887d19da979", "is_disabled": 0, "rental_uris": {"android": "https://dc.lft.to/lastmile_qr_scan", "ios": "https://dc.lft.to/lastmile_qr_scan"}, "type": "electric_scooter", "lat": 38.921296, "is_reserved": 0, "fusion_lat": 0.0}, {"bike_id": "f7d4435a8fa6b3c4f605f766a991fd61", "fusion_lon": 0.0, "lon": -77.0326065, "name": "f7d4435a8fa6b3c4f605f766a991fd61", "is_disabled": 0, "rental_uris": {"android": "https://dc.lft.to/lastmile_qr_scan", "ios": "https://dc.lft.to/lastmile_qr_scan"}, "type": "electric_scooter", "lat": 38.904225, "is_reserved": 0, "fusion_lat": 0.0}, {"bike_id": "ba0b3b25ed09894314216100d802b433", "fusion_lon": 0.0, "lon": -77.03429566666667, "name": "ba0b3b25ed09894314216100d802b433", "is_disabled": 0, "rental_uris": {"android": "https://dc.lft.to/lastmile_qr_scan", "ios": "https://dc.lft.to/lastmile_qr_scan"}, "type": "electric_scooter", "lat": 38.9037115, "is_reserved": 0, "fusion_lat": 0.0}, {"bike_id": "22e97b1adc47f02e2a572b766e736e44", "fusion_lon": 0.0, "lon": -77.043373, "name": "22e97b1adc47f02e2a572b766e736e44", "is_disabled": 0, "rental_uris": {"android": "https://dc.lft.to/lastmile_qr_scan", "ios": "https://dc.lft.to/lastmile_qr_scan"}, "type": "electric_scooter", "lat": 38.9062715, "is_reserved": 0, "fusion_lat": 0.0}, {"bike_id": "de0d814417240972504c7c6eaf87f028", "fusion_lon": 0.0, "lon": -77.0118255, "name": "de0d814417240972504c7c6eaf87f028", "is_disabled": 0, "rental_uris": {"android": "https://dc.lft.to/lastmile_qr_scan", "ios": "https://dc.lft.to/lastmile_qr_scan"}, "type": "electric_scooter", "lat": 38.9095345, "is_reserved": 0, "fusion_lat": 0.0}, {"bike_id": "3840762a80a8d9f1457024e4968be87f", "fusion_lon": 0.0, "lon": -77.07251383333333, "name": "3840762a80a8d9f1457024e4968be87f", "is_disabled": 0, "rental_uris": {"android": "https://dc.lft.to/lastmile_qr_scan", "ios": "https://dc.lft.to/lastmile_qr_scan"}, "type": "electric_scooter", "lat": 38.90776783333333, "is_reserved": 0, "fusion_lat": 0.0}, {"bike_id": "c5b9d1bf808033bfbd0660837a52ba96", "fusion_lon": 0.0, "lon": -77.00117116666667, "name": "c5b9d1bf808033bfbd0660837a52ba96", "is_disabled": 0, "rental_uris": {"android": "https://dc.lft.to/lastmile_qr_scan", "ios": "https://dc.lft.to/lastmile_qr_scan"}, "type": "electric_scooter", "lat": 38.90554616666667, "is_reserved": 0, "fusion_lat": 0.0}, {"bike_id": "03373951fc8ed65072684ceaafbdcfdb", "fusion_lon": 0.0, "lon": -77.046297, "name": "03373951fc8ed65072684ceaafbdcfdb", "is_disabled": 0, "rental_uris": {"android": "https://dc.lft.to/lastmile_qr_scan", "ios": "https://dc.lft.to/lastmile_qr_scan"}, "type": "electric_scooter", "lat": 38.919223833333334, "is_reserved": 0, "fusion_lat": 0.0}, {"bike_id": "f7fe0dc9a43d0c9584422b0d49089ff2", "fusion_lon": 0.0, "lon": -77.048751, "name": "f7fe0dc9a43d0c9584422b0d49089ff2", "is_disabled": 0, "rental_uris": {"android": "https://dc.lft.to/lastmile_qr_scan", "ios": "https://dc.lft.to/lastmile_qr_scan"}, "type": "electric_scooter", "lat": 38.9057815, "is_reserved": 0, "fusion_lat": 0.0}, {"bike_id": "192ca6908746825d80e0b13ec2567f63", "fusion_lon": 0.0, "lon": -77.04363416666666, "name": "192ca6908746825d80e0b13ec2567f63", "is_disabled": 0, "rental_uris": {"android": "https://dc.lft.to/lastmile_qr_scan", "ios": "https://dc.lft.to/lastmile_qr_scan"}, "type": "electric_scooter", "lat": 38.921406, "is_reserved": 0, "fusion_lat": 0.0}, {"bike_id": "1f52cac5322b377dce86a7d8e9754a1c", "fusion_lon": 0.0, "lon": -77.03280316666667, "name": "1f52cac5322b377dce86a7d8e9754a1c", "is_disabled": 0, "rental_uris": {"android": "https://dc.lft.to/lastmile_qr_scan", "ios": "https://dc.lft.to/lastmile_qr_scan"}, "type": "electric_scooter", "lat": 38.920164, "is_reserved": 0, "fusion_lat": 0.0}, {"bike_id": "bdbfe40a5d304dfde6c2f1684abc555c", "fusion_lon": 0.0, "lon": -77.016204, "name": "bdbfe40a5d304dfde6c2f1684abc555c", "is_disabled": 0, "rental_uris": {"android": "https://dc.lft.to/lastmile_qr_scan", "ios": "https://dc.lft.to/lastmile_qr_scan"}, "type": "electric_scooter", "lat": 38.89965933333333, "is_reserved": 0, "fusion_lat": 0.0}, {"bike_id": "f919e73752e83cd47a1eea08a5979d91", "fusion_lon": 0.0, "lon": -76.99963083333333, "name": "f919e73752e83cd47a1eea08a5979d91", "is_disabled": 0, "rental_uris": {"android": "https://dc.lft.to/lastmile_qr_scan", "ios": "https://dc.lft.to/lastmile_qr_scan"}, "type": "electric_scooter", "lat": 38.924427333333334, "is_reserved": 0, "fusion_lat": 0.0}, {"bike_id": "c63bb79152c33bd7026979692497713d", "fusion_lon": 0.0, "lon": -77.02188583333333, "name": "c63bb79152c33bd7026979692497713d", "is_disabled": 0, "rental_uris": {"android": "https://dc.lft.to/lastmile_qr_scan", "ios": "https://dc.lft.to/lastmile_qr_scan"}, "type": "electric_scooter", "lat": 38.91044633333333, "is_reserved": 0, "fusion_lat": 0.0}, {"bike_id": "a4b7cc8e2b824da0ffd0a26b5e3984da", "fusion_lon": 0.0, "lon": -77.02161133333334, "name": "a4b7cc8e2b824da0ffd0a26b5e3984da", "is_disabled": 0, "rental_uris": {"android": "https://dc.lft.to/lastmile_qr_scan", "ios": "https://dc.lft.to/lastmile_qr_scan"}, "type": "electric_scooter", "lat": 38.884683333333335, "is_reserved": 0, "fusion_lat": 0.0}, {"bike_id": "54f8f6804e0337eec79897da222fc53a", "fusion_lon": 0.0, "lon": -77.02771666666666, "name": "54f8f6804e0337eec79897da222fc53a", "is_disabled": 0, "rental_uris": {"android": "https://dc.lft.to/lastmile_qr_scan", "ios": "https://dc.lft.to/lastmile_qr_scan"}, "type": "electric_scooter", "lat": 38.939588, "is_reserved": 0, "fusion_lat": 0.0}, {"bike_id": "8acd36b799672279271dc099e9c11960", "fusion_lon": 0.0, "lon": -77.031953, "name": "8acd36b799672279271dc099e9c11960", "is_disabled": 0, "rental_uris": {"android": "https://dc.lft.to/lastmile_qr_scan", "ios": "https://dc.lft.to/lastmile_qr_scan"}, "type": "electric_scooter", "lat": 38.90348516666667, "is_reserved": 0, "fusion_lat": 0.0}, {"bike_id": "43cec1be579d6fd21fc0a4b4f2a93226", "fusion_lon": 0.0, "lon": -77.0794345, "name": "43cec1be579d6fd21fc0a4b4f2a93226", "is_disabled": 0, "rental_uris": {"android": "https://dc.lft.to/lastmile_qr_scan", "ios": "https://dc.lft.to/lastmile_qr_scan"}, "type": "electric_scooter", "lat": 38.947655, "is_reserved": 0, "fusion_lat": 0.0}, {"bike_id": "29a17c44a5dca817834d26da7cda3089", "fusion_lon": 0.0, "lon": -77.02576766666667, "name": "29a17c44a5dca817834d26da7cda3089", "is_disabled": 0, "rental_uris": {"android": "https://dc.lft.to/lastmile_qr_scan", "ios": "https://dc.lft.to/lastmile_qr_scan"}, "type": "electric_scooter", "lat": 38.916018666666666, "is_reserved": 0, "fusion_lat": 0.0}, {"bike_id": "fd08a40af372e2511d8d1cc499a5566d", "fusion_lon": 0.0, "lon": -77.02179616666666, "name": "fd08a40af372e2511d8d1cc499a5566d", "is_disabled": 0, "rental_uris": {"android": "https://dc.lft.to/lastmile_qr_scan", "ios": "https://dc.lft.to/lastmile_qr_scan"}, "type": "electric_scooter", "lat": 38.905818333333336, "is_reserved": 0, "fusion_lat": 0.0}, {"bike_id": "eee97772f62132068a89171e7e7b8da2", "fusion_lon": 0.0, "lon": -77.02555083333333, "name": "eee97772f62132068a89171e7e7b8da2", "is_disabled": 0, "rental_uris": {"android": "https://dc.lft.to/lastmile_qr_scan", "ios": "https://dc.lft.to/lastmile_qr_scan"}, "type": "electric_scooter", "lat": 38.915530333333336, "is_reserved": 0, "fusion_lat": 0.0}, {"bike_id": "9ec342f5288eb0f7e5616068d00014eb", "fusion_lon": 0.0, "lon": -77.00254783333334, "name": "9ec342f5288eb0f7e5616068d00014eb", "is_disabled": 0, "rental_uris": {"android": "https://dc.lft.to/lastmile_qr_scan", "ios": "https://dc.lft.to/lastmile_qr_scan"}, "type": "electric_scooter", "lat": 38.90886166666667, "is_reserved": 0, "fusion_lat": 0.0}, {"bike_id": "6c1f7e8fa246798ae38627d16c3b7f1e", "fusion_lon": 0.0, "lon": -77.03842266666666, "name": "6c1f7e8fa246798ae38627d16c3b7f1e", "is_disabled": 0, "rental_uris": {"android": "https://dc.lft.to/lastmile_qr_scan", "ios": "https://dc.lft.to/lastmile_qr_scan"}, "type": "electric_scooter", "lat": 38.903409, "is_reserved": 0, "fusion_lat": 0.0}, {"bike_id": "61b6cc238603ce77563c6468af843ac0", "fusion_lon": 0.0, "lon": -76.980082, "name": "61b6cc238603ce77563c6468af843ac0", "is_disabled": 0, "rental_uris": {"android": "https://dc.lft.to/lastmile_qr_scan", "ios": "https://dc.lft.to/lastmile_qr_scan"}, "type": "electric_scooter", "lat": 38.8532695, "is_reserved": 0, "fusion_lat": 0.0}, {"bike_id": "6cd708faa8ae2fbf5a8a313d33a77bfa", "fusion_lon": 0.0, "lon": -77.0235095, "name": "6cd708faa8ae2fbf5a8a313d33a77bfa", "is_disabled": 0, "rental_uris": {"android": "https://dc.lft.to/lastmile_qr_scan", "ios": "https://dc.lft.to/lastmile_qr_scan"}, "type": "electric_scooter", "lat": 38.88747633333333, "is_reserved": 0, "fusion_lat": 0.0}, {"bike_id": "610a82183438a9ec68fb6a86ffb65ecc", "fusion_lon": 0.0, "lon": -76.94837683333333, "name": "610a82183438a9ec68fb6a86ffb65ecc", "is_disabled": 0, "rental_uris": {"android": "https://dc.lft.to/lastmile_qr_scan", "ios": "https://dc.lft.to/lastmile_qr_scan"}, "type": "electric_scooter", "lat": 38.895875333333336, "is_reserved": 0, "fusion_lat": 0.0}, {"bike_id": "f6aee3d35abc12e58b87d5f1b0cd107b", "fusion_lon": 0.0, "lon": -77.0289145, "name": "f6aee3d35abc12e58b87d5f1b0cd107b", "is_disabled": 0, "rental_uris": {"android": "https://dc.lft.to/lastmile_qr_scan", "ios": "https://dc.lft.to/lastmile_qr_scan"}, "type": "electric_scooter", "lat": 38.91403866666667, "is_reserved": 0, "fusion_lat": 0.0}, {"bike_id": "7276fbb635aedd5fa04c6aa236fde3e5", "fusion_lon": 0.0, "lon": -77.03120866666667, "name": "7276fbb635aedd5fa04c6aa236fde3e5", "is_disabled": 0, "rental_uris": {"android": "https://dc.lft.to/lastmile_qr_scan", "ios": "https://dc.lft.to/lastmile_qr_scan"}, "type": "electric_scooter", "lat": 38.9156385, "is_reserved": 0, "fusion_lat": 0.0}, {"bike_id": "3a4d8649ce9609312fc0aa7cdd6f5027", "fusion_lon": 0.0, "lon": -77.042803, "name": "3a4d8649ce9609312fc0aa7cdd6f5027", "is_disabled": 0, "rental_uris": {"android": "https://dc.lft.to/lastmile_qr_scan", "ios": "https://dc.lft.to/lastmile_qr_scan"}, "type": "electric_scooter", "lat": 38.92282433333333, "is_reserved": 0, "fusion_lat": 0.0}, {"bike_id": "475f36d8313aa133a788e39a171f0d5d", "fusion_lon": 0.0, "lon": -77.02771466666667, "name": "475f36d8313aa133a788e39a171f0d5d", "is_disabled": 0, "rental_uris": {"android": "https://dc.lft.to/lastmile_qr_scan", "ios": "https://dc.lft.to/lastmile_qr_scan"}, "type": "electric_scooter", "lat": 38.9169395, "is_reserved": 0, "fusion_lat": 0.0}, {"bike_id": "5c85a6b5bb842dfb7e53d7b941dc1d8e", "fusion_lon": 0.0, "lon": -77.03497866666666, "name": "5c85a6b5bb842dfb7e53d7b941dc1d8e", "is_disabled": 0, "rental_uris": {"android": "https://dc.lft.to/lastmile_qr_scan", "ios": "https://dc.lft.to/lastmile_qr_scan"}, "type": "electric_scooter", "lat": 38.924848, "is_reserved": 0, "fusion_lat": 0.0}, {"bike_id": "674626078f80a8432ce51ebdd738937a", "fusion_lon": 0.0, "lon": -77.04444033333333, "name": "674626078f80a8432ce51ebdd738937a", "is_disabled": 0, "rental_uris": {"android": "https://dc.lft.to/lastmile_qr_scan", "ios": "https://dc.lft.to/lastmile_qr_scan"}, "type": "electric_scooter", "lat": 38.91100266666667, "is_reserved": 0, "fusion_lat": 0.0}, {"bike_id": "f23ad04a097fba4a67ad88c42e1e103d", "fusion_lon": 0.0, "lon": -77.03465666666666, "name": "f23ad04a097fba4a67ad88c42e1e103d", "is_disabled": 0, "rental_uris": {"android": "https://dc.lft.to/lastmile_qr_scan", "ios": "https://dc.lft.to/lastmile_qr_scan"}, "type": "electric_scooter", "lat": 38.905583666666665, "is_reserved": 0, "fusion_lat": 0.0}, {"bike_id": "6ad41fdace1496e193ae96928fa5840c", "fusion_lon": 0.0, "lon": -77.02212983333334, "name": "6ad41fdace1496e193ae96928fa5840c", "is_disabled": 0, "rental_uris": {"android": "https://dc.lft.to/lastmile_qr_scan", "ios": "https://dc.lft.to/lastmile_qr_scan"}, "type": "electric_scooter", "lat": 38.91420316666667, "is_reserved": 0, "fusion_lat": 0.0}, {"bike_id": "297c53ab2073c7bdf8dac695789ffc8f", "fusion_lon": 0.0, "lon": -77.06695433333333, "name": "297c53ab2073c7bdf8dac695789ffc8f", "is_disabled": 0, "rental_uris": {"android": "https://dc.lft.to/lastmile_qr_scan", "ios": "https://dc.lft.to/lastmile_qr_scan"}, "type": "electric_bike", "lat": 38.831750166666666, "is_reserved": 0, "fusion_lat": 0.0}, {"bike_id": "334bf021e1780c059861e99beed5ae70", "fusion_lon": 0.0, "lon": -76.94574816666666, "name": "334bf021e1780c059861e99beed5ae70", "is_disabled": 0, "rental_uris": {"android": "https://dc.lft.to/lastmile_qr_scan", "ios": "https://dc.lft.to/lastmile_qr_scan"}, "type": "electric_bike", "lat": 38.93743533333333, "is_reserved": 0, "fusion_lat": 0.0}, {"bike_id": "7d601e7ac1ec7868a3aab2ccf8ef600b", "fusion_lon": 0.0, "lon": -77.03170816666666, "name": "7d601e7ac1ec7868a3aab2ccf8ef600b", "is_disabled": 0, "rental_uris": {"android": "https://dc.lft.to/lastmile_qr_scan", "ios": "https://dc.lft.to/lastmile_qr_scan"}, "type": "electric_scooter", "lat": 38.909544833333335, "is_reserved": 0, "fusion_lat": 0.0}, {"bike_id": "9177026aae1e0fa5c711a21f306c5fb8", "fusion_lon": 0.0, "lon": -77.02323383333334, "name": "9177026aae1e0fa5c711a21f306c5fb8", "is_disabled": 0, "rental_uris": {"android": "https://dc.lft.to/lastmile_qr_scan", "ios": "https://dc.lft.to/lastmile_qr_scan"}, "type": "electric_scooter", "lat": 38.897256666666664, "is_reserved": 0, "fusion_lat": 0.0}, {"bike_id": "07070b1b7d11b914020acc93dce8f731", "fusion_lon": 0.0, "lon": -76.9427845, "name": "07070b1b7d11b914020acc93dce8f731", "is_disabled": 0, "rental_uris": {"android": "https://dc.lft.to/lastmile_qr_scan", "ios": "https://dc.lft.to/lastmile_qr_scan"}, "type": "electric_bike", "lat": 38.879655166666666, "is_reserved": 0, "fusion_lat": 0.0}, {"bike_id": "7a8aab3fb7c84bd3ee22fea5fc899757", "fusion_lon": 0.0, "lon": -77.05000366666667, "name": "7a8aab3fb7c84bd3ee22fea5fc899757", "is_disabled": 0, "rental_uris": {"android": "https://dc.lft.to/lastmile_qr_scan", "ios": "https://dc.lft.to/lastmile_qr_scan"}, "type": "electric_scooter", "lat": 38.8923225, "is_reserved": 0, "fusion_lat": 0.0}, {"bike_id": "61a7da823638b73334f06308acafa990", "fusion_lon": 0.0, "lon": -76.94943883333333, "name": "61a7da823638b73334f06308acafa990", "is_disabled": 0, "rental_uris": {"android": "https://dc.lft.to/lastmile_qr_scan", "ios": "https://dc.lft.to/lastmile_qr_scan"}, "type": "electric_scooter", "lat": 38.89496033333333, "is_reserved": 0, "fusion_lat": 0.0}, {"bike_id": "3108bb7b9c3a890ac56808acabd59896", "fusion_lon": 0.0, "lon": -77.0349805, "name": "3108bb7b9c3a890ac56808acabd59896", "is_disabled": 0, "rental_uris": {"android": "https://dc.lft.to/lastmile_qr_scan", "ios": "https://dc.lft.to/lastmile_qr_scan"}, "type": "electric_scooter", "lat": 38.96384316666666, "is_reserved": 0, "fusion_lat": 0.0}, {"bike_id": "ba948ea638afd806ff924391cd5b116c", "fusion_lon": 0.0, "lon": -77.0239845, "name": "ba948ea638afd806ff924391cd5b116c", "is_disabled": 0, "rental_uris": {"android": "https://dc.lft.to/lastmile_qr_scan", "ios": "https://dc.lft.to/lastmile_qr_scan"}, "type": "electric_scooter", "lat": 38.93707966666667, "is_reserved": 0, "fusion_lat": 0.0}, {"bike_id": "1d4d9a688be6772ad037cf5570e24f98", "fusion_lon": 0.0, "lon": -77.01684683333333, "name": "1d4d9a688be6772ad037cf5570e24f98", "is_disabled": 0, "rental_uris": {"android": "https://dc.lft.to/lastmile_qr_scan", "ios": "https://dc.lft.to/lastmile_qr_scan"}, "type": "electric_scooter", "lat": 38.906394, "is_reserved": 0, "fusion_lat": 0.0}, {"bike_id": "a782a4a38d6684f5013504a52aced9c5", "fusion_lon": 0.0, "lon": -77.01772266666667, "name": "a782a4a38d6684f5013504a52aced9c5", "is_disabled": 0, "rental_uris": {"android": "https://dc.lft.to/lastmile_qr_scan", "ios": "https://dc.lft.to/lastmile_qr_scan"}, "type": "electric_bike", "lat": 38.9826885, "is_reserved": 0, "fusion_lat": 0.0}, {"bike_id": "f0270078729d3de564b2667d4ce19d5c", "fusion_lon": 0.0, "lon": -76.95017533333333, "name": "f0270078729d3de564b2667d4ce19d5c", "is_disabled": 0, "rental_uris": {"android": "https://dc.lft.to/lastmile_qr_scan", "ios": "https://dc.lft.to/lastmile_qr_scan"}, "type": "electric_scooter", "lat": 38.893873, "is_reserved": 0, "fusion_lat": 0.0}, {"bike_id": "374dca6d792cd56e90450a9845a522b2", "fusion_lon": 0.0, "lon": -77.021726, "name": "374dca6d792cd56e90450a9845a522b2", "is_disabled": 0, "rental_uris": {"android": "https://dc.lft.to/lastmile_qr_scan", "ios": "https://dc.lft.to/lastmile_qr_scan"}, "type": "electric_scooter", "lat": 38.919121, "is_reserved": 0, "fusion_lat": 0.0}, {"bike_id": "67611e83296dce89959ad7aef0f7c9d7", "fusion_lon": 0.0, "lon": -77.029386, "name": "67611e83296dce89959ad7aef0f7c9d7", "is_disabled": 0, "rental_uris": {"android": "https://dc.lft.to/lastmile_qr_scan", "ios": "https://dc.lft.to/lastmile_qr_scan"}, "type": "electric_scooter", "lat": 38.905250333333335, "is_reserved": 0, "fusion_lat": 0.0}, {"bike_id": "f37467dd68e19dd19dc1fc917d99180b", "fusion_lon": 0.0, "lon": -77.04101666666666, "name": "f37467dd68e19dd19dc1fc917d99180b", "is_disabled": 0, "rental_uris": {"android": "https://dc.lft.to/lastmile_qr_scan", "ios": "https://dc.lft.to/lastmile_qr_scan"}, "type": "electric_scooter", "lat": 38.91773933333333, "is_reserved": 0, "fusion_lat": 0.0}, {"bike_id": "b04336e6ff11bdf3219a288f043d9b22", "fusion_lon": 0.0, "lon": -76.99757116666666, "name": "b04336e6ff11bdf3219a288f043d9b22", "is_disabled": 0, "rental_uris": {"android": "https://dc.lft.to/lastmile_qr_scan", "ios": "https://dc.lft.to/lastmile_qr_scan"}, "type": "electric_scooter", "lat": 38.887660833333335, "is_reserved": 0, "fusion_lat": 0.0}, {"bike_id": "17521b03c95dace6d9babe9efe798966", "fusion_lon": 0.0, "lon": -76.97807566666667, "name": "17521b03c95dace6d9babe9efe798966", "is_disabled": 0, "rental_uris": {"android": "https://dc.lft.to/lastmile_qr_scan", "ios": "https://dc.lft.to/lastmile_qr_scan"}, "type": "electric_scooter", "lat": 38.8945095, "is_reserved": 0, "fusion_lat": 0.0}, {"bike_id": "2e68c703c62ae93a395895fc5509103d", "fusion_lon": 0.0, "lon": -76.981958, "name": "2e68c703c62ae93a395895fc5509103d", "is_disabled": 0, "rental_uris": {"android": "https://dc.lft.to/lastmile_qr_scan", "ios": "https://dc.lft.to/lastmile_qr_scan"}, "type": "electric_bike", "lat": 38.985039666666665, "is_reserved": 0, "fusion_lat": 0.0}, {"bike_id": "b8cdf922987584b09f543ef88bdf70f4", "fusion_lon": 0.0, "lon": -77.02084683333334, "name": "b8cdf922987584b09f543ef88bdf70f4", "is_disabled": 0, "rental_uris": {"android": "https://dc.lft.to/lastmile_qr_scan", "ios": "https://dc.lft.to/lastmile_qr_scan"}, "type": "electric_scooter", "lat": 38.94109816666667, "is_reserved": 0, "fusion_lat": 0.0}, {"bike_id": "94702fba596d49f023947bbe4a832669", "fusion_lon": 0.0, "lon": -77.01837983333333, "name": "94702fba596d49f023947bbe4a832669", "is_disabled": 0, "rental_uris": {"android": "https://dc.lft.to/lastmile_qr_scan", "ios": "https://dc.lft.to/lastmile_qr_scan"}, "type": "electric_scooter", "lat": 38.9040935, "is_reserved": 0, "fusion_lat": 0.0},