{"data": {"bikes": [{"is_disabled": 0, "fusion_lon": 0.0, "fusion_lat": 0.0, "lat": 38.99076066666667, "type": "electric_bike", "lon": -77.02382633333333, "bike_id": "9f24dc9b16c2318191338627c8eb07b8", "rental_uris": {"android": "https://dc.lft.to/lastmile_qr_scan", "ios": "https://dc.lft.to/lastmile_qr_scan"}, "name": "9f24dc9b16c2318191338627c8eb07b8", "is_reserved": 0}, {"is_disabled": 0, "fusion_lon": 0.0, "fusion_lat": 0.0, "lat": 38.88415883333333, "type": "electric_scooter", "lon": -77.03302266666667, "bike_id": "579ef50f89f68ab0b8d2a5b5473a51bf", "rental_uris": {"android": "https://dc.lft.to/lastmile_qr_scan", "ios": "https://dc.lft.to/lastmile_qr_scan"}, "name": "579ef50f89f68ab0b8d2a5b5473a51bf", "is_reserved": 0}, {"is_disabled": 0, "fusion_lon": 0.0, "fusion_lat": 0.0, "lat": 38.906521833333336, "type": "electric_scooter", "lon": -77.02716116666667, "bike_id": "58b994fbf8eb46c7bb2b7ee639b1150b", "rental_uris": {"android": "https://dc.lft.to/lastmile_qr_scan", "ios": "https://dc.lft.to/lastmile_qr_scan"}, "name": "58b994fbf8eb46c7bb2b7ee639b1150b", "is_reserved": 0}, {"is_disabled": 0, "fusion_lon": 0.0, "fusion_lat": 0.0, "lat": 38.897480333333334, "type": "electric_scooter", "lon": -77.02659716666666, "bike_id": "c106491faabca4bb32525e1094790a1a", "rental_uris": {"android": "https://dc.lft.to/lastmile_qr_scan", "ios": "https://dc.lft.to/lastmile_qr_scan"}, "name": "c106491faabca4bb32525e1094790a1a", "is_reserved": 0}, {"is_disabled": 0, "fusion_lon": 0.0, "fusion_lat": 0.0, "lat": 38.9235435, "type": "electric_bike", "lon": -76.99251516666666, "bike_id": "59633edc39966750706c3a71888a3b23", "rental_uris": {"android": "https://dc.lft.to/lastmile_qr_scan", "ios": "https://dc.lft.to/lastmile_qr_scan"}, "name": "59633edc39966750706c3a71888a3b23", "is_reserved": 0}, {"is_disabled": 0, "fusion_lon": 0.0, "fusion_lat": 0.0, "lat": 38.86656633333333, "type": "electric_scooter", "lon": -76.98885216666666, "bike_id": "8517d70b87c83834550ef9936d586a3f", "rental_uris": {"android": "https://dc.lft.to/lastmile_qr_scan", "ios": "https://dc.lft.to/lastmile_qr_scan"}, "name": "8517d70b87c83834550ef9936d586a3f", "is_reserved": 0}, {"is_disabled": 0, "fusion_lon": 0.0, "fusion_lat": 0.0, "lat": 38.9035405, "type": "electric_scooter", "lon": -77.0220975, "bike_id": "7c1657a9f53068b7425f484ed4bf47f4", "rental_uris": {"android": "https://dc.lft.to/lastmile_qr_scan", "ios": "https://dc.lft.to/lastmile_qr_scan"}, "name": "7c1657a9f53068b7425f484ed4bf47f4", "is_reserved": 0}, {"is_disabled": 0, "fusion_lon": 0.0, "fusion_lat": 0.0, "lat": 38.9097885, "type": "electric_bike", "lon": -77.08828133333333, "bike_id": "1274d01ae0b23ba98855e1e26452d274", "rental_uris": {"android": "https://dc.lft.to/lastmile_qr_scan", "ios": "https://dc.lft.to/lastmile_qr_scan"}, "name": "1274d01ae0b23ba98855e1e26452d274", "is_reserved": 0}, {"is_disabled": 0, "fusion_lon": 0.0, "fusion_lat": 0.0, "lat": 38.92040433333333, "type": "electric_scooter", "lon": -77.04816833333334, "bike_id": "1d99598b3ef42b385ec7b0a2b5e56ef9", "rental_uris": {"android": "https://dc.lft.to/lastmile_qr_scan", "ios": "https://dc.lft.to/lastmile_qr_scan"}, "name": "1d99598b3ef42b385ec7b0a2b5e56ef9", "is_reserved": 0}, {"is_disabled": 0, "fusion_lon": 0.0, "fusion_lat": 0.0, "lat": 38.88133333333333, "type": "electric_scooter", "lon": -77.0207995, "bike_id": "73b88cde4507939c26fa6e73fb46d158", "rental_uris": {"android": "https://dc.lft.to/lastmile_qr_scan", "ios": "https://dc.lft.to/lastmile_qr_scan"}, "name": "73b88cde4507939c26fa6e73fb46d158", "is_reserved": 0}, {"is_disabled": 0, "fusion_lon": 0.0, "fusion_lat": 0.0, "lat": 38.917875, "type": "electric_scooter", "lon": -77.043588, "bike_id": "a54f7c05e32709168f71b68f333f7ff3", "rental_uris": {"android": "https://dc.lft.to/lastmile_qr_scan", "ios": "https://dc.lft.to/lastmile_qr_scan"}, "name": "a54f7c05e32709168f71b68f333f7ff3", "is_reserved": 0}, {"is_disabled": 0, "fusion_lon": 0.0, "fusion_lat": 0.0, "lat": 38.91313366666667, "type": "electric_scooter", "lon": -76.98652583333333, "bike_id": "e081ce48e24c12d34c771676278d4ee7", "rental_uris": {"android": "https://dc.lft.to/lastmile_qr_scan", "ios": "https://dc.lft.to/lastmile_qr_scan"}, "name": "e081ce48e24c12d34c771676278d4ee7", "is_reserved": 0}, {"is_disabled": 0, "fusion_lon": 0.0, "fusion_lat": 0.0, "lat": 38.94205516666667, "type": "electric_scooter", "lon": -77.025929, "bike_id": "81926546facafcff30e766d85501b124", "rental_uris": {"android": "https://dc.lft.to/lastmile_qr_scan", "ios": "https://dc.lft.to/lastmile_qr_scan"}, "name": "81926546facafcff30e766d85501b124", "is_reserved": 0}, {"is_disabled": 0, "fusion_lon": 0.0, "fusion_lat": 0.0, "lat": 38.92975116666667, "type": "electric_scooter", "lon": -77.02075283333333, "bike_id": "12acc78d8673b1ce9e1bc7c3aef85d5e", "rental_uris": {"android": "https://dc.lft.to/lastmile_qr_scan", "ios": "https://dc.lft.to/lastmile_qr_scan"}, "name": "12acc78d8673b1ce9e1bc7c3aef85d5e", "is_reserved": 0}, {"is_disabled": 0, "fusion_lon": 0.0, "fusion_lat": 0.0, "lat": 38.9021725, "type": "electric_scooter", "lon": -77.02372783333334, "bike_id": "89db9c9cc3cc5c94f73bb1d295979ec9", "rental_uris": {"android": "https://dc.lft.to/lastmile_qr_scan", "ios": "https://dc.lft.to/lastmile_qr_scan"}, "name": "89db9c9cc3cc5c94f73bb1d295979ec9", "is_reserved": 0}, {"is_disabled": 0, "fusion_lon": 0.0, "fusion_lat": 0.0, "lat": 38.91712416666667, "type": "electric_bike", "lon": -77.01443583333334, "bike_id": "b572c91415d8d2f42a7885758c65f2e0", "rental_uris": {"android": "https://dc.lft.to/lastmile_qr_scan", "ios": "https://dc.lft.to/lastmile_qr_scan"}, "name": "b572c91415d8d2f42a7885758c65f2e0", "is_reserved": 0}, {"is_disabled": 0, "fusion_lon": 0.0, "fusion_lat": 0.0, "lat": 38.9274915, "type": "electric_scooter", "lon": -77.01615683333333, "bike_id": "dfea2b8545fb8c9aa581a120d54693ca", "rental_uris": {"android": "https://dc.lft.to/lastmile_qr_scan", "ios": "https://dc.lft.to/lastmile_qr_scan"}, "name": "dfea2b8545fb8c9aa581a120d54693ca", "is_reserved": 0}, {"is_disabled": 0, "fusion_lon": 0.0, "fusion_lat": 0.0, "lat": 38.899818, "type": "electric_scooter", "lon": -77.052787, "bike_id": "791602b9b546e6f6abcd5e0952f4bc0a", "rental_uris": {"android": "https://dc.lft.to/lastmile_qr_scan", "ios": "https://dc.lft.to/lastmile_qr_scan"}, "name": "791602b9b546e6f6abcd5e0952f4bc0a", "is_reserved": 0}, {"is_disabled": 0, "fusion_lon": 0.0, "fusion_lat": 0.0, "lat": 38.90428983333334, "type": "electric_scooter", "lon": -77.02611916666666, "bike_id": "43e5a896fcfa5e42f32e01de6cf169e5", "rental_uris": {"android": "https://dc.lft.to/lastmile_qr_scan", "ios": "https://dc.lft.to/lastmile_qr_scan"}, "name": "43e5a896fcfa5e42f32e01de6cf169e5", "is_reserved": 0}, {"is_disabled": 0, "fusion_lon": 0.0, "fusion_lat": 0.0, "lat": 38.85807066666667, "type": "electric_scooter", "lon": -76.986539, "bike_id": "f9f8bec4b835cb70f04de0ad7281b83f", "rental_uris": {"android": "https://dc.lft.to/lastmile_qr_scan", "ios": "https://dc.lft.to/lastmile_qr_scan"}, "name": "f9f8bec4b835cb70f04de0ad7281b83f", "is_reserved": 0}, {"is_disabled": 0, "fusion_lon": 0.0, "fusion_lat": 0.0, "lat": 38.9176825, "type": "electric_scooter", "lon": -77.03413566666667, "bike_id": "30a50100035aed98aef70274046ea592", "rental_uris": {"android": "https://dc.lft.to/lastmile_qr_scan", "ios": "https://dc.lft.to/lastmile_qr_scan"}, "name": "30a50100035aed98aef70274046ea592", "is_reserved": 0}, {"is_disabled": 0, "fusion_lon": 0.0, "fusion_lat": 0.0, "lat": 38.900871, "type": "electric_scooter", "lon": -77.01827633333333, "bike_id": "507b485593e53176c1ea7cdba13329c0", "rental_uris": {"android": "https://dc.lft.to/lastmile_qr_scan", "ios": "https://dc.lft.to/lastmile_qr_scan"}, "name": "507b485593e53176c1ea7cdba13329c0", "is_reserved": 0}, {"is_disabled": 0, "fusion_lon": 0.0, "fusion_lat": 0.0, "lat": 38.90680233333333, "type": "electric_scooter", "lon": -76.97999916666667, "bike_id": "f0e5aa4accf05c87663e65da85c5d55e", "rental_uris": {"android": "https://dc.lft.to/lastmile_qr_scan", "ios": "https://dc.lft.to/lastmile_qr_scan"}, "name": "f0e5aa4accf05c87663e65da85c5d55e", "is_reserved": 0}, {"is_disabled": 0, "fusion_lon": 0.0, "fusion_lat": 0.0, "lat": 38.9104105, "type": "electric_scooter", "lon": -77.04008633333333, "bike_id": "2c02a45caa77ae1167372c63bf27b0d9", "rental_uris": {"android": "https://dc.lft.to/lastmile_qr_scan", "ios": "https://dc.lft.to/lastmile_qr_scan"}, "name": "2c02a45caa77ae1167372c63bf27b0d9", "is_reserved": 0}, {"is_disabled": 0, "fusion_lon": 0.0, "fusion_lat": 0.0, "lat": 38.92491783333333, "type": "electric_scooter", "lon": -77.039325, "bike_id": "a4be58d88d83d401b72f2fd2c2e6d9cb", "rental_uris": {"android": "https://dc.lft.to/lastmile_qr_scan", "ios": "https://dc.lft.to/lastmile_qr_scan"}, "name": "a4be58d88d83d401b72f2fd2c2e6d9cb", "is_reserved": 0}, {"is_disabled": 0, "fusion_lon": 0.0, "fusion_lat": 0.0, "lat": 38.90484716666667, "type": "electric_scooter", "lon": -77.02999583333333, "bike_id": "26e78d9473cdfdaeddf708521c3b1fd0", "rental_uris": {"android": "https://dc.lft.to/lastmile_qr_scan", "ios": "https://dc.lft.to/lastmile_qr_scan"}, "name": "26e78d9473cdfdaeddf708521c3b1fd0", "is_reserved": 0}, {"is_disabled": 0, "fusion_lon": 0.0, "fusion_lat": 0.0, "lat": 38.91958116666667, "type": "electric_scooter", "lon": -77.0239075, "bike_id": "7af285fdcc2cf19887571bd195ee6496", "rental_uris": {"android": "https://dc.lft.to/lastmile_qr_scan", "ios": "https://dc.lft.to/lastmile_qr_scan"}, "name": "7af285fdcc2cf19887571bd195ee6496", "is_reserved": 0}, {"is_disabled": 0, "fusion_lon": 0.0, "fusion_lat": 0.0, "lat": 38.9156515, "type": "electric_scooter", "lon": -77.03275133333334, "bike_id": "f56d8edf0ca61f7c632c86dcc3adc528", "rental_uris": {"android": "https://dc.lft.to/lastmile_qr_scan", "ios": "https://dc.lft.to/lastmile_qr_scan"}, "name": "f56d8edf0ca61f7c632c86dcc3adc528", "is_reserved": 0}, {"is_disabled": 0, "fusion_lon": 0.0, "fusion_lat": 0.0, "lat": 38.91800583333333, "type": "electric_scooter", "lon": -77.04031683333334, "bike_id": "9b2974d69be91dd9dd6b622884eecdd4", "rental_uris": {"android": "https://dc.lft.to/lastmile_qr_scan", "ios": "https://dc.lft.to/lastmile_qr_scan"}, "name": "9b2974d69be91dd9dd6b622884eecdd4", "is_reserved": 0}, {"is_disabled": 0, "fusion_lon": 0.0, "fusion_lat": 0.0, "lat": 38.913282833333334, "type": "electric_scooter", "lon": -77.03183383333334, "bike_id": "3c91b1da6ee1866f5424825acf411f08", "rental_uris": {"android": "https://dc.lft.to/lastmile_qr_scan", "ios": "https://dc.lft.to/lastmile_qr_scan"}, "name": "3c91b1da6ee1866f5424825acf411f08", "is_reserved": 0}, {"is_disabled": 0, "fusion_lon": 0.0, "fusion_lat": 0.0, "lat": 38.876615, "type": "electric_scooter", "lon": -77.0058065, "bike_id": "77e630ab4f6d8ff80aefb99769c057aa", "rental_uris": {"android": "https://dc.lft.to/lastmile_qr_scan", "ios": "https://dc.lft.to/lastmile_qr_scan"}, "name": "77e630ab4f6d8ff80aefb99769c057aa", "is_reserved": 0}, {"is_disabled": 0, "fusion_lon": 0.0, "fusion_lat": 0.0, "lat": 38.92760716666667, "type": "electric_scooter", "lon": -77.00595216666666, "bike_id": "eee9d36c7d7f085ce817dfbd2e2390a6", "rental_uris": {"android": "https://dc.lft.to/lastmile_qr_scan", "ios": "https://dc.lft.to/lastmile_qr_scan"}, "name": "eee9d36c7d7f085ce817dfbd2e2390a6", "is_reserved": 0}, {"is_disabled": 0, "fusion_lon": 0.0, "fusion_lat": 0.0, "lat": 38.909588166666666, "type": "electric_scooter", "lon": -77.01581433333334, "bike_id": "862f31902bdacdc5f63bb7e8e3e081f9", "rental_uris": {"android": "https://dc.lft.to/lastmile_qr_scan", "ios": "https://dc.lft.to/lastmile_qr_scan"}, "name": "862f31902bdacdc5f63bb7e8e3e081f9", "is_reserved": 0}, {"is_disabled": 0, "fusion_lon": 0.0, "fusion_lat": 0.0, "lat": 38.919372833333334, "type": "electric_scooter", "lon": -76.9807335, "bike_id": "9d46132deff0145feea65c38316e76df", "rental_uris": {"android": "https://dc.lft.to/lastmile_qr_scan", "ios": "https://dc.lft.to/lastmile_qr_scan"}, "name": "9d46132deff0145feea65c38316e76df", "is_reserved": 0}, {"is_disabled": 0, "fusion_lon": 0.0, "fusion_lat": 0.0, "lat": 38.94450283333333, "type": "electric_scooter", "lon": -77.063562, "bike_id": "0dd2fda23651d27b170cc733fec99d62", "rental_uris": {"android": "https://dc.lft.to/lastmile_qr_scan", "ios": "https://dc.lft.to/lastmile_qr_scan"}, "name": "0dd2fda23651d27b170cc733fec99d62", "is_reserved": 0}, {"is_disabled": 0, "fusion_lon": 0.0, "fusion_lat": 0.0, "lat": 38.9004705, "type": "electric_scooter", "lon": -77.00185416666666, "bike_id": "f64f6e0b9d5006a21d4114c1d3506da4", "rental_uris": {"android": "https://dc.lft.to/lastmile_qr_scan", "ios": "https://dc.lft.to/lastmile_qr_scan"}, "name": "f64f6e0b9d5006a21d4114c1d3506da4", "is_reserved": 0}, {"is_disabled": 0, "fusion_lon": 0.0, "fusion_lat": 0.0, "lat": 38.8551365, "type": "electric_bike", "lon": -76.95846516666667, "bike_id": "29a52e00bbe19144f2bc7340787d7946", "rental_uris": {"android": "https://dc.lft.to/lastmile_qr_scan", "ios": "https://dc.lft.to/lastmile_qr_scan"}, "name": "29a52e00bbe19144f2bc7340787d7946", "is_reserved": 0}, {"is_disabled": 0, "fusion_lon": 0.0, "fusion_lat": 0.0, "lat": 38.940765, "type": "electric_scooter", "lon": -77.0211235, "bike_id": "930c2fa845a223dbd2ce08961c2c01b9", "rental_uris": {"android": "https://dc.lft.to/lastmile_qr_scan", "ios": "https://dc.lft.to/lastmile_qr_scan"}, "name": "930c2fa845a223dbd2ce08961c2c01b9", "is_reserved": 0}, {"is_disabled": 0, "fusion_lon": 0.0, "fusion_lat": 0.0, "lat": 38.92000816666667, "type": "electric_scooter", "lon": -77.02402116666667, "bike_id": "cf4ed3c2b55c285349de5d86cfe38e19", "rental_uris": {"android": "https://dc.lft.to/lastmile_qr_scan", "ios": "https://dc.lft.to/lastmile_qr_scan"}, "name": "cf4ed3c2b55c285349de5d86cfe38e19", "is_reserved": 0}, {"is_disabled": 0, "fusion_lon": 0.0, "fusion_lat": 0.0, "lat": 38.93135566666667, "type": "electric_scooter", "lon": -77.057303, "bike_id": "cfcb1ea4ce02c79e8de9fe006d939f21", "rental_uris": {"android": "https://dc.lft.to/lastmile_qr_scan", "ios": "https://dc.lft.to/lastmile_qr_scan"}, "name": "cfcb1ea4ce02c79e8de9fe006d939f21", "is_reserved": 0}, {"is_disabled": 0, "fusion_lon": 0.0, "fusion_lat": 0.0, "lat": 38.89360416666667, "type": "electric_scooter", "lon": -77.03965133333334, "bike_id": "134017a36b438b6241f8e128a9e961dd", "rental_uris": {"android": "https://dc.lft.to/lastmile_qr_scan", "ios": "https://dc.lft.to/lastmile_qr_scan"}, "name": "134017a36b438b6241f8e128a9e961dd", "is_reserved": 0}, {"is_disabled": 0, "fusion_lon": 0.0, "fusion_lat": 0.0, "lat": 38.9274585, "type": "electric_scooter", "lon": -77.03476216666667, "bike_id": "3cd29c58c3bf10d94339b7484b9a14ea", "rental_uris": {"android": "https://dc.lft.to/lastmile_qr_scan", "ios": "https://dc.lft.to/lastmile_qr_scan"}, "name": "3cd29c58c3bf10d94339b7484b9a14ea", "is_reserved": 0}, {"is_disabled": 0, "fusion_lon": 0.0, "fusion_lat": 0.0, "lat": 38.91816216666667, "type": "electric_scooter", "lon": -77.024765, "bike_id": "8460383a936e1bdda17dd4a77ccfe448", "rental_uris": {"android": "https://dc.lft.to/lastmile_qr_scan", "ios": "https://dc.lft.to/lastmile_qr_scan"}, "name": "8460383a936e1bdda17dd4a77ccfe448", "is_reserved": 0}, {"is_disabled": 0, "fusion_lon": 0.0, "fusion_lat": 0.0, "lat": 38.8922215, "type": "electric_scooter", "lon": -77.02264266666667, "bike_id": "833ba9b36dd554e06a670691b35481c7", "rental_uris": {"android": "https://dc.lft.to/lastmile_qr_scan", "ios": "https://dc.lft.to/lastmile_qr_scan"}, "name": "833ba9b36dd554e06a670691b35481c7", "is_reserved": 0}, {"is_disabled": 0, "fusion_lon": 0.0, "fusion_lat": 0.0, "lat": 38.878967333333335, "type": "electric_scooter", "lon": -76.93524433333333, "bike_id": "265a1cb253950bd4b6956f577c7e9b73", "rental_uris": {"android": "https://dc.lft.to/lastmile_qr_scan", "ios": "https://dc.lft.to/lastmile_qr_scan"}, "name": "265a1cb253950bd4b6956f577c7e9b73", "is_reserved": 0}, {"is_disabled": 0, "fusion_lon": 0.0, "fusion_lat": 0.0, "lat": 38.91135933333333, "type": "electric_scooter", "lon": -77.0219325, "bike_id": "918145e22e2a771b3b252434c6d24079", "rental_uris": {"android": "https://dc.lft.to/lastmile_qr_scan", "ios": "https://dc.lft.to/lastmile_qr_scan"}, "name": "918145e22e2a771b3b252434c6d24079", "is_reserved": 0}, {"is_disabled": 0, "fusion_lon": 0.0, "fusion_lat": 0.0, "lat": 38.974070166666664, "type": "electric_bike", "lon": -77.02499583333334, "bike_id": "2d3ce08525b4596c8183b4d83b7eea63", "rental_uris": {"android": "https://dc.lft.to/lastmile_qr_scan", "ios": "https://dc.lft.to/lastmile_qr_scan"}, "name": "2d3ce08525b4596c8183b4d83b7eea63", "is_reserved": 0}, {"is_disabled": 0, "fusion_lon": 0.0, "fusion_lat": 0.0, "lat": 38.8769575, "type": "electric_scooter", "lon": -77.00512583333334, "bike_id": "7a140ca1ac1f38eb34a4229fd25a6360", "rental_uris": {"android": "https://dc.lft.to/lastmile_qr_scan", "ios": "https://dc.lft.to/lastmile_qr_scan"}, "name": "7a140ca1ac1f38eb34a4229fd25a6360", "is_reserved": 0}, {"is_disabled": 0, "fusion_lon": 0.0, "fusion_lat": 0.0, "lat": 38.90977766666666, "type": "electric_scooter", "lon": -77.0344065, "bike_id": "04d022767be8d446e0d363cfb131e87a", "rental_uris": {"android": "https://dc.lft.to/lastmile_qr_scan", "ios": "https://dc.lft.to/lastmile_qr_scan"}, "name": "04d022767be8d446e0d363cfb131e87a", "is_reserved": 0}, {"is_disabled": 0, "fusion_lon": 0.0, "fusion_lat": 0.0, "lat": 38.90062833333333, "type": "electric_scooter", "lon": -76.93386533333333, "bike_id": "5d13d75ed1bff3913186404aaa9e7b7c", "rental_uris": {"android": "https://dc.lft.to/lastmile_qr_scan", "ios": "https://dc.lft.to/lastmile_qr_scan"}, "name": "5d13d75ed1bff3913186404aaa9e7b7c", "is_reserved": 0}, {"is_disabled": 0, "fusion_lon": 0.0, "fusion_lat": 0.0, "lat": 38.90774733333333, "type": "electric_scooter", "lon": -77.02690133333333, "bike_id": "5b9b57d84306eaa0164d9df7e3c16f3c", "rental_uris": {"android": "https://dc.lft.to/lastmile_qr_scan", "ios": "https://dc.lft.to/lastmile_qr_scan"}, "name": "5b9b57d84306eaa0164d9df7e3c16f3c", "is_reserved": 0}, {"is_disabled": 0, "fusion_lon": 0.0, "fusion_lat": 0.0, "lat": 38.90261233333333, "type": "electric_scooter", "lon": -77.01807366666667, "bike_id": "b4404e75bd22dc7fc998e208dbcbd055", "rental_uris": {"android": "https://dc.lft.to/lastmile_qr_scan", "ios": "https://dc.lft.to/lastmile_qr_scan"}, "name": "b4404e75bd22dc7fc998e208dbcbd055", "is_reserved": 0}, {"is_disabled": 0, "fusion_lon": 0.0, "fusion_lat": 0.0, "lat": 38.86338466666667, "type": "electric_bike", "lon": -76.98728183333333, "bike_id": "246a32d341a7424d998a34d91349fa22", "rental_uris": {"android": "https://dc.lft.to/lastmile_qr_scan", "ios": "https://dc.lft.to/lastmile_qr_scan"}, "name": "246a32d341a7424d998a34d91349fa22", "is_reserved": 0}, {"is_disabled": 0, "fusion_lon": 0.0, "fusion_lat": 0.0, "lat": 38.881462666666664, "type": "electric_scooter", "lon": -76.99165983333333, "bike_id": "0a738b622abea3fa53a5ff944ba282eb", "rental_uris": {"android": "https://dc.lft.to/lastmile_qr_scan", "ios": "https://dc.lft.to/lastmile_qr_scan"}, "name": "0a738b622abea3fa53a5ff944ba282eb", "is_reserved": 0}, {"is_disabled": 0, "fusion_lon": 0.0, "fusion_lat": 0.0, "lat": 38.89976816666667, "type": "electric_scooter", "lon": -77.01620366666667, "bike_id": "3a2015efadb1cdde74e1e057c5bcd81e", "rental_uris": {"android": "https://dc.lft.to/lastmile_qr_scan", "ios": "https://dc.lft.to/lastmile_qr_scan"}, "name": "3a2015efadb1cdde74e1e057c5bcd81e", "is_reserved": 0}, {"is_disabled": 0, "fusion_lon": 0.0, "fusion_lat": 0.0, "lat": 38.873841666666664, "type": "electric_scooter", "lon": -77.00190116666667, "bike_id": "fecfcc07d3773c1943df7c3e77e48bcf", "rental_uris": {"android": "https://dc.lft.to/lastmile_qr_scan", "ios": "https://dc.lft.to/lastmile_qr_scan"}, "name": "fecfcc07d3773c1943df7c3e77e48bcf", "is_reserved": 0}, {"is_disabled": 0, "fusion_lon": 0.0, "fusion_lat": 0.0, "lat": 38.88771333333333, "type": "electric_scooter", "lon": -77.01547366666667, "bike_id": "d87ec6ae8e2771fdedf1214c23c4bbe2", "rental_uris": {"android": "https://dc.lft.to/lastmile_qr_scan", "ios": "https://dc.lft.to/lastmile_qr_scan"}, "name": "d87ec6ae8e2771fdedf1214c23c4bbe2", "is_reserved": 0}, {"is_disabled": 0, "fusion_lon": 0.0, "fusion_lat": 0.0, "lat": 38.92137183333333, "type": "electric_scooter", "lon": -77.04354733333334, "bike_id": "7e2ebd7fa88fa8dcb39856ea1cb64926", "rental_uris": {"android": "https://dc.lft.to/lastmile_qr_scan", "ios": "https://dc.lft.to/lastmile_qr_scan"}, "name": "7e2ebd7fa88fa8dcb39856ea1cb64926", "is_reserved": 0}, {"is_disabled": 0, "fusion_lon": 0.0, "fusion_lat": 0.0, "lat": 38.92482916666667, "type": "electric_scooter", "lon": -77.027254, "bike_id": "d1a63cb447cf60d17a0e6e29dc834976", "rental_uris": {"android": "https://dc.lft.to/lastmile_qr_scan", "ios": "https://dc.lft.to/lastmile_qr_scan"}, "name": "d1a63cb447cf60d17a0e6e29dc834976", "is_reserved": 0}, {"is_disabled": 0, "fusion_lon": 0.0, "fusion_lat": 0.0, "lat": 38.932814666666665, "type": "electric_scooter", "lon": -76.97427416666666, "bike_id": "e7b49a61dfcb8d96241d119c196e1415", "rental_uris": {"android": "https://dc.lft.to/lastmile_qr_scan", "ios": "https://dc.lft.to/lastmile_qr_scan"}, "name": "e7b49a61dfcb8d96241d119c196e1415", "is_reserved": 0}, {"is_disabled": 0, "fusion_lon": 0.0, "fusion_lat": 0.0, "lat": 38.9074285, "type": "electric_scooter", "lon": -77.03442, "bike_id": "8d3fbad263b49db4644b8988f5b68536", "rental_uris": {"android": "https://dc.lft.to/lastmile_qr_scan", "ios": "https://dc.lft.to/lastmile_qr_scan"}, "name": "8d3fbad263b49db4644b8988f5b68536", "is_reserved": 0}, {"is_disabled": 0, "fusion_lon": 0.0, "fusion_lat": 0.0, "lat": 38.90045466666667, "type": "electric_scooter", "lon": -76.98817283333334, "bike_id": "59d212305c6b018fb64a4dbf7dd16fa8", "rental_uris": {"android": "https://dc.lft.to/lastmile_qr_scan", "ios": "https://dc.lft.to/lastmile_qr_scan"}, "name": "59d212305c6b018fb64a4dbf7dd16fa8", "is_reserved": 0}, {"is_disabled": 0, "fusion_lon": 0.0, "fusion_lat": 0.0, "lat": 38.88866683333333, "type": "electric_scooter", "lon": -76.97739416666667, "bike_id": "05d44d026ea1e2d0fc76bc6fa3ac7a7b", "rental_uris": {"android": "https://dc.lft.to/lastmile_qr_scan", "ios": "https://dc.lft.to/lastmile_qr_scan"}, "name": "05d44d026ea1e2d0fc76bc6fa3ac7a7b", "is_reserved": 0}, {"is_disabled": 0, "fusion_lon": 0.0, "fusion_lat": 0.0, "lat": 38.90152533333333, "type": "electric_scooter", "lon": -77.041474, "bike_id": "31f6735f3585b2457d2cebf225d1bfe5", "rental_uris": {"android": "https://dc.lft.to/lastmile_qr_scan", "ios": "https://dc.lft.to/lastmile_qr_scan"}, "name": "31f6735f3585b2457d2cebf225d1bfe5", "is_reserved": 0}, {"is_disabled": 0, "fusion_lon": 0.0, "fusion_lat": 0.0, "lat": 38.89505033333333, "type": "electric_scooter", "lon": -77.02196966666666, "bike_id": "e308578840b6543b4875469d264cab89", "rental_uris": {"android": "https://dc.lft.to/lastmile_qr_scan", "ios": "https://dc.lft.to/lastmile_qr_scan"}, "name": "e308578840b6543b4875469d264cab89", "is_reserved": 0}, {"is_disabled": 0, "fusion_lon": 0.0, "fusion_lat": 0.0, "lat": 38.915439166666665, "type": "electric_scooter", "lon": -77.03201133333333, "bike_id": "ae4cd7d2cae81e936da599f3264d5063", "rental_uris": {"android": "https://dc.lft.to/lastmile_qr_scan", "ios": "https://dc.lft.to/lastmile_qr_scan"}, "name": "ae4cd7d2cae81e936da599f3264d5063", "is_reserved": 0}, {"is_disabled": 0, "fusion_lon": 0.0, "fusion_lat": 0.0, "lat": 38.89320416666666, "type": "electric_scooter", "lon": -77.01962, "bike_id": "b740bc202b5cddb298bd172ebc6b6cbb", "rental_uris": {"android": "https://dc.lft.to/lastmile_qr_scan", "ios": "https://dc.lft.to/lastmile_qr_scan"}, "name": "b740bc202b5cddb298bd172ebc6b6cbb", "is_reserved": 0}, {"is_disabled": 0, "fusion_lon": 0.0, "fusion_lat": 0.0, "lat": 38.85067933333333, "type": "electric_scooter", "lon": -76.96525633333333, "bike_id": "43f47226a1f5cfaedc80dd23e841019d", "rental_uris": {"android": "https://dc.lft.to/lastmile_qr_scan", "ios": "https://dc.lft.to/lastmile_qr_scan"}, "name": "43f47226a1f5cfaedc80dd23e841019d", "is_reserved": 0}, {"is_disabled": 0, "fusion_lon": 0.0, "fusion_lat": 0.0, "lat": 38.91547933333333, "type": "electric_scooter", "lon": -77.03854783333334, "bike_id": "2365f4ff6ad038877a18def33ede806f", "rental_uris": {"android": "https://dc.lft.to/lastmile_qr_scan", "ios": "https://dc.lft.to/lastmile_qr_scan"}, "name": "2365f4ff6ad038877a18def33ede806f", "is_reserved": 0}, {"is_disabled": 0, "fusion_lon": 0.0, "fusion_lat": 0.0, "lat": 38.831222833333335, "type": "electric_bike", "lon": -77.04323816666667, "bike_id": "51945e4df5cb2baee4f906fc7c96d488", "rental_uris": {"android": "https://dc.lft.to/lastmile_qr_scan", "ios": "https://dc.lft.to/lastmile_qr_scan"}, "name": "51945e4df5cb2baee4f906fc7c96d488", "is_reserved": 0}, {"is_disabled": 0, "fusion_lon": 0.0, "fusion_lat": 0.0, "lat": 38.90147116666667, "type": "electric_scooter", "lon": -77.04169083333333, "bike_id": "ccc41bbde1e9b6e325fbe74b7213d1f5", "rental_uris": {"android": "https://dc.lft.to/lastmile_qr_scan", "ios": "https://dc.lft.to/lastmile_qr_scan"}, "name": "ccc41bbde1e9b6e325fbe74b7213d1f5", "is_reserved": 0}, {"is_disabled": 0, "fusion_lon": 0.0, "fusion_lat": 0.0, "lat": 38.89727033333333, "type": "electric_scooter", "lon": -77.02072033333333, "bike_id": "c789a26d94f1ae3563e99f65689f2edf", "rental_uris": {"android": "https://dc.lft.to/lastmile_qr_scan", "ios": "https://dc.lft.to/lastmile_qr_scan"}, "name": "c789a26d94f1ae3563e99f65689f2edf", "is_reserved": 0}, {"is_disabled": 0, "fusion_lon": 0.0, "fusion_lat": 0.0, "lat": 38.9072825, "type": "electric_scooter", "lon": -77.04006783333334, "bike_id": "dd6a6e7449b16f8a554f806d84fec68f", "rental_uris": {"android": "https://dc.lft.to/lastmile_qr_scan", "ios": "https://dc.lft.to/lastmile_qr_scan"}, "name": "dd6a6e7449b16f8a554f806d84fec68f", "is_reserved": 0}, {"is_disabled": 0, "fusion_lon": 0.0, "fusion_lat": 0.0, "lat": 38.82730266666667, "type": "electric_bike", "lon": -77.00860966666667, "bike_id": "a77274c44e77673abb9d1b26c033ec81", "rental_uris": {"android": "https://dc.lft.to/lastmile_qr_scan", "ios": "https://dc.lft.to/lastmile_qr_scan"}, "name": "a77274c44e77673abb9d1b26c033ec81", "is_reserved": 0}, {"is_disabled": 0, "fusion_lon": 0.0, "fusion_lat": 0.0, "lat": 38.905742333333336, "type": "electric_scooter", "lon": -77.02179733333334, "bike_id": "50980bdde6d83f8bccaaccb89c4c67f8", "rental_uris": {"android": "https://dc.lft.to/lastmile_qr_scan", "ios": "https://dc.lft.to/lastmile_qr_scan"}, "name": "50980bdde6d83f8bccaaccb89c4c67f8", "is_reserved": 0}, {"is_disabled": 0, "fusion_lon": 0.0, "fusion_lat": 0.0, "lat": 38.905821833333334, "type": "electric_scooter", "lon": -77.0335685, "bike_id": "5792d737621648cd5bc62a50f339f845", "rental_uris": {"android": "https://dc.lft.to/lastmile_qr_scan", "ios": "https://dc.lft.to/lastmile_qr_scan"}, "name": "5792d737621648cd5bc62a50f339f845", "is_reserved": 0}, {"is_disabled": 0, "fusion_lon": 0.0, "fusion_lat": 0.0, "lat": 38.94495916666666, "type": "electric_bike", "lon": -77.00685833333333, "bike_id": "838faad694319aafd6f20c9a1079372e", "rental_uris": {"android": "https://dc.lft.to/lastmile_qr_scan", "ios": "https://dc.lft.to/lastmile_qr_scan"}, "name": "838faad694319aafd6f20c9a1079372e", "is_reserved": 0}, {"is_disabled": 0, "fusion_lon": 0.0, "fusion_lat": 0.0, "lat": 38.90857716666667, "type": "electric_scooter", "lon": -77.04345616666667, "bike_id": "9bb521e645f4c75d4a89c2484d462719", "rental_uris": {"android": "https://dc.lft.to/lastmile_qr_scan", "ios": "https://dc.lft.to/lastmile_qr_scan"}, "name": "9bb521e645f4c75d4a89c2484d462719", "is_reserved": 0}, {"is_disabled": 0, "fusion_lon": 0.0, "fusion_lat": 0.0, "lat": 38.91930116666666, "type": "electric_scooter", "lon": -77.03426583333334, "bike_id": "bd00a2cf8aee28f1ca8950cae45473b5", "rental_uris": {"android": "https://dc.lft.to/lastmile_qr_scan", "ios": "https://dc.lft.to/lastmile_qr_scan"}, "name": "bd00a2cf8aee28f1ca8950cae45473b5", "is_reserved": 0}, {"is_disabled": 0, "fusion_lon": 0.0, "fusion_lat": 0.0, "lat": 38.8996955, "type": "electric_scooter", "lon": -76.9871825, "bike_id": "a26100708703c2376e31c3e17fe8fbc1", "rental_uris": {"android": "https://dc.lft.to/lastmile_qr_scan", "ios": "https://dc.lft.to/lastmile_qr_scan"}, "name": "a26100708703c2376e31c3e17fe8fbc1", "is_reserved": 0}, {"is_disabled": 0, "fusion_lon": 0.0, "fusion_lat": 0.0, "lat": 38.91994966666667, "type": "electric_scooter", "lon": -76.983954, "bike_id": "79fc91226aa84e8cd5450cd11df3ed90", "rental_uris": {"android": "https://dc.lft.to/lastmile_qr_scan", "ios": "https://dc.lft.to/lastmile_qr_scan"}, "name": "79fc91226aa84e8cd5450cd11df3ed90", "is_reserved": 0}, {"is_disabled": 0, "fusion_lon": 0.0, "fusion_lat": 0.0, "lat": 38.915505333333336, "type": "electric_scooter", "lon": -77.02372933333334, "bike_id": "433175e976c48bca8cda2cf68dd228dd", "rental_uris": {"android": "https://dc.lft.to/lastmile_qr_scan", "ios": "https://dc.lft.to/lastmile_qr_scan"}, "name": "433175e976c48bca8cda2cf68dd228dd", "is_reserved": 0}, {"is_disabled": 0, "fusion_lon": 0.0, "fusion_lat": 0.0, "lat": 38.933109, "type": "electric_scooter", "lon": -77.0326685, "bike_id": "05bc29743f108a0ae9a1b02c52d304a5", "rental_uris": {"android": "https://dc.lft.to/lastmile_qr_scan", "ios": "https://dc.lft.to/lastmile_qr_scan"}, "name": "05bc29743f108a0ae9a1b02c52d304a5", "is_reserved": 0}, {"is_disabled": 0, "fusion_lon": 0.0, "fusion_lat": 0.0, "lat": 38.9224465, "type": "electric_scooter", "lon": -77.03663633333333, "bike_id": "82968052d7816b261131a46f5e3f2a60", "rental_uris": {"android": "https://dc.lft.to/lastmile_qr_scan", "ios": "https://dc.lft.to/lastmile_qr_scan"}, "name": "82968052d7816b261131a46f5e3f2a60", "is_reserved": 0}, {"is_disabled": 0, "fusion_lon": 0.0, "fusion_lat": 0.0, "lat": 38.89758066666667, "type": "electric_scooter", "lon": -77.051377, "bike_id": "72952759a536de08b8571e69a4ff324d", "rental_uris": {"android": "https://dc.lft.to/lastmile_qr_scan", "ios": "https://dc.lft.to/lastmile_qr_scan"}, "name": "72952759a536de08b8571e69a4ff324d", "is_reserved": 0}, {"is_disabled": 0, "fusion_lon": 0.0, "fusion_lat": 0.0, "lat": 38.9156525, "type": "electric_scooter", "lon": -77.03870966666666, "bike_id": "e6d73b12852bad225d8007a9aaa6a726", "rental_uris": {"android": "https://dc.lft.to/lastmile_qr_scan", "ios": "https://dc.lft.to/lastmile_qr_scan"}, "name": "e6d73b12852bad225d8007a9aaa6a726", "is_reserved": 0}, {"is_disabled": 0, "fusion_lon": 0.0, "fusion_lat": 0.0, "lat": 38.86595033333333, "type": "electric_bike", "lon": -76.93232333333333, "bike_id": "02f7ec99f4c52178ae1aa515ebb19bf8", "rental_uris": {"android": "https://dc.lft.to/lastmile_qr_scan", "ios": "https://dc.lft.to/lastmile_qr_scan"}, "name": "02f7ec99f4c52178ae1aa515ebb19bf8", "is_reserved": 0}, {"is_disabled": 0, "fusion_lon": 0.0, "fusion_lat": 0.0, "lat": 38.89735733333333, "type": "electric_scooter", "lon": -77.04718266666667, "bike_id": "4d730653732e8b4bdd1e754df0c44782", "rental_uris": {"android": "https://dc.lft.to/lastmile_qr_scan", "ios": "https://dc.lft.to/lastmile_qr_scan"}, "name": "4d730653732e8b4bdd1e754df0c44782", "is_reserved": 0}, {"is_disabled": 0, "fusion_lon": 0.0, "fusion_lat": 0.0, "lat": 38.91773383333334, "type": "electric_scooter", "lon": -77.03205733333333, "bike_id": "454cf2535a2b0e00bf9502acc284570f", "rental_uris": {"android": "https://dc.lft.to/lastmile_qr_scan", "ios": "https://dc.lft.to/lastmile_qr_scan"}, "name": "454cf2535a2b0e00bf9502acc284570f", "is_reserved": 0}, {"is_disabled": 0, "fusion_lon": 0.0, "fusion_lat": 0.0, "lat": 38.9152865, "type": "electric_scooter", "lon": -77.02190333333333, "bike_id": "d8d37405388199caeb04314d2c37e7da", "rental_uris": {"android": "https://dc.lft.to/lastmile_qr_scan", "ios": "https://dc.lft.to/lastmile_qr_scan"}, "name": "d8d37405388199caeb04314d2c37e7da", "is_reserved": 0}, {"is_disabled": 0, "fusion_lon": 0.0, "fusion_lat": 0.0, "lat": 38.915508833333334, "type": "electric_scooter", "lon": -77.0314765, "bike_id": "ab221a8fe9de402af1559c6cf4c478e0", "rental_uris": {"android": "https://dc.lft.to/lastmile_qr_scan", "ios": "https://dc.lft.to/lastmile_qr_scan"}, "name": "ab221a8fe9de402af1559c6cf4c478e0", "is_reserved": 0}, {"is_disabled": 0, "fusion_lon": 0.0, "fusion_lat": 0.0, "lat": 38.852133333333335, "type": "electric_bike", "lon": -77.12758966666667, "bike_id": "885495de865e23d6ca02c6f7e8916b60", "rental_uris": {"android": "https://dc.lft.to/lastmile_qr_scan", "ios": "https://dc.lft.to/lastmile_qr_scan"}, "name": "885495de865e23d6ca02c6f7e8916b60", "is_reserved": 0}, {"is_disabled": 0, "fusion_lon": 0.0, "fusion_lat": 0.0, "lat": 38.918090666666664, "type": "electric_scooter", "lon": -77.03564116666666, "bike_id": "b7477de277cc8528202c935af7438642", "rental_uris": {"android": "https://dc.lft.to/lastmile_qr_scan", "ios": "https://dc.lft.to/lastmile_qr_scan"}, "name": "b7477de277cc8528202c935af7438642", "is_reserved": 0}, {"is_disabled": 0, "fusion_lon": 0.0, "fusion_lat": 0.0, "lat": 38.892511666666664, "type": "electric_scooter", "lon": -76.99852666666666, "bike_id": "a94699f672f34f3be8e7ac72261d5306", "rental_uris": {"android": "https://dc.lft.to/lastmile_qr_scan", "ios": "https://dc.lft.to/lastmile_qr_scan"}, "name": "a94699f672f34f3be8e7ac72261d5306", "is_reserved": 0}, {"is_disabled": 0, "fusion_lon": 0.0, "fusion_lat": 0.0, "lat": 38.9279215, "type": "electric_scooter", "lon": -77.03113816666666, "bike_id": "f88500a81bee4aa5c210247b6bfb59cc", "rental_uris": {"android": "https://dc.lft.to/lastmile_qr_scan", "ios": "https://dc.lft.to/lastmile_qr_scan"}, "name": "f88500a81bee4aa5c210247b6bfb59cc", "is_reserved": 0}, {"is_disabled": 0, "fusion_lon": 0.0, "fusion_lat": 0.0, "lat": 38.93544583333333, "type": "electric_scooter", "lon": -77.03406916666667, "bike_id": "e5354fdde5a7a760c7423c0abc22ae90", "rental_uris": {"android": "https://dc.lft.to/lastmile_qr_scan", "ios": "https://dc.lft.to/lastmile_qr_scan"}, "name": "e5354fdde5a7a760c7423c0abc22ae90", "is_reserved": 0}, {"is_disabled": 0, "fusion_lon": 0.0, "fusion_lat": 0.0, "lat": 38.941934333333336, "type": "electric_scooter", "lon": -77.03329766666667, "bike_id": "53068ab78d37830944cb04ce0ea61d57", "rental_uris": {"android": "https://dc.lft.to/lastmile_qr_scan", "ios": "https://dc.lft.to/lastmile_qr_scan"}, "name": "53068ab78d37830944cb04ce0ea61d57", "is_reserved": 0}, {"is_disabled": 0, "fusion_lon": 0.0, "fusion_lat": 0.0, "lat": 38.90842033333333, "type": "electric_scooter", "lon": -77.04883616666666, "bike_id": "dfad7ce4d49e8c54ebc43bd67ec5ae14", "rental_uris": {"android": "https://dc.lft.to/lastmile_qr_scan", "ios": "https://dc.lft.to/lastmile_qr_scan"}, "name": "dfad7ce4d49e8c54ebc43bd67ec5ae14", "is_reserved": 0}, {"is_disabled": 0, "fusion_lon": 0.0, "fusion_lat": 0.0, "lat": 38.91224483333333, "type": "electric_scooter", "lon": -77.027109, "bike_id": "d3274dd35dc4362e8fe576bbb5ab2a94", "rental_uris": {"android": "https://dc.lft.to/lastmile_qr_scan", "ios": "https://dc.lft.to/lastmile_qr_scan"}, "name": "d3274dd35dc4362e8fe576bbb5ab2a94", "is_reserved": 0}, {"is_disabled": 0, "fusion_lon": 0.0, "fusion_lat": 0.0, "lat": 38.88745333333333, "type": "electric_scooter", "lon": -77.02571683333333, "bike_id": "be324ba76b02fd5a3a8ba44fa4bca963", "rental_uris": {"android": "https://dc.lft.to/lastmile_qr_scan", "ios": "https://dc.lft.to/lastmile_qr_scan"}, "name": "be324ba76b02fd5a3a8ba44fa4bca963", "is_reserved": 0}, {"is_disabled": 0, "fusion_lon": 0.0, "fusion_lat": 0.0, "lat": 38.857868, "type": "electric_bike", "lon": -76.98756516666667, "bike_id": "5d2248d0f80a45e3113757e8d67adb3c", "rental_uris": {"android": "https://dc.lft.to/lastmile_qr_scan", "ios": "https://dc.lft.to/lastmile_qr_scan"}, "name": "5d2248d0f80a45e3113757e8d67adb3c", "is_reserved": 0}, {"is_disabled": 0, "fusion_lon": 0.0, "fusion_lat": 0.0, "lat": 38.9085985, "type": "electric_scooter", "lon": -76.9979865, "bike_id": "d35a8fbbe84f026f20c8e806e7c87a5b", "rental_uris": {"android": "https://dc.lft.to/lastmile_qr_scan", "ios": "https://dc.lft.to/lastmile_qr_scan"}, "name": "d35a8fbbe84f026f20c8e806e7c87a5b", "is_reserved": 0}, {"is_disabled": 0, "fusion_lon": 0.0, "fusion_lat": 0.0, "lat": 38.881282, "type": "electric_scooter", "lon": -77.01643566666667, "bike_id": "3c6e2cc4d873460d48a790933616fad5", "rental_uris": {"android": "https://dc.lft.to/lastmile_qr_scan", "ios": "https://dc.lft.to/lastmile_qr_scan"}, "name": "3c6e2cc4d873460d48a790933616fad5", "is_reserved": 0}, {"is_disabled": 0, "fusion_lon": 0.0, "fusion_lat": 0.0, "lat": 38.918857833333334, "type": "electric_scooter", "lon": -77.04176066666666, "bike_id": "8a5e2670414ae1fbb8ca05b92a6f35c9", "rental_uris": {"android": "https://dc.lft.to/lastmile_qr_scan", "ios": "https://dc.lft.to/lastmile_qr_scan"}, "name": "8a5e2670414ae1fbb8ca05b92a6f35c9", "is_reserved": 0}, {"is_disabled": 0, "fusion_lon": 0.0, "fusion_lat": 0.0, "lat": 38.89662666666667, "type": "electric_scooter", "lon": -77.0503515, "bike_id": "cbd1bd912278212c75cf3bbb53bd4f0b", "rental_uris": {"android": "https://dc.lft.to/lastmile_qr_scan", "ios": "https://dc.lft.to/lastmile_qr_scan"}, "name": "cbd1bd912278212c75cf3bbb53bd4f0b", "is_reserved": 0}, {"is_disabled": 0, "fusion_lon": 0.0, "fusion_lat": 0.0, "lat": 38.917839, "type": "electric_scooter", "lon": -77.03450333333333, "bike_id": "8a7b7513016ad84789702b9a3076c9a8", "rental_uris": {"android": "https://dc.lft.to/lastmile_qr_scan", "ios": "https://dc.lft.to/lastmile_qr_scan"}, "name": "8a7b7513016ad84789702b9a3076c9a8", "is_reserved": 0}, {"is_disabled": 0, "fusion_lon": 0.0, "fusion_lat": 0.0, "lat": 38.956137166666664, "type": "electric_scooter", "lon": -77.03283183333333, "bike_id": "a1670bdfb62a1ca0a0443d5582df6990", "rental_uris": {"android": "https://dc.lft.to/lastmile_qr_scan", "ios": "https://dc.lft.to/lastmile_qr_scan"}, "name": "a1670bdfb62a1ca0a0443d5582df6990", "is_reserved": 0}, {"is_disabled": 0, "fusion_lon": 0.0, "fusion_lat": 0.0, "lat": 38.90678483333333, "type": "electric_scooter", "lon": -77.036451, "bike_id": "356a99fd5b6f70422b5be8fb39ed9aab", "rental_uris": {"android": "https://dc.lft.to/lastmile_qr_scan", "ios": "https://dc.lft.to/lastmile_qr_scan"}, "name": "356a99fd5b6f70422b5be8fb39ed9aab", "is_reserved": 0}, {"is_disabled": 0, "fusion_lon": 0.0, "fusion_lat": 0.0, "lat": 38.88003966666667, "type": "electric_bike", "lon": -76.91594883333333, "bike_id": "854979fd9d8b30283a9dd4a571a46bc8", "rental_uris": {"android": "https://dc.lft.to/lastmile_qr_scan", "ios": "https://dc.lft.to/lastmile_qr_scan"}, "name": "854979fd9d8b30283a9dd4a571a46bc8", "is_reserved": 0}, {"is_disabled": 0, "fusion_lon": 0.0, "fusion_lat": 0.0, "lat": 38.96652783333333, "type": "electric_bike", "lon": -76.93027266666667, "bike_id": "bfd01c187a25d135a515de6a8a6e678c", "rental_uris": {"android": "https://dc.lft.to/lastmile_qr_scan", "ios": "https://dc.lft.to/lastmile_qr_scan"}, "name": "bfd01c187a25d135a515de6a8a6e678c", "is_reserved": 0}, {"is_disabled": 0, "fusion_lon": 0.0, "fusion_lat": 0.0, "lat": 38.917812166666664, "type": "electric_scooter", "lon": -77.02301383333334, "bike_id": "64f9c76b49b3ebac4ccb1f045fa0c11e", "rental_uris": {"android": "https://dc.lft.to/lastmile_qr_scan", "ios": "https://dc.lft.to/lastmile_qr_scan"}, "name": "64f9c76b49b3ebac4ccb1f045fa0c11e", "is_reserved": 0}, {"is_disabled": 0, "fusion_lon": 0.0, "fusion_lat": 0.0, "lat": 38.90427783333333, "type": "electric_scooter", "lon": -77.026045, "bike_id": "75302a5c75e27ca8cf44f4e7d8d2b421", "rental_uris": {"android": "https://dc.lft.to/lastmile_qr_scan", "ios": "https://dc.lft.to/lastmile_qr_scan"}, "name": "75302a5c75e27ca8cf44f4e7d8d2b421", "is_reserved": 0}, {"is_disabled": 0, "fusion_lon": 0.0, "fusion_lat": 0.0, "lat": 38.954003166666666, "type": "electric_scooter", "lon": -77.02752466666666, "bike_id": "3f4b1bcde4be5355dd8026831e54f6ff", "rental_uris": {"android": "https://dc.lft.to/lastmile_qr_scan", "ios": "https://dc.lft.to/lastmile_qr_scan"}, "name": "3f4b1bcde4be5355dd8026831e54f6ff", "is_reserved": 0}, {"is_disabled": 0, "fusion_lon": 0.0, "fusion_lat": 0.0, "lat": 38.927193833333334, "type": "electric_scooter", "lon": -77.05351083333333, "bike_id": "d545c7e40baa3a82270cf6975f8c6b7a", "rental_uris": {"android": "https://dc.lft.to/lastmile_qr_scan", "ios": "https://dc.lft.to/lastmile_qr_scan"}, "name": "d545c7e40baa3a82270cf6975f8c6b7a", "is_reserved": 0}, {"is_disabled": 0, "fusion_lon": 0.0, "fusion_lat": 0.0, "lat": 38.902455333333336, "type": "electric_scooter", "lon": -77.01805483333334, "bike_id": "0f2e5cb817bc8278d2831760d07d5448", "rental_uris": {"android": "https://dc.lft.to/lastmile_qr_scan", "ios": "https://dc.lft.to/lastmile_qr_scan"}, "name": "0f2e5cb817bc8278d2831760d07d5448", "is_reserved": 0}, {"is_disabled": 0, "fusion_lon": 0.0, "fusion_lat": 0.0, "lat": 38.87147383333333, "type": "electric_scooter", "lon": -76.9789745, "bike_id": "0dd19347180213f40072c6fbfc70da8c", "rental_uris": {"android": "https://dc.lft.to/lastmile_qr_scan", "ios": "https://dc.lft.to/lastmile_qr_scan"}, "name": "0dd19347180213f40072c6fbfc70da8c", "is_reserved": 0}, {"is_disabled": 0, "fusion_lon": 0.0, "fusion_lat": 0.0, "lat": 38.887429166666664, "type": "electric_scooter", "lon": -77.015335, "bike_id": "fb7bc43581bb0f80aacab32a2dab7788", "rental_uris": {"android": "https://dc.lft.to/lastmile_qr_scan", "ios": "https://dc.lft.to/lastmile_qr_scan"}, "name": "fb7bc43581bb0f80aacab32a2dab7788", "is_reserved": 0}, {"is_disabled": 0, "fusion_lon": 0.0, "fusion_lat": 0.0, "lat": 38.96929033333333, "type": "electric_bike", "lon": -77.02627583333333, "bike_id": "2a15923cc62b9c81615dddcd15491837", "rental_uris": {"android": "https://dc.lft.to/lastmile_qr_scan", "ios": "https://dc.lft.to/lastmile_qr_scan"}, "name": "2a15923cc62b9c81615dddcd15491837", "is_reserved": 0}, {"is_disabled": 0, "fusion_lon": 0.0, "fusion_lat": 0.0, "lat": 38.96117733333333, "type": "electric_bike", "lon": -77.06901166666667, "bike_id": "24df18b35db85fc7e232d1d3b5b06d47", "rental_uris": {"android": "https://dc.lft.to/lastmile_qr_scan", "ios": "https://dc.lft.to/lastmile_qr_scan"}, "name": "24df18b35db85fc7e232d1d3b5b06d47", "is_reserved": 0}, {"is_disabled": 0, "fusion_lon": 0.0, "fusion_lat": 0.0, "lat": 38.900536833333334, "type": "electric_scooter", "lon": -77.000671, "bike_id": "7d168cceb75a0b27d4fff9a11e4052eb", "rental_uris": {"android": "https://dc.lft.to/lastmile_qr_scan", "ios": "https://dc.lft.to/lastmile_qr_scan"}, "name": "7d168cceb75a0b27d4fff9a11e4052eb", "is_reserved": 0}, {"is_disabled": 0, "fusion_lon": 0.0, "fusion_lat": 0.0, "lat": 38.9169265, "type": "electric_scooter", "lon": -77.032116, "bike_id": "b878865bfe7286127caa0027eaf1ca1d", "rental_uris": {"android": "https://dc.lft.to/lastmile_qr_scan", "ios": "https://dc.lft.to/lastmile_qr_scan"}, "name": "b878865bfe7286127caa0027eaf1ca1d", "is_reserved": 0}, {"is_disabled": 0, "fusion_lon": 0.0, "fusion_lat": 0.0, "lat": 38.935580333333334, "type": "electric_scooter", "lon": -77.02961933333333, "bike_id": "81dc2b4bd8e0cdb27161cc4f8515ff2d", "rental_uris": {"android": "https://dc.lft.to/lastmile_qr_scan", "ios": "https://dc.lft.to/lastmile_qr_scan"}, "name": "81dc2b4bd8e0cdb27161cc4f8515ff2d", "is_reserved": 0}, {"is_disabled": 0, "fusion_lon": 0.0, "fusion_lat": 0.0, "lat": 38.89213483333333, "type": "electric_scooter", "lon": -76.9879475, "bike_id": "af7f4467832c441eb81c43cf73155c23", "rental_uris": {"android": "https://dc.lft.to/lastmile_qr_scan", "ios": "https://dc.lft.to/lastmile_qr_scan"}, "name": "af7f4467832c441eb81c43cf73155c23", "is_reserved": 0}, {"is_disabled": 0, "fusion_lon": 0.0, "fusion_lat": 0.0, "lat": 38.92422, "type": "electric_scooter", "lon": -77.05638733333333, "bike_id": "ba815a397e1ce04f09ae34b30e5ccb79", "rental_uris": {"android": "https://dc.lft.to/lastmile_qr_scan", "ios": "https://dc.lft.to/lastmile_qr_scan"}, "name": "ba815a397e1ce04f09ae34b30e5ccb79", "is_reserved": 0}, {"is_disabled": 0, "fusion_lon": 0.0, "fusion_lat": 0.0, "lat": 38.907445833333334, "type": "electric_scooter", "lon": -77.03435383333333, "bike_id": "a8f4d5ff9278703bc891813fc18438e1", "rental_uris": {"android": "https://dc.lft.to/lastmile_qr_scan", "ios": "https://dc.lft.to/lastmile_qr_scan"}, "name": "a8f4d5ff9278703bc891813fc18438e1", "is_reserved": 0}, {"is_disabled": 0, "fusion_lon": 0.0, "fusion_lat": 0.0, "lat": 38.9866385, "type": "electric_scooter", "lon": -77.02646633333333, "bike_id": "eccbc5be82166e7ffae48dfdb4e8ba80", "rental_uris": {"android": "https://dc.lft.to/lastmile_qr_scan", "ios": "https://dc.lft.to/lastmile_qr_scan"}, "name": "eccbc5be82166e7ffae48dfdb4e8ba80", "is_reserved": 0}, {"is_disabled": 0, "fusion_lon": 0.0, "fusion_lat": 0.0, "lat": 38.918051, "type": "electric_scooter", "lon": -77.0318085, "bike_id": "a304b810e344a2b8ec2ca0ebfb31f2f7", "rental_uris": {"android": "https://dc.lft.to/lastmile_qr_scan", "ios": "https://dc.lft.to/lastmile_qr_scan"}, "name": "a304b810e344a2b8ec2ca0ebfb31f2f7", "is_reserved": 0}, {"is_disabled": 0, "fusion_lon": 0.0, "fusion_lat": 0.0, "lat": 38.9327, "type": "electric_scooter", "lon": -76.9968615, "bike_id": "82d8117ce2a9e9c2a293ed8cf0c75498", "rental_uris": {"android": "https://dc.lft.to/lastmile_qr_scan", "ios": "https://dc.lft.to/lastmile_qr_scan"}, "name": "82d8117ce2a9e9c2a293ed8cf0c75498", "is_reserved": 0}, {"is_disabled": 0, "fusion_lon": 0.0, "fusion_lat": 0.0, "lat": 38.914783166666666, "type": "electric_scooter", "lon": -77.0439505, "bike_id": "4e42ae125d7880a4619c4eac74b07195", "rental_uris": {"android": "https://dc.lft.to/lastmile_qr_scan", "ios": "https://dc.lft.to/lastmile_qr_scan"}, "name": "4e42ae125d7880a4619c4eac74b07195", "is_reserved": 0}, {"is_disabled": 0, "fusion_lon": 0.0, "fusion_lat": 0.0, "lat": 38.91867933333333, "type": "electric_bike", "lon": -76.96175066666666, "bike_id": "1e207519a81ea286b8086344c9c98e1a", "rental_uris": {"android": "https://dc.lft.to/lastmile_qr_scan", "ios": "https://dc.lft.to/lastmile_qr_scan"}, "name": "1e207519a81ea286b8086344c9c98e1a", "is_reserved": 0}, {"is_disabled": 0, "fusion_lon": 0.0, "fusion_lat": 0.0, "lat": 38.89907433333333, "type": "electric_scooter", "lon": -76.9338545, "bike_id": "30ec29102f3c5ffd663ef4770caada5a", "rental_uris": {"android": "https://dc.lft.to/lastmile_qr_scan", "ios": "https://dc.lft.to/lastmile_qr_scan"}, "name": "30ec29102f3c5ffd663ef4770caada5a", "is_reserved": 0}, {"is_disabled": 0, "fusion_lon": 0.0, "fusion_lat": 0.0, "lat": 38.91996483333333, "type": "electric_scooter", "lon": -77.024035, "bike_id": "5d6e35063cfff394c66fbe4091c10f16", "rental_uris": {"android": "https://dc.lft.to/lastmile_qr_scan", "ios": "https://dc.lft.to/lastmile_qr_scan"}, "name": "5d6e35063cfff394c66fbe4091c10f16", "is_reserved": 0}, {"is_disabled": 0, "fusion_lon": 0.0, "fusion_lat": 0.0, "lat": 38.838134333333336, "type": "electric_scooter", "lon": -77.00434366666667, "bike_id": "b6789f8ff2808655aa2ed2c65975bbeb", "rental_uris": {"android": "https://dc.lft.to/lastmile_qr_scan", "ios": "https://dc.lft.to/lastmile_qr_scan"}, "name": "b6789f8ff2808655aa2ed2c65975bbeb", "is_reserved": 0}, {"is_disabled": 0, "fusion_lon": 0.0, "fusion_lat": 0.0, "lat": 38.91566683333333, "type": "electric_scooter", "lon": -77.03867066666666, "bike_id": "b53b458ff0afb487ec2acf50b095b526", "rental_uris": {"android": "https://dc.lft.to/lastmile_qr_scan", "ios": "https://dc.lft.to/lastmile_qr_scan"}, "name": "b53b458ff0afb487ec2acf50b095b526", "is_reserved": 0}, {"is_disabled": 0, "fusion_lon": 0.0, "fusion_lat": 0.0, "lat": 38.930483333333335, "type": "electric_scooter", "lon": -77.0041825, "bike_id": "8b25b59251eec7f566652b840331e707", "rental_uris": {"android": "https://dc.lft.to/lastmile_qr_scan", "ios": "https://dc.lft.to/lastmile_qr_scan"}, "name": "8b25b59251eec7f566652b840331e707", "is_reserved": 0}, {"is_disabled": 0, "fusion_lon": 0.0, "fusion_lat": 0.0, "lat": 38.928643666666666, "type": "electric_scooter", "lon": -77.03433866666667, "bike_id": "7201d0ba53c0272e8704b444200b3d60", "rental_uris": {"android": "https://dc.lft.to/lastmile_qr_scan", "ios": "https://dc.lft.to/lastmile_qr_scan"}, "name": "7201d0ba53c0272e8704b444200b3d60", "is_reserved": 0}, {"is_disabled": 0, "fusion_lon": 0.0, "fusion_lat": 0.0, "lat": 38.8624535, "type": "electric_scooter", "lon": -76.99493833333334, "bike_id": "bdc04cfe72bdcfb84e9b157661f4e4fc", "rental_uris": {"android": "https://dc.lft.to/lastmile_qr_scan", "ios": "https://dc.lft.to/lastmile_qr_scan"}, "name": "bdc04cfe72bdcfb84e9b157661f4e4fc", "is_reserved": 0}, {"is_disabled": 0, "fusion_lon": 0.0, "fusion_lat": 0.0, "lat": 38.992558, "type": "electric_bike", "lon": -77.0500025, "bike_id": "fdaaa9618d3efdf559c64900a8aad848", "rental_uris": {"android": "https://dc.lft.to/lastmile_qr_scan", "ios": "https://dc.lft.to/lastmile_qr_scan"}, "name": "fdaaa9618d3efdf559c64900a8aad848", "is_reserved": 0}, {"is_disabled": 0, "fusion_lon": 0.0, "fusion_lat": 0.0, "lat": 38.94281383333333, "type": "electric_scooter", "lon": -77.02346, "bike_id": "949e74909ed1a8ca64a0221c20dc316f", "rental_uris": {"android": "https://dc.lft.to/lastmile_qr_scan", "ios": "https://dc.lft.to/lastmile_qr_scan"}, "name": "949e74909ed1a8ca64a0221c20dc316f", "is_reserved": 0}, {"is_disabled": 0, "fusion_lon": 0.0, "fusion_lat": 0.0, "lat": 39.11507016666667, "type": "electric_bike", "lon": -77.19550366666667, "bike_id": "b95549df103fec75a40656d3906da58b", "rental_uris": {"android": "https://dc.lft.to/lastmile_qr_scan", "ios": "https://dc.lft.to/lastmile_qr_scan"}, "name": "b95549df103fec75a40656d3906da58b", "is_reserved": 0}, {"is_disabled": 0, "fusion_lon": 0.0, "fusion_lat": 0.0, "lat": 38.8571825, "type": "electric_bike", "lon": -76.981135, "bike_id": "df422dbc1448e0eaa0bebd3218fc8a4b", "rental_uris": {"android": "https://dc.lft.to/lastmile_qr_scan", "ios": "https://dc.lft.to/lastmile_qr_scan"}, "name": "df422dbc1448e0eaa0bebd3218fc8a4b", "is_reserved": 0}, {"is_disabled": 0, "fusion_lon": 0.0, "fusion_lat": 0.0, "lat": 38.8952015, "type": "electric_scooter", "lon": -77.02828716666667, "bike_id": "7423c5dcbd53962fafa46b1adc8abf10", "rental_uris": {"android": "https://dc.lft.to/lastmile_qr_scan", "ios": "https://dc.lft.to/lastmile_qr_scan"}, "name": "7423c5dcbd53962fafa46b1adc8abf10", "is_reserved": 0}, {"is_disabled": 0, "fusion_lon": 0.0, "fusion_lat": 0.0, "lat": 38.85333416666667, "type": "electric_scooter", "lon": -76.9659545, "bike_id": "38bef9539665a253684db3df48661279", "rental_uris": {"android": "https://dc.lft.to/lastmile_qr_scan", "ios": "https://dc.lft.to/lastmile_qr_scan"}, "name": "38bef9539665a253684db3df48661279", "is_reserved": 0}, {"is_disabled": 0, "fusion_lon": 0.0, "fusion_lat": 0.0, "lat": 38.988278666666666, "type": "electric_bike", "lon": -76.98744933333333, "bike_id": "56e8f0fd13a1b0e75cbaeb88f4286888", "rental_uris": {"android": "https://dc.lft.to/lastmile_qr_scan", "ios": "https://dc.lft.to/lastmile_qr_scan"}, "name": "56e8f0fd13a1b0e75cbaeb88f4286888", "is_reserved": 0}, {"is_disabled": 0, "fusion_lon": 0.0, "fusion_lat": 0.0, "lat": 38.90657683333333, "type": "electric_scooter", "lon": -77.0294585, "bike_id": "466021aadd7dd08c55c2349b03e0de2c", "rental_uris": {"android": "https://dc.lft.to/lastmile_qr_scan", "ios": "https://dc.lft.to/lastmile_qr_scan"}, "name": "466021aadd7dd08c55c2349b03e0de2c", "is_reserved": 0}, {"is_disabled": 0, "fusion_lon": 0.0, "fusion_lat": 0.0, "lat": 38.885146666666664, "type": "electric_scooter", "lon": -76.99846416666666, "bike_id": "ef1d0a7c5ae57fcfabf5d14db14fde59", "rental_uris": {"android": "https://dc.lft.to/lastmile_qr_scan", "ios": "https://dc.lft.to/lastmile_qr_scan"}, "name": "ef1d0a7c5ae57fcfabf5d14db14fde59", "is_reserved": 0}, {"is_disabled": 0, "fusion_lon": 0.0, "fusion_lat": 0.0, "lat": 38.880163, "type": "electric_scooter", "lon": -76.93117166666667, "bike_id": "b0911c1921a0be0fdf301403274e803c", "rental_uris": {"android": "https://dc.lft.to/lastmile_qr_scan", "ios": "https://dc.lft.to/lastmile_qr_scan"}, "name": "b0911c1921a0be0fdf301403274e803c", "is_reserved": 0}, {"is_disabled": 0, "fusion_lon": 0.0, "fusion_lat": 0.0, "lat": 38.905828666666665, "type": "electric_scooter", "lon": -77.02375766666667, "bike_id": "35105f3e1d5bb4e592014ff2f98c3ba3", "rental_uris": {"android": "https://dc.lft.to/lastmile_qr_scan", "ios": "https://dc.lft.to/lastmile_qr_scan"}, "name": "35105f3e1d5bb4e592014ff2f98c3ba3", "is_reserved": 0}, {"is_disabled": 0, "fusion_lon": 0.0, "fusion_lat": 0.0, "lat": 38.92034016666667, "type": "electric_scooter", "lon": -77.02587566666666, "bike_id": "7e3c0b585f854af152eab695ba93ae9d", "rental_uris": {"android": "https://dc.lft.to/lastmile_qr_scan", "ios": "https://dc.lft.to/lastmile_qr_scan"}, "name": "7e3c0b585f854af152eab695ba93ae9d", "is_reserved": 0}, {"is_disabled": 0, "fusion_lon": 0.0, "fusion_lat": 0.0, "lat": 38.91538833333333, "type": "electric_scooter", "lon": -77.03206116666667, "bike_id": "87f85fe7a1e53c4fb974430b12bbf247", "rental_uris": {"android": "https://dc.lft.to/lastmile_qr_scan", "ios": "https://dc.lft.to/lastmile_qr_scan"}, "name": "87f85fe7a1e53c4fb974430b12bbf247", "is_reserved": 0}, {"is_disabled": 0, "fusion_lon": 0.0, "fusion_lat": 0.0, "lat": 38.9214765, "type": "electric_scooter", "lon": -77.02960816666666, "bike_id": "68f6028f8d67cea42405b47ee8d4c6fc", "rental_uris": {"android": "https://dc.lft.to/lastmile_qr_scan", "ios": "https://dc.lft.to/lastmile_qr_scan"}, "name": "68f6028f8d67cea42405b47ee8d4c6fc", "is_reserved": 0}, {"is_disabled": 0, "fusion_lon": 0.0, "fusion_lat": 0.0, "lat": 38.885372833333335, "type": "electric_scooter", "lon": -76.92696283333333, "bike_id": "75984f8b006941a0f49b327ba6a1ccbc", "rental_uris": {"android": "https://dc.lft.to/lastmile_qr_scan", "ios": "https://dc.lft.to/lastmile_qr_scan"}, "name": "75984f8b006941a0f49b327ba6a1ccbc", "is_reserved": 0}, {"is_disabled": 0, "fusion_lon": 0.0, "fusion_lat": 0.0, "lat": 38.90245733333333, "type": "electric_scooter", "lon": -77.0180845, "bike_id": "103e8c47eca7fffa5105020e032344fc", "rental_uris": {"android": "https://dc.lft.to/lastmile_qr_scan", "ios": "https://dc.lft.to/lastmile_qr_scan"}, "name": "103e8c47eca7fffa5105020e032344fc", "is_reserved": 0}, {"is_disabled": 0, "fusion_lon": 0.0, "fusion_lat": 0.0, "lat": 38.9333745, "type": "electric_scooter", "lon": -77.0413715, "bike_id": "c3ad068737b12b2221cf9f942e4e1750", "rental_uris": {"android": "https://dc.lft.to/lastmile_qr_scan", "ios": "https://dc.lft.to/lastmile_qr_scan"}, "name": "c3ad068737b12b2221cf9f942e4e1750", "is_reserved": 0}, {"is_disabled": 0, "fusion_lon": 0.0, "fusion_lat": 0.0, "lat": 38.90681516666667, "type": "electric_bike", "lon": -77.03658316666667, "bike_id": "7c957d5cececb736dd3b4fe33bbc0e01", "rental_uris": {"android": "https://dc.lft.to/lastmile_qr_scan", "ios": "https://dc.lft.to/lastmile_qr_scan"}, "name": "7c957d5cececb736dd3b4fe33bbc0e01", "is_reserved": 0}, {"is_disabled": 0, "fusion_lon": 0.0, "fusion_lat": 0.0, "lat": 38.867353, "type": "electric_scooter", "lon": -76.979394, "bike_id": "67ff03311f0d0471071a983f5bd6497c", "rental_uris": {"android": "https://dc.lft.to/lastmile_qr_scan", "ios": "https://dc.lft.to/lastmile_qr_scan"}, "name": "67ff03311f0d0471071a983f5bd6497c", "is_reserved": 0}, {"is_disabled": 0, "fusion_lon": 0.0, "fusion_lat": 0.0, "lat": 38.9097285, "type": "electric_scooter", "lon": -77.02177116666667, "bike_id": "06866f11de3c3ab50d8b7113d1bc7c8f", "rental_uris": {"android": "https://dc.lft.to/lastmile_qr_scan", "ios": "https://dc.lft.to/lastmile_qr_scan"}, "name": "06866f11de3c3ab50d8b7113d1bc7c8f", "is_reserved": 0}, {"is_disabled": 0, "fusion_lon": 0.0, "fusion_lat": 0.0, "lat": 38.934152833333336, "type": "electric_scooter", "lon": -77.02457133333333, "bike_id": "0a9f069c8a93fe525677ddcaf2186041", "rental_uris": {"android": "https://dc.lft.to/lastmile_qr_scan", "ios": "https://dc.lft.to/lastmile_qr_scan"}, "name": "0a9f069c8a93fe525677ddcaf2186041", "is_reserved": 0}, {"is_disabled": 0, "fusion_lon": 0.0, "fusion_lat": 0.0, "lat": 38.9232245, "type": "electric_scooter", "lon": -77.0462155, "bike_id": "1fc3f8e55a82f2fa7d36c8aa96669e5e", "rental_uris": {"android": "https://dc.lft.to/lastmile_qr_scan", "ios": "https://dc.lft.to/lastmile_qr_scan"}, "name": "1fc3f8e55a82f2fa7d36c8aa96669e5e", "is_reserved": 0}, {"is_disabled": 0, "fusion_lon": 0.0, "fusion_lat": 0.0, "lat": 38.924302833333336, "type": "electric_scooter", "lon": -77.0355155, "bike_id": "549dcb87b713b730d7dd33dc1672c392", "rental_uris": {"android": "https://dc.lft.to/lastmile_qr_scan", "ios": "https://dc.lft.to/lastmile_qr_scan"}, "name": "549dcb87b713b730d7dd33dc1672c392", "is_reserved": 0}, {"is_disabled": 0, "fusion_lon": 0.0, "fusion_lat": 0.0, "lat": 38.904868666666665, "type": "electric_scooter", "lon": -77.029497, "bike_id": "f08c36ea8d9213b942dc8c810610e1cb", "rental_uris": {"android": "https://dc.lft.to/lastmile_qr_scan", "ios": "https://dc.lft.to/lastmile_qr_scan"}, "name": "f08c36ea8d9213b942dc8c810610e1cb", "is_reserved": 0}, {"is_disabled": 0, "fusion_lon": 0.0, "fusion_lat": 0.0, "lat": 38.911301, "type": "electric_scooter", "lon": -77.05935966666667, "bike_id": "e3246e8ddd2cb53c71a35c90bf0ad937", "rental_uris": {"android": "https://dc.lft.to/lastmile_qr_scan", "ios": "https://dc.lft.to/lastmile_qr_scan"}, "name": "e3246e8ddd2cb53c71a35c90bf0ad937", "is_reserved": 0}, {"is_disabled": 0, "fusion_lon": 0.0, "fusion_lat": 0.0, "lat": 38.884855333333334, "type": "electric_scooter", "lon": -76.92955683333334, "bike_id": "2a47966287b1ee9e74d6e7d98dbcadef", "rental_uris": {"android": "https://dc.lft.to/lastmile_qr_scan", "ios": "https://dc.lft.to/lastmile_qr_scan"}, "name": "2a47966287b1ee9e74d6e7d98dbcadef", "is_reserved": 0}, {"is_disabled": 0, "fusion_lon": 0.0, "fusion_lat": 0.0, "lat": 38.904937333333336, "type": "electric_scooter", "lon": -77.00117466666667, "bike_id": "51c03dde35e004ebc7d073ebc72f3ebd", "rental_uris": {"android": "https://dc.lft.to/lastmile_qr_scan", "ios": "https://dc.lft.to/lastmile_qr_scan"}, "name": "51c03dde35e004ebc7d073ebc72f3ebd", "is_reserved": 0}, {"is_disabled": 0, "fusion_lon": 0.0, "fusion_lat": 0.0, "lat": 38.90380433333333, "type": "electric_scooter", "lon": -77.0487155, "bike_id": "6b0695da67c1c7293c78ee6ca81945e0", "rental_uris": {"android": "https://dc.lft.to/lastmile_qr_scan", "ios": "https://dc.lft.to/lastmile_qr_scan"}, "name": "6b0695da67c1c7293c78ee6ca81945e0", "is_reserved": 0}, {"is_disabled": 0, "fusion_lon": 0.0, "fusion_lat": 0.0, "lat": 38.914256, "type": "electric_scooter", "lon": -77.0318675, "bike_id": "55e5570eab8b883923ee916b61df2d46", "rental_uris": {"android": "https://dc.lft.to/lastmile_qr_scan", "ios": "https://dc.lft.to/lastmile_qr_scan"}, "name": "55e5570eab8b883923ee916b61df2d46", "is_reserved": 0}, {"is_disabled": 0, "fusion_lon": 0.0, "fusion_lat": 0.0, "lat": 38.925248333333336, "type": "electric_scooter", "lon": -77.044219, "bike_id": "c39f7502c60b974ede4999c16a9d86c9", "rental_uris": {"android": "https://dc.lft.to/lastmile_qr_scan", "ios": "https://dc.lft.to/lastmile_qr_scan"}, "name": "c39f7502c60b974ede4999c16a9d86c9", "is_reserved": 0}, {"is_disabled": 0, "fusion_lon": 0.0, "fusion_lat": 0.0, "lat": 38.905257, "type": "electric_scooter", "lon": -77.0508595, "bike_id": "7afb92e80052c0bc71cab96ce0c30e57", "rental_uris": {"android": "https://dc.lft.to/lastmile_qr_scan", "ios": "https://dc.lft.to/lastmile_qr_scan"}, "name": "7afb92e80052c0bc71cab96ce0c30e57", "is_reserved": 0}, {"is_disabled": 0, "fusion_lon": 0.0, "fusion_lat": 0.0, "lat": 38.90005683333333, "type": "electric_scooter", "lon": -76.99897266666666, "bike_id": "b309e32c1d6d1adf45f43972710ad2fc", "rental_uris": {"android": "https://dc.lft.to/lastmile_qr_scan", "ios": "https://dc.lft.to/lastmile_qr_scan"}, "name": "b309e32c1d6d1adf45f43972710ad2fc", "is_reserved": 0}, {"is_disabled": 0, "fusion_lon": 0.0, "fusion_lat": 0.0, "lat": 38.91565683333334, "type": "electric_scooter", "lon": -77.03149216666667, "bike_id": "cb4fab016d184a8c413fc90f4df47dfa", "rental_uris": {"android": "https://dc.lft.to/lastmile_qr_scan", "ios": "https://dc.lft.to/lastmile_qr_scan"}, "name": "cb4fab016d184a8c413fc90f4df47dfa", "is_reserved": 0}, {"is_disabled": 0, "fusion_lon": 0.0, "fusion_lat": 0.0, "lat": 38.89539933333333, "type": "electric_scooter", "lon": -77.041278, "bike_id": "21c453d713e30ceb0d084f918fb8a08b", "rental_uris": {"android": "https://dc.lft.to/lastmile_qr_scan", "ios": "https://dc.lft.to/lastmile_qr_scan"}, "name": "21c453d713e30ceb0d084f918fb8a08b", "is_reserved": 0}, {"is_disabled": 0, "fusion_lon": 0.0, "fusion_lat": 0.0, "lat": 38.916275, "type": "electric_scooter", "lon": -77.04024616666666, "bike_id": "1a8dfefd2a27b52bfd094154572c6b98", "rental_uris": {"android": "https://dc.lft.to/lastmile_qr_scan", "ios": "https://dc.lft.to/lastmile_qr_scan"}, "name": "1a8dfefd2a27b52bfd094154572c6b98", "is_reserved": 0}, {"is_disabled": 0, "fusion_lon": 0.0, "fusion_lat": 0.0, "lat": 38.898337833333336, "type": "electric_scooter", "lon": -76.94634266666667, "bike_id": "4ef6f2eded6e0d972257719f355203af", "rental_uris": {"android": "https://dc.lft.to/lastmile_qr_scan", "ios": "https://dc.lft.to/lastmile_qr_scan"}, "name": "4ef6f2eded6e0d972257719f355203af", "is_reserved": 0}, {"is_disabled": 0, "fusion_lon": 0.0, "fusion_lat": 0.0, "lat": 38.90551166666667, "type": "electric_scooter", "lon": -77.046519, "bike_id": "a1b60b710a653fea5d629467ac2f6b28", "rental_uris": {"android": "https://dc.lft.to/lastmile_qr_scan", "ios": "https://dc.lft.to/lastmile_qr_scan"}, "name": "a1b60b710a653fea5d629467ac2f6b28", "is_reserved": 0}, {"is_disabled": 0, "fusion_lon": 0.0, "fusion_lat": 0.0, "lat": 38.86243666666667, "type": "electric_scooter", "lon": -76.994961, "bike_id": "43b3b1687719277d577271c567c46e46", "rental_uris": {"android": "https://dc.lft.to/lastmile_qr_scan", "ios": "https://dc.lft.to/lastmile_qr_scan"}, "name": "43b3b1687719277d577271c567c46e46", "is_reserved": 0}, {"is_disabled": 0, "fusion_lon": 0.0, "fusion_lat": 0.0, "lat": 38.839365666666666, "type": "electric_bike", "lon": -77.07904433333333, "bike_id": "d190f2c11fff9640f0b596cfd0dd9743", "rental_uris": {"android": "https://dc.lft.to/lastmile_qr_scan", "ios": "https://dc.lft.to/lastmile_qr_scan"}, "name": "d190f2c11fff9640f0b596cfd0dd9743", "is_reserved": 0}, {"is_disabled": 0, "fusion_lon": 0.0, "fusion_lat": 0.0, "lat": 38.92161483333334, "type": "electric_scooter", "lon": -77.034584, "bike_id": "c269b3e66c3e6b8ad931892f86eb6bb0", "rental_uris": {"android": "https://dc.lft.to/lastmile_qr_scan", "ios": "https://dc.lft.to/lastmile_qr_scan"}, "name": "c269b3e66c3e6b8ad931892f86eb6bb0", "is_reserved": 0}, {"is_disabled": 0, "fusion_lon": 0.0, "fusion_lat": 0.0, "lat": 38.91194333333333, "type": "electric_scooter", "lon": -77.03860283333333, "bike_id": "023e7147ce44e433fb6ba8df2c7e7704", "rental_uris": {"android": "https://dc.lft.to/lastmile_qr_scan", "ios": "https://dc.lft.to/lastmile_qr_scan"}, "name": "023e7147ce44e433fb6ba8df2c7e7704", "is_reserved": 0}, {"is_disabled": 0, "fusion_lon": 0.0, "fusion_lat": 0.0, "lat": 38.91857366666667, "type": "electric_bike", "lon": -76.96090083333333, "bike_id": "bf6fb5791ec8c155b18a6cf3b1f906e0", "rental_uris": {"android": "https://dc.lft.to/lastmile_qr_scan", "ios": "https://dc.lft.to/lastmile_qr_scan"}, "name": "bf6fb5791ec8c155b18a6cf3b1f906e0", "is_reserved": 0}, {"is_disabled": 0, "fusion_lon": 0.0, "fusion_lat": 0.0, "lat": 38.92500016666666, "type": "electric_scooter", "lon": -77.0522525, "bike_id": "d16fc00618dec34d9d989dd15c7f9351", "rental_uris": {"android": "https://dc.lft.to/lastmile_qr_scan", "ios": "https://dc.lft.to/lastmile_qr_scan"}, "name": "d16fc00618dec34d9d989dd15c7f9351", "is_reserved": 0}, {"is_disabled": 0, "fusion_lon": 0.0, "fusion_lat": 0.0, "lat": 38.87808016666666, "type": "electric_scooter", "lon": -77.01431066666666, "bike_id": "3733c059bcce78c390eb553e57a7b08c", "rental_uris": {"android": "https://dc.lft.to/lastmile_qr_scan", "ios": "https://dc.lft.to/lastmile_qr_scan"}, "name": "3733c059bcce78c390eb553e57a7b08c", "is_reserved": 0}, {"is_disabled": 0, "fusion_lon": 0.0, "fusion_lat": 0.0, "lat": 38.93560733333333, "type": "electric_scooter", "lon": -77.0348015, "bike_id": "11660795a8bc3387522eba66471ae9dc", "rental_uris": {"android": "https://dc.lft.to/lastmile_qr_scan", "ios": "https://dc.lft.to/lastmile_qr_scan"}, "name": "11660795a8bc3387522eba66471ae9dc", "is_reserved": 0}, {"is_disabled": 0, "fusion_lon": 0.0, "fusion_lat": 0.0, "lat": 38.92122283333333, "type": "electric_bike", "lon": -77.01212283333334, "bike_id": "01ec48080c0d92f7f81c49e7927c82de", "rental_uris": {"android": "https://dc.lft.to/lastmile_qr_scan", "ios": "https://dc.lft.to/lastmile_qr_scan"}, "name": "01ec48080c0d92f7f81c49e7927c82de", "is_reserved": 0}, {"is_disabled": 0, "fusion_lon": 0.0, "fusion_lat": 0.0, "lat": 38.913247, "type": "electric_scooter", "lon": -77.03181033333334, "bike_id": "6c52041fe4e0333dffedadeacb16e06a", "rental_uris": {"android": "https://dc.lft.to/lastmile_qr_scan", "ios": "https://dc.lft.to/lastmile_qr_scan"}, "name": "6c52041fe4e0333dffedadeacb16e06a", "is_reserved": 0}, {"is_disabled": 0, "fusion_lon": 0.0, "fusion_lat": 0.0, "lat": 38.91502366666667, "type": "electric_scooter", "lon": -76.98365, "bike_id": "aee852fb95f087ad5d931b511e767ab5", "rental_uris": {"android": "https://dc.lft.to/lastmile_qr_scan", "ios": "https://dc.lft.to/lastmile_qr_scan"}, "name": "aee852fb95f087ad5d931b511e767ab5", "is_reserved": 0}, {"is_disabled": 0, "fusion_lon": 0.0, "fusion_lat": 0.0, "lat": 38.928479833333334, "type": "electric_scooter", "lon": -77.05625966666666, "bike_id": "7e1258ddf05503043338ca4ddccf0393", "rental_uris": {"android": "https://dc.lft.to/lastmile_qr_scan", "ios": "https://dc.lft.to/lastmile_qr_scan"}, "name": "7e1258ddf05503043338ca4ddccf0393", "is_reserved": 0}, {"is_disabled": 0, "fusion_lon": 0.0, "fusion_lat": 0.0, "lat": 38.92482783333333, "type": "electric_scooter", "lon": -77.0272705, "bike_id": "dde6be4c17a8b4ef8269609f2ff4ca4b", "rental_uris": {"android": "https://dc.lft.to/lastmile_qr_scan", "ios": "https://dc.lft.to/lastmile_qr_scan"}, "name": "dde6be4c17a8b4ef8269609f2ff4ca4b", "is_reserved": 0}, {"is_disabled": 0, "fusion_lon": 0.0, "fusion_lat": 0.0, "lat": 38.953116666666666, "type": "electric_scooter", "lon": -77.03603216666667, "bike_id": "da049ec85bf093f1ead5754b1afa360d", "rental_uris": {"android": "https://dc.lft.to/lastmile_qr_scan", "ios": "https://dc.lft.to/lastmile_qr_scan"}, "name": "da049ec85bf093f1ead5754b1afa360d", "is_reserved": 0}, {"is_disabled": 0, "fusion_lon": 0.0, "fusion_lat": 0.0, "lat": 38.90954133333334, "type": "electric_scooter", "lon": -77.02385533333333, "bike_id": "17b63695bb01a538690b5377112a1065", "rental_uris": {"android": "https://dc.lft.to/lastmile_qr_scan", "ios": "https://dc.lft.to/lastmile_qr_scan"}, "name": "17b63695bb01a538690b5377112a1065", "is_reserved": 0}, {"is_disabled": 0, "fusion_lon": 0.0, "fusion_lat": 0.0, "lat": 38.94982233333333, "type": "electric_scooter", "lon": -77.02701333333333, "bike_id": "026cd1caade7153f7114f5fd813655cb", "rental_uris": {"android": "https://dc.lft.to/lastmile_qr_scan", "ios": "https://dc.lft.to/lastmile_qr_scan"}, "name": "026cd1caade7153f7114f5fd813655cb", "is_reserved": 0}, {"is_disabled": 0, "fusion_lon": 0.0, "fusion_lat": 0.0, "lat": 38.987589, "type": "electric_bike", "lon": -77.02709233333333, "bike_id": "c2d6cb9b2d6964973d110a6d4a19e2ee", "rental_uris": {"android": "https://dc.lft.to/lastmile_qr_scan", "ios": "https://dc.lft.to/lastmile_qr_scan"}, "name": "c2d6cb9b2d6964973d110a6d4a19e2ee", "is_reserved": 0}, {"is_disabled": 0, "fusion_lon": 0.0, "fusion_lat": 0.0, "lat": 38.918381333333336, "type": "electric_scooter", "lon": -77.0321855, "bike_id": "79b597cebf526416ddd56d11ae080afd", "rental_uris": {"android": "https://dc.lft.to/lastmile_qr_scan", "ios": "https://dc.lft.to/lastmile_qr_scan"}, "name": "79b597cebf526416ddd56d11ae080afd", "is_reserved": 0}, {"is_disabled": 0, "fusion_lon": 0.0, "fusion_lat": 0.0, "lat": 38.8956825, "type": "electric_bike", "lon": -77.127401, "bike_id": "6fca88bb3acbb309fd382abf57a9a00c", "rental_uris": {"android": "https://dc.lft.to/lastmile_qr_scan", "ios": "https://dc.lft.to/lastmile_qr_scan"}, "name": "6fca88bb3acbb309fd382abf57a9a00c", "is_reserved": 0}, {"is_disabled": 0, "fusion_lon": 0.0, "fusion_lat": 0.0, "lat": 38.897979166666666, "type": "electric_scooter", "lon": -76.9305325, "bike_id": "5d26b45743280aaf57ac3c7094298b5d", "rental_uris": {"android": "https://dc.lft.to/lastmile_qr_scan", "ios": "https://dc.lft.to/lastmile_qr_scan"}, "name": "5d26b45743280aaf57ac3c7094298b5d", "is_reserved": 0}, {"is_disabled": 0, "fusion_lon": 0.0, "fusion_lat": 0.0, "lat": 38.9576005, "type": "electric_bike", "lon": -77.0205505, "bike_id": "02bd33acb87eefc4cb978420fbe65579", "rental_uris": {"android": "https://dc.lft.to/lastmile_qr_scan", "ios": "https://dc.lft.to/lastmile_qr_scan"}, "name": "02bd33acb87eefc4cb978420fbe65579", "is_reserved": 0}, {"is_disabled": 0, "fusion_lon": 0.0, "fusion_lat": 0.0, "lat": 38.92408133333333, "type": "electric_scooter", "lon": -77.03562466666666, "bike_id": "7193871fbda4fa81e21a30d59efa2f8a", "rental_uris": {"android": "https://dc.lft.to/lastmile_qr_scan", "ios": "https://dc.lft.to/lastmile_qr_scan"}, "name": "7193871fbda4fa81e21a30d59efa2f8a", "is_reserved": 0}, {"is_disabled": 0, "fusion_lon": 0.0, "fusion_lat": 0.0, "lat": 38.831557333333336, "type": "electric_bike", "lon": -76.996927, "bike_id": "5605c7dd88740de7a8a2303794db5feb", "rental_uris": {"android": "https://dc.lft.to/lastmile_qr_scan", "ios": "https://dc.lft.to/lastmile_qr_scan"}, "name": "5605c7dd88740de7a8a2303794db5feb", "is_reserved": 0}, {"is_disabled": 0, "fusion_lon": 0.0, "fusion_lat": 0.0, "lat": 38.899338666666665, "type": "electric_scooter", "lon": -77.0150145, "bike_id": "332a3f58c0d0d0f5048570baf3358ba1", "rental_uris": {"android": "https://dc.lft.to/lastmile_qr_scan", "ios": "https://dc.lft.to/lastmile_qr_scan"}, "name": "332a3f58c0d0d0f5048570baf3358ba1", "is_reserved": 0}, {"is_disabled": 0, "fusion_lon": 0.0, "fusion_lat": 0.0, "lat": 38.952714, "type": "electric_bike", "lon": -77.06979866666667, "bike_id": "91700739d37b41fca99ddbebfc9f4045", "rental_uris": {"android": "https://dc.lft.to/lastmile_qr_scan", "ios": "https://dc.lft.to/lastmile_qr_scan"}, "name": "91700739d37b41fca99ddbebfc9f4045", "is_reserved": 0}, {"is_disabled": 0, "fusion_lon": 0.0, "fusion_lat": 0.0, "lat": 38.89246216666667, "type": "electric_scooter", "lon": -77.04660033333333, "bike_id": "e66ce19b00a07fe742dad2c8c63c26fb", "rental_uris": {"android": "https://dc.lft.to/lastmile_qr_scan", "ios": "https://dc.lft.to/lastmile_qr_scan"}, "name": "e66ce19b00a07fe742dad2c8c63c26fb", "is_reserved": 0}, {"is_disabled": 0, "fusion_lon": 0.0, "fusion_lat": 0.0, "lat": 38.90240883333333, "type": "electric_scooter", "lon": -77.06269033333334, "bike_id": "883e9e5633b591fdf608a4548b245c07", "rental_uris": {"android": "https://dc.lft.to/lastmile_qr_scan", "ios": "https://dc.lft.to/lastmile_qr_scan"}, "name": "883e9e5633b591fdf608a4548b245c07", "is_reserved": 0}, {"is_disabled": 0, "fusion_lon": 0.0, "fusion_lat": 0.0, "lat": 38.9621815, "type": "electric_scooter", "lon": -77.02806333333334, "bike_id": "95dd872c0f9b261610ae8bf14f138b09", "rental_uris": {"android": "https://dc.lft.to/lastmile_qr_scan", "ios": "https://dc.lft.to/lastmile_qr_scan"}, "name": "95dd872c0f9b261610ae8bf14f138b09", "is_reserved": 0}, {"is_disabled": 0, "fusion_lon": 0.0, "fusion_lat": 0.0, "lat": 38.91128466666667, "type": "electric_scooter", "lon": -77.03757916666666, "bike_id": "225e20b4bbd233b100032e303463bbc0", "rental_uris": {"android": "https://dc.lft.to/lastmile_qr_scan", "ios": "https://dc.lft.to/lastmile_qr_scan"}, "name": "225e20b4bbd233b100032e303463bbc0", "is_reserved": 0}, {"is_disabled": 0, "fusion_lon": 0.0, "fusion_lat": 0.0, "lat": 38.928414833333335, "type": "electric_scooter", "lon": -77.014036, "bike_id": "56c83098ebfc4893742da178f9167513", "rental_uris": {"android": "https://dc.lft.to/lastmile_qr_scan", "ios": "https://dc.lft.to/lastmile_qr_scan"}, "name": "56c83098ebfc4893742da178f9167513", "is_reserved": 0}, {"is_disabled": 0, "fusion_lon": 0.0, "fusion_lat": 0.0, "lat": 38.874937833333334, "type": "electric_bike", "lon": -77.04901216666667, "bike_id": "b23ba5acacdefb7d43c375ccc0d75499", "rental_uris": {"android": "https://dc.lft.to/lastmile_qr_scan", "ios": "https://dc.lft.to/lastmile_qr_scan"}, "name": "b23ba5acacdefb7d43c375ccc0d75499", "is_reserved": 0}, {"is_disabled": 0, "fusion_lon": 0.0, "fusion_lat": 0.0, "lat": 38.918370833333334, "type": "electric_scooter", "lon": -77.03211533333334, "bike_id": "86e0491d1899309a7535aa05362effd3", "rental_uris": {"android": "https://dc.lft.to/lastmile_qr_scan", "ios": "https://dc.lft.to/lastmile_qr_scan"}, "name": "86e0491d1899309a7535aa05362effd3", "is_reserved": 0}, {"is_disabled": 0, "fusion_lon": 0.0, "fusion_lat": 0.0, "lat": 38.904206333333335, "type": "electric_scooter", "lon": -77.02586883333333, "bike_id": "6fbd15ed6158c53a4bbea24b1acfe8e4", "rental_uris": {"android": "https://dc.lft.to/lastmile_qr_scan", "ios": "https://dc.lft.to/lastmile_qr_scan"}, "name": "6fbd15ed6158c53a4bbea24b1acfe8e4", "is_reserved": 0}, {"is_disabled": 0, "fusion_lon": 0.0, "fusion_lat": 0.0, "lat": 38.925859833333334, "type": "electric_scooter", "lon": -77.0256265, "bike_id": "9331c7acac1d79e81830281c5d28c1cc", "rental_uris": {"android": "https://dc.lft.to/lastmile_qr_scan", "ios": "https://dc.lft.to/lastmile_qr_scan"}, "name": "9331c7acac1d79e81830281c5d28c1cc", "is_reserved": 0}, {"is_disabled": 0, "fusion_lon": 0.0, "fusion_lat": 0.0, "lat": 38.990902166666665, "type": "electric_bike", "lon": -76.87498383333333, "bike_id": "0d9ba11c3962278b0ad9887d73e48277", "rental_uris": {"android": "https://dc.lft.to/lastmile_qr_scan", "ios": "https://dc.lft.to/lastmile_qr_scan"}, "name": "0d9ba11c3962278b0ad9887d73e48277", "is_reserved": 0}, {"is_disabled": 0, "fusion_lon": 0.0, "fusion_lat": 0.0, "lat": 38.903565666666665, "type": "electric_scooter", "lon": -77.03965933333333, "bike_id": "c6cd2e26316cd48c25d55f906df2df06", "rental_uris": {"android": "https://dc.lft.to/lastmile_qr_scan", "ios": "https://dc.lft.to/lastmile_qr_scan"}, "name": "c6cd2e26316cd48c25d55f906df2df06", "is_reserved": 0}, {"is_disabled": 0, "fusion_lon": 0.0, "fusion_lat": 0.0, "lat": 38.9560225, "type": "electric_scooter", "lon": -77.00984916666667, "bike_id": "fd80c2b9c1e5f5ba588dc77685877f33", "rental_uris": {"android": "https://dc.lft.to/lastmile_qr_scan", "ios": "https://dc.lft.to/lastmile_qr_scan"}, "name": "fd80c2b9c1e5f5ba588dc77685877f33", "is_reserved": 0}, {"is_disabled": 0, "fusion_lon": 0.0, "fusion_lat": 0.0, "lat": 38.86355533333333, "type": "electric_scooter", "lon": -76.99070683333333, "bike_id": "a84c1483777382dbf14bed7f07224aa5", "rental_uris": {"android": "https://dc.lft.to/lastmile_qr_scan", "ios": "https://dc.lft.to/lastmile_qr_scan"}, "name": "a84c1483777382dbf14bed7f07224aa5", "is_reserved": 0}, {"is_disabled": 0, "fusion_lon": 0.0, "fusion_lat": 0.0, "lat": 38.945758833333336, "type": "electric_bike", "lon": -76.96034183333333, "bike_id": "9b32b9d0602449d579d29a29f38e5409", "rental_uris": {"android": "https://dc.lft.to/lastmile_qr_scan", "ios": "https://dc.lft.to/lastmile_qr_scan"}, "name": "9b32b9d0602449d579d29a29f38e5409", "is_reserved": 0}, {"is_disabled": 0, "fusion_lon": 0.0, "fusion_lat": 0.0, "lat": 38.91842366666667, "type": "electric_scooter", "lon": -77.03517616666667, "bike_id": "1d1f5fcd64886464a8f8c0f4ca2fd51f", "rental_uris": {"android": "https://dc.lft.to/lastmile_qr_scan", "ios": "https://dc.lft.to/lastmile_qr_scan"}, "name": "1d1f5fcd64886464a8f8c0f4ca2fd51f", "is_reserved": 0}, {"is_disabled": 0, "fusion_lon": 0.0, "fusion_lat": 0.0, "lat": 38.911375166666666, "type": "electric_scooter", "lon": -77.02199966666667, "bike_id": "1f238bcb2e006a5d84b94ba05592d5e6", "rental_uris": {"android": "https://dc.lft.to/lastmile_qr_scan", "ios": "https://dc.lft.to/lastmile_qr_scan"}, "name": "1f238bcb2e006a5d84b94ba05592d5e6", "is_reserved": 0}, {"is_disabled": 0, "fusion_lon": 0.0, "fusion_lat": 0.0, "lat": 38.990661, "type": "electric_bike", "lon": -77.100287, "bike_id": "77fee76374d221edfe6ea305d0c5c146", "rental_uris": {"android": "https://dc.lft.to/lastmile_qr_scan", "ios": "https://dc.lft.to/lastmile_qr_scan"}, "name": "77fee76374d221edfe6ea305d0c5c146", "is_reserved": 0}, {"is_disabled": 0, "fusion_lon": 0.0, "fusion_lat": 0.0, "lat": 38.912223, "type": "electric_scooter", "lon": -77.03183783333333, "bike_id": "5260478c82db57daabce47a67e38dad0", "rental_uris": {"android": "https://dc.lft.to/lastmile_qr_scan", "ios": "https://dc.lft.to/lastmile_qr_scan"}, "name": "5260478c82db57daabce47a67e38dad0", "is_reserved": 0}, {"is_disabled": 0, "fusion_lon": 0.0, "fusion_lat": 0.0, "lat": 38.915495, "type": "electric_scooter", "lon": -77.03854933333334, "bike_id": "e1c9509f598bcaf866f6e685ee879326", "rental_uris": {"android": "https://dc.lft.to/lastmile_qr_scan", "ios": "https://dc.lft.to/lastmile_qr_scan"}, "name": "e1c9509f598bcaf866f6e685ee879326", "is_reserved": 0}, {"is_disabled": 0, "fusion_lon": 0.0, "fusion_lat": 0.0, "lat": 38.92056133333333, "type": "electric_scooter", "lon": -76.9988355, "bike_id": "5a9d3cf09e6e9b1391ef6357e72547e4", "rental_uris": {"android": "https://dc.lft.to/lastmile_qr_scan", "ios": "https://dc.lft.to/lastmile_qr_scan"}, "name": "5a9d3cf09e6e9b1391ef6357e72547e4", "is_reserved": 0}, {"is_disabled": 0, "fusion_lon": 0.0, "fusion_lat": 0.0, "lat": 38.91566316666667, "type": "electric_scooter", "lon": -77.04098, "bike_id": "4142780ce39d8ab360db881fa291b458", "rental_uris": {"android": "https://dc.lft.to/lastmile_qr_scan", "ios": "https://dc.lft.to/lastmile_qr_scan"}, "name": "4142780ce39d8ab360db881fa291b458", "is_reserved": 0}, {"is_disabled": 0, "fusion_lon": 0.0, "fusion_lat": 0.0, "lat": 38.935029166666666, "type": "electric_scooter", "lon": -77.02717183333333, "bike_id": "65e4f2e00a26b0ce5b52b5eb449cb082", "rental_uris": {"android": "https://dc.lft.to/lastmile_qr_scan", "ios": "https://dc.lft.to/lastmile_qr_scan"}, "name": "65e4f2e00a26b0ce5b52b5eb449cb082", "is_reserved": 0}, {"is_disabled": 0, "fusion_lon": 0.0, "fusion_lat": 0.0, "lat": 38.9006815, "type": "electric_scooter", "lon": -77.048832, "bike_id": "41fe7523381f8be89a5b79c284559d0a", "rental_uris": {"android": "https://dc.lft.to/lastmile_qr_scan", "ios": "https://dc.lft.to/lastmile_qr_scan"}, "name": "41fe7523381f8be89a5b79c284559d0a", "is_reserved": 0}, {"is_disabled": 0, "fusion_lon": 0.0, "fusion_lat": 0.0, "lat": 38.9280905, "type": "electric_scooter", "lon": -77.05426016666667, "bike_id": "a518df6034b8a6f4aab710d9a0f660c0", "rental_uris": {"android": "https://dc.lft.to/lastmile_qr_scan", "ios": "https://dc.lft.to/lastmile_qr_scan"}, "name": "a518df6034b8a6f4aab710d9a0f660c0", "is_reserved": 0}, {"is_disabled": 0, "fusion_lon": 0.0, "fusion_lat": 0.0, "lat": 38.91596883333333, "type": "electric_scooter", "lon": -77.02348383333333, "bike_id": "f6d58bf197a5d8bdec51ddae6b09b834", "rental_uris": {"android": "https://dc.lft.to/lastmile_qr_scan", "ios": "https://dc.lft.to/lastmile_qr_scan"}, "name": "f6d58bf197a5d8bdec51ddae6b09b834", "is_reserved": 0}, {"is_disabled": 0, "fusion_lon": 0.0, "fusion_lat": 0.0, "lat": 38.8858255, "type": "electric_scooter", "lon": -77.01227083333333, "bike_id": "511d1f470450f562ec0d9cba760bc0d8", "rental_uris": {"android": "https://dc.lft.to/lastmile_qr_scan", "ios": "https://dc.lft.to/lastmile_qr_scan"}, "name": "511d1f470450f562ec0d9cba760bc0d8", "is_reserved": 0}, {"is_disabled": 0, "fusion_lon": 0.0, "fusion_lat": 0.0, "lat": 38.932582333333336, "type": "electric_scooter", "lon": -77.029663, "bike_id": "9e1997908872f44ab78695a2c8a09cda", "rental_uris": {"android": "https://dc.lft.to/lastmile_qr_scan", "ios": "https://dc.lft.to/lastmile_qr_scan"}, "name": "9e1997908872f44ab78695a2c8a09cda", "is_reserved": 0}, {"is_disabled": 0, "fusion_lon": 0.0, "fusion_lat": 0.0, "lat": 38.90333183333333, "type": "electric_bike", "lon": -76.9753075, "bike_id": "a69f5df7c0c63f225743c430cadac144", "rental_uris": {"android": "https://dc.lft.to/lastmile_qr_scan", "ios": "https://dc.lft.to/lastmile_qr_scan"}, "name": "a69f5df7c0c63f225743c430cadac144", "is_reserved": 0}, {"is_disabled": 0, "fusion_lon": 0.0, "fusion_lat": 0.0, "lat": 38.8812885, "type": "electric_scooter", "lon": -76.99600766666667, "bike_id": "de5513e666649bf9636f0d8290cf5e74", "rental_uris": {"android": "https://dc.lft.to/lastmile_qr_scan", "ios": "https://dc.lft.to/lastmile_qr_scan"}, "name": "de5513e666649bf9636f0d8290cf5e74", "is_reserved": 0}, {"is_disabled": 0, "fusion_lon": 0.0, "fusion_lat": 0.0, "lat": 38.893917, "type": "electric_scooter", "lon": -76.94999716666666, "bike_id": "92ffef5488b9b8c1c54687fd2e4e37ba", "rental_uris": {"android": "https://dc.lft.to/lastmile_qr_scan", "ios": "https://dc.lft.to/lastmile_qr_scan"}, "name": "92ffef5488b9b8c1c54687fd2e4e37ba", "is_reserved": 0}, {"is_disabled": 0, "fusion_lon": 0.0, "fusion_lat": 0.0, "lat": 38.9119975, "type": "electric_scooter", "lon": -77.04179516666666, "bike_id": "c1a12a0db9c728b7a75d41c599c7acef", "rental_uris": {"android": "https://dc.lft.to/lastmile_qr_scan", "ios": "https://dc.lft.to/lastmile_qr_scan"}, "name": "c1a12a0db9c728b7a75d41c599c7acef", "is_reserved": 0}, {"is_disabled": 0, "fusion_lon": 0.0, "fusion_lat": 0.0, "lat": 38.93144516666667, "type": "electric_scooter", "lon": -77.040587, "bike_id": "33804d306cadcc071fdbfdae2354fec9", "rental_uris": {"android": "https://dc.lft.to/lastmile_qr_scan", "ios": "https://dc.lft.to/lastmile_qr_scan"}, "name": "33804d306cadcc071fdbfdae2354fec9", "is_reserved": 0}, {"is_disabled": 0, "fusion_lon": 0.0, "fusion_lat": 0.0, "lat": 38.86535666666666, "type": "electric_scooter", "lon": -76.98709166666667, "bike_id": "f7438f532c4bd0365e102caf524b16f6", "rental_uris": {"android": "https://dc.lft.to/lastmile_qr_scan", "ios": "https://dc.lft.to/lastmile_qr_scan"}, "name": "f7438f532c4bd0365e102caf524b16f6", "is_reserved": 0}, {"is_disabled": 0, "fusion_lon": 0.0, "fusion_lat": 0.0, "lat": 38.92064666666667, "type": "electric_scooter", "lon": -77.0469675, "bike_id": "63d072b6d7c4c4d8b1cff18bde56fade", "rental_uris": {"android": "https://dc.lft.to/lastmile_qr_scan", "ios": "https://dc.lft.to/lastmile_qr_scan"}, "name": "63d072b6d7c4c4d8b1cff18bde56fade", "is_reserved": 0}, {"is_disabled": 0, "fusion_lon": 0.0, "fusion_lat": 0.0, "lat": 38.905215166666665, "type": "electric_scooter", "lon": -77.05399683333333, "bike_id": "f8cf7506f80cd948058f29f89bea5c3e", "rental_uris": {"android": "https://dc.lft.to/lastmile_qr_scan", "ios": "https://dc.lft.to/lastmile_qr_scan"}, "name": "f8cf7506f80cd948058f29f89bea5c3e", "is_reserved": 0}, {"is_disabled": 0, "fusion_lon": 0.0, "fusion_lat": 0.0, "lat": 38.911844333333335, "type": "electric_scooter", "lon": -77.03920166666667, "bike_id": "a9eb3cc1f8828c46b4a95eb384de0472", "rental_uris": {"android": "https://dc.lft.to/lastmile_qr_scan", "ios": "https://dc.lft.to/lastmile_qr_scan"}, "name": "a9eb3cc1f8828c46b4a95eb384de0472", "is_reserved": 0}, {"is_disabled": 0, "fusion_lon": 0.0, "fusion_lat": 0.0, "lat": 38.91065, "type": "electric_scooter", "lon": -77.0416775, "bike_id": "b5c6a2d3f5fb5fc34b6c487e650a8c19", "rental_uris": {"android": "https://dc.lft.to/lastmile_qr_scan", "ios": "https://dc.lft.to/lastmile_qr_scan"}, "name": "b5c6a2d3f5fb5fc34b6c487e650a8c19", "is_reserved": 0}, {"is_disabled": 0, "fusion_lon": 0.0, "fusion_lat": 0.0, "lat": 38.93191566666667, "type": "electric_scooter", "lon": -77.028373, "bike_id": "52d824f53d188c9153e2ca99aafa594f", "rental_uris": {"android": "https://dc.lft.to/lastmile_qr_scan", "ios": "https://dc.lft.to/lastmile_qr_scan"}, "name": "52d824f53d188c9153e2ca99aafa594f", "is_reserved": 0}, {"is_disabled": 0, "fusion_lon": 0.0, "fusion_lat": 0.0, "lat": 39.088445666666665, "type": "electric_bike", "lon": -77.17801216666666, "bike_id": "7bd0a477b228f033eb8b68d686632ac4", "rental_uris": {"android": "https://dc.lft.to/lastmile_qr_scan", "ios": "https://dc.lft.to/lastmile_qr_scan"}, "name": "7bd0a477b228f033eb8b68d686632ac4", "is_reserved": 0}, {"is_disabled": 0, "fusion_lon": 0.0, "fusion_lat": 0.0, "lat": 38.90543266666667, "type": "electric_scooter", "lon": -77.048777, "bike_id": "e4d3925ed37e2545b3d51a60c4136554", "rental_uris": {"android": "https://dc.lft.to/lastmile_qr_scan", "ios": "https://dc.lft.to/lastmile_qr_scan"}, "name": "e4d3925ed37e2545b3d51a60c4136554", "is_reserved": 0}, {"is_disabled": 0, "fusion_lon": 0.0, "fusion_lat": 0.0, "lat": 38.91480466666667, "type": "electric_scooter", "lon": -77.03470216666666, "bike_id": "bfe1f537e782cf75043c7dde45f8307c", "rental_uris": {"android": "https://dc.lft.to/lastmile_qr_scan", "ios": "https://dc.lft.to/lastmile_qr_scan"}, "name": "bfe1f537e782cf75043c7dde45f8307c", "is_reserved": 0}, {"is_disabled": 0, "fusion_lon": 0.0, "fusion_lat": 0.0, "lat": 38.89826566666667, "type": "electric_scooter", "lon": -77.03358, "bike_id": "ff5761571c3c763370d7c0fadc9ffa53", "rental_uris": {"android": "https://dc.lft.to/lastmile_qr_scan", "ios": "https://dc.lft.to/lastmile_qr_scan"}, "name": "ff5761571c3c763370d7c0fadc9ffa53", "is_reserved": 0}, {"is_disabled": 0, "fusion_lon": 0.0, "fusion_lat": 0.0, "lat": 38.884064333333335, "type": "electric_scooter", "lon": -76.95410666666666, "bike_id": "450eeebd509bad9d4a1b18d9893ace27", "rental_uris": {"android": "https://dc.lft.to/lastmile_qr_scan", "ios": "https://dc.lft.to/lastmile_qr_scan"}, "name": "450eeebd509bad9d4a1b18d9893ace27", "is_reserved": 0}, {"is_disabled": 0, "fusion_lon": 0.0, "fusion_lat": 0.0, "lat": 38.9180155, "type": "electric_scooter", "lon": -77.03445366666666, "bike_id": "d566b13287c943ea32e58fc3d1cfe758", "rental_uris": {"android": "https://dc.lft.to/lastmile_qr_scan", "ios": "https://dc.lft.to/lastmile_qr_scan"}, "name": "d566b13287c943ea32e58fc3d1cfe758", "is_reserved": 0}, {"is_disabled": 0, "fusion_lon": 0.0, "fusion_lat": 0.0, "lat": 38.892080666666665, "type": "electric_scooter", "lon": -76.9880895, "bike_id": "92e7dd4e992a456d7d1ef8b4d3faff02", "rental_uris": {"android": "https://dc.lft.to/lastmile_qr_scan", "ios": "https://dc.lft.to/lastmile_qr_scan"}, "name": "92e7dd4e992a456d7d1ef8b4d3faff02", "is_reserved": 0}, {"is_disabled": 0, "fusion_lon": 0.0, "fusion_lat": 0.0, "lat": 38.913387, "type": "electric_scooter", "lon": -77.03259416666667, "bike_id": "86019058f6a17563c43c0e175214340b", "rental_uris": {"android": "https://dc.lft.to/lastmile_qr_scan", "ios": "https://dc.lft.to/lastmile_qr_scan"}, "name": "86019058f6a17563c43c0e175214340b", "is_reserved": 0}, {"is_disabled": 0, "fusion_lon": 0.0, "fusion_lat": 0.0, "lat": 38.931902, "type": "electric_scooter", "lon": -77.02833233333334, "bike_id": "0d2728c557011e5a4687092345af42cf", "rental_uris": {"android": "https://dc.lft.to/lastmile_qr_scan", "ios": "https://dc.lft.to/lastmile_qr_scan"}, "name": "0d2728c557011e5a4687092345af42cf", "is_reserved": 0}, {"is_disabled": 0, "fusion_lon": 0.0, "fusion_lat": 0.0, "lat": 38.933311333333336, "type": "electric_bike", "lon": -77.0421295, "bike_id": "e1cf1f80b0935311014633095a58618a", "rental_uris": {"android": "https://dc.lft.to/lastmile_qr_scan", "ios": "https://dc.lft.to/lastmile_qr_scan"}, "name": "e1cf1f80b0935311014633095a58618a", "is_reserved": 0}, {"is_disabled": 0, "fusion_lon": 0.0, "fusion_lat": 0.0, "lat": 38.92966666666667, "type": "electric_scooter", "lon": -77.04203283333334, "bike_id": "2f4f0c0261fd22337172baad8ab9eead", "rental_uris": {"android": "https://dc.lft.to/lastmile_qr_scan", "ios": "https://dc.lft.to/lastmile_qr_scan"}, "name": "2f4f0c0261fd22337172baad8ab9eead", "is_reserved": 0}, {"is_disabled": 0, "fusion_lon": 0.0, "fusion_lat": 0.0, "lat": 38.91623033333333, "type": "electric_scooter", "lon": -77.03144583333334, "bike_id": "0f5fb5cf1a73d178e15ad5e63468a46f", "rental_uris": {"android": "https://dc.lft.to/lastmile_qr_scan", "ios": "https://dc.lft.to/lastmile_qr_scan"}, "name": "0f5fb5cf1a73d178e15ad5e63468a46f", "is_reserved": 0}, {"is_disabled": 0, "fusion_lon": 0.0, "fusion_lat": 0.0, "lat": 38.946195, "type": "electric_scooter", "lon": -77.036281, "bike_id": "ff7a2fd4dcbb5ab4940df2d5fef84bc7", "rental_uris": {"android": "https://dc.lft.to/lastmile_qr_scan", "ios": "https://dc.lft.to/lastmile_qr_scan"}, "name": "ff7a2fd4dcbb5ab4940df2d5fef84bc7", "is_reserved": 0}, {"is_disabled": 0, "fusion_lon": 0.0, "fusion_lat": 0.0, "lat": 38.86700666666667, "type": "electric_scooter", "lon": -76.98713333333333, "bike_id": "2b074196b4e2f77c9dc34033796bc853", "rental_uris": {"android": "https://dc.lft.to/lastmile_qr_scan", "ios": "https://dc.lft.to/lastmile_qr_scan"}, "name": "2b074196b4e2f77c9dc34033796bc853", "is_reserved": 0}, {"is_disabled": 0, "fusion_lon": 0.0, "fusion_lat": 0.0, "lat": 38.93099766666667, "type": "electric_scooter", "lon": -77.0266565, "bike_id": "c251a621e14e48e5cc1c40e7a07acd7d", "rental_uris": {"android": "https://dc.lft.to/lastmile_qr_scan", "ios": "https://dc.lft.to/lastmile_qr_scan"}, "name": "c251a621e14e48e5cc1c40e7a07acd7d", "is_reserved": 0}, {"is_disabled": 0, "fusion_lon": 0.0, "fusion_lat": 0.0, "lat": 38.903859833333335, "type": "electric_scooter", "lon": -77.03015083333334, "bike_id": "962d358c3d3db6db45c80da560b1f6cb", "rental_uris": {"android": "https://dc.lft.to/lastmile_qr_scan", "ios": "https://dc.lft.to/lastmile_qr_scan"}, "name": "962d358c3d3db6db45c80da560b1f6cb", "is_reserved": 0}, {"is_disabled": 0, "fusion_lon": 0.0, "fusion_lat": 0.0, "lat": 38.920137, "type": "electric_scooter", "lon": -77.03147866666667, "bike_id": "e20377eda0dd6ac7e42397406dc730e5", "rental_uris": {"android": "https://dc.lft.to/lastmile_qr_scan", "ios": "https://dc.lft.to/lastmile_qr_scan"}, "name": "e20377eda0dd6ac7e42397406dc730e5", "is_reserved": 0}, {"is_disabled": 0, "fusion_lon": 0.0, "fusion_lat": 0.0, "lat": 38.86910666666667, "type": "electric_scooter", "lon": -77.0137365, "bike_id": "4bd4e0740ecf04953700f762332766b0", "rental_uris": {"android": "https://dc.lft.to/lastmile_qr_scan", "ios": "https://dc.lft.to/lastmile_qr_scan"}, "name": "4bd4e0740ecf04953700f762332766b0", "is_reserved": 0}, {"is_disabled": 0, "fusion_lon": 0.0, "fusion_lat": 0.0, "lat": 38.945480833333335, "type": "electric_scooter", "lon": -77.04247883333333, "bike_id": "115adeed893b03cf6921d51961521cd1", "rental_uris": {"android": "https://dc.lft.to/lastmile_qr_scan", "ios": "https://dc.lft.to/lastmile_qr_scan"}, "name": "115adeed893b03cf6921d51961521cd1", "is_reserved": 0}, {"is_disabled": 0, "fusion_lon": 0.0, "fusion_lat": 0.0, "lat": 38.87376016666666, "type": "electric_scooter", "lon": -77.001961, "bike_id": "27c29131a9b22e6edc2a1627a9868e02", "rental_uris": {"android": "https://dc.lft.to/lastmile_qr_scan", "ios": "https://dc.lft.to/lastmile_qr_scan"}, "name": "27c29131a9b22e6edc2a1627a9868e02", "is_reserved": 0}, {"is_disabled": 0, "fusion_lon": 0.0, "fusion_lat": 0.0, "lat": 38.91857, "type": "electric_bike", "lon": -76.96089833333333, "bike_id": "4c85bb5eaced0d9da60ea530c18e5983", "rental_uris": {"android": "https://dc.lft.to/lastmile_qr_scan", "ios": "https://dc.lft.to/lastmile_qr_scan"}, "name": "4c85bb5eaced0d9da60ea530c18e5983", "is_reserved": 0}, {"is_disabled": 0, "fusion_lon": 0.0, "fusion_lat": 0.0, "lat": 38.95060183333333, "type": "electric_bike", "lon": -76.9673725, "bike_id": "d23e828a3a9b816ec9892cfe55a33c32", "rental_uris": {"android": "https://dc.lft.to/lastmile_qr_scan", "ios": "https://dc.lft.to/lastmile_qr_scan"}, "name": "d23e828a3a9b816ec9892cfe55a33c32", "is_reserved": 0}, {"is_disabled": 0, "fusion_lon": 0.0, "fusion_lat": 0.0, "lat": 38.8923375, "type": "electric_scooter", "lon": -77.03181883333333, "bike_id": "c40c338190a957579a05ab49cecb0e11", "rental_uris": {"android": "https://dc.lft.to/lastmile_qr_scan", "ios": "https://dc.lft.to/lastmile_qr_scan"}, "name": "c40c338190a957579a05ab49cecb0e11", "is_reserved": 0}, {"is_disabled": 0, "fusion_lon": 0.0, "fusion_lat": 0.0, "lat": 38.905643, "type": "electric_scooter", "lon": -77.02951583333333, "bike_id": "786aae1433817edc36860e7d4cbc9ec3", "rental_uris": {"android": "https://dc.lft.to/lastmile_qr_scan", "ios": "https://dc.lft.to/lastmile_qr_scan"}, "name": "786aae1433817edc36860e7d4cbc9ec3", "is_reserved": 0}, {"is_disabled": 0, "fusion_lon": 0.0, "fusion_lat": 0.0, "lat": 38.9631495, "type": "electric_bike", "lon": -77.0576, "bike_id": "6b764486498fbcb8af0e75f7b0e3f3a3", "rental_uris": {"android": "https://dc.lft.to/lastmile_qr_scan", "ios": "https://dc.lft.to/lastmile_qr_scan"}, "name": "6b764486498fbcb8af0e75f7b0e3f3a3", "is_reserved": 0}, {"is_disabled": 0, "fusion_lon": 0.0, "fusion_lat": 0.0, "lat": 38.868490333333334, "type": "electric_bike", "lon": -77.09727883333333, "bike_id": "f95fccb8f5c11d22d63a229ed02e141b", "rental_uris": {"android": "https://dc.lft.to/lastmile_qr_scan", "ios": "https://dc.lft.to/lastmile_qr_scan"}, "name": "f95fccb8f5c11d22d63a229ed02e141b", "is_reserved": 0}, {"is_disabled": 0, "fusion_lon": 0.0, "fusion_lat": 0.0, "lat": 38.882539, "type": "electric_scooter", "lon": -77.00344816666667, "bike_id": "712066de7fd488d610bd1c75d1e3a9c7", "rental_uris": {"android": "https://dc.lft.to/lastmile_qr_scan", "ios": "https://dc.lft.to/lastmile_qr_scan"}, "name": "712066de7fd488d610bd1c75d1e3a9c7", "is_reserved": 0}, {"is_disabled": 0, "fusion_lon": 0.0, "fusion_lat": 0.0, "lat": 38.879149, "type": "electric_scooter", "lon": -77.00812633333334, "bike_id": "2aa8b23129f3e56c27523a24cf5e6fc7", "rental_uris": {"android": "https://dc.lft.to/lastmile_qr_scan", "ios": "https://dc.lft.to/lastmile_qr_scan"}, "name": "2aa8b23129f3e56c27523a24cf5e6fc7", "is_reserved": 0}, {"is_disabled": 0, "fusion_lon": 0.0, "fusion_lat": 0.0, "lat": 38.902499666666664, "type": "electric_scooter", "lon": -77.03046616666667, "bike_id": "d6e11fb110063c68a8e58146fd181a53", "rental_uris": {"android": "https://dc.lft.to/lastmile_qr_scan", "ios": "https://dc.lft.to/lastmile_qr_scan"}, "name": "d6e11fb110063c68a8e58146fd181a53", "is_reserved": 0}, {"is_disabled": 0, "fusion_lon": 0.0, "fusion_lat": 0.0, "lat": 38.879278, "type": "electric_scooter", "lon": -77.00054116666666, "bike_id": "7cc8f193d7732368590bd0c4bb9c10cb", "rental_uris": {"android": "https://dc.lft.to/lastmile_qr_scan", "ios": "https://dc.lft.to/lastmile_qr_scan"}, "name": "7cc8f193d7732368590bd0c4bb9c10cb", "is_reserved": 0}, {"is_disabled": 0, "fusion_lon": 0.0, "fusion_lat": 0.0, "lat": 38.92249733333333, "type": "electric_scooter", "lon": -77.03073283333333, "bike_id": "ed364016f2c749b9b1fb6ec10fcb08dc", "rental_uris": {"android": "https://dc.lft.to/lastmile_qr_scan", "ios": "https://dc.lft.to/lastmile_qr_scan"}, "name": "ed364016f2c749b9b1fb6ec10fcb08dc", "is_reserved": 0}, {"is_disabled": 0, "fusion_lon": 0.0, "fusion_lat": 0.0, "lat": 38.83354816666667, "type": "electric_bike", "lon": -76.96566133333333, "bike_id": "c8cff2e12b45a6ce231547c99f0a3e8c", "rental_uris": {"android": "https://dc.lft.to/lastmile_qr_scan", "ios": "https://dc.lft.to/lastmile_qr_scan"}, "name": "c8cff2e12b45a6ce231547c99f0a3e8c", "is_reserved": 0}, {"is_disabled": 0, "fusion_lon": 0.0, "fusion_lat": 0.0, "lat": 38.9049095, "type": "electric_scooter", "lon": -77.0294835, "bike_id": "99d4b5ba0d79e5a55ca8ff6d6d3f2291", "rental_uris": {"android": "https://dc.lft.to/lastmile_qr_scan", "ios": "https://dc.lft.to/lastmile_qr_scan"}, "name": "99d4b5ba0d79e5a55ca8ff6d6d3f2291", "is_reserved": 0}, {"is_disabled": 0, "fusion_lon": 0.0, "fusion_lat": 0.0, "lat": 38.8983245, "type": "electric_scooter", "lon": -77.02208983333334, "bike_id": "0c1a81bf78e5ed42d4871d8518ebfe87", "rental_uris": {"android": "https://dc.lft.to/lastmile_qr_scan", "ios": "https://dc.lft.to/lastmile_qr_scan"}, "name": "0c1a81bf78e5ed42d4871d8518ebfe87", "is_reserved": 0}, {"is_disabled": 0, "fusion_lon": 0.0, "fusion_lat": 0.0, "lat": 38.956146833333335, "type": "electric_scooter", "lon": -77.02762316666667, "bike_id": "70f14b05d2417025a9a7fa48e3b65971", "rental_uris": {"android": "https://dc.lft.to/lastmile_qr_scan", "ios": "https://dc.lft.to/lastmile_qr_scan"}, "name": "70f14b05d2417025a9a7fa48e3b65971", "is_reserved": 0}, {"is_disabled": 0, "fusion_lon": 0.0, "fusion_lat": 0.0, "lat": 38.91539366666667, "type": "electric_scooter", "lon": -77.03206566666667, "bike_id": "3d41dc7eaa59163ab2824478fdd81d18", "rental_uris": {"android": "https://dc.lft.to/lastmile_qr_scan", "ios": "https://dc.lft.to/lastmile_qr_scan"}, "name": "3d41dc7eaa59163ab2824478fdd81d18", "is_reserved": 0}, {"is_disabled": 0, "fusion_lon": 0.0, "fusion_lat": 0.0, "lat": 38.90702666666667, "type": "electric_scooter", "lon": -77.063153, "bike_id": "396f69c5700ad529b31597329c3fc2a7", "rental_uris": {"android": "https://dc.lft.to/lastmile_qr_scan", "ios": "https://dc.lft.to/lastmile_qr_scan"}, "name": "396f69c5700ad529b31597329c3fc2a7", "is_reserved": 0}, {"is_disabled": 0, "fusion_lon": 0.0, "fusion_lat": 0.0, "lat": 38.9287005, "type": "electric_scooter", "lon": -77.02736916666667, "bike_id": "9ffccabc10d09ab36de738caad4e3c4e", "rental_uris": {"android": "https://dc.lft.to/lastmile_qr_scan", "ios": "https://dc.lft.to/lastmile_qr_scan"}, "name": "9ffccabc10d09ab36de738caad4e3c4e", "is_reserved": 0}, {"is_disabled": 0, "fusion_lon": 0.0, "fusion_lat": 0.0, "lat": 38.92441183333333, "type": "electric_bike", "lon": -76.90759733333333, "bike_id": "adaf51dbd944a3630476b931f1e484a9", "rental_uris": {"android": "https://dc.lft.to/lastmile_qr_scan", "ios": "https://dc.lft.to/lastmile_qr_scan"}, "name": "adaf51dbd944a3630476b931f1e484a9", "is_reserved": 0}, {"is_disabled": 0, "fusion_lon": 0.0, "fusion_lat": 0.0, "lat": 38.91798283333333, "type": "electric_scooter", "lon": -77.03202816666666, "bike_id": "d815d38ec42d33f5c0830fd9be2cf74c", "rental_uris": {"android": "https://dc.lft.to/lastmile_qr_scan", "ios": "https://dc.lft.to/lastmile_qr_scan"}, "name": "d815d38ec42d33f5c0830fd9be2cf74c", "is_reserved": 0}, {"is_disabled": 0, "fusion_lon": 0.0, "fusion_lat": 0.0, "lat": 38.916993833333336, "type": "electric_scooter", "lon": -77.02615983333334, "bike_id": "af8731bd099843b3c40a0cf527b354cf", "rental_uris": {"android": "https://dc.lft.to/lastmile_qr_scan", "ios": "https://dc.lft.to/lastmile_qr_scan"}, "name": "af8731bd099843b3c40a0cf527b354cf", "is_reserved": 0}, {"is_disabled": 0, "fusion_lon": 0.0, "fusion_lat": 0.0, "lat": 38.91582733333333, "type": "electric_scooter", "lon": -77.04676816666667, "bike_id": "49be863348a11da3afaf156e2c4e71d0", "rental_uris": {"android": "https://dc.lft.to/lastmile_qr_scan", "ios": "https://dc.lft.to/lastmile_qr_scan"}, "name": "49be863348a11da3afaf156e2c4e71d0", "is_reserved": 0}, {"is_disabled": 0, "fusion_lon": 0.0, "fusion_lat": 0.0, "lat": 38.919775666666666, "type": "electric_scooter", "lon": -77.04155916666667, "bike_id": "3cae5b6094c6aafefa52a44104547f6d", "rental_uris": {"android": "https://dc.lft.to/lastmile_qr_scan", "ios": "https://dc.lft.to/lastmile_qr_scan"}, "name": "3cae5b6094c6aafefa52a44104547f6d", "is_reserved": 0}, {"is_disabled": 0, "fusion_lon": 0.0, "fusion_lat": 0.0, "lat": 38.91445, "type": "electric_scooter", "lon": -77.00889866666667, "bike_id": "cfa06169f0de0cb8ab01750f73ec3cf4", "rental_uris": {"android": "https://dc.lft.to/lastmile_qr_scan", "ios": "https://dc.lft.to/lastmile_qr_scan"}, "name": "cfa06169f0de0cb8ab01750f73ec3cf4", "is_reserved": 0}, {"is_disabled": 0, "fusion_lon": 0.0, "fusion_lat": 0.0, "lat": 38.850686833333334, "type": "electric_bike", "lon": -76.97333616666667, "bike_id": "8116688ff0c9b669ac543b6b2f5743ba", "rental_uris": {"android": "https://dc.lft.to/lastmile_qr_scan", "ios": "https://dc.lft.to/lastmile_qr_scan"}, "name": "8116688ff0c9b669ac543b6b2f5743ba", "is_reserved": 0},