{"data": {"bikes": [{"bike_id": "2af98bf23a9643bac293ab3272b27ac2", "type": "electric_scooter", "is_disabled": 0, "lat": 38.926984833333336, "rental_uris": {"ios": "https://dc.lft.to/lastmile_qr_scan", "android": "https://dc.lft.to/lastmile_qr_scan"}, "is_reserved": 0, "fusion_lon": 0.0, "fusion_lat": 0.0, "lon": -77.02074833333333, "name": "2af98bf23a9643bac293ab3272b27ac2"}, {"bike_id": "add940e62ed4bd0b68f462f487c653a2", "type": "electric_scooter", "is_disabled": 0, "lat": 38.9086855, "rental_uris": {"ios": "https://dc.lft.to/lastmile_qr_scan", "android": "https://dc.lft.to/lastmile_qr_scan"}, "is_reserved": 0, "fusion_lon": 0.0, "fusion_lat": 0.0, "lon": -77.042654, "name": "add940e62ed4bd0b68f462f487c653a2"}, {"bike_id": "1299314ee0eb7cbf887dfd00fad78d3e", "type": "electric_scooter", "is_disabled": 0, "lat": 38.92467216666667, "rental_uris": {"ios": "https://dc.lft.to/lastmile_qr_scan", "android": "https://dc.lft.to/lastmile_qr_scan"}, "is_reserved": 0, "fusion_lon": 0.0, "fusion_lat": 0.0, "lon": -77.028359, "name": "1299314ee0eb7cbf887dfd00fad78d3e"}, {"bike_id": "d0e8f85185b03ce308aa4530102d843a", "type": "electric_scooter", "is_disabled": 0, "lat": 38.9141, "rental_uris": {"ios": "https://dc.lft.to/lastmile_qr_scan", "android": "https://dc.lft.to/lastmile_qr_scan"}, "is_reserved": 0, "fusion_lon": 0.0, "fusion_lat": 0.0, "lon": -77.0383135, "name": "d0e8f85185b03ce308aa4530102d843a"}, {"bike_id": "6ecb09cfe27228f0863b8748563c8386", "type": "electric_scooter", "is_disabled": 0, "lat": 38.9181755, "rental_uris": {"ios": "https://dc.lft.to/lastmile_qr_scan", "android": "https://dc.lft.to/lastmile_qr_scan"}, "is_reserved": 0, "fusion_lon": 0.0, "fusion_lat": 0.0, "lon": -77.03252433333333, "name": "6ecb09cfe27228f0863b8748563c8386"}, {"bike_id": "c87d5c22d508d3f559bcd671ffc8e6cb", "type": "electric_scooter", "is_disabled": 0, "lat": 38.896171333333335, "rental_uris": {"ios": "https://dc.lft.to/lastmile_qr_scan", "android": "https://dc.lft.to/lastmile_qr_scan"}, "is_reserved": 0, "fusion_lon": 0.0, "fusion_lat": 0.0, "lon": -77.02358633333333, "name": "c87d5c22d508d3f559bcd671ffc8e6cb"}, {"bike_id": "a004238b1e0c7642cef54a75e05e5ea8", "type": "electric_scooter", "is_disabled": 0, "lat": 38.91565416666667, "rental_uris": {"ios": "https://dc.lft.to/lastmile_qr_scan", "android": "https://dc.lft.to/lastmile_qr_scan"}, "is_reserved": 0, "fusion_lon": 0.0, "fusion_lat": 0.0, "lon": -77.01958666666667, "name": "a004238b1e0c7642cef54a75e05e5ea8"}, {"bike_id": "f3cc1aa465fb2335975884598ccd673e", "type": "electric_scooter", "is_disabled": 0, "lat": 38.91412283333333, "rental_uris": {"ios": "https://dc.lft.to/lastmile_qr_scan", "android": "https://dc.lft.to/lastmile_qr_scan"}, "is_reserved": 0, "fusion_lon": 0.0, "fusion_lat": 0.0, "lon": -77.0240645, "name": "f3cc1aa465fb2335975884598ccd673e"}, {"bike_id": "f825e2b4f0c37718f3c8d6df80cabd73", "type": "electric_scooter", "is_disabled": 0, "lat": 38.94185933333333, "rental_uris": {"ios": "https://dc.lft.to/lastmile_qr_scan", "android": "https://dc.lft.to/lastmile_qr_scan"}, "is_reserved": 0, "fusion_lon": 0.0, "fusion_lat": 0.0, "lon": -77.02491533333334, "name": "f825e2b4f0c37718f3c8d6df80cabd73"}, {"bike_id": "0287c77d8e5f28410228b46fa83bb8a0", "type": "electric_scooter", "is_disabled": 0, "lat": 38.9010325, "rental_uris": {"ios": "https://dc.lft.to/lastmile_qr_scan", "android": "https://dc.lft.to/lastmile_qr_scan"}, "is_reserved": 0, "fusion_lon": 0.0, "fusion_lat": 0.0, "lon": -77.0432275, "name": "0287c77d8e5f28410228b46fa83bb8a0"}, {"bike_id": "b6a6441b7e422a8d6d988d08a1290610", "type": "electric_scooter", "is_disabled": 0, "lat": 38.866650166666666, "rental_uris": {"ios": "https://dc.lft.to/lastmile_qr_scan", "android": "https://dc.lft.to/lastmile_qr_scan"}, "is_reserved": 0, "fusion_lon": 0.0, "fusion_lat": 0.0, "lon": -76.98530866666667, "name": "b6a6441b7e422a8d6d988d08a1290610"}, {"bike_id": "aad1d9f628ec5e25f4fde3c2ce0477b6", "type": "electric_scooter", "is_disabled": 0, "lat": 38.897796666666665, "rental_uris": {"ios": "https://dc.lft.to/lastmile_qr_scan", "android": "https://dc.lft.to/lastmile_qr_scan"}, "is_reserved": 0, "fusion_lon": 0.0, "fusion_lat": 0.0, "lon": -76.94736033333334, "name": "aad1d9f628ec5e25f4fde3c2ce0477b6"}, {"bike_id": "a39b1e0d58dd52c5f3353ec00cd3317d", "type": "electric_scooter", "is_disabled": 0, "lat": 38.8928055, "rental_uris": {"ios": "https://dc.lft.to/lastmile_qr_scan", "android": "https://dc.lft.to/lastmile_qr_scan"}, "is_reserved": 0, "fusion_lon": 0.0, "fusion_lat": 0.0, "lon": -77.0449055, "name": "a39b1e0d58dd52c5f3353ec00cd3317d"}, {"bike_id": "f7d58abc54e465881c9da475bb07c8da", "type": "electric_scooter", "is_disabled": 0, "lat": 38.94290766666667, "rental_uris": {"ios": "https://dc.lft.to/lastmile_qr_scan", "android": "https://dc.lft.to/lastmile_qr_scan"}, "is_reserved": 0, "fusion_lon": 0.0, "fusion_lat": 0.0, "lon": -77.02171466666667, "name": "f7d58abc54e465881c9da475bb07c8da"}, {"bike_id": "dfb390e529b2139ccdb943dcbf6b028c", "type": "electric_scooter", "is_disabled": 0, "lat": 38.9197825, "rental_uris": {"ios": "https://dc.lft.to/lastmile_qr_scan", "android": "https://dc.lft.to/lastmile_qr_scan"}, "is_reserved": 0, "fusion_lon": 0.0, "fusion_lat": 0.0, "lon": -77.03207933333333, "name": "dfb390e529b2139ccdb943dcbf6b028c"}, {"bike_id": "73f773a9c838230daa2b0638ca4d20d6", "type": "electric_scooter", "is_disabled": 0, "lat": 38.933384, "rental_uris": {"ios": "https://dc.lft.to/lastmile_qr_scan", "android": "https://dc.lft.to/lastmile_qr_scan"}, "is_reserved": 0, "fusion_lon": 0.0, "fusion_lat": 0.0, "lon": -77.039858, "name": "73f773a9c838230daa2b0638ca4d20d6"}, {"bike_id": "357acdcb572dae042a5629bd42662c96", "type": "electric_scooter", "is_disabled": 0, "lat": 38.922267, "rental_uris": {"ios": "https://dc.lft.to/lastmile_qr_scan", "android": "https://dc.lft.to/lastmile_qr_scan"}, "is_reserved": 0, "fusion_lon": 0.0, "fusion_lat": 0.0, "lon": -77.04267716666666, "name": "357acdcb572dae042a5629bd42662c96"}, {"bike_id": "039c8d8e53732b2a7cd97681fbde916d", "type": "electric_scooter", "is_disabled": 0, "lat": 38.902609, "rental_uris": {"ios": "https://dc.lft.to/lastmile_qr_scan", "android": "https://dc.lft.to/lastmile_qr_scan"}, "is_reserved": 0, "fusion_lon": 0.0, "fusion_lat": 0.0, "lon": -77.02657683333334, "name": "039c8d8e53732b2a7cd97681fbde916d"}, {"bike_id": "d99cbf44042f660597efa02c9386b1f6", "type": "electric_scooter", "is_disabled": 0, "lat": 38.912702833333334, "rental_uris": {"ios": "https://dc.lft.to/lastmile_qr_scan", "android": "https://dc.lft.to/lastmile_qr_scan"}, "is_reserved": 0, "fusion_lon": 0.0, "fusion_lat": 0.0, "lon": -77.03145866666667, "name": "d99cbf44042f660597efa02c9386b1f6"}, {"bike_id": "dfcd9ff198c5be8d793249e8f02bddaf", "type": "electric_scooter", "is_disabled": 0, "lat": 38.897396, "rental_uris": {"ios": "https://dc.lft.to/lastmile_qr_scan", "android": "https://dc.lft.to/lastmile_qr_scan"}, "is_reserved": 0, "fusion_lon": 0.0, "fusion_lat": 0.0, "lon": -77.02458066666667, "name": "dfcd9ff198c5be8d793249e8f02bddaf"}, {"bike_id": "3b211c31b9c301e9ebfd028c525d0fa0", "type": "electric_scooter", "is_disabled": 0, "lat": 38.91902233333333, "rental_uris": {"ios": "https://dc.lft.to/lastmile_qr_scan", "android": "https://dc.lft.to/lastmile_qr_scan"}, "is_reserved": 0, "fusion_lon": 0.0, "fusion_lat": 0.0, "lon": -77.01688116666666, "name": "3b211c31b9c301e9ebfd028c525d0fa0"}, {"bike_id": "d4126f566d01d6883e1f6460d306df4f", "type": "electric_scooter", "is_disabled": 0, "lat": 38.873690333333336, "rental_uris": {"ios": "https://dc.lft.to/lastmile_qr_scan", "android": "https://dc.lft.to/lastmile_qr_scan"}, "is_reserved": 0, "fusion_lon": 0.0, "fusion_lat": 0.0, "lon": -77.00105316666667, "name": "d4126f566d01d6883e1f6460d306df4f"}, {"bike_id": "32922651a143108678be78e7e2048621", "type": "electric_scooter", "is_disabled": 0, "lat": 38.920757, "rental_uris": {"ios": "https://dc.lft.to/lastmile_qr_scan", "android": "https://dc.lft.to/lastmile_qr_scan"}, "is_reserved": 0, "fusion_lon": 0.0, "fusion_lat": 0.0, "lon": -77.02338483333334, "name": "32922651a143108678be78e7e2048621"}, {"bike_id": "9fd892dec458e9572d0672b9d6a283ee", "type": "electric_scooter", "is_disabled": 0, "lat": 38.89876733333333, "rental_uris": {"ios": "https://dc.lft.to/lastmile_qr_scan", "android": "https://dc.lft.to/lastmile_qr_scan"}, "is_reserved": 0, "fusion_lon": 0.0, "fusion_lat": 0.0, "lon": -77.031203, "name": "9fd892dec458e9572d0672b9d6a283ee"}, {"bike_id": "8511bc8d6f32d7b1ab30888be6b6929f", "type": "electric_scooter", "is_disabled": 0, "lat": 38.893859166666665, "rental_uris": {"ios": "https://dc.lft.to/lastmile_qr_scan", "android": "https://dc.lft.to/lastmile_qr_scan"}, "is_reserved": 0, "fusion_lon": 0.0, "fusion_lat": 0.0, "lon": -77.02271566666667, "name": "8511bc8d6f32d7b1ab30888be6b6929f"}, {"bike_id": "7026365e74fcf08033b8c69dc3da1b32", "type": "electric_scooter", "is_disabled": 0, "lat": 38.903532166666665, "rental_uris": {"ios": "https://dc.lft.to/lastmile_qr_scan", "android": "https://dc.lft.to/lastmile_qr_scan"}, "is_reserved": 0, "fusion_lon": 0.0, "fusion_lat": 0.0, "lon": -77.04498883333333, "name": "7026365e74fcf08033b8c69dc3da1b32"}, {"bike_id": "c2fdb6f778ff1758f089f105497d7336", "type": "electric_scooter", "is_disabled": 0, "lat": 38.916262333333336, "rental_uris": {"ios": "https://dc.lft.to/lastmile_qr_scan", "android": "https://dc.lft.to/lastmile_qr_scan"}, "is_reserved": 0, "fusion_lon": 0.0, "fusion_lat": 0.0, "lon": -77.0320345, "name": "c2fdb6f778ff1758f089f105497d7336"}, {"bike_id": "3d95660f07e7d8d5d087b6049754baba", "type": "electric_scooter", "is_disabled": 0, "lat": 38.93078383333334, "rental_uris": {"ios": "https://dc.lft.to/lastmile_qr_scan", "android": "https://dc.lft.to/lastmile_qr_scan"}, "is_reserved": 0, "fusion_lon": 0.0, "fusion_lat": 0.0, "lon": -77.0279155, "name": "3d95660f07e7d8d5d087b6049754baba"}, {"bike_id": "9175f8ab2bda618de7a35e978e9408bf", "type": "electric_scooter", "is_disabled": 0, "lat": 38.89291033333333, "rental_uris": {"ios": "https://dc.lft.to/lastmile_qr_scan", "android": "https://dc.lft.to/lastmile_qr_scan"}, "is_reserved": 0, "fusion_lon": 0.0, "fusion_lat": 0.0, "lon": -77.033489, "name": "9175f8ab2bda618de7a35e978e9408bf"}, {"bike_id": "2b08e226dc22f7283999ddbad8ccdb0e", "type": "electric_scooter", "is_disabled": 0, "lat": 38.9392, "rental_uris": {"ios": "https://dc.lft.to/lastmile_qr_scan", "android": "https://dc.lft.to/lastmile_qr_scan"}, "is_reserved": 0, "fusion_lon": 0.0, "fusion_lat": 0.0, "lon": -77.06052, "name": "2b08e226dc22f7283999ddbad8ccdb0e"}, {"bike_id": "639c57eb46be428af87cf0aabc9fc142", "type": "electric_scooter", "is_disabled": 0, "lat": 38.905323, "rental_uris": {"ios": "https://dc.lft.to/lastmile_qr_scan", "android": "https://dc.lft.to/lastmile_qr_scan"}, "is_reserved": 0, "fusion_lon": 0.0, "fusion_lat": 0.0, "lon": -77.041584, "name": "639c57eb46be428af87cf0aabc9fc142"}, {"bike_id": "292178abf70fbbb170de01740ba31912", "type": "electric_scooter", "is_disabled": 0, "lat": 38.91687783333333, "rental_uris": {"ios": "https://dc.lft.to/lastmile_qr_scan", "android": "https://dc.lft.to/lastmile_qr_scan"}, "is_reserved": 0, "fusion_lon": 0.0, "fusion_lat": 0.0, "lon": -77.028473, "name": "292178abf70fbbb170de01740ba31912"}, {"bike_id": "ecaed2f3b9f0888c3852692fe55ff7b8", "type": "electric_scooter", "is_disabled": 0, "lat": 38.87360316666667, "rental_uris": {"ios": "https://dc.lft.to/lastmile_qr_scan", "android": "https://dc.lft.to/lastmile_qr_scan"}, "is_reserved": 0, "fusion_lon": 0.0, "fusion_lat": 0.0, "lon": -76.97029216666667, "name": "ecaed2f3b9f0888c3852692fe55ff7b8"}, {"bike_id": "7290397b664bdc103eb1c86c9a15bfdd", "type": "electric_scooter", "is_disabled": 0, "lat": 38.89912016666667, "rental_uris": {"ios": "https://dc.lft.to/lastmile_qr_scan", "android": "https://dc.lft.to/lastmile_qr_scan"}, "is_reserved": 0, "fusion_lon": 0.0, "fusion_lat": 0.0, "lon": -76.933684, "name": "7290397b664bdc103eb1c86c9a15bfdd"}, {"bike_id": "2c83d8ed7f1060489afc81f2c2b487fa", "type": "electric_scooter", "is_disabled": 0, "lat": 38.92347266666667, "rental_uris": {"ios": "https://dc.lft.to/lastmile_qr_scan", "android": "https://dc.lft.to/lastmile_qr_scan"}, "is_reserved": 0, "fusion_lon": 0.0, "fusion_lat": 0.0, "lon": -77.05122016666667, "name": "2c83d8ed7f1060489afc81f2c2b487fa"}, {"bike_id": "3735b84e1ab67d0cbb74598fc6a96394", "type": "electric_scooter", "is_disabled": 0, "lat": 38.91962383333333, "rental_uris": {"ios": "https://dc.lft.to/lastmile_qr_scan", "android": "https://dc.lft.to/lastmile_qr_scan"}, "is_reserved": 0, "fusion_lon": 0.0, "fusion_lat": 0.0, "lon": -77.02498583333333, "name": "3735b84e1ab67d0cbb74598fc6a96394"}, {"bike_id": "b111276522cd0d8019c23d640372fdcb", "type": "electric_scooter", "is_disabled": 0, "lat": 38.894858166666666, "rental_uris": {"ios": "https://dc.lft.to/lastmile_qr_scan", "android": "https://dc.lft.to/lastmile_qr_scan"}, "is_reserved": 0, "fusion_lon": 0.0, "fusion_lat": 0.0, "lon": -77.021777, "name": "b111276522cd0d8019c23d640372fdcb"}, {"bike_id": "4ee59d607877631d4d42d4c741b91ba1", "type": "electric_bike", "is_disabled": 0, "lat": 38.873006833333335, "rental_uris": {"ios": "https://dc.lft.to/lastmile_qr_scan", "android": "https://dc.lft.to/lastmile_qr_scan"}, "is_reserved": 0, "fusion_lon": 0.0, "fusion_lat": 0.0, "lon": -77.13928133333333, "name": "4ee59d607877631d4d42d4c741b91ba1"}, {"bike_id": "5bdf4897bf4b96a23044f64f62385b12", "type": "electric_bike", "is_disabled": 0, "lat": 38.8427795, "rental_uris": {"ios": "https://dc.lft.to/lastmile_qr_scan", "android": "https://dc.lft.to/lastmile_qr_scan"}, "is_reserved": 0, "fusion_lon": 0.0, "fusion_lat": 0.0, "lon": -76.9883945, "name": "5bdf4897bf4b96a23044f64f62385b12"}, {"bike_id": "d0ab70f3f5481b80de2a7c198ee9eac1", "type": "electric_scooter", "is_disabled": 0, "lat": 38.9639215, "rental_uris": {"ios": "https://dc.lft.to/lastmile_qr_scan", "android": "https://dc.lft.to/lastmile_qr_scan"}, "is_reserved": 0, "fusion_lon": 0.0, "fusion_lat": 0.0, "lon": -77.0259075, "name": "d0ab70f3f5481b80de2a7c198ee9eac1"}, {"bike_id": "fe0df1e58102af26e7098b526ae33df6", "type": "electric_scooter", "is_disabled": 0, "lat": 38.91681583333333, "rental_uris": {"ios": "https://dc.lft.to/lastmile_qr_scan", "android": "https://dc.lft.to/lastmile_qr_scan"}, "is_reserved": 0, "fusion_lon": 0.0, "fusion_lat": 0.0, "lon": -77.028707, "name": "fe0df1e58102af26e7098b526ae33df6"}, {"bike_id": "0664790534af14922c1bdb6014493265", "type": "electric_scooter", "is_disabled": 0, "lat": 38.9156905, "rental_uris": {"ios": "https://dc.lft.to/lastmile_qr_scan", "android": "https://dc.lft.to/lastmile_qr_scan"}, "is_reserved": 0, "fusion_lon": 0.0, "fusion_lat": 0.0, "lon": -77.03641416666666, "name": "0664790534af14922c1bdb6014493265"}, {"bike_id": "1d85391a37b29cf7c7d45e9dc042b77a", "type": "electric_scooter", "is_disabled": 0, "lat": 38.93146466666666, "rental_uris": {"ios": "https://dc.lft.to/lastmile_qr_scan", "android": "https://dc.lft.to/lastmile_qr_scan"}, "is_reserved": 0, "fusion_lon": 0.0, "fusion_lat": 0.0, "lon": -77.04247383333333, "name": "1d85391a37b29cf7c7d45e9dc042b77a"}, {"bike_id": "ab9babcc3fe49bdd50f8c319dcbb6b03", "type": "electric_scooter", "is_disabled": 0, "lat": 38.91184783333333, "rental_uris": {"ios": "https://dc.lft.to/lastmile_qr_scan", "android": "https://dc.lft.to/lastmile_qr_scan"}, "is_reserved": 0, "fusion_lon": 0.0, "fusion_lat": 0.0, "lon": -77.03217516666666, "name": "ab9babcc3fe49bdd50f8c319dcbb6b03"}, {"bike_id": "5ccad26ab230350d461e9e174087f93c", "type": "electric_scooter", "is_disabled": 0, "lat": 38.895784, "rental_uris": {"ios": "https://dc.lft.to/lastmile_qr_scan", "android": "https://dc.lft.to/lastmile_qr_scan"}, "is_reserved": 0, "fusion_lon": 0.0, "fusion_lat": 0.0, "lon": -77.011227, "name": "5ccad26ab230350d461e9e174087f93c"}, {"bike_id": "b332d3e27b49c722c5f59b6e3473b20e", "type": "electric_scooter", "is_disabled": 0, "lat": 38.867016166666666, "rental_uris": {"ios": "https://dc.lft.to/lastmile_qr_scan", "android": "https://dc.lft.to/lastmile_qr_scan"}, "is_reserved": 0, "fusion_lon": 0.0, "fusion_lat": 0.0, "lon": -76.9871475, "name": "b332d3e27b49c722c5f59b6e3473b20e"}, {"bike_id": "371807f41a70ffe107d3df335e0ebaa2", "type": "electric_bike", "is_disabled": 0, "lat": 38.898478833333336, "rental_uris": {"ios": "https://dc.lft.to/lastmile_qr_scan", "android": "https://dc.lft.to/lastmile_qr_scan"}, "is_reserved": 0, "fusion_lon": 0.0, "fusion_lat": 0.0, "lon": -77.05303566666667, "name": "371807f41a70ffe107d3df335e0ebaa2"}, {"bike_id": "35e1cd980a25eaef08d693459a2b28cf", "type": "electric_scooter", "is_disabled": 0, "lat": 38.9086635, "rental_uris": {"ios": "https://dc.lft.to/lastmile_qr_scan", "android": "https://dc.lft.to/lastmile_qr_scan"}, "is_reserved": 0, "fusion_lon": 0.0, "fusion_lat": 0.0, "lon": -77.0235595, "name": "35e1cd980a25eaef08d693459a2b28cf"}, {"bike_id": "cae374939936da38f0512cc526d92093", "type": "electric_scooter", "is_disabled": 0, "lat": 38.900943, "rental_uris": {"ios": "https://dc.lft.to/lastmile_qr_scan", "android": "https://dc.lft.to/lastmile_qr_scan"}, "is_reserved": 0, "fusion_lon": 0.0, "fusion_lat": 0.0, "lon": -77.01936883333333, "name": "cae374939936da38f0512cc526d92093"}, {"bike_id": "b96f35fca40b4b5c94a78a569b16c54c", "type": "electric_scooter", "is_disabled": 0, "lat": 38.9345745, "rental_uris": {"ios": "https://dc.lft.to/lastmile_qr_scan", "android": "https://dc.lft.to/lastmile_qr_scan"}, "is_reserved": 0, "fusion_lon": 0.0, "fusion_lat": 0.0, "lon": -76.964411, "name": "b96f35fca40b4b5c94a78a569b16c54c"}, {"bike_id": "27fb20dfecb132e7a55eb17c96abd9a7", "type": "electric_scooter", "is_disabled": 0, "lat": 38.930912166666666, "rental_uris": {"ios": "https://dc.lft.to/lastmile_qr_scan", "android": "https://dc.lft.to/lastmile_qr_scan"}, "is_reserved": 0, "fusion_lon": 0.0, "fusion_lat": 0.0, "lon": -77.03746916666667, "name": "27fb20dfecb132e7a55eb17c96abd9a7"}, {"bike_id": "93065f336ade9039dd72f448326239c8", "type": "electric_scooter", "is_disabled": 0, "lat": 38.902334333333336, "rental_uris": {"ios": "https://dc.lft.to/lastmile_qr_scan", "android": "https://dc.lft.to/lastmile_qr_scan"}, "is_reserved": 0, "fusion_lon": 0.0, "fusion_lat": 0.0, "lon": -77.01765666666667, "name": "93065f336ade9039dd72f448326239c8"}, {"bike_id": "9cc5f3138c4fda2b22641ecad258a9e9", "type": "electric_bike", "is_disabled": 0, "lat": 39.02435633333333, "rental_uris": {"ios": "https://dc.lft.to/lastmile_qr_scan", "android": "https://dc.lft.to/lastmile_qr_scan"}, "is_reserved": 0, "fusion_lon": 0.0, "fusion_lat": 0.0, "lon": -77.13101566666667, "name": "9cc5f3138c4fda2b22641ecad258a9e9"}, {"bike_id": "542efb8a7d9dc580dbbf4f9720dd511c", "type": "electric_scooter", "is_disabled": 0, "lat": 38.931080333333334, "rental_uris": {"ios": "https://dc.lft.to/lastmile_qr_scan", "android": "https://dc.lft.to/lastmile_qr_scan"}, "is_reserved": 0, "fusion_lon": 0.0, "fusion_lat": 0.0, "lon": -77.0326805, "name": "542efb8a7d9dc580dbbf4f9720dd511c"}, {"bike_id": "ba243daa8bb5724cc0ff687d9bc58f85", "type": "electric_scooter", "is_disabled": 0, "lat": 38.91255, "rental_uris": {"ios": "https://dc.lft.to/lastmile_qr_scan", "android": "https://dc.lft.to/lastmile_qr_scan"}, "is_reserved": 0, "fusion_lon": 0.0, "fusion_lat": 0.0, "lon": -77.03832016666667, "name": "ba243daa8bb5724cc0ff687d9bc58f85"}, {"bike_id": "66422a3eaecd94d3d5687e7d23e3cd3f", "type": "electric_scooter", "is_disabled": 0, "lat": 38.91876366666666, "rental_uris": {"ios": "https://dc.lft.to/lastmile_qr_scan", "android": "https://dc.lft.to/lastmile_qr_scan"}, "is_reserved": 0, "fusion_lon": 0.0, "fusion_lat": 0.0, "lon": -77.03469766666667, "name": "66422a3eaecd94d3d5687e7d23e3cd3f"}, {"bike_id": "234eea770b68f194a7770d4cb4b1080a", "type": "electric_scooter", "is_disabled": 0, "lat": 38.9231815, "rental_uris": {"ios": "https://dc.lft.to/lastmile_qr_scan", "android": "https://dc.lft.to/lastmile_qr_scan"}, "is_reserved": 0, "fusion_lon": 0.0, "fusion_lat": 0.0, "lon": -77.04647983333334, "name": "234eea770b68f194a7770d4cb4b1080a"}, {"bike_id": "030bb55d8913c0495ffd71e2fd5fbe2b", "type": "electric_scooter", "is_disabled": 0, "lat": 38.941876, "rental_uris": {"ios": "https://dc.lft.to/lastmile_qr_scan", "android": "https://dc.lft.to/lastmile_qr_scan"}, "is_reserved": 0, "fusion_lon": 0.0, "fusion_lat": 0.0, "lon": -77.03655966666666, "name": "030bb55d8913c0495ffd71e2fd5fbe2b"}, {"bike_id": "f7fa7449c209f2d2ebd444d819d3bfd9", "type": "electric_scooter", "is_disabled": 0, "lat": 38.843165166666665, "rental_uris": {"ios": "https://dc.lft.to/lastmile_qr_scan", "android": "https://dc.lft.to/lastmile_qr_scan"}, "is_reserved": 0, "fusion_lon": 0.0, "fusion_lat": 0.0, "lon": -76.999239, "name": "f7fa7449c209f2d2ebd444d819d3bfd9"}, {"bike_id": "b0d896728e702919fdef718bc981e47c", "type": "electric_scooter", "is_disabled": 0, "lat": 38.851214166666665, "rental_uris": {"ios": "https://dc.lft.to/lastmile_qr_scan", "android": "https://dc.lft.to/lastmile_qr_scan"}, "is_reserved": 0, "fusion_lon": 0.0, "fusion_lat": 0.0, "lon": -76.97119816666667, "name": "b0d896728e702919fdef718bc981e47c"}, {"bike_id": "c9306aa76817efabb9ee9a024fdfb58b", "type": "electric_bike", "is_disabled": 0, "lat": 38.86863966666667, "rental_uris": {"ios": "https://dc.lft.to/lastmile_qr_scan", "android": "https://dc.lft.to/lastmile_qr_scan"}, "is_reserved": 0, "fusion_lon": 0.0, "fusion_lat": 0.0, "lon": -76.97086816666666, "name": "c9306aa76817efabb9ee9a024fdfb58b"}, {"bike_id": "18c10cb1c977f213ea9c5dfb9268087a", "type": "electric_scooter", "is_disabled": 0, "lat": 38.9110785, "rental_uris": {"ios": "https://dc.lft.to/lastmile_qr_scan", "android": "https://dc.lft.to/lastmile_qr_scan"}, "is_reserved": 0, "fusion_lon": 0.0, "fusion_lat": 0.0, "lon": -77.04393233333333, "name": "18c10cb1c977f213ea9c5dfb9268087a"}, {"bike_id": "d4b688090daa117ba6ec2f26d6c604aa", "type": "electric_scooter", "is_disabled": 0, "lat": 38.9157275, "rental_uris": {"ios": "https://dc.lft.to/lastmile_qr_scan", "android": "https://dc.lft.to/lastmile_qr_scan"}, "is_reserved": 0, "fusion_lon": 0.0, "fusion_lat": 0.0, "lon": -77.012489, "name": "d4b688090daa117ba6ec2f26d6c604aa"}, {"bike_id": "2e4c57d5570a8aa2bd7d5d8ebf93a4e0", "type": "electric_scooter", "is_disabled": 0, "lat": 38.89396683333333, "rental_uris": {"ios": "https://dc.lft.to/lastmile_qr_scan", "android": "https://dc.lft.to/lastmile_qr_scan"}, "is_reserved": 0, "fusion_lon": 0.0, "fusion_lat": 0.0, "lon": -77.02120833333333, "name": "2e4c57d5570a8aa2bd7d5d8ebf93a4e0"}, {"bike_id": "084c3da26c45d2a45ff9ab7d00b03eb3", "type": "electric_scooter", "is_disabled": 0, "lat": 38.900148, "rental_uris": {"ios": "https://dc.lft.to/lastmile_qr_scan", "android": "https://dc.lft.to/lastmile_qr_scan"}, "is_reserved": 0, "fusion_lon": 0.0, "fusion_lat": 0.0, "lon": -77.03812333333333, "name": "084c3da26c45d2a45ff9ab7d00b03eb3"}, {"bike_id": "f18dae5bc8487fe1b0830f8e28b371d0", "type": "electric_scooter", "is_disabled": 0, "lat": 38.915666333333334, "rental_uris": {"ios": "https://dc.lft.to/lastmile_qr_scan", "android": "https://dc.lft.to/lastmile_qr_scan"}, "is_reserved": 0, "fusion_lon": 0.0, "fusion_lat": 0.0, "lon": -77.02591866666667, "name": "f18dae5bc8487fe1b0830f8e28b371d0"}, {"bike_id": "639da0cc51d07ec619139eddf54e893e", "type": "electric_scooter", "is_disabled": 0, "lat": 38.92040633333333, "rental_uris": {"ios": "https://dc.lft.to/lastmile_qr_scan", "android": "https://dc.lft.to/lastmile_qr_scan"}, "is_reserved": 0, "fusion_lon": 0.0, "fusion_lat": 0.0, "lon": -77.032467, "name": "639da0cc51d07ec619139eddf54e893e"}, {"bike_id": "0fd6e329c901768ca522195e82723d9c", "type": "electric_scooter", "is_disabled": 0, "lat": 38.9058805, "rental_uris": {"ios": "https://dc.lft.to/lastmile_qr_scan", "android": "https://dc.lft.to/lastmile_qr_scan"}, "is_reserved": 0, "fusion_lon": 0.0, "fusion_lat": 0.0, "lon": -77.04715666666667, "name": "0fd6e329c901768ca522195e82723d9c"}, {"bike_id": "6d94105f4404c3e2f3103b10d8b579a4", "type": "electric_scooter", "is_disabled": 0, "lat": 38.938789166666666, "rental_uris": {"ios": "https://dc.lft.to/lastmile_qr_scan", "android": "https://dc.lft.to/lastmile_qr_scan"}, "is_reserved": 0, "fusion_lon": 0.0, "fusion_lat": 0.0, "lon": -77.02471633333333, "name": "6d94105f4404c3e2f3103b10d8b579a4"}, {"bike_id": "90bcd8d9bd85c401e6c0c8d7b42fe852", "type": "electric_scooter", "is_disabled": 0, "lat": 38.9418995, "rental_uris": {"ios": "https://dc.lft.to/lastmile_qr_scan", "android": "https://dc.lft.to/lastmile_qr_scan"}, "is_reserved": 0, "fusion_lon": 0.0, "fusion_lat": 0.0, "lon": -77.0332455, "name": "90bcd8d9bd85c401e6c0c8d7b42fe852"}, {"bike_id": "56848cc63decef6d754068a1dbfbdd6b", "type": "electric_bike", "is_disabled": 0, "lat": 38.94800216666667, "rental_uris": {"ios": "https://dc.lft.to/lastmile_qr_scan", "android": "https://dc.lft.to/lastmile_qr_scan"}, "is_reserved": 0, "fusion_lon": 0.0, "fusion_lat": 0.0, "lon": -76.95542616666667, "name": "56848cc63decef6d754068a1dbfbdd6b"}, {"bike_id": "53647a4bb7734527ba774baaae6a7d76", "type": "electric_scooter", "is_disabled": 0, "lat": 38.90536566666667, "rental_uris": {"ios": "https://dc.lft.to/lastmile_qr_scan", "android": "https://dc.lft.to/lastmile_qr_scan"}, "is_reserved": 0, "fusion_lon": 0.0, "fusion_lat": 0.0, "lon": -77.04675766666666, "name": "53647a4bb7734527ba774baaae6a7d76"}, {"bike_id": "3e86f99ca38faaca1ac3d977b87e22b6", "type": "electric_bike", "is_disabled": 0, "lat": 38.93670133333333, "rental_uris": {"ios": "https://dc.lft.to/lastmile_qr_scan", "android": "https://dc.lft.to/lastmile_qr_scan"}, "is_reserved": 0, "fusion_lon": 0.0, "fusion_lat": 0.0, "lon": -76.952084, "name": "3e86f99ca38faaca1ac3d977b87e22b6"}, {"bike_id": "da160995625ba6f4a8a1aab84775839e", "type": "electric_scooter", "is_disabled": 0, "lat": 38.916854666666666, "rental_uris": {"ios": "https://dc.lft.to/lastmile_qr_scan", "android": "https://dc.lft.to/lastmile_qr_scan"}, "is_reserved": 0, "fusion_lon": 0.0, "fusion_lat": 0.0, "lon": -77.0294835, "name": "da160995625ba6f4a8a1aab84775839e"}, {"bike_id": "613e8a8cc84d8fbd903b414640b47b18", "type": "electric_bike", "is_disabled": 0, "lat": 38.93053, "rental_uris": {"ios": "https://dc.lft.to/lastmile_qr_scan", "android": "https://dc.lft.to/lastmile_qr_scan"}, "is_reserved": 0, "fusion_lon": 0.0, "fusion_lat": 0.0, "lon": -77.0368455, "name": "613e8a8cc84d8fbd903b414640b47b18"}, {"bike_id": "b2829241c0a0f4edc2f24f7cfd0d2f48", "type": "electric_scooter", "is_disabled": 0, "lat": 38.907226333333334, "rental_uris": {"ios": "https://dc.lft.to/lastmile_qr_scan", "android": "https://dc.lft.to/lastmile_qr_scan"}, "is_reserved": 0, "fusion_lon": 0.0, "fusion_lat": 0.0, "lon": -77.029816, "name": "b2829241c0a0f4edc2f24f7cfd0d2f48"}, {"bike_id": "709c8bfccb949de8b964f9573be8fe62", "type": "electric_scooter", "is_disabled": 0, "lat": 38.90353866666667, "rental_uris": {"ios": "https://dc.lft.to/lastmile_qr_scan", "android": "https://dc.lft.to/lastmile_qr_scan"}, "is_reserved": 0, "fusion_lon": 0.0, "fusion_lat": 0.0, "lon": -77.02918366666667, "name": "709c8bfccb949de8b964f9573be8fe62"}, {"bike_id": "15eda90292ccbfa0ab7abd98d3671f46", "type": "electric_bike", "is_disabled": 0, "lat": 38.92428483333333, "rental_uris": {"ios": "https://dc.lft.to/lastmile_qr_scan", "android": "https://dc.lft.to/lastmile_qr_scan"}, "is_reserved": 0, "fusion_lon": 0.0, "fusion_lat": 0.0, "lon": -77.22555116666666, "name": "15eda90292ccbfa0ab7abd98d3671f46"}, {"bike_id": "debad7c4441d1f409090176ea7d381b3", "type": "electric_bike", "is_disabled": 0, "lat": 38.902116666666664, "rental_uris": {"ios": "https://dc.lft.to/lastmile_qr_scan", "android": "https://dc.lft.to/lastmile_qr_scan"}, "is_reserved": 0, "fusion_lon": 0.0, "fusion_lat": 0.0, "lon": -76.97414016666667, "name": "debad7c4441d1f409090176ea7d381b3"}, {"bike_id": "4df28962c6b578b5d31490f1bf9c9ed6", "type": "electric_scooter", "is_disabled": 0, "lat": 38.897263833333334, "rental_uris": {"ios": "https://dc.lft.to/lastmile_qr_scan", "android": "https://dc.lft.to/lastmile_qr_scan"}, "is_reserved": 0, "fusion_lon": 0.0, "fusion_lat": 0.0, "lon": -77.02167366666667, "name": "4df28962c6b578b5d31490f1bf9c9ed6"}, {"bike_id": "77d0029b873b19b93e3d317a40e45a29", "type": "electric_scooter", "is_disabled": 0, "lat": 38.906836, "rental_uris": {"ios": "https://dc.lft.to/lastmile_qr_scan", "android": "https://dc.lft.to/lastmile_qr_scan"}, "is_reserved": 0, "fusion_lon": 0.0, "fusion_lat": 0.0, "lon": -77.02378316666666, "name": "77d0029b873b19b93e3d317a40e45a29"}, {"bike_id": "9c5035a444e64e9586f494d2bc211557", "type": "electric_scooter", "is_disabled": 0, "lat": 38.900234, "rental_uris": {"ios": "https://dc.lft.to/lastmile_qr_scan", "android": "https://dc.lft.to/lastmile_qr_scan"}, "is_reserved": 0, "fusion_lon": 0.0, "fusion_lat": 0.0, "lon": -77.01164033333333, "name": "9c5035a444e64e9586f494d2bc211557"}, {"bike_id": "219ede40bf292e6dc05df1554ea204c6", "type": "electric_scooter", "is_disabled": 0, "lat": 38.94197233333333, "rental_uris": {"ios": "https://dc.lft.to/lastmile_qr_scan", "android": "https://dc.lft.to/lastmile_qr_scan"}, "is_reserved": 0, "fusion_lon": 0.0, "fusion_lat": 0.0, "lon": -77.02438866666667, "name": "219ede40bf292e6dc05df1554ea204c6"}, {"bike_id": "efae6dc86af90dd8540131429374194d", "type": "electric_scooter", "is_disabled": 0, "lat": 38.927895, "rental_uris": {"ios": "https://dc.lft.to/lastmile_qr_scan", "android": "https://dc.lft.to/lastmile_qr_scan"}, "is_reserved": 0, "fusion_lon": 0.0, "fusion_lat": 0.0, "lon": -77.02666233333333, "name": "efae6dc86af90dd8540131429374194d"}, {"bike_id": "fb2d803c460b2d7581061f58bdd6e72f", "type": "electric_scooter", "is_disabled": 0, "lat": 38.906475, "rental_uris": {"ios": "https://dc.lft.to/lastmile_qr_scan", "android": "https://dc.lft.to/lastmile_qr_scan"}, "is_reserved": 0, "fusion_lon": 0.0, "fusion_lat": 0.0, "lon": -77.00977916666666, "name": "fb2d803c460b2d7581061f58bdd6e72f"}, {"bike_id": "c559d8014a6fdf5e53a693aba99bc85d", "type": "electric_bike", "is_disabled": 0, "lat": 38.92640016666667, "rental_uris": {"ios": "https://dc.lft.to/lastmile_qr_scan", "android": "https://dc.lft.to/lastmile_qr_scan"}, "is_reserved": 0, "fusion_lon": 0.0, "fusion_lat": 0.0, "lon": -76.98423666666666, "name": "c559d8014a6fdf5e53a693aba99bc85d"}, {"bike_id": "7a54829ab966f9e8615a48ccd0e703b1", "type": "electric_scooter", "is_disabled": 0, "lat": 38.8956085, "rental_uris": {"ios": "https://dc.lft.to/lastmile_qr_scan", "android": "https://dc.lft.to/lastmile_qr_scan"}, "is_reserved": 0, "fusion_lon": 0.0, "fusion_lat": 0.0, "lon": -76.929627, "name": "7a54829ab966f9e8615a48ccd0e703b1"}, {"bike_id": "f10b28a9fb3d1a11f8c70b4e6117dc59", "type": "electric_scooter", "is_disabled": 0, "lat": 38.92040766666667, "rental_uris": {"ios": "https://dc.lft.to/lastmile_qr_scan", "android": "https://dc.lft.to/lastmile_qr_scan"}, "is_reserved": 0, "fusion_lon": 0.0, "fusion_lat": 0.0, "lon": -77.03388883333334, "name": "f10b28a9fb3d1a11f8c70b4e6117dc59"}, {"bike_id": "76407626c262a9b32c2cf40b22e1b6f9", "type": "electric_scooter", "is_disabled": 0, "lat": 38.94001216666667, "rental_uris": {"ios": "https://dc.lft.to/lastmile_qr_scan", "android": "https://dc.lft.to/lastmile_qr_scan"}, "is_reserved": 0, "fusion_lon": 0.0, "fusion_lat": 0.0, "lon": -77.03805, "name": "76407626c262a9b32c2cf40b22e1b6f9"}, {"bike_id": "362197334b0791c4def20d1e93ebc3ae", "type": "electric_scooter", "is_disabled": 0, "lat": 38.922348666666664, "rental_uris": {"ios": "https://dc.lft.to/lastmile_qr_scan", "android": "https://dc.lft.to/lastmile_qr_scan"}, "is_reserved": 0, "fusion_lon": 0.0, "fusion_lat": 0.0, "lon": -77.04374466666667, "name": "362197334b0791c4def20d1e93ebc3ae"}, {"bike_id": "ce443f354d36526c38ff7e53187cf2b6", "type": "electric_scooter", "is_disabled": 0, "lat": 38.90558633333333, "rental_uris": {"ios": "https://dc.lft.to/lastmile_qr_scan", "android": "https://dc.lft.to/lastmile_qr_scan"}, "is_reserved": 0, "fusion_lon": 0.0, "fusion_lat": 0.0, "lon": -77.00600616666667, "name": "ce443f354d36526c38ff7e53187cf2b6"}, {"bike_id": "20740c797dcfb4385f13c65e09c4c324", "type": "electric_scooter", "is_disabled": 0, "lat": 38.918580666666664, "rental_uris": {"ios": "https://dc.lft.to/lastmile_qr_scan", "android": "https://dc.lft.to/lastmile_qr_scan"}, "is_reserved": 0, "fusion_lon": 0.0, "fusion_lat": 0.0, "lon": -76.96112866666667, "name": "20740c797dcfb4385f13c65e09c4c324"}, {"bike_id": "c4ac106e697729fab80212a82783977f", "type": "electric_scooter", "is_disabled": 0, "lat": 38.89977616666667, "rental_uris": {"ios": "https://dc.lft.to/lastmile_qr_scan", "android": "https://dc.lft.to/lastmile_qr_scan"}, "is_reserved": 0, "fusion_lon": 0.0, "fusion_lat": 0.0, "lon": -77.02712816666667, "name": "c4ac106e697729fab80212a82783977f"}, {"bike_id": "4dc513ba6e1ff78194e8bef593dea005", "type": "electric_scooter", "is_disabled": 0, "lat": 38.8846135, "rental_uris": {"ios": "https://dc.lft.to/lastmile_qr_scan", "android": "https://dc.lft.to/lastmile_qr_scan"}, "is_reserved": 0, "fusion_lon": 0.0, "fusion_lat": 0.0, "lon": -77.00056833333333, "name": "4dc513ba6e1ff78194e8bef593dea005"}, {"bike_id": "48eb2d64cd0bd36f0db9f5260048cf22", "type": "electric_scooter", "is_disabled": 0, "lat": 38.91804466666667, "rental_uris": {"ios": "https://dc.lft.to/lastmile_qr_scan", "android": "https://dc.lft.to/lastmile_qr_scan"}, "is_reserved": 0, "fusion_lon": 0.0, "fusion_lat": 0.0, "lon": -77.03074833333334, "name": "48eb2d64cd0bd36f0db9f5260048cf22"}, {"bike_id": "e90b445f6e1635cf5357ec2d1bfc2641", "type": "electric_scooter", "is_disabled": 0, "lat": 38.921023, "rental_uris": {"ios": "https://dc.lft.to/lastmile_qr_scan", "android": "https://dc.lft.to/lastmile_qr_scan"}, "is_reserved": 0, "fusion_lon": 0.0, "fusion_lat": 0.0, "lon": -77.03162183333333, "name": "e90b445f6e1635cf5357ec2d1bfc2641"}, {"bike_id": "25c3f8cce3dfb60efcece8c00ac97b38", "type": "electric_scooter", "is_disabled": 0, "lat": 38.891938, "rental_uris": {"ios": "https://dc.lft.to/lastmile_qr_scan", "android": "https://dc.lft.to/lastmile_qr_scan"}, "is_reserved": 0, "fusion_lon": 0.0, "fusion_lat": 0.0, "lon": -77.02406466666666, "name": "25c3f8cce3dfb60efcece8c00ac97b38"}, {"bike_id": "94432f379bca965f4b28ecd7385e0332", "type": "electric_scooter", "is_disabled": 0, "lat": 38.908209166666666, "rental_uris": {"ios": "https://dc.lft.to/lastmile_qr_scan", "android": "https://dc.lft.to/lastmile_qr_scan"}, "is_reserved": 0, "fusion_lon": 0.0, "fusion_lat": 0.0, "lon": -77.04303216666666, "name": "94432f379bca965f4b28ecd7385e0332"}, {"bike_id": "37335a3fe741f06362234698c5d04469", "type": "electric_scooter", "is_disabled": 0, "lat": 38.918415833333334, "rental_uris": {"ios": "https://dc.lft.to/lastmile_qr_scan", "android": "https://dc.lft.to/lastmile_qr_scan"}, "is_reserved": 0, "fusion_lon": 0.0, "fusion_lat": 0.0, "lon": -77.025106, "name": "37335a3fe741f06362234698c5d04469"}, {"bike_id": "a846aa51023ff509ff5b0a773ac30f53", "type": "electric_scooter", "is_disabled": 0, "lat": 38.906170833333334, "rental_uris": {"ios": "https://dc.lft.to/lastmile_qr_scan", "android": "https://dc.lft.to/lastmile_qr_scan"}, "is_reserved": 0, "fusion_lon": 0.0, "fusion_lat": 0.0, "lon": -77.01498016666666, "name": "a846aa51023ff509ff5b0a773ac30f53"}, {"bike_id": "da2431e62a0f9e81cd9bbd2fad1b9859", "type": "electric_scooter", "is_disabled": 0, "lat": 38.9349205, "rental_uris": {"ios": "https://dc.lft.to/lastmile_qr_scan", "android": "https://dc.lft.to/lastmile_qr_scan"}, "is_reserved": 0, "fusion_lon": 0.0, "fusion_lat": 0.0, "lon": -77.03279066666667, "name": "da2431e62a0f9e81cd9bbd2fad1b9859"}, {"bike_id": "642034f9cbb7d775112ba4d51394674c", "type": "electric_scooter", "is_disabled": 0, "lat": 38.89770583333333, "rental_uris": {"ios": "https://dc.lft.to/lastmile_qr_scan", "android": "https://dc.lft.to/lastmile_qr_scan"}, "is_reserved": 0, "fusion_lon": 0.0, "fusion_lat": 0.0, "lon": -77.001421, "name": "642034f9cbb7d775112ba4d51394674c"}, {"bike_id": "e97b0319b93af9835d03fc322b145cb3", "type": "electric_scooter", "is_disabled": 0, "lat": 38.91817133333333, "rental_uris": {"ios": "https://dc.lft.to/lastmile_qr_scan", "android": "https://dc.lft.to/lastmile_qr_scan"}, "is_reserved": 0, "fusion_lon": 0.0, "fusion_lat": 0.0, "lon": -77.0120695, "name": "e97b0319b93af9835d03fc322b145cb3"}, {"bike_id": "6917fbbf344bf80bd8350e506c150d7d", "type": "electric_scooter", "is_disabled": 0, "lat": 38.918163666666665, "rental_uris": {"ios": "https://dc.lft.to/lastmile_qr_scan", "android": "https://dc.lft.to/lastmile_qr_scan"}, "is_reserved": 0, "fusion_lon": 0.0, "fusion_lat": 0.0, "lon": -77.01206766666667, "name": "6917fbbf344bf80bd8350e506c150d7d"}, {"bike_id": "82f4b4862eb474a710800e34bb13cbf0", "type": "electric_scooter", "is_disabled": 0, "lat": 38.9050565, "rental_uris": {"ios": "https://dc.lft.to/lastmile_qr_scan", "android": "https://dc.lft.to/lastmile_qr_scan"}, "is_reserved": 0, "fusion_lon": 0.0, "fusion_lat": 0.0, "lon": -77.06021316666667, "name": "82f4b4862eb474a710800e34bb13cbf0"}, {"bike_id": "fea07ec84dde9c2ba643c2dbc3c795ad", "type": "electric_scooter", "is_disabled": 0, "lat": 38.93394633333333, "rental_uris": {"ios": "https://dc.lft.to/lastmile_qr_scan", "android": "https://dc.lft.to/lastmile_qr_scan"}, "is_reserved": 0, "fusion_lon": 0.0, "fusion_lat": 0.0, "lon": -77.022069, "name": "fea07ec84dde9c2ba643c2dbc3c795ad"}, {"bike_id": "27b650e2f5ed0c25bf9b544ddff72966", "type": "electric_scooter", "is_disabled": 0, "lat": 38.92454133333333, "rental_uris": {"ios": "https://dc.lft.to/lastmile_qr_scan", "android": "https://dc.lft.to/lastmile_qr_scan"}, "is_reserved": 0, "fusion_lon": 0.0, "fusion_lat": 0.0, "lon": -77.041106, "name": "27b650e2f5ed0c25bf9b544ddff72966"}, {"bike_id": "b56da6c30d4f341fc85bf55dff486ed8", "type": "electric_scooter", "is_disabled": 0, "lat": 38.866593, "rental_uris": {"ios": "https://dc.lft.to/lastmile_qr_scan", "android": "https://dc.lft.to/lastmile_qr_scan"}, "is_reserved": 0, "fusion_lon": 0.0, "fusion_lat": 0.0, "lon": -76.98881716666666, "name": "b56da6c30d4f341fc85bf55dff486ed8"}, {"bike_id": "d951689027b8df88468c8d7dbe00bd59", "type": "electric_bike", "is_disabled": 0, "lat": 38.91009116666667, "rental_uris": {"ios": "https://dc.lft.to/lastmile_qr_scan", "android": "https://dc.lft.to/lastmile_qr_scan"}, "is_reserved": 0, "fusion_lon": 0.0, "fusion_lat": 0.0, "lon": -77.22799783333333, "name": "d951689027b8df88468c8d7dbe00bd59"}, {"bike_id": "3ad99892231c281867d78fbf777379f8", "type": "electric_scooter", "is_disabled": 0, "lat": 38.90503266666666, "rental_uris": {"ios": "https://dc.lft.to/lastmile_qr_scan", "android": "https://dc.lft.to/lastmile_qr_scan"}, "is_reserved": 0, "fusion_lon": 0.0, "fusion_lat": 0.0, "lon": -77.0601595, "name": "3ad99892231c281867d78fbf777379f8"}, {"bike_id": "759ae0c927dbbee54975bc7d1971dc60", "type": "electric_scooter", "is_disabled": 0, "lat": 38.91419783333333, "rental_uris": {"ios": "https://dc.lft.to/lastmile_qr_scan", "android": "https://dc.lft.to/lastmile_qr_scan"}, "is_reserved": 0, "fusion_lon": 0.0, "fusion_lat": 0.0, "lon": -77.04809733333333, "name": "759ae0c927dbbee54975bc7d1971dc60"}, {"bike_id": "e460e51886f2239e6f4fd46b7d72715d", "type": "electric_scooter", "is_disabled": 0, "lat": 38.90525866666667, "rental_uris": {"ios": "https://dc.lft.to/lastmile_qr_scan", "android": "https://dc.lft.to/lastmile_qr_scan"}, "is_reserved": 0, "fusion_lon": 0.0, "fusion_lat": 0.0, "lon": -77.0533225, "name": "e460e51886f2239e6f4fd46b7d72715d"}, {"bike_id": "eecd1d3506972240514d07006ddb9b79", "type": "electric_bike", "is_disabled": 0, "lat": 38.872709666666665, "rental_uris": {"ios": "https://dc.lft.to/lastmile_qr_scan", "android": "https://dc.lft.to/lastmile_qr_scan"}, "is_reserved": 0, "fusion_lon": 0.0, "fusion_lat": 0.0, "lon": -77.23247816666667, "name": "eecd1d3506972240514d07006ddb9b79"}, {"bike_id": "8f5ba247af09b880bf32283466852d2f", "type": "electric_scooter", "is_disabled": 0, "lat": 38.90590433333333, "rental_uris": {"ios": "https://dc.lft.to/lastmile_qr_scan", "android": "https://dc.lft.to/lastmile_qr_scan"}, "is_reserved": 0, "fusion_lon": 0.0, "fusion_lat": 0.0, "lon": -77.04189316666667, "name": "8f5ba247af09b880bf32283466852d2f"}, {"bike_id": "f094081b116aa83e22133b764fa5a90e", "type": "electric_scooter", "is_disabled": 0, "lat": 38.86971366666667, "rental_uris": {"ios": "https://dc.lft.to/lastmile_qr_scan", "android": "https://dc.lft.to/lastmile_qr_scan"}, "is_reserved": 0, "fusion_lon": 0.0, "fusion_lat": 0.0, "lon": -76.9817835, "name": "f094081b116aa83e22133b764fa5a90e"}, {"bike_id": "384dea57fe9e7430ee63143f18479865", "type": "electric_scooter", "is_disabled": 0, "lat": 38.911083833333336, "rental_uris": {"ios": "https://dc.lft.to/lastmile_qr_scan", "android": "https://dc.lft.to/lastmile_qr_scan"}, "is_reserved": 0, "fusion_lon": 0.0, "fusion_lat": 0.0, "lon": -77.0386985, "name": "384dea57fe9e7430ee63143f18479865"}, {"bike_id": "b40b994d97dc2562fced7ee941b9a54a", "type": "electric_scooter", "is_disabled": 0, "lat": 38.90371016666667, "rental_uris": {"ios": "https://dc.lft.to/lastmile_qr_scan", "android": "https://dc.lft.to/lastmile_qr_scan"}, "is_reserved": 0, "fusion_lon": 0.0, "fusion_lat": 0.0, "lon": -77.048312, "name": "b40b994d97dc2562fced7ee941b9a54a"}, {"bike_id": "e7a8ad85e35bb5a86be808d9b0493904", "type": "electric_scooter", "is_disabled": 0, "lat": 38.874748833333335, "rental_uris": {"ios": "https://dc.lft.to/lastmile_qr_scan", "android": "https://dc.lft.to/lastmile_qr_scan"}, "is_reserved": 0, "fusion_lon": 0.0, "fusion_lat": 0.0, "lon": -77.01068266666667, "name": "e7a8ad85e35bb5a86be808d9b0493904"}, {"bike_id": "590f8af03810276d0b1645646145fe27", "type": "electric_scooter", "is_disabled": 0, "lat": 38.927434833333336, "rental_uris": {"ios": "https://dc.lft.to/lastmile_qr_scan", "android": "https://dc.lft.to/lastmile_qr_scan"}, "is_reserved": 0, "fusion_lon": 0.0, "fusion_lat": 0.0, "lon": -77.02263816666667, "name": "590f8af03810276d0b1645646145fe27"}, {"bike_id": "ae913e50bd20425312601e7283de78b0", "type": "electric_scooter", "is_disabled": 0, "lat": 38.904987166666665, "rental_uris": {"ios": "https://dc.lft.to/lastmile_qr_scan", "android": "https://dc.lft.to/lastmile_qr_scan"}, "is_reserved": 0, "fusion_lon": 0.0, "fusion_lat": 0.0, "lon": -76.99956233333333, "name": "ae913e50bd20425312601e7283de78b0"}, {"bike_id": "e6d460b538ad1cd584bf5247257f14b6", "type": "electric_scooter", "is_disabled": 0, "lat": 38.89885366666667, "rental_uris": {"ios": "https://dc.lft.to/lastmile_qr_scan", "android": "https://dc.lft.to/lastmile_qr_scan"}, "is_reserved": 0, "fusion_lon": 0.0, "fusion_lat": 0.0, "lon": -76.93178216666666, "name": "e6d460b538ad1cd584bf5247257f14b6"}, {"bike_id": "00d1f5587fd22fab9861fe63ab49732d", "type": "electric_bike", "is_disabled": 0, "lat": 38.878794, "rental_uris": {"ios": "https://dc.lft.to/lastmile_qr_scan", "android": "https://dc.lft.to/lastmile_qr_scan"}, "is_reserved": 0, "fusion_lon": 0.0, "fusion_lat": 0.0, "lon": -77.09610683333334, "name": "00d1f5587fd22fab9861fe63ab49732d"}, {"bike_id": "d6433125edc816ab34c1880ddf642fc1", "type": "electric_scooter", "is_disabled": 0, "lat": 38.93326716666667, "rental_uris": {"ios": "https://dc.lft.to/lastmile_qr_scan", "android": "https://dc.lft.to/lastmile_qr_scan"}, "is_reserved": 0, "fusion_lon": 0.0, "fusion_lat": 0.0, "lon": -77.029256, "name": "d6433125edc816ab34c1880ddf642fc1"}, {"bike_id": "799ac7a70672f3df9c62ad2583254a9c", "type": "electric_scooter", "is_disabled": 0, "lat": 38.902697, "rental_uris": {"ios": "https://dc.lft.to/lastmile_qr_scan", "android": "https://dc.lft.to/lastmile_qr_scan"}, "is_reserved": 0, "fusion_lon": 0.0, "fusion_lat": 0.0, "lon": -77.017705, "name": "799ac7a70672f3df9c62ad2583254a9c"}, {"bike_id": "b6bed08e96e1f9b263ed8c93271d0ceb", "type": "electric_scooter", "is_disabled": 0, "lat": 38.90291416666667, "rental_uris": {"ios": "https://dc.lft.to/lastmile_qr_scan", "android": "https://dc.lft.to/lastmile_qr_scan"}, "is_reserved": 0, "fusion_lon": 0.0, "fusion_lat": 0.0, "lon": -77.02876716666667, "name": "b6bed08e96e1f9b263ed8c93271d0ceb"}, {"bike_id": "3fa5f6330a0c9eee6acd02df98c4b83f", "type": "electric_scooter", "is_disabled": 0, "lat": 38.90749266666667, "rental_uris": {"ios": "https://dc.lft.to/lastmile_qr_scan", "android": "https://dc.lft.to/lastmile_qr_scan"}, "is_reserved": 0, "fusion_lon": 0.0, "fusion_lat": 0.0, "lon": -77.0319925, "name": "3fa5f6330a0c9eee6acd02df98c4b83f"}, {"bike_id": "ca822c20ff58c0f5ffe38139f6a97035", "type": "electric_scooter", "is_disabled": 0, "lat": 38.907264166666664, "rental_uris": {"ios": "https://dc.lft.to/lastmile_qr_scan", "android": "https://dc.lft.to/lastmile_qr_scan"}, "is_reserved": 0, "fusion_lon": 0.0, "fusion_lat": 0.0, "lon": -77.04150333333334, "name": "ca822c20ff58c0f5ffe38139f6a97035"}, {"bike_id": "b41b669d8f6b4677cfadf03003942523", "type": "electric_scooter", "is_disabled": 0, "lat": 38.929636, "rental_uris": {"ios": "https://dc.lft.to/lastmile_qr_scan", "android": "https://dc.lft.to/lastmile_qr_scan"}, "is_reserved": 0, "fusion_lon": 0.0, "fusion_lat": 0.0, "lon": -77.02790133333333, "name": "b41b669d8f6b4677cfadf03003942523"}, {"bike_id": "aa1700fc01ffe90738f836ad8007d54e", "type": "electric_scooter", "is_disabled": 0, "lat": 38.895342666666664, "rental_uris": {"ios": "https://dc.lft.to/lastmile_qr_scan", "android": "https://dc.lft.to/lastmile_qr_scan"}, "is_reserved": 0, "fusion_lon": 0.0, "fusion_lat": 0.0, "lon": -77.02816216666666, "name": "aa1700fc01ffe90738f836ad8007d54e"}, {"bike_id": "34c34e553024c3e9cace7adfee53b6ef", "type": "electric_scooter", "is_disabled": 0, "lat": 38.885219666666664, "rental_uris": {"ios": "https://dc.lft.to/lastmile_qr_scan", "android": "https://dc.lft.to/lastmile_qr_scan"}, "is_reserved": 0, "fusion_lon": 0.0, "fusion_lat": 0.0, "lon": -76.977099, "name": "34c34e553024c3e9cace7adfee53b6ef"}, {"bike_id": "b2f9002dba65e4cf2ab401437760e5db", "type": "electric_scooter", "is_disabled": 0, "lat": 38.91330633333333, "rental_uris": {"ios": "https://dc.lft.to/lastmile_qr_scan", "android": "https://dc.lft.to/lastmile_qr_scan"}, "is_reserved": 0, "fusion_lon": 0.0, "fusion_lat": 0.0, "lon": -77.031858, "name": "b2f9002dba65e4cf2ab401437760e5db"}, {"bike_id": "f1ce4511ef50bde36086a95c5fe56740", "type": "electric_scooter", "is_disabled": 0, "lat": 38.93148266666667, "rental_uris": {"ios": "https://dc.lft.to/lastmile_qr_scan", "android": "https://dc.lft.to/lastmile_qr_scan"}, "is_reserved": 0, "fusion_lon": 0.0, "fusion_lat": 0.0, "lon": -77.03344933333334, "name": "f1ce4511ef50bde36086a95c5fe56740"}, {"bike_id": "d081e29a42df85be5d07672fc0667f3a", "type": "electric_scooter", "is_disabled": 0, "lat": 38.920521666666666, "rental_uris": {"ios": "https://dc.lft.to/lastmile_qr_scan", "android": "https://dc.lft.to/lastmile_qr_scan"}, "is_reserved": 0, "fusion_lon": 0.0, "fusion_lat": 0.0, "lon": -77.04183833333333, "name": "d081e29a42df85be5d07672fc0667f3a"}, {"bike_id": "e3b6627ece95730f02fcb9846fd3ebee", "type": "electric_scooter", "is_disabled": 0, "lat": 38.909696, "rental_uris": {"ios": "https://dc.lft.to/lastmile_qr_scan", "android": "https://dc.lft.to/lastmile_qr_scan"}, "is_reserved": 0, "fusion_lon": 0.0, "fusion_lat": 0.0, "lon": -77.03446533333333, "name": "e3b6627ece95730f02fcb9846fd3ebee"}, {"bike_id": "e2629b8c82c28211627587ac357483fb", "type": "electric_scooter", "is_disabled": 0, "lat": 38.91418933333333, "rental_uris": {"ios": "https://dc.lft.to/lastmile_qr_scan", "android": "https://dc.lft.to/lastmile_qr_scan"}, "is_reserved": 0, "fusion_lon": 0.0, "fusion_lat": 0.0, "lon": -77.019852, "name": "e2629b8c82c28211627587ac357483fb"}, {"bike_id": "4edc5fc9d3ffabe36f68f23782a7f5d1", "type": "electric_scooter", "is_disabled": 0, "lat": 38.8950055, "rental_uris": {"ios": "https://dc.lft.to/lastmile_qr_scan", "android": "https://dc.lft.to/lastmile_qr_scan"}, "is_reserved": 0, "fusion_lon": 0.0, "fusion_lat": 0.0, "lon": -77.02284483333334, "name": "4edc5fc9d3ffabe36f68f23782a7f5d1"}, {"bike_id": "bdff13ac90e73586d08323d39ea1f426", "type": "electric_scooter", "is_disabled": 0, "lat": 38.919966333333335, "rental_uris": {"ios": "https://dc.lft.to/lastmile_qr_scan", "android": "https://dc.lft.to/lastmile_qr_scan"}, "is_reserved": 0, "fusion_lon": 0.0, "fusion_lat": 0.0, "lon": -77.08195283333333, "name": "bdff13ac90e73586d08323d39ea1f426"}, {"bike_id": "38c523bd70320048bfdedac714e7a991", "type": "electric_scooter", "is_disabled": 0, "lat": 38.90222966666666, "rental_uris": {"ios": "https://dc.lft.to/lastmile_qr_scan", "android": "https://dc.lft.to/lastmile_qr_scan"}, "is_reserved": 0, "fusion_lon": 0.0, "fusion_lat": 0.0, "lon": -77.06037466666666, "name": "38c523bd70320048bfdedac714e7a991"}, {"bike_id": "ae515e28f31992f657cdc3f5db21a074", "type": "electric_scooter", "is_disabled": 0, "lat": 38.9082735, "rental_uris": {"ios": "https://dc.lft.to/lastmile_qr_scan", "android": "https://dc.lft.to/lastmile_qr_scan"}, "is_reserved": 0, "fusion_lon": 0.0, "fusion_lat": 0.0, "lon": -77.03193116666667, "name": "ae515e28f31992f657cdc3f5db21a074"}, {"bike_id": "4834070c8c39628655f2c96eeda67c4b", "type": "electric_scooter", "is_disabled": 0, "lat": 38.9160565, "rental_uris": {"ios": "https://dc.lft.to/lastmile_qr_scan", "android": "https://dc.lft.to/lastmile_qr_scan"}, "is_reserved": 0, "fusion_lon": 0.0, "fusion_lat": 0.0, "lon": -77.0240445, "name": "4834070c8c39628655f2c96eeda67c4b"}, {"bike_id": "86c81a9a0a77cb22a6e547ce1dfdc92a", "type": "electric_scooter", "is_disabled": 0, "lat": 38.890127166666666, "rental_uris": {"ios": "https://dc.lft.to/lastmile_qr_scan", "android": "https://dc.lft.to/lastmile_qr_scan"}, "is_reserved": 0, "fusion_lon": 0.0, "fusion_lat": 0.0, "lon": -76.937404, "name": "86c81a9a0a77cb22a6e547ce1dfdc92a"}, {"bike_id": "c1e44f023b1d85bc4ccae14d99666691", "type": "electric_scooter", "is_disabled": 0, "lat": 38.902425666666666, "rental_uris": {"ios": "https://dc.lft.to/lastmile_qr_scan", "android": "https://dc.lft.to/lastmile_qr_scan"}, "is_reserved": 0, "fusion_lon": 0.0, "fusion_lat": 0.0, "lon": -77.0363835, "name": "c1e44f023b1d85bc4ccae14d99666691"}, {"bike_id": "ed581a4edfd8b3fcffc41a7dcfa25699", "type": "electric_scooter", "is_disabled": 0, "lat": 38.871151, "rental_uris": {"ios": "https://dc.lft.to/lastmile_qr_scan", "android": "https://dc.lft.to/lastmile_qr_scan"}, "is_reserved": 0, "fusion_lon": 0.0, "fusion_lat": 0.0, "lon": -76.98244983333333, "name": "ed581a4edfd8b3fcffc41a7dcfa25699"}, {"bike_id": "8c9fcda09cd9c3a4f28b3d85d54ff7c1", "type": "electric_scooter", "is_disabled": 0, "lat": 38.857133, "rental_uris": {"ios": "https://dc.lft.to/lastmile_qr_scan", "android": "https://dc.lft.to/lastmile_qr_scan"}, "is_reserved": 0, "fusion_lon": 0.0, "fusion_lat": 0.0, "lon": -76.989794, "name": "8c9fcda09cd9c3a4f28b3d85d54ff7c1"}, {"bike_id": "c6c20c4544a89670bf34c92ed2ff6a64", "type": "electric_scooter", "is_disabled": 0, "lat": 38.93244283333333, "rental_uris": {"ios": "https://dc.lft.to/lastmile_qr_scan", "android": "https://dc.lft.to/lastmile_qr_scan"}, "is_reserved": 0, "fusion_lon": 0.0, "fusion_lat": 0.0, "lon": -77.03265116666667, "name": "c6c20c4544a89670bf34c92ed2ff6a64"}, {"bike_id": "30929d2bf658a709dbec315a4b4318e2", "type": "electric_scooter", "is_disabled": 0, "lat": 38.905582, "rental_uris": {"ios": "https://dc.lft.to/lastmile_qr_scan", "android": "https://dc.lft.to/lastmile_qr_scan"}, "is_reserved": 0, "fusion_lon": 0.0, "fusion_lat": 0.0, "lon": -77.022153, "name": "30929d2bf658a709dbec315a4b4318e2"}, {"bike_id": "838d059f0ac4e18b9bbb401bfc54ae29", "type": "electric_scooter", "is_disabled": 0, "lat": 38.90593783333333, "rental_uris": {"ios": "https://dc.lft.to/lastmile_qr_scan", "android": "https://dc.lft.to/lastmile_qr_scan"}, "is_reserved": 0, "fusion_lon": 0.0, "fusion_lat": 0.0, "lon": -77.057104, "name": "838d059f0ac4e18b9bbb401bfc54ae29"}, {"bike_id": "180102f6b3061ebf26f1d326dd8bc404", "type": "electric_scooter", "is_disabled": 0, "lat": 38.9269115, "rental_uris": {"ios": "https://dc.lft.to/lastmile_qr_scan", "android": "https://dc.lft.to/lastmile_qr_scan"}, "is_reserved": 0, "fusion_lon": 0.0, "fusion_lat": 0.0, "lon": -77.0149215, "name": "180102f6b3061ebf26f1d326dd8bc404"}, {"bike_id": "8b9c44cec3adfa915564faf4d0508439", "type": "electric_scooter", "is_disabled": 0, "lat": 38.89609683333333, "rental_uris": {"ios": "https://dc.lft.to/lastmile_qr_scan", "android": "https://dc.lft.to/lastmile_qr_scan"}, "is_reserved": 0, "fusion_lon": 0.0, "fusion_lat": 0.0, "lon": -77.05038716666667, "name": "8b9c44cec3adfa915564faf4d0508439"}, {"bike_id": "acec88867513295739adfd300ed36903", "type": "electric_scooter", "is_disabled": 0, "lat": 38.911085166666666, "rental_uris": {"ios": "https://dc.lft.to/lastmile_qr_scan", "android": "https://dc.lft.to/lastmile_qr_scan"}, "is_reserved": 0, "fusion_lon": 0.0, "fusion_lat": 0.0, "lon": -77.044708, "name": "acec88867513295739adfd300ed36903"}, {"bike_id": "c3597ba83446c3a82308439eb48d2b21", "type": "electric_scooter", "is_disabled": 0, "lat": 38.905157833333334, "rental_uris": {"ios": "https://dc.lft.to/lastmile_qr_scan", "android": "https://dc.lft.to/lastmile_qr_scan"}, "is_reserved": 0, "fusion_lon": 0.0, "fusion_lat": 0.0, "lon": -77.049933, "name": "c3597ba83446c3a82308439eb48d2b21"}, {"bike_id": "f75b04dcb3f95672969a52a99991defb", "type": "electric_scooter", "is_disabled": 0, "lat": 38.901875, "rental_uris": {"ios": "https://dc.lft.to/lastmile_qr_scan", "android": "https://dc.lft.to/lastmile_qr_scan"}, "is_reserved": 0, "fusion_lon": 0.0, "fusion_lat": 0.0, "lon": -77.050434, "name": "f75b04dcb3f95672969a52a99991defb"}, {"bike_id": "0ae79fc0c6ae36a930ea81502495597a", "type": "electric_bike", "is_disabled": 0, "lat": 39.05785516666667, "rental_uris": {"ios": "https://dc.lft.to/lastmile_qr_scan", "android": "https://dc.lft.to/lastmile_qr_scan"}, "is_reserved": 0, "fusion_lon": 0.0, "fusion_lat": 0.0, "lon": -77.15018316666666, "name": "0ae79fc0c6ae36a930ea81502495597a"}, {"bike_id": "c09c568b18eb68fcce0cf7d812e4de3c", "type": "electric_bike", "is_disabled": 0, "lat": 38.8199285, "rental_uris": {"ios": "https://dc.lft.to/lastmile_qr_scan", "android": "https://dc.lft.to/lastmile_qr_scan"}, "is_reserved": 0, "fusion_lon": 0.0, "fusion_lat": 0.0, "lon": -76.998203, "name": "c09c568b18eb68fcce0cf7d812e4de3c"}, {"bike_id": "a8a477b4d86738e77efc13c216f6a61d", "type": "electric_scooter", "is_disabled": 0, "lat": 38.903605666666664, "rental_uris": {"ios": "https://dc.lft.to/lastmile_qr_scan", "android": "https://dc.lft.to/lastmile_qr_scan"}, "is_reserved": 0, "fusion_lon": 0.0, "fusion_lat": 0.0, "lon": -77.032051, "name": "a8a477b4d86738e77efc13c216f6a61d"}, {"bike_id": "260028dcc1879fa89c95c587099adcab", "type": "electric_scooter", "is_disabled": 0, "lat": 38.95576833333333, "rental_uris": {"ios": "https://dc.lft.to/lastmile_qr_scan", "android": "https://dc.lft.to/lastmile_qr_scan"}, "is_reserved": 0, "fusion_lon": 0.0, "fusion_lat": 0.0, "lon": -77.08038533333334, "name": "260028dcc1879fa89c95c587099adcab"}, {"bike_id": "b6518d54b2e1ef929490c8736dbe2980", "type": "electric_scooter", "is_disabled": 0, "lat": 38.90784633333333, "rental_uris": {"ios": "https://dc.lft.to/lastmile_qr_scan", "android": "https://dc.lft.to/lastmile_qr_scan"}, "is_reserved": 0, "fusion_lon": 0.0, "fusion_lat": 0.0, "lon": -77.04344016666667, "name": "b6518d54b2e1ef929490c8736dbe2980"}, {"bike_id": "3eecf5d985c68ac1e71e281442d103ee", "type": "electric_scooter", "is_disabled": 0, "lat": 38.920719, "rental_uris": {"ios": "https://dc.lft.to/lastmile_qr_scan", "android": "https://dc.lft.to/lastmile_qr_scan"}, "is_reserved": 0, "fusion_lon": 0.0, "fusion_lat": 0.0, "lon": -77.022175, "name": "3eecf5d985c68ac1e71e281442d103ee"}, {"bike_id": "80ec3352e5e6c7167ced2d0b8b76ac2c", "type": "electric_scooter", "is_disabled": 0, "lat": 38.897443333333335, "rental_uris": {"ios": "https://dc.lft.to/lastmile_qr_scan", "android": "https://dc.lft.to/lastmile_qr_scan"}, "is_reserved": 0, "fusion_lon": 0.0, "fusion_lat": 0.0, "lon": -77.02186233333333, "name": "80ec3352e5e6c7167ced2d0b8b76ac2c"}, {"bike_id": "981a09ddb6d68a0d7838158343377122", "type": "electric_bike", "is_disabled": 0, "lat": 38.993117166666664, "rental_uris": {"ios": "https://dc.lft.to/lastmile_qr_scan", "android": "https://dc.lft.to/lastmile_qr_scan"}, "is_reserved": 0, "fusion_lon": 0.0, "fusion_lat": 0.0, "lon": -77.02314433333333, "name": "981a09ddb6d68a0d7838158343377122"}, {"bike_id": "bcfb04cabd4171c1c1b809d22628c45c", "type": "electric_scooter", "is_disabled": 0, "lat": 38.92328283333333, "rental_uris": {"ios": "https://dc.lft.to/lastmile_qr_scan", "android": "https://dc.lft.to/lastmile_qr_scan"}, "is_reserved": 0, "fusion_lon": 0.0, "fusion_lat": 0.0, "lon": -77.0350705, "name": "bcfb04cabd4171c1c1b809d22628c45c"}, {"bike_id": "99e57c6617cc455a10f15ce115d0bc8b", "type": "electric_scooter", "is_disabled": 0, "lat": 38.92045566666667, "rental_uris": {"ios": "https://dc.lft.to/lastmile_qr_scan", "android": "https://dc.lft.to/lastmile_qr_scan"}, "is_reserved": 0, "fusion_lon": 0.0, "fusion_lat": 0.0, "lon": -77.025767, "name": "99e57c6617cc455a10f15ce115d0bc8b"}, {"bike_id": "8a9957c359891e9fa7dc268880576d7b", "type": "electric_bike", "is_disabled": 0, "lat": 38.93522566666667, "rental_uris": {"ios": "https://dc.lft.to/lastmile_qr_scan", "android": "https://dc.lft.to/lastmile_qr_scan"}, "is_reserved": 0, "fusion_lon": 0.0, "fusion_lat": 0.0, "lon": -76.96444333333334, "name": "8a9957c359891e9fa7dc268880576d7b"}, {"bike_id": "68cb4b3cf7683b038aeb879cdec2c610", "type": "electric_scooter", "is_disabled": 0, "lat": 38.9176995, "rental_uris": {"ios": "https://dc.lft.to/lastmile_qr_scan", "android": "https://dc.lft.to/lastmile_qr_scan"}, "is_reserved": 0, "fusion_lon": 0.0, "fusion_lat": 0.0, "lon": -77.04769533333334, "name": "68cb4b3cf7683b038aeb879cdec2c610"}, {"bike_id": "597544e1ebc0b60cf4308e7f73bd25e6", "type": "electric_scooter", "is_disabled": 0, "lat": 38.90285983333333, "rental_uris": {"ios": "https://dc.lft.to/lastmile_qr_scan", "android": "https://dc.lft.to/lastmile_qr_scan"}, "is_reserved": 0, "fusion_lon": 0.0, "fusion_lat": 0.0, "lon": -77.0173155, "name": "597544e1ebc0b60cf4308e7f73bd25e6"}, {"bike_id": "0f827521efcf0dfabd737700e865a522", "type": "electric_scooter", "is_disabled": 0, "lat": 38.92486983333333, "rental_uris": {"ios": "https://dc.lft.to/lastmile_qr_scan", "android": "https://dc.lft.to/lastmile_qr_scan"}, "is_reserved": 0, "fusion_lon": 0.0, "fusion_lat": 0.0, "lon": -77.03187016666666, "name": "0f827521efcf0dfabd737700e865a522"}, {"bike_id": "1e4ee7605eaf32310cec5745f5eff437", "type": "electric_scooter", "is_disabled": 0, "lat": 38.937094, "rental_uris": {"ios": "https://dc.lft.to/lastmile_qr_scan", "android": "https://dc.lft.to/lastmile_qr_scan"}, "is_reserved": 0, "fusion_lon": 0.0, "fusion_lat": 0.0, "lon": -77.036322, "name": "1e4ee7605eaf32310cec5745f5eff437"}, {"bike_id": "dcd6f70c2d39769005ab07994514010e", "type": "electric_scooter", "is_disabled": 0, "lat": 38.902352666666665, "rental_uris": {"ios": "https://dc.lft.to/lastmile_qr_scan", "android": "https://dc.lft.to/lastmile_qr_scan"}, "is_reserved": 0, "fusion_lon": 0.0, "fusion_lat": 0.0, "lon": -77.02367683333334, "name": "dcd6f70c2d39769005ab07994514010e"}, {"bike_id": "591cd64484e619f773011cd26fe13483", "type": "electric_scooter", "is_disabled": 0, "lat": 38.903214166666665, "rental_uris": {"ios": "https://dc.lft.to/lastmile_qr_scan", "android": "https://dc.lft.to/lastmile_qr_scan"}, "is_reserved": 0, "fusion_lon": 0.0, "fusion_lat": 0.0, "lon": -76.99130966666667, "name": "591cd64484e619f773011cd26fe13483"}, {"bike_id": "44412a0b047bdde281b179e682a10f79", "type": "electric_scooter", "is_disabled": 0, "lat": 38.917053, "rental_uris": {"ios": "https://dc.lft.to/lastmile_qr_scan", "android": "https://dc.lft.to/lastmile_qr_scan"}, "is_reserved": 0, "fusion_lon": 0.0, "fusion_lat": 0.0, "lon": -77.02662466666666, "name": "44412a0b047bdde281b179e682a10f79"}, {"bike_id": "8810ba1c62a9370c697d29a0e641103c", "type": "electric_scooter", "is_disabled": 0, "lat": 38.89222183333333, "rental_uris": {"ios": "https://dc.lft.to/lastmile_qr_scan", "android": "https://dc.lft.to/lastmile_qr_scan"}, "is_reserved": 0, "fusion_lon": 0.0, "fusion_lat": 0.0, "lon": -77.03027516666667, "name": "8810ba1c62a9370c697d29a0e641103c"}, {"bike_id": "f849202460d09e7b7d8d33aa9e79deac", "type": "electric_scooter", "is_disabled": 0, "lat": 38.9163525, "rental_uris": {"ios": "https://dc.lft.to/lastmile_qr_scan", "android": "https://dc.lft.to/lastmile_qr_scan"}, "is_reserved": 0, "fusion_lon": 0.0, "fusion_lat": 0.0, "lon": -77.03211366666666, "name": "f849202460d09e7b7d8d33aa9e79deac"}, {"bike_id": "207f3b49b0e474195c4dd304acdf3723", "type": "electric_scooter", "is_disabled": 0, "lat": 38.886545, "rental_uris": {"ios": "https://dc.lft.to/lastmile_qr_scan", "android": "https://dc.lft.to/lastmile_qr_scan"}, "is_reserved": 0, "fusion_lon": 0.0, "fusion_lat": 0.0, "lon": -77.0282265, "name": "207f3b49b0e474195c4dd304acdf3723"}, {"bike_id": "5031e11f52f02b0a3ab61ed348ad0b98", "type": "electric_scooter", "is_disabled": 0, "lat": 38.863803, "rental_uris": {"ios": "https://dc.lft.to/lastmile_qr_scan", "android": "https://dc.lft.to/lastmile_qr_scan"}, "is_reserved": 0, "fusion_lon": 0.0, "fusion_lat": 0.0, "lon": -76.9906475, "name": "5031e11f52f02b0a3ab61ed348ad0b98"}, {"bike_id": "e9822bfd49df5dc5f436f16d20fe5495", "type": "electric_bike", "is_disabled": 0, "lat": 38.809756166666666, "rental_uris": {"ios": "https://dc.lft.to/lastmile_qr_scan", "android": "https://dc.lft.to/lastmile_qr_scan"}, "is_reserved": 0, "fusion_lon": 0.0, "fusion_lat": 0.0, "lon": -77.08629066666667, "name": "e9822bfd49df5dc5f436f16d20fe5495"}, {"bike_id": "7428dffda945788d9bff16f8578be4be", "type": "electric_scooter", "is_disabled": 0, "lat": 38.923819333333334, "rental_uris": {"ios": "https://dc.lft.to/lastmile_qr_scan", "android": "https://dc.lft.to/lastmile_qr_scan"}, "is_reserved": 0, "fusion_lon": 0.0, "fusion_lat": 0.0, "lon": -77.03100216666667, "name": "7428dffda945788d9bff16f8578be4be"}, {"bike_id": "b45820a887867268cc69c36510b75c23", "type": "electric_scooter", "is_disabled": 0, "lat": 38.88187383333333, "rental_uris": {"ios": "https://dc.lft.to/lastmile_qr_scan", "android": "https://dc.lft.to/lastmile_qr_scan"}, "is_reserved": 0, "fusion_lon": 0.0, "fusion_lat": 0.0, "lon": -77.02085533333333, "name": "b45820a887867268cc69c36510b75c23"}, {"bike_id": "363c2a3056eae78629425f890bf76d28", "type": "electric_scooter", "is_disabled": 0, "lat": 38.90668516666667, "rental_uris": {"ios": "https://dc.lft.to/lastmile_qr_scan", "android": "https://dc.lft.to/lastmile_qr_scan"}, "is_reserved": 0, "fusion_lon": 0.0, "fusion_lat": 0.0, "lon": -77.02708383333334, "name": "363c2a3056eae78629425f890bf76d28"}, {"bike_id": "86b0db5cddaa66fee6bf72ff3400727c", "type": "electric_scooter", "is_disabled": 0, "lat": 38.90121466666667, "rental_uris": {"ios": "https://dc.lft.to/lastmile_qr_scan", "android": "https://dc.lft.to/lastmile_qr_scan"}, "is_reserved": 0, "fusion_lon": 0.0, "fusion_lat": 0.0, "lon": -77.0418385, "name": "86b0db5cddaa66fee6bf72ff3400727c"}, {"bike_id": "c37cd1628bce8637f70f11116b16b068", "type": "electric_scooter", "is_disabled": 0, "lat": 38.930788666666665, "rental_uris": {"ios": "https://dc.lft.to/lastmile_qr_scan", "android": "https://dc.lft.to/lastmile_qr_scan"}, "is_reserved": 0, "fusion_lon": 0.0, "fusion_lat": 0.0, "lon": -77.02153616666666, "name": "c37cd1628bce8637f70f11116b16b068"}, {"bike_id": "f1cb13aef75c61b815db8e8ad9a46d66", "type": "electric_scooter", "is_disabled": 0, "lat": 38.901701333333335, "rental_uris": {"ios": "https://dc.lft.to/lastmile_qr_scan", "android": "https://dc.lft.to/lastmile_qr_scan"}, "is_reserved": 0, "fusion_lon": 0.0, "fusion_lat": 0.0, "lon": -76.92658266666666, "name": "f1cb13aef75c61b815db8e8ad9a46d66"}, {"bike_id": "059cbbb9e84631c23c4cae7f327caaee", "type": "electric_bike", "is_disabled": 0, "lat": 38.91844116666667, "rental_uris": {"ios": "https://dc.lft.to/lastmile_qr_scan", "android": "https://dc.lft.to/lastmile_qr_scan"}, "is_reserved": 0, "fusion_lon": 0.0, "fusion_lat": 0.0, "lon": -77.06982333333333, "name": "059cbbb9e84631c23c4cae7f327caaee"}, {"bike_id": "862ea01165ff6135e0c87a8e2f8430fb", "type": "electric_scooter", "is_disabled": 0, "lat": 38.900296, "rental_uris": {"ios": "https://dc.lft.to/lastmile_qr_scan", "android": "https://dc.lft.to/lastmile_qr_scan"}, "is_reserved": 0, "fusion_lon": 0.0, "fusion_lat": 0.0, "lon": -77.01183116666667, "name": "862ea01165ff6135e0c87a8e2f8430fb"}, {"bike_id": "5f606227ac831f0ce9e61976b95063bf", "type": "electric_scooter", "is_disabled": 0, "lat": 38.900936333333334, "rental_uris": {"ios": "https://dc.lft.to/lastmile_qr_scan", "android": "https://dc.lft.to/lastmile_qr_scan"}, "is_reserved": 0, "fusion_lon": 0.0, "fusion_lat": 0.0, "lon": -77.018361, "name": "5f606227ac831f0ce9e61976b95063bf"}, {"bike_id": "7b7feaf33a32579b8116b0b3699c6241", "type": "electric_scooter", "is_disabled": 0, "lat": 38.91529666666667, "rental_uris": {"ios": "https://dc.lft.to/lastmile_qr_scan", "android": "https://dc.lft.to/lastmile_qr_scan"}, "is_reserved": 0, "fusion_lon": 0.0, "fusion_lat": 0.0, "lon": -77.01978166666666, "name": "7b7feaf33a32579b8116b0b3699c6241"}, {"bike_id": "0f1a04bbe8f5d62ed71b1ea6750793b3", "type": "electric_scooter", "is_disabled": 0, "lat": 38.9021265, "rental_uris": {"ios": "https://dc.lft.to/lastmile_qr_scan", "android": "https://dc.lft.to/lastmile_qr_scan"}, "is_reserved": 0, "fusion_lon": 0.0, "fusion_lat": 0.0, "lon": -77.0236835, "name": "0f1a04bbe8f5d62ed71b1ea6750793b3"}, {"bike_id": "f82030213f77a8fafcc4334bcae6fdd0", "type": "electric_scooter", "is_disabled": 0, "lat": 38.896043666666664, "rental_uris": {"ios": "https://dc.lft.to/lastmile_qr_scan", "android": "https://dc.lft.to/lastmile_qr_scan"}, "is_reserved": 0, "fusion_lon": 0.0, "fusion_lat": 0.0, "lon": -77.0263735, "name": "f82030213f77a8fafcc4334bcae6fdd0"}, {"bike_id": "34a04e31431cad0e82e22b6f1dcab590", "type": "electric_scooter", "is_disabled": 0, "lat": 38.901560333333336, "rental_uris": {"ios": "https://dc.lft.to/lastmile_qr_scan", "android": "https://dc.lft.to/lastmile_qr_scan"}, "is_reserved": 0, "fusion_lon": 0.0, "fusion_lat": 0.0, "lon": -77.02387883333333, "name": "34a04e31431cad0e82e22b6f1dcab590"}, {"bike_id": "1e84e3788a88e5061fdef2e771901511", "type": "electric_scooter", "is_disabled": 0, "lat": 38.921691833333334, "rental_uris": {"ios": "https://dc.lft.to/lastmile_qr_scan", "android": "https://dc.lft.to/lastmile_qr_scan"}, "is_reserved": 0, "fusion_lon": 0.0, "fusion_lat": 0.0, "lon": -77.03379933333333, "name": "1e84e3788a88e5061fdef2e771901511"}, {"bike_id": "26463270a4b40507b44b36583c3ddbba", "type": "electric_scooter", "is_disabled": 0, "lat": 38.9052355, "rental_uris": {"ios": "https://dc.lft.to/lastmile_qr_scan", "android": "https://dc.lft.to/lastmile_qr_scan"}, "is_reserved": 0, "fusion_lon": 0.0, "fusion_lat": 0.0, "lon": -77.05987383333333, "name": "26463270a4b40507b44b36583c3ddbba"}, {"bike_id": "28d824d1e10b4048e64a56786f281663", "type": "electric_scooter", "is_disabled": 0, "lat": 38.9140135, "rental_uris": {"ios": "https://dc.lft.to/lastmile_qr_scan", "android": "https://dc.lft.to/lastmile_qr_scan"}, "is_reserved": 0, "fusion_lon": 0.0, "fusion_lat": 0.0, "lon": -77.032158, "name": "28d824d1e10b4048e64a56786f281663"}, {"bike_id": "99b050eb3924ed1647188d7f8593ad31", "type": "electric_scooter", "is_disabled": 0, "lat": 38.9156555, "rental_uris": {"ios": "https://dc.lft.to/lastmile_qr_scan", "android": "https://dc.lft.to/lastmile_qr_scan"}, "is_reserved": 0, "fusion_lon": 0.0, "fusion_lat": 0.0, "lon": -77.03832516666667, "name": "99b050eb3924ed1647188d7f8593ad31"}, {"bike_id": "1a51a01a88cdba5d167ed4f0a876a9f3", "type": "electric_scooter", "is_disabled": 0, "lat": 38.89200483333333, "rental_uris": {"ios": "https://dc.lft.to/lastmile_qr_scan", "android": "https://dc.lft.to/lastmile_qr_scan"}, "is_reserved": 0, "fusion_lon": 0.0, "fusion_lat": 0.0, "lon": -77.0240265, "name": "1a51a01a88cdba5d167ed4f0a876a9f3"}, {"bike_id": "d14096677249652a9877303b0759ca5d", "type": "electric_scooter", "is_disabled": 0, "lat": 38.90144733333333, "rental_uris": {"ios": "https://dc.lft.to/lastmile_qr_scan", "android": "https://dc.lft.to/lastmile_qr_scan"}, "is_reserved": 0, "fusion_lon": 0.0, "fusion_lat": 0.0, "lon": -76.930916, "name": "d14096677249652a9877303b0759ca5d"}, {"bike_id": "7afa7231973ccaee0918a4c6a491edd0", "type": "electric_scooter", "is_disabled": 0, "lat": 38.904104833333335, "rental_uris": {"ios": "https://dc.lft.to/lastmile_qr_scan", "android": "https://dc.lft.to/lastmile_qr_scan"}, "is_reserved": 0, "fusion_lon": 0.0, "fusion_lat": 0.0, "lon": -76.97332833333333, "name": "7afa7231973ccaee0918a4c6a491edd0"}, {"bike_id": "c09143ccab57750cd5b019018ae9aa0d", "type": "electric_scooter", "is_disabled": 0, "lat": 38.89916016666667, "rental_uris": {"ios": "https://dc.lft.to/lastmile_qr_scan", "android": "https://dc.lft.to/lastmile_qr_scan"}, "is_reserved": 0, "fusion_lon": 0.0, "fusion_lat": 0.0, "lon": -76.93366733333333, "name": "c09143ccab57750cd5b019018ae9aa0d"}, {"bike_id": "d00b7e8df4e096377bd71fe02758f594", "type": "electric_scooter", "is_disabled": 0, "lat": 38.892195666666666, "rental_uris": {"ios": "https://dc.lft.to/lastmile_qr_scan", "android": "https://dc.lft.to/lastmile_qr_scan"}, "is_reserved": 0, "fusion_lon": 0.0, "fusion_lat": 0.0, "lon": -77.0321405, "name": "d00b7e8df4e096377bd71fe02758f594"}, {"bike_id": "e12050a2d4e3593d8e2e2958a182117d", "type": "electric_scooter", "is_disabled": 0, "lat": 38.9098465, "rental_uris": {"ios": "https://dc.lft.to/lastmile_qr_scan", "android": "https://dc.lft.to/lastmile_qr_scan"}, "is_reserved": 0, "fusion_lon": 0.0, "fusion_lat": 0.0, "lon": -77.02201516666666, "name": "e12050a2d4e3593d8e2e2958a182117d"}, {"bike_id": "0fa4a171138d9c3ccde56e58d2f9df55", "type": "electric_scooter", "is_disabled": 0, "lat": 38.905568833333334, "rental_uris": {"ios": "https://dc.lft.to/lastmile_qr_scan", "android": "https://dc.lft.to/lastmile_qr_scan"}, "is_reserved": 0, "fusion_lon": 0.0, "fusion_lat": 0.0, "lon": -77.0221455, "name": "0fa4a171138d9c3ccde56e58d2f9df55"}, {"bike_id": "b5e79a82cc277f15b595d451fd0d9931", "type": "electric_scooter", "is_disabled": 0, "lat": 38.9155145, "rental_uris": {"ios": "https://dc.lft.to/lastmile_qr_scan", "android": "https://dc.lft.to/lastmile_qr_scan"}, "is_reserved": 0, "fusion_lon": 0.0, "fusion_lat": 0.0, "lon": -77.0357115, "name": "b5e79a82cc277f15b595d451fd0d9931"}, {"bike_id": "69a9d73f6afbefc72ec0dd20983d65aa", "type": "electric_scooter", "is_disabled": 0, "lat": 38.892241166666665, "rental_uris": {"ios": "https://dc.lft.to/lastmile_qr_scan", "android": "https://dc.lft.to/lastmile_qr_scan"}, "is_reserved": 0, "fusion_lon": 0.0, "fusion_lat": 0.0, "lon": -77.03167683333334, "name": "69a9d73f6afbefc72ec0dd20983d65aa"}, {"bike_id": "667e486294c94f9a8509b4b699c064fb", "type": "electric_scooter", "is_disabled": 0, "lat": 38.91599683333333, "rental_uris": {"ios": "https://dc.lft.to/lastmile_qr_scan", "android": "https://dc.lft.to/lastmile_qr_scan"}, "is_reserved": 0, "fusion_lon": 0.0, "fusion_lat": 0.0, "lon": -77.046028, "name": "667e486294c94f9a8509b4b699c064fb"}, {"bike_id": "71243c47bae7156ae8c1f510ad859dd9", "type": "electric_scooter", "is_disabled": 0, "lat": 38.9353135, "rental_uris": {"ios": "https://dc.lft.to/lastmile_qr_scan", "android": "https://dc.lft.to/lastmile_qr_scan"}, "is_reserved": 0, "fusion_lon": 0.0, "fusion_lat": 0.0, "lon": -77.02353916666667, "name": "71243c47bae7156ae8c1f510ad859dd9"}, {"bike_id": "a62bcc251a3636f882011a58957810b5", "type": "electric_bike", "is_disabled": 0, "lat": 38.86338033333333, "rental_uris": {"ios": "https://dc.lft.to/lastmile_qr_scan", "android": "https://dc.lft.to/lastmile_qr_scan"}, "is_reserved": 0, "fusion_lon": 0.0, "fusion_lat": 0.0, "lon": -76.987243, "name": "a62bcc251a3636f882011a58957810b5"}, {"bike_id": "6a9e7b9bd95fb961db5af486f87118f3", "type": "electric_scooter", "is_disabled": 0, "lat": 38.897605666666664, "rental_uris": {"ios": "https://dc.lft.to/lastmile_qr_scan", "android": "https://dc.lft.to/lastmile_qr_scan"}, "is_reserved": 0, "fusion_lon": 0.0, "fusion_lat": 0.0, "lon": -77.02780633333333, "name": "6a9e7b9bd95fb961db5af486f87118f3"}, {"bike_id": "77defa4e6847326c9fe19088a3d26beb", "type": "electric_scooter", "is_disabled": 0, "lat": 38.936558, "rental_uris": {"ios": "https://dc.lft.to/lastmile_qr_scan", "android": "https://dc.lft.to/lastmile_qr_scan"}, "is_reserved": 0, "fusion_lon": 0.0, "fusion_lat": 0.0, "lon": -77.03351666666667, "name": "77defa4e6847326c9fe19088a3d26beb"}, {"bike_id": "2b72fe31250edf0e8a7a9b5d236cd04a", "type": "electric_scooter", "is_disabled": 0, "lat": 38.92597683333334, "rental_uris": {"ios": "https://dc.lft.to/lastmile_qr_scan", "android": "https://dc.lft.to/lastmile_qr_scan"}, "is_reserved": 0, "fusion_lon": 0.0, "fusion_lat": 0.0, "lon": -77.04197483333333, "name": "2b72fe31250edf0e8a7a9b5d236cd04a"}, {"bike_id": "b95040cc6f5737fe29272733181bb3c3", "type": "electric_scooter", "is_disabled": 0, "lat": 38.909803833333335, "rental_uris": {"ios": "https://dc.lft.to/lastmile_qr_scan", "android": "https://dc.lft.to/lastmile_qr_scan"}, "is_reserved": 0, "fusion_lon": 0.0, "fusion_lat": 0.0, "lon": -77.03446383333333, "name": "b95040cc6f5737fe29272733181bb3c3"}, {"bike_id": "7db463f9907f449036bada6a669797ad", "type": "electric_scooter", "is_disabled": 0, "lat": 38.9100065, "rental_uris": {"ios": "https://dc.lft.to/lastmile_qr_scan", "android": "https://dc.lft.to/lastmile_qr_scan"}, "is_reserved": 0, "fusion_lon": 0.0, "fusion_lat": 0.0, "lon": -77.04009216666667, "name": "7db463f9907f449036bada6a669797ad"}, {"bike_id": "0b2769e05c510cc925c2af2f9a1be71d", "type": "electric_scooter", "is_disabled": 0, "lat": 38.904418, "rental_uris": {"ios": "https://dc.lft.to/lastmile_qr_scan", "android": "https://dc.lft.to/lastmile_qr_scan"}, "is_reserved": 0, "fusion_lon": 0.0, "fusion_lat": 0.0, "lon": -76.98000483333334, "name": "0b2769e05c510cc925c2af2f9a1be71d"}, {"bike_id": "145adfb162276443f540d5921bad37fb", "type": "electric_scooter", "is_disabled": 0, "lat": 38.9179925, "rental_uris": {"ios": "https://dc.lft.to/lastmile_qr_scan", "android": "https://dc.lft.to/lastmile_qr_scan"}, "is_reserved": 0, "fusion_lon": 0.0, "fusion_lat": 0.0, "lon": -77.03438733333333, "name": "145adfb162276443f540d5921bad37fb"}, {"bike_id": "00fbfa6d51ae88235325abf930dac8c3", "type": "electric_scooter", "is_disabled": 0, "lat": 38.912603833333336, "rental_uris": {"ios": "https://dc.lft.to/lastmile_qr_scan", "android": "https://dc.lft.to/lastmile_qr_scan"}, "is_reserved": 0, "fusion_lon": 0.0, "fusion_lat": 0.0, "lon": -77.03141266666667, "name": "00fbfa6d51ae88235325abf930dac8c3"}, {"bike_id": "553eaf4c8716e066eb93baac64e45cd4", "type": "electric_scooter", "is_disabled": 0, "lat": 38.899128833333336, "rental_uris": {"ios": "https://dc.lft.to/lastmile_qr_scan", "android": "https://dc.lft.to/lastmile_qr_scan"}, "is_reserved": 0, "fusion_lon": 0.0, "fusion_lat": 0.0, "lon": -76.93363333333333, "name": "553eaf4c8716e066eb93baac64e45cd4"}, {"bike_id": "bc6538c0cc620cc05d98e35e86e77472", "type": "electric_scooter", "is_disabled": 0, "lat": 38.931911, "rental_uris": {"ios": "https://dc.lft.to/lastmile_qr_scan", "android": "https://dc.lft.to/lastmile_qr_scan"}, "is_reserved": 0, "fusion_lon": 0.0, "fusion_lat": 0.0, "lon": -77.0201785, "name": "bc6538c0cc620cc05d98e35e86e77472"}, {"bike_id": "7ca1118c1f120a20c46859c6e96557b3", "type": "electric_scooter", "is_disabled": 0, "lat": 38.9060785, "rental_uris": {"ios": "https://dc.lft.to/lastmile_qr_scan", "android": "https://dc.lft.to/lastmile_qr_scan"}, "is_reserved": 0, "fusion_lon": 0.0, "fusion_lat": 0.0, "lon": -77.00365433333333, "name": "7ca1118c1f120a20c46859c6e96557b3"}, {"bike_id": "436e196f951aca78831bb0c44e5fcf10", "type": "electric_scooter", "is_disabled": 0, "lat": 38.923297833333336, "rental_uris": {"ios": "https://dc.lft.to/lastmile_qr_scan", "android": "https://dc.lft.to/lastmile_qr_scan"}, "is_reserved": 0, "fusion_lon": 0.0, "fusion_lat": 0.0, "lon": -77.02965966666666, "name": "436e196f951aca78831bb0c44e5fcf10"}, {"bike_id": "36c10dfdce1893925db51ed9844fd7ae", "type": "electric_bike", "is_disabled": 0, "lat": 38.846058666666664, "rental_uris": {"ios": "https://dc.lft.to/lastmile_qr_scan", "android": "https://dc.lft.to/lastmile_qr_scan"}, "is_reserved": 0, "fusion_lon": 0.0, "fusion_lat": 0.0, "lon": -76.96912166666667, "name": "36c10dfdce1893925db51ed9844fd7ae"}, {"bike_id": "d720077dc2cd43556e80fd1002e9550b", "type": "electric_scooter", "is_disabled": 0, "lat": 38.904187666666665, "rental_uris": {"ios": "https://dc.lft.to/lastmile_qr_scan", "android": "https://dc.lft.to/lastmile_qr_scan"}, "is_reserved": 0, "fusion_lon": 0.0, "fusion_lat": 0.0, "lon": -76.97375283333334, "name": "d720077dc2cd43556e80fd1002e9550b"}, {"bike_id": "775b5a7517e9a5c201c9d3f0b781973e", "type": "electric_scooter", "is_disabled": 0, "lat": 38.8921475, "rental_uris": {"ios": "https://dc.lft.to/lastmile_qr_scan", "android": "https://dc.lft.to/lastmile_qr_scan"}, "is_reserved": 0, "fusion_lon": 0.0, "fusion_lat": 0.0, "lon": -77.02449333333334, "name": "775b5a7517e9a5c201c9d3f0b781973e"}, {"bike_id": "80219daefc000234d22c167c78a38c44", "type": "electric_scooter", "is_disabled": 0, "lat": 38.865653333333334, "rental_uris": {"ios": "https://dc.lft.to/lastmile_qr_scan", "android": "https://dc.lft.to/lastmile_qr_scan"}, "is_reserved": 0, "fusion_lon": 0.0, "fusion_lat": 0.0, "lon": -76.98216633333334, "name": "80219daefc000234d22c167c78a38c44"}, {"bike_id": "f21557a19c522eeed695ed45bf050f6b", "type": "electric_scooter", "is_disabled": 0, "lat": 38.9224925, "rental_uris": {"ios": "https://dc.lft.to/lastmile_qr_scan", "android": "https://dc.lft.to/lastmile_qr_scan"}, "is_reserved": 0, "fusion_lon": 0.0, "fusion_lat": 0.0, "lon": -77.03652966666667, "name": "f21557a19c522eeed695ed45bf050f6b"}, {"bike_id": "16e2b0cefabafaf7b047d499c711812b", "type": "electric_scooter", "is_disabled": 0, "lat": 38.91340016666667, "rental_uris": {"ios": "https://dc.lft.to/lastmile_qr_scan", "android": "https://dc.lft.to/lastmile_qr_scan"}, "is_reserved": 0, "fusion_lon": 0.0, "fusion_lat": 0.0, "lon": -77.03989716666666, "name": "16e2b0cefabafaf7b047d499c711812b"}, {"bike_id": "b943e5782efd5bdb5599bbad2a39210a", "type": "electric_scooter", "is_disabled": 0, "lat": 38.919535833333335, "rental_uris": {"ios": "https://dc.lft.to/lastmile_qr_scan", "android": "https://dc.lft.to/lastmile_qr_scan"}, "is_reserved": 0, "fusion_lon": 0.0, "fusion_lat": 0.0, "lon": -77.02504233333333, "name": "b943e5782efd5bdb5599bbad2a39210a"}, {"bike_id": "2b19eeb55e75e4fecc929d316a6debef", "type": "electric_scooter", "is_disabled": 0, "lat": 38.905787333333336, "rental_uris": {"ios": "https://dc.lft.to/lastmile_qr_scan", "android": "https://dc.lft.to/lastmile_qr_scan"}, "is_reserved": 0, "fusion_lon": 0.0, "fusion_lat": 0.0, "lon": -77.04187016666667, "name": "2b19eeb55e75e4fecc929d316a6debef"}, {"bike_id": "9e09f8e19275d503125e1561c2786dbf", "type": "electric_scooter", "is_disabled": 0, "lat": 38.899565, "rental_uris": {"ios": "https://dc.lft.to/lastmile_qr_scan", "android": "https://dc.lft.to/lastmile_qr_scan"}, "is_reserved": 0, "fusion_lon": 0.0, "fusion_lat": 0.0, "lon": -76.97534366666666, "name": "9e09f8e19275d503125e1561c2786dbf"}, {"bike_id": "c0a1129e645dccc4acfb5b3d9a29973e", "type": "electric_bike", "is_disabled": 0, "lat": 38.892056833333335, "rental_uris": {"ios": "https://dc.lft.to/lastmile_qr_scan", "android": "https://dc.lft.to/lastmile_qr_scan"}, "is_reserved": 0, "fusion_lon": 0.0, "fusion_lat": 0.0, "lon": -76.97644233333334, "name": "c0a1129e645dccc4acfb5b3d9a29973e"}, {"bike_id": "241995a16c49a261889f62f64dc3d3fb", "type": "electric_scooter", "is_disabled": 0, "lat": 38.926478833333334, "rental_uris": {"ios": "https://dc.lft.to/lastmile_qr_scan", "android": "https://dc.lft.to/lastmile_qr_scan"}, "is_reserved": 0, "fusion_lon": 0.0, "fusion_lat": 0.0, "lon": -77.02478566666667, "name": "241995a16c49a261889f62f64dc3d3fb"}, {"bike_id": "b465d64d949ceaa175d786d0349b97c3", "type": "electric_scooter", "is_disabled": 0, "lat": 38.92576916666667, "rental_uris": {"ios": "https://dc.lft.to/lastmile_qr_scan", "android": "https://dc.lft.to/lastmile_qr_scan"}, "is_reserved": 0, "fusion_lon": 0.0, "fusion_lat": 0.0, "lon": -77.05426316666667, "name": "b465d64d949ceaa175d786d0349b97c3"}, {"bike_id": "a4560fb88eeb9d4c9b6051dafe745a20", "type": "electric_scooter", "is_disabled": 0, "lat": 38.924473166666665, "rental_uris": {"ios": "https://dc.lft.to/lastmile_qr_scan", "android": "https://dc.lft.to/lastmile_qr_scan"}, "is_reserved": 0, "fusion_lon": 0.0, "fusion_lat": 0.0, "lon": -77.0241315, "name": "a4560fb88eeb9d4c9b6051dafe745a20"}, {"bike_id": "1479589be1dd5a2f908814e314e48aea", "type": "electric_scooter", "is_disabled": 0, "lat": 38.90972516666667, "rental_uris": {"ios": "https://dc.lft.to/lastmile_qr_scan", "android": "https://dc.lft.to/lastmile_qr_scan"}, "is_reserved": 0, "fusion_lon": 0.0, "fusion_lat": 0.0, "lon": -77.0238625, "name": "1479589be1dd5a2f908814e314e48aea"}, {"bike_id": "95a8c2fa9698ec7962029a178d584a7a", "type": "electric_scooter", "is_disabled": 0, "lat": 38.91566516666666, "rental_uris": {"ios": "https://dc.lft.to/lastmile_qr_scan", "android": "https://dc.lft.to/lastmile_qr_scan"}, "is_reserved": 0, "fusion_lon": 0.0, "fusion_lat": 0.0, "lon": -77.02285783333333, "name": "95a8c2fa9698ec7962029a178d584a7a"}, {"bike_id": "92cf6303dc6fdd69482596b349c3eb35", "type": "electric_scooter", "is_disabled": 0, "lat": 38.90169733333333, "rental_uris": {"ios": "https://dc.lft.to/lastmile_qr_scan", "android": "https://dc.lft.to/lastmile_qr_scan"}, "is_reserved": 0, "fusion_lon": 0.0, "fusion_lat": 0.0, "lon": -76.9844925, "name": "92cf6303dc6fdd69482596b349c3eb35"}, {"bike_id": "5e6481368c4fcf3c981a6ea4fa116ccb", "type": "electric_scooter", "is_disabled": 0, "lat": 38.897481666666664, "rental_uris": {"ios": "https://dc.lft.to/lastmile_qr_scan", "android": "https://dc.lft.to/lastmile_qr_scan"}, "is_reserved": 0, "fusion_lon": 0.0, "fusion_lat": 0.0, "lon": -77.04543366666667, "name": "5e6481368c4fcf3c981a6ea4fa116ccb"}, {"bike_id": "0eee2310eb70b1a67b07fe3e8c04c7e3", "type": "electric_scooter", "is_disabled": 0, "lat": 38.9003505, "rental_uris": {"ios": "https://dc.lft.to/lastmile_qr_scan", "android": "https://dc.lft.to/lastmile_qr_scan"}, "is_reserved": 0, "fusion_lon": 0.0, "fusion_lat": 0.0, "lon": -77.02593816666666, "name": "0eee2310eb70b1a67b07fe3e8c04c7e3"}, {"bike_id": "7df0190a6dde1fbba97bebd05d4c6ce2", "type": "electric_scooter", "is_disabled": 0, "lat": 38.907252666666665, "rental_uris": {"ios": "https://dc.lft.to/lastmile_qr_scan", "android": "https://dc.lft.to/lastmile_qr_scan"}, "is_reserved": 0, "fusion_lon": 0.0, "fusion_lat": 0.0, "lon": -77.000667, "name": "7df0190a6dde1fbba97bebd05d4c6ce2"}, {"bike_id": "a00cdac6c6c743f0a1268a5a79276232", "type": "electric_scooter", "is_disabled": 0, "lat": 38.86656266666667, "rental_uris": {"ios": "https://dc.lft.to/lastmile_qr_scan", "android": "https://dc.lft.to/lastmile_qr_scan"}, "is_reserved": 0, "fusion_lon": 0.0, "fusion_lat": 0.0, "lon": -76.988895, "name": "a00cdac6c6c743f0a1268a5a79276232"}, {"bike_id": "705008c45227460c0011b0c22a38832e", "type": "electric_scooter", "is_disabled": 0, "lat": 38.9166125, "rental_uris": {"ios": "https://dc.lft.to/lastmile_qr_scan", "android": "https://dc.lft.to/lastmile_qr_scan"}, "is_reserved": 0, "fusion_lon": 0.0, "fusion_lat": 0.0, "lon": -77.03177066666667, "name": "705008c45227460c0011b0c22a38832e"}, {"bike_id": "698ea145204723c37da6b8b2df04da15", "type": "electric_scooter", "is_disabled": 0, "lat": 38.93608533333333, "rental_uris": {"ios": "https://dc.lft.to/lastmile_qr_scan", "android": "https://dc.lft.to/lastmile_qr_scan"}, "is_reserved": 0, "fusion_lon": 0.0, "fusion_lat": 0.0, "lon": -77.05884416666666, "name": "698ea145204723c37da6b8b2df04da15"}, {"bike_id": "a3d0c6c1153683fc9d6303e8f44bc550", "type": "electric_bike", "is_disabled": 0, "lat": 38.848224, "rental_uris": {"ios": "https://dc.lft.to/lastmile_qr_scan", "android": "https://dc.lft.to/lastmile_qr_scan"}, "is_reserved": 0, "fusion_lon": 0.0, "fusion_lat": 0.0, "lon": -77.0791365, "name": "a3d0c6c1153683fc9d6303e8f44bc550"}, {"bike_id": "977fb972581a6443a00bc186b9e9eba1", "type": "electric_scooter", "is_disabled": 0, "lat": 38.902977166666666, "rental_uris": {"ios": "https://dc.lft.to/lastmile_qr_scan", "android": "https://dc.lft.to/lastmile_qr_scan"}, "is_reserved": 0, "fusion_lon": 0.0, "fusion_lat": 0.0, "lon": -77.01753066666667, "name": "977fb972581a6443a00bc186b9e9eba1"}, {"bike_id": "1756d4fa5b645871acfbcd960f5540c9", "type": "electric_scooter", "is_disabled": 0, "lat": 38.905084, "rental_uris": {"ios": "https://dc.lft.to/lastmile_qr_scan", "android": "https://dc.lft.to/lastmile_qr_scan"}, "is_reserved": 0, "fusion_lon": 0.0, "fusion_lat": 0.0, "lon": -77.05321216666667, "name": "1756d4fa5b645871acfbcd960f5540c9"}, {"bike_id": "e7194adb6a52817ee2af30105cb55cce", "type": "electric_scooter", "is_disabled": 0, "lat": 38.86670766666667, "rental_uris": {"ios": "https://dc.lft.to/lastmile_qr_scan", "android": "https://dc.lft.to/lastmile_qr_scan"}, "is_reserved": 0, "fusion_lon": 0.0, "fusion_lat": 0.0, "lon": -76.9854, "name": "e7194adb6a52817ee2af30105cb55cce"}, {"bike_id": "5043c8f93d964a6ba71f70a8d994ebea", "type": "electric_scooter", "is_disabled": 0, "lat": 38.8988175, "rental_uris": {"ios": "https://dc.lft.to/lastmile_qr_scan", "android": "https://dc.lft.to/lastmile_qr_scan"}, "is_reserved": 0, "fusion_lon": 0.0, "fusion_lat": 0.0, "lon": -76.9317625, "name": "5043c8f93d964a6ba71f70a8d994ebea"}, {"bike_id": "8c181d0c4268dc2626d1f0abe3dc8a2a", "type": "electric_scooter", "is_disabled": 0, "lat": 38.91553916666667, "rental_uris": {"ios": "https://dc.lft.to/lastmile_qr_scan", "android": "https://dc.lft.to/lastmile_qr_scan"}, "is_reserved": 0, "fusion_lon": 0.0, "fusion_lat": 0.0, "lon": -77.02416166666667, "name": "8c181d0c4268dc2626d1f0abe3dc8a2a"}, {"bike_id": "439672c16e97ccbbc58b6471330d04d8", "type": "electric_bike", "is_disabled": 0, "lat": 38.985049, "rental_uris": {"ios": "https://dc.lft.to/lastmile_qr_scan", "android": "https://dc.lft.to/lastmile_qr_scan"}, "is_reserved": 0, "fusion_lon": 0.0, "fusion_lat": 0.0, "lon": -77.09256533333334, "name": "439672c16e97ccbbc58b6471330d04d8"}, {"bike_id": "b454e74f36f5ac83e2f87390e275675f", "type": "electric_scooter", "is_disabled": 0, "lat": 38.89354616666667, "rental_uris": {"ios": "https://dc.lft.to/lastmile_qr_scan", "android": "https://dc.lft.to/lastmile_qr_scan"}, "is_reserved": 0, "fusion_lon": 0.0, "fusion_lat": 0.0, "lon": -77.02224083333333, "name": "b454e74f36f5ac83e2f87390e275675f"}, {"bike_id": "fd68bfddefd0d896d64781f962950323", "type": "electric_scooter", "is_disabled": 0, "lat": 38.89354766666666, "rental_uris": {"ios": "https://dc.lft.to/lastmile_qr_scan", "android": "https://dc.lft.to/lastmile_qr_scan"}, "is_reserved": 0, "fusion_lon": 0.0, "fusion_lat": 0.0, "lon": -77.02220633333333, "name": "fd68bfddefd0d896d64781f962950323"}, {"bike_id": "bb5ab7168ae25e66e9480fe352eca822", "type": "electric_bike", "is_disabled": 0, "lat": 38.8551405, "rental_uris": {"ios": "https://dc.lft.to/lastmile_qr_scan", "android": "https://dc.lft.to/lastmile_qr_scan"}, "is_reserved": 0, "fusion_lon": 0.0, "fusion_lat": 0.0, "lon": -77.1203855, "name": "bb5ab7168ae25e66e9480fe352eca822"}, {"bike_id": "bd162cbedffe49a962a3aacad1fbef39", "type": "electric_scooter", "is_disabled": 0, "lat": 38.9053735, "rental_uris": {"ios": "https://dc.lft.to/lastmile_qr_scan", "android": "https://dc.lft.to/lastmile_qr_scan"}, "is_reserved": 0, "fusion_lon": 0.0, "fusion_lat": 0.0, "lon": -77.04474516666667, "name": "bd162cbedffe49a962a3aacad1fbef39"}, {"bike_id": "8ab0f7c5592bb6357604d203ac05304d", "type": "electric_scooter", "is_disabled": 0, "lat": 38.9005855, "rental_uris": {"ios": "https://dc.lft.to/lastmile_qr_scan", "android": "https://dc.lft.to/lastmile_qr_scan"}, "is_reserved": 0, "fusion_lon": 0.0, "fusion_lat": 0.0, "lon": -77.04537466666666, "name": "8ab0f7c5592bb6357604d203ac05304d"}, {"bike_id": "86f9a51ed779f6912c97fbf9ce6b7af6", "type": "electric_scooter", "is_disabled": 0, "lat": 38.922865, "rental_uris": {"ios": "https://dc.lft.to/lastmile_qr_scan", "android": "https://dc.lft.to/lastmile_qr_scan"}, "is_reserved": 0, "fusion_lon": 0.0, "fusion_lat": 0.0, "lon": -77.02974283333333, "name": "86f9a51ed779f6912c97fbf9ce6b7af6"}, {"bike_id": "edca6b15ac0d183f26fe8a51fe9bc581", "type": "electric_scooter", "is_disabled": 0, "lat": 38.894850166666664, "rental_uris": {"ios": "https://dc.lft.to/lastmile_qr_scan", "android": "https://dc.lft.to/lastmile_qr_scan"}, "is_reserved": 0, "fusion_lon": 0.0, "fusion_lat": 0.0, "lon": -77.0218225, "name": "edca6b15ac0d183f26fe8a51fe9bc581"}, {"bike_id": "be6d2c8eb8aef8c89d417a07784561d0", "type": "electric_scooter", "is_disabled": 0, "lat": 38.921538, "rental_uris": {"ios": "https://dc.lft.to/lastmile_qr_scan", "android": "https://dc.lft.to/lastmile_qr_scan"}, "is_reserved": 0, "fusion_lon": 0.0, "fusion_lat": 0.0, "lon": -77.03458966666666, "name": "be6d2c8eb8aef8c89d417a07784561d0"}, {"bike_id": "71269703b1dc2b0d74618efccba92e85", "type": "electric_scooter", "is_disabled": 0, "lat": 38.844341, "rental_uris": {"ios": "https://dc.lft.to/lastmile_qr_scan", "android": "https://dc.lft.to/lastmile_qr_scan"}, "is_reserved": 0, "fusion_lon": 0.0, "fusion_lat": 0.0, "lon": -76.998692, "name": "71269703b1dc2b0d74618efccba92e85"}, {"bike_id": "0ba0698faed1addf7a69248dfb1d450d", "type": "electric_scooter", "is_disabled": 0, "lat": 38.950085, "rental_uris": {"ios": "https://dc.lft.to/lastmile_qr_scan", "android": "https://dc.lft.to/lastmile_qr_scan"}, "is_reserved": 0, "fusion_lon": 0.0, "fusion_lat": 0.0, "lon": -77.01841066666667, "name": "0ba0698faed1addf7a69248dfb1d450d"}, {"bike_id": "021e1c796117b8df16f1c4a173dd1b88", "type": "electric_scooter", "is_disabled": 0, "lat": 38.92445633333333, "rental_uris": {"ios": "https://dc.lft.to/lastmile_qr_scan", "android": "https://dc.lft.to/lastmile_qr_scan"}, "is_reserved": 0, "fusion_lon": 0.0, "fusion_lat": 0.0, "lon": -77.02965133333333, "name": "021e1c796117b8df16f1c4a173dd1b88"}, {"bike_id": "ad8d7d09b00957e7a557d94585c8b090", "type": "electric_scooter", "is_disabled": 0, "lat": 38.9249045, "rental_uris": {"ios": "https://dc.lft.to/lastmile_qr_scan", "android": "https://dc.lft.to/lastmile_qr_scan"}, "is_reserved": 0, "fusion_lon": 0.0, "fusion_lat": 0.0, "lon": -77.024447, "name": "ad8d7d09b00957e7a557d94585c8b090"}, {"bike_id": "e1f68921dcdf20c63b3afb8ff1542853", "type": "electric_scooter", "is_disabled": 0, "lat": 38.91540583333333, "rental_uris": {"ios": "https://dc.lft.to/lastmile_qr_scan", "android": "https://dc.lft.to/lastmile_qr_scan"}, "is_reserved": 0, "fusion_lon": 0.0, "fusion_lat": 0.0, "lon": -77.02208333333333, "name": "e1f68921dcdf20c63b3afb8ff1542853"}, {"bike_id": "420ae60100d1a2bd7e1a7e60befb0bd5", "type": "electric_scooter", "is_disabled": 0, "lat": 38.96548133333334, "rental_uris": {"ios": "https://dc.lft.to/lastmile_qr_scan", "android": "https://dc.lft.to/lastmile_qr_scan"}, "is_reserved": 0, "fusion_lon": 0.0, "fusion_lat": 0.0, "lon": -77.03626633333333, "name": "420ae60100d1a2bd7e1a7e60befb0bd5"}, {"bike_id": "ce7a61c3b6052accd6a99790db826a3c", "type": "electric_scooter", "is_disabled": 0, "lat": 38.90561266666667, "rental_uris": {"ios": "https://dc.lft.to/lastmile_qr_scan", "android": "https://dc.lft.to/lastmile_qr_scan"}, "is_reserved": 0, "fusion_lon": 0.0, "fusion_lat": 0.0, "lon": -77.04482733333333, "name": "ce7a61c3b6052accd6a99790db826a3c"}, {"bike_id": "4166af11669a4470d198c899fcb619b1", "type": "electric_scooter", "is_disabled": 0, "lat": 38.9134615, "rental_uris": {"ios": "https://dc.lft.to/lastmile_qr_scan", "android": "https://dc.lft.to/lastmile_qr_scan"}, "is_reserved": 0, "fusion_lon": 0.0, "fusion_lat": 0.0, "lon": -77.02077433333334, "name": "4166af11669a4470d198c899fcb619b1"}, {"bike_id": "35b33cd16dbb67ae5f1232afd8fbdb50", "type": "electric_scooter", "is_disabled": 0, "lat": 38.908050833333334, "rental_uris": {"ios": "https://dc.lft.to/lastmile_qr_scan", "android": "https://dc.lft.to/lastmile_qr_scan"}, "is_reserved": 0, "fusion_lon": 0.0, "fusion_lat": 0.0, "lon": -77.03464, "name": "35b33cd16dbb67ae5f1232afd8fbdb50"}, {"bike_id": "c143833ef7be19973e469f9298068c2c", "type": "electric_scooter", "is_disabled": 0, "lat": 38.90869166666667, "rental_uris": {"ios": "https://dc.lft.to/lastmile_qr_scan", "android": "https://dc.lft.to/lastmile_qr_scan"}, "is_reserved": 0, "fusion_lon": 0.0, "fusion_lat": 0.0, "lon": -76.99781816666666, "name": "c143833ef7be19973e469f9298068c2c"}, {"bike_id": "a5de892fccad60a17b0170b4d9de761a", "type": "electric_scooter", "is_disabled": 0, "lat": 38.8851695, "rental_uris": {"ios": "https://dc.lft.to/lastmile_qr_scan", "android": "https://dc.lft.to/lastmile_qr_scan"}, "is_reserved": 0, "fusion_lon": 0.0, "fusion_lat": 0.0, "lon": -76.99090216666667, "name": "a5de892fccad60a17b0170b4d9de761a"}, {"bike_id": "870e76b329ab211ebb384d2bffe915ee", "type": "electric_bike", "is_disabled": 0, "lat": 39.0508715, "rental_uris": {"ios": "https://dc.lft.to/lastmile_qr_scan", "android": "https://dc.lft.to/lastmile_qr_scan"}, "is_reserved": 0, "fusion_lon": 0.0, "fusion_lat": 0.0, "lon": -77.11744083333333, "name": "870e76b329ab211ebb384d2bffe915ee"}, {"bike_id": "c059a108c85afa69faf5c6f7438ba3ad", "type": "electric_scooter", "is_disabled": 0, "lat": 38.9563535, "rental_uris": {"ios": "https://dc.lft.to/lastmile_qr_scan", "android": "https://dc.lft.to/lastmile_qr_scan"}, "is_reserved": 0, "fusion_lon": 0.0, "fusion_lat": 0.0, "lon": -77.03630266666667, "name": "c059a108c85afa69faf5c6f7438ba3ad"}, {"bike_id": "5289807941d0f706119acd7789389805", "type": "electric_scooter", "is_disabled": 0, "lat": 38.89502816666667, "rental_uris": {"ios": "https://dc.lft.to/lastmile_qr_scan", "android": "https://dc.lft.to/lastmile_qr_scan"}, "is_reserved": 0, "fusion_lon": 0.0, "fusion_lat": 0.0, "lon": -77.043345, "name": "5289807941d0f706119acd7789389805"}, {"bike_id": "d699a31fa64c4d0af81165f5c9118a80", "type": "electric_scooter", "is_disabled": 0, "lat": 38.93708633333333, "rental_uris": {"ios": "https://dc.lft.to/lastmile_qr_scan", "android": "https://dc.lft.to/lastmile_qr_scan"}, "is_reserved": 0, "fusion_lon": 0.0, "fusion_lat": 0.0, "lon": -77.0363615, "name": "d699a31fa64c4d0af81165f5c9118a80"}, {"bike_id": "e7e2046881b56e394d9502914d8502e6", "type": "electric_scooter", "is_disabled": 0, "lat": 38.907900833333336, "rental_uris": {"ios": "https://dc.lft.to/lastmile_qr_scan", "android": "https://dc.lft.to/lastmile_qr_scan"}, "is_reserved": 0, "fusion_lon": 0.0, "fusion_lat": 0.0, "lon": -77.026952, "name": "e7e2046881b56e394d9502914d8502e6"}, {"bike_id": "c064248d3a46098cd859ade56ff019bc", "type": "electric_scooter", "is_disabled": 0, "lat": 38.903580166666664, "rental_uris": {"ios": "https://dc.lft.to/lastmile_qr_scan", "android": "https://dc.lft.to/lastmile_qr_scan"}, "is_reserved": 0, "fusion_lon": 0.0, "fusion_lat": 0.0, "lon": -76.99220166666667, "name": "c064248d3a46098cd859ade56ff019bc"}, {"bike_id": "5479268d78dfcbdd6653c9525f37b057", "type": "electric_scooter", "is_disabled": 0, "lat": 38.90016516666667, "rental_uris": {"ios": "https://dc.lft.to/lastmile_qr_scan", "android": "https://dc.lft.to/lastmile_qr_scan"}, "is_reserved": 0, "fusion_lon": 0.0, "fusion_lat": 0.0, "lon": -77.03814666666666, "name": "5479268d78dfcbdd6653c9525f37b057"}, {"bike_id": "fff7a02b98cb43f8c38f62b60f938194", "type": "electric_scooter", "is_disabled": 0, "lat": 38.915677333333335, "rental_uris": {"ios": "https://dc.lft.to/lastmile_qr_scan", "android": "https://dc.lft.to/lastmile_qr_scan"}, "is_reserved": 0, "fusion_lon": 0.0, "fusion_lat": 0.0, "lon": -77.03045483333334, "name": "fff7a02b98cb43f8c38f62b60f938194"}, {"bike_id": "576bdbc622788a9b3f59e155c6437aec", "type": "electric_scooter", "is_disabled": 0, "lat": 38.887143333333334, "rental_uris": {"ios": "https://dc.lft.to/lastmile_qr_scan", "android": "https://dc.lft.to/lastmile_qr_scan"}, "is_reserved": 0, "fusion_lon": 0.0, "fusion_lat": 0.0, "lon": -77.021787, "name": "576bdbc622788a9b3f59e155c6437aec"}, {"bike_id": "63e8c6404440312c6247c2bfdf7380e5", "type": "electric_scooter", "is_disabled": 0, "lat": 38.89222, "rental_uris": {"ios": "https://dc.lft.to/lastmile_qr_scan", "android": "https://dc.lft.to/lastmile_qr_scan"}, "is_reserved": 0, "fusion_lon": 0.0, "fusion_lat": 0.0, "lon": -77.04366633333333, "name": "63e8c6404440312c6247c2bfdf7380e5"}, {"bike_id": "ea5ecc6ad3cc80a9f9623190c3841ce0", "type": "electric_scooter", "is_disabled": 0, "lat": 38.9347185, "rental_uris": {"ios": "https://dc.lft.to/lastmile_qr_scan", "android": "https://dc.lft.to/lastmile_qr_scan"}, "is_reserved": 0, "fusion_lon": 0.0, "fusion_lat": 0.0, "lon": -77.0726725, "name": "ea5ecc6ad3cc80a9f9623190c3841ce0"}, {"bike_id": "76df81047b04b495bc5d0004dcd35df0", "type": "electric_scooter", "is_disabled": 0, "lat": 38.940209, "rental_uris": {"ios": "https://dc.lft.to/lastmile_qr_scan", "android": "https://dc.lft.to/lastmile_qr_scan"}, "is_reserved": 0, "fusion_lon": 0.0, "fusion_lat": 0.0, "lon": -76.97610233333333, "name": "76df81047b04b495bc5d0004dcd35df0"}, {"bike_id": "b6865ae1aa326520ce538f693c8b5459", "type": "electric_scooter", "is_disabled": 0, "lat": 38.91094533333333, "rental_uris": {"ios": "https://dc.lft.to/lastmile_qr_scan", "android": "https://dc.lft.to/lastmile_qr_scan"}, "is_reserved": 0, "fusion_lon": 0.0, "fusion_lat": 0.0, "lon": -77.04202866666667, "name": "b6865ae1aa326520ce538f693c8b5459"}, {"bike_id": "699a3863df6fbb212f0ccf52f2131ee3", "type": "electric_scooter", "is_disabled": 0, "lat": 38.89427833333333, "rental_uris": {"ios": "https://dc.lft.to/lastmile_qr_scan", "android": "https://dc.lft.to/lastmile_qr_scan"}, "is_reserved": 0, "fusion_lon": 0.0, "fusion_lat": 0.0, "lon": -77.01048766666666, "name": "699a3863df6fbb212f0ccf52f2131ee3"}, {"bike_id": "731fa88548cf886116413bcc8252aa23", "type": "electric_scooter", "is_disabled": 0, "lat": 38.92043733333333, "rental_uris": {"ios": "https://dc.lft.to/lastmile_qr_scan", "android": "https://dc.lft.to/lastmile_qr_scan"}, "is_reserved": 0, "fusion_lon": 0.0, "fusion_lat": 0.0, "lon": -77.0257635, "name": "731fa88548cf886116413bcc8252aa23"}, {"bike_id": "65ab5e3efebae6764ef005067a2fcdb5", "type": "electric_scooter", "is_disabled": 0, "lat": 38.894782, "rental_uris": {"ios": "https://dc.lft.to/lastmile_qr_scan", "android": "https://dc.lft.to/lastmile_qr_scan"}, "is_reserved": 0, "fusion_lon": 0.0, "fusion_lat": 0.0, "lon": -76.94858566666667, "name": "65ab5e3efebae6764ef005067a2fcdb5"}, {"bike_id": "a68f29f13e5c67966b1d3bc68edf0ebf", "type": "electric_scooter", "is_disabled": 0, "lat": 38.93211133333333, "rental_uris": {"ios": "https://dc.lft.to/lastmile_qr_scan", "android": "https://dc.lft.to/lastmile_qr_scan"}, "is_reserved": 0, "fusion_lon": 0.0, "fusion_lat": 0.0, "lon": -77.03516516666667, "name": "a68f29f13e5c67966b1d3bc68edf0ebf"}, {"bike_id": "9a196e9e9316c2e0f09116b9f0fccacc", "type": "electric_scooter", "is_disabled": 0, "lat": 38.89919483333333, "rental_uris": {"ios": "https://dc.lft.to/lastmile_qr_scan", "android": "https://dc.lft.to/lastmile_qr_scan"}, "is_reserved": 0, "fusion_lon": 0.0, "fusion_lat": 0.0, "lon": -77.00360066666667, "name": "9a196e9e9316c2e0f09116b9f0fccacc"}, {"bike_id": "dc5932f2fa665e17735b06c5746f9a02", "type": "electric_scooter", "is_disabled": 0, "lat": 38.90067483333333, "rental_uris": {"ios": "https://dc.lft.to/lastmile_qr_scan", "android": "https://dc.lft.to/lastmile_qr_scan"},