{"data": {"bikes": [{"name": "54fb8d920a375ebf8fd31a00ec7e60a6", "fusion_lat": 0.0, "type": "electric_scooter", "lat": 38.9354225, "is_reserved": 0, "is_disabled": 0, "fusion_lon": 0.0, "bike_id": "54fb8d920a375ebf8fd31a00ec7e60a6", "lon": -77.03463633333334, "rental_uris": {"ios": "https://dc.lft.to/lastmile_qr_scan", "android": "https://dc.lft.to/lastmile_qr_scan"}}, {"name": "21ca325b81145820c1281361ca5c01ab", "fusion_lat": 0.0, "type": "electric_scooter", "lat": 38.90251583333333, "is_reserved": 0, "is_disabled": 0, "fusion_lon": 0.0, "bike_id": "21ca325b81145820c1281361ca5c01ab", "lon": -77.01768833333334, "rental_uris": {"ios": "https://dc.lft.to/lastmile_qr_scan", "android": "https://dc.lft.to/lastmile_qr_scan"}}, {"name": "dbbf1596faee818f41154625d584ab62", "fusion_lat": 0.0, "type": "electric_scooter", "lat": 38.91190516666666, "is_reserved": 0, "is_disabled": 0, "fusion_lon": 0.0, "bike_id": "dbbf1596faee818f41154625d584ab62", "lon": -76.99622033333333, "rental_uris": {"ios": "https://dc.lft.to/lastmile_qr_scan", "android": "https://dc.lft.to/lastmile_qr_scan"}}, {"name": "55dbcd8652f853b274618f9857041f1b", "fusion_lat": 0.0, "type": "electric_scooter", "lat": 38.89833616666667, "is_reserved": 0, "is_disabled": 0, "fusion_lon": 0.0, "bike_id": "55dbcd8652f853b274618f9857041f1b", "lon": -76.946443, "rental_uris": {"ios": "https://dc.lft.to/lastmile_qr_scan", "android": "https://dc.lft.to/lastmile_qr_scan"}}, {"name": "8f6669b7bcf6b307368230739b95674b", "fusion_lat": 0.0, "type": "electric_scooter", "lat": 38.915987, "is_reserved": 0, "is_disabled": 0, "fusion_lon": 0.0, "bike_id": "8f6669b7bcf6b307368230739b95674b", "lon": -77.0229255, "rental_uris": {"ios": "https://dc.lft.to/lastmile_qr_scan", "android": "https://dc.lft.to/lastmile_qr_scan"}}, {"name": "3cafb4e983c356316166101ef40b8a14", "fusion_lat": 0.0, "type": "electric_scooter", "lat": 38.91700983333333, "is_reserved": 0, "is_disabled": 0, "fusion_lon": 0.0, "bike_id": "3cafb4e983c356316166101ef40b8a14", "lon": -77.04269816666667, "rental_uris": {"ios": "https://dc.lft.to/lastmile_qr_scan", "android": "https://dc.lft.to/lastmile_qr_scan"}}, {"name": "f08cad4b08b6ebca8f2b5d7265db99c5", "fusion_lat": 0.0, "type": "electric_scooter", "lat": 38.923167, "is_reserved": 0, "is_disabled": 0, "fusion_lon": 0.0, "bike_id": "f08cad4b08b6ebca8f2b5d7265db99c5", "lon": -77.04521616666666, "rental_uris": {"ios": "https://dc.lft.to/lastmile_qr_scan", "android": "https://dc.lft.to/lastmile_qr_scan"}}, {"name": "a0792722b9d1bdfc75fcf2af5e848945", "fusion_lat": 0.0, "type": "electric_scooter", "lat": 38.961127166666664, "is_reserved": 0, "is_disabled": 0, "fusion_lon": 0.0, "bike_id": "a0792722b9d1bdfc75fcf2af5e848945", "lon": -77.0281435, "rental_uris": {"ios": "https://dc.lft.to/lastmile_qr_scan", "android": "https://dc.lft.to/lastmile_qr_scan"}}, {"name": "74bbc157d0e242104d2b1a5d349f5e92", "fusion_lat": 0.0, "type": "electric_scooter", "lat": 38.894560166666665, "is_reserved": 0, "is_disabled": 0, "fusion_lon": 0.0, "bike_id": "74bbc157d0e242104d2b1a5d349f5e92", "lon": -77.0306445, "rental_uris": {"ios": "https://dc.lft.to/lastmile_qr_scan", "android": "https://dc.lft.to/lastmile_qr_scan"}}, {"name": "d885ee0932f7804b21b38d4284f101a7", "fusion_lat": 0.0, "type": "electric_scooter", "lat": 38.92493833333333, "is_reserved": 0, "is_disabled": 0, "fusion_lon": 0.0, "bike_id": "d885ee0932f7804b21b38d4284f101a7", "lon": -77.0733175, "rental_uris": {"ios": "https://dc.lft.to/lastmile_qr_scan", "android": "https://dc.lft.to/lastmile_qr_scan"}}, {"name": "8ec7709246274075f35b60dbae99d8fd", "fusion_lat": 0.0, "type": "electric_scooter", "lat": 38.865022833333335, "is_reserved": 0, "is_disabled": 0, "fusion_lon": 0.0, "bike_id": "8ec7709246274075f35b60dbae99d8fd", "lon": -76.99012133333333, "rental_uris": {"ios": "https://dc.lft.to/lastmile_qr_scan", "android": "https://dc.lft.to/lastmile_qr_scan"}}, {"name": "f16ab14993c62758d16a2ca246fc6d6e", "fusion_lat": 0.0, "type": "electric_scooter", "lat": 38.93829133333333, "is_reserved": 0, "is_disabled": 0, "fusion_lon": 0.0, "bike_id": "f16ab14993c62758d16a2ca246fc6d6e", "lon": -77.03289783333334, "rental_uris": {"ios": "https://dc.lft.to/lastmile_qr_scan", "android": "https://dc.lft.to/lastmile_qr_scan"}}, {"name": "9b63a67205636308a857ad8bd25c2788", "fusion_lat": 0.0, "type": "electric_scooter", "lat": 38.902668166666665, "is_reserved": 0, "is_disabled": 0, "fusion_lon": 0.0, "bike_id": "9b63a67205636308a857ad8bd25c2788", "lon": -77.00925216666667, "rental_uris": {"ios": "https://dc.lft.to/lastmile_qr_scan", "android": "https://dc.lft.to/lastmile_qr_scan"}}, {"name": "449f02fc6bbebf1803b92aadeb8c0ab6", "fusion_lat": 0.0, "type": "electric_scooter", "lat": 38.91010583333333, "is_reserved": 0, "is_disabled": 0, "fusion_lon": 0.0, "bike_id": "449f02fc6bbebf1803b92aadeb8c0ab6", "lon": -77.021946, "rental_uris": {"ios": "https://dc.lft.to/lastmile_qr_scan", "android": "https://dc.lft.to/lastmile_qr_scan"}}, {"name": "9d9daff028dac7ec7286450c6cd61ae8", "fusion_lat": 0.0, "type": "electric_scooter", "lat": 38.908958166666665, "is_reserved": 0, "is_disabled": 0, "fusion_lon": 0.0, "bike_id": "9d9daff028dac7ec7286450c6cd61ae8", "lon": -77.03147216666666, "rental_uris": {"ios": "https://dc.lft.to/lastmile_qr_scan", "android": "https://dc.lft.to/lastmile_qr_scan"}}, {"name": "a24bcfff30fe39c7bac731a5f5624696", "fusion_lat": 0.0, "type": "electric_scooter", "lat": 38.92369083333333, "is_reserved": 0, "is_disabled": 0, "fusion_lon": 0.0, "bike_id": "a24bcfff30fe39c7bac731a5f5624696", "lon": -77.03133966666667, "rental_uris": {"ios": "https://dc.lft.to/lastmile_qr_scan", "android": "https://dc.lft.to/lastmile_qr_scan"}}, {"name": "b9981c6fe5840d599f87a7f215880d5e", "fusion_lat": 0.0, "type": "electric_scooter", "lat": 38.89932016666667, "is_reserved": 0, "is_disabled": 0, "fusion_lon": 0.0, "bike_id": "b9981c6fe5840d599f87a7f215880d5e", "lon": -77.0407875, "rental_uris": {"ios": "https://dc.lft.to/lastmile_qr_scan", "android": "https://dc.lft.to/lastmile_qr_scan"}}, {"name": "0f0753d82e5fd49bbbcedbbf57c0b7e6", "fusion_lat": 0.0, "type": "electric_bike", "lat": 38.970634833333335, "is_reserved": 0, "is_disabled": 0, "fusion_lon": 0.0, "bike_id": "0f0753d82e5fd49bbbcedbbf57c0b7e6", "lon": -76.936107, "rental_uris": {"ios": "https://dc.lft.to/lastmile_qr_scan", "android": "https://dc.lft.to/lastmile_qr_scan"}}, {"name": "715f2d2632498f813d5970b01892f0b6", "fusion_lat": 0.0, "type": "electric_scooter", "lat": 38.922432, "is_reserved": 0, "is_disabled": 0, "fusion_lon": 0.0, "bike_id": "715f2d2632498f813d5970b01892f0b6", "lon": -77.03665733333334, "rental_uris": {"ios": "https://dc.lft.to/lastmile_qr_scan", "android": "https://dc.lft.to/lastmile_qr_scan"}}, {"name": "1b141b5488e293d23f9d4862d7fce3e7", "fusion_lat": 0.0, "type": "electric_scooter", "lat": 38.94303816666667, "is_reserved": 0, "is_disabled": 0, "fusion_lon": 0.0, "bike_id": "1b141b5488e293d23f9d4862d7fce3e7", "lon": -77.06809783333334, "rental_uris": {"ios": "https://dc.lft.to/lastmile_qr_scan", "android": "https://dc.lft.to/lastmile_qr_scan"}}, {"name": "ee7053302a3da62c6bf5d77900ff1ffe", "fusion_lat": 0.0, "type": "electric_scooter", "lat": 38.923114, "is_reserved": 0, "is_disabled": 0, "fusion_lon": 0.0, "bike_id": "ee7053302a3da62c6bf5d77900ff1ffe", "lon": -77.02979966666666, "rental_uris": {"ios": "https://dc.lft.to/lastmile_qr_scan", "android": "https://dc.lft.to/lastmile_qr_scan"}}, {"name": "ff9dbb0bf8f4aad179e3fa3a023d1aa7", "fusion_lat": 0.0, "type": "electric_scooter", "lat": 38.92264766666667, "is_reserved": 0, "is_disabled": 0, "fusion_lon": 0.0, "bike_id": "ff9dbb0bf8f4aad179e3fa3a023d1aa7", "lon": -77.03408566666667, "rental_uris": {"ios": "https://dc.lft.to/lastmile_qr_scan", "android": "https://dc.lft.to/lastmile_qr_scan"}}, {"name": "0571e735db520b7c77b4ffaa94e513da", "fusion_lat": 0.0, "type": "electric_scooter", "lat": 38.9540315, "is_reserved": 0, "is_disabled": 0, "fusion_lon": 0.0, "bike_id": "0571e735db520b7c77b4ffaa94e513da", "lon": -77.02749933333334, "rental_uris": {"ios": "https://dc.lft.to/lastmile_qr_scan", "android": "https://dc.lft.to/lastmile_qr_scan"}}, {"name": "caa9a89e9e560342f68367f87fe4f666", "fusion_lat": 0.0, "type": "electric_bike", "lat": 39.030479166666666, "is_reserved": 0, "is_disabled": 0, "fusion_lon": 0.0, "bike_id": "caa9a89e9e560342f68367f87fe4f666", "lon": -77.09477033333333, "rental_uris": {"ios": "https://dc.lft.to/lastmile_qr_scan", "android": "https://dc.lft.to/lastmile_qr_scan"}}, {"name": "e4e3c779a5c63d0764cba27cebb5fcae", "fusion_lat": 0.0, "type": "electric_scooter", "lat": 38.91223216666667, "is_reserved": 0, "is_disabled": 0, "fusion_lon": 0.0, "bike_id": "e4e3c779a5c63d0764cba27cebb5fcae", "lon": -77.02947216666666, "rental_uris": {"ios": "https://dc.lft.to/lastmile_qr_scan", "android": "https://dc.lft.to/lastmile_qr_scan"}}, {"name": "7f2aafec3ce8adb0e5bfd4b1f4ccc4cd", "fusion_lat": 0.0, "type": "electric_scooter", "lat": 38.93823116666667, "is_reserved": 0, "is_disabled": 0, "fusion_lon": 0.0, "bike_id": "7f2aafec3ce8adb0e5bfd4b1f4ccc4cd", "lon": -77.02651316666666, "rental_uris": {"ios": "https://dc.lft.to/lastmile_qr_scan", "android": "https://dc.lft.to/lastmile_qr_scan"}}, {"name": "17ad6647b703efb85c30073086afe5ac", "fusion_lat": 0.0, "type": "electric_scooter", "lat": 38.91599333333333, "is_reserved": 0, "is_disabled": 0, "fusion_lon": 0.0, "bike_id": "17ad6647b703efb85c30073086afe5ac", "lon": -77.04161683333334, "rental_uris": {"ios": "https://dc.lft.to/lastmile_qr_scan", "android": "https://dc.lft.to/lastmile_qr_scan"}}, {"name": "03da9e3c6e96e1652e91253268e0f4cf", "fusion_lat": 0.0, "type": "electric_scooter", "lat": 38.89847066666667, "is_reserved": 0, "is_disabled": 0, "fusion_lon": 0.0, "bike_id": "03da9e3c6e96e1652e91253268e0f4cf", "lon": -77.040757, "rental_uris": {"ios": "https://dc.lft.to/lastmile_qr_scan", "android": "https://dc.lft.to/lastmile_qr_scan"}}, {"name": "3e7011515ca4de6fd46f75edb40cfafe", "fusion_lat": 0.0, "type": "electric_scooter", "lat": 38.941848, "is_reserved": 0, "is_disabled": 0, "fusion_lon": 0.0, "bike_id": "3e7011515ca4de6fd46f75edb40cfafe", "lon": -77.0249145, "rental_uris": {"ios": "https://dc.lft.to/lastmile_qr_scan", "android": "https://dc.lft.to/lastmile_qr_scan"}}, {"name": "38a2e66ff89234a958557ec2fca9db53", "fusion_lat": 0.0, "type": "electric_bike", "lat": 38.95184066666667, "is_reserved": 0, "is_disabled": 0, "fusion_lon": 0.0, "bike_id": "38a2e66ff89234a958557ec2fca9db53", "lon": -76.9354645, "rental_uris": {"ios": "https://dc.lft.to/lastmile_qr_scan", "android": "https://dc.lft.to/lastmile_qr_scan"}}, {"name": "06f0324105724a88ffd10ebdd0380fea", "fusion_lat": 0.0, "type": "electric_scooter", "lat": 38.87267766666667, "is_reserved": 0, "is_disabled": 0, "fusion_lon": 0.0, "bike_id": "06f0324105724a88ffd10ebdd0380fea", "lon": -77.01532933333333, "rental_uris": {"ios": "https://dc.lft.to/lastmile_qr_scan", "android": "https://dc.lft.to/lastmile_qr_scan"}}, {"name": "4b8ef0d2ec70bd3f93102162bed6e14c", "fusion_lat": 0.0, "type": "electric_scooter", "lat": 38.901436333333336, "is_reserved": 0, "is_disabled": 0, "fusion_lon": 0.0, "bike_id": "4b8ef0d2ec70bd3f93102162bed6e14c", "lon": -77.00073633333334, "rental_uris": {"ios": "https://dc.lft.to/lastmile_qr_scan", "android": "https://dc.lft.to/lastmile_qr_scan"}}, {"name": "37f244904c2b59a65ac2a83c463aed48", "fusion_lat": 0.0, "type": "electric_bike", "lat": 38.92350033333334, "is_reserved": 0, "is_disabled": 0, "fusion_lon": 0.0, "bike_id": "37f244904c2b59a65ac2a83c463aed48", "lon": -76.99251266666667, "rental_uris": {"ios": "https://dc.lft.to/lastmile_qr_scan", "android": "https://dc.lft.to/lastmile_qr_scan"}}, {"name": "f8a0cf0912deac72267e2fd1e06dd5bf", "fusion_lat": 0.0, "type": "electric_scooter", "lat": 38.901477666666665, "is_reserved": 0, "is_disabled": 0, "fusion_lon": 0.0, "bike_id": "f8a0cf0912deac72267e2fd1e06dd5bf", "lon": -77.02167216666666, "rental_uris": {"ios": "https://dc.lft.to/lastmile_qr_scan", "android": "https://dc.lft.to/lastmile_qr_scan"}}, {"name": "dd99c1fee55dac8b53dfed53aa348475", "fusion_lat": 0.0, "type": "electric_scooter", "lat": 38.912529666666664, "is_reserved": 0, "is_disabled": 0, "fusion_lon": 0.0, "bike_id": "dd99c1fee55dac8b53dfed53aa348475", "lon": -77.022296, "rental_uris": {"ios": "https://dc.lft.to/lastmile_qr_scan", "android": "https://dc.lft.to/lastmile_qr_scan"}}, {"name": "66ebca93f726ddaccf23d23314185d6d", "fusion_lat": 0.0, "type": "electric_scooter", "lat": 38.9429305, "is_reserved": 0, "is_disabled": 0, "fusion_lon": 0.0, "bike_id": "66ebca93f726ddaccf23d23314185d6d", "lon": -77.02173516666667, "rental_uris": {"ios": "https://dc.lft.to/lastmile_qr_scan", "android": "https://dc.lft.to/lastmile_qr_scan"}}, {"name": "f40eca1169cd104382efa053de7eb00c", "fusion_lat": 0.0, "type": "electric_scooter", "lat": 38.93009883333333, "is_reserved": 0, "is_disabled": 0, "fusion_lon": 0.0, "bike_id": "f40eca1169cd104382efa053de7eb00c", "lon": -77.023057, "rental_uris": {"ios": "https://dc.lft.to/lastmile_qr_scan", "android": "https://dc.lft.to/lastmile_qr_scan"}}, {"name": "ae5b0b1334c10ac3c9008dc7994dc800", "fusion_lat": 0.0, "type": "electric_scooter", "lat": 38.897378333333336, "is_reserved": 0, "is_disabled": 0, "fusion_lon": 0.0, "bike_id": "ae5b0b1334c10ac3c9008dc7994dc800", "lon": -76.942565, "rental_uris": {"ios": "https://dc.lft.to/lastmile_qr_scan", "android": "https://dc.lft.to/lastmile_qr_scan"}}, {"name": "a7f2605f5f34ecc3c2fb3832ff09e890", "fusion_lat": 0.0, "type": "electric_scooter", "lat": 38.91419116666667, "is_reserved": 0, "is_disabled": 0, "fusion_lon": 0.0, "bike_id": "a7f2605f5f34ecc3c2fb3832ff09e890", "lon": -77.03170116666666, "rental_uris": {"ios": "https://dc.lft.to/lastmile_qr_scan", "android": "https://dc.lft.to/lastmile_qr_scan"}}, {"name": "0efc9e46d6a76927c03e6212c7d8c445", "fusion_lat": 0.0, "type": "electric_scooter", "lat": 38.90027933333333, "is_reserved": 0, "is_disabled": 0, "fusion_lon": 0.0, "bike_id": "0efc9e46d6a76927c03e6212c7d8c445", "lon": -77.033238, "rental_uris": {"ios": "https://dc.lft.to/lastmile_qr_scan", "android": "https://dc.lft.to/lastmile_qr_scan"}}, {"name": "8bd35dfa10da10a27b42a235f541d33f", "fusion_lat": 0.0, "type": "electric_scooter", "lat": 38.907943833333334, "is_reserved": 0, "is_disabled": 0, "fusion_lon": 0.0, "bike_id": "8bd35dfa10da10a27b42a235f541d33f", "lon": -77.04825066666666, "rental_uris": {"ios": "https://dc.lft.to/lastmile_qr_scan", "android": "https://dc.lft.to/lastmile_qr_scan"}}, {"name": "cdfcdce3aa22563ef767d75f31ff2138", "fusion_lat": 0.0, "type": "electric_scooter", "lat": 38.908635, "is_reserved": 0, "is_disabled": 0, "fusion_lon": 0.0, "bike_id": "cdfcdce3aa22563ef767d75f31ff2138", "lon": -77.0271545, "rental_uris": {"ios": "https://dc.lft.to/lastmile_qr_scan", "android": "https://dc.lft.to/lastmile_qr_scan"}}, {"name": "1af0b3b8ca9b0a4ae8c48cc21edd8ffd", "fusion_lat": 0.0, "type": "electric_bike", "lat": 38.93599116666667, "is_reserved": 0, "is_disabled": 0, "fusion_lon": 0.0, "bike_id": "1af0b3b8ca9b0a4ae8c48cc21edd8ffd", "lon": -77.02114183333333, "rental_uris": {"ios": "https://dc.lft.to/lastmile_qr_scan", "android": "https://dc.lft.to/lastmile_qr_scan"}}, {"name": "ad43f796244349723e2b6758216c393b", "fusion_lat": 0.0, "type": "electric_scooter", "lat": 38.933815833333334, "is_reserved": 0, "is_disabled": 0, "fusion_lon": 0.0, "bike_id": "ad43f796244349723e2b6758216c393b", "lon": -77.05764283333333, "rental_uris": {"ios": "https://dc.lft.to/lastmile_qr_scan", "android": "https://dc.lft.to/lastmile_qr_scan"}}, {"name": "300ff4ee9ec3da56b99750843b4f8d7c", "fusion_lat": 0.0, "type": "electric_scooter", "lat": 38.9084635, "is_reserved": 0, "is_disabled": 0, "fusion_lon": 0.0, "bike_id": "300ff4ee9ec3da56b99750843b4f8d7c", "lon": -77.02050383333334, "rental_uris": {"ios": "https://dc.lft.to/lastmile_qr_scan", "android": "https://dc.lft.to/lastmile_qr_scan"}}, {"name": "cd5c02b1706da0b5d2ec46923cda874b", "fusion_lat": 0.0, "type": "electric_scooter", "lat": 38.905403166666666, "is_reserved": 0, "is_disabled": 0, "fusion_lon": 0.0, "bike_id": "cd5c02b1706da0b5d2ec46923cda874b", "lon": -77.02940266666667, "rental_uris": {"ios": "https://dc.lft.to/lastmile_qr_scan", "android": "https://dc.lft.to/lastmile_qr_scan"}}, {"name": "77c66146a10c9221ffb9ff7a3d868f20", "fusion_lat": 0.0, "type": "electric_scooter", "lat": 38.919115, "is_reserved": 0, "is_disabled": 0, "fusion_lon": 0.0, "bike_id": "77c66146a10c9221ffb9ff7a3d868f20", "lon": -77.02137066666667, "rental_uris": {"ios": "https://dc.lft.to/lastmile_qr_scan", "android": "https://dc.lft.to/lastmile_qr_scan"}}, {"name": "22db174525abe0f6dea55c2ed395cce0", "fusion_lat": 0.0, "type": "electric_scooter", "lat": 38.902173, "is_reserved": 0, "is_disabled": 0, "fusion_lon": 0.0, "bike_id": "22db174525abe0f6dea55c2ed395cce0", "lon": -77.023843, "rental_uris": {"ios": "https://dc.lft.to/lastmile_qr_scan", "android": "https://dc.lft.to/lastmile_qr_scan"}}, {"name": "cdf5d675fde54d5040ed46a05f3b5dd9", "fusion_lat": 0.0, "type": "electric_scooter", "lat": 38.9248105, "is_reserved": 0, "is_disabled": 0, "fusion_lon": 0.0, "bike_id": "cdf5d675fde54d5040ed46a05f3b5dd9", "lon": -77.05217066666667, "rental_uris": {"ios": "https://dc.lft.to/lastmile_qr_scan", "android": "https://dc.lft.to/lastmile_qr_scan"}}, {"name": "c3c891e86457393d878fdd88f5b8dc2e", "fusion_lat": 0.0, "type": "electric_bike", "lat": 38.90627033333333, "is_reserved": 0, "is_disabled": 0, "fusion_lon": 0.0, "bike_id": "c3c891e86457393d878fdd88f5b8dc2e", "lon": -76.98609816666666, "rental_uris": {"ios": "https://dc.lft.to/lastmile_qr_scan", "android": "https://dc.lft.to/lastmile_qr_scan"}}, {"name": "d3d701a0b118f02ae50748e5aef2c127", "fusion_lat": 0.0, "type": "electric_scooter", "lat": 38.91869883333333, "is_reserved": 0, "is_disabled": 0, "fusion_lon": 0.0, "bike_id": "d3d701a0b118f02ae50748e5aef2c127", "lon": -77.04216866666667, "rental_uris": {"ios": "https://dc.lft.to/lastmile_qr_scan", "android": "https://dc.lft.to/lastmile_qr_scan"}}, {"name": "d23cc147a922648f160a48d5e47c344e", "fusion_lat": 0.0, "type": "electric_scooter", "lat": 38.88517233333334, "is_reserved": 0, "is_disabled": 0, "fusion_lon": 0.0, "bike_id": "d23cc147a922648f160a48d5e47c344e", "lon": -77.03354933333334, "rental_uris": {"ios": "https://dc.lft.to/lastmile_qr_scan", "android": "https://dc.lft.to/lastmile_qr_scan"}}, {"name": "6b7c98c6380379cd0dd73dfef547522f", "fusion_lat": 0.0, "type": "electric_scooter", "lat": 38.9096035, "is_reserved": 0, "is_disabled": 0, "fusion_lon": 0.0, "bike_id": "6b7c98c6380379cd0dd73dfef547522f", "lon": -77.03869066666667, "rental_uris": {"ios": "https://dc.lft.to/lastmile_qr_scan", "android": "https://dc.lft.to/lastmile_qr_scan"}}, {"name": "f1279a978d46ed48bc3e084ec4bbd0a8", "fusion_lat": 0.0, "type": "electric_scooter", "lat": 38.8737295, "is_reserved": 0, "is_disabled": 0, "fusion_lon": 0.0, "bike_id": "f1279a978d46ed48bc3e084ec4bbd0a8", "lon": -77.0003755, "rental_uris": {"ios": "https://dc.lft.to/lastmile_qr_scan", "android": "https://dc.lft.to/lastmile_qr_scan"}}, {"name": "5c0192ee6385c7405c250a71adbed5b5", "fusion_lat": 0.0, "type": "electric_scooter", "lat": 38.886552333333334, "is_reserved": 0, "is_disabled": 0, "fusion_lon": 0.0, "bike_id": "5c0192ee6385c7405c250a71adbed5b5", "lon": -77.0012155, "rental_uris": {"ios": "https://dc.lft.to/lastmile_qr_scan", "android": "https://dc.lft.to/lastmile_qr_scan"}}, {"name": "b481a5aecd6693076ce14292d0e662e5", "fusion_lat": 0.0, "type": "electric_scooter", "lat": 38.917304, "is_reserved": 0, "is_disabled": 0, "fusion_lon": 0.0, "bike_id": "b481a5aecd6693076ce14292d0e662e5", "lon": -77.0000105, "rental_uris": {"ios": "https://dc.lft.to/lastmile_qr_scan", "android": "https://dc.lft.to/lastmile_qr_scan"}}, {"name": "3c110fe1cdaa88a7432b91df5249241c", "fusion_lat": 0.0, "type": "electric_scooter", "lat": 38.91763866666667, "is_reserved": 0, "is_disabled": 0, "fusion_lon": 0.0, "bike_id": "3c110fe1cdaa88a7432b91df5249241c", "lon": -77.0149165, "rental_uris": {"ios": "https://dc.lft.to/lastmile_qr_scan", "android": "https://dc.lft.to/lastmile_qr_scan"}}, {"name": "edfb3da7c5859d6d36a73e0788964d17", "fusion_lat": 0.0, "type": "electric_scooter", "lat": 38.901631, "is_reserved": 0, "is_disabled": 0, "fusion_lon": 0.0, "bike_id": "edfb3da7c5859d6d36a73e0788964d17", "lon": -77.04675666666667, "rental_uris": {"ios": "https://dc.lft.to/lastmile_qr_scan", "android": "https://dc.lft.to/lastmile_qr_scan"}}, {"name": "5cc3a40c78b00fd46819e7d943ae362d", "fusion_lat": 0.0, "type": "electric_scooter", "lat": 38.9038075, "is_reserved": 0, "is_disabled": 0, "fusion_lon": 0.0, "bike_id": "5cc3a40c78b00fd46819e7d943ae362d", "lon": -77.03566116666667, "rental_uris": {"ios": "https://dc.lft.to/lastmile_qr_scan", "android": "https://dc.lft.to/lastmile_qr_scan"}}, {"name": "c1f4a5d001f0bde58146bb606e41f672", "fusion_lat": 0.0, "type": "electric_scooter", "lat": 38.90273583333333, "is_reserved": 0, "is_disabled": 0, "fusion_lon": 0.0, "bike_id": "c1f4a5d001f0bde58146bb606e41f672", "lon": -77.01774266666666, "rental_uris": {"ios": "https://dc.lft.to/lastmile_qr_scan", "android": "https://dc.lft.to/lastmile_qr_scan"}}, {"name": "c63f99b2e0273f82b63775d6d501ad52", "fusion_lat": 0.0, "type": "electric_scooter", "lat": 38.91564866666667, "is_reserved": 0, "is_disabled": 0, "fusion_lon": 0.0, "bike_id": "c63f99b2e0273f82b63775d6d501ad52", "lon": -77.052236, "rental_uris": {"ios": "https://dc.lft.to/lastmile_qr_scan", "android": "https://dc.lft.to/lastmile_qr_scan"}}, {"name": "6c9a5f5bbbb3cd7838fb035bc442e562", "fusion_lat": 0.0, "type": "electric_scooter", "lat": 38.91402516666667, "is_reserved": 0, "is_disabled": 0, "fusion_lon": 0.0, "bike_id": "6c9a5f5bbbb3cd7838fb035bc442e562", "lon": -77.0084025, "rental_uris": {"ios": "https://dc.lft.to/lastmile_qr_scan", "android": "https://dc.lft.to/lastmile_qr_scan"}}, {"name": "a6778fd7e1dfbc7bd2f6072ed2021668", "fusion_lat": 0.0, "type": "electric_scooter", "lat": 38.93964583333333, "is_reserved": 0, "is_disabled": 0, "fusion_lon": 0.0, "bike_id": "a6778fd7e1dfbc7bd2f6072ed2021668", "lon": -77.0328375, "rental_uris": {"ios": "https://dc.lft.to/lastmile_qr_scan", "android": "https://dc.lft.to/lastmile_qr_scan"}}, {"name": "3a7411f104a385e8d4f8db23dd58f24c", "fusion_lat": 0.0, "type": "electric_scooter", "lat": 38.907335, "is_reserved": 0, "is_disabled": 0, "fusion_lon": 0.0, "bike_id": "3a7411f104a385e8d4f8db23dd58f24c", "lon": -77.04520316666667, "rental_uris": {"ios": "https://dc.lft.to/lastmile_qr_scan", "android": "https://dc.lft.to/lastmile_qr_scan"}}, {"name": "0ef30e60dd3b965c0d3da3bd2fb88fe7", "fusion_lat": 0.0, "type": "electric_scooter", "lat": 38.9002795, "is_reserved": 0, "is_disabled": 0, "fusion_lon": 0.0, "bike_id": "0ef30e60dd3b965c0d3da3bd2fb88fe7", "lon": -76.995638, "rental_uris": {"ios": "https://dc.lft.to/lastmile_qr_scan", "android": "https://dc.lft.to/lastmile_qr_scan"}}, {"name": "04fa2b80cf40ef7bb3f11d19d875a5d8", "fusion_lat": 0.0, "type": "electric_scooter", "lat": 38.916921, "is_reserved": 0, "is_disabled": 0, "fusion_lon": 0.0, "bike_id": "04fa2b80cf40ef7bb3f11d19d875a5d8", "lon": -77.03621383333333, "rental_uris": {"ios": "https://dc.lft.to/lastmile_qr_scan", "android": "https://dc.lft.to/lastmile_qr_scan"}}, {"name": "ece7831f24f6c90de351a7a27c963ae2", "fusion_lat": 0.0, "type": "electric_scooter", "lat": 38.91118616666667, "is_reserved": 0, "is_disabled": 0, "fusion_lon": 0.0, "bike_id": "ece7831f24f6c90de351a7a27c963ae2", "lon": -77.03830533333333, "rental_uris": {"ios": "https://dc.lft.to/lastmile_qr_scan", "android": "https://dc.lft.to/lastmile_qr_scan"}}, {"name": "5f92ac9021f0f677c0b859a036e9180b", "fusion_lat": 0.0, "type": "electric_bike", "lat": 38.867558333333335, "is_reserved": 0, "is_disabled": 0, "fusion_lon": 0.0, "bike_id": "5f92ac9021f0f677c0b859a036e9180b", "lon": -76.94536916666667, "rental_uris": {"ios": "https://dc.lft.to/lastmile_qr_scan", "android": "https://dc.lft.to/lastmile_qr_scan"}}, {"name": "eeec62047f5b7198ab3c8b211bed49a4", "fusion_lat": 0.0, "type": "electric_scooter", "lat": 38.903029333333336, "is_reserved": 0, "is_disabled": 0, "fusion_lon": 0.0, "bike_id": "eeec62047f5b7198ab3c8b211bed49a4", "lon": -77.03822283333334, "rental_uris": {"ios": "https://dc.lft.to/lastmile_qr_scan", "android": "https://dc.lft.to/lastmile_qr_scan"}}, {"name": "e7946075d2036bfe75cdb95850c41bd0", "fusion_lat": 0.0, "type": "electric_scooter", "lat": 38.918064, "is_reserved": 0, "is_disabled": 0, "fusion_lon": 0.0, "bike_id": "e7946075d2036bfe75cdb95850c41bd0", "lon": -77.02818116666667, "rental_uris": {"ios": "https://dc.lft.to/lastmile_qr_scan", "android": "https://dc.lft.to/lastmile_qr_scan"}}, {"name": "416aeba472579bd61c6583d5be3fd5d5", "fusion_lat": 0.0, "type": "electric_scooter", "lat": 38.9220885, "is_reserved": 0, "is_disabled": 0, "fusion_lon": 0.0, "bike_id": "416aeba472579bd61c6583d5be3fd5d5", "lon": -77.04238, "rental_uris": {"ios": "https://dc.lft.to/lastmile_qr_scan", "android": "https://dc.lft.to/lastmile_qr_scan"}}, {"name": "a5175ad3e20e319085173188f46f2618", "fusion_lat": 0.0, "type": "electric_scooter", "lat": 38.931113833333335, "is_reserved": 0, "is_disabled": 0, "fusion_lon": 0.0, "bike_id": "a5175ad3e20e319085173188f46f2618", "lon": -77.02417366666667, "rental_uris": {"ios": "https://dc.lft.to/lastmile_qr_scan", "android": "https://dc.lft.to/lastmile_qr_scan"}}, {"name": "e1336292b921d62bf967cd5f70787827", "fusion_lat": 0.0, "type": "electric_scooter", "lat": 38.90141666666667, "is_reserved": 0, "is_disabled": 0, "fusion_lon": 0.0, "bike_id": "e1336292b921d62bf967cd5f70787827", "lon": -76.99972983333333, "rental_uris": {"ios": "https://dc.lft.to/lastmile_qr_scan", "android": "https://dc.lft.to/lastmile_qr_scan"}}, {"name": "27f7fb835b23a9e5c871bfcb500af11f", "fusion_lat": 0.0, "type": "electric_scooter", "lat": 38.939628166666665, "is_reserved": 0, "is_disabled": 0, "fusion_lon": 0.0, "bike_id": "27f7fb835b23a9e5c871bfcb500af11f", "lon": -77.0327665, "rental_uris": {"ios": "https://dc.lft.to/lastmile_qr_scan", "android": "https://dc.lft.to/lastmile_qr_scan"}}, {"name": "7e7f24c8acd6cf7919a95b762bfd1277", "fusion_lat": 0.0, "type": "electric_scooter", "lat": 38.91420683333333, "is_reserved": 0, "is_disabled": 0, "fusion_lon": 0.0, "bike_id": "7e7f24c8acd6cf7919a95b762bfd1277", "lon": -77.02612166666667, "rental_uris": {"ios": "https://dc.lft.to/lastmile_qr_scan", "android": "https://dc.lft.to/lastmile_qr_scan"}}, {"name": "0a0316536eb67ff1d836240c389c6a6e", "fusion_lat": 0.0, "type": "electric_scooter", "lat": 38.902942, "is_reserved": 0, "is_disabled": 0, "fusion_lon": 0.0, "bike_id": "0a0316536eb67ff1d836240c389c6a6e", "lon": -77.03198066666667, "rental_uris": {"ios": "https://dc.lft.to/lastmile_qr_scan", "android": "https://dc.lft.to/lastmile_qr_scan"}}, {"name": "42afefe281be1f70ebbfcc5ec8294ca9", "fusion_lat": 0.0, "type": "electric_scooter", "lat": 38.889299333333334, "is_reserved": 0, "is_disabled": 0, "fusion_lon": 0.0, "bike_id": "42afefe281be1f70ebbfcc5ec8294ca9", "lon": -76.9478105, "rental_uris": {"ios": "https://dc.lft.to/lastmile_qr_scan", "android": "https://dc.lft.to/lastmile_qr_scan"}}, {"name": "34cda9487453361991944992c31a977d", "fusion_lat": 0.0, "type": "electric_bike", "lat": 38.83862766666667, "is_reserved": 0, "is_disabled": 0, "fusion_lon": 0.0, "bike_id": "34cda9487453361991944992c31a977d", "lon": -77.08877383333333, "rental_uris": {"ios": "https://dc.lft.to/lastmile_qr_scan", "android": "https://dc.lft.to/lastmile_qr_scan"}}, {"name": "c4bc31aa1215720ac225109937a1b53f", "fusion_lat": 0.0, "type": "electric_bike", "lat": 38.97324233333333, "is_reserved": 0, "is_disabled": 0, "fusion_lon": 0.0, "bike_id": "c4bc31aa1215720ac225109937a1b53f", "lon": -77.02150333333333, "rental_uris": {"ios": "https://dc.lft.to/lastmile_qr_scan", "android": "https://dc.lft.to/lastmile_qr_scan"}}, {"name": "ccf1196c685c22af9cacde13781159d7", "fusion_lat": 0.0, "type": "electric_scooter", "lat": 38.89897166666667, "is_reserved": 0, "is_disabled": 0, "fusion_lon": 0.0, "bike_id": "ccf1196c685c22af9cacde13781159d7", "lon": -76.93301466666666, "rental_uris": {"ios": "https://dc.lft.to/lastmile_qr_scan", "android": "https://dc.lft.to/lastmile_qr_scan"}}, {"name": "414398d105049923efd7c6029e949dff", "fusion_lat": 0.0, "type": "electric_scooter", "lat": 38.918124666666664, "is_reserved": 0, "is_disabled": 0, "fusion_lon": 0.0, "bike_id": "414398d105049923efd7c6029e949dff", "lon": -77.03450483333333, "rental_uris": {"ios": "https://dc.lft.to/lastmile_qr_scan", "android": "https://dc.lft.to/lastmile_qr_scan"}}, {"name": "9999a97c249c28fbeb0510ba22170f7e", "fusion_lat": 0.0, "type": "electric_scooter", "lat": 38.89604466666667, "is_reserved": 0, "is_disabled": 0, "fusion_lon": 0.0, "bike_id": "9999a97c249c28fbeb0510ba22170f7e", "lon": -77.011179, "rental_uris": {"ios": "https://dc.lft.to/lastmile_qr_scan", "android": "https://dc.lft.to/lastmile_qr_scan"}}, {"name": "5ce0b36a28cc91c19c299d91822186b2", "fusion_lat": 0.0, "type": "electric_scooter", "lat": 38.9224365, "is_reserved": 0, "is_disabled": 0, "fusion_lon": 0.0, "bike_id": "5ce0b36a28cc91c19c299d91822186b2", "lon": -77.02231233333333, "rental_uris": {"ios": "https://dc.lft.to/lastmile_qr_scan", "android": "https://dc.lft.to/lastmile_qr_scan"}}, {"name": "758257c58e2b2d1760363d8db4f20b74", "fusion_lat": 0.0, "type": "electric_scooter", "lat": 38.92960566666667, "is_reserved": 0, "is_disabled": 0, "fusion_lon": 0.0, "bike_id": "758257c58e2b2d1760363d8db4f20b74", "lon": -77.00542383333334, "rental_uris": {"ios": "https://dc.lft.to/lastmile_qr_scan", "android": "https://dc.lft.to/lastmile_qr_scan"}}, {"name": "de1bcf7817ae763d282331134dda91c5", "fusion_lat": 0.0, "type": "electric_scooter", "lat": 38.903023166666664, "is_reserved": 0, "is_disabled": 0, "fusion_lon": 0.0, "bike_id": "de1bcf7817ae763d282331134dda91c5", "lon": -77.036506, "rental_uris": {"ios": "https://dc.lft.to/lastmile_qr_scan", "android": "https://dc.lft.to/lastmile_qr_scan"}}, {"name": "3955290a49cf047048282fb5625928d4", "fusion_lat": 0.0, "type": "electric_scooter", "lat": 38.90110283333333, "is_reserved": 0, "is_disabled": 0, "fusion_lon": 0.0, "bike_id": "3955290a49cf047048282fb5625928d4", "lon": -77.04981666666667, "rental_uris": {"ios": "https://dc.lft.to/lastmile_qr_scan", "android": "https://dc.lft.to/lastmile_qr_scan"}}, {"name": "5485636cdcd1a55c9f83b0d0772edff3", "fusion_lat": 0.0, "type": "electric_scooter", "lat": 38.910136666666666, "is_reserved": 0, "is_disabled": 0, "fusion_lon": 0.0, "bike_id": "5485636cdcd1a55c9f83b0d0772edff3", "lon": -77.04425433333333, "rental_uris": {"ios": "https://dc.lft.to/lastmile_qr_scan", "android": "https://dc.lft.to/lastmile_qr_scan"}}, {"name": "67dc665d4ef11718d467ed74b92411e1", "fusion_lat": 0.0, "type": "electric_scooter", "lat": 38.89889066666667, "is_reserved": 0, "is_disabled": 0, "fusion_lon": 0.0, "bike_id": "67dc665d4ef11718d467ed74b92411e1", "lon": -76.985716, "rental_uris": {"ios": "https://dc.lft.to/lastmile_qr_scan", "android": "https://dc.lft.to/lastmile_qr_scan"}}, {"name": "831fb7052b2392ab987a93d865b032fa", "fusion_lat": 0.0, "type": "electric_scooter", "lat": 38.9264345, "is_reserved": 0, "is_disabled": 0, "fusion_lon": 0.0, "bike_id": "831fb7052b2392ab987a93d865b032fa", "lon": -77.0347005, "rental_uris": {"ios": "https://dc.lft.to/lastmile_qr_scan", "android": "https://dc.lft.to/lastmile_qr_scan"}}, {"name": "5eb3d81b0ddd820ed86da4fb56bf03ee", "fusion_lat": 0.0, "type": "electric_scooter", "lat": 38.90862533333333, "is_reserved": 0, "is_disabled": 0, "fusion_lon": 0.0, "bike_id": "5eb3d81b0ddd820ed86da4fb56bf03ee", "lon": -76.99962566666666, "rental_uris": {"ios": "https://dc.lft.to/lastmile_qr_scan", "android": "https://dc.lft.to/lastmile_qr_scan"}}, {"name": "efe993377756e3e0105406ea0962f143", "fusion_lat": 0.0, "type": "electric_scooter", "lat": 38.9181635, "is_reserved": 0, "is_disabled": 0, "fusion_lon": 0.0, "bike_id": "efe993377756e3e0105406ea0962f143", "lon": -77.03461183333333, "rental_uris": {"ios": "https://dc.lft.to/lastmile_qr_scan", "android": "https://dc.lft.to/lastmile_qr_scan"}}, {"name": "ceb990b7d48df8b7a3c74a6359d67826", "fusion_lat": 0.0, "type": "electric_scooter", "lat": 38.91409566666667, "is_reserved": 0, "is_disabled": 0, "fusion_lon": 0.0, "bike_id": "ceb990b7d48df8b7a3c74a6359d67826", "lon": -77.0097835, "rental_uris": {"ios": "https://dc.lft.to/lastmile_qr_scan", "android": "https://dc.lft.to/lastmile_qr_scan"}}, {"name": "e52cdaf74ee0598aef7adea0cbb6f3b4", "fusion_lat": 0.0, "type": "electric_scooter", "lat": 38.9155335, "is_reserved": 0, "is_disabled": 0, "fusion_lon": 0.0, "bike_id": "e52cdaf74ee0598aef7adea0cbb6f3b4", "lon": -77.03852833333333, "rental_uris": {"ios": "https://dc.lft.to/lastmile_qr_scan", "android": "https://dc.lft.to/lastmile_qr_scan"}}, {"name": "2af2fc35c44e07b65cf3e405fc9422d3", "fusion_lat": 0.0, "type": "electric_scooter", "lat": 38.89679683333333, "is_reserved": 0, "is_disabled": 0, "fusion_lon": 0.0, "bike_id": "2af2fc35c44e07b65cf3e405fc9422d3", "lon": -76.94730916666667, "rental_uris": {"ios": "https://dc.lft.to/lastmile_qr_scan", "android": "https://dc.lft.to/lastmile_qr_scan"}}, {"name": "6e442df1d432d409d698ecfcbc36c244", "fusion_lat": 0.0, "type": "electric_scooter", "lat": 38.902735, "is_reserved": 0, "is_disabled": 0, "fusion_lon": 0.0, "bike_id": "6e442df1d432d409d698ecfcbc36c244", "lon": -77.017721, "rental_uris": {"ios": "https://dc.lft.to/lastmile_qr_scan", "android": "https://dc.lft.to/lastmile_qr_scan"}}, {"name": "5b732868556c4a178750d01ccf213249", "fusion_lat": 0.0, "type": "electric_scooter", "lat": 38.905803166666665, "is_reserved": 0, "is_disabled": 0, "fusion_lon": 0.0, "bike_id": "5b732868556c4a178750d01ccf213249", "lon": -77.00257083333334, "rental_uris": {"ios": "https://dc.lft.to/lastmile_qr_scan", "android": "https://dc.lft.to/lastmile_qr_scan"}}, {"name": "804e3c8c7a21164f8e0626f275bf179d", "fusion_lat": 0.0, "type": "electric_scooter", "lat": 38.9186715, "is_reserved": 0, "is_disabled": 0, "fusion_lon": 0.0, "bike_id": "804e3c8c7a21164f8e0626f275bf179d", "lon": -77.04459216666666, "rental_uris": {"ios": "https://dc.lft.to/lastmile_qr_scan", "android": "https://dc.lft.to/lastmile_qr_scan"}}, {"name": "9070a5b78465cf7944ab5512d5ee59e2", "fusion_lat": 0.0, "type": "electric_bike", "lat": 38.86865, "is_reserved": 0, "is_disabled": 0, "fusion_lon": 0.0, "bike_id": "9070a5b78465cf7944ab5512d5ee59e2", "lon": -76.91661633333334, "rental_uris": {"ios": "https://dc.lft.to/lastmile_qr_scan", "android": "https://dc.lft.to/lastmile_qr_scan"}}, {"name": "83172bc03f22d8724d397424c1488e81", "fusion_lat": 0.0, "type": "electric_bike", "lat": 38.89648833333333, "is_reserved": 0, "is_disabled": 0, "fusion_lon": 0.0, "bike_id": "83172bc03f22d8724d397424c1488e81", "lon": -77.1045195, "rental_uris": {"ios": "https://dc.lft.to/lastmile_qr_scan", "android": "https://dc.lft.to/lastmile_qr_scan"}}, {"name": "e284de5ef3feec3dae15f12bdee03080", "fusion_lat": 0.0, "type": "electric_scooter", "lat": 38.87886116666667, "is_reserved": 0, "is_disabled": 0, "fusion_lon": 0.0, "bike_id": "e284de5ef3feec3dae15f12bdee03080", "lon": -77.022872, "rental_uris": {"ios": "https://dc.lft.to/lastmile_qr_scan", "android": "https://dc.lft.to/lastmile_qr_scan"}}, {"name": "06d112d5f5e220a08b67a842477908fc", "fusion_lat": 0.0, "type": "electric_scooter", "lat": 38.90001866666667, "is_reserved": 0, "is_disabled": 0, "fusion_lon": 0.0, "bike_id": "06d112d5f5e220a08b67a842477908fc", "lon": -76.99468633333333, "rental_uris": {"ios": "https://dc.lft.to/lastmile_qr_scan", "android": "https://dc.lft.to/lastmile_qr_scan"}}, {"name": "99368a2af17c298a1d9196d3176b50e6", "fusion_lat": 0.0, "type": "electric_scooter", "lat": 38.914145, "is_reserved": 0, "is_disabled": 0, "fusion_lon": 0.0, "bike_id": "99368a2af17c298a1d9196d3176b50e6", "lon": -77.04498916666667, "rental_uris": {"ios": "https://dc.lft.to/lastmile_qr_scan", "android": "https://dc.lft.to/lastmile_qr_scan"}}, {"name": "7f65256f9ecb32f6b205d67264961eb1", "fusion_lat": 0.0, "type": "electric_scooter", "lat": 38.935774, "is_reserved": 0, "is_disabled": 0, "fusion_lon": 0.0, "bike_id": "7f65256f9ecb32f6b205d67264961eb1", "lon": -77.0284575, "rental_uris": {"ios": "https://dc.lft.to/lastmile_qr_scan", "android": "https://dc.lft.to/lastmile_qr_scan"}}, {"name": "d887e72d2aae05232244588c844c7c13", "fusion_lat": 0.0, "type": "electric_scooter", "lat": 38.90814833333334, "is_reserved": 0, "is_disabled": 0, "fusion_lon": 0.0, "bike_id": "d887e72d2aae05232244588c844c7c13", "lon": -77.0434175, "rental_uris": {"ios": "https://dc.lft.to/lastmile_qr_scan", "android": "https://dc.lft.to/lastmile_qr_scan"}}, {"name": "127b3045caa6f5604f456e8ef129dced", "fusion_lat": 0.0, "type": "electric_scooter", "lat": 38.921066833333335, "is_reserved": 0, "is_disabled": 0, "fusion_lon": 0.0, "bike_id": "127b3045caa6f5604f456e8ef129dced", "lon": -77.03924733333334, "rental_uris": {"ios": "https://dc.lft.to/lastmile_qr_scan", "android": "https://dc.lft.to/lastmile_qr_scan"}}, {"name": "7ef59afea96f7e3aa431425eb0f3fa14", "fusion_lat": 0.0, "type": "electric_scooter", "lat": 38.92481466666667, "is_reserved": 0, "is_disabled": 0, "fusion_lon": 0.0, "bike_id": "7ef59afea96f7e3aa431425eb0f3fa14", "lon": -77.0300165, "rental_uris": {"ios": "https://dc.lft.to/lastmile_qr_scan", "android": "https://dc.lft.to/lastmile_qr_scan"}}, {"name": "9c936abb2617acd0752e77872a0dafc1", "fusion_lat": 0.0, "type": "electric_scooter", "lat": 38.9389715, "is_reserved": 0, "is_disabled": 0, "fusion_lon": 0.0, "bike_id": "9c936abb2617acd0752e77872a0dafc1", "lon": -77.01758983333333, "rental_uris": {"ios": "https://dc.lft.to/lastmile_qr_scan", "android": "https://dc.lft.to/lastmile_qr_scan"}}, {"name": "548b3d917efdbae2fb2ab18cc9ff4d0b", "fusion_lat": 0.0, "type": "electric_scooter", "lat": 38.91916366666667, "is_reserved": 0, "is_disabled": 0, "fusion_lon": 0.0, "bike_id": "548b3d917efdbae2fb2ab18cc9ff4d0b", "lon": -77.01125233333333, "rental_uris": {"ios": "https://dc.lft.to/lastmile_qr_scan", "android": "https://dc.lft.to/lastmile_qr_scan"}}, {"name": "f91273300b35d04268538ca87363531d", "fusion_lat": 0.0, "type": "electric_bike", "lat": 38.877331833333336, "is_reserved": 0, "is_disabled": 0, "fusion_lon": 0.0, "bike_id": "f91273300b35d04268538ca87363531d", "lon": -77.11848833333333, "rental_uris": {"ios": "https://dc.lft.to/lastmile_qr_scan", "android": "https://dc.lft.to/lastmile_qr_scan"}}, {"name": "eef393e0ca1790462133cc4f27da3c47", "fusion_lat": 0.0, "type": "electric_scooter", "lat": 38.87231233333333, "is_reserved": 0, "is_disabled": 0, "fusion_lon": 0.0, "bike_id": "eef393e0ca1790462133cc4f27da3c47", "lon": -77.01763933333334, "rental_uris": {"ios": "https://dc.lft.to/lastmile_qr_scan", "android": "https://dc.lft.to/lastmile_qr_scan"}}, {"name": "875833461eab0779f10031a96c937384", "fusion_lat": 0.0, "type": "electric_scooter", "lat": 38.912849333333334, "is_reserved": 0, "is_disabled": 0, "fusion_lon": 0.0, "bike_id": "875833461eab0779f10031a96c937384", "lon": -76.93797133333334, "rental_uris": {"ios": "https://dc.lft.to/lastmile_qr_scan", "android": "https://dc.lft.to/lastmile_qr_scan"}}, {"name": "89cd9a9ae0b998bd11a634d411d95597", "fusion_lat": 0.0, "type": "electric_scooter", "lat": 38.898321833333334, "is_reserved": 0, "is_disabled": 0, "fusion_lon": 0.0, "bike_id": "89cd9a9ae0b998bd11a634d411d95597", "lon": -76.9464155, "rental_uris": {"ios": "https://dc.lft.to/lastmile_qr_scan", "android": "https://dc.lft.to/lastmile_qr_scan"}}, {"name": "e1e453a083d524c67270c04a13b65309", "fusion_lat": 0.0, "type": "electric_scooter", "lat": 38.894008666666664, "is_reserved": 0, "is_disabled": 0, "fusion_lon": 0.0, "bike_id": "e1e453a083d524c67270c04a13b65309", "lon": -77.02167133333333, "rental_uris": {"ios": "https://dc.lft.to/lastmile_qr_scan", "android": "https://dc.lft.to/lastmile_qr_scan"}}, {"name": "c66160468bebdd91361d2fddfd41d23e", "fusion_lat": 0.0, "type": "electric_scooter", "lat": 38.890876, "is_reserved": 0, "is_disabled": 0, "fusion_lon": 0.0, "bike_id": "c66160468bebdd91361d2fddfd41d23e", "lon": -76.98733133333333, "rental_uris": {"ios": "https://dc.lft.to/lastmile_qr_scan", "android": "https://dc.lft.to/lastmile_qr_scan"}}, {"name": "9dede0dbbf8ea8900e66c73493283dc6", "fusion_lat": 0.0, "type": "electric_scooter", "lat": 38.918251166666664, "is_reserved": 0, "is_disabled": 0, "fusion_lon": 0.0, "bike_id": "9dede0dbbf8ea8900e66c73493283dc6", "lon": -77.02709583333333, "rental_uris": {"ios": "https://dc.lft.to/lastmile_qr_scan", "android": "https://dc.lft.to/lastmile_qr_scan"}}, {"name": "09c56d6300bbbbb9d600e938188594d4", "fusion_lat": 0.0, "type": "electric_scooter", "lat": 38.90704916666667, "is_reserved": 0, "is_disabled": 0, "fusion_lon": 0.0, "bike_id": "09c56d6300bbbbb9d600e938188594d4", "lon": -76.98859633333333, "rental_uris": {"ios": "https://dc.lft.to/lastmile_qr_scan", "android": "https://dc.lft.to/lastmile_qr_scan"}}, {"name": "70d08647389336252d3b15a1b95b5bd9", "fusion_lat": 0.0, "type": "electric_scooter", "lat": 38.932548833333335, "is_reserved": 0, "is_disabled": 0, "fusion_lon": 0.0, "bike_id": "70d08647389336252d3b15a1b95b5bd9", "lon": -77.03999033333334, "rental_uris": {"ios": "https://dc.lft.to/lastmile_qr_scan", "android": "https://dc.lft.to/lastmile_qr_scan"}}, {"name": "eb70367c2d83905f1cc3197461371245", "fusion_lat": 0.0, "type": "electric_scooter", "lat": 38.926877833333336, "is_reserved": 0, "is_disabled": 0, "fusion_lon": 0.0, "bike_id": "eb70367c2d83905f1cc3197461371245", "lon": -77.0377875, "rental_uris": {"ios": "https://dc.lft.to/lastmile_qr_scan", "android": "https://dc.lft.to/lastmile_qr_scan"}}, {"name": "a87f5028e14f036bbf7d83ba6ee906c9", "fusion_lat": 0.0, "type": "electric_scooter", "lat": 38.9050405, "is_reserved": 0, "is_disabled": 0, "fusion_lon": 0.0, "bike_id": "a87f5028e14f036bbf7d83ba6ee906c9", "lon": -77.04493833333333, "rental_uris": {"ios": "https://dc.lft.to/lastmile_qr_scan", "android": "https://dc.lft.to/lastmile_qr_scan"}}, {"name": "50434ae0aad4900284ac3735783996d0", "fusion_lat": 0.0, "type": "electric_scooter", "lat": 38.9126465, "is_reserved": 0, "is_disabled": 0, "fusion_lon": 0.0, "bike_id": "50434ae0aad4900284ac3735783996d0", "lon": -77.03874733333333, "rental_uris": {"ios": "https://dc.lft.to/lastmile_qr_scan", "android": "https://dc.lft.to/lastmile_qr_scan"}}, {"name": "49177ebc4fe37e8e4765564325fcd1be", "fusion_lat": 0.0, "type": "electric_scooter", "lat": 38.91692533333333, "is_reserved": 0, "is_disabled": 0, "fusion_lon": 0.0, "bike_id": "49177ebc4fe37e8e4765564325fcd1be", "lon": -77.02468516666667, "rental_uris": {"ios": "https://dc.lft.to/lastmile_qr_scan", "android": "https://dc.lft.to/lastmile_qr_scan"}}, {"name": "33f1d2a22e743e401224c95a2116dcaa", "fusion_lat": 0.0, "type": "electric_scooter", "lat": 38.913227166666665, "is_reserved": 0, "is_disabled": 0, "fusion_lon": 0.0, "bike_id": "33f1d2a22e743e401224c95a2116dcaa", "lon": -77.017775, "rental_uris": {"ios": "https://dc.lft.to/lastmile_qr_scan", "android": "https://dc.lft.to/lastmile_qr_scan"}}, {"name": "5f51c6c22f6ae65c5a67b3767e2eb45c", "fusion_lat": 0.0, "type": "electric_bike", "lat": 39.05809333333333, "is_reserved": 0, "is_disabled": 0, "fusion_lon": 0.0, "bike_id": "5f51c6c22f6ae65c5a67b3767e2eb45c", "lon": -77.126277, "rental_uris": {"ios": "https://dc.lft.to/lastmile_qr_scan", "android": "https://dc.lft.to/lastmile_qr_scan"}}, {"name": "6c2bb6838fd73de33f8b38c4fd80ec5b", "fusion_lat": 0.0, "type": "electric_scooter", "lat": 38.91336183333333, "is_reserved": 0, "is_disabled": 0, "fusion_lon": 0.0, "bike_id": "6c2bb6838fd73de33f8b38c4fd80ec5b", "lon": -77.04574633333333, "rental_uris": {"ios": "https://dc.lft.to/lastmile_qr_scan", "android": "https://dc.lft.to/lastmile_qr_scan"}}, {"name": "73ca7bac3547e26893bdb6145e9c45d1", "fusion_lat": 0.0, "type": "electric_scooter", "lat": 38.941809, "is_reserved": 0, "is_disabled": 0, "fusion_lon": 0.0, "bike_id": "73ca7bac3547e26893bdb6145e9c45d1", "lon": -77.03030383333333, "rental_uris": {"ios": "https://dc.lft.to/lastmile_qr_scan", "android": "https://dc.lft.to/lastmile_qr_scan"}}, {"name": "d795f6257d08482b557436a7fcf18993", "fusion_lat": 0.0, "type": "electric_scooter", "lat": 38.91913133333333, "is_reserved": 0, "is_disabled": 0, "fusion_lon": 0.0, "bike_id": "d795f6257d08482b557436a7fcf18993", "lon": -77.02618333333334, "rental_uris": {"ios": "https://dc.lft.to/lastmile_qr_scan", "android": "https://dc.lft.to/lastmile_qr_scan"}}, {"name": "6a2106b46ea94f1d9ffc7c034be7c3b1", "fusion_lat": 0.0, "type": "electric_bike", "lat": 39.089002, "is_reserved": 0, "is_disabled": 0, "fusion_lon": 0.0, "bike_id": "6a2106b46ea94f1d9ffc7c034be7c3b1", "lon": -77.17846616666667, "rental_uris": {"ios": "https://dc.lft.to/lastmile_qr_scan", "android": "https://dc.lft.to/lastmile_qr_scan"}}, {"name": "fc189fc303a96f1a737890ce79a5f483", "fusion_lat": 0.0, "type": "electric_scooter", "lat": 38.897291333333335, "is_reserved": 0, "is_disabled": 0, "fusion_lon": 0.0, "bike_id": "fc189fc303a96f1a737890ce79a5f483", "lon": -77.00932933333333, "rental_uris": {"ios": "https://dc.lft.to/lastmile_qr_scan", "android": "https://dc.lft.to/lastmile_qr_scan"}}, {"name": "c104117d357991d0445e47508aebb945", "fusion_lat": 0.0, "type": "electric_scooter", "lat": 38.92146366666667, "is_reserved": 0, "is_disabled": 0, "fusion_lon": 0.0, "bike_id": "c104117d357991d0445e47508aebb945", "lon": -77.03380633333333, "rental_uris": {"ios": "https://dc.lft.to/lastmile_qr_scan", "android": "https://dc.lft.to/lastmile_qr_scan"}}, {"name": "c21a50b385858bfc0af75b6afc4fbf50", "fusion_lat": 0.0, "type": "electric_scooter", "lat": 38.906709166666666, "is_reserved": 0, "is_disabled": 0, "fusion_lon": 0.0, "bike_id": "c21a50b385858bfc0af75b6afc4fbf50", "lon": -77.027168, "rental_uris": {"ios": "https://dc.lft.to/lastmile_qr_scan", "android": "https://dc.lft.to/lastmile_qr_scan"}}, {"name": "49f1dc328412e3f0d279bd363796fe0c", "fusion_lat": 0.0, "type": "electric_scooter", "lat": 38.908418166666664, "is_reserved": 0, "is_disabled": 0, "fusion_lon": 0.0, "bike_id": "49f1dc328412e3f0d279bd363796fe0c", "lon": -77.00119766666667, "rental_uris": {"ios": "https://dc.lft.to/lastmile_qr_scan", "android": "https://dc.lft.to/lastmile_qr_scan"}}, {"name": "1758983262c223dc19ac241cf656bd4b", "fusion_lat": 0.0, "type": "electric_bike", "lat": 38.846128, "is_reserved": 0, "is_disabled": 0, "fusion_lon": 0.0, "bike_id": "1758983262c223dc19ac241cf656bd4b", "lon": -76.97828866666667, "rental_uris": {"ios": "https://dc.lft.to/lastmile_qr_scan", "android": "https://dc.lft.to/lastmile_qr_scan"}}, {"name": "1b27b79b574b0bcd47e6fa7f772bdc20", "fusion_lat": 0.0, "type": "electric_scooter", "lat": 38.9089875, "is_reserved": 0, "is_disabled": 0, "fusion_lon": 0.0, "bike_id": "1b27b79b574b0bcd47e6fa7f772bdc20", "lon": -77.028118, "rental_uris": {"ios": "https://dc.lft.to/lastmile_qr_scan", "android": "https://dc.lft.to/lastmile_qr_scan"}}, {"name": "61a3e14235727eaf82f76dfcce1182bf", "fusion_lat": 0.0, "type": "electric_scooter", "lat": 38.91959, "is_reserved": 0, "is_disabled": 0, "fusion_lon": 0.0, "bike_id": "61a3e14235727eaf82f76dfcce1182bf", "lon": -77.03856083333334, "rental_uris": {"ios": "https://dc.lft.to/lastmile_qr_scan", "android": "https://dc.lft.to/lastmile_qr_scan"}}, {"name": "8b6a9314177dc04da0898dc1a347df4c", "fusion_lat": 0.0, "type": "electric_scooter", "lat": 38.90345816666667, "is_reserved": 0, "is_disabled": 0, "fusion_lon": 0.0, "bike_id": "8b6a9314177dc04da0898dc1a347df4c", "lon": -77.05294883333333, "rental_uris": {"ios": "https://dc.lft.to/lastmile_qr_scan", "android": "https://dc.lft.to/lastmile_qr_scan"}}, {"name": "7abef1e882294e76f6dfadcf3ed1720c", "fusion_lat": 0.0, "type": "electric_bike", "lat": 38.88342183333334, "is_reserved": 0, "is_disabled": 0, "fusion_lon": 0.0, "bike_id": "7abef1e882294e76f6dfadcf3ed1720c", "lon": -77.182939, "rental_uris": {"ios": "https://dc.lft.to/lastmile_qr_scan", "android": "https://dc.lft.to/lastmile_qr_scan"}}, {"name": "ce09fe0f214a0141f54cf06c5af6447d", "fusion_lat": 0.0, "type": "electric_scooter", "lat": 38.90543383333333, "is_reserved": 0, "is_disabled": 0, "fusion_lon": 0.0, "bike_id": "ce09fe0f214a0141f54cf06c5af6447d", "lon": -77.06269033333334, "rental_uris": {"ios": "https://dc.lft.to/lastmile_qr_scan", "android": "https://dc.lft.to/lastmile_qr_scan"}}, {"name": "01dd94af02cca0e86828c6e915cb968b", "fusion_lat": 0.0, "type": "electric_scooter", "lat": 38.90028933333333, "is_reserved": 0, "is_disabled": 0, "fusion_lon": 0.0, "bike_id": "01dd94af02cca0e86828c6e915cb968b", "lon": -76.99867616666667, "rental_uris": {"ios": "https://dc.lft.to/lastmile_qr_scan", "android": "https://dc.lft.to/lastmile_qr_scan"}}, {"name": "9af2ff4c8b77a1ef374d7a005a23ec31", "fusion_lat": 0.0, "type": "electric_scooter", "lat": 38.91045, "is_reserved": 0, "is_disabled": 0, "fusion_lon": 0.0, "bike_id": "9af2ff4c8b77a1ef374d7a005a23ec31", "lon": -77.043724, "rental_uris": {"ios": "https://dc.lft.to/lastmile_qr_scan", "android": "https://dc.lft.to/lastmile_qr_scan"}}, {"name": "8cff579c6c63fb501fd6d5d0ec84ecee", "fusion_lat": 0.0, "type": "electric_scooter", "lat": 38.898527333333334, "is_reserved": 0, "is_disabled": 0, "fusion_lon": 0.0, "bike_id": "8cff579c6c63fb501fd6d5d0ec84ecee", "lon": -77.01612633333333, "rental_uris": {"ios": "https://dc.lft.to/lastmile_qr_scan", "android": "https://dc.lft.to/lastmile_qr_scan"}}, {"name": "0f0703d80b99a49ca03c75dc2aee7252", "fusion_lat": 0.0, "type": "electric_scooter", "lat": 38.893710666666664, "is_reserved": 0, "is_disabled": 0, "fusion_lon": 0.0, "bike_id": "0f0703d80b99a49ca03c75dc2aee7252", "lon": -76.94998316666667, "rental_uris": {"ios": "https://dc.lft.to/lastmile_qr_scan", "android": "https://dc.lft.to/lastmile_qr_scan"}}, {"name": "681af5c3bbdddb630c7cd0d9cad72c28", "fusion_lat": 0.0, "type": "electric_scooter", "lat": 38.942805666666665, "is_reserved": 0, "is_disabled": 0, "fusion_lon": 0.0, "bike_id": "681af5c3bbdddb630c7cd0d9cad72c28", "lon": -77.02507383333334, "rental_uris": {"ios": "https://dc.lft.to/lastmile_qr_scan", "android": "https://dc.lft.to/lastmile_qr_scan"}}, {"name": "5bcf06bb857a1ba5528230a4ad5d10b4", "fusion_lat": 0.0, "type": "electric_scooter", "lat": 38.900305333333336, "is_reserved": 0, "is_disabled": 0, "fusion_lon": 0.0, "bike_id": "5bcf06bb857a1ba5528230a4ad5d10b4", "lon": -76.998258, "rental_uris": {"ios": "https://dc.lft.to/lastmile_qr_scan", "android": "https://dc.lft.to/lastmile_qr_scan"}}, {"name": "c5f7163d54708c3a6636a3ecedce4695", "fusion_lat": 0.0, "type": "electric_scooter", "lat": 38.934134666666665, "is_reserved": 0, "is_disabled": 0, "fusion_lon": 0.0, "bike_id": "c5f7163d54708c3a6636a3ecedce4695", "lon": -77.0418375, "rental_uris": {"ios": "https://dc.lft.to/lastmile_qr_scan", "android": "https://dc.lft.to/lastmile_qr_scan"}}, {"name": "dd98957c481c1e2118935cd67fe05830", "fusion_lat": 0.0, "type": "electric_scooter", "lat": 38.927252833333334, "is_reserved": 0, "is_disabled": 0, "fusion_lon": 0.0, "bike_id": "dd98957c481c1e2118935cd67fe05830", "lon": -77.071405, "rental_uris": {"ios": "https://dc.lft.to/lastmile_qr_scan", "android": "https://dc.lft.to/lastmile_qr_scan"}}, {"name": "299a2dffda9ec4beba00a49b1804b4cf", "fusion_lat": 0.0, "type": "electric_scooter", "lat": 38.885933, "is_reserved": 0, "is_disabled": 0, "fusion_lon": 0.0, "bike_id": "299a2dffda9ec4beba00a49b1804b4cf", "lon": -77.02205166666667, "rental_uris": {"ios": "https://dc.lft.to/lastmile_qr_scan", "android": "https://dc.lft.to/lastmile_qr_scan"}}, {"name": "4cb869c7b3cf2c1434e01cabbd94cd4c", "fusion_lat": 0.0, "type": "electric_scooter", "lat": 38.85787916666666, "is_reserved": 0, "is_disabled": 0, "fusion_lon": 0.0, "bike_id": "4cb869c7b3cf2c1434e01cabbd94cd4c", "lon": -76.99094566666666, "rental_uris": {"ios": "https://dc.lft.to/lastmile_qr_scan", "android": "https://dc.lft.to/lastmile_qr_scan"}}, {"name": "3c4499daed1083a50dc188f600345464", "fusion_lat": 0.0, "type": "electric_scooter", "lat": 38.92624583333333, "is_reserved": 0, "is_disabled": 0, "fusion_lon": 0.0, "bike_id": "3c4499daed1083a50dc188f600345464", "lon": -77.03704583333334, "rental_uris": {"ios": "https://dc.lft.to/lastmile_qr_scan", "android": "https://dc.lft.to/lastmile_qr_scan"}}, {"name": "cf22608b399176880a917dcd6bffc439", "fusion_lat": 0.0, "type": "electric_scooter", "lat": 38.9056975, "is_reserved": 0, "is_disabled": 0, "fusion_lon": 0.0, "bike_id": "cf22608b399176880a917dcd6bffc439", "lon": -77.03445, "rental_uris": {"ios": "https://dc.lft.to/lastmile_qr_scan", "android": "https://dc.lft.to/lastmile_qr_scan"}}, {"name": "50a3d8e6367d3dc2acd91c31c67f19ad", "fusion_lat": 0.0, "type": "electric_scooter", "lat": 38.95649616666667, "is_reserved": 0, "is_disabled": 0, "fusion_lon": 0.0, "bike_id": "50a3d8e6367d3dc2acd91c31c67f19ad", "lon": -77.032917, "rental_uris": {"ios": "https://dc.lft.to/lastmile_qr_scan", "android": "https://dc.lft.to/lastmile_qr_scan"}}, {"name": "c8a125fbdfef11e33db8ce7fe05d3a63", "fusion_lat": 0.0, "type": "electric_scooter", "lat": 38.90176983333333, "is_reserved": 0, "is_disabled": 0, "fusion_lon": 0.0, "bike_id": "c8a125fbdfef11e33db8ce7fe05d3a63", "lon": -77.02517416666667, "rental_uris": {"ios": "https://dc.lft.to/lastmile_qr_scan", "android": "https://dc.lft.to/lastmile_qr_scan"}}, {"name": "6ef2392ede2878665a6a1114c710a90c", "fusion_lat": 0.0, "type": "electric_scooter", "lat": 38.92209783333333, "is_reserved": 0, "is_disabled": 0, "fusion_lon": 0.0, "bike_id": "6ef2392ede2878665a6a1114c710a90c", "lon": -76.98750666666666, "rental_uris": {"ios": "https://dc.lft.to/lastmile_qr_scan", "android": "https://dc.lft.to/lastmile_qr_scan"}}, {"name": "7cfa5ecb7faed33fd695c48a9fb81264", "fusion_lat": 0.0, "type": "electric_scooter", "lat": 38.93202983333333, "is_reserved": 0, "is_disabled": 0, "fusion_lon": 0.0, "bike_id": "7cfa5ecb7faed33fd695c48a9fb81264", "lon": -77.03664583333334, "rental_uris": {"ios": "https://dc.lft.to/lastmile_qr_scan", "android": "https://dc.lft.to/lastmile_qr_scan"}}, {"name": "5dc6d3a6b8c44633de928aaea1be8eb0", "fusion_lat": 0.0, "type": "electric_scooter", "lat": 38.95908716666667, "is_reserved": 0, "is_disabled": 0, "fusion_lon": 0.0, "bike_id": "5dc6d3a6b8c44633de928aaea1be8eb0", "lon": -77.08073733333333, "rental_uris": {"ios": "https://dc.lft.to/lastmile_qr_scan", "android": "https://dc.lft.to/lastmile_qr_scan"}}, {"name": "2db0093dc79a937c0e579a6e19bc0c77", "fusion_lat": 0.0, "type": "electric_scooter", "lat": 38.92486133333333, "is_reserved": 0, "is_disabled": 0, "fusion_lon": 0.0, "bike_id": "2db0093dc79a937c0e579a6e19bc0c77", "lon": -77.05215216666667, "rental_uris": {"ios": "https://dc.lft.to/lastmile_qr_scan", "android": "https://dc.lft.to/lastmile_qr_scan"}}, {"name": "4ee574e129d326ae50356f1eec31e73c", "fusion_lat": 0.0, "type": "electric_scooter", "lat": 38.91278766666667, "is_reserved": 0, "is_disabled": 0, "fusion_lon": 0.0, "bike_id": "4ee574e129d326ae50356f1eec31e73c", "lon": -77.03204283333334, "rental_uris": {"ios": "https://dc.lft.to/lastmile_qr_scan", "android": "https://dc.lft.to/lastmile_qr_scan"}}, {"name": "6a034625baf2bebd24ed9c3dfb335cfe", "fusion_lat": 0.0, "type": "electric_bike", "lat": 39.00379183333333, "is_reserved": 0, "is_disabled": 0, "fusion_lon": 0.0, "bike_id": "6a034625baf2bebd24ed9c3dfb335cfe", "lon": -77.01292, "rental_uris": {"ios": "https://dc.lft.to/lastmile_qr_scan", "android": "https://dc.lft.to/lastmile_qr_scan"}}, {"name": "077dacf0b648a95142403f3ae4c14660", "fusion_lat": 0.0, "type": "electric_bike", "lat": 38.8079175, "is_reserved": 0, "is_disabled": 0, "fusion_lon": 0.0, "bike_id": "077dacf0b648a95142403f3ae4c14660", "lon": -77.12965216666667, "rental_uris": {"ios": "https://dc.lft.to/lastmile_qr_scan", "android": "https://dc.lft.to/lastmile_qr_scan"}}, {"name": "ae9a1b9b199a39960c6fd23eea5865c7", "fusion_lat": 0.0, "type": "electric_scooter", "lat": 38.920668, "is_reserved": 0, "is_disabled": 0, "fusion_lon": 0.0, "bike_id": "ae9a1b9b199a39960c6fd23eea5865c7", "lon": -76.97794933333333, "rental_uris": {"ios": "https://dc.lft.to/lastmile_qr_scan", "android": "https://dc.lft.to/lastmile_qr_scan"}}, {"name": "c91d0f3eebdb6fdc9595a5b490746c61", "fusion_lat": 0.0, "type": "electric_scooter", "lat": 38.917229666666664, "is_reserved": 0, "is_disabled": 0, "fusion_lon": 0.0, "bike_id": "c91d0f3eebdb6fdc9595a5b490746c61", "lon": -77.0081365, "rental_uris": {"ios": "https://dc.lft.to/lastmile_qr_scan", "android": "https://dc.lft.to/lastmile_qr_scan"}}, {"name": "56b2c0c006ff501944876d09b05f79cd", "fusion_lat": 0.0, "type": "electric_scooter", "lat": 38.9079285, "is_reserved": 0, "is_disabled": 0, "fusion_lon": 0.0, "bike_id": "56b2c0c006ff501944876d09b05f79cd", "lon": -77.03856216666667, "rental_uris": {"ios": "https://dc.lft.to/lastmile_qr_scan", "android": "https://dc.lft.to/lastmile_qr_scan"}}, {"name": "4ec8d5b4860430d6e8f2e27dab514e1c", "fusion_lat": 0.0, "type": "electric_scooter", "lat": 38.919352, "is_reserved": 0, "is_disabled": 0, "fusion_lon": 0.0, "bike_id": "4ec8d5b4860430d6e8f2e27dab514e1c", "lon": -77.024231, "rental_uris": {"ios": "https://dc.lft.to/lastmile_qr_scan", "android": "https://dc.lft.to/lastmile_qr_scan"}}, {"name": "34256d78c43b6df6f07e0191982a8aba", "fusion_lat": 0.0, "type": "electric_scooter", "lat": 38.910969333333334, "is_reserved": 0, "is_disabled": 0, "fusion_lon": 0.0, "bike_id": "34256d78c43b6df6f07e0191982a8aba", "lon": -77.02968233333333, "rental_uris": {"ios": "https://dc.lft.to/lastmile_qr_scan", "android": "https://dc.lft.to/lastmile_qr_scan"}}, {"name": "1aeacd0ab7911a31a56627cc798c0986", "fusion_lat": 0.0, "type": "electric_scooter", "lat": 38.909228166666665, "is_reserved": 0, "is_disabled": 0, "fusion_lon": 0.0, "bike_id": "1aeacd0ab7911a31a56627cc798c0986", "lon": -77.04159433333334, "rental_uris": {"ios": "https://dc.lft.to/lastmile_qr_scan", "android": "https://dc.lft.to/lastmile_qr_scan"}}, {"name": "1a968e879b67f87e65fd85ea3ddaee3e", "fusion_lat": 0.0, "type": "electric_scooter", "lat": 38.92513566666667, "is_reserved": 0, "is_disabled": 0, "fusion_lon": 0.0, "bike_id": "1a968e879b67f87e65fd85ea3ddaee3e", "lon": -77.02561766666666, "rental_uris": {"ios": "https://dc.lft.to/lastmile_qr_scan", "android": "https://dc.lft.to/lastmile_qr_scan"}}, {"name": "d263b1df411e7fea01e3310dd2cefa62", "fusion_lat": 0.0, "type": "electric_scooter", "lat": 38.883242833333334, "is_reserved": 0, "is_disabled": 0, "fusion_lon": 0.0, "bike_id": "d263b1df411e7fea01e3310dd2cefa62", "lon": -77.01534133333334, "rental_uris": {"ios": "https://dc.lft.to/lastmile_qr_scan", "android": "https://dc.lft.to/lastmile_qr_scan"}}, {"name": "c636da9dcab0b429b64521354a710b14", "fusion_lat": 0.0, "type": "electric_bike", "lat": 38.96439016666667, "is_reserved": 0, "is_disabled": 0, "fusion_lon": 0.0, "bike_id": "c636da9dcab0b429b64521354a710b14", "lon": -77.03161966666667, "rental_uris": {"ios": "https://dc.lft.to/lastmile_qr_scan", "android": "https://dc.lft.to/lastmile_qr_scan"}}, {"name": "7ea77857e041f28f0e7ab3c46ce62ad8", "fusion_lat": 0.0, "type": "electric_scooter", "lat": 38.865363, "is_reserved": 0, "is_disabled": 0, "fusion_lon": 0.0, "bike_id": "7ea77857e041f28f0e7ab3c46ce62ad8", "lon": -76.9870825, "rental_uris": {"ios": "https://dc.lft.to/lastmile_qr_scan", "android": "https://dc.lft.to/lastmile_qr_scan"}}, {"name": "db1155af0b16983f056e4e31ccefe2ab", "fusion_lat": 0.0, "type": "electric_scooter", "lat": 38.92763733333334, "is_reserved": 0, "is_disabled": 0, "fusion_lon": 0.0, "bike_id": "db1155af0b16983f056e4e31ccefe2ab", "lon": -77.0328085, "rental_uris": {"ios": "https://dc.lft.to/lastmile_qr_scan", "android": "https://dc.lft.to/lastmile_qr_scan"}}, {"name": "ec93ccf2bca9243a54849469a7c80d1c", "fusion_lat": 0.0, "type": "electric_scooter", "lat": 38.926243666666664, "is_reserved": 0, "is_disabled": 0, "fusion_lon": 0.0, "bike_id": "ec93ccf2bca9243a54849469a7c80d1c", "lon": -77.03511266666666, "rental_uris": {"ios": "https://dc.lft.to/lastmile_qr_scan", "android": "https://dc.lft.to/lastmile_qr_scan"}}, {"name": "e842f9f1f0a7bc9a3a9d035266bf4c8e", "fusion_lat": 0.0, "type": "electric_scooter", "lat": 38.904684, "is_reserved": 0, "is_disabled": 0, "fusion_lon": 0.0, "bike_id": "e842f9f1f0a7bc9a3a9d035266bf4c8e", "lon": -77.0271845, "rental_uris": {"ios": "https://dc.lft.to/lastmile_qr_scan", "android": "https://dc.lft.to/lastmile_qr_scan"}}, {"name": "c7e1b470437f69f069680ca5cbf72d21", "fusion_lat": 0.0, "type": "electric_scooter", "lat": 38.8955445, "is_reserved": 0, "is_disabled": 0, "fusion_lon": 0.0, "bike_id": "c7e1b470437f69f069680ca5cbf72d21", "lon": -76.98377583333334, "rental_uris": {"ios": "https://dc.lft.to/lastmile_qr_scan", "android": "https://dc.lft.to/lastmile_qr_scan"}}, {"name": "e638cc34e4d050d6c0e4bacf76e6f997", "fusion_lat": 0.0, "type": "electric_scooter", "lat": 38.939524666666664, "is_reserved": 0, "is_disabled": 0, "fusion_lon": 0.0, "bike_id": "e638cc34e4d050d6c0e4bacf76e6f997", "lon": -77.03269283333333, "rental_uris": {"ios": "https://dc.lft.to/lastmile_qr_scan", "android": "https://dc.lft.to/lastmile_qr_scan"}}, {"name": "aa77e5950e3584ec31944e40df1a5f9f", "fusion_lat": 0.0, "type": "electric_bike", "lat": 38.85222233333333, "is_reserved": 0, "is_disabled": 0, "fusion_lon": 0.0, "bike_id": "aa77e5950e3584ec31944e40df1a5f9f", "lon": -77.12967, "rental_uris": {"ios": "https://dc.lft.to/lastmile_qr_scan", "android": "https://dc.lft.to/lastmile_qr_scan"}}, {"name": "9c9517d28519936145b3b47c935a1799", "fusion_lat": 0.0, "type": "electric_scooter", "lat": 38.91945233333333, "is_reserved": 0, "is_disabled": 0, "fusion_lon": 0.0, "bike_id": "9c9517d28519936145b3b47c935a1799", "lon": -77.01387, "rental_uris": {"ios": "https://dc.lft.to/lastmile_qr_scan", "android": "https://dc.lft.to/lastmile_qr_scan"}}, {"name": "6158530e680c65000d9675df6b230bef", "fusion_lat": 0.0, "type": "electric_scooter", "lat": 38.87642666666667, "is_reserved": 0, "is_disabled": 0, "fusion_lon": 0.0, "bike_id": "6158530e680c65000d9675df6b230bef", "lon": -77.00397966666667, "rental_uris": {"ios": "https://dc.lft.to/lastmile_qr_scan", "android": "https://dc.lft.to/lastmile_qr_scan"}}, {"name": "05c1a33d93386d784ee25c389da690e1", "fusion_lat": 0.0, "type": "electric_scooter", "lat": 38.91730916666667, "is_reserved": 0, "is_disabled": 0, "fusion_lon": 0.0, "bike_id": "05c1a33d93386d784ee25c389da690e1", "lon": -77.03839283333333, "rental_uris": {"ios": "https://dc.lft.to/lastmile_qr_scan", "android": "https://dc.lft.to/lastmile_qr_scan"}}, {"name": "0408f222b9f43e8488fbc80bc38647fa", "fusion_lat": 0.0, "type": "electric_scooter", "lat": 38.900666, "is_reserved": 0, "is_disabled": 0, "fusion_lon": 0.0, "bike_id": "0408f222b9f43e8488fbc80bc38647fa", "lon": -77.04901933333333, "rental_uris": {"ios": "https://dc.lft.to/lastmile_qr_scan", "android": "https://dc.lft.to/lastmile_qr_scan"}}, {"name": "749a2c876dde79ac7d383c99b34dbf73", "fusion_lat": 0.0, "type": "electric_scooter", "lat": 38.915712166666665, "is_reserved": 0, "is_disabled": 0, "fusion_lon": 0.0, "bike_id": "749a2c876dde79ac7d383c99b34dbf73", "lon": -77.03208333333333, "rental_uris": {"ios": "https://dc.lft.to/lastmile_qr_scan", "android": "https://dc.lft.to/lastmile_qr_scan"}}, {"name": "efd69d300b95da2111a0ebd646a75794", "fusion_lat": 0.0, "type": "electric_scooter", "lat": 38.939489333333334, "is_reserved": 0, "is_disabled": 0, "fusion_lon": 0.0, "bike_id": "efd69d300b95da2111a0ebd646a75794", "lon": -77.03269333333333, "rental_uris": {"ios": "https://dc.lft.to/lastmile_qr_scan", "android": "https://dc.lft.to/lastmile_qr_scan"}}, {"name": "005fda5ff9b4acbe25b7514fe8f6f7a6", "fusion_lat": 0.0, "type": "electric_bike", "lat": 38.865921666666665, "is_reserved": 0, "is_disabled": 0, "fusion_lon": 0.0, "bike_id": "005fda5ff9b4acbe25b7514fe8f6f7a6", "lon": -76.93225416666667, "rental_uris": {"ios": "https://dc.lft.to/lastmile_qr_scan", "android": "https://dc.lft.to/lastmile_qr_scan"}}, {"name": "80766ef85be90c891dd579b6dc676ae6", "fusion_lat": 0.0, "type": "electric_scooter", "lat": 38.929663, "is_reserved": 0, "is_disabled": 0, "fusion_lon": 0.0, "bike_id": "80766ef85be90c891dd579b6dc676ae6", "lon": -77.01971666666667, "rental_uris": {"ios": "https://dc.lft.to/lastmile_qr_scan", "android": "https://dc.lft.to/lastmile_qr_scan"}}, {"name": "e763247df902075b28716623e07b84e0", "fusion_lat": 0.0, "type": "electric_bike", "lat": 38.984571, "is_reserved": 0, "is_disabled": 0, "fusion_lon": 0.0, "bike_id": "e763247df902075b28716623e07b84e0", "lon": -76.95530483333333, "rental_uris": {"ios": "https://dc.lft.to/lastmile_qr_scan", "android": "https://dc.lft.to/lastmile_qr_scan"}}, {"name": "29412720844136a9334130f3328a3e9e", "fusion_lat": 0.0, "type": "electric_scooter", "lat": 38.879205, "is_reserved": 0, "is_disabled": 0, "fusion_lon": 0.0, "bike_id": "29412720844136a9334130f3328a3e9e", "lon": -77.02156933333333, "rental_uris": {"ios": "https://dc.lft.to/lastmile_qr_scan", "android": "https://dc.lft.to/lastmile_qr_scan"}}, {"name": "f865bcff011603d7d23986343b496ace", "fusion_lat": 0.0, "type": "electric_scooter", "lat": 38.88047316666667, "is_reserved": 0, "is_disabled": 0, "fusion_lon": 0.0, "bike_id": "f865bcff011603d7d23986343b496ace", "lon": -76.95989783333333, "rental_uris": {"ios": "https://dc.lft.to/lastmile_qr_scan", "android": "https://dc.lft.to/lastmile_qr_scan"}}, {"name": "c679a33c627ea4025ff1bf966f4f9b0e", "fusion_lat": 0.0, "type": "electric_bike", "lat": 38.850588, "is_reserved": 0, "is_disabled": 0, "fusion_lon": 0.0, "bike_id": "c679a33c627ea4025ff1bf966f4f9b0e", "lon": -76.97324766666667, "rental_uris": {"ios": "https://dc.lft.to/lastmile_qr_scan", "android": "https://dc.lft.to/lastmile_qr_scan"}}, {"name": "631613d4fd36c240d2ec1f33ca2ef703", "fusion_lat": 0.0, "type": "electric_scooter", "lat": 38.90693816666667, "is_reserved": 0, "is_disabled": 0, "fusion_lon": 0.0, "bike_id": "631613d4fd36c240d2ec1f33ca2ef703", "lon": -77.03194716666667, "rental_uris": {"ios": "https://dc.lft.to/lastmile_qr_scan", "android": "https://dc.lft.to/lastmile_qr_scan"}}, {"name": "0d96883e9c8918f9a1dc13aa6d1690f9", "fusion_lat": 0.0, "type": "electric_scooter", "lat": 38.90572083333333, "is_reserved": 0, "is_disabled": 0, "fusion_lon": 0.0, "bike_id": "0d96883e9c8918f9a1dc13aa6d1690f9", "lon": -77.03266283333333, "rental_uris": {"ios": "https://dc.lft.to/lastmile_qr_scan", "android": "https://dc.lft.to/lastmile_qr_scan"}}, {"name": "8bb01c98534d0a66e4974fb02f7b47f0", "fusion_lat": 0.0, "type": "electric_scooter", "lat": 38.9253815, "is_reserved": 0, "is_disabled": 0, "fusion_lon": 0.0, "bike_id": "8bb01c98534d0a66e4974fb02f7b47f0", "lon": -77.02643, "rental_uris": {"ios": "https://dc.lft.to/lastmile_qr_scan", "android": "https://dc.lft.to/lastmile_qr_scan"}}, {"name": "c2f517314324d7c1a898e9efc88f6001", "fusion_lat": 0.0, "type": "electric_scooter", "lat": 38.91609233333333, "is_reserved": 0, "is_disabled": 0, "fusion_lon": 0.0, "bike_id": "c2f517314324d7c1a898e9efc88f6001", "lon": -77.02299216666667, "rental_uris": {"ios": "https://dc.lft.to/lastmile_qr_scan", "android": "https://dc.lft.to/lastmile_qr_scan"}}, {"name": "9e7bcd1d5b64869ffaef34bcc5ad2de9", "fusion_lat": 0.0, "type": "electric_scooter", "lat": 38.92233233333333, "is_reserved": 0, "is_disabled": 0, "fusion_lon": 0.0, "bike_id": "9e7bcd1d5b64869ffaef34bcc5ad2de9", "lon": -77.0390545, "rental_uris": {"ios": "https://dc.lft.to/lastmile_qr_scan", "android": "https://dc.lft.to/lastmile_qr_scan"}}, {"name": "8ce1e51464335a17bc14606179c48af5", "fusion_lat": 0.0, "type": "electric_scooter", "lat": 38.91356433333333, "is_reserved": 0, "is_disabled": 0, "fusion_lon": 0.0, "bike_id": "8ce1e51464335a17bc14606179c48af5", "lon": -77.04563116666667, "rental_uris": {"ios": "https://dc.lft.to/lastmile_qr_scan", "android": "https://dc.lft.to/lastmile_qr_scan"}}, {"name": "a95de269a563ed7782e82d5af37d20c4", "fusion_lat": 0.0, "type": "electric_scooter", "lat": 38.9234485, "is_reserved": 0, "is_disabled": 0, "fusion_lon": 0.0, "bike_id": "a95de269a563ed7782e82d5af37d20c4", "lon": -77.05095533333333, "rental_uris": {"ios": "https://dc.lft.to/lastmile_qr_scan", "android": "https://dc.lft.to/lastmile_qr_scan"}}, {"name": "aa66aa31637ab4ee1b36b1847fc55159", "fusion_lat": 0.0, "type": "electric_scooter", "lat": 38.891237, "is_reserved": 0, "is_disabled": 0, "fusion_lon": 0.0, "bike_id": "aa66aa31637ab4ee1b36b1847fc55159", "lon": -76.991618, "rental_uris": {"ios": "https://dc.lft.to/lastmile_qr_scan", "android": "https://dc.lft.to/lastmile_qr_scan"}}, {"name": "bccd8edc2f1eacb312b9476f18f9af43", "fusion_lat": 0.0, "type": "electric_bike", "lat": 38.898203333333335, "is_reserved": 0, "is_disabled": 0, "fusion_lon": 0.0, "bike_id": "bccd8edc2f1eacb312b9476f18f9af43", "lon": -77.00603083333333, "rental_uris": {"ios": "https://dc.lft.to/lastmile_qr_scan", "android": "https://dc.lft.to/lastmile_qr_scan"}}, {"name": "52fc45f351aab4afca8d34d8442d5bc9", "fusion_lat": 0.0, "type": "electric_scooter", "lat": 38.903164833333335, "is_reserved": 0, "is_disabled": 0, "fusion_lon": 0.0, "bike_id": "52fc45f351aab4afca8d34d8442d5bc9", "lon": -77.03631133333333, "rental_uris": {"ios": "https://dc.lft.to/lastmile_qr_scan", "android": "https://dc.lft.to/lastmile_qr_scan"}}, {"name": "f596959b29b792c29719f43d22cf11b1", "fusion_lat": 0.0, "type": "electric_scooter", "lat": 38.937728, "is_reserved": 0, "is_disabled": 0, "fusion_lon": 0.0, "bike_id": "f596959b29b792c29719f43d22cf11b1", "lon": -77.03261316666666, "rental_uris": {"ios": "https://dc.lft.to/lastmile_qr_scan", "android": "https://dc.lft.to/lastmile_qr_scan"}}, {"name": "8c426abff978ba7e89511ed3c1e4e680", "fusion_lat": 0.0, "type": "electric_scooter", "lat": 38.92007016666667, "is_reserved": 0, "is_disabled": 0, "fusion_lon": 0.0, "bike_id": "8c426abff978ba7e89511ed3c1e4e680", "lon": -76.984982, "rental_uris": {"ios": "https://dc.lft.to/lastmile_qr_scan", "android": "https://dc.lft.to/lastmile_qr_scan"}}, {"name": "adecf5a37f9820f4917b4458383e01bd", "fusion_lat": 0.0, "type": "electric_scooter", "lat": 38.94224583333333, "is_reserved": 0, "is_disabled": 0, "fusion_lon": 0.0, "bike_id": "adecf5a37f9820f4917b4458383e01bd", "lon": -77.07683483333334, "rental_uris": {"ios": "https://dc.lft.to/lastmile_qr_scan", "android": "https://dc.lft.to/lastmile_qr_scan"}}, {"name": "0bfb6955d49f09920cef43a373e2cd62", "fusion_lat": 0.0, "type": "electric_scooter", "lat": 38.902483333333336, "is_reserved": 0, "is_disabled": 0, "fusion_lon": 0.0, "bike_id": "0bfb6955d49f09920cef43a373e2cd62", "lon": -77.0020855, "rental_uris": {"ios": "https://dc.lft.to/lastmile_qr_scan", "android": "https://dc.lft.to/lastmile_qr_scan"}}, {"name": "c0555fa99141c02f5d83603e00f147a3", "fusion_lat": 0.0, "type": "electric_scooter", "lat": 38.900352166666664, "is_reserved": 0, "is_disabled": 0, "fusion_lon": 0.0, "bike_id": "c0555fa99141c02f5d83603e00f147a3", "lon": -77.00913366666667, "rental_uris": {"ios": "https://dc.lft.to/lastmile_qr_scan", "android": "https://dc.lft.to/lastmile_qr_scan"}}, {"name": "511a1f2cb090b0d99bb60d7dca02e413", "fusion_lat": 0.0, "type": "electric_scooter", "lat": 38.90033616666667, "is_reserved": 0, "is_disabled": 0, "fusion_lon": 0.0, "bike_id": "511a1f2cb090b0d99bb60d7dca02e413", "lon": -77.0405325, "rental_uris": {"ios": "https://dc.lft.to/lastmile_qr_scan", "android": "https://dc.lft.to/lastmile_qr_scan"}}, {"name": "3a7e34befd51c1f07d0e71a61188e521", "fusion_lat": 0.0, "type": "electric_scooter", "lat": 38.92153916666667, "is_reserved": 0, "is_disabled": 0, "fusion_lon": 0.0, "bike_id": "3a7e34befd51c1f07d0e71a61188e521", "lon": -77.03393233333334, "rental_uris": {"ios": "https://dc.lft.to/lastmile_qr_scan", "android": "https://dc.lft.to/lastmile_qr_scan"}}, {"name": "6fef7c9d9d84fafa80f0f9c4d03f918b", "fusion_lat": 0.0, "type": "electric_bike", "lat": 38.928434, "is_reserved": 0, "is_disabled": 0, "fusion_lon": 0.0, "bike_id": "6fef7c9d9d84fafa80f0f9c4d03f918b", "lon": -77.02057766666667, "rental_uris": {"ios": "https://dc.lft.to/lastmile_qr_scan", "android": "https://dc.lft.to/lastmile_qr_scan"}}, {"name": "2aaee79958b217c01f59bc931a8a0fe8", "fusion_lat": 0.0, "type": "electric_scooter", "lat": 38.930905, "is_reserved": 0, "is_disabled": 0, "fusion_lon": 0.0, "bike_id": "2aaee79958b217c01f59bc931a8a0fe8", "lon": -77.02490266666666, "rental_uris": {"ios": "https://dc.lft.to/lastmile_qr_scan", "android": "https://dc.lft.to/lastmile_qr_scan"}}, {"name": "99dc9154581cd9a492844ac3f3ba4a2d", "fusion_lat": 0.0, "type": "electric_scooter", "lat": 38.901663666666664, "is_reserved": 0, "is_disabled": 0, "fusion_lon": 0.0, "bike_id": "99dc9154581cd9a492844ac3f3ba4a2d", "lon": -76.98055, "rental_uris": {"ios": "https://dc.lft.to/lastmile_qr_scan", "android": "https://dc.lft.to/lastmile_qr_scan"}}, {"name": "d9da75cef3cee05155ce55e7a9ba3378", "fusion_lat": 0.0, "type": "electric_scooter", "lat": 38.9348515, "is_reserved": 0, "is_disabled": 0, "fusion_lon": 0.0, "bike_id": "d9da75cef3cee05155ce55e7a9ba3378", "lon": -77.0339425, "rental_uris": {"ios": "https://dc.lft.to/lastmile_qr_scan", "android": "https://dc.lft.to/lastmile_qr_scan"}}, {"name": "7d68da0815a4bcfe556c792ebfef9d8b", "fusion_lat": 0.0, "type": "electric_scooter", "lat": 38.917498333333334, "is_reserved": 0, "is_disabled": 0, "fusion_lon": 0.0, "bike_id": "7d68da0815a4bcfe556c792ebfef9d8b", "lon": -77.0415545, "rental_uris": {"ios": "https://dc.lft.to/lastmile_qr_scan", "android": "https://dc.lft.to/lastmile_qr_scan"}}, {"name": "a2c91038d916236123373298a54da925", "fusion_lat": 0.0, "type": "electric_scooter", "lat": 38.91549883333333, "is_reserved": 0, "is_disabled": 0, "fusion_lon": 0.0, "bike_id": "a2c91038d916236123373298a54da925", "lon": -77.03850066666666, "rental_uris": {"ios": "https://dc.lft.to/lastmile_qr_scan", "android": "https://dc.lft.to/lastmile_qr_scan"}}, {"name": "9530c1aaa1b207d3f13cb9ca922a8429", "fusion_lat": 0.0, "type": "electric_scooter", "lat": 38.921583, "is_reserved": 0, "is_disabled": 0, "fusion_lon": 0.0, "bike_id": "9530c1aaa1b207d3f13cb9ca922a8429", "lon": -77.03386183333333, "rental_uris": {"ios": "https://dc.lft.to/lastmile_qr_scan", "android": "https://dc.lft.to/lastmile_qr_scan"}}, {"name": "b07e7bb3713f7a02c10e42bc280772ce", "fusion_lat": 0.0, "type": "electric_scooter", "lat": 38.907538333333335, "is_reserved": 0, "is_disabled": 0, "fusion_lon": 0.0, "bike_id": "b07e7bb3713f7a02c10e42bc280772ce", "lon": -77.0597115, "rental_uris": {"ios": "https://dc.lft.to/lastmile_qr_scan", "android": "https://dc.lft.to/lastmile_qr_scan"}}, {"name": "329c815383836214012e32377dc36e6a", "fusion_lat": 0.0, "type": "electric_scooter", "lat": 38.923494833333336, "is_reserved": 0, "is_disabled": 0, "fusion_lon": 0.0, "bike_id": "329c815383836214012e32377dc36e6a", "lon": -77.03394983333334, "rental_uris": {"ios": "https://dc.lft.to/lastmile_qr_scan", "android": "https://dc.lft.to/lastmile_qr_scan"}}, {"name": "d6ee239bf8727ea6f8bfb3a63449bbeb", "fusion_lat": 0.0, "type": "electric_scooter", "lat": 38.92698866666667, "is_reserved": 0, "is_disabled": 0, "fusion_lon": 0.0, "bike_id": "d6ee239bf8727ea6f8bfb3a63449bbeb", "lon": -77.02423316666666, "rental_uris": {"ios": "https://dc.lft.to/lastmile_qr_scan", "android": "https://dc.lft.to/lastmile_qr_scan"}}, {"name": "d064b823281d83e723e8c1a0c05f5456", "fusion_lat": 0.0, "type": "electric_scooter", "lat": 38.9133265, "is_reserved": 0, "is_disabled": 0, "fusion_lon": 0.0, "bike_id": "d064b823281d83e723e8c1a0c05f5456", "lon": -77.04868033333334, "rental_uris": {"ios": "https://dc.lft.to/lastmile_qr_scan", "android": "https://dc.lft.to/lastmile_qr_scan"}}, {"name": "2abe9b291e5cfd64164b02b9eb3e50af", "fusion_lat": 0.0, "type": "electric_scooter", "lat": 38.907377, "is_reserved": 0, "is_disabled": 0, "fusion_lon": 0.0, "bike_id": "2abe9b291e5cfd64164b02b9eb3e50af", "lon": -77.04901083333333, "rental_uris": {"ios": "https://dc.lft.to/lastmile_qr_scan", "android": "https://dc.lft.to/lastmile_qr_scan"}}, {"name": "93cb50717b4f07f6dc4310cee59c0b67", "fusion_lat": 0.0, "type": "electric_scooter", "lat": 38.8999535, "is_reserved": 0, "is_disabled": 0, "fusion_lon": 0.0, "bike_id": "93cb50717b4f07f6dc4310cee59c0b67", "lon": -77.05524766666667, "rental_uris": {"ios": "https://dc.lft.to/lastmile_qr_scan", "android": "https://dc.lft.to/lastmile_qr_scan"}}, {"name": "e7732bbe734fe755749518e1a6980637", "fusion_lat": 0.0, "type": "electric_scooter", "lat": 38.91271966666667, "is_reserved": 0, "is_disabled": 0, "fusion_lon": 0.0, "bike_id": "e7732bbe734fe755749518e1a6980637", "lon": -77.045058, "rental_uris": {"ios": "https://dc.lft.to/lastmile_qr_scan", "android": "https://dc.lft.to/lastmile_qr_scan"}}, {"name": "f9a7fb7d079a2760cd136bb98fe4c83a", "fusion_lat": 0.0, "type": "electric_scooter", "lat": 38.91201016666667, "is_reserved": 0, "is_disabled": 0, "fusion_lon": 0.0, "bike_id": "f9a7fb7d079a2760cd136bb98fe4c83a", "lon": -77.04538266666667, "rental_uris": {"ios": "https://dc.lft.to/lastmile_qr_scan", "android": "https://dc.lft.to/lastmile_qr_scan"}}, {"name": "13c61ca1b30fddb2cb3c6d1e2fb97570", "fusion_lat": 0.0, "type": "electric_bike", "lat": 38.97089316666667, "is_reserved": 0, "is_disabled": 0, "fusion_lon": 0.0, "bike_id": "13c61ca1b30fddb2cb3c6d1e2fb97570", "lon": -77.06963, "rental_uris": {"ios": "https://dc.lft.to/lastmile_qr_scan", "android": "https://dc.lft.to/lastmile_qr_scan"}}, {"name": "32f347ca51bc60e6f8ff1a77fbe9d6bf", "fusion_lat": 0.0, "type": "electric_scooter", "lat": 38.89499166666667, "is_reserved": 0, "is_disabled": 0, "fusion_lon": 0.0, "bike_id": "32f347ca51bc60e6f8ff1a77fbe9d6bf", "lon": -77.01089616666667, "rental_uris": {"ios": "https://dc.lft.to/lastmile_qr_scan", "android": "https://dc.lft.to/lastmile_qr_scan"}}, {"name": "1fd1036008a61ef52ac4ed2fca773245", "fusion_lat": 0.0, "type": "electric_scooter", "lat": 38.9354105, "is_reserved": 0, "is_disabled": 0, "fusion_lon": 0.0, "bike_id": "1fd1036008a61ef52ac4ed2fca773245", "lon": -77.03415516666666, "rental_uris": {"ios": "https://dc.lft.to/lastmile_qr_scan", "android": "https://dc.lft.to/lastmile_qr_scan"}}, {"name": "1ee1592776ea39aa3723fffa16e08457", "fusion_lat": 0.0, "type": "electric_scooter", "lat": 38.905647333333334, "is_reserved": 0, "is_disabled": 0, "fusion_lon": 0.0, "bike_id": "1ee1592776ea39aa3723fffa16e08457", "lon": -77.00597766666667, "rental_uris": {"ios": "https://dc.lft.to/lastmile_qr_scan", "android": "https://dc.lft.to/lastmile_qr_scan"}}, {"name": "b887396fa2d92ee0f9113beb16ee112e", "fusion_lat": 0.0, "type": "electric_bike", "lat": 38.9100345, "is_reserved": 0, "is_disabled": 0, "fusion_lon": 0.0, "bike_id": "b887396fa2d92ee0f9113beb16ee112e", "lon": -77.06173316666667, "rental_uris": {"ios": "https://dc.lft.to/lastmile_qr_scan", "android": "https://dc.lft.to/lastmile_qr_scan"}}, {"name": "f25e68a39820dfe488cd5d8b4116db95", "fusion_lat": 0.0, "type": "electric_scooter", "lat": 38.92629183333333, "is_reserved": 0, "is_disabled": 0, "fusion_lon": 0.0, "bike_id": "f25e68a39820dfe488cd5d8b4116db95", "lon": -77.0378975, "rental_uris": {"ios": "https://dc.lft.to/lastmile_qr_scan", "android": "https://dc.lft.to/lastmile_qr_scan"}}, {"name": "7d9d5157f299bc868522f542e64f62a0", "fusion_lat": 0.0, "type": "electric_scooter", "lat": 38.93582, "is_reserved": 0, "is_disabled": 0, "fusion_lon": 0.0, "bike_id": "7d9d5157f299bc868522f542e64f62a0", "lon": -76.99107316666667, "rental_uris": {"ios": "https://dc.lft.to/lastmile_qr_scan", "android": "https://dc.lft.to/lastmile_qr_scan"}}, {"name": "1204e145ae5224456a7bd36b46cb64eb", "fusion_lat": 0.0, "type": "electric_scooter", "lat": 38.91928216666667, "is_reserved": 0, "is_disabled": 0, "fusion_lon": 0.0, "bike_id": "1204e145ae5224456a7bd36b46cb64eb", "lon": -77.03424416666667, "rental_uris": {"ios": "https://dc.lft.to/lastmile_qr_scan", "android": "https://dc.lft.to/lastmile_qr_scan"}}, {"name": "f318d0daf739a9f32f18f123489e095e", "fusion_lat": 0.0, "type": "electric_bike", "lat": 38.838078333333335, "is_reserved": 0, "is_disabled": 0, "fusion_lon": 0.0, "bike_id": "f318d0daf739a9f32f18f123489e095e", "lon": -77.09521033333333, "rental_uris": {"ios": "https://dc.lft.to/lastmile_qr_scan", "android": "https://dc.lft.to/lastmile_qr_scan"}}, {"name": "1620bff58e6282c1056128c7f4eba6f1", "fusion_lat": 0.0, "type": "electric_scooter", "lat": 38.9015345, "is_reserved": 0, "is_disabled": 0, "fusion_lon": 0.0, "bike_id": "1620bff58e6282c1056128c7f4eba6f1", "lon": -76.93059033333333, "rental_uris": {"ios": "https://dc.lft.to/lastmile_qr_scan", "android": "https://dc.lft.to/lastmile_qr_scan"}}, {"name": "c993b1a4879d9201563232056153a4e0", "fusion_lat": 0.0, "type": "electric_scooter", "lat": 38.857112666666666, "is_reserved": 0, "is_disabled": 0, "fusion_lon": 0.0, "bike_id": "c993b1a4879d9201563232056153a4e0", "lon": -76.98135733333334, "rental_uris": {"ios": "https://dc.lft.to/lastmile_qr_scan", "android": "https://dc.lft.to/lastmile_qr_scan"}}, {"name": "8735335cb394ebb437038add95b8ea07", "fusion_lat": 0.0, "type": "electric_scooter", "lat": 38.92519883333333, "is_reserved": 0, "is_disabled": 0, "fusion_lon": 0.0, "bike_id": "8735335cb394ebb437038add95b8ea07", "lon": -77.05526766666667, "rental_uris": {"ios": "https://dc.lft.to/lastmile_qr_scan", "android": "https://dc.lft.to/lastmile_qr_scan"}}, {"name": "7ac30b0f1fc689509ca67e9dc5998194", "fusion_lat": 0.0, "type": "electric_scooter", "lat": 38.8843015, "is_reserved": 0, "is_disabled": 0, "fusion_lon": 0.0, "bike_id": "7ac30b0f1fc689509ca67e9dc5998194", "lon": -76.95748666666667, "rental_uris": {"ios": "https://dc.lft.to/lastmile_qr_scan", "android": "https://dc.lft.to/lastmile_qr_scan"}}, {"name": "3b7d856ffa9d8c361f3988a5d96c3e4a", "fusion_lat": 0.0, "type": "electric_scooter", "lat": 38.92343916666667, "is_reserved": 0, "is_disabled": 0, "fusion_lon": 0.0, "bike_id": "3b7d856ffa9d8c361f3988a5d96c3e4a", "lon": -77.035238, "rental_uris": {"ios": "https://dc.lft.to/lastmile_qr_scan", "android": "https://dc.lft.to/lastmile_qr_scan"}}, {"name": "6887bdb4e9bc1014fb08daec60c24aa8", "fusion_lat": 0.0, "type": "electric_bike", "lat": 38.90327683333334, "is_reserved": 0, "is_disabled": 0, "fusion_lon": 0.0, "bike_id": "6887bdb4e9bc1014fb08daec60c24aa8", "lon": -76.9753505, "rental_uris": {"ios": "https://dc.lft.to/lastmile_qr_scan", "android": "https://dc.lft.to/lastmile_qr_scan"}}, {"name": "87bc036cba779b5e57a97f98f3b3f0d9", "fusion_lat": 0.0, "type": "electric_scooter", "lat": 38.9314645, "is_reserved": 0, "is_disabled": 0, "fusion_lon": 0.0, "bike_id": "87bc036cba779b5e57a97f98f3b3f0d9", "lon": -77.04058733333333, "rental_uris": {"ios": "https://dc.lft.to/lastmile_qr_scan", "android": "https://dc.lft.to/lastmile_qr_scan"}}, {"name": "db3ff5e7424819c186417baaf1b91666", "fusion_lat": 0.0, "type": "electric_scooter", "lat": 38.90787433333333, "is_reserved": 0, "is_disabled": 0, "fusion_lon": 0.0, "bike_id": "db3ff5e7424819c186417baaf1b91666", "lon": -77.03857916666666, "rental_uris": {"ios": "https://dc.lft.to/lastmile_qr_scan", "android": "https://dc.lft.to/lastmile_qr_scan"}}, {"name": "b59a2823569b772c69edba0203cb3cbc", "fusion_lat": 0.0, "type": "electric_scooter", "lat": 38.91118983333333, "is_reserved": 0, "is_disabled": 0, "fusion_lon": 0.0, "bike_id": "b59a2823569b772c69edba0203cb3cbc", "lon": -77.02933783333333, "rental_uris": {"ios": "https://dc.lft.to/lastmile_qr_scan", "android": "https://dc.lft.to/lastmile_qr_scan"}}, {"name": "2c44dcbb23f3402db15225d3fa0664bf", "fusion_lat": 0.0, "type": "electric_scooter", "lat": 38.88744166666667, "is_reserved": 0, "is_disabled": 0, "fusion_lon": 0.0, "bike_id": "2c44dcbb23f3402db15225d3fa0664bf", "lon": -77.0212945, "rental_uris": {"ios": "https://dc.lft.to/lastmile_qr_scan", "android": "https://dc.lft.to/lastmile_qr_scan"}}, {"name": "b3c6246d80969f5f3ac59a275dab8720", "fusion_lat": 0.0, "type": "electric_scooter", "lat": 38.916143166666664, "is_reserved": 0, "is_disabled": 0, "fusion_lon": 0.0, "bike_id": "b3c6246d80969f5f3ac59a275dab8720", "lon": -77.03170633333333, "rental_uris": {"ios": "https://dc.lft.to/lastmile_qr_scan", "android": "https://dc.lft.to/lastmile_qr_scan"}}, {"name": "9ff477c98fbb8b1c4fae231d3c02e3dc", "fusion_lat": 0.0, "type": "electric_scooter", "lat": 38.91173, "is_reserved": 0, "is_disabled": 0, "fusion_lon": 0.0, "bike_id": "9ff477c98fbb8b1c4fae231d3c02e3dc", "lon": -77.00134833333334, "rental_uris": {"ios": "https://dc.lft.to/lastmile_qr_scan", "android": "https://dc.lft.to/lastmile_qr_scan"}}, {"name": "43564fa24162332d48dfb5162704f58d", "fusion_lat": 0.0, "type": "electric_scooter", "lat": 38.90501233333333, "is_reserved": 0, "is_disabled": 0, "fusion_lon": 0.0, "bike_id": "43564fa24162332d48dfb5162704f58d", "lon": -77.02598833333333, "rental_uris": {"ios": "https://dc.lft.to/lastmile_qr_scan", "android": "https://dc.lft.to/lastmile_qr_scan"}}, {"name": "e8d109c9283628efec8710be57fbdeeb", "fusion_lat": 0.0, "type": "electric_scooter", "lat": 38.92623316666667, "is_reserved": 0, "is_disabled": 0, "fusion_lon": 0.0, "bike_id": "e8d109c9283628efec8710be57fbdeeb", "lon": -77.04187583333334, "rental_uris": {"ios": "https://dc.lft.to/lastmile_qr_scan", "android": "https://dc.lft.to/lastmile_qr_scan"}}, {"name": "549010ec8eaaa3be736dacf5547d66cf", "fusion_lat": 0.0, "type": "electric_scooter", "lat": 38.905309, "is_reserved": 0, "is_disabled": 0, "fusion_lon": 0.0, "bike_id": "549010ec8eaaa3be736dacf5547d66cf", "lon": -77.0576825, "rental_uris": {"ios": "https://dc.lft.to/lastmile_qr_scan", "android": "https://dc.lft.to/lastmile_qr_scan"}}, {"name": "34c7ae2221209b8a072e607f05ff630f", "fusion_lat": 0.0, "type": "electric_scooter", "lat": 38.894068833333336, "is_reserved": 0, "is_disabled": 0, "fusion_lon": 0.0, "bike_id": "34c7ae2221209b8a072e607f05ff630f", "lon": -76.9479875, "rental_uris": {"ios": "https://dc.lft.to/lastmile_qr_scan", "android": "https://dc.lft.to/lastmile_qr_scan"}}, {"name": "90ea12515f88d1afd81ef931fde8f467", "fusion_lat": 0.0, "type": "electric_scooter", "lat": 38.90823416666667, "is_reserved": 0, "is_disabled": 0, "fusion_lon": 0.0, "bike_id": "90ea12515f88d1afd81ef931fde8f467", "lon": -77.04344133333333, "rental_uris": {"ios": "https://dc.lft.to/lastmile_qr_scan", "android": "https://dc.lft.to/lastmile_qr_scan"}}, {"name": "bb64045e1f62f28c3f6fcc71f92c0b9b", "fusion_lat": 0.0, "type": "electric_scooter", "lat": 38.900268, "is_reserved": 0, "is_disabled": 0, "fusion_lon": 0.0, "bike_id": "bb64045e1f62f28c3f6fcc71f92c0b9b", "lon": -77.00207733333333, "rental_uris": {"ios": "https://dc.lft.to/lastmile_qr_scan", "android": "https://dc.lft.to/lastmile_qr_scan"}}, {"name": "b80c928ec04366f78fc4ce37b3e57b1a", "fusion_lat": 0.0, "type": "electric_scooter", "lat": 38.89525033333334, "is_reserved": 0, "is_disabled": 0, "fusion_lon": 0.0, "bike_id": "b80c928ec04366f78fc4ce37b3e57b1a", "lon": -76.948914, "rental_uris": {"ios": "https://dc.lft.to/lastmile_qr_scan", "android": "https://dc.lft.to/lastmile_qr_scan"}}, {"name": "acd2434315ced803f914dc8ad85ff710", "fusion_lat": 0.0, "type": "electric_bike", "lat": 39.02683366666667, "is_reserved": 0, "is_disabled": 0, "fusion_lon": 0.0, "bike_id": "acd2434315ced803f914dc8ad85ff710", "lon": -77.126018, "rental_uris": {"ios": "https://dc.lft.to/lastmile_qr_scan", "android": "https://dc.lft.to/lastmile_qr_scan"}}, {"name": "c94ca62593163ab290ceee47d0626783", "fusion_lat": 0.0, "type": "electric_scooter", "lat": 38.900347, "is_reserved": 0, "is_disabled": 0, "fusion_lon": 0.0, "bike_id": "c94ca62593163ab290ceee47d0626783", "lon": -77.00199433333333, "rental_uris": {"ios": "https://dc.lft.to/lastmile_qr_scan", "android": "https://dc.lft.to/lastmile_qr_scan"}}, {"name": "a14b1fd95d488576e3a636dcdda1bb4c", "fusion_lat": 0.0, "type": "electric_scooter", "lat": 38.93538216666666, "is_reserved": 0, "is_disabled": 0, "fusion_lon": 0.0, "bike_id": "a14b1fd95d488576e3a636dcdda1bb4c", "lon": -77.03404883333333, "rental_uris": {"ios": "https://dc.lft.to/lastmile_qr_scan", "android": "https://dc.lft.to/lastmile_qr_scan"}}, {"name": "d20a003f7211c5facca4e71e98cb2834", "fusion_lat": 0.0, "type": "electric_bike", "lat": 38.854502833333335, "is_reserved": 0, "is_disabled": 0, "fusion_lon": 0.0, "bike_id": "d20a003f7211c5facca4e71e98cb2834", "lon": -76.9098625, "rental_uris": {"ios": "https://dc.lft.to/lastmile_qr_scan", "android": "https://dc.lft.to/lastmile_qr_scan"}}, {"name": "2c42226ec89b69f82284e73b5f2bd940", "fusion_lat": 0.0, "type": "electric_scooter", "lat": 38.90667833333333, "is_reserved": 0, "is_disabled": 0, "fusion_lon": 0.0, "bike_id": "2c42226ec89b69f82284e73b5f2bd940", "lon": -77.02711316666667, "rental_uris": {"ios": "https://dc.lft.to/lastmile_qr_scan", "android": "https://dc.lft.to/lastmile_qr_scan"}}, {"name": "3bbb9de8b90fc461e0b44e7680e87379", "fusion_lat": 0.0, "type": "electric_bike", "lat": 38.81052233333333, "is_reserved": 0, "is_disabled": 0, "fusion_lon": 0.0, "bike_id": "3bbb9de8b90fc461e0b44e7680e87379", "lon": -77.08509416666666, "rental_uris": {"ios": "https://dc.lft.to/lastmile_qr_scan", "android": "https://dc.lft.to/lastmile_qr_scan"}}, {"name": "1c7779367fb195501bcc5b40dccf7996", "fusion_lat": 0.0, "type": "electric_scooter", "lat": 38.936376, "is_reserved": 0, "is_disabled": 0, "fusion_lon": 0.0, "bike_id": "1c7779367fb195501bcc5b40dccf7996", "lon": -77.0206215, "rental_uris": {"ios": "https://dc.lft.to/lastmile_qr_scan", "android": "https://dc.lft.to/lastmile_qr_scan"}}, {"name": "d1ad5ba34585e396d93b9dbe0a9f816a", "fusion_lat": 0.0, "type": "electric_scooter", "lat": 38.91598366666667, "is_reserved": 0, "is_disabled": 0, "fusion_lon": 0.0, "bike_id": "d1ad5ba34585e396d93b9dbe0a9f816a", "lon": -77.03855016666667, "rental_uris": {"ios": "https://dc.lft.to/lastmile_qr_scan", "android": "https://dc.lft.to/lastmile_qr_scan"}}, {"name": "1f4bbed9b9fc31e7ffdfa259f21837b1", "fusion_lat": 0.0, "type": "electric_scooter", "lat": 38.9051425, "is_reserved": 0, "is_disabled": 0, "fusion_lon": 0.0, "bike_id": "1f4bbed9b9fc31e7ffdfa259f21837b1", "lon": -77.069399, "rental_uris": {"ios": "https://dc.lft.to/lastmile_qr_scan", "android": "https://dc.lft.to/lastmile_qr_scan"}}, {"name": "4e549e9aa52e0146d63b46d88dee1f76", "fusion_lat": 0.0, "type": "electric_scooter", "lat": 38.95086466666667, "is_reserved": 0, "is_disabled": 0, "fusion_lon": 0.0, "bike_id": "4e549e9aa52e0146d63b46d88dee1f76", "lon": -77.02839316666666, "rental_uris": {"ios": "https://dc.lft.to/lastmile_qr_scan", "android": "https://dc.lft.to/lastmile_qr_scan"}}, {"name": "000621ae5f1c29371ede1ee84218633e", "fusion_lat": 0.0, "type": "electric_scooter", "lat": 38.9387135, "is_reserved": 0, "is_disabled": 0, "fusion_lon": 0.0, "bike_id": "000621ae5f1c29371ede1ee84218633e", "lon": -77.03221233333333, "rental_uris": {"ios": "https://dc.lft.to/lastmile_qr_scan", "android": "https://dc.lft.to/lastmile_qr_scan"}}, {"name": "a97a4cad3671a4604afa5afa3f9dc798", "fusion_lat": 0.0, "type": "electric_scooter", "lat": 38.90738483333333, "is_reserved": 0, "is_disabled": 0, "fusion_lon": 0.0, "bike_id": "a97a4cad3671a4604afa5afa3f9dc798", "lon": -77.04670833333333, "rental_uris": {"ios": "https://dc.lft.to/lastmile_qr_scan", "android": "https://dc.lft.to/lastmile_qr_scan"}}, {"name": "6a74976fa63f6a44682a96b13fcff49d", "fusion_lat": 0.0, "type": "electric_scooter", "lat": 38.89245066666667, "is_reserved": 0, "is_disabled": 0, "fusion_lon": 0.0, "bike_id": "6a74976fa63f6a44682a96b13fcff49d", "lon": -77.03184033333334, "rental_uris": {"ios": "https://dc.lft.to/lastmile_qr_scan", "android": "https://dc.lft.to/lastmile_qr_scan"}}, {"name": "bf58232c3a19e70aef4a8f4751d075d4", "fusion_lat": 0.0, "type": "electric_scooter", "lat": 38.911931333333335, "is_reserved": 0, "is_disabled": 0, "fusion_lon": 0.0, "bike_id": "bf58232c3a19e70aef4a8f4751d075d4", "lon": -77.0072325, "rental_uris": {"ios": "https://dc.lft.to/lastmile_qr_scan", "android": "https://dc.lft.to/lastmile_qr_scan"}}, {"name": "b46c2b66b8946ba9b900fed528b6b828", "fusion_lat": 0.0, "type": "electric_scooter", "lat": 38.9254265, "is_reserved": 0, "is_disabled": 0, "fusion_lon": 0.0, "bike_id": "b46c2b66b8946ba9b900fed528b6b828", "lon": -77.03268, "rental_uris": {"ios": "https://dc.lft.to/lastmile_qr_scan", "android": "https://dc.lft.to/lastmile_qr_scan"}}, {"name": "d22ee774753321a429dd99ef2fcf8423", "fusion_lat": 0.0, "type": "electric_scooter", "lat": 38.911018166666665, "is_reserved": 0, "is_disabled": 0, "fusion_lon": 0.0, "bike_id": "d22ee774753321a429dd99ef2fcf8423", "lon": -77.010584, "rental_uris": {"ios": "https://dc.lft.to/lastmile_qr_scan", "android": "https://dc.lft.to/lastmile_qr_scan"}}, {"name": "d6e9d64d6d35ca014b0fa7d9dba9e1c8", "fusion_lat": 0.0, "type": "electric_scooter", "lat": 38.93938383333333, "is_reserved": 0, "is_disabled": 0, "fusion_lon": 0.0, "bike_id": "d6e9d64d6d35ca014b0fa7d9dba9e1c8", "lon": -77.03628716666667, "rental_uris": {"ios": "https://dc.lft.to/lastmile_qr_scan", "android": "https://dc.lft.to/lastmile_qr_scan"}}, {"name": "4727c43806504c3cf835d7b28d14d14e", "fusion_lat": 0.0, "type": "electric_scooter", "lat": 38.902689333333335, "is_reserved": 0, "is_disabled": 0, "fusion_lon": 0.0, "bike_id": "4727c43806504c3cf835d7b28d14d14e", "lon": -77.01555216666667, "rental_uris": {"ios": "https://dc.lft.to/lastmile_qr_scan", "android": "https://dc.lft.to/lastmile_qr_scan"}}, {"name": "8cdad5fb58ee04698ec2faa8324adf6d", "fusion_lat": 0.0, "type": "electric_scooter", "lat": 38.923176, "is_reserved": 0, "is_disabled": 0, "fusion_lon": 0.0, "bike_id": "8cdad5fb58ee04698ec2faa8324adf6d", "lon": -77.03956116666667, "rental_uris": {"ios": "https://dc.lft.to/lastmile_qr_scan", "android": "https://dc.lft.to/lastmile_qr_scan"}}, {"name": "4be3adf76e29338111c1ac46a7d24129", "fusion_lat": 0.0, "type": "electric_scooter", "lat": 38.90531583333333, "is_reserved": 0, "is_disabled": 0, "fusion_lon": 0.0, "bike_id": "4be3adf76e29338111c1ac46a7d24129", "lon": -77.06275533333333, "rental_uris": {"ios": "https://dc.lft.to/lastmile_qr_scan", "android": "https://dc.lft.to/lastmile_qr_scan"}}, {"name": "af5fb24123658b69b3b224e8ceed1d51", "fusion_lat": 0.0, "type": "electric_scooter", "lat": 38.895619833333335, "is_reserved": 0, "is_disabled": 0, "fusion_lon": 0.0, "bike_id": "af5fb24123658b69b3b224e8ceed1d51", "lon": -77.01119683333333, "rental_uris": {"ios": "https://dc.lft.to/lastmile_qr_scan", "android": "https://dc.lft.to/lastmile_qr_scan"}}, {"name": "cf677ccd50456ef20aa13f0c958c79e5", "fusion_lat": 0.0, "type": "electric_bike", "lat": 38.842726166666665, "is_reserved": 0, "is_disabled": 0, "fusion_lon": 0.0, "bike_id": "cf677ccd50456ef20aa13f0c958c79e5", "lon": -76.98840333333334, "rental_uris": {"ios": "https://dc.lft.to/lastmile_qr_scan", "android": "https://dc.lft.to/lastmile_qr_scan"}}, {"name": "16ab6506a8375c876ac0de764a7fea08", "fusion_lat": 0.0, "type": "electric_scooter", "lat": 38.90346383333333, "is_reserved": 0, "is_disabled": 0, "fusion_lon": 0.0, "bike_id": "16ab6506a8375c876ac0de764a7fea08", "lon": -77.02602683333333, "rental_uris": {"ios": "https://dc.lft.to/lastmile_qr_scan", "android": "https://dc.lft.to/lastmile_qr_scan"}}, {"name": "fb1ba5d8299dbcfaf580fefdfd103f18", "fusion_lat": 0.0, "type": "electric_bike", "lat": 38.96005366666667, "is_reserved": 0, "is_disabled": 0, "fusion_lon": 0.0, "bike_id": "fb1ba5d8299dbcfaf580fefdfd103f18", "lon": -76.9986405, "rental_uris": {"ios": "https://dc.lft.to/lastmile_qr_scan", "android": "https://dc.lft.to/lastmile_qr_scan"}}, {"name": "939400faa19817e048db76d60a2cc1fe", "fusion_lat": 0.0, "type": "electric_bike", "lat": 38.881198166666664, "is_reserved": 0, "is_disabled": 0, "fusion_lon": 0.0, "bike_id": "939400faa19817e048db76d60a2cc1fe", "lon": -77.013505, "rental_uris": {"ios": "https://dc.lft.to/lastmile_qr_scan", "android": "https://dc.lft.to/lastmile_qr_scan"}}, {"name": "cc0bad7c569b11be231b3f76aa6dd0f7", "fusion_lat": 0.0, "type": "electric_scooter", "lat": 38.90150216666667, "is_reserved": 0, "is_disabled": 0, "fusion_lon": 0.0, "bike_id": "cc0bad7c569b11be231b3f76aa6dd0f7", "lon": -77.046838, "rental_uris": {"ios": "https://dc.lft.to/lastmile_qr_scan", "android": "https://dc.lft.to/lastmile_qr_scan"}}, {"name": "0e9d416c699affea91bb24bdac12fbb8", "fusion_lat": 0.0, "type": "electric_scooter", "lat": 38.94201483333333, "is_reserved": 0, "is_disabled": 0, "fusion_lon": 0.0, "bike_id": "0e9d416c699affea91bb24bdac12fbb8", "lon": -77.0251385, "rental_uris": {"ios": "https://dc.lft.to/lastmile_qr_scan", "android": "https://dc.lft.to/lastmile_qr_scan"}}, {"name": "6dfe5db005c965546279456e93c5840c", "fusion_lat": 0.0, "type": "electric_scooter", "lat": 38.907265833333334, "is_reserved": 0, "is_disabled": 0, "fusion_lon": 0.0, "bike_id": "6dfe5db005c965546279456e93c5840c", "lon": -77.04349583333334, "rental_uris": {"ios": "https://dc.lft.to/lastmile_qr_scan", "android": "https://dc.lft.to/lastmile_qr_scan"}}, {"name": "2d292ef2ff8d8d2352bfbe71571de5a0", "fusion_lat": 0.0, "type": "electric_scooter", "lat": 38.921240166666664, "is_reserved": 0, "is_disabled": 0, "fusion_lon": 0.0, "bike_id": "2d292ef2ff8d8d2352bfbe71571de5a0", "lon": -77.02539533333334, "rental_uris": {"ios": "https://dc.lft.to/lastmile_qr_scan", "android": "https://dc.lft.to/lastmile_qr_scan"}}, {"name": "151cef65afb470525773b9da235473bb", "fusion_lat": 0.0, "type": "electric_bike", "lat": 38.83152483333333, "is_reserved": 0, "is_disabled": 0, "fusion_lon": 0.0, "bike_id": "151cef65afb470525773b9da235473bb", "lon": -77.11322866666667, "rental_uris": {"ios": "https://dc.lft.to/lastmile_qr_scan", "android": "https://dc.lft.to/lastmile_qr_scan"}}, {"name": "826e11453d3667f5431a54656158f203", "fusion_lat": 0.0, "type": "electric_scooter", "lat": 38.86257333333333, "is_reserved": 0, "is_disabled": 0, "fusion_lon": 0.0, "bike_id": "826e11453d3667f5431a54656158f203", "lon": -76.9951675, "rental_uris": {"ios": "https://dc.lft.to/lastmile_qr_scan", "android": "https://dc.lft.to/lastmile_qr_scan"}}, {"name": "4e648255e25cabfbd153bf4eaf833d14", "fusion_lat": 0.0, "type": "electric_bike", "lat": 38.92435033333334, "is_reserved": 0, "is_disabled": 0, "fusion_lon": 0.0, "bike_id": "4e648255e25cabfbd153bf4eaf833d14", "lon": -76.9913705, "rental_uris": {"ios": "https://dc.lft.to/lastmile_qr_scan", "android": "https://dc.lft.to/lastmile_qr_scan"}}, {"name": "ab6a7be1250b3b5ff8577a518f53516d", "fusion_lat": 0.0, "type": "electric_scooter", "lat": 38.908718666666665, "is_reserved": 0, "is_disabled": 0, "fusion_lon": 0.0, "bike_id": "ab6a7be1250b3b5ff8577a518f53516d", "lon": -77.00334966666667, "rental_uris": {"ios": "https://dc.lft.to/lastmile_qr_scan", "android": "https://dc.lft.to/lastmile_qr_scan"}}, {"name": "347f3aef72960a3834f85663e5ea6749", "fusion_lat": 0.0, "type": "electric_scooter", "lat": 38.900302333333336, "is_reserved": 0, "is_disabled": 0, "fusion_lon": 0.0, "bike_id": "347f3aef72960a3834f85663e5ea6749", "lon": -77.00205316666667, "rental_uris": {"ios": "https://dc.lft.to/lastmile_qr_scan", "android": "https://dc.lft.to/lastmile_qr_scan"}}, {"name": "aaad0d1b278920e6e11668c23196ecb2", "fusion_lat": 0.0, "type": "electric_scooter", "lat": 38.92825083333334, "is_reserved": 0, "is_disabled": 0, "fusion_lon": 0.0, "bike_id": "aaad0d1b278920e6e11668c23196ecb2", "lon": -77.022579, "rental_uris": {"ios": "https://dc.lft.to/lastmile_qr_scan", "android": "https://dc.lft.to/lastmile_qr_scan"}}, {"name": "59e1f36faa7ace9dc4b412b5de10ab35", "fusion_lat": 0.0, "type": "electric_scooter", "lat": 38.900454333333336, "is_reserved": 0, "is_disabled": 0, "fusion_lon": 0.0, "bike_id": "59e1f36faa7ace9dc4b412b5de10ab35", "lon": -77.00213266666667, "rental_uris": {"ios": "https://dc.lft.to/lastmile_qr_scan", "android": "https://dc.lft.to/lastmile_qr_scan"}},