{"data": {"bikes": [{"fusion_lat": 0.0, "type": "electric_scooter", "name": "5cced5b9a16f093aa1729aed2e91e967", "fusion_lon": 0.0, "bike_id": "5cced5b9a16f093aa1729aed2e91e967", "is_reserved": 0, "rental_uris": {"android": "https://dc.lft.to/lastmile_qr_scan", "ios": "https://dc.lft.to/lastmile_qr_scan"}, "lat": 38.900691333333334, "is_disabled": 0, "lon": -77.04535266666667}, {"fusion_lat": 0.0, "type": "electric_scooter", "name": "8a8c80763c755a1a4eb71a9c416e56c4", "fusion_lon": 0.0, "bike_id": "8a8c80763c755a1a4eb71a9c416e56c4", "is_reserved": 0, "rental_uris": {"android": "https://dc.lft.to/lastmile_qr_scan", "ios": "https://dc.lft.to/lastmile_qr_scan"}, "lat": 38.90145116666667, "is_disabled": 0, "lon": -77.043426}, {"fusion_lat": 0.0, "type": "electric_scooter", "name": "f5e1a456e4bf733caf9dc91e7a1a8714", "fusion_lon": 0.0, "bike_id": "f5e1a456e4bf733caf9dc91e7a1a8714", "is_reserved": 0, "rental_uris": {"android": "https://dc.lft.to/lastmile_qr_scan", "ios": "https://dc.lft.to/lastmile_qr_scan"}, "lat": 38.9205765, "is_disabled": 0, "lon": -77.03661466666667}, {"fusion_lat": 0.0, "type": "electric_scooter", "name": "5ac40384313266f14878cb59d120cfb3", "fusion_lon": 0.0, "bike_id": "5ac40384313266f14878cb59d120cfb3", "is_reserved": 0, "rental_uris": {"android": "https://dc.lft.to/lastmile_qr_scan", "ios": "https://dc.lft.to/lastmile_qr_scan"}, "lat": 38.885056166666665, "is_disabled": 0, "lon": -76.99753216666667}, {"fusion_lat": 0.0, "type": "electric_scooter", "name": "4cc46f91dd8a2a6048578965c8bc1966", "fusion_lon": 0.0, "bike_id": "4cc46f91dd8a2a6048578965c8bc1966", "is_reserved": 0, "rental_uris": {"android": "https://dc.lft.to/lastmile_qr_scan", "ios": "https://dc.lft.to/lastmile_qr_scan"}, "lat": 38.91727983333333, "is_disabled": 0, "lon": -77.03342133333334}, {"fusion_lat": 0.0, "type": "electric_scooter", "name": "89da58fc21b98e32e539c03977767a25", "fusion_lon": 0.0, "bike_id": "89da58fc21b98e32e539c03977767a25", "is_reserved": 0, "rental_uris": {"android": "https://dc.lft.to/lastmile_qr_scan", "ios": "https://dc.lft.to/lastmile_qr_scan"}, "lat": 38.89948016666666, "is_disabled": 0, "lon": -77.01444533333333}, {"fusion_lat": 0.0, "type": "electric_scooter", "name": "4df210a2d0d24f243aa9a394398ef334", "fusion_lon": 0.0, "bike_id": "4df210a2d0d24f243aa9a394398ef334", "is_reserved": 0, "rental_uris": {"android": "https://dc.lft.to/lastmile_qr_scan", "ios": "https://dc.lft.to/lastmile_qr_scan"}, "lat": 38.9063715, "is_disabled": 0, "lon": -77.06902316666667}, {"fusion_lat": 0.0, "type": "electric_scooter", "name": "c00b8f6d726e5dcb429b1be9bc6415f6", "fusion_lon": 0.0, "bike_id": "c00b8f6d726e5dcb429b1be9bc6415f6", "is_reserved": 0, "rental_uris": {"android": "https://dc.lft.to/lastmile_qr_scan", "ios": "https://dc.lft.to/lastmile_qr_scan"}, "lat": 38.904431833333334, "is_disabled": 0, "lon": -77.04332933333333}, {"fusion_lat": 0.0, "type": "electric_scooter", "name": "19fa21f5575e7a36b6e89114d71d39cd", "fusion_lon": 0.0, "bike_id": "19fa21f5575e7a36b6e89114d71d39cd", "is_reserved": 0, "rental_uris": {"android": "https://dc.lft.to/lastmile_qr_scan", "ios": "https://dc.lft.to/lastmile_qr_scan"}, "lat": 38.934199666666665, "is_disabled": 0, "lon": -77.04399433333333}, {"fusion_lat": 0.0, "type": "electric_scooter", "name": "482cd0c5e819a80df75ca5b2c8000704", "fusion_lon": 0.0, "bike_id": "482cd0c5e819a80df75ca5b2c8000704", "is_reserved": 0, "rental_uris": {"android": "https://dc.lft.to/lastmile_qr_scan", "ios": "https://dc.lft.to/lastmile_qr_scan"}, "lat": 38.943154666666665, "is_disabled": 0, "lon": -77.01722933333333}, {"fusion_lat": 0.0, "type": "electric_scooter", "name": "c295cae2b5006edf5c83025ff97614af", "fusion_lon": 0.0, "bike_id": "c295cae2b5006edf5c83025ff97614af", "is_reserved": 0, "rental_uris": {"android": "https://dc.lft.to/lastmile_qr_scan", "ios": "https://dc.lft.to/lastmile_qr_scan"}, "lat": 38.950199, "is_disabled": 0, "lon": -77.06733766666666}, {"fusion_lat": 0.0, "type": "electric_scooter", "name": "171c0540a7edb1f343ec63d3ca70234e", "fusion_lon": 0.0, "bike_id": "171c0540a7edb1f343ec63d3ca70234e", "is_reserved": 0, "rental_uris": {"android": "https://dc.lft.to/lastmile_qr_scan", "ios": "https://dc.lft.to/lastmile_qr_scan"}, "lat": 38.925857666666666, "is_disabled": 0, "lon": -77.03640083333333}, {"fusion_lat": 0.0, "type": "electric_scooter", "name": "c3ee3e0527bb1baf04c0b6bac98d928a", "fusion_lon": 0.0, "bike_id": "c3ee3e0527bb1baf04c0b6bac98d928a", "is_reserved": 0, "rental_uris": {"android": "https://dc.lft.to/lastmile_qr_scan", "ios": "https://dc.lft.to/lastmile_qr_scan"}, "lat": 38.906782, "is_disabled": 0, "lon": -77.03893183333334}, {"fusion_lat": 0.0, "type": "electric_scooter", "name": "9dc5cead4aed7b79e0cf303336118de1", "fusion_lon": 0.0, "bike_id": "9dc5cead4aed7b79e0cf303336118de1", "is_reserved": 0, "rental_uris": {"android": "https://dc.lft.to/lastmile_qr_scan", "ios": "https://dc.lft.to/lastmile_qr_scan"}, "lat": 38.904669, "is_disabled": 0, "lon": -77.035626}, {"fusion_lat": 0.0, "type": "electric_scooter", "name": "2d83ef4f4a6208d16932652c5bf9c33b", "fusion_lon": 0.0, "bike_id": "2d83ef4f4a6208d16932652c5bf9c33b", "is_reserved": 0, "rental_uris": {"android": "https://dc.lft.to/lastmile_qr_scan", "ios": "https://dc.lft.to/lastmile_qr_scan"}, "lat": 38.901610166666664, "is_disabled": 0, "lon": -77.0317735}, {"fusion_lat": 0.0, "type": "electric_scooter", "name": "5a9f1f67fb5469a29b93c337cce20176", "fusion_lon": 0.0, "bike_id": "5a9f1f67fb5469a29b93c337cce20176", "is_reserved": 0, "rental_uris": {"android": "https://dc.lft.to/lastmile_qr_scan", "ios": "https://dc.lft.to/lastmile_qr_scan"}, "lat": 38.92140933333334, "is_disabled": 0, "lon": -77.0179125}, {"fusion_lat": 0.0, "type": "electric_scooter", "name": "25d84b0176c4b810465df10232504f39", "fusion_lon": 0.0, "bike_id": "25d84b0176c4b810465df10232504f39", "is_reserved": 0, "rental_uris": {"android": "https://dc.lft.to/lastmile_qr_scan", "ios": "https://dc.lft.to/lastmile_qr_scan"}, "lat": 38.89238316666667, "is_disabled": 0, "lon": -77.041579}, {"fusion_lat": 0.0, "type": "electric_bike", "name": "1406c1df95b7a8a8e0a5599835f38077", "fusion_lon": 0.0, "bike_id": "1406c1df95b7a8a8e0a5599835f38077", "is_reserved": 0, "rental_uris": {"android": "https://dc.lft.to/lastmile_qr_scan", "ios": "https://dc.lft.to/lastmile_qr_scan"}, "lat": 38.8537335, "is_disabled": 0, "lon": -77.12464283333334}, {"fusion_lat": 0.0, "type": "electric_bike", "name": "acb92a5d6e183a1e1eb9d2bf3edbfa88", "fusion_lon": 0.0, "bike_id": "acb92a5d6e183a1e1eb9d2bf3edbfa88", "is_reserved": 0, "rental_uris": {"android": "https://dc.lft.to/lastmile_qr_scan", "ios": "https://dc.lft.to/lastmile_qr_scan"}, "lat": 38.873007, "is_disabled": 0, "lon": -77.139251}, {"fusion_lat": 0.0, "type": "electric_scooter", "name": "75dab2006b3e31368cb60a62565ca607", "fusion_lon": 0.0, "bike_id": "75dab2006b3e31368cb60a62565ca607", "is_reserved": 0, "rental_uris": {"android": "https://dc.lft.to/lastmile_qr_scan", "ios": "https://dc.lft.to/lastmile_qr_scan"}, "lat": 38.91684933333333, "is_disabled": 0, "lon": -77.029724}, {"fusion_lat": 0.0, "type": "electric_scooter", "name": "75de1f5ea9cf0e6753587837ce7a33df", "fusion_lon": 0.0, "bike_id": "75de1f5ea9cf0e6753587837ce7a33df", "is_reserved": 0, "rental_uris": {"android": "https://dc.lft.to/lastmile_qr_scan", "ios": "https://dc.lft.to/lastmile_qr_scan"}, "lat": 38.89732566666667, "is_disabled": 0, "lon": -77.02717966666667}, {"fusion_lat": 0.0, "type": "electric_scooter", "name": "551f84602edde3cf02d8f82179036cbc", "fusion_lon": 0.0, "bike_id": "551f84602edde3cf02d8f82179036cbc", "is_reserved": 0, "rental_uris": {"android": "https://dc.lft.to/lastmile_qr_scan", "ios": "https://dc.lft.to/lastmile_qr_scan"}, "lat": 38.892329333333336, "is_disabled": 0, "lon": -77.05001933333334}, {"fusion_lat": 0.0, "type": "electric_scooter", "name": "10fe1253d485bfd7ccca10e3be1a847f", "fusion_lon": 0.0, "bike_id": "10fe1253d485bfd7ccca10e3be1a847f", "is_reserved": 0, "rental_uris": {"android": "https://dc.lft.to/lastmile_qr_scan", "ios": "https://dc.lft.to/lastmile_qr_scan"}, "lat": 38.90511333333333, "is_disabled": 0, "lon": -77.0348485}, {"fusion_lat": 0.0, "type": "electric_scooter", "name": "775287c11d764c89a75494ebe9a06b56", "fusion_lon": 0.0, "bike_id": "775287c11d764c89a75494ebe9a06b56", "is_reserved": 0, "rental_uris": {"android": "https://dc.lft.to/lastmile_qr_scan", "ios": "https://dc.lft.to/lastmile_qr_scan"}, "lat": 38.92177316666667, "is_disabled": 0, "lon": -77.0422885}, {"fusion_lat": 0.0, "type": "electric_scooter", "name": "40e69e3d17580d8b4b1a02c903f5bd32", "fusion_lon": 0.0, "bike_id": "40e69e3d17580d8b4b1a02c903f5bd32", "is_reserved": 0, "rental_uris": {"android": "https://dc.lft.to/lastmile_qr_scan", "ios": "https://dc.lft.to/lastmile_qr_scan"}, "lat": 38.89534833333333, "is_disabled": 0, "lon": -77.032608}, {"fusion_lat": 0.0, "type": "electric_scooter", "name": "2b60c382a7395a263bb784943f95606f", "fusion_lon": 0.0, "bike_id": "2b60c382a7395a263bb784943f95606f", "is_reserved": 0, "rental_uris": {"android": "https://dc.lft.to/lastmile_qr_scan", "ios": "https://dc.lft.to/lastmile_qr_scan"}, "lat": 38.8873285, "is_disabled": 0, "lon": -77.02828466666666}, {"fusion_lat": 0.0, "type": "electric_scooter", "name": "87761fe0a7913171c61011bee6ede41c", "fusion_lon": 0.0, "bike_id": "87761fe0a7913171c61011bee6ede41c", "is_reserved": 0, "rental_uris": {"android": "https://dc.lft.to/lastmile_qr_scan", "ios": "https://dc.lft.to/lastmile_qr_scan"}, "lat": 38.881811, "is_disabled": 0, "lon": -77.03573433333334}, {"fusion_lat": 0.0, "type": "electric_scooter", "name": "b2f1bde9f961a57868c22f933d2426db", "fusion_lon": 0.0, "bike_id": "b2f1bde9f961a57868c22f933d2426db", "is_reserved": 0, "rental_uris": {"android": "https://dc.lft.to/lastmile_qr_scan", "ios": "https://dc.lft.to/lastmile_qr_scan"}, "lat": 38.910625, "is_disabled": 0, "lon": -77.02188166666667}, {"fusion_lat": 0.0, "type": "electric_bike", "name": "3ad70fdf7fdcf64e781b6602796b5708", "fusion_lon": 0.0, "bike_id": "3ad70fdf7fdcf64e781b6602796b5708", "is_reserved": 0, "rental_uris": {"android": "https://dc.lft.to/lastmile_qr_scan", "ios": "https://dc.lft.to/lastmile_qr_scan"}, "lat": 38.8532535, "is_disabled": 0, "lon": -76.98013183333333}, {"fusion_lat": 0.0, "type": "electric_scooter", "name": "8b344cb1af2b0fbac8e215089ab377db", "fusion_lon": 0.0, "bike_id": "8b344cb1af2b0fbac8e215089ab377db", "is_reserved": 0, "rental_uris": {"android": "https://dc.lft.to/lastmile_qr_scan", "ios": "https://dc.lft.to/lastmile_qr_scan"}, "lat": 38.9053345, "is_disabled": 0, "lon": -77.05015283333333}, {"fusion_lat": 0.0, "type": "electric_scooter", "name": "23f90dd38b3829618df08c236b8d91d2", "fusion_lon": 0.0, "bike_id": "23f90dd38b3829618df08c236b8d91d2", "is_reserved": 0, "rental_uris": {"android": "https://dc.lft.to/lastmile_qr_scan", "ios": "https://dc.lft.to/lastmile_qr_scan"}, "lat": 38.892285333333334, "is_disabled": 0, "lon": -77.0433275}, {"fusion_lat": 0.0, "type": "electric_scooter", "name": "be4faf05e197e2b9c440b1883f5eeab7", "fusion_lon": 0.0, "bike_id": "be4faf05e197e2b9c440b1883f5eeab7", "is_reserved": 0, "rental_uris": {"android": "https://dc.lft.to/lastmile_qr_scan", "ios": "https://dc.lft.to/lastmile_qr_scan"}, "lat": 38.8862115, "is_disabled": 0, "lon": -76.95582083333333}, {"fusion_lat": 0.0, "type": "electric_scooter", "name": "da7ea522a51bdb1af212f6ba696dc29e", "fusion_lon": 0.0, "bike_id": "da7ea522a51bdb1af212f6ba696dc29e", "is_reserved": 0, "rental_uris": {"android": "https://dc.lft.to/lastmile_qr_scan", "ios": "https://dc.lft.to/lastmile_qr_scan"}, "lat": 38.93872783333333, "is_disabled": 0, "lon": -77.06050233333333}, {"fusion_lat": 0.0, "type": "electric_scooter", "name": "7bf04df48538e6a4346f5f6d93287909", "fusion_lon": 0.0, "bike_id": "7bf04df48538e6a4346f5f6d93287909", "is_reserved": 0, "rental_uris": {"android": "https://dc.lft.to/lastmile_qr_scan", "ios": "https://dc.lft.to/lastmile_qr_scan"}, "lat": 38.905901166666666, "is_disabled": 0, "lon": -77.07009116666667}, {"fusion_lat": 0.0, "type": "electric_scooter", "name": "9e73dce7dc7f0de6daec65e57254ba7c", "fusion_lon": 0.0, "bike_id": "9e73dce7dc7f0de6daec65e57254ba7c", "is_reserved": 0, "rental_uris": {"android": "https://dc.lft.to/lastmile_qr_scan", "ios": "https://dc.lft.to/lastmile_qr_scan"}, "lat": 38.874839, "is_disabled": 0, "lon": -77.00661183333334}, {"fusion_lat": 0.0, "type": "electric_scooter", "name": "761cbed24076d75d0b62504224b0394b", "fusion_lon": 0.0, "bike_id": "761cbed24076d75d0b62504224b0394b", "is_reserved": 0, "rental_uris": {"android": "https://dc.lft.to/lastmile_qr_scan", "ios": "https://dc.lft.to/lastmile_qr_scan"}, "lat": 38.928529833333336, "is_disabled": 0, "lon": -77.014007}, {"fusion_lat": 0.0, "type": "electric_scooter", "name": "f5adae61ac43a68db5dbb7e97bbc8be8", "fusion_lon": 0.0, "bike_id": "f5adae61ac43a68db5dbb7e97bbc8be8", "is_reserved": 0, "rental_uris": {"android": "https://dc.lft.to/lastmile_qr_scan", "ios": "https://dc.lft.to/lastmile_qr_scan"}, "lat": 38.90074366666666, "is_disabled": 0, "lon": -77.01293083333333}, {"fusion_lat": 0.0, "type": "electric_bike", "name": "ba5e026e8fc29ceb1582941b8dacb57e", "fusion_lon": 0.0, "bike_id": "ba5e026e8fc29ceb1582941b8dacb57e", "is_reserved": 0, "rental_uris": {"android": "https://dc.lft.to/lastmile_qr_scan", "ios": "https://dc.lft.to/lastmile_qr_scan"}, "lat": 38.807528, "is_disabled": 0, "lon": -77.094535}, {"fusion_lat": 0.0, "type": "electric_scooter", "name": "da9350e533a27f0f05aedb599c5ad14f", "fusion_lon": 0.0, "bike_id": "da9350e533a27f0f05aedb599c5ad14f", "is_reserved": 0, "rental_uris": {"android": "https://dc.lft.to/lastmile_qr_scan", "ios": "https://dc.lft.to/lastmile_qr_scan"}, "lat": 38.8979475, "is_disabled": 0, "lon": -77.0502145}, {"fusion_lat": 0.0, "type": "electric_scooter", "name": "26f8ee11f6fe367fe2391faeacb62eab", "fusion_lon": 0.0, "bike_id": "26f8ee11f6fe367fe2391faeacb62eab", "is_reserved": 0, "rental_uris": {"android": "https://dc.lft.to/lastmile_qr_scan", "ios": "https://dc.lft.to/lastmile_qr_scan"}, "lat": 38.8765375, "is_disabled": 0, "lon": -77.00871866666667}, {"fusion_lat": 0.0, "type": "electric_scooter", "name": "dc0ad4151e2090262ada9d000831f178", "fusion_lon": 0.0, "bike_id": "dc0ad4151e2090262ada9d000831f178", "is_reserved": 0, "rental_uris": {"android": "https://dc.lft.to/lastmile_qr_scan", "ios": "https://dc.lft.to/lastmile_qr_scan"}, "lat": 38.883225333333336, "is_disabled": 0, "lon": -77.01689966666666}, {"fusion_lat": 0.0, "type": "electric_scooter", "name": "0fd0ce5cf324ae61a6f19f5b45a74aff", "fusion_lon": 0.0, "bike_id": "0fd0ce5cf324ae61a6f19f5b45a74aff", "is_reserved": 0, "rental_uris": {"android": "https://dc.lft.to/lastmile_qr_scan", "ios": "https://dc.lft.to/lastmile_qr_scan"}, "lat": 38.86700333333334, "is_disabled": 0, "lon": -76.98591066666667}, {"fusion_lat": 0.0, "type": "electric_scooter", "name": "d253e084e5804682f0dd272314f63b8f", "fusion_lon": 0.0, "bike_id": "d253e084e5804682f0dd272314f63b8f", "is_reserved": 0, "rental_uris": {"android": "https://dc.lft.to/lastmile_qr_scan", "ios": "https://dc.lft.to/lastmile_qr_scan"}, "lat": 38.898457, "is_disabled": 0, "lon": -76.9463645}, {"fusion_lat": 0.0, "type": "electric_bike", "name": "3cb557107b314df9e262d2f674d7292b", "fusion_lon": 0.0, "bike_id": "3cb557107b314df9e262d2f674d7292b", "is_reserved": 0, "rental_uris": {"android": "https://dc.lft.to/lastmile_qr_scan", "ios": "https://dc.lft.to/lastmile_qr_scan"}, "lat": 38.872787333333335, "is_disabled": 0, "lon": -77.23331733333333}, {"fusion_lat": 0.0, "type": "electric_scooter", "name": "61556de13464a9db4a932714dafa3aaa", "fusion_lon": 0.0, "bike_id": "61556de13464a9db4a932714dafa3aaa", "is_reserved": 0, "rental_uris": {"android": "https://dc.lft.to/lastmile_qr_scan", "ios": "https://dc.lft.to/lastmile_qr_scan"}, "lat": 38.904175, "is_disabled": 0, "lon": -77.04653816666666}, {"fusion_lat": 0.0, "type": "electric_scooter", "name": "0159487fd3c8877c36a1b7278296e2fc", "fusion_lon": 0.0, "bike_id": "0159487fd3c8877c36a1b7278296e2fc", "is_reserved": 0, "rental_uris": {"android": "https://dc.lft.to/lastmile_qr_scan", "ios": "https://dc.lft.to/lastmile_qr_scan"}, "lat": 38.90041983333333, "is_disabled": 0, "lon": -76.9883805}, {"fusion_lat": 0.0, "type": "electric_scooter", "name": "a4c9fa0669ba36bbd4c8ba03bf73f503", "fusion_lon": 0.0, "bike_id": "a4c9fa0669ba36bbd4c8ba03bf73f503", "is_reserved": 0, "rental_uris": {"android": "https://dc.lft.to/lastmile_qr_scan", "ios": "https://dc.lft.to/lastmile_qr_scan"}, "lat": 38.905116666666665, "is_disabled": 0, "lon": -77.068881}, {"fusion_lat": 0.0, "type": "electric_scooter", "name": "0d371ec3003c83177717ccd6dd78f04f", "fusion_lon": 0.0, "bike_id": "0d371ec3003c83177717ccd6dd78f04f", "is_reserved": 0, "rental_uris": {"android": "https://dc.lft.to/lastmile_qr_scan", "ios": "https://dc.lft.to/lastmile_qr_scan"}, "lat": 38.933428166666666, "is_disabled": 0, "lon": -77.0327995}, {"fusion_lat": 0.0, "type": "electric_scooter", "name": "36172501f049fa6df8cee43577ece893", "fusion_lon": 0.0, "bike_id": "36172501f049fa6df8cee43577ece893", "is_reserved": 0, "rental_uris": {"android": "https://dc.lft.to/lastmile_qr_scan", "ios": "https://dc.lft.to/lastmile_qr_scan"}, "lat": 38.901216, "is_disabled": 0, "lon": -77.04987083333333}, {"fusion_lat": 0.0, "type": "electric_scooter", "name": "84c2b830d272a390c318152e9b067d09", "fusion_lon": 0.0, "bike_id": "84c2b830d272a390c318152e9b067d09", "is_reserved": 0, "rental_uris": {"android": "https://dc.lft.to/lastmile_qr_scan", "ios": "https://dc.lft.to/lastmile_qr_scan"}, "lat": 38.928718833333335, "is_disabled": 0, "lon": -77.01398116666667}, {"fusion_lat": 0.0, "type": "electric_scooter", "name": "3ee182d6577539764c20cb77eadbf36b", "fusion_lon": 0.0, "bike_id": "3ee182d6577539764c20cb77eadbf36b", "is_reserved": 0, "rental_uris": {"android": "https://dc.lft.to/lastmile_qr_scan", "ios": "https://dc.lft.to/lastmile_qr_scan"}, "lat": 38.91800666666666, "is_disabled": 0, "lon": -77.027076}, {"fusion_lat": 0.0, "type": "electric_scooter", "name": "251ad0f3abaca229dfd2386d377b74d8", "fusion_lon": 0.0, "bike_id": "251ad0f3abaca229dfd2386d377b74d8", "is_reserved": 0, "rental_uris": {"android": "https://dc.lft.to/lastmile_qr_scan", "ios": "https://dc.lft.to/lastmile_qr_scan"}, "lat": 38.92067216666667, "is_disabled": 0, "lon": -77.04251533333333}, {"fusion_lat": 0.0, "type": "electric_scooter", "name": "2778dc4c88cc7ee9b877ed35167b30b6", "fusion_lon": 0.0, "bike_id": "2778dc4c88cc7ee9b877ed35167b30b6", "is_reserved": 0, "rental_uris": {"android": "https://dc.lft.to/lastmile_qr_scan", "ios": "https://dc.lft.to/lastmile_qr_scan"}, "lat": 38.90170283333333, "is_disabled": 0, "lon": -77.06004466666667}, {"fusion_lat": 0.0, "type": "electric_scooter", "name": "f5e8937431194e50e450df0fc72b3f70", "fusion_lon": 0.0, "bike_id": "f5e8937431194e50e450df0fc72b3f70", "is_reserved": 0, "rental_uris": {"android": "https://dc.lft.to/lastmile_qr_scan", "ios": "https://dc.lft.to/lastmile_qr_scan"}, "lat": 38.918998, "is_disabled": 0, "lon": -77.02093566666667}, {"fusion_lat": 0.0, "type": "electric_scooter", "name": "6bc16e7af1bb48bd4ed76fa7bda2adde", "fusion_lon": 0.0, "bike_id": "6bc16e7af1bb48bd4ed76fa7bda2adde", "is_reserved": 0, "rental_uris": {"android": "https://dc.lft.to/lastmile_qr_scan", "ios": "https://dc.lft.to/lastmile_qr_scan"}, "lat": 38.90145533333333, "is_disabled": 0, "lon": -77.0024875}, {"fusion_lat": 0.0, "type": "electric_scooter", "name": "96f825e961ae94c552f870bc50efe1cb", "fusion_lon": 0.0, "bike_id": "96f825e961ae94c552f870bc50efe1cb", "is_reserved": 0, "rental_uris": {"android": "https://dc.lft.to/lastmile_qr_scan", "ios": "https://dc.lft.to/lastmile_qr_scan"}, "lat": 38.90485433333333, "is_disabled": 0, "lon": -77.04365033333333}, {"fusion_lat": 0.0, "type": "electric_scooter", "name": "50065afcbb5a33a047414ac8dd6b4eef", "fusion_lon": 0.0, "bike_id": "50065afcbb5a33a047414ac8dd6b4eef", "is_reserved": 0, "rental_uris": {"android": "https://dc.lft.to/lastmile_qr_scan", "ios": "https://dc.lft.to/lastmile_qr_scan"}, "lat": 38.9067355, "is_disabled": 0, "lon": -77.03474516666667}, {"fusion_lat": 0.0, "type": "electric_scooter", "name": "d9173552501f0fce43cb7ead862d4b70", "fusion_lon": 0.0, "bike_id": "d9173552501f0fce43cb7ead862d4b70", "is_reserved": 0, "rental_uris": {"android": "https://dc.lft.to/lastmile_qr_scan", "ios": "https://dc.lft.to/lastmile_qr_scan"}, "lat": 38.89297833333333, "is_disabled": 0, "lon": -76.99819316666667}, {"fusion_lat": 0.0, "type": "electric_scooter", "name": "59db8808ea78f24eeba36ca7be0a413e", "fusion_lon": 0.0, "bike_id": "59db8808ea78f24eeba36ca7be0a413e", "is_reserved": 0, "rental_uris": {"android": "https://dc.lft.to/lastmile_qr_scan", "ios": "https://dc.lft.to/lastmile_qr_scan"}, "lat": 38.8861185, "is_disabled": 0, "lon": -76.9558555}, {"fusion_lat": 0.0, "type": "electric_scooter", "name": "5bfd406c5a48f8e39b12b894a2dea573", "fusion_lon": 0.0, "bike_id": "5bfd406c5a48f8e39b12b894a2dea573", "is_reserved": 0, "rental_uris": {"android": "https://dc.lft.to/lastmile_qr_scan", "ios": "https://dc.lft.to/lastmile_qr_scan"}, "lat": 38.894268, "is_disabled": 0, "lon": -76.94881783333334}, {"fusion_lat": 0.0, "type": "electric_scooter", "name": "3241ddc833ad2ebc97b68cb6935ff00c", "fusion_lon": 0.0, "bike_id": "3241ddc833ad2ebc97b68cb6935ff00c", "is_reserved": 0, "rental_uris": {"android": "https://dc.lft.to/lastmile_qr_scan", "ios": "https://dc.lft.to/lastmile_qr_scan"}, "lat": 38.89795766666667, "is_disabled": 0, "lon": -77.02480433333334}, {"fusion_lat": 0.0, "type": "electric_scooter", "name": "65077b963346c396301325600ad43309", "fusion_lon": 0.0, "bike_id": "65077b963346c396301325600ad43309", "is_reserved": 0, "rental_uris": {"android": "https://dc.lft.to/lastmile_qr_scan", "ios": "https://dc.lft.to/lastmile_qr_scan"}, "lat": 38.9023765, "is_disabled": 0, "lon": -77.0269365}, {"fusion_lat": 0.0, "type": "electric_scooter", "name": "8e2390954d17ceb7e24711f81e243f0c", "fusion_lon": 0.0, "bike_id": "8e2390954d17ceb7e24711f81e243f0c", "is_reserved": 0, "rental_uris": {"android": "https://dc.lft.to/lastmile_qr_scan", "ios": "https://dc.lft.to/lastmile_qr_scan"}, "lat": 38.893667666666666, "is_disabled": 0, "lon": -77.05493716666666}, {"fusion_lat": 0.0, "type": "electric_scooter", "name": "9e781b29fd07e099962437ee1427e02e", "fusion_lon": 0.0, "bike_id": "9e781b29fd07e099962437ee1427e02e", "is_reserved": 0, "rental_uris": {"android": "https://dc.lft.to/lastmile_qr_scan", "ios": "https://dc.lft.to/lastmile_qr_scan"}, "lat": 38.92013766666667, "is_disabled": 0, "lon": -77.02203716666666}, {"fusion_lat": 0.0, "type": "electric_scooter", "name": "b41b61402aa42798a75c97a6a4a63d09", "fusion_lon": 0.0, "bike_id": "b41b61402aa42798a75c97a6a4a63d09", "is_reserved": 0, "rental_uris": {"android": "https://dc.lft.to/lastmile_qr_scan", "ios": "https://dc.lft.to/lastmile_qr_scan"}, "lat": 38.952627666666665, "is_disabled": 0, "lon": -77.0256795}, {"fusion_lat": 0.0, "type": "electric_scooter", "name": "1c9bcd4e83f1880b359827a96551d595", "fusion_lon": 0.0, "bike_id": "1c9bcd4e83f1880b359827a96551d595", "is_reserved": 0, "rental_uris": {"android": "https://dc.lft.to/lastmile_qr_scan", "ios": "https://dc.lft.to/lastmile_qr_scan"}, "lat": 38.9032515, "is_disabled": 0, "lon": -77.04654433333333}, {"fusion_lat": 0.0, "type": "electric_scooter", "name": "9b5fb5086f8503e5c688eb3da541c750", "fusion_lon": 0.0, "bike_id": "9b5fb5086f8503e5c688eb3da541c750", "is_reserved": 0, "rental_uris": {"android": "https://dc.lft.to/lastmile_qr_scan", "ios": "https://dc.lft.to/lastmile_qr_scan"}, "lat": 38.94462466666667, "is_disabled": 0, "lon": -77.06024866666667}, {"fusion_lat": 0.0, "type": "electric_scooter", "name": "faee7490acdbfdba6f71c4aa1fe41ed2", "fusion_lon": 0.0, "bike_id": "faee7490acdbfdba6f71c4aa1fe41ed2", "is_reserved": 0, "rental_uris": {"android": "https://dc.lft.to/lastmile_qr_scan", "ios": "https://dc.lft.to/lastmile_qr_scan"}, "lat": 38.90733783333334, "is_disabled": 0, "lon": -77.03462083333334}, {"fusion_lat": 0.0, "type": "electric_scooter", "name": "bb80610af65571906f78bb954f00d4d0", "fusion_lon": 0.0, "bike_id": "bb80610af65571906f78bb954f00d4d0", "is_reserved": 0, "rental_uris": {"android": "https://dc.lft.to/lastmile_qr_scan", "ios": "https://dc.lft.to/lastmile_qr_scan"}, "lat": 38.89655366666667, "is_disabled": 0, "lon": -77.05025183333333}, {"fusion_lat": 0.0, "type": "electric_scooter", "name": "6ff3b50b8493760b7e889294f564ca34", "fusion_lon": 0.0, "bike_id": "6ff3b50b8493760b7e889294f564ca34", "is_reserved": 0, "rental_uris": {"android": "https://dc.lft.to/lastmile_qr_scan", "ios": "https://dc.lft.to/lastmile_qr_scan"}, "lat": 38.927106333333334, "is_disabled": 0, "lon": -77.02394833333334}, {"fusion_lat": 0.0, "type": "electric_scooter", "name": "4ae4c30e3daaec26310574628610ca10", "fusion_lon": 0.0, "bike_id": "4ae4c30e3daaec26310574628610ca10", "is_reserved": 0, "rental_uris": {"android": "https://dc.lft.to/lastmile_qr_scan", "ios": "https://dc.lft.to/lastmile_qr_scan"}, "lat": 38.924454, "is_disabled": 0, "lon": -77.021325}, {"fusion_lat": 0.0, "type": "electric_scooter", "name": "ebaf010bcf3758e193793a1d407c1e8b", "fusion_lon": 0.0, "bike_id": "ebaf010bcf3758e193793a1d407c1e8b", "is_reserved": 0, "rental_uris": {"android": "https://dc.lft.to/lastmile_qr_scan", "ios": "https://dc.lft.to/lastmile_qr_scan"}, "lat": 38.892219, "is_disabled": 0, "lon": -77.032259}, {"fusion_lat": 0.0, "type": "electric_scooter", "name": "c9c6dd547bbd5708cc12fefcb3d6f74d", "fusion_lon": 0.0, "bike_id": "c9c6dd547bbd5708cc12fefcb3d6f74d", "is_reserved": 0, "rental_uris": {"android": "https://dc.lft.to/lastmile_qr_scan", "ios": "https://dc.lft.to/lastmile_qr_scan"}, "lat": 38.89224316666667, "is_disabled": 0, "lon": -77.02780016666667}, {"fusion_lat": 0.0, "type": "electric_scooter", "name": "5fcd062f2d195e90506f013e8cdc9eff", "fusion_lon": 0.0, "bike_id": "5fcd062f2d195e90506f013e8cdc9eff", "is_reserved": 0, "rental_uris": {"android": "https://dc.lft.to/lastmile_qr_scan", "ios": "https://dc.lft.to/lastmile_qr_scan"}, "lat": 38.890159833333335, "is_disabled": 0, "lon": -76.9373365}, {"fusion_lat": 0.0, "type": "electric_scooter", "name": "5bd944f4c6197c8ed492268e746924cb", "fusion_lon": 0.0, "bike_id": "5bd944f4c6197c8ed492268e746924cb", "is_reserved": 0, "rental_uris": {"android": "https://dc.lft.to/lastmile_qr_scan", "ios": "https://dc.lft.to/lastmile_qr_scan"}, "lat": 38.897603833333335, "is_disabled": 0, "lon": -77.03062433333334}, {"fusion_lat": 0.0, "type": "electric_scooter", "name": "27aca5d4d0139bfc387393a2c33d6a7f", "fusion_lon": 0.0, "bike_id": "27aca5d4d0139bfc387393a2c33d6a7f", "is_reserved": 0, "rental_uris": {"android": "https://dc.lft.to/lastmile_qr_scan", "ios": "https://dc.lft.to/lastmile_qr_scan"}, "lat": 38.834925, "is_disabled": 0, "lon": -77.0067695}, {"fusion_lat": 0.0, "type": "electric_scooter", "name": "af6f74150f3aaa2d4354b63dfdd8bb10", "fusion_lon": 0.0, "bike_id": "af6f74150f3aaa2d4354b63dfdd8bb10", "is_reserved": 0, "rental_uris": {"android": "https://dc.lft.to/lastmile_qr_scan", "ios": "https://dc.lft.to/lastmile_qr_scan"}, "lat": 38.89502266666667, "is_disabled": 0, "lon": -77.01091633333333}, {"fusion_lat": 0.0, "type": "electric_scooter", "name": "3b60b92e899cadab55214208f97410a8", "fusion_lon": 0.0, "bike_id": "3b60b92e899cadab55214208f97410a8", "is_reserved": 0, "rental_uris": {"android": "https://dc.lft.to/lastmile_qr_scan", "ios": "https://dc.lft.to/lastmile_qr_scan"}, "lat": 38.88146616666667, "is_disabled": 0, "lon": -76.99489433333333}, {"fusion_lat": 0.0, "type": "electric_scooter", "name": "96c26304053819218e2baf0ff6965a4c", "fusion_lon": 0.0, "bike_id": "96c26304053819218e2baf0ff6965a4c", "is_reserved": 0, "rental_uris": {"android": "https://dc.lft.to/lastmile_qr_scan", "ios": "https://dc.lft.to/lastmile_qr_scan"}, "lat": 38.887528833333334, "is_disabled": 0, "lon": -77.01192116666667}, {"fusion_lat": 0.0, "type": "electric_scooter", "name": "d269e10a818fbd7c0fa62cffd4d3d5d1", "fusion_lon": 0.0, "bike_id": "d269e10a818fbd7c0fa62cffd4d3d5d1", "is_reserved": 0, "rental_uris": {"android": "https://dc.lft.to/lastmile_qr_scan", "ios": "https://dc.lft.to/lastmile_qr_scan"}, "lat": 38.93185416666667, "is_disabled": 0, "lon": -77.03657266666667}, {"fusion_lat": 0.0, "type": "electric_scooter", "name": "17916a1064b865c3d489543f70dc9248", "fusion_lon": 0.0, "bike_id": "17916a1064b865c3d489543f70dc9248", "is_reserved": 0, "rental_uris": {"android": "https://dc.lft.to/lastmile_qr_scan", "ios": "https://dc.lft.to/lastmile_qr_scan"}, "lat": 38.926229, "is_disabled": 0, "lon": -77.0431855}, {"fusion_lat": 0.0, "type": "electric_bike", "name": "4b7383a853757f8a1411faf719659a0d", "fusion_lon": 0.0, "bike_id": "4b7383a853757f8a1411faf719659a0d", "is_reserved": 0, "rental_uris": {"android": "https://dc.lft.to/lastmile_qr_scan", "ios": "https://dc.lft.to/lastmile_qr_scan"}, "lat": 38.83788216666667, "is_disabled": 0, "lon": -76.99756366666666}, {"fusion_lat": 0.0, "type": "electric_scooter", "name": "4c90c0e3d81448a411bcf2bf7cf1b0b8", "fusion_lon": 0.0, "bike_id": "4c90c0e3d81448a411bcf2bf7cf1b0b8", "is_reserved": 0, "rental_uris": {"android": "https://dc.lft.to/lastmile_qr_scan", "ios": "https://dc.lft.to/lastmile_qr_scan"}, "lat": 38.92274883333333, "is_disabled": 0, "lon": -77.0423465}, {"fusion_lat": 0.0, "type": "electric_scooter", "name": "9f3d5137726f9b7cfd85a894f776bc6a", "fusion_lon": 0.0, "bike_id": "9f3d5137726f9b7cfd85a894f776bc6a", "is_reserved": 0, "rental_uris": {"android": "https://dc.lft.to/lastmile_qr_scan", "ios": "https://dc.lft.to/lastmile_qr_scan"}, "lat": 38.9098995, "is_disabled": 0, "lon": -77.0320885}, {"fusion_lat": 0.0, "type": "electric_scooter", "name": "3313560de025eb640e007429d20443d7", "fusion_lon": 0.0, "bike_id": "3313560de025eb640e007429d20443d7", "is_reserved": 0, "rental_uris": {"android": "https://dc.lft.to/lastmile_qr_scan", "ios": "https://dc.lft.to/lastmile_qr_scan"}, "lat": 38.9073185, "is_disabled": 0, "lon": -77.04352433333334}, {"fusion_lat": 0.0, "type": "electric_scooter", "name": "d0532b07bb54701c7f66bf57334fc45d", "fusion_lon": 0.0, "bike_id": "d0532b07bb54701c7f66bf57334fc45d", "is_reserved": 0, "rental_uris": {"android": "https://dc.lft.to/lastmile_qr_scan", "ios": "https://dc.lft.to/lastmile_qr_scan"}, "lat": 38.892429166666666, "is_disabled": 0, "lon": -77.01723966666667}, {"fusion_lat": 0.0, "type": "electric_scooter", "name": "f17d6c7629ca3ff3d8656187095bf8bd", "fusion_lon": 0.0, "bike_id": "f17d6c7629ca3ff3d8656187095bf8bd", "is_reserved": 0, "rental_uris": {"android": "https://dc.lft.to/lastmile_qr_scan", "ios": "https://dc.lft.to/lastmile_qr_scan"}, "lat": 38.93367933333333, "is_disabled": 0, "lon": -77.05731383333334}, {"fusion_lat": 0.0, "type": "electric_scooter", "name": "47ae94a9f527042cb0cd76d563ca5a99", "fusion_lon": 0.0, "bike_id": "47ae94a9f527042cb0cd76d563ca5a99", "is_reserved": 0, "rental_uris": {"android": "https://dc.lft.to/lastmile_qr_scan", "ios": "https://dc.lft.to/lastmile_qr_scan"}, "lat": 38.891981, "is_disabled": 0, "lon": -77.00296216666666}, {"fusion_lat": 0.0, "type": "electric_scooter", "name": "0bddc790b4bc3dd7a45ef8de4c03734c", "fusion_lon": 0.0, "bike_id": "0bddc790b4bc3dd7a45ef8de4c03734c", "is_reserved": 0, "rental_uris": {"android": "https://dc.lft.to/lastmile_qr_scan", "ios": "https://dc.lft.to/lastmile_qr_scan"}, "lat": 38.905931333333335, "is_disabled": 0, "lon": -77.02200766666667}, {"fusion_lat": 0.0, "type": "electric_scooter", "name": "2c1f5b4dcce68eeb6b1afb42af948180", "fusion_lon": 0.0, "bike_id": "2c1f5b4dcce68eeb6b1afb42af948180", "is_reserved": 0, "rental_uris": {"android": "https://dc.lft.to/lastmile_qr_scan", "ios": "https://dc.lft.to/lastmile_qr_scan"}, "lat": 38.886737333333336, "is_disabled": 0, "lon": -76.93611583333333}, {"fusion_lat": 0.0, "type": "electric_scooter", "name": "3534e38a5feb9b926d286db471045792", "fusion_lon": 0.0, "bike_id": "3534e38a5feb9b926d286db471045792", "is_reserved": 0, "rental_uris": {"android": "https://dc.lft.to/lastmile_qr_scan", "ios": "https://dc.lft.to/lastmile_qr_scan"}, "lat": 38.9057625, "is_disabled": 0, "lon": -76.9762925}, {"fusion_lat": 0.0, "type": "electric_scooter", "name": "d87d4e5ddf082156189c7daf2fb21c86", "fusion_lon": 0.0, "bike_id": "d87d4e5ddf082156189c7daf2fb21c86", "is_reserved": 0, "rental_uris": {"android": "https://dc.lft.to/lastmile_qr_scan", "ios": "https://dc.lft.to/lastmile_qr_scan"}, "lat": 38.920747666666664, "is_disabled": 0, "lon": -77.03454883333333}, {"fusion_lat": 0.0, "type": "electric_scooter", "name": "68eb0b1ca88b13f18cfb81d44890ccbe", "fusion_lon": 0.0, "bike_id": "68eb0b1ca88b13f18cfb81d44890ccbe", "is_reserved": 0, "rental_uris": {"android": "https://dc.lft.to/lastmile_qr_scan", "ios": "https://dc.lft.to/lastmile_qr_scan"}, "lat": 38.89225583333333, "is_disabled": 0, "lon": -77.03222416666667}, {"fusion_lat": 0.0, "type": "electric_scooter", "name": "ffeea1b83191abb97e1383e5fdefac48", "fusion_lon": 0.0, "bike_id": "ffeea1b83191abb97e1383e5fdefac48", "is_reserved": 0, "rental_uris": {"android": "https://dc.lft.to/lastmile_qr_scan", "ios": "https://dc.lft.to/lastmile_qr_scan"}, "lat": 38.915449833333334, "is_disabled": 0, "lon": -77.03653833333334}, {"fusion_lat": 0.0, "type": "electric_scooter", "name": "02b799821b6f8b46fe6908f74940ccd2", "fusion_lon": 0.0, "bike_id": "02b799821b6f8b46fe6908f74940ccd2", "is_reserved": 0, "rental_uris": {"android": "https://dc.lft.to/lastmile_qr_scan", "ios": "https://dc.lft.to/lastmile_qr_scan"}, "lat": 38.91158033333333, "is_disabled": 0, "lon": -77.04428233333333}, {"fusion_lat": 0.0, "type": "electric_scooter", "name": "a399c1a9237e90bb181032e975ae97ef", "fusion_lon": 0.0, "bike_id": "a399c1a9237e90bb181032e975ae97ef", "is_reserved": 0, "rental_uris": {"android": "https://dc.lft.to/lastmile_qr_scan", "ios": "https://dc.lft.to/lastmile_qr_scan"}, "lat": 38.89817133333333, "is_disabled": 0, "lon": -77.04012833333333}, {"fusion_lat": 0.0, "type": "electric_scooter", "name": "11e87426b350a89b71ea839841492ccf", "fusion_lon": 0.0, "bike_id": "11e87426b350a89b71ea839841492ccf", "is_reserved": 0, "rental_uris": {"android": "https://dc.lft.to/lastmile_qr_scan", "ios": "https://dc.lft.to/lastmile_qr_scan"}, "lat": 38.921316, "is_disabled": 0, "lon": -77.01804083333333}, {"fusion_lat": 0.0, "type": "electric_scooter", "name": "06e3443a276e4c396eb0a54b7bad4d9e", "fusion_lon": 0.0, "bike_id": "06e3443a276e4c396eb0a54b7bad4d9e", "is_reserved": 0, "rental_uris": {"android": "https://dc.lft.to/lastmile_qr_scan", "ios": "https://dc.lft.to/lastmile_qr_scan"}, "lat": 38.905829833333335, "is_disabled": 0, "lon": -77.04075783333333}, {"fusion_lat": 0.0, "type": "electric_scooter", "name": "d376ced35beea767baa8508f4dd95ba2", "fusion_lon": 0.0, "bike_id": "d376ced35beea767baa8508f4dd95ba2", "is_reserved": 0, "rental_uris": {"android": "https://dc.lft.to/lastmile_qr_scan", "ios": "https://dc.lft.to/lastmile_qr_scan"}, "lat": 38.90559983333333, "is_disabled": 0, "lon": -77.04699416666666}, {"fusion_lat": 0.0, "type": "electric_scooter", "name": "ea69353a351a07c3389d8ddd22822c35", "fusion_lon": 0.0, "bike_id": "ea69353a351a07c3389d8ddd22822c35", "is_reserved": 0, "rental_uris": {"android": "https://dc.lft.to/lastmile_qr_scan", "ios": "https://dc.lft.to/lastmile_qr_scan"}, "lat": 38.901581666666665, "is_disabled": 0, "lon": -77.04046933333333}, {"fusion_lat": 0.0, "type": "electric_scooter", "name": "9aa43ed03fa3bce146475e988fadb8cf", "fusion_lon": 0.0, "bike_id": "9aa43ed03fa3bce146475e988fadb8cf", "is_reserved": 0, "rental_uris": {"android": "https://dc.lft.to/lastmile_qr_scan", "ios": "https://dc.lft.to/lastmile_qr_scan"}, "lat": 38.8850375, "is_disabled": 0, "lon": -77.0160425}, {"fusion_lat": 0.0, "type": "electric_scooter", "name": "5ae1e5f28eab083f01f9a0fe9cfc6431", "fusion_lon": 0.0, "bike_id": "5ae1e5f28eab083f01f9a0fe9cfc6431", "is_reserved": 0, "rental_uris": {"android": "https://dc.lft.to/lastmile_qr_scan", "ios": "https://dc.lft.to/lastmile_qr_scan"}, "lat": 38.87545583333333, "is_disabled": 0, "lon": -77.0060645}, {"fusion_lat": 0.0, "type": "electric_scooter", "name": "d5ed6b99ea0dd049bed2d122f40ac19f", "fusion_lon": 0.0, "bike_id": "d5ed6b99ea0dd049bed2d122f40ac19f", "is_reserved": 0, "rental_uris": {"android": "https://dc.lft.to/lastmile_qr_scan", "ios": "https://dc.lft.to/lastmile_qr_scan"}, "lat": 38.95195566666666, "is_disabled": 0, "lon": -77.027338}, {"fusion_lat": 0.0, "type": "electric_scooter", "name": "ceeac9666ac7980e6ca214db41ec9688", "fusion_lon": 0.0, "bike_id": "ceeac9666ac7980e6ca214db41ec9688", "is_reserved": 0, "rental_uris": {"android": "https://dc.lft.to/lastmile_qr_scan", "ios": "https://dc.lft.to/lastmile_qr_scan"}, "lat": 38.893687, "is_disabled": 0, "lon": -76.94983166666667}, {"fusion_lat": 0.0, "type": "electric_scooter", "name": "ef6ad3bb08e2f6b4e138c389065fe22e", "fusion_lon": 0.0, "bike_id": "ef6ad3bb08e2f6b4e138c389065fe22e", "is_reserved": 0, "rental_uris": {"android": "https://dc.lft.to/lastmile_qr_scan", "ios": "https://dc.lft.to/lastmile_qr_scan"}, "lat": 38.91781266666667, "is_disabled": 0, "lon": -77.0427555}, {"fusion_lat": 0.0, "type": "electric_bike", "name": "36514341d6e9835b5bc00ac56ea0ac4c", "fusion_lon": 0.0, "bike_id": "36514341d6e9835b5bc00ac56ea0ac4c", "is_reserved": 0, "rental_uris": {"android": "https://dc.lft.to/lastmile_qr_scan", "ios": "https://dc.lft.to/lastmile_qr_scan"}, "lat": 38.8520845, "is_disabled": 0, "lon": -77.1012615}, {"fusion_lat": 0.0, "type": "electric_scooter", "name": "5f6b8e6ad0c69fd0cad5818824ab92cc", "fusion_lon": 0.0, "bike_id": "5f6b8e6ad0c69fd0cad5818824ab92cc", "is_reserved": 0, "rental_uris": {"android": "https://dc.lft.to/lastmile_qr_scan", "ios": "https://dc.lft.to/lastmile_qr_scan"}, "lat": 38.895663166666665, "is_disabled": 0, "lon": -77.04677649999999}, {"fusion_lat": 0.0, "type": "electric_scooter", "name": "553f2756935a985824186a4639fa6bf9", "fusion_lon": 0.0, "bike_id": "553f2756935a985824186a4639fa6bf9", "is_reserved": 0, "rental_uris": {"android": "https://dc.lft.to/lastmile_qr_scan", "ios": "https://dc.lft.to/lastmile_qr_scan"}, "lat": 38.9214795, "is_disabled": 0, "lon": -77.03510383333334}, {"fusion_lat": 0.0, "type": "electric_scooter", "name": "50c95ea8fbf68326cf43437439328ae1", "fusion_lon": 0.0, "bike_id": "50c95ea8fbf68326cf43437439328ae1", "is_reserved": 0, "rental_uris": {"android": "https://dc.lft.to/lastmile_qr_scan", "ios": "https://dc.lft.to/lastmile_qr_scan"}, "lat": 38.887199333333335, "is_disabled": 0, "lon": -77.02201633333334}, {"fusion_lat": 0.0, "type": "electric_scooter", "name": "331dc724d8b102ffe907cd6110911c49", "fusion_lon": 0.0, "bike_id": "331dc724d8b102ffe907cd6110911c49", "is_reserved": 0, "rental_uris": {"android": "https://dc.lft.to/lastmile_qr_scan", "ios": "https://dc.lft.to/lastmile_qr_scan"}, "lat": 38.956291666666665, "is_disabled": 0, "lon": -77.02462033333333}, {"fusion_lat": 0.0, "type": "electric_scooter", "name": "e38f93ff04c6fa84b13fd861a9d4e436", "fusion_lon": 0.0, "bike_id": "e38f93ff04c6fa84b13fd861a9d4e436", "is_reserved": 0, "rental_uris": {"android": "https://dc.lft.to/lastmile_qr_scan", "ios": "https://dc.lft.to/lastmile_qr_scan"}, "lat": 38.935731833333335, "is_disabled": 0, "lon": -77.0212245}, {"fusion_lat": 0.0, "type": "electric_bike", "name": "668426c20f5bec4c84124b675d8f9e20", "fusion_lon": 0.0, "bike_id": "668426c20f5bec4c84124b675d8f9e20", "is_reserved": 0, "rental_uris": {"android": "https://dc.lft.to/lastmile_qr_scan", "ios": "https://dc.lft.to/lastmile_qr_scan"}, "lat": 38.94671316666667, "is_disabled": 0, "lon": -76.98308366666667}, {"fusion_lat": 0.0, "type": "electric_scooter", "name": "b5e8abded053b420a40190269d9592ec", "fusion_lon": 0.0, "bike_id": "b5e8abded053b420a40190269d9592ec", "is_reserved": 0, "rental_uris": {"android": "https://dc.lft.to/lastmile_qr_scan", "ios": "https://dc.lft.to/lastmile_qr_scan"}, "lat": 38.899147, "is_disabled": 0, "lon": -76.9336685}, {"fusion_lat": 0.0, "type": "electric_scooter", "name": "4e0eb5efd2e08a53aaa776e036127067", "fusion_lon": 0.0, "bike_id": "4e0eb5efd2e08a53aaa776e036127067", "is_reserved": 0, "rental_uris": {"android": "https://dc.lft.to/lastmile_qr_scan", "ios": "https://dc.lft.to/lastmile_qr_scan"}, "lat": 38.90234866666667, "is_disabled": 0, "lon": -77.043371}, {"fusion_lat": 0.0, "type": "electric_scooter", "name": "dc75e23db6e71f872388c2d9dee5ae8c", "fusion_lon": 0.0, "bike_id": "dc75e23db6e71f872388c2d9dee5ae8c", "is_reserved": 0, "rental_uris": {"android": "https://dc.lft.to/lastmile_qr_scan", "ios": "https://dc.lft.to/lastmile_qr_scan"}, "lat": 38.88304016666667, "is_disabled": 0, "lon": -76.97864316666667}, {"fusion_lat": 0.0, "type": "electric_scooter", "name": "b32dba3d796da1a61d1fc36cbd5eab39", "fusion_lon": 0.0, "bike_id": "b32dba3d796da1a61d1fc36cbd5eab39", "is_reserved": 0, "rental_uris": {"android": "https://dc.lft.to/lastmile_qr_scan", "ios": "https://dc.lft.to/lastmile_qr_scan"}, "lat": 38.90624566666666, "is_disabled": 0, "lon": -77.04804216666666}, {"fusion_lat": 0.0, "type": "electric_scooter", "name": "a02727a091fda9d3c713722438d79169", "fusion_lon": 0.0, "bike_id": "a02727a091fda9d3c713722438d79169", "is_reserved": 0, "rental_uris": {"android": "https://dc.lft.to/lastmile_qr_scan", "ios": "https://dc.lft.to/lastmile_qr_scan"}, "lat": 38.89917916666667, "is_disabled": 0, "lon": -76.9338315}, {"fusion_lat": 0.0, "type": "electric_scooter", "name": "414dac56a03c4c950be0fcf5e7b4ae87", "fusion_lon": 0.0, "bike_id": "414dac56a03c4c950be0fcf5e7b4ae87", "is_reserved": 0, "rental_uris": {"android": "https://dc.lft.to/lastmile_qr_scan", "ios": "https://dc.lft.to/lastmile_qr_scan"}, "lat": 38.9155695, "is_disabled": 0, "lon": -77.03126083333333}, {"fusion_lat": 0.0, "type": "electric_scooter", "name": "c9ec9a73234680628056965a99cb9045", "fusion_lon": 0.0, "bike_id": "c9ec9a73234680628056965a99cb9045", "is_reserved": 0, "rental_uris": {"android": "https://dc.lft.to/lastmile_qr_scan", "ios": "https://dc.lft.to/lastmile_qr_scan"}, "lat": 38.92175316666667, "is_disabled": 0, "lon": -77.0383455}, {"fusion_lat": 0.0, "type": "electric_scooter", "name": "4d26de162f81245af89e17eb050fe590", "fusion_lon": 0.0, "bike_id": "4d26de162f81245af89e17eb050fe590", "is_reserved": 0, "rental_uris": {"android": "https://dc.lft.to/lastmile_qr_scan", "ios": "https://dc.lft.to/lastmile_qr_scan"}, "lat": 38.939840333333336, "is_disabled": 0, "lon": -77.02979083333334}, {"fusion_lat": 0.0, "type": "electric_scooter", "name": "1fb6d49081a4f48f40f2ae270b2893da", "fusion_lon": 0.0, "bike_id": "1fb6d49081a4f48f40f2ae270b2893da", "is_reserved": 0, "rental_uris": {"android": "https://dc.lft.to/lastmile_qr_scan", "ios": "https://dc.lft.to/lastmile_qr_scan"}, "lat": 38.899148333333336, "is_disabled": 0, "lon": -76.93380016666667}, {"fusion_lat": 0.0, "type": "electric_scooter", "name": "2a1cbe18d4447f13490798e5c9ea8a20", "fusion_lon": 0.0, "bike_id": "2a1cbe18d4447f13490798e5c9ea8a20", "is_reserved": 0, "rental_uris": {"android": "https://dc.lft.to/lastmile_qr_scan", "ios": "https://dc.lft.to/lastmile_qr_scan"}, "lat": 38.89220316666667, "is_disabled": 0, "lon": -77.02348583333334}, {"fusion_lat": 0.0, "type": "electric_bike", "name": "2d1e427893ab2cb89ef32ef29523fe43", "fusion_lon": 0.0, "bike_id": "2d1e427893ab2cb89ef32ef29523fe43", "is_reserved": 0, "rental_uris": {"android": "https://dc.lft.to/lastmile_qr_scan", "ios": "https://dc.lft.to/lastmile_qr_scan"}, "lat": 39.062958333333334, "is_disabled": 0, "lon": -77.049787}, {"fusion_lat": 0.0, "type": "electric_scooter", "name": "179d8ff66c1e484301cbedfbd3264962", "fusion_lon": 0.0, "bike_id": "179d8ff66c1e484301cbedfbd3264962", "is_reserved": 0, "rental_uris": {"android": "https://dc.lft.to/lastmile_qr_scan", "ios": "https://dc.lft.to/lastmile_qr_scan"}, "lat": 38.89248883333333, "is_disabled": 0, "lon": -77.04661016666667}, {"fusion_lat": 0.0, "type": "electric_scooter", "name": "5d5859c6a60db37b9d3bd28135c1e73c", "fusion_lon": 0.0, "bike_id": "5d5859c6a60db37b9d3bd28135c1e73c", "is_reserved": 0, "rental_uris": {"android": "https://dc.lft.to/lastmile_qr_scan", "ios": "https://dc.lft.to/lastmile_qr_scan"}, "lat": 38.90268566666667, "is_disabled": 0, "lon": -77.0174225}, {"fusion_lat": 0.0, "type": "electric_scooter", "name": "a1d3045490eec82e8a15a359b2e25d7b", "fusion_lon": 0.0, "bike_id": "a1d3045490eec82e8a15a359b2e25d7b", "is_reserved": 0, "rental_uris": {"android": "https://dc.lft.to/lastmile_qr_scan", "ios": "https://dc.lft.to/lastmile_qr_scan"}, "lat": 38.92408666666667, "is_disabled": 0, "lon": -77.05168266666666}, {"fusion_lat": 0.0, "type": "electric_scooter", "name": "60a865b5f76cf4c0c2b935412066bee9", "fusion_lon": 0.0, "bike_id": "60a865b5f76cf4c0c2b935412066bee9", "is_reserved": 0, "rental_uris": {"android": "https://dc.lft.to/lastmile_qr_scan", "ios": "https://dc.lft.to/lastmile_qr_scan"}, "lat": 38.903593, "is_disabled": 0, "lon": -77.02804833333333}, {"fusion_lat": 0.0, "type": "electric_scooter", "name": "0638cca9923a8d4d53b27e914a83c830", "fusion_lon": 0.0, "bike_id": "0638cca9923a8d4d53b27e914a83c830", "is_reserved": 0, "rental_uris": {"android": "https://dc.lft.to/lastmile_qr_scan", "ios": "https://dc.lft.to/lastmile_qr_scan"}, "lat": 38.89976133333333, "is_disabled": 0, "lon": -77.05039016666667}, {"fusion_lat": 0.0, "type": "electric_scooter", "name": "27afa481381eaa00f06c26619e3ea4d6", "fusion_lon": 0.0, "bike_id": "27afa481381eaa00f06c26619e3ea4d6", "is_reserved": 0, "rental_uris": {"android": "https://dc.lft.to/lastmile_qr_scan", "ios": "https://dc.lft.to/lastmile_qr_scan"}, "lat": 38.924512, "is_disabled": 0, "lon": -77.04116783333333}, {"fusion_lat": 0.0, "type": "electric_scooter", "name": "faf4c43dc7b90ec953ff2a4ac6dee967", "fusion_lon": 0.0, "bike_id": "faf4c43dc7b90ec953ff2a4ac6dee967", "is_reserved": 0, "rental_uris": {"android": "https://dc.lft.to/lastmile_qr_scan", "ios": "https://dc.lft.to/lastmile_qr_scan"}, "lat": 38.892313, "is_disabled": 0, "lon": -77.03170183333333}, {"fusion_lat": 0.0, "type": "electric_scooter", "name": "3068c9f2f93fb3edfcc1c3b0bcad6e31", "fusion_lon": 0.0, "bike_id": "3068c9f2f93fb3edfcc1c3b0bcad6e31", "is_reserved": 0, "rental_uris": {"android": "https://dc.lft.to/lastmile_qr_scan", "ios": "https://dc.lft.to/lastmile_qr_scan"}, "lat": 38.9011075, "is_disabled": 0, "lon": -77.04477966666667}, {"fusion_lat": 0.0, "type": "electric_scooter", "name": "8f09c77a46491b1867fe1da75bce404c", "fusion_lon": 0.0, "bike_id": "8f09c77a46491b1867fe1da75bce404c", "is_reserved": 0, "rental_uris": {"android": "https://dc.lft.to/lastmile_qr_scan", "ios": "https://dc.lft.to/lastmile_qr_scan"}, "lat": 38.8978935, "is_disabled": 0, "lon": -77.03964166666667}, {"fusion_lat": 0.0, "type": "electric_scooter", "name": "50a7f60a6d32be9ee5be77224b288a74", "fusion_lon": 0.0, "bike_id": "50a7f60a6d32be9ee5be77224b288a74", "is_reserved": 0, "rental_uris": {"android": "https://dc.lft.to/lastmile_qr_scan", "ios": "https://dc.lft.to/lastmile_qr_scan"}, "lat": 38.893216, "is_disabled": 0, "lon": -77.01801266666666}, {"fusion_lat": 0.0, "type": "electric_scooter", "name": "3ccd2fda17fef04d430c048c2a72114e", "fusion_lon": 0.0, "bike_id": "3ccd2fda17fef04d430c048c2a72114e", "is_reserved": 0, "rental_uris": {"android": "https://dc.lft.to/lastmile_qr_scan", "ios": "https://dc.lft.to/lastmile_qr_scan"}, "lat": 38.907735833333334, "is_disabled": 0, "lon": -77.03498716666667}, {"fusion_lat": 0.0, "type": "electric_scooter", "name": "e7b72cfc3149603420a0b35292cc44a5", "fusion_lon": 0.0, "bike_id": "e7b72cfc3149603420a0b35292cc44a5", "is_reserved": 0, "rental_uris": {"android": "https://dc.lft.to/lastmile_qr_scan", "ios": "https://dc.lft.to/lastmile_qr_scan"}, "lat": 38.966295833333334, "is_disabled": 0, "lon": -77.01997583333333}, {"fusion_lat": 0.0, "type": "electric_scooter", "name": "8d2d6bdbe3522e56e34318452048a144", "fusion_lon": 0.0, "bike_id": "8d2d6bdbe3522e56e34318452048a144", "is_reserved": 0, "rental_uris": {"android": "https://dc.lft.to/lastmile_qr_scan", "ios": "https://dc.lft.to/lastmile_qr_scan"}, "lat": 38.8916695, "is_disabled": 0, "lon": -76.95185316666667}, {"fusion_lat": 0.0, "type": "electric_scooter", "name": "7009a64c9da8ffe1760be77bccdcaf7b", "fusion_lon": 0.0, "bike_id": "7009a64c9da8ffe1760be77bccdcaf7b", "is_reserved": 0, "rental_uris": {"android": "https://dc.lft.to/lastmile_qr_scan", "ios": "https://dc.lft.to/lastmile_qr_scan"}, "lat": 38.887512, "is_disabled": 0, "lon": -77.03161233333333}, {"fusion_lat": 0.0, "type": "electric_scooter", "name": "2be80d802be49bb18100087f7d755f16", "fusion_lon": 0.0, "bike_id": "2be80d802be49bb18100087f7d755f16", "is_reserved": 0, "rental_uris": {"android": "https://dc.lft.to/lastmile_qr_scan", "ios": "https://dc.lft.to/lastmile_qr_scan"}, "lat": 38.89226433333333, "is_disabled": 0, "lon": -77.02773}, {"fusion_lat": 0.0, "type": "electric_bike", "name": "2d854713bec03c62517298d3017cf6ac", "fusion_lon": 0.0, "bike_id": "2d854713bec03c62517298d3017cf6ac", "is_reserved": 0, "rental_uris": {"android": "https://dc.lft.to/lastmile_qr_scan", "ios": "https://dc.lft.to/lastmile_qr_scan"}, "lat": 38.7951655, "is_disabled": 0, "lon": -77.006998}, {"fusion_lat": 0.0, "type": "electric_bike", "name": "c73f1833fa5ea8d0255a83a02f90d530", "fusion_lon": 0.0, "bike_id": "c73f1833fa5ea8d0255a83a02f90d530", "is_reserved": 0, "rental_uris": {"android": "https://dc.lft.to/lastmile_qr_scan", "ios": "https://dc.lft.to/lastmile_qr_scan"}, "lat": 38.9564645, "is_disabled": 0, "lon": -77.02256216666666}, {"fusion_lat": 0.0, "type": "electric_scooter", "name": "bde7f49e7fee87ddd141bfc29e689755", "fusion_lon": 0.0, "bike_id": "bde7f49e7fee87ddd141bfc29e689755", "is_reserved": 0, "rental_uris": {"android": "https://dc.lft.to/lastmile_qr_scan", "ios": "https://dc.lft.to/lastmile_qr_scan"}, "lat": 38.917313, "is_disabled": 0, "lon": -77.032119}, {"fusion_lat": 0.0, "type": "electric_bike", "name": "8ed9b37903997374a3ed943b15e06033", "fusion_lon": 0.0, "bike_id": "8ed9b37903997374a3ed943b15e06033", "is_reserved": 0, "rental_uris": {"android": "https://dc.lft.to/lastmile_qr_scan", "ios": "https://dc.lft.to/lastmile_qr_scan"}, "lat": 38.961053666666665, "is_disabled": 0, "lon": -76.9281185}, {"fusion_lat": 0.0, "type": "electric_scooter", "name": "a1f96d081804806590359da87706e319", "fusion_lon": 0.0, "bike_id": "a1f96d081804806590359da87706e319", "is_reserved": 0, "rental_uris": {"android": "https://dc.lft.to/lastmile_qr_scan", "ios": "https://dc.lft.to/lastmile_qr_scan"}, "lat": 38.88724666666667, "is_disabled": 0, "lon": -77.0283515}, {"fusion_lat": 0.0, "type": "electric_scooter", "name": "bc1e599aa8d40805c770f2e165d9c334", "fusion_lon": 0.0, "bike_id": "bc1e599aa8d40805c770f2e165d9c334", "is_reserved": 0, "rental_uris": {"android": "https://dc.lft.to/lastmile_qr_scan", "ios": "https://dc.lft.to/lastmile_qr_scan"}, "lat": 38.9232295, "is_disabled": 0, "lon": -77.021385}, {"fusion_lat": 0.0, "type": "electric_scooter", "name": "5988a96a7da529d556b36ebc1d795051", "fusion_lon": 0.0, "bike_id": "5988a96a7da529d556b36ebc1d795051", "is_reserved": 0, "rental_uris": {"android": "https://dc.lft.to/lastmile_qr_scan", "ios": "https://dc.lft.to/lastmile_qr_scan"}, "lat": 38.8699415, "is_disabled": 0, "lon": -76.97588466666667}, {"fusion_lat": 0.0, "type": "electric_scooter", "name": "8c3eebfa07b3946f88c50583609339b2", "fusion_lon": 0.0, "bike_id": "8c3eebfa07b3946f88c50583609339b2", "is_reserved": 0, "rental_uris": {"android": "https://dc.lft.to/lastmile_qr_scan", "ios": "https://dc.lft.to/lastmile_qr_scan"}, "lat": 38.91917, "is_disabled": 0, "lon": -77.0317885}, {"fusion_lat": 0.0, "type": "electric_scooter", "name": "3b70b3d05e0eb2859efb0b57b30cb0db", "fusion_lon": 0.0, "bike_id": "3b70b3d05e0eb2859efb0b57b30cb0db", "is_reserved": 0, "rental_uris": {"android": "https://dc.lft.to/lastmile_qr_scan", "ios": "https://dc.lft.to/lastmile_qr_scan"}, "lat": 38.90253116666667, "is_disabled": 0, "lon": -76.995608}, {"fusion_lat": 0.0, "type": "electric_bike", "name": "4d9562a3a68fddda4b4fd8b67e5f68cb", "fusion_lon": 0.0, "bike_id": "4d9562a3a68fddda4b4fd8b67e5f68cb", "is_reserved": 0, "rental_uris": {"android": "https://dc.lft.to/lastmile_qr_scan", "ios": "https://dc.lft.to/lastmile_qr_scan"}, "lat": 39.0528145, "is_disabled": 0, "lon": -77.08070116666667}, {"fusion_lat": 0.0, "type": "electric_scooter", "name": "fa8a8875a8a6a3f846c6e8a0241b50c6", "fusion_lon": 0.0, "bike_id": "fa8a8875a8a6a3f846c6e8a0241b50c6", "is_reserved": 0, "rental_uris": {"android": "https://dc.lft.to/lastmile_qr_scan", "ios": "https://dc.lft.to/lastmile_qr_scan"}, "lat": 38.872006666666664, "is_disabled": 0, "lon": -77.010756}, {"fusion_lat": 0.0, "type": "electric_scooter", "name": "3c43cfe136813f03792e4c3ebae5266c", "fusion_lon": 0.0, "bike_id": "3c43cfe136813f03792e4c3ebae5266c", "is_reserved": 0, "rental_uris": {"android": "https://dc.lft.to/lastmile_qr_scan", "ios": "https://dc.lft.to/lastmile_qr_scan"}, "lat": 38.87703033333333, "is_disabled": 0, "lon": -77.004158}, {"fusion_lat": 0.0, "type": "electric_scooter", "name": "654816ed8425b30c381de12fa321a290", "fusion_lon": 0.0, "bike_id": "654816ed8425b30c381de12fa321a290", "is_reserved": 0, "rental_uris": {"android": "https://dc.lft.to/lastmile_qr_scan", "ios": "https://dc.lft.to/lastmile_qr_scan"}, "lat": 38.89730266666667, "is_disabled": 0, "lon": -77.04361783333333}, {"fusion_lat": 0.0, "type": "electric_scooter", "name": "b38a9605dc11f781f2d2182debf5bb31", "fusion_lon": 0.0, "bike_id": "b38a9605dc11f781f2d2182debf5bb31", "is_reserved": 0, "rental_uris": {"android": "https://dc.lft.to/lastmile_qr_scan", "ios": "https://dc.lft.to/lastmile_qr_scan"}, "lat": 38.9110945, "is_disabled": 0, "lon": -77.04475166666667}, {"fusion_lat": 0.0, "type": "electric_scooter", "name": "4986eb80af629e496f9a155577bd84dc", "fusion_lon": 0.0, "bike_id": "4986eb80af629e496f9a155577bd84dc", "is_reserved": 0, "rental_uris": {"android": "https://dc.lft.to/lastmile_qr_scan", "ios": "https://dc.lft.to/lastmile_qr_scan"}, "lat": 38.9845935, "is_disabled": 0, "lon": -77.026412}, {"fusion_lat": 0.0, "type": "electric_scooter", "name": "f2be5b42c9fa34fdd804b42a6e97131f", "fusion_lon": 0.0, "bike_id": "f2be5b42c9fa34fdd804b42a6e97131f", "is_reserved": 0, "rental_uris": {"android": "https://dc.lft.to/lastmile_qr_scan", "ios": "https://dc.lft.to/lastmile_qr_scan"}, "lat": 38.87830483333333, "is_disabled": 0, "lon": -76.96308233333333}, {"fusion_lat": 0.0, "type": "electric_scooter", "name": "6484695b9e8f099509e4cbfb6ad4ebd7", "fusion_lon": 0.0, "bike_id": "6484695b9e8f099509e4cbfb6ad4ebd7", "is_reserved": 0, "rental_uris": {"android": "https://dc.lft.to/lastmile_qr_scan", "ios": "https://dc.lft.to/lastmile_qr_scan"}, "lat": 38.908587833333335, "is_disabled": 0, "lon": -77.045586}, {"fusion_lat": 0.0, "type": "electric_scooter", "name": "6e67ffecbe3d3ce1f1a20913ebbed2b3", "fusion_lon": 0.0, "bike_id": "6e67ffecbe3d3ce1f1a20913ebbed2b3", "is_reserved": 0, "rental_uris": {"android": "https://dc.lft.to/lastmile_qr_scan", "ios": "https://dc.lft.to/lastmile_qr_scan"}, "lat": 38.8963565, "is_disabled": 0, "lon": -77.03205966666667}, {"fusion_lat": 0.0, "type": "electric_bike", "name": "523bb678af52cb9f4148f61c8b9df1f0", "fusion_lon": 0.0, "bike_id": "523bb678af52cb9f4148f61c8b9df1f0", "is_reserved": 0, "rental_uris": {"android": "https://dc.lft.to/lastmile_qr_scan", "ios": "https://dc.lft.to/lastmile_qr_scan"}, "lat": 38.932276, "is_disabled": 0, "lon": -77.18121066666667}, {"fusion_lat": 0.0, "type": "electric_scooter", "name": "a819d5530d62998ce186b2053f468a17", "fusion_lon": 0.0, "bike_id": "a819d5530d62998ce186b2053f468a17", "is_reserved": 0, "rental_uris": {"android": "https://dc.lft.to/lastmile_qr_scan", "ios": "https://dc.lft.to/lastmile_qr_scan"}, "lat": 38.926247000000004, "is_disabled": 0, "lon": -77.04328133333334}, {"fusion_lat": 0.0, "type": "electric_bike", "name": "619f2e577bc09d24d3be3be2b61b9ce9", "fusion_lon": 0.0, "bike_id": "619f2e577bc09d24d3be3be2b61b9ce9", "is_reserved": 0, "rental_uris": {"android": "https://dc.lft.to/lastmile_qr_scan", "ios": "https://dc.lft.to/lastmile_qr_scan"}, "lat": 38.953262, "is_disabled": 0, "lon": -76.954342}, {"fusion_lat": 0.0, "type": "electric_scooter", "name": "4b63f7160879a213b13da19467fc946c", "fusion_lon": 0.0, "bike_id": "4b63f7160879a213b13da19467fc946c", "is_reserved": 0, "rental_uris": {"android": "https://dc.lft.to/lastmile_qr_scan", "ios": "https://dc.lft.to/lastmile_qr_scan"}, "lat": 38.9215855, "is_disabled": 0, "lon": -77.0338275}, {"fusion_lat": 0.0, "type": "electric_scooter", "name": "4e867b6b2228bfc1541918f65d480c5b", "fusion_lon": 0.0, "bike_id": "4e867b6b2228bfc1541918f65d480c5b", "is_reserved": 0, "rental_uris": {"android": "https://dc.lft.to/lastmile_qr_scan", "ios": "https://dc.lft.to/lastmile_qr_scan"}, "lat": 38.90569966666666, "is_disabled": 0, "lon": -77.04612933333334}, {"fusion_lat": 0.0, "type": "electric_scooter", "name": "f8c219dc1121c7d45c62c8667f1ef55f", "fusion_lon": 0.0, "bike_id": "f8c219dc1121c7d45c62c8667f1ef55f", "is_reserved": 0, "rental_uris": {"android": "https://dc.lft.to/lastmile_qr_scan", "ios": "https://dc.lft.to/lastmile_qr_scan"}, "lat": 38.898980333333334, "is_disabled": 0, "lon": -76.993865}, {"fusion_lat": 0.0, "type": "electric_scooter", "name": "074e19327711040243e730d447fb9077", "fusion_lon": 0.0, "bike_id": "074e19327711040243e730d447fb9077", "is_reserved": 0, "rental_uris": {"android": "https://dc.lft.to/lastmile_qr_scan", "ios": "https://dc.lft.to/lastmile_qr_scan"}, "lat": 38.90532266666666, "is_disabled": 0, "lon": -77.03144483333334}, {"fusion_lat": 0.0, "type": "electric_scooter", "name": "81c4d266f36221bf15fb28e31ca050ed", "fusion_lon": 0.0, "bike_id": "81c4d266f36221bf15fb28e31ca050ed", "is_reserved": 0, "rental_uris": {"android": "https://dc.lft.to/lastmile_qr_scan", "ios": "https://dc.lft.to/lastmile_qr_scan"}, "lat": 38.9519405, "is_disabled": 0, "lon": -77.0261905}, {"fusion_lat": 0.0, "type": "electric_scooter", "name": "830104b5e4981f9e273d286bb6b9ecb3", "fusion_lon": 0.0, "bike_id": "830104b5e4981f9e273d286bb6b9ecb3", "is_reserved": 0, "rental_uris": {"android": "https://dc.lft.to/lastmile_qr_scan", "ios": "https://dc.lft.to/lastmile_qr_scan"}, "lat": 38.92405466666666, "is_disabled": 0, "lon": -77.0516575}, {"fusion_lat": 0.0, "type": "electric_scooter", "name": "1ccaa3f0fcb003a19601c33687e4fec0", "fusion_lon": 0.0, "bike_id": "1ccaa3f0fcb003a19601c33687e4fec0", "is_reserved": 0, "rental_uris": {"android": "https://dc.lft.to/lastmile_qr_scan", "ios": "https://dc.lft.to/lastmile_qr_scan"}, "lat": 38.91373383333333, "is_disabled": 0, "lon": -77.031433}, {"fusion_lat": 0.0, "type": "electric_scooter", "name": "0658ec409cc02efee3fdd0b910550b6f", "fusion_lon": 0.0, "bike_id": "0658ec409cc02efee3fdd0b910550b6f", "is_reserved": 0, "rental_uris": {"android": "https://dc.lft.to/lastmile_qr_scan", "ios": "https://dc.lft.to/lastmile_qr_scan"}, "lat": 38.8960855, "is_disabled": 0, "lon": -77.0498545}, {"fusion_lat": 0.0, "type": "electric_bike", "name": "0b47a02da97b6ff6ae6c42cb81f06f17", "fusion_lon": 0.0, "bike_id": "0b47a02da97b6ff6ae6c42cb81f06f17", "is_reserved": 0, "rental_uris": {"android": "https://dc.lft.to/lastmile_qr_scan", "ios": "https://dc.lft.to/lastmile_qr_scan"}, "lat": 38.903892, "is_disabled": 0, "lon": -77.0345095}, {"fusion_lat": 0.0, "type": "electric_scooter", "name": "f3105087539f4942a1f896a2e3f802b1", "fusion_lon": 0.0, "bike_id": "f3105087539f4942a1f896a2e3f802b1", "is_reserved": 0, "rental_uris": {"android": "https://dc.lft.to/lastmile_qr_scan", "ios": "https://dc.lft.to/lastmile_qr_scan"}, "lat": 38.8874645, "is_disabled": 0, "lon": -77.022299}, {"fusion_lat": 0.0, "type": "electric_scooter", "name": "1912659384d761137ff0710d1b3e668d", "fusion_lon": 0.0, "bike_id": "1912659384d761137ff0710d1b3e668d", "is_reserved": 0, "rental_uris": {"android": "https://dc.lft.to/lastmile_qr_scan", "ios": "https://dc.lft.to/lastmile_qr_scan"}, "lat": 38.892268666666666, "is_disabled": 0, "lon": -77.050046}, {"fusion_lat": 0.0, "type": "electric_scooter", "name": "20c33aa2d427e5f300645ddf9076d366", "fusion_lon": 0.0, "bike_id": "20c33aa2d427e5f300645ddf9076d366", "is_reserved": 0, "rental_uris": {"android": "https://dc.lft.to/lastmile_qr_scan", "ios": "https://dc.lft.to/lastmile_qr_scan"}, "lat": 38.91640683333333, "is_disabled": 0, "lon": -77.04807616666666}, {"fusion_lat": 0.0, "type": "electric_bike", "name": "83d582d0d99402985dd116474132cfec", "fusion_lon": 0.0, "bike_id": "83d582d0d99402985dd116474132cfec", "is_reserved": 0, "rental_uris": {"android": "https://dc.lft.to/lastmile_qr_scan", "ios": "https://dc.lft.to/lastmile_qr_scan"}, "lat": 38.963034666666665, "is_disabled": 0, "lon": -77.0110845}, {"fusion_lat": 0.0, "type": "electric_scooter", "name": "052d2396dfb274a87888b348c572c8f4", "fusion_lon": 0.0, "bike_id": "052d2396dfb274a87888b348c572c8f4", "is_reserved": 0, "rental_uris": {"android": "https://dc.lft.to/lastmile_qr_scan", "ios": "https://dc.lft.to/lastmile_qr_scan"}, "lat": 38.907216166666664, "is_disabled": 0, "lon": -77.04176516666666}, {"fusion_lat": 0.0, "type": "electric_scooter", "name": "c3725758a464eea1fe4628d52f6e8fbc", "fusion_lon": 0.0, "bike_id": "c3725758a464eea1fe4628d52f6e8fbc", "is_reserved": 0, "rental_uris": {"android": "https://dc.lft.to/lastmile_qr_scan", "ios": "https://dc.lft.to/lastmile_qr_scan"}, "lat": 38.879638166666666, "is_disabled": 0, "lon": -76.98742266666666}, {"fusion_lat": 0.0, "type": "electric_scooter", "name": "703c63a9a22785f57a80ce8e7a82c3a8", "fusion_lon": 0.0, "bike_id": "703c63a9a22785f57a80ce8e7a82c3a8", "is_reserved": 0, "rental_uris": {"android": "https://dc.lft.to/lastmile_qr_scan", "ios": "https://dc.lft.to/lastmile_qr_scan"}, "lat": 38.920540833333334, "is_disabled": 0, "lon": -77.016827}, {"fusion_lat": 0.0, "type": "electric_bike", "name": "5b7e532a04f289cb5dc4317d86faeec4", "fusion_lon": 0.0, "bike_id": "5b7e532a04f289cb5dc4317d86faeec4", "is_reserved": 0, "rental_uris": {"android": "https://dc.lft.to/lastmile_qr_scan", "ios": "https://dc.lft.to/lastmile_qr_scan"}, "lat": 39.034319333333336, "is_disabled": 0, "lon": -77.04094116666667}, {"fusion_lat": 0.0, "type": "electric_bike", "name": "5b2387f8ddac5131d255b263da95bf5f", "fusion_lon": 0.0, "bike_id": "5b2387f8ddac5131d255b263da95bf5f", "is_reserved": 0, "rental_uris": {"android": "https://dc.lft.to/lastmile_qr_scan", "ios": "https://dc.lft.to/lastmile_qr_scan"}, "lat": 39.054986666666665, "is_disabled": 0, "lon": -77.1178825}, {"fusion_lat": 0.0, "type": "electric_scooter", "name": "e279221b3c91728b7484c00da6cf9fab", "fusion_lon": 0.0, "bike_id": "e279221b3c91728b7484c00da6cf9fab", "is_reserved": 0, "rental_uris": {"android": "https://dc.lft.to/lastmile_qr_scan", "ios": "https://dc.lft.to/lastmile_qr_scan"}, "lat": 38.922993, "is_disabled": 0, "lon": -77.04266683333333}, {"fusion_lat": 0.0, "type": "electric_scooter", "name": "f0c279887e53585ef49cff53374126cb", "fusion_lon": 0.0, "bike_id": "f0c279887e53585ef49cff53374126cb", "is_reserved": 0, "rental_uris": {"android": "https://dc.lft.to/lastmile_qr_scan", "ios": "https://dc.lft.to/lastmile_qr_scan"}, "lat": 38.9066815, "is_disabled": 0, "lon": -77.00608}, {"fusion_lat": 0.0, "type": "electric_bike", "name": "7cbebc0371ea89a7ee53bc8bb3d5bf80", "fusion_lon": 0.0, "bike_id": "7cbebc0371ea89a7ee53bc8bb3d5bf80", "is_reserved": 0, "rental_uris": {"android": "https://dc.lft.to/lastmile_qr_scan", "ios": "https://dc.lft.to/lastmile_qr_scan"}, "lat": 38.883367, "is_disabled": 0, "lon": -77.06561866666667}, {"fusion_lat": 0.0, "type": "electric_scooter", "name": "8db06d16dd13ca69e7f1beffbe62a2f7", "fusion_lon": 0.0, "bike_id": "8db06d16dd13ca69e7f1beffbe62a2f7", "is_reserved": 0, "rental_uris": {"android": "https://dc.lft.to/lastmile_qr_scan", "ios": "https://dc.lft.to/lastmile_qr_scan"}, "lat": 38.906917666666665, "is_disabled": 0, "lon": -77.03589366666667}, {"fusion_lat": 0.0, "type": "electric_scooter", "name": "8bf66c9ea682d4f13db1e8b6472a7276", "fusion_lon": 0.0, "bike_id": "8bf66c9ea682d4f13db1e8b6472a7276", "is_reserved": 0, "rental_uris": {"android": "https://dc.lft.to/lastmile_qr_scan", "ios": "https://dc.lft.to/lastmile_qr_scan"}, "lat": 38.914564166666665, "is_disabled": 0, "lon": -77.01888316666667}, {"fusion_lat": 0.0, "type": "electric_scooter", "name": "1c54585e5732952f4e3e0e01a3750d66", "fusion_lon": 0.0, "bike_id": "1c54585e5732952f4e3e0e01a3750d66", "is_reserved": 0, "rental_uris": {"android": "https://dc.lft.to/lastmile_qr_scan", "ios": "https://dc.lft.to/lastmile_qr_scan"}, "lat": 38.928629666666666, "is_disabled": 0, "lon": -77.03605066666667}, {"fusion_lat": 0.0, "type": "electric_bike", "name": "a3e3f3a62565c568d1a407a775380c40", "fusion_lon": 0.0, "bike_id": "a3e3f3a62565c568d1a407a775380c40", "is_reserved": 0, "rental_uris": {"android": "https://dc.lft.to/lastmile_qr_scan", "ios": "https://dc.lft.to/lastmile_qr_scan"}, "lat": 38.968211, "is_disabled": 0, "lon": -77.072274}, {"fusion_lat": 0.0, "type": "electric_scooter", "name": "1a0d65a709bbdd63fefcca956ee0a6fc", "fusion_lon": 0.0, "bike_id": "1a0d65a709bbdd63fefcca956ee0a6fc", "is_reserved": 0, "rental_uris": {"android": "https://dc.lft.to/lastmile_qr_scan", "ios": "https://dc.lft.to/lastmile_qr_scan"}, "lat": 38.9251115, "is_disabled": 0, "lon": -77.036582}, {"fusion_lat": 0.0, "type": "electric_scooter", "name": "4832edbae3dab09c5ee9c12bf115a68b", "fusion_lon": 0.0, "bike_id": "4832edbae3dab09c5ee9c12bf115a68b", "is_reserved": 0, "rental_uris": {"android": "https://dc.lft.to/lastmile_qr_scan", "ios": "https://dc.lft.to/lastmile_qr_scan"}, "lat": 38.90439966666667, "is_disabled": 0, "lon": -76.98487966666667}, {"fusion_lat": 0.0, "type": "electric_scooter", "name": "7baa359a63b13e361b77683ae15d8a34", "fusion_lon": 0.0, "bike_id": "7baa359a63b13e361b77683ae15d8a34", "is_reserved": 0, "rental_uris": {"android": "https://dc.lft.to/lastmile_qr_scan", "ios": "https://dc.lft.to/lastmile_qr_scan"}, "lat": 38.907836833333334, "is_disabled": 0, "lon": -77.038591}, {"fusion_lat": 0.0, "type": "electric_scooter", "name": "76fcb1e36ed650156a38734d08798fb6", "fusion_lon": 0.0, "bike_id": "76fcb1e36ed650156a38734d08798fb6", "is_reserved": 0, "rental_uris": {"android": "https://dc.lft.to/lastmile_qr_scan", "ios": "https://dc.lft.to/lastmile_qr_scan"}, "lat": 38.922544333333335, "is_disabled": 0, "lon": -77.03513433333333}, {"fusion_lat": 0.0, "type": "electric_scooter", "name": "7dc0ffb6646aabbd64753ffd54efaef9", "fusion_lon": 0.0, "bike_id": "7dc0ffb6646aabbd64753ffd54efaef9", "is_reserved": 0, "rental_uris": {"android": "https://dc.lft.to/lastmile_qr_scan", "ios": "https://dc.lft.to/lastmile_qr_scan"}, "lat": 38.94915483333333, "is_disabled": 0, "lon": -77.07882016666667}, {"fusion_lat": 0.0, "type": "electric_scooter", "name": "a5fc56c3439a350bf611dca1948da077", "fusion_lon": 0.0, "bike_id": "a5fc56c3439a350bf611dca1948da077", "is_reserved": 0, "rental_uris": {"android": "https://dc.lft.to/lastmile_qr_scan", "ios": "https://dc.lft.to/lastmile_qr_scan"}, "lat": 38.900440833333334, "is_disabled": 0, "lon": -77.03371183333333}, {"fusion_lat": 0.0, "type": "electric_scooter", "name": "ee73ccca2086abff94b8bebc78038c32", "fusion_lon": 0.0, "bike_id": "ee73ccca2086abff94b8bebc78038c32", "is_reserved": 0, "rental_uris": {"android": "https://dc.lft.to/lastmile_qr_scan", "ios": "https://dc.lft.to/lastmile_qr_scan"}, "lat": 38.8960955, "is_disabled": 0, "lon": -77.05033733333333}, {"fusion_lat": 0.0, "type": "electric_bike", "name": "1c4a06e107b7b3d1ec439bc06662722f", "fusion_lon": 0.0, "bike_id": "1c4a06e107b7b3d1ec439bc06662722f", "is_reserved": 0, "rental_uris": {"android": "https://dc.lft.to/lastmile_qr_scan", "ios": "https://dc.lft.to/lastmile_qr_scan"}, "lat": 38.9186385, "is_disabled": 0, "lon": -76.96092}, {"fusion_lat": 0.0, "type": "electric_bike", "name": "a9c644c5b4d8a7d4768faaede1c08740", "fusion_lon": 0.0, "bike_id": "a9c644c5b4d8a7d4768faaede1c08740", "is_reserved": 0, "rental_uris": {"android": "https://dc.lft.to/lastmile_qr_scan", "ios": "https://dc.lft.to/lastmile_qr_scan"}, "lat": 38.945100833333335, "is_disabled": 0, "lon": -77.00671066666666}, {"fusion_lat": 0.0, "type": "electric_scooter", "name": "f7c06365a1dfb80a5f5ff0229818ac98", "fusion_lon": 0.0, "bike_id": "f7c06365a1dfb80a5f5ff0229818ac98", "is_reserved": 0, "rental_uris": {"android": "https://dc.lft.to/lastmile_qr_scan", "ios": "https://dc.lft.to/lastmile_qr_scan"}, "lat": 38.92222816666666, "is_disabled": 0, "lon": -77.04239916666667}, {"fusion_lat": 0.0, "type": "electric_bike", "name": "f5c7b0bce19214cf0755eb837ea2d0d4", "fusion_lon": 0.0, "bike_id": "f5c7b0bce19214cf0755eb837ea2d0d4", "is_reserved": 0, "rental_uris": {"android": "https://dc.lft.to/lastmile_qr_scan", "ios": "https://dc.lft.to/lastmile_qr_scan"}, "lat": 39.042356166666664, "is_disabled": 0, "lon": -77.03074633333334}, {"fusion_lat": 0.0, "type": "electric_scooter", "name": "814fd01d0865c2ad3ed13598cf10fcc1", "fusion_lon": 0.0, "bike_id": "814fd01d0865c2ad3ed13598cf10fcc1", "is_reserved": 0, "rental_uris": {"android": "https://dc.lft.to/lastmile_qr_scan", "ios": "https://dc.lft.to/lastmile_qr_scan"}, "lat": 38.897492, "is_disabled": 0, "lon": -77.01357133333333}, {"fusion_lat": 0.0, "type": "electric_scooter", "name": "fb4a5d0a7674d817740d6832441f639d", "fusion_lon": 0.0, "bike_id": "fb4a5d0a7674d817740d6832441f639d", "is_reserved": 0, "rental_uris": {"android": "https://dc.lft.to/lastmile_qr_scan", "ios": "https://dc.lft.to/lastmile_qr_scan"}, "lat": 38.921512666666665, "is_disabled": 0, "lon": -77.0269125}, {"fusion_lat": 0.0, "type": "electric_scooter", "name": "6f65ca4cd52693fb603f15a792ab3dbc", "fusion_lon": 0.0, "bike_id": "6f65ca4cd52693fb603f15a792ab3dbc", "is_reserved": 0, "rental_uris": {"android": "https://dc.lft.to/lastmile_qr_scan", "ios": "https://dc.lft.to/lastmile_qr_scan"}, "lat": 38.9111065, "is_disabled": 0, "lon": -77.03328433333333}, {"fusion_lat": 0.0, "type": "electric_scooter", "name": "3b5802163fba9dd951c3f35fa676c65f", "fusion_lon": 0.0, "bike_id": "3b5802163fba9dd951c3f35fa676c65f", "is_reserved": 0, "rental_uris": {"android": "https://dc.lft.to/lastmile_qr_scan", "ios": "https://dc.lft.to/lastmile_qr_scan"}, "lat": 38.916236, "is_disabled": 0, "lon": -77.03208766666667}, {"fusion_lat": 0.0, "type": "electric_scooter", "name": "0e03f3e3314a287a17dab3d55e5ccfb5", "fusion_lon": 0.0, "bike_id": "0e03f3e3314a287a17dab3d55e5ccfb5", "is_reserved": 0, "rental_uris": {"android": "https://dc.lft.to/lastmile_qr_scan", "ios": "https://dc.lft.to/lastmile_qr_scan"}, "lat": 38.909695, "is_disabled": 0, "lon": -77.02081583333333}, {"fusion_lat": 0.0, "type": "electric_scooter", "name": "755053fc869d1bda9a2461b89710ac50", "fusion_lon": 0.0, "bike_id": "755053fc869d1bda9a2461b89710ac50", "is_reserved": 0, "rental_uris": {"android": "https://dc.lft.to/lastmile_qr_scan", "ios": "https://dc.lft.to/lastmile_qr_scan"}, "lat": 38.89223766666667, "is_disabled": 0, "lon": -77.04308666666667}, {"fusion_lat": 0.0, "type": "electric_bike", "name": "245e27517c65e83c2c9163bdc65a921b", "fusion_lon": 0.0, "bike_id": "245e27517c65e83c2c9163bdc65a921b", "is_reserved": 0, "rental_uris": {"android": "https://dc.lft.to/lastmile_qr_scan", "ios": "https://dc.lft.to/lastmile_qr_scan"}, "lat": 38.955056166666665, "is_disabled": 0, "lon": -76.99354766666667}, {"fusion_lat": 0.0, "type": "electric_scooter", "name": "fc09a125099ff60d1c6831c386708d75", "fusion_lon": 0.0, "bike_id": "fc09a125099ff60d1c6831c386708d75", "is_reserved": 0, "rental_uris": {"android": "https://dc.lft.to/lastmile_qr_scan", "ios": "https://dc.lft.to/lastmile_qr_scan"}, "lat": 38.930824, "is_disabled": 0, "lon": -77.02795166666667}, {"fusion_lat": 0.0, "type": "electric_scooter", "name": "f17a75f63ef064f762edb3e8764dc53f", "fusion_lon": 0.0, "bike_id": "f17a75f63ef064f762edb3e8764dc53f", "is_reserved": 0, "rental_uris": {"android": "https://dc.lft.to/lastmile_qr_scan", "ios": "https://dc.lft.to/lastmile_qr_scan"}, "lat": 38.928454, "is_disabled": 0, "lon": -77.03288916666666}, {"fusion_lat": 0.0, "type": "electric_scooter", "name": "caa01e72f4ae4ba587e57ecc64346d1a", "fusion_lon": 0.0, "bike_id": "caa01e72f4ae4ba587e57ecc64346d1a", "is_reserved": 0, "rental_uris": {"android": "https://dc.lft.to/lastmile_qr_scan", "ios": "https://dc.lft.to/lastmile_qr_scan"}, "lat": 38.89223283333333, "is_disabled": 0, "lon": -77.02218866666666}, {"fusion_lat": 0.0, "type": "electric_scooter", "name": "d717cd15db268a44aa7eb41d18b176b4", "fusion_lon": 0.0, "bike_id": "d717cd15db268a44aa7eb41d18b176b4", "is_reserved": 0, "rental_uris": {"android": "https://dc.lft.to/lastmile_qr_scan", "ios": "https://dc.lft.to/lastmile_qr_scan"}, "lat": 38.918025, "is_disabled": 0, "lon": -77.0270535}, {"fusion_lat": 0.0, "type": "electric_scooter", "name": "642f93238782655a7938f8abe636abc3", "fusion_lon": 0.0, "bike_id": "642f93238782655a7938f8abe636abc3", "is_reserved": 0, "rental_uris": {"android": "https://dc.lft.to/lastmile_qr_scan", "ios": "https://dc.lft.to/lastmile_qr_scan"}, "lat": 38.876463, "is_disabled": 0, "lon": -76.9650175}, {"fusion_lat": 0.0, "type": "electric_scooter", "name": "e0cb44bd421b69f41bdee5fc588cfc0e", "fusion_lon": 0.0, "bike_id": "e0cb44bd421b69f41bdee5fc588cfc0e", "is_reserved": 0, "rental_uris": {"android": "https://dc.lft.to/lastmile_qr_scan", "ios": "https://dc.lft.to/lastmile_qr_scan"}, "lat": 38.89973483333333, "is_disabled": 0, "lon": -77.02174033333333}, {"fusion_lat": 0.0, "type": "electric_scooter", "name": "35e08d2a52ec7bda58dff696336b5aad", "fusion_lon": 0.0, "bike_id": "35e08d2a52ec7bda58dff696336b5aad", "is_reserved": 0, "rental_uris": {"android": "https://dc.lft.to/lastmile_qr_scan", "ios": "https://dc.lft.to/lastmile_qr_scan"}, "lat": 38.879054333333336, "is_disabled": 0, "lon": -77.01906183333334}, {"fusion_lat": 0.0, "type": "electric_scooter", "name": "1201e6e92e30bd1769a8f3910b7c4c25", "fusion_lon": 0.0, "bike_id": "1201e6e92e30bd1769a8f3910b7c4c25", "is_reserved": 0, "rental_uris": {"android": "https://dc.lft.to/lastmile_qr_scan", "ios": "https://dc.lft.to/lastmile_qr_scan"}, "lat": 38.942075, "is_disabled": 0, "lon": -77.025145}, {"fusion_lat": 0.0, "type": "electric_scooter", "name": "035e798a80e35765a01706813d93f8fb", "fusion_lon": 0.0, "bike_id": "035e798a80e35765a01706813d93f8fb", "is_reserved": 0, "rental_uris": {"android": "https://dc.lft.to/lastmile_qr_scan", "ios": "https://dc.lft.to/lastmile_qr_scan"}, "lat": 38.95826383333333, "is_disabled": 0, "lon": -77.01512183333334}, {"fusion_lat": 0.0, "type": "electric_scooter", "name": "170254b27786f97a98a043ffd165c907", "fusion_lon": 0.0, "bike_id": "170254b27786f97a98a043ffd165c907", "is_reserved": 0, "rental_uris": {"android": "https://dc.lft.to/lastmile_qr_scan", "ios": "https://dc.lft.to/lastmile_qr_scan"}, "lat": 38.9025455, "is_disabled": 0, "lon": -77.04511883333333}, {"fusion_lat": 0.0, "type": "electric_scooter", "name": "7b191b72b1df4b7e2b94a75a35f00388", "fusion_lon": 0.0, "bike_id": "7b191b72b1df4b7e2b94a75a35f00388", "is_reserved": 0, "rental_uris": {"android": "https://dc.lft.to/lastmile_qr_scan", "ios": "https://dc.lft.to/lastmile_qr_scan"}, "lat": 38.90627116666667, "is_disabled": 0, "lon": -77.03435666666667}, {"fusion_lat": 0.0, "type": "electric_scooter", "name": "86b4e7ad2265670316d73f524956de5d", "fusion_lon": 0.0, "bike_id": "86b4e7ad2265670316d73f524956de5d", "is_reserved": 0, "rental_uris": {"android": "https://dc.lft.to/lastmile_qr_scan", "ios": "https://dc.lft.to/lastmile_qr_scan"}, "lat": 38.8939915, "is_disabled": 0, "lon": -76.94631933333334}, {"fusion_lat": 0.0, "type": "electric_scooter", "name": "7599cfd3ac57411a4e5dd3ce047938b7", "fusion_lon": 0.0, "bike_id": "7599cfd3ac57411a4e5dd3ce047938b7", "is_reserved": 0, "rental_uris": {"android": "https://dc.lft.to/lastmile_qr_scan", "ios": "https://dc.lft.to/lastmile_qr_scan"}, "lat": 38.90150283333333, "is_disabled": 0, "lon": -77.04397033333333}, {"fusion_lat": 0.0, "type": "electric_scooter", "name": "662ddc21f69c96aef9c1fa03d0440512", "fusion_lon": 0.0, "bike_id": "662ddc21f69c96aef9c1fa03d0440512", "is_reserved": 0, "rental_uris": {"android": "https://dc.lft.to/lastmile_qr_scan", "ios": "https://dc.lft.to/lastmile_qr_scan"}, "lat": 38.898004666666665, "is_disabled": 0, "lon": -77.02817416666667}, {"fusion_lat": 0.0, "type": "electric_scooter", "name": "0a6253a85f550057ed0cb79fecf39b1f", "fusion_lon": 0.0, "bike_id": "0a6253a85f550057ed0cb79fecf39b1f", "is_reserved": 0, "rental_uris": {"android": "https://dc.lft.to/lastmile_qr_scan", "ios": "https://dc.lft.to/lastmile_qr_scan"}, "lat": 38.9167985, "is_disabled": 0, "lon": -77.02973833333333}, {"fusion_lat": 0.0, "type": "electric_scooter", "name": "7ee551198478db84fb18fb23896558f6", "fusion_lon": 0.0, "bike_id": "7ee551198478db84fb18fb23896558f6", "is_reserved": 0, "rental_uris": {"android": "https://dc.lft.to/lastmile_qr_scan", "ios": "https://dc.lft.to/lastmile_qr_scan"}, "lat": 38.921539, "is_disabled": 0, "lon": -77.0208555}, {"fusion_lat": 0.0, "type": "electric_scooter", "name": "553e5504b98b0c761b77a788febdb363", "fusion_lon": 0.0, "bike_id": "553e5504b98b0c761b77a788febdb363", "is_reserved": 0, "rental_uris": {"android": "https://dc.lft.to/lastmile_qr_scan", "ios": "https://dc.lft.to/lastmile_qr_scan"}, "lat": 38.913915333333335, "is_disabled": 0, "lon": -77.04481583333333}, {"fusion_lat": 0.0, "type": "electric_scooter", "name": "af78bd11f028eb1fb29bb3f8882283c1", "fusion_lon": 0.0, "bike_id": "af78bd11f028eb1fb29bb3f8882283c1", "is_reserved": 0, "rental_uris": {"android": "https://dc.lft.to/lastmile_qr_scan", "ios": "https://dc.lft.to/lastmile_qr_scan"}, "lat": 38.851966166666664, "is_disabled": 0, "lon": -76.97074466666666}, {"fusion_lat": 0.0, "type": "electric_scooter", "name": "23e84a80223e48873ce7a3738b9f3687", "fusion_lon": 0.0, "bike_id": "23e84a80223e48873ce7a3738b9f3687", "is_reserved": 0, "rental_uris": {"android": "https://dc.lft.to/lastmile_qr_scan", "ios": "https://dc.lft.to/lastmile_qr_scan"}, "lat": 38.919934833333336, "is_disabled": 0, "lon": -77.02148083333333}, {"fusion_lat": 0.0, "type": "electric_scooter", "name": "d1ec1258e8aa244b5cea354e1c875d55", "fusion_lon": 0.0, "bike_id": "d1ec1258e8aa244b5cea354e1c875d55", "is_reserved": 0, "rental_uris": {"android": "https://dc.lft.to/lastmile_qr_scan", "ios": "https://dc.lft.to/lastmile_qr_scan"}, "lat": 38.9185875, "is_disabled": 0, "lon": -77.0700135}, {"fusion_lat": 0.0, "type": "electric_scooter", "name": "99ff6f2de3f425a8913397f232e2771f", "fusion_lon": 0.0, "bike_id": "99ff6f2de3f425a8913397f232e2771f", "is_reserved": 0, "rental_uris": {"android": "https://dc.lft.to/lastmile_qr_scan", "ios": "https://dc.lft.to/lastmile_qr_scan"}, "lat": 38.90710166666667, "is_disabled": 0, "lon": -77.03732433333333}, {"fusion_lat": 0.0, "type": "electric_scooter", "name": "14e1beb6eb2c575c36a93685695dae7d", "fusion_lon": 0.0, "bike_id": "14e1beb6eb2c575c36a93685695dae7d", "is_reserved": 0, "rental_uris": {"android": "https://dc.lft.to/lastmile_qr_scan", "ios": "https://dc.lft.to/lastmile_qr_scan"}, "lat": 38.9360875, "is_disabled": 0, "lon": -77.0292015}, {"fusion_lat": 0.0, "type": "electric_scooter", "name": "88d5344c713e0ad6318ebb1251870f70", "fusion_lon": 0.0, "bike_id": "88d5344c713e0ad6318ebb1251870f70", "is_reserved": 0, "rental_uris": {"android": "https://dc.lft.to/lastmile_qr_scan", "ios": "https://dc.lft.to/lastmile_qr_scan"}, "lat": 38.89197016666667, "is_disabled": 0, "lon": -77.026244}, {"fusion_lat": 0.0, "type": "electric_scooter", "name": "c72f4fbe95e2d223fe5536fbb5d4cce0", "fusion_lon": 0.0, "bike_id": "c72f4fbe95e2d223fe5536fbb5d4cce0", "is_reserved": 0, "rental_uris": {"android": "https://dc.lft.to/lastmile_qr_scan", "ios": "https://dc.lft.to/lastmile_qr_scan"}, "lat": 38.90298283333333, "is_disabled": 0, "lon": -77.03359533333334}, {"fusion_lat": 0.0, "type": "electric_scooter", "name": "c16ac39e1fad88d7c46f91fae5f1a268", "fusion_lon": 0.0, "bike_id": "c16ac39e1fad88d7c46f91fae5f1a268", "is_reserved": 0, "rental_uris": {"android": "https://dc.lft.to/lastmile_qr_scan", "ios": "https://dc.lft.to/lastmile_qr_scan"}, "lat": 38.919220333333335, "is_disabled": 0, "lon": -77.04466}, {"fusion_lat": 0.0, "type": "electric_scooter", "name": "e165b4381b2f1e4465cdd01ac11c1f6b", "fusion_lon": 0.0, "bike_id": "e165b4381b2f1e4465cdd01ac11c1f6b", "is_reserved": 0, "rental_uris": {"android": "https://dc.lft.to/lastmile_qr_scan", "ios": "https://dc.lft.to/lastmile_qr_scan"}, "lat": 38.905771333333334, "is_disabled": 0, "lon": -77.034491}, {"fusion_lat": 0.0, "type": "electric_scooter", "name": "5a039540ceb790e9a42b675045fe4236", "fusion_lon": 0.0, "bike_id": "5a039540ceb790e9a42b675045fe4236", "is_reserved": 0, "rental_uris": {"android": "https://dc.lft.to/lastmile_qr_scan", "ios": "https://dc.lft.to/lastmile_qr_scan"}, "lat": 38.91814683333333, "is_disabled": 0, "lon": -77.03024916666666}, {"fusion_lat": 0.0, "type": "electric_scooter", "name": "0bf0cd7d7a1921fe4679ab1cfc4a2d00", "fusion_lon": 0.0, "bike_id": "0bf0cd7d7a1921fe4679ab1cfc4a2d00", "is_reserved": 0, "rental_uris": {"android": "https://dc.lft.to/lastmile_qr_scan", "ios": "https://dc.lft.to/lastmile_qr_scan"}, "lat": 38.90849166666667, "is_disabled": 0, "lon": -77.0120975}, {"fusion_lat": 0.0, "type": "electric_scooter", "name": "682339d974343bde77d2223199a9f4f9", "fusion_lon": 0.0, "bike_id": "682339d974343bde77d2223199a9f4f9", "is_reserved": 0, "rental_uris": {"android": "https://dc.lft.to/lastmile_qr_scan", "ios": "https://dc.lft.to/lastmile_qr_scan"}, "lat": 38.837024, "is_disabled": 0, "lon": -77.005696}, {"fusion_lat": 0.0, "type": "electric_scooter", "name": "f82450b2b878305a6da9791205debfd9", "fusion_lon": 0.0, "bike_id": "f82450b2b878305a6da9791205debfd9", "is_reserved": 0, "rental_uris": {"android": "https://dc.lft.to/lastmile_qr_scan", "ios": "https://dc.lft.to/lastmile_qr_scan"}, "lat": 38.84426966666667, "is_disabled": 0, "lon": -76.9977615}, {"fusion_lat": 0.0, "type": "electric_scooter", "name": "9603975dd0b29072ace7b4c16aecd849", "fusion_lon": 0.0, "bike_id": "9603975dd0b29072ace7b4c16aecd849", "is_reserved": 0, "rental_uris": {"android": "https://dc.lft.to/lastmile_qr_scan", "ios": "https://dc.lft.to/lastmile_qr_scan"}, "lat": 38.94118683333333, "is_disabled": 0, "lon": -77.01539366666667}, {"fusion_lat": 0.0, "type": "electric_scooter", "name": "7aea1b16d0be2dc5610492e62dd7f9c1", "fusion_lon": 0.0, "bike_id": "7aea1b16d0be2dc5610492e62dd7f9c1", "is_reserved": 0, "rental_uris": {"android": "https://dc.lft.to/lastmile_qr_scan", "ios": "https://dc.lft.to/lastmile_qr_scan"}, "lat": 38.91848666666667, "is_disabled": 0, "lon": -76.9655435}, {"fusion_lat": 0.0, "type": "electric_scooter", "name": "879d8e7e62e4efc33fe2303eb6421a06", "fusion_lon": 0.0, "bike_id": "879d8e7e62e4efc33fe2303eb6421a06", "is_reserved": 0, "rental_uris": {"android": "https://dc.lft.to/lastmile_qr_scan", "ios": "https://dc.lft.to/lastmile_qr_scan"}, "lat": 38.90821366666667, "is_disabled": 0, "lon": -77.0396065}, {"fusion_lat": 0.0, "type": "electric_scooter", "name": "59f18994c5ec503dfe7c59e1c3bb7ebd", "fusion_lon": 0.0, "bike_id": "59f18994c5ec503dfe7c59e1c3bb7ebd", "is_reserved": 0, "rental_uris": {"android": "https://dc.lft.to/lastmile_qr_scan", "ios": "https://dc.lft.to/lastmile_qr_scan"}, "lat": 38.935245, "is_disabled": 0, "lon": -77.07290933333333}, {"fusion_lat": 0.0, "type": "electric_scooter", "name": "771060b4aac00f2967409d842c5591c0", "fusion_lon": 0.0, "bike_id": "771060b4aac00f2967409d842c5591c0", "is_reserved": 0, "rental_uris": {"android": "https://dc.lft.to/lastmile_qr_scan", "ios": "https://dc.lft.to/lastmile_qr_scan"}, "lat": 38.914898, "is_disabled": 0, "lon": -77.04402583333334}, {"fusion_lat": 0.0, "type": "electric_scooter", "name": "1eb020a79798c699791609d6487a09dd", "fusion_lon": 0.0, "bike_id": "1eb020a79798c699791609d6487a09dd", "is_reserved": 0, "rental_uris": {"android": "https://dc.lft.to/lastmile_qr_scan", "ios": "https://dc.lft.to/lastmile_qr_scan"}, "lat": 38.919523166666664, "is_disabled": 0, "lon": -76.98077516666666}, {"fusion_lat": 0.0, "type": "electric_scooter", "name": "5c2619c01330c54f100416c745c21120", "fusion_lon": 0.0, "bike_id": "5c2619c01330c54f100416c745c21120", "is_reserved": 0, "rental_uris": {"android": "https://dc.lft.to/lastmile_qr_scan", "ios": "https://dc.lft.to/lastmile_qr_scan"}, "lat": 38.90615833333333, "is_disabled": 0, "lon": -77.041627}, {"fusion_lat": 0.0, "type": "electric_scooter", "name": "bc868ad62065532e5419b8ca678669b5", "fusion_lon": 0.0, "bike_id": "bc868ad62065532e5419b8ca678669b5", "is_reserved": 0, "rental_uris": {"android": "https://dc.lft.to/lastmile_qr_scan", "ios": "https://dc.lft.to/lastmile_qr_scan"}, "lat": 38.9056095, "is_disabled": 0, "lon": -77.04701766666666}, {"fusion_lat": 0.0, "type": "electric_scooter", "name": "78e966651537199b8719caf57ca01aa4", "fusion_lon": 0.0, "bike_id": "78e966651537199b8719caf57ca01aa4", "is_reserved": 0, "rental_uris": {"android": "https://dc.lft.to/lastmile_qr_scan", "ios": "https://dc.lft.to/lastmile_qr_scan"}, "lat": 38.908593, "is_disabled": 0, "lon": -77.04249183333333}, {"fusion_lat": 0.0, "type": "electric_scooter", "name": "4d5d22beb9ca40a5b883296c59f759d2", "fusion_lon": 0.0, "bike_id": "4d5d22beb9ca40a5b883296c59f759d2", "is_reserved": 0, "rental_uris": {"android": "https://dc.lft.to/lastmile_qr_scan", "ios": "https://dc.lft.to/lastmile_qr_scan"}, "lat": 38.92474283333333, "is_disabled": 0, "lon": -77.0221675}, {"fusion_lat": 0.0, "type": "electric_bike", "name": "5939ae2c820aaad91fdec1de9cd20b3a", "fusion_lon": 0.0, "bike_id": "5939ae2c820aaad91fdec1de9cd20b3a", "is_reserved": 0, "rental_uris": {"android": "https://dc.lft.to/lastmile_qr_scan", "ios": "https://dc.lft.to/lastmile_qr_scan"}, "lat": 38.896587333333336, "is_disabled": 0, "lon": -76.93016583333333}, {"fusion_lat": 0.0, "type": "electric_scooter", "name": "a7f1999120c89e9da9de2dfcd0152e9a", "fusion_lon": 0.0, "bike_id": "a7f1999120c89e9da9de2dfcd0152e9a", "is_reserved": 0, "rental_uris": {"android": "https://dc.lft.to/lastmile_qr_scan", "ios": "https://dc.lft.to/lastmile_qr_scan"}, "lat": 38.8860865, "is_disabled": 0, "lon": -76.99510416666666}, {"fusion_lat": 0.0, "type": "electric_scooter", "name": "d4f907d66e20870d3d41169e56e3e867", "fusion_lon": 0.0, "bike_id": "d4f907d66e20870d3d41169e56e3e867", "is_reserved": 0, "rental_uris": {"android": "https://dc.lft.to/lastmile_qr_scan", "ios": "https://dc.lft.to/lastmile_qr_scan"}, "lat": 38.9243765, "is_disabled": 0, "lon": -77.03992966666667}, {"fusion_lat": 0.0, "type": "electric_scooter", "name": "42ec3c48d8368187dd1eab4f520accc6", "fusion_lon": 0.0, "bike_id": "42ec3c48d8368187dd1eab4f520accc6", "is_reserved": 0, "rental_uris": {"android": "https://dc.lft.to/lastmile_qr_scan", "ios": "https://dc.lft.to/lastmile_qr_scan"}, "lat": 38.888121, "is_disabled": 0, "lon": -76.93347116666666}, {"fusion_lat": 0.0, "type": "electric_scooter", "name": "87d6d14d66b58cdd88fc7299cc6c186c", "fusion_lon": 0.0, "bike_id": "87d6d14d66b58cdd88fc7299cc6c186c", "is_reserved": 0, "rental_uris": {"android": "https://dc.lft.to/lastmile_qr_scan", "ios": "https://dc.lft.to/lastmile_qr_scan"}, "lat": 38.893344166666665, "is_disabled": 0, "lon": -77.01208816666667}, {"fusion_lat": 0.0, "type": "electric_scooter", "name": "7c51ea1e2f077aabe3cb3121232342f8", "fusion_lon": 0.0, "bike_id": "7c51ea1e2f077aabe3cb3121232342f8", "is_reserved": 0, "rental_uris": {"android": "https://dc.lft.to/lastmile_qr_scan", "ios": "https://dc.lft.to/lastmile_qr_scan"}, "lat": 38.89240616666667, "is_disabled": 0, "lon": -77.03181366666666}, {"fusion_lat": 0.0, "type": "electric_scooter", "name": "85c5cb7419e9342bbc59c2f88a2150f4", "fusion_lon": 0.0, "bike_id": "85c5cb7419e9342bbc59c2f88a2150f4", "is_reserved": 0, "rental_uris": {"android": "https://dc.lft.to/lastmile_qr_scan", "ios": "https://dc.lft.to/lastmile_qr_scan"}, "lat": 38.897580833333336, "is_disabled": 0, "lon": -77.026636}, {"fusion_lat": 0.0, "type": "electric_scooter", "name": "4abe8db3402388525b46168c4f7f4020", "fusion_lon": 0.0, "bike_id": "4abe8db3402388525b46168c4f7f4020", "is_reserved": 0, "rental_uris": {"android": "https://dc.lft.to/lastmile_qr_scan", "ios": "https://dc.lft.to/lastmile_qr_scan"}, "lat": 38.887338666666665, "is_disabled": 0, "lon": -77.0282615}, {"fusion_lat": 0.0, "type": "electric_scooter", "name": "588558231534de33d93a9f6455d330ec", "fusion_lon": 0.0, "bike_id": "588558231534de33d93a9f6455d330ec", "is_reserved": 0, "rental_uris": {"android": "https://dc.lft.to/lastmile_qr_scan", "ios": "https://dc.lft.to/lastmile_qr_scan"}, "lat": 38.91507433333334, "is_disabled": 0, "lon": -77.02186016666667}, {"fusion_lat": 0.0, "type": "electric_scooter", "name": "d4408cda2fd143cd96b6d162fa98f20c", "fusion_lon": 0.0, "bike_id": "d4408cda2fd143cd96b6d162fa98f20c", "is_reserved": 0, "rental_uris": {"android": "https://dc.lft.to/lastmile_qr_scan", "ios": "https://dc.lft.to/lastmile_qr_scan"}, "lat": 38.9026215, "is_disabled": 0, "lon": -77.02813916666666}, {"fusion_lat": 0.0, "type": "electric_scooter", "name": "7762b8111dd8872b075d5137b43159b3", "fusion_lon": 0.0, "bike_id": "7762b8111dd8872b075d5137b43159b3", "is_reserved": 0, "rental_uris": {"android": "https://dc.lft.to/lastmile_qr_scan", "ios": "https://dc.lft.to/lastmile_qr_scan"}, "lat": 38.9029065, "is_disabled": 0, "lon": -77.022041}, {"fusion_lat": 0.0, "type": "electric_scooter", "name": "0fa11a7e239f7ef7e8fdab943617085d", "fusion_lon": 0.0, "bike_id": "0fa11a7e239f7ef7e8fdab943617085d", "is_reserved": 0, "rental_uris": {"android": "https://dc.lft.to/lastmile_qr_scan", "ios": "https://dc.lft.to/lastmile_qr_scan"}, "lat": 38.9170685, "is_disabled": 0, "lon": -77.0351205}, {"fusion_lat": 0.0, "type": "electric_scooter", "name": "cf124880457e1fbd6cecf2063fe1ab8e", "fusion_lon": 0.0, "bike_id": "cf124880457e1fbd6cecf2063fe1ab8e", "is_reserved": 0, "rental_uris": {"android": "https://dc.lft.to/lastmile_qr_scan", "ios": "https://dc.lft.to/lastmile_qr_scan"}, "lat": 38.919805833333335, "is_disabled": 0, "lon": -77.02186516666667}, {"fusion_lat": 0.0, "type": "electric_scooter", "name": "80846ba3377cc4772cf8510ed6f4f653", "fusion_lon": 0.0, "bike_id": "80846ba3377cc4772cf8510ed6f4f653", "is_reserved": 0, "rental_uris": {"android": "https://dc.lft.to/lastmile_qr_scan", "ios": "https://dc.lft.to/lastmile_qr_scan"}, "lat": 38.873193666666666, "is_disabled": 0, "lon": -77.00577916666667}, {"fusion_lat": 0.0, "type": "electric_scooter", "name": "002f3763cc3577abc45535a1351bca21", "fusion_lon": 0.0, "bike_id": "002f3763cc3577abc45535a1351bca21", "is_reserved": 0, "rental_uris": {"android": "https://dc.lft.to/lastmile_qr_scan", "ios": "https://dc.lft.to/lastmile_qr_scan"}, "lat": 38.86266883333333, "is_disabled": 0, "lon": -76.99465433333333}, {"fusion_lat": 0.0, "type": "electric_scooter", "name": "d39c714dffd0862c4c30ac482132728b", "fusion_lon": 0.0, "bike_id": "d39c714dffd0862c4c30ac482132728b", "is_reserved": 0, "rental_uris": {"android": "https://dc.lft.to/lastmile_qr_scan", "ios": "https://dc.lft.to/lastmile_qr_scan"}, "lat": 38.90838516666667, "is_disabled": 0, "lon": -77.00220116666667}, {"fusion_lat": 0.0, "type": "electric_scooter", "name": "1d6a1467c61ad1456dc0237cfdbc1f7d", "fusion_lon": 0.0, "bike_id": "1d6a1467c61ad1456dc0237cfdbc1f7d", "is_reserved": 0, "rental_uris": {"android": "https://dc.lft.to/lastmile_qr_scan", "ios": "https://dc.lft.to/lastmile_qr_scan"}, "lat": 38.9373495, "is_disabled": 0, "lon": -77.03614083333333}, {"fusion_lat": 0.0, "type": "electric_scooter", "name": "a1024f06039105880ab41eaebee7fe12", "fusion_lon": 0.0, "bike_id": "a1024f06039105880ab41eaebee7fe12", "is_reserved": 0, "rental_uris": {"android": "https://dc.lft.to/lastmile_qr_scan", "ios": "https://dc.lft.to/lastmile_qr_scan"}, "lat": 38.96724966666667, "is_disabled": 0, "lon": -77.01857566666666}, {"fusion_lat": 0.0, "type": "electric_scooter", "name": "04968d2684595eba418b58c5b964f7ad", "fusion_lon": 0.0, "bike_id": "04968d2684595eba418b58c5b964f7ad", "is_reserved": 0, "rental_uris": {"android": "https://dc.lft.to/lastmile_qr_scan", "ios": "https://dc.lft.to/lastmile_qr_scan"}, "lat": 38.906477333333335, "is_disabled": 0, "lon": -77.0480215}, {"fusion_lat": 0.0, "type": "electric_scooter", "name": "001b2241fd8d9d0cf8f59fbe04a14bb2", "fusion_lon": 0.0, "bike_id": "001b2241fd8d9d0cf8f59fbe04a14bb2", "is_reserved": 0, "rental_uris": {"android": "https://dc.lft.to/lastmile_qr_scan", "ios": "https://dc.lft.to/lastmile_qr_scan"}, "lat": 38.89172216666667, "is_disabled": 0, "lon": -77.01550333333333}, {"fusion_lat": 0.0, "type": "electric_scooter", "name": "78fef7c4d15facbdfb02cc9185188e98", "fusion_lon": 0.0, "bike_id": "78fef7c4d15facbdfb02cc9185188e98", "is_reserved": 0, "rental_uris": {"android": "https://dc.lft.to/lastmile_qr_scan", "ios": "https://dc.lft.to/lastmile_qr_scan"}, "lat": 38.90031333333334, "is_disabled": 0, "lon": -76.9993785}, {"fusion_lat": 0.0, "type": "electric_scooter", "name": "4108abf72181315d8e0846bfb8731a92", "fusion_lon": 0.0, "bike_id": "4108abf72181315d8e0846bfb8731a92", "is_reserved": 0, "rental_uris": {"android": "https://dc.lft.to/lastmile_qr_scan", "ios": "https://dc.lft.to/lastmile_qr_scan"}, "lat": 38.8935515, "is_disabled": 0, "lon": -77.003331}, {"fusion_lat": 0.0, "type": "electric_scooter", "name": "34f9dcebf10401c27837036630bfff65", "fusion_lon": 0.0, "bike_id": "34f9dcebf10401c27837036630bfff65", "is_reserved": 0, "rental_uris": {"android": "https://dc.lft.to/lastmile_qr_scan", "ios": "https://dc.lft.to/lastmile_qr_scan"}, "lat": 38.90865733333333, "is_disabled": 0, "lon": -77.04858833333333}, {"fusion_lat": 0.0, "type": "electric_scooter", "name": "9d9b489f630744977e9a194bab0e5ed8", "fusion_lon": 0.0, "bike_id": "9d9b489f630744977e9a194bab0e5ed8", "is_reserved": 0, "rental_uris": {"android": "https://dc.lft.to/lastmile_qr_scan", "ios": "https://dc.lft.to/lastmile_qr_scan"}, "lat": 38.9225745, "is_disabled": 0, "lon": -77.07035483333334}, {"fusion_lat": 0.0, "type": "electric_scooter", "name": "2b097e98500491f4eeb60307091836ba", "fusion_lon": 0.0, "bike_id": "2b097e98500491f4eeb60307091836ba", "is_reserved": 0, "rental_uris": {"android": "https://dc.lft.to/lastmile_qr_scan", "ios": "https://dc.lft.to/lastmile_qr_scan"}, "lat": 38.88768733333333, "is_disabled": 0, "lon": -77.0177285}, {"fusion_lat": 0.0, "type": "electric_scooter", "name": "967dfd066ad0d2eb9454dafd7080a5e6", "fusion_lon": 0.0, "bike_id": "967dfd066ad0d2eb9454dafd7080a5e6", "is_reserved": 0, "rental_uris": {"android": "https://dc.lft.to/lastmile_qr_scan", "ios": "https://dc.lft.to/lastmile_qr_scan"}, "lat": 38.89222066666667, "is_disabled": 0, "lon": -77.0450215}, {"fusion_lat": 0.0, "type": "electric_scooter", "name": "03271b882553adbfc3a729bb4b872212", "fusion_lon": 0.0, "bike_id": "03271b882553adbfc3a729bb4b872212", "is_reserved": 0, "rental_uris": {"android": "https://dc.lft.to/lastmile_qr_scan", "ios": "https://dc.lft.to/lastmile_qr_scan"}, "lat": 38.906665333333336, "is_disabled": 0, "lon": -77.0417955}, {"fusion_lat": 0.0, "type": "electric_scooter", "name": "82e401eb4a5f4651da08f5c74ab97eb5", "fusion_lon": 0.0, "bike_id": "82e401eb4a5f4651da08f5c74ab97eb5", "is_reserved": 0, "rental_uris": {"android": "https://dc.lft.to/lastmile_qr_scan", "ios": "https://dc.lft.to/lastmile_qr_scan"}, "lat": 38.9177855, "is_disabled": 0, "lon": -77.02319233333333}, {"fusion_lat": 0.0, "type": "electric_scooter", "name": "8e3684d08baf7e0ce03b9fe1281b706d", "fusion_lon": 0.0, "bike_id": "8e3684d08baf7e0ce03b9fe1281b706d", "is_reserved": 0, "rental_uris": {"android": "https://dc.lft.to/lastmile_qr_scan", "ios": "https://dc.lft.to/lastmile_qr_scan"}, "lat": 38.87285266666667, "is_disabled": 0, "lon": -76.9772785}, {"fusion_lat": 0.0, "type": "electric_scooter", "name": "89cc78f2bdf75e766d98f60d92f71012", "fusion_lon": 0.0, "bike_id": "89cc78f2bdf75e766d98f60d92f71012", "is_reserved": 0, "rental_uris": {"android": "https://dc.lft.to/lastmile_qr_scan", "ios": "https://dc.lft.to/lastmile_qr_scan"}, "lat": 38.89222733333333, "is_disabled": 0, "lon": -77.03339583333333}, {"fusion_lat": 0.0, "type": "electric_scooter", "name": "7fe6d498f91391c9b36f73f2344e3c75", "fusion_lon": 0.0, "bike_id": "7fe6d498f91391c9b36f73f2344e3c75", "is_reserved": 0, "rental_uris": {"android": "https://dc.lft.to/lastmile_qr_scan", "ios": "https://dc.lft.to/lastmile_qr_scan"}, "lat": 38.93532716666667, "is_disabled": 0, "lon": -77.05825383333334}, {"fusion_lat": 0.0, "type": "electric_scooter", "name": "80f6a62ccbdae863a183e40f9f4f4f9f", "fusion_lon": 0.0, "bike_id": "80f6a62ccbdae863a183e40f9f4f4f9f", "is_reserved": 0, "rental_uris": {"android": "https://dc.lft.to/lastmile_qr_scan", "ios": "https://dc.lft.to/lastmile_qr_scan"}, "lat": 38.914793833333334, "is_disabled": 0, "lon": -77.03192116666666}, {"fusion_lat": 0.0, "type": "electric_scooter", "name": "cd7be91f449bb77d0c8f341ef7a69313", "fusion_lon": 0.0, "bike_id": "cd7be91f449bb77d0c8f341ef7a69313", "is_reserved": 0, "rental_uris": {"android": "https://dc.lft.to/lastmile_qr_scan", "ios": "https://dc.lft.to/lastmile_qr_scan"}, "lat": 38.905769166666666, "is_disabled": 0, "lon": -77.042771}, {"fusion_lat": 0.0, "type": "electric_scooter", "name": "446f09309042caf31096dd6bce9604e7", "fusion_lon": 0.0, "bike_id": "446f09309042caf31096dd6bce9604e7", "is_reserved": 0, "rental_uris": {"android": "https://dc.lft.to/lastmile_qr_scan", "ios": "https://dc.lft.to/lastmile_qr_scan"}, "lat": 38.923321, "is_disabled": 0, "lon": -77.019524}, {"fusion_lat": 0.0, "type": "electric_scooter", "name": "e81e1fc73a3cd1f82fa6bdb9efbcdc28", "fusion_lon": 0.0, "bike_id": "e81e1fc73a3cd1f82fa6bdb9efbcdc28", "is_reserved": 0, "rental_uris": {"android": "https://dc.lft.to/lastmile_qr_scan", "ios": "https://dc.lft.to/lastmile_qr_scan"}, "lat": 38.8877085, "is_disabled": 0, "lon": -76.9557455}, {"fusion_lat": 0.0, "type": "electric_scooter", "name": "ff15ad69b678e2f0d8bfeef9f7272623", "fusion_lon": 0.0, "bike_id": "ff15ad69b678e2f0d8bfeef9f7272623", "is_reserved": 0, "rental_uris": {"android": "https://dc.lft.to/lastmile_qr_scan", "ios": "https://dc.lft.to/lastmile_qr_scan"}, "lat": 38.89497016666667, "is_disabled": 0, "lon": -77.00948916666667}, {"fusion_lat": 0.0, "type": "electric_scooter", "name": "0b41537c79c3ff7106916c67a7a10ce1", "fusion_lon": 0.0, "bike_id": "0b41537c79c3ff7106916c67a7a10ce1", "is_reserved": 0, "rental_uris": {"android": "https://dc.lft.to/lastmile_qr_scan", "ios": "https://dc.lft.to/lastmile_qr_scan"}, "lat": 38.925698833333335, "is_disabled": 0, "lon": -77.028421}, {"fusion_lat": 0.0, "type": "electric_scooter", "name": "efa1d41a146e9168d43ced87ff96f5c1", "fusion_lon": 0.0, "bike_id": "efa1d41a146e9168d43ced87ff96f5c1", "is_reserved": 0, "rental_uris": {"android": "https://dc.lft.to/lastmile_qr_scan", "ios": "https://dc.lft.to/lastmile_qr_scan"}, "lat": 38.90082366666667, "is_disabled": 0, "lon": -76.99364283333334}, {"fusion_lat": 0.0, "type": "electric_scooter", "name": "e91887ce66639ad2c015f01526c32043", "fusion_lon": 0.0, "bike_id": "e91887ce66639ad2c015f01526c32043", "is_reserved": 0, "rental_uris": {"android": "https://dc.lft.to/lastmile_qr_scan", "ios": "https://dc.lft.to/lastmile_qr_scan"}, "lat": 38.918081666666666, "is_disabled": 0, "lon": -77.02496216666667}, {"fusion_lat": 0.0, "type": "electric_scooter", "name": "7d02f7d186b7cd4897fd0931e979eb80", "fusion_lon": 0.0, "bike_id": "7d02f7d186b7cd4897fd0931e979eb80", "is_reserved": 0, "rental_uris": {"android": "https://dc.lft.to/lastmile_qr_scan", "ios": "https://dc.lft.to/lastmile_qr_scan"}, "lat": 38.94183233333333, "is_disabled": 0, "lon": -77.02530933333334}, {"fusion_lat": 0.0, "type": "electric_scooter", "name": "a122757af731f6af2dc1a4c510418f62", "fusion_lon": 0.0, "bike_id": "a122757af731f6af2dc1a4c510418f62", "is_reserved": 0, "rental_uris": {"android": "https://dc.lft.to/lastmile_qr_scan", "ios": "https://dc.lft.to/lastmile_qr_scan"},