{"data": {"bikes": [{"name": "1cc54d41c1315422b794f73dea5c195a", "type": "electric_bike", "lat": 38.85852783333333, "is_reserved": 0, "lon": -77.09747033333333, "fusion_lon": 0.0, "is_disabled": 0, "fusion_lat": 0.0, "bike_id": "1cc54d41c1315422b794f73dea5c195a", "rental_uris": {"ios": "https://dc.lft.to/lastmile_qr_scan", "android": "https://dc.lft.to/lastmile_qr_scan"}}, {"name": "789bfdaf8aa933cf85604947e4695577", "type": "electric_scooter", "lat": 38.91270466666667, "is_reserved": 0, "lon": -77.0314485, "fusion_lon": 0.0, "is_disabled": 0, "fusion_lat": 0.0, "bike_id": "789bfdaf8aa933cf85604947e4695577", "rental_uris": {"ios": "https://dc.lft.to/lastmile_qr_scan", "android": "https://dc.lft.to/lastmile_qr_scan"}}, {"name": "fce3762fffa75ccca1656ba646398114", "type": "electric_scooter", "lat": 38.89053083333334, "is_reserved": 0, "lon": -76.98229166666667, "fusion_lon": 0.0, "is_disabled": 0, "fusion_lat": 0.0, "bike_id": "fce3762fffa75ccca1656ba646398114", "rental_uris": {"ios": "https://dc.lft.to/lastmile_qr_scan", "android": "https://dc.lft.to/lastmile_qr_scan"}}, {"name": "729f761e1cc6d00fb6d670f4a05348f2", "type": "electric_scooter", "lat": 38.925105, "is_reserved": 0, "lon": -77.019337, "fusion_lon": 0.0, "is_disabled": 0, "fusion_lat": 0.0, "bike_id": "729f761e1cc6d00fb6d670f4a05348f2", "rental_uris": {"ios": "https://dc.lft.to/lastmile_qr_scan", "android": "https://dc.lft.to/lastmile_qr_scan"}}, {"name": "5b90730b8542583f3963dbc2dd89baf8", "type": "electric_scooter", "lat": 38.865256333333335, "is_reserved": 0, "lon": -76.99032366666667, "fusion_lon": 0.0, "is_disabled": 0, "fusion_lat": 0.0, "bike_id": "5b90730b8542583f3963dbc2dd89baf8", "rental_uris": {"ios": "https://dc.lft.to/lastmile_qr_scan", "android": "https://dc.lft.to/lastmile_qr_scan"}}, {"name": "4bbabbbc689535409c0faa8da7798bb0", "type": "electric_scooter", "lat": 38.863740666666665, "is_reserved": 0, "lon": -76.99060233333333, "fusion_lon": 0.0, "is_disabled": 0, "fusion_lat": 0.0, "bike_id": "4bbabbbc689535409c0faa8da7798bb0", "rental_uris": {"ios": "https://dc.lft.to/lastmile_qr_scan", "android": "https://dc.lft.to/lastmile_qr_scan"}}, {"name": "24b3a76d9cd7d932bc81ae2f8b9775d1", "type": "electric_scooter", "lat": 38.91264, "is_reserved": 0, "lon": -77.038988, "fusion_lon": 0.0, "is_disabled": 0, "fusion_lat": 0.0, "bike_id": "24b3a76d9cd7d932bc81ae2f8b9775d1", "rental_uris": {"ios": "https://dc.lft.to/lastmile_qr_scan", "android": "https://dc.lft.to/lastmile_qr_scan"}}, {"name": "a9e129368e58d4e4b466403ac2923910", "type": "electric_scooter", "lat": 38.866599666666666, "is_reserved": 0, "lon": -76.98887283333333, "fusion_lon": 0.0, "is_disabled": 0, "fusion_lat": 0.0, "bike_id": "a9e129368e58d4e4b466403ac2923910", "rental_uris": {"ios": "https://dc.lft.to/lastmile_qr_scan", "android": "https://dc.lft.to/lastmile_qr_scan"}}, {"name": "f117e7c7a0bd11c790713f6720bb53b8", "type": "electric_scooter", "lat": 38.8938045, "is_reserved": 0, "lon": -77.029746, "fusion_lon": 0.0, "is_disabled": 0, "fusion_lat": 0.0, "bike_id": "f117e7c7a0bd11c790713f6720bb53b8", "rental_uris": {"ios": "https://dc.lft.to/lastmile_qr_scan", "android": "https://dc.lft.to/lastmile_qr_scan"}}, {"name": "06ea2d5cc3f4e32b92a883c7bf48cf67", "type": "electric_scooter", "lat": 38.911215, "is_reserved": 0, "lon": -77.03847666666667, "fusion_lon": 0.0, "is_disabled": 0, "fusion_lat": 0.0, "bike_id": "06ea2d5cc3f4e32b92a883c7bf48cf67", "rental_uris": {"ios": "https://dc.lft.to/lastmile_qr_scan", "android": "https://dc.lft.to/lastmile_qr_scan"}}, {"name": "c0121e1c2e5534cacc0d79df3dcd2d79", "type": "electric_scooter", "lat": 38.92149283333333, "is_reserved": 0, "lon": -77.03385966666667, "fusion_lon": 0.0, "is_disabled": 0, "fusion_lat": 0.0, "bike_id": "c0121e1c2e5534cacc0d79df3dcd2d79", "rental_uris": {"ios": "https://dc.lft.to/lastmile_qr_scan", "android": "https://dc.lft.to/lastmile_qr_scan"}}, {"name": "e98474865504e95b8a3a34de7ea98661", "type": "electric_bike", "lat": 38.9525905, "is_reserved": 0, "lon": -77.06995016666667, "fusion_lon": 0.0, "is_disabled": 0, "fusion_lat": 0.0, "bike_id": "e98474865504e95b8a3a34de7ea98661", "rental_uris": {"ios": "https://dc.lft.to/lastmile_qr_scan", "android": "https://dc.lft.to/lastmile_qr_scan"}}, {"name": "d3c4d9601834911d13c1210aafdc83e0", "type": "electric_scooter", "lat": 38.91108783333333, "is_reserved": 0, "lon": -77.01387783333334, "fusion_lon": 0.0, "is_disabled": 0, "fusion_lat": 0.0, "bike_id": "d3c4d9601834911d13c1210aafdc83e0", "rental_uris": {"ios": "https://dc.lft.to/lastmile_qr_scan", "android": "https://dc.lft.to/lastmile_qr_scan"}}, {"name": "10f8f53ed1bcec675875923e9095b11a", "type": "electric_scooter", "lat": 38.911156166666665, "is_reserved": 0, "lon": -77.034712, "fusion_lon": 0.0, "is_disabled": 0, "fusion_lat": 0.0, "bike_id": "10f8f53ed1bcec675875923e9095b11a", "rental_uris": {"ios": "https://dc.lft.to/lastmile_qr_scan", "android": "https://dc.lft.to/lastmile_qr_scan"}}, {"name": "59f79f36e26e260c545150c6b914b94a", "type": "electric_scooter", "lat": 38.895643, "is_reserved": 0, "lon": -77.02187516666666, "fusion_lon": 0.0, "is_disabled": 0, "fusion_lat": 0.0, "bike_id": "59f79f36e26e260c545150c6b914b94a", "rental_uris": {"ios": "https://dc.lft.to/lastmile_qr_scan", "android": "https://dc.lft.to/lastmile_qr_scan"}}, {"name": "e9ffa162b0b10d13238993fb6112e6e1", "type": "electric_scooter", "lat": 38.929702, "is_reserved": 0, "lon": -77.02342833333333, "fusion_lon": 0.0, "is_disabled": 0, "fusion_lat": 0.0, "bike_id": "e9ffa162b0b10d13238993fb6112e6e1", "rental_uris": {"ios": "https://dc.lft.to/lastmile_qr_scan", "android": "https://dc.lft.to/lastmile_qr_scan"}}, {"name": "9303bf2ccbcbed707c375d3d1448ab28", "type": "electric_scooter", "lat": 38.92933016666667, "is_reserved": 0, "lon": -77.02343266666666, "fusion_lon": 0.0, "is_disabled": 0, "fusion_lat": 0.0, "bike_id": "9303bf2ccbcbed707c375d3d1448ab28", "rental_uris": {"ios": "https://dc.lft.to/lastmile_qr_scan", "android": "https://dc.lft.to/lastmile_qr_scan"}}, {"name": "07e5c94267dcd0d3f93a7afcd7b561ab", "type": "electric_scooter", "lat": 38.9072915, "is_reserved": 0, "lon": -77.0248755, "fusion_lon": 0.0, "is_disabled": 0, "fusion_lat": 0.0, "bike_id": "07e5c94267dcd0d3f93a7afcd7b561ab", "rental_uris": {"ios": "https://dc.lft.to/lastmile_qr_scan", "android": "https://dc.lft.to/lastmile_qr_scan"}}, {"name": "fe889d2832090c7306d71e52d17c9dd4", "type": "electric_scooter", "lat": 38.903324, "is_reserved": 0, "lon": -76.9897695, "fusion_lon": 0.0, "is_disabled": 0, "fusion_lat": 0.0, "bike_id": "fe889d2832090c7306d71e52d17c9dd4", "rental_uris": {"ios": "https://dc.lft.to/lastmile_qr_scan", "android": "https://dc.lft.to/lastmile_qr_scan"}}, {"name": "bab07179264b1579122c9c1b83b3db06", "type": "electric_scooter", "lat": 38.91117883333333, "is_reserved": 0, "lon": -77.01819766666667, "fusion_lon": 0.0, "is_disabled": 0, "fusion_lat": 0.0, "bike_id": "bab07179264b1579122c9c1b83b3db06", "rental_uris": {"ios": "https://dc.lft.to/lastmile_qr_scan", "android": "https://dc.lft.to/lastmile_qr_scan"}}, {"name": "51d5720a42456d0a56c1e386ec515c1d", "type": "electric_scooter", "lat": 38.907189833333334, "is_reserved": 0, "lon": -77.0114445, "fusion_lon": 0.0, "is_disabled": 0, "fusion_lat": 0.0, "bike_id": "51d5720a42456d0a56c1e386ec515c1d", "rental_uris": {"ios": "https://dc.lft.to/lastmile_qr_scan", "android": "https://dc.lft.to/lastmile_qr_scan"}}, {"name": "f627041d160b6cc632c53a8ebc1842be", "type": "electric_scooter", "lat": 38.88222316666667, "is_reserved": 0, "lon": -76.94186816666667, "fusion_lon": 0.0, "is_disabled": 0, "fusion_lat": 0.0, "bike_id": "f627041d160b6cc632c53a8ebc1842be", "rental_uris": {"ios": "https://dc.lft.to/lastmile_qr_scan", "android": "https://dc.lft.to/lastmile_qr_scan"}}, {"name": "f0f316fcc3109d2786cb373d98a96099", "type": "electric_bike", "lat": 39.03041183333333, "is_reserved": 0, "lon": -77.09479716666667, "fusion_lon": 0.0, "is_disabled": 0, "fusion_lat": 0.0, "bike_id": "f0f316fcc3109d2786cb373d98a96099", "rental_uris": {"ios": "https://dc.lft.to/lastmile_qr_scan", "android": "https://dc.lft.to/lastmile_qr_scan"}}, {"name": "adfe00c4302cca0fee161f584efb0678", "type": "electric_scooter", "lat": 38.916787666666664, "is_reserved": 0, "lon": -77.03642833333333, "fusion_lon": 0.0, "is_disabled": 0, "fusion_lat": 0.0, "bike_id": "adfe00c4302cca0fee161f584efb0678", "rental_uris": {"ios": "https://dc.lft.to/lastmile_qr_scan", "android": "https://dc.lft.to/lastmile_qr_scan"}}, {"name": "5b6e31c6c6d0bf203e080bb809685e44", "type": "electric_bike", "lat": 38.9708335, "is_reserved": 0, "lon": -76.93614016666666, "fusion_lon": 0.0, "is_disabled": 0, "fusion_lat": 0.0, "bike_id": "5b6e31c6c6d0bf203e080bb809685e44", "rental_uris": {"ios": "https://dc.lft.to/lastmile_qr_scan", "android": "https://dc.lft.to/lastmile_qr_scan"}}, {"name": "73f3f6df2670b94ffa39181da6cbda7d", "type": "electric_scooter", "lat": 38.937168666666665, "is_reserved": 0, "lon": -77.0365205, "fusion_lon": 0.0, "is_disabled": 0, "fusion_lat": 0.0, "bike_id": "73f3f6df2670b94ffa39181da6cbda7d", "rental_uris": {"ios": "https://dc.lft.to/lastmile_qr_scan", "android": "https://dc.lft.to/lastmile_qr_scan"}}, {"name": "07686a4419c2b935826cf7c0a0d7dff8", "type": "electric_bike", "lat": 38.913581666666666, "is_reserved": 0, "lon": -77.02875333333333, "fusion_lon": 0.0, "is_disabled": 0, "fusion_lat": 0.0, "bike_id": "07686a4419c2b935826cf7c0a0d7dff8", "rental_uris": {"ios": "https://dc.lft.to/lastmile_qr_scan", "android": "https://dc.lft.to/lastmile_qr_scan"}}, {"name": "a6adab1093ede34a6b126369441436b7", "type": "electric_scooter", "lat": 38.918121166666666, "is_reserved": 0, "lon": -77.03021883333334, "fusion_lon": 0.0, "is_disabled": 0, "fusion_lat": 0.0, "bike_id": "a6adab1093ede34a6b126369441436b7", "rental_uris": {"ios": "https://dc.lft.to/lastmile_qr_scan", "android": "https://dc.lft.to/lastmile_qr_scan"}}, {"name": "91ffd9af3159bfa4fd8bfcca2972514a", "type": "electric_scooter", "lat": 38.904372333333335, "is_reserved": 0, "lon": -77.02838216666666, "fusion_lon": 0.0, "is_disabled": 0, "fusion_lat": 0.0, "bike_id": "91ffd9af3159bfa4fd8bfcca2972514a", "rental_uris": {"ios": "https://dc.lft.to/lastmile_qr_scan", "android": "https://dc.lft.to/lastmile_qr_scan"}}, {"name": "e45d50a3ee1ebcf2fbba994e06ab811f", "type": "electric_scooter", "lat": 38.92316833333334, "is_reserved": 0, "lon": -77.02974783333333, "fusion_lon": 0.0, "is_disabled": 0, "fusion_lat": 0.0, "bike_id": "e45d50a3ee1ebcf2fbba994e06ab811f", "rental_uris": {"ios": "https://dc.lft.to/lastmile_qr_scan", "android": "https://dc.lft.to/lastmile_qr_scan"}}, {"name": "bd5b943c780a5799b7c152ae91a7c101", "type": "electric_scooter", "lat": 38.905455333333336, "is_reserved": 0, "lon": -77.0518765, "fusion_lon": 0.0, "is_disabled": 0, "fusion_lat": 0.0, "bike_id": "bd5b943c780a5799b7c152ae91a7c101", "rental_uris": {"ios": "https://dc.lft.to/lastmile_qr_scan", "android": "https://dc.lft.to/lastmile_qr_scan"}}, {"name": "aeb167f13b4b5a01009f89a13ef0b5a8", "type": "electric_scooter", "lat": 38.91846683333333, "is_reserved": 0, "lon": -77.06145016666666, "fusion_lon": 0.0, "is_disabled": 0, "fusion_lat": 0.0, "bike_id": "aeb167f13b4b5a01009f89a13ef0b5a8", "rental_uris": {"ios": "https://dc.lft.to/lastmile_qr_scan", "android": "https://dc.lft.to/lastmile_qr_scan"}}, {"name": "9c0a36610b6aa87415b8bc3ffb323b83", "type": "electric_scooter", "lat": 38.90591366666666, "is_reserved": 0, "lon": -77.01615216666667, "fusion_lon": 0.0, "is_disabled": 0, "fusion_lat": 0.0, "bike_id": "9c0a36610b6aa87415b8bc3ffb323b83", "rental_uris": {"ios": "https://dc.lft.to/lastmile_qr_scan", "android": "https://dc.lft.to/lastmile_qr_scan"}}, {"name": "f757d430243614394c1976bafecbc22a", "type": "electric_scooter", "lat": 38.91552516666667, "is_reserved": 0, "lon": -77.02045133333333, "fusion_lon": 0.0, "is_disabled": 0, "fusion_lat": 0.0, "bike_id": "f757d430243614394c1976bafecbc22a", "rental_uris": {"ios": "https://dc.lft.to/lastmile_qr_scan", "android": "https://dc.lft.to/lastmile_qr_scan"}}, {"name": "0ed29b9d727e0e3a4d9c28b4a2aedde4", "type": "electric_scooter", "lat": 38.91457916666667, "is_reserved": 0, "lon": -77.03872533333333, "fusion_lon": 0.0, "is_disabled": 0, "fusion_lat": 0.0, "bike_id": "0ed29b9d727e0e3a4d9c28b4a2aedde4", "rental_uris": {"ios": "https://dc.lft.to/lastmile_qr_scan", "android": "https://dc.lft.to/lastmile_qr_scan"}}, {"name": "fcc7d6aa25695359111c90eb399fd01a", "type": "electric_scooter", "lat": 38.93227683333333, "is_reserved": 0, "lon": -77.03813016666666, "fusion_lon": 0.0, "is_disabled": 0, "fusion_lat": 0.0, "bike_id": "fcc7d6aa25695359111c90eb399fd01a", "rental_uris": {"ios": "https://dc.lft.to/lastmile_qr_scan", "android": "https://dc.lft.to/lastmile_qr_scan"}}, {"name": "c1eb5b45c6bdb68f61dcb3610b1ad8f3", "type": "electric_scooter", "lat": 38.90253516666667, "is_reserved": 0, "lon": -77.03394533333334, "fusion_lon": 0.0, "is_disabled": 0, "fusion_lat": 0.0, "bike_id": "c1eb5b45c6bdb68f61dcb3610b1ad8f3", "rental_uris": {"ios": "https://dc.lft.to/lastmile_qr_scan", "android": "https://dc.lft.to/lastmile_qr_scan"}}, {"name": "e8e520cc3c0cc20a13a28731e1b28b02", "type": "electric_bike", "lat": 38.880402833333335, "is_reserved": 0, "lon": -77.01322766666667, "fusion_lon": 0.0, "is_disabled": 0, "fusion_lat": 0.0, "bike_id": "e8e520cc3c0cc20a13a28731e1b28b02", "rental_uris": {"ios": "https://dc.lft.to/lastmile_qr_scan", "android": "https://dc.lft.to/lastmile_qr_scan"}}, {"name": "4bef4b8a6c97afe412790bb545fb1b58", "type": "electric_scooter", "lat": 38.914794666666666, "is_reserved": 0, "lon": -77.03933533333333, "fusion_lon": 0.0, "is_disabled": 0, "fusion_lat": 0.0, "bike_id": "4bef4b8a6c97afe412790bb545fb1b58", "rental_uris": {"ios": "https://dc.lft.to/lastmile_qr_scan", "android": "https://dc.lft.to/lastmile_qr_scan"}}, {"name": "200cb30152221160ccd51e27a8c768b9", "type": "electric_scooter", "lat": 38.939834166666664, "is_reserved": 0, "lon": -77.02595216666667, "fusion_lon": 0.0, "is_disabled": 0, "fusion_lat": 0.0, "bike_id": "200cb30152221160ccd51e27a8c768b9", "rental_uris": {"ios": "https://dc.lft.to/lastmile_qr_scan", "android": "https://dc.lft.to/lastmile_qr_scan"}}, {"name": "60d0ceccaffdbe56497e49fbe24102fd", "type": "electric_scooter", "lat": 38.911083166666664, "is_reserved": 0, "lon": -77.03477383333333, "fusion_lon": 0.0, "is_disabled": 0, "fusion_lat": 0.0, "bike_id": "60d0ceccaffdbe56497e49fbe24102fd", "rental_uris": {"ios": "https://dc.lft.to/lastmile_qr_scan", "android": "https://dc.lft.to/lastmile_qr_scan"}}, {"name": "a5466bfc3cd613aa6029568ef9b94874", "type": "electric_scooter", "lat": 38.92243283333333, "is_reserved": 0, "lon": -77.04257366666667, "fusion_lon": 0.0, "is_disabled": 0, "fusion_lat": 0.0, "bike_id": "a5466bfc3cd613aa6029568ef9b94874", "rental_uris": {"ios": "https://dc.lft.to/lastmile_qr_scan", "android": "https://dc.lft.to/lastmile_qr_scan"}}, {"name": "3795c28817a8d49f6a74cb8ebe70ea0e", "type": "electric_scooter", "lat": 38.892215, "is_reserved": 0, "lon": -77.04260833333333, "fusion_lon": 0.0, "is_disabled": 0, "fusion_lat": 0.0, "bike_id": "3795c28817a8d49f6a74cb8ebe70ea0e", "rental_uris": {"ios": "https://dc.lft.to/lastmile_qr_scan", "android": "https://dc.lft.to/lastmile_qr_scan"}}, {"name": "7d6b2d9bb98525b549df6669d9b0f7f6", "type": "electric_scooter", "lat": 38.925606, "is_reserved": 0, "lon": -77.06286966666667, "fusion_lon": 0.0, "is_disabled": 0, "fusion_lat": 0.0, "bike_id": "7d6b2d9bb98525b549df6669d9b0f7f6", "rental_uris": {"ios": "https://dc.lft.to/lastmile_qr_scan", "android": "https://dc.lft.to/lastmile_qr_scan"}}, {"name": "26055cf0b00e3b3983fc3c63ffd567c1", "type": "electric_scooter", "lat": 38.90163916666667, "is_reserved": 0, "lon": -77.02935966666666, "fusion_lon": 0.0, "is_disabled": 0, "fusion_lat": 0.0, "bike_id": "26055cf0b00e3b3983fc3c63ffd567c1", "rental_uris": {"ios": "https://dc.lft.to/lastmile_qr_scan", "android": "https://dc.lft.to/lastmile_qr_scan"}}, {"name": "8baddb074b8be222ead50ad8b5b2e186", "type": "electric_scooter", "lat": 38.930599, "is_reserved": 0, "lon": -77.02320966666667, "fusion_lon": 0.0, "is_disabled": 0, "fusion_lat": 0.0, "bike_id": "8baddb074b8be222ead50ad8b5b2e186", "rental_uris": {"ios": "https://dc.lft.to/lastmile_qr_scan", "android": "https://dc.lft.to/lastmile_qr_scan"}}, {"name": "d148b1faadb0181e1585804faff00d00", "type": "electric_scooter", "lat": 38.91257483333333, "is_reserved": 0, "lon": -77.00763083333334, "fusion_lon": 0.0, "is_disabled": 0, "fusion_lat": 0.0, "bike_id": "d148b1faadb0181e1585804faff00d00", "rental_uris": {"ios": "https://dc.lft.to/lastmile_qr_scan", "android": "https://dc.lft.to/lastmile_qr_scan"}}, {"name": "bdff3a935d3db6f7d95fa67047d5e560", "type": "electric_scooter", "lat": 38.922251, "is_reserved": 0, "lon": -77.0423525, "fusion_lon": 0.0, "is_disabled": 0, "fusion_lat": 0.0, "bike_id": "bdff3a935d3db6f7d95fa67047d5e560", "rental_uris": {"ios": "https://dc.lft.to/lastmile_qr_scan", "android": "https://dc.lft.to/lastmile_qr_scan"}}, {"name": "4cccf6c99655fed15205305934340342", "type": "electric_bike", "lat": 38.92854966666667, "is_reserved": 0, "lon": -77.106761, "fusion_lon": 0.0, "is_disabled": 0, "fusion_lat": 0.0, "bike_id": "4cccf6c99655fed15205305934340342", "rental_uris": {"ios": "https://dc.lft.to/lastmile_qr_scan", "android": "https://dc.lft.to/lastmile_qr_scan"}}, {"name": "4a4afddec52990036e6757a1e92338fa", "type": "electric_scooter", "lat": 38.89485633333334, "is_reserved": 0, "lon": -77.01092933333334, "fusion_lon": 0.0, "is_disabled": 0, "fusion_lat": 0.0, "bike_id": "4a4afddec52990036e6757a1e92338fa", "rental_uris": {"ios": "https://dc.lft.to/lastmile_qr_scan", "android": "https://dc.lft.to/lastmile_qr_scan"}}, {"name": "c947f871f58de3adbaf60a6d5591a97a", "type": "electric_scooter", "lat": 38.912729, "is_reserved": 0, "lon": -77.03531966666667, "fusion_lon": 0.0, "is_disabled": 0, "fusion_lat": 0.0, "bike_id": "c947f871f58de3adbaf60a6d5591a97a", "rental_uris": {"ios": "https://dc.lft.to/lastmile_qr_scan", "android": "https://dc.lft.to/lastmile_qr_scan"}}, {"name": "cf76bc13c9d071613e50237d1184f12d", "type": "electric_scooter", "lat": 38.883546833333334, "is_reserved": 0, "lon": -76.94934766666667, "fusion_lon": 0.0, "is_disabled": 0, "fusion_lat": 0.0, "bike_id": "cf76bc13c9d071613e50237d1184f12d", "rental_uris": {"ios": "https://dc.lft.to/lastmile_qr_scan", "android": "https://dc.lft.to/lastmile_qr_scan"}}, {"name": "4f2297faf79c1d5d9bd42c90414c999a", "type": "electric_scooter", "lat": 38.8637455, "is_reserved": 0, "lon": -77.01361216666666, "fusion_lon": 0.0, "is_disabled": 0, "fusion_lat": 0.0, "bike_id": "4f2297faf79c1d5d9bd42c90414c999a", "rental_uris": {"ios": "https://dc.lft.to/lastmile_qr_scan", "android": "https://dc.lft.to/lastmile_qr_scan"}}, {"name": "db0ba725eddf7c993f6bdbbaeb40a277", "type": "electric_scooter", "lat": 38.9216775, "is_reserved": 0, "lon": -77.04031383333333, "fusion_lon": 0.0, "is_disabled": 0, "fusion_lat": 0.0, "bike_id": "db0ba725eddf7c993f6bdbbaeb40a277", "rental_uris": {"ios": "https://dc.lft.to/lastmile_qr_scan", "android": "https://dc.lft.to/lastmile_qr_scan"}}, {"name": "3cc9bcbd8a6a6bd850360344d242ab47", "type": "electric_scooter", "lat": 38.89223533333333, "is_reserved": 0, "lon": -77.04642383333334, "fusion_lon": 0.0, "is_disabled": 0, "fusion_lat": 0.0, "bike_id": "3cc9bcbd8a6a6bd850360344d242ab47", "rental_uris": {"ios": "https://dc.lft.to/lastmile_qr_scan", "android": "https://dc.lft.to/lastmile_qr_scan"}}, {"name": "8ab172f924d61e39d3996f7ea5b4a2f3", "type": "electric_scooter", "lat": 38.919137166666665, "is_reserved": 0, "lon": -77.03635533333333, "fusion_lon": 0.0, "is_disabled": 0, "fusion_lat": 0.0, "bike_id": "8ab172f924d61e39d3996f7ea5b4a2f3", "rental_uris": {"ios": "https://dc.lft.to/lastmile_qr_scan", "android": "https://dc.lft.to/lastmile_qr_scan"}}, {"name": "2f280636b1cac70603b4652bf2635207", "type": "electric_scooter", "lat": 38.933653, "is_reserved": 0, "lon": -77.05728383333333, "fusion_lon": 0.0, "is_disabled": 0, "fusion_lat": 0.0, "bike_id": "2f280636b1cac70603b4652bf2635207", "rental_uris": {"ios": "https://dc.lft.to/lastmile_qr_scan", "android": "https://dc.lft.to/lastmile_qr_scan"}}, {"name": "eb6c5aed2505831f48e16ec3fe256195", "type": "electric_scooter", "lat": 38.90468116666667, "is_reserved": 0, "lon": -77.041802, "fusion_lon": 0.0, "is_disabled": 0, "fusion_lat": 0.0, "bike_id": "eb6c5aed2505831f48e16ec3fe256195", "rental_uris": {"ios": "https://dc.lft.to/lastmile_qr_scan", "android": "https://dc.lft.to/lastmile_qr_scan"}}, {"name": "19739998d88cb66a8b7be4a4eb81faf1", "type": "electric_scooter", "lat": 38.9074645, "is_reserved": 0, "lon": -77.02398433333333, "fusion_lon": 0.0, "is_disabled": 0, "fusion_lat": 0.0, "bike_id": "19739998d88cb66a8b7be4a4eb81faf1", "rental_uris": {"ios": "https://dc.lft.to/lastmile_qr_scan", "android": "https://dc.lft.to/lastmile_qr_scan"}}, {"name": "3c949818118ec96b1137c06e03ecad51", "type": "electric_scooter", "lat": 38.897573, "is_reserved": 0, "lon": -77.0292285, "fusion_lon": 0.0, "is_disabled": 0, "fusion_lat": 0.0, "bike_id": "3c949818118ec96b1137c06e03ecad51", "rental_uris": {"ios": "https://dc.lft.to/lastmile_qr_scan", "android": "https://dc.lft.to/lastmile_qr_scan"}}, {"name": "cf446fe407db641750d77af4c2c627cf", "type": "electric_scooter", "lat": 38.91152316666667, "is_reserved": 0, "lon": -77.02692566666667, "fusion_lon": 0.0, "is_disabled": 0, "fusion_lat": 0.0, "bike_id": "cf446fe407db641750d77af4c2c627cf", "rental_uris": {"ios": "https://dc.lft.to/lastmile_qr_scan", "android": "https://dc.lft.to/lastmile_qr_scan"}}, {"name": "2cc10519b5896b2adc3b4c3dd51737e1", "type": "electric_scooter", "lat": 38.9180015, "is_reserved": 0, "lon": -77.027105, "fusion_lon": 0.0, "is_disabled": 0, "fusion_lat": 0.0, "bike_id": "2cc10519b5896b2adc3b4c3dd51737e1", "rental_uris": {"ios": "https://dc.lft.to/lastmile_qr_scan", "android": "https://dc.lft.to/lastmile_qr_scan"}}, {"name": "57cd2155a680b34e7f2d8f1d70f64246", "type": "electric_scooter", "lat": 38.90587516666667, "is_reserved": 0, "lon": -77.06291416666667, "fusion_lon": 0.0, "is_disabled": 0, "fusion_lat": 0.0, "bike_id": "57cd2155a680b34e7f2d8f1d70f64246", "rental_uris": {"ios": "https://dc.lft.to/lastmile_qr_scan", "android": "https://dc.lft.to/lastmile_qr_scan"}}, {"name": "f29aaa1309c743b943849c0e27cffd49", "type": "electric_scooter", "lat": 38.909734666666665, "is_reserved": 0, "lon": -77.04547016666666, "fusion_lon": 0.0, "is_disabled": 0, "fusion_lat": 0.0, "bike_id": "f29aaa1309c743b943849c0e27cffd49", "rental_uris": {"ios": "https://dc.lft.to/lastmile_qr_scan", "android": "https://dc.lft.to/lastmile_qr_scan"}}, {"name": "110902d93097a616e502630fd6fde25d", "type": "electric_bike", "lat": 38.954777166666666, "is_reserved": 0, "lon": -77.08241083333333, "fusion_lon": 0.0, "is_disabled": 0, "fusion_lat": 0.0, "bike_id": "110902d93097a616e502630fd6fde25d", "rental_uris": {"ios": "https://dc.lft.to/lastmile_qr_scan", "android": "https://dc.lft.to/lastmile_qr_scan"}}, {"name": "b8615f282d5b65b8daef5e43db103f88", "type": "electric_scooter", "lat": 38.92422233333333, "is_reserved": 0, "lon": -77.01946833333334, "fusion_lon": 0.0, "is_disabled": 0, "fusion_lat": 0.0, "bike_id": "b8615f282d5b65b8daef5e43db103f88", "rental_uris": {"ios": "https://dc.lft.to/lastmile_qr_scan", "android": "https://dc.lft.to/lastmile_qr_scan"}}, {"name": "8b96305040297fda4a61c2bdb766f419", "type": "electric_scooter", "lat": 38.86353283333333, "is_reserved": 0, "lon": -76.99072433333333, "fusion_lon": 0.0, "is_disabled": 0, "fusion_lat": 0.0, "bike_id": "8b96305040297fda4a61c2bdb766f419", "rental_uris": {"ios": "https://dc.lft.to/lastmile_qr_scan", "android": "https://dc.lft.to/lastmile_qr_scan"}}, {"name": "f9ba18871892d21252967c821f3dc350", "type": "electric_scooter", "lat": 38.928769333333335, "is_reserved": 0, "lon": -77.04125083333334, "fusion_lon": 0.0, "is_disabled": 0, "fusion_lat": 0.0, "bike_id": "f9ba18871892d21252967c821f3dc350", "rental_uris": {"ios": "https://dc.lft.to/lastmile_qr_scan", "android": "https://dc.lft.to/lastmile_qr_scan"}}, {"name": "c1c73997d9ce7dba710ad2f4d8f4a8c6", "type": "electric_scooter", "lat": 38.9236215, "is_reserved": 0, "lon": -77.05044916666667, "fusion_lon": 0.0, "is_disabled": 0, "fusion_lat": 0.0, "bike_id": "c1c73997d9ce7dba710ad2f4d8f4a8c6", "rental_uris": {"ios": "https://dc.lft.to/lastmile_qr_scan", "android": "https://dc.lft.to/lastmile_qr_scan"}}, {"name": "604539a83bba4b14cb7ed07ea2281a0e", "type": "electric_scooter", "lat": 38.924285833333336, "is_reserved": 0, "lon": -77.0401165, "fusion_lon": 0.0, "is_disabled": 0, "fusion_lat": 0.0, "bike_id": "604539a83bba4b14cb7ed07ea2281a0e", "rental_uris": {"ios": "https://dc.lft.to/lastmile_qr_scan", "android": "https://dc.lft.to/lastmile_qr_scan"}}, {"name": "b3df2a4bdb66fd038d3aa363266eaf36", "type": "electric_scooter", "lat": 38.938429666666664, "is_reserved": 0, "lon": -77.02479, "fusion_lon": 0.0, "is_disabled": 0, "fusion_lat": 0.0, "bike_id": "b3df2a4bdb66fd038d3aa363266eaf36", "rental_uris": {"ios": "https://dc.lft.to/lastmile_qr_scan", "android": "https://dc.lft.to/lastmile_qr_scan"}}, {"name": "0bfb0f7c6574ad839d37b47759ada714", "type": "electric_bike", "lat": 38.990642333333334, "is_reserved": 0, "lon": -77.1002615, "fusion_lon": 0.0, "is_disabled": 0, "fusion_lat": 0.0, "bike_id": "0bfb0f7c6574ad839d37b47759ada714", "rental_uris": {"ios": "https://dc.lft.to/lastmile_qr_scan", "android": "https://dc.lft.to/lastmile_qr_scan"}}, {"name": "5d986760dc3edc7da9453c9781ecb9b6", "type": "electric_scooter", "lat": 38.90272783333333, "is_reserved": 0, "lon": -77.01752233333333, "fusion_lon": 0.0, "is_disabled": 0, "fusion_lat": 0.0, "bike_id": "5d986760dc3edc7da9453c9781ecb9b6", "rental_uris": {"ios": "https://dc.lft.to/lastmile_qr_scan", "android": "https://dc.lft.to/lastmile_qr_scan"}}, {"name": "26a25b9a5a40c3f752d5f0e4bfbc947c", "type": "electric_scooter", "lat": 38.939488833333336, "is_reserved": 0, "lon": -77.0326655, "fusion_lon": 0.0, "is_disabled": 0, "fusion_lat": 0.0, "bike_id": "26a25b9a5a40c3f752d5f0e4bfbc947c", "rental_uris": {"ios": "https://dc.lft.to/lastmile_qr_scan", "android": "https://dc.lft.to/lastmile_qr_scan"}}, {"name": "72224da57d3551f3f3247f540510bd13", "type": "electric_scooter", "lat": 38.8764975, "is_reserved": 0, "lon": -76.96508216666666, "fusion_lon": 0.0, "is_disabled": 0, "fusion_lat": 0.0, "bike_id": "72224da57d3551f3f3247f540510bd13", "rental_uris": {"ios": "https://dc.lft.to/lastmile_qr_scan", "android": "https://dc.lft.to/lastmile_qr_scan"}}, {"name": "75775ad863f576e444461a3ae4f675b0", "type": "electric_scooter", "lat": 38.917962333333335, "is_reserved": 0, "lon": -77.02715116666667, "fusion_lon": 0.0, "is_disabled": 0, "fusion_lat": 0.0, "bike_id": "75775ad863f576e444461a3ae4f675b0", "rental_uris": {"ios": "https://dc.lft.to/lastmile_qr_scan", "android": "https://dc.lft.to/lastmile_qr_scan"}}, {"name": "fd3a45147becdb54f0d1d3bb5e97e8d7", "type": "electric_scooter", "lat": 38.94077516666667, "is_reserved": 0, "lon": -77.027003, "fusion_lon": 0.0, "is_disabled": 0, "fusion_lat": 0.0, "bike_id": "fd3a45147becdb54f0d1d3bb5e97e8d7", "rental_uris": {"ios": "https://dc.lft.to/lastmile_qr_scan", "android": "https://dc.lft.to/lastmile_qr_scan"}}, {"name": "e257b23d82778ebea11af26ab2471ca2", "type": "electric_scooter", "lat": 38.91113133333333, "is_reserved": 0, "lon": -77.0371105, "fusion_lon": 0.0, "is_disabled": 0, "fusion_lat": 0.0, "bike_id": "e257b23d82778ebea11af26ab2471ca2", "rental_uris": {"ios": "https://dc.lft.to/lastmile_qr_scan", "android": "https://dc.lft.to/lastmile_qr_scan"}}, {"name": "e2f9fff5a1787c652d76fd22b10e79ba", "type": "electric_scooter", "lat": 38.90574483333333, "is_reserved": 0, "lon": -77.00604933333334, "fusion_lon": 0.0, "is_disabled": 0, "fusion_lat": 0.0, "bike_id": "e2f9fff5a1787c652d76fd22b10e79ba", "rental_uris": {"ios": "https://dc.lft.to/lastmile_qr_scan", "android": "https://dc.lft.to/lastmile_qr_scan"}}, {"name": "35269cbd9b00870cc2a3e9f683c2639a", "type": "electric_scooter", "lat": 38.881650666666665, "is_reserved": 0, "lon": -77.01752366666666, "fusion_lon": 0.0, "is_disabled": 0, "fusion_lat": 0.0, "bike_id": "35269cbd9b00870cc2a3e9f683c2639a", "rental_uris": {"ios": "https://dc.lft.to/lastmile_qr_scan", "android": "https://dc.lft.to/lastmile_qr_scan"}}, {"name": "eaa166442844e9b496f5e74a96baef9f", "type": "electric_scooter", "lat": 38.937911166666666, "is_reserved": 0, "lon": -77.06002916666667, "fusion_lon": 0.0, "is_disabled": 0, "fusion_lat": 0.0, "bike_id": "eaa166442844e9b496f5e74a96baef9f", "rental_uris": {"ios": "https://dc.lft.to/lastmile_qr_scan", "android": "https://dc.lft.to/lastmile_qr_scan"}}, {"name": "17331be213f42fb85399ec69890ee391", "type": "electric_scooter", "lat": 38.86242566666667, "is_reserved": 0, "lon": -76.99495683333333, "fusion_lon": 0.0, "is_disabled": 0, "fusion_lat": 0.0, "bike_id": "17331be213f42fb85399ec69890ee391", "rental_uris": {"ios": "https://dc.lft.to/lastmile_qr_scan", "android": "https://dc.lft.to/lastmile_qr_scan"}}, {"name": "7617cce2264d4fec8b3ed406369a3411", "type": "electric_scooter", "lat": 38.929473333333334, "is_reserved": 0, "lon": -77.03460816666667, "fusion_lon": 0.0, "is_disabled": 0, "fusion_lat": 0.0, "bike_id": "7617cce2264d4fec8b3ed406369a3411", "rental_uris": {"ios": "https://dc.lft.to/lastmile_qr_scan", "android": "https://dc.lft.to/lastmile_qr_scan"}}, {"name": "fed8376067cac13a0962c301f40a39be", "type": "electric_scooter", "lat": 38.936097833333335, "is_reserved": 0, "lon": -77.05858016666667, "fusion_lon": 0.0, "is_disabled": 0, "fusion_lat": 0.0, "bike_id": "fed8376067cac13a0962c301f40a39be", "rental_uris": {"ios": "https://dc.lft.to/lastmile_qr_scan", "android": "https://dc.lft.to/lastmile_qr_scan"}}, {"name": "dac47a5ccc22b2de37261d195f680aa2", "type": "electric_scooter", "lat": 38.883311, "is_reserved": 0, "lon": -77.01754083333333, "fusion_lon": 0.0, "is_disabled": 0, "fusion_lat": 0.0, "bike_id": "dac47a5ccc22b2de37261d195f680aa2", "rental_uris": {"ios": "https://dc.lft.to/lastmile_qr_scan", "android": "https://dc.lft.to/lastmile_qr_scan"}}, {"name": "319d317e393d4f837ff47d922e3f7689", "type": "electric_scooter", "lat": 38.897321833333336, "is_reserved": 0, "lon": -77.055642, "fusion_lon": 0.0, "is_disabled": 0, "fusion_lat": 0.0, "bike_id": "319d317e393d4f837ff47d922e3f7689", "rental_uris": {"ios": "https://dc.lft.to/lastmile_qr_scan", "android": "https://dc.lft.to/lastmile_qr_scan"}}, {"name": "7095c500cfc5702f4175ebfab30aa7cc", "type": "electric_scooter", "lat": 38.90794133333333, "is_reserved": 0, "lon": -76.99696116666667, "fusion_lon": 0.0, "is_disabled": 0, "fusion_lat": 0.0, "bike_id": "7095c500cfc5702f4175ebfab30aa7cc", "rental_uris": {"ios": "https://dc.lft.to/lastmile_qr_scan", "android": "https://dc.lft.to/lastmile_qr_scan"}}, {"name": "c146f3fb97b1d00cd435bcf63666ec6a", "type": "electric_scooter", "lat": 38.89681916666667, "is_reserved": 0, "lon": -76.9963085, "fusion_lon": 0.0, "is_disabled": 0, "fusion_lat": 0.0, "bike_id": "c146f3fb97b1d00cd435bcf63666ec6a", "rental_uris": {"ios": "https://dc.lft.to/lastmile_qr_scan", "android": "https://dc.lft.to/lastmile_qr_scan"}}, {"name": "98325b5da33ccff3fb8ad390e0aa71a6", "type": "electric_scooter", "lat": 38.93438783333333, "is_reserved": 0, "lon": -77.07252783333334, "fusion_lon": 0.0, "is_disabled": 0, "fusion_lat": 0.0, "bike_id": "98325b5da33ccff3fb8ad390e0aa71a6", "rental_uris": {"ios": "https://dc.lft.to/lastmile_qr_scan", "android": "https://dc.lft.to/lastmile_qr_scan"}}, {"name": "0c82a6753a31ffd12383ff5632200866", "type": "electric_scooter", "lat": 38.914012, "is_reserved": 0, "lon": -77.031878, "fusion_lon": 0.0, "is_disabled": 0, "fusion_lat": 0.0, "bike_id": "0c82a6753a31ffd12383ff5632200866", "rental_uris": {"ios": "https://dc.lft.to/lastmile_qr_scan", "android": "https://dc.lft.to/lastmile_qr_scan"}}, {"name": "620712a66df8dd8fc58d2f75f9fe0f28", "type": "electric_scooter", "lat": 38.9052195, "is_reserved": 0, "lon": -77.065889, "fusion_lon": 0.0, "is_disabled": 0, "fusion_lat": 0.0, "bike_id": "620712a66df8dd8fc58d2f75f9fe0f28", "rental_uris": {"ios": "https://dc.lft.to/lastmile_qr_scan", "android": "https://dc.lft.to/lastmile_qr_scan"}}, {"name": "bf3c83506dd6f1006413be84f4b1e5f4", "type": "electric_scooter", "lat": 38.88287316666667, "is_reserved": 0, "lon": -76.98616683333333, "fusion_lon": 0.0, "is_disabled": 0, "fusion_lat": 0.0, "bike_id": "bf3c83506dd6f1006413be84f4b1e5f4", "rental_uris": {"ios": "https://dc.lft.to/lastmile_qr_scan", "android": "https://dc.lft.to/lastmile_qr_scan"}}, {"name": "5f9b810836483e7e4e7bd8b20addd37a", "type": "electric_scooter", "lat": 38.9058125, "is_reserved": 0, "lon": -77.04874633333333, "fusion_lon": 0.0, "is_disabled": 0, "fusion_lat": 0.0, "bike_id": "5f9b810836483e7e4e7bd8b20addd37a", "rental_uris": {"ios": "https://dc.lft.to/lastmile_qr_scan", "android": "https://dc.lft.to/lastmile_qr_scan"}}, {"name": "c1a51f995966696f5a1d61ddc4dbc98e", "type": "electric_scooter", "lat": 38.91592683333333, "is_reserved": 0, "lon": -77.0425525, "fusion_lon": 0.0, "is_disabled": 0, "fusion_lat": 0.0, "bike_id": "c1a51f995966696f5a1d61ddc4dbc98e", "rental_uris": {"ios": "https://dc.lft.to/lastmile_qr_scan", "android": "https://dc.lft.to/lastmile_qr_scan"}}, {"name": "35d421ea83257a64918b20c9a9a64fa9", "type": "electric_scooter", "lat": 38.932835833333336, "is_reserved": 0, "lon": -77.029652, "fusion_lon": 0.0, "is_disabled": 0, "fusion_lat": 0.0, "bike_id": "35d421ea83257a64918b20c9a9a64fa9", "rental_uris": {"ios": "https://dc.lft.to/lastmile_qr_scan", "android": "https://dc.lft.to/lastmile_qr_scan"}}, {"name": "dec524b929fe54cdb979b7dd6876a048", "type": "electric_scooter", "lat": 38.92830933333333, "is_reserved": 0, "lon": -77.01408733333334, "fusion_lon": 0.0, "is_disabled": 0, "fusion_lat": 0.0, "bike_id": "dec524b929fe54cdb979b7dd6876a048", "rental_uris": {"ios": "https://dc.lft.to/lastmile_qr_scan", "android": "https://dc.lft.to/lastmile_qr_scan"}}, {"name": "07f36646af3d1f518b065cc31eda6b39", "type": "electric_scooter", "lat": 38.900363666666664, "is_reserved": 0, "lon": -77.002156, "fusion_lon": 0.0, "is_disabled": 0, "fusion_lat": 0.0, "bike_id": "07f36646af3d1f518b065cc31eda6b39", "rental_uris": {"ios": "https://dc.lft.to/lastmile_qr_scan", "android": "https://dc.lft.to/lastmile_qr_scan"}}, {"name": "adac86f643a1a96cf7dda6018101035f", "type": "electric_scooter", "lat": 38.86830283333333, "is_reserved": 0, "lon": -76.986142, "fusion_lon": 0.0, "is_disabled": 0, "fusion_lat": 0.0, "bike_id": "adac86f643a1a96cf7dda6018101035f", "rental_uris": {"ios": "https://dc.lft.to/lastmile_qr_scan", "android": "https://dc.lft.to/lastmile_qr_scan"}}, {"name": "2ce881f74d0e62a51ec757ba9cf7861f", "type": "electric_scooter", "lat": 38.89809266666666, "is_reserved": 0, "lon": -77.03269783333333, "fusion_lon": 0.0, "is_disabled": 0, "fusion_lat": 0.0, "bike_id": "2ce881f74d0e62a51ec757ba9cf7861f", "rental_uris": {"ios": "https://dc.lft.to/lastmile_qr_scan", "android": "https://dc.lft.to/lastmile_qr_scan"}}, {"name": "96a3f443442bbe9438357c10aa58ae2a", "type": "electric_scooter", "lat": 38.939652, "is_reserved": 0, "lon": -77.0275005, "fusion_lon": 0.0, "is_disabled": 0, "fusion_lat": 0.0, "bike_id": "96a3f443442bbe9438357c10aa58ae2a", "rental_uris": {"ios": "https://dc.lft.to/lastmile_qr_scan", "android": "https://dc.lft.to/lastmile_qr_scan"}}, {"name": "8d860e229c7bc7632babaa8b5e13159e", "type": "electric_scooter", "lat": 38.9095205, "is_reserved": 0, "lon": -77.04321666666667, "fusion_lon": 0.0, "is_disabled": 0, "fusion_lat": 0.0, "bike_id": "8d860e229c7bc7632babaa8b5e13159e", "rental_uris": {"ios": "https://dc.lft.to/lastmile_qr_scan", "android": "https://dc.lft.to/lastmile_qr_scan"}}, {"name": "9b78af90748c0219e31a383b6506dc52", "type": "electric_bike", "lat": 38.832363666666666, "is_reserved": 0, "lon": -76.94620083333334, "fusion_lon": 0.0, "is_disabled": 0, "fusion_lat": 0.0, "bike_id": "9b78af90748c0219e31a383b6506dc52", "rental_uris": {"ios": "https://dc.lft.to/lastmile_qr_scan", "android": "https://dc.lft.to/lastmile_qr_scan"}}, {"name": "921ad4a4ad980e71f177ad9ce9b705ea", "type": "electric_scooter", "lat": 38.929919166666664, "is_reserved": 0, "lon": -77.07946633333333, "fusion_lon": 0.0, "is_disabled": 0, "fusion_lat": 0.0, "bike_id": "921ad4a4ad980e71f177ad9ce9b705ea", "rental_uris": {"ios": "https://dc.lft.to/lastmile_qr_scan", "android": "https://dc.lft.to/lastmile_qr_scan"}}, {"name": "488c105156db477af162d0dacc066950", "type": "electric_scooter", "lat": 38.93113316666667, "is_reserved": 0, "lon": -77.03812066666667, "fusion_lon": 0.0, "is_disabled": 0, "fusion_lat": 0.0, "bike_id": "488c105156db477af162d0dacc066950", "rental_uris": {"ios": "https://dc.lft.to/lastmile_qr_scan", "android": "https://dc.lft.to/lastmile_qr_scan"}}, {"name": "0675efb43cde60ec2caf3c9941af6dbe", "type": "electric_bike", "lat": 38.871376166666664, "is_reserved": 0, "lon": -76.93728483333334, "fusion_lon": 0.0, "is_disabled": 0, "fusion_lat": 0.0, "bike_id": "0675efb43cde60ec2caf3c9941af6dbe", "rental_uris": {"ios": "https://dc.lft.to/lastmile_qr_scan", "android": "https://dc.lft.to/lastmile_qr_scan"}}, {"name": "f16ba1dc2cf8f0c5eab7b175cf5cc741", "type": "electric_scooter", "lat": 38.905719, "is_reserved": 0, "lon": -77.02953083333334, "fusion_lon": 0.0, "is_disabled": 0, "fusion_lat": 0.0, "bike_id": "f16ba1dc2cf8f0c5eab7b175cf5cc741", "rental_uris": {"ios": "https://dc.lft.to/lastmile_qr_scan", "android": "https://dc.lft.to/lastmile_qr_scan"}}, {"name": "b2c89c9dad353e1febf609f16e51130d", "type": "electric_scooter", "lat": 38.92901066666667, "is_reserved": 0, "lon": -77.01631783333333, "fusion_lon": 0.0, "is_disabled": 0, "fusion_lat": 0.0, "bike_id": "b2c89c9dad353e1febf609f16e51130d", "rental_uris": {"ios": "https://dc.lft.to/lastmile_qr_scan", "android": "https://dc.lft.to/lastmile_qr_scan"}}, {"name": "0b8998dff5573a3b2d4d3ecfbff8ad5a", "type": "electric_scooter", "lat": 38.91208366666667, "is_reserved": 0, "lon": -77.00654916666667, "fusion_lon": 0.0, "is_disabled": 0, "fusion_lat": 0.0, "bike_id": "0b8998dff5573a3b2d4d3ecfbff8ad5a", "rental_uris": {"ios": "https://dc.lft.to/lastmile_qr_scan", "android": "https://dc.lft.to/lastmile_qr_scan"}}, {"name": "9f61398821b6b4209e99551c1a05a3d7", "type": "electric_bike", "lat": 38.94902783333333, "is_reserved": 0, "lon": -76.96372283333334, "fusion_lon": 0.0, "is_disabled": 0, "fusion_lat": 0.0, "bike_id": "9f61398821b6b4209e99551c1a05a3d7", "rental_uris": {"ios": "https://dc.lft.to/lastmile_qr_scan", "android": "https://dc.lft.to/lastmile_qr_scan"}}, {"name": "1aee3e62ef30a81f2e5829521cd42a06", "type": "electric_scooter", "lat": 38.9216855, "is_reserved": 0, "lon": -77.02681166666666, "fusion_lon": 0.0, "is_disabled": 0, "fusion_lat": 0.0, "bike_id": "1aee3e62ef30a81f2e5829521cd42a06", "rental_uris": {"ios": "https://dc.lft.to/lastmile_qr_scan", "android": "https://dc.lft.to/lastmile_qr_scan"}}, {"name": "ce38868f37da38af1a5d1a83f076a88c", "type": "electric_scooter", "lat": 38.90948433333333, "is_reserved": 0, "lon": -77.04323733333334, "fusion_lon": 0.0, "is_disabled": 0, "fusion_lat": 0.0, "bike_id": "ce38868f37da38af1a5d1a83f076a88c", "rental_uris": {"ios": "https://dc.lft.to/lastmile_qr_scan", "android": "https://dc.lft.to/lastmile_qr_scan"}}, {"name": "5cbc5a752a86dd6455745b3bc5c46942", "type": "electric_scooter", "lat": 38.915552166666664, "is_reserved": 0, "lon": -77.03127983333333, "fusion_lon": 0.0, "is_disabled": 0, "fusion_lat": 0.0, "bike_id": "5cbc5a752a86dd6455745b3bc5c46942", "rental_uris": {"ios": "https://dc.lft.to/lastmile_qr_scan", "android": "https://dc.lft.to/lastmile_qr_scan"}}, {"name": "a2eafc59a98f21394fbd5aa77cbc017d", "type": "electric_scooter", "lat": 38.88206566666667, "is_reserved": 0, "lon": -77.014504, "fusion_lon": 0.0, "is_disabled": 0, "fusion_lat": 0.0, "bike_id": "a2eafc59a98f21394fbd5aa77cbc017d", "rental_uris": {"ios": "https://dc.lft.to/lastmile_qr_scan", "android": "https://dc.lft.to/lastmile_qr_scan"}}, {"name": "8290d9a87c72a16730c9c54254fb99df", "type": "electric_scooter", "lat": 38.904053166666664, "is_reserved": 0, "lon": -77.04337016666666, "fusion_lon": 0.0, "is_disabled": 0, "fusion_lat": 0.0, "bike_id": "8290d9a87c72a16730c9c54254fb99df", "rental_uris": {"ios": "https://dc.lft.to/lastmile_qr_scan", "android": "https://dc.lft.to/lastmile_qr_scan"}}, {"name": "ec59a94c858eac64b36620dad8d337c8", "type": "electric_scooter", "lat": 38.911584166666664, "is_reserved": 0, "lon": -77.016234, "fusion_lon": 0.0, "is_disabled": 0, "fusion_lat": 0.0, "bike_id": "ec59a94c858eac64b36620dad8d337c8", "rental_uris": {"ios": "https://dc.lft.to/lastmile_qr_scan", "android": "https://dc.lft.to/lastmile_qr_scan"}}, {"name": "cf55fa424d4e20a2c3c12965f0b2c049", "type": "electric_bike", "lat": 38.87479583333333, "is_reserved": 0, "lon": -76.96527, "fusion_lon": 0.0, "is_disabled": 0, "fusion_lat": 0.0, "bike_id": "cf55fa424d4e20a2c3c12965f0b2c049", "rental_uris": {"ios": "https://dc.lft.to/lastmile_qr_scan", "android": "https://dc.lft.to/lastmile_qr_scan"}}, {"name": "da35e13e5fbede6b345d4f7c49a55111", "type": "electric_scooter", "lat": 38.93195466666667, "is_reserved": 0, "lon": -77.02964133333333, "fusion_lon": 0.0, "is_disabled": 0, "fusion_lat": 0.0, "bike_id": "da35e13e5fbede6b345d4f7c49a55111", "rental_uris": {"ios": "https://dc.lft.to/lastmile_qr_scan", "android": "https://dc.lft.to/lastmile_qr_scan"}}, {"name": "e055dc906163e272482a4be60ae85146", "type": "electric_scooter", "lat": 38.8960205, "is_reserved": 0, "lon": -77.02611, "fusion_lon": 0.0, "is_disabled": 0, "fusion_lat": 0.0, "bike_id": "e055dc906163e272482a4be60ae85146", "rental_uris": {"ios": "https://dc.lft.to/lastmile_qr_scan", "android": "https://dc.lft.to/lastmile_qr_scan"}}, {"name": "99314152327dc0fd7e5f699cef7f491c", "type": "electric_scooter", "lat": 38.89938, "is_reserved": 0, "lon": -77.03176416666666, "fusion_lon": 0.0, "is_disabled": 0, "fusion_lat": 0.0, "bike_id": "99314152327dc0fd7e5f699cef7f491c", "rental_uris": {"ios": "https://dc.lft.to/lastmile_qr_scan", "android": "https://dc.lft.to/lastmile_qr_scan"}}, {"name": "f9e5b76023ce0866df6db7808e990baf", "type": "electric_scooter", "lat": 38.89887, "is_reserved": 0, "lon": -76.9914405, "fusion_lon": 0.0, "is_disabled": 0, "fusion_lat": 0.0, "bike_id": "f9e5b76023ce0866df6db7808e990baf", "rental_uris": {"ios": "https://dc.lft.to/lastmile_qr_scan", "android": "https://dc.lft.to/lastmile_qr_scan"}}, {"name": "ff79c6521eaddd69776313cec4a138ae", "type": "electric_scooter", "lat": 38.9344655, "is_reserved": 0, "lon": -77.02847266666667, "fusion_lon": 0.0, "is_disabled": 0, "fusion_lat": 0.0, "bike_id": "ff79c6521eaddd69776313cec4a138ae", "rental_uris": {"ios": "https://dc.lft.to/lastmile_qr_scan", "android": "https://dc.lft.to/lastmile_qr_scan"}}, {"name": "4478c606ac25c83ee9f45d78fdd4ae63", "type": "electric_scooter", "lat": 38.92271566666667, "is_reserved": 0, "lon": -77.03410766666667, "fusion_lon": 0.0, "is_disabled": 0, "fusion_lat": 0.0, "bike_id": "4478c606ac25c83ee9f45d78fdd4ae63", "rental_uris": {"ios": "https://dc.lft.to/lastmile_qr_scan", "android": "https://dc.lft.to/lastmile_qr_scan"}}, {"name": "f46acbeebade17d29040522c8513de6e", "type": "electric_scooter", "lat": 38.93117266666667, "is_reserved": 0, "lon": -77.0208585, "fusion_lon": 0.0, "is_disabled": 0, "fusion_lat": 0.0, "bike_id": "f46acbeebade17d29040522c8513de6e", "rental_uris": {"ios": "https://dc.lft.to/lastmile_qr_scan", "android": "https://dc.lft.to/lastmile_qr_scan"}}, {"name": "0c1575cd61fa57a6af72a2e8011f6985", "type": "electric_scooter", "lat": 38.86698116666667, "is_reserved": 0, "lon": -76.98712083333334, "fusion_lon": 0.0, "is_disabled": 0, "fusion_lat": 0.0, "bike_id": "0c1575cd61fa57a6af72a2e8011f6985", "rental_uris": {"ios": "https://dc.lft.to/lastmile_qr_scan", "android": "https://dc.lft.to/lastmile_qr_scan"}}, {"name": "d85bd1783897cc4574cf8b7847ca52fb", "type": "electric_bike", "lat": 38.8978135, "is_reserved": 0, "lon": -76.904334, "fusion_lon": 0.0, "is_disabled": 0, "fusion_lat": 0.0, "bike_id": "d85bd1783897cc4574cf8b7847ca52fb", "rental_uris": {"ios": "https://dc.lft.to/lastmile_qr_scan", "android": "https://dc.lft.to/lastmile_qr_scan"}}, {"name": "76c53df4fca7c07968062cd8e1c357b2", "type": "electric_scooter", "lat": 38.898162666666664, "is_reserved": 0, "lon": -77.0119805, "fusion_lon": 0.0, "is_disabled": 0, "fusion_lat": 0.0, "bike_id": "76c53df4fca7c07968062cd8e1c357b2", "rental_uris": {"ios": "https://dc.lft.to/lastmile_qr_scan", "android": "https://dc.lft.to/lastmile_qr_scan"}}, {"name": "6488a33e40a9482a317fc365cfcd6059", "type": "electric_scooter", "lat": 38.89763833333333, "is_reserved": 0, "lon": -77.00752583333333, "fusion_lon": 0.0, "is_disabled": 0, "fusion_lat": 0.0, "bike_id": "6488a33e40a9482a317fc365cfcd6059", "rental_uris": {"ios": "https://dc.lft.to/lastmile_qr_scan", "android": "https://dc.lft.to/lastmile_qr_scan"}}, {"name": "23a421b4252c7391be539fb160f80f2e", "type": "electric_bike", "lat": 38.94624616666667, "is_reserved": 0, "lon": -76.94629283333333, "fusion_lon": 0.0, "is_disabled": 0, "fusion_lat": 0.0, "bike_id": "23a421b4252c7391be539fb160f80f2e", "rental_uris": {"ios": "https://dc.lft.to/lastmile_qr_scan", "android": "https://dc.lft.to/lastmile_qr_scan"}}, {"name": "95e533c5eab1bce62be4b3bef05cad4a", "type": "electric_scooter", "lat": 38.922267833333336, "is_reserved": 0, "lon": -77.042449, "fusion_lon": 0.0, "is_disabled": 0, "fusion_lat": 0.0, "bike_id": "95e533c5eab1bce62be4b3bef05cad4a", "rental_uris": {"ios": "https://dc.lft.to/lastmile_qr_scan", "android": "https://dc.lft.to/lastmile_qr_scan"}}, {"name": "c7a657cbc35b280b0591e9f5c7a4c810", "type": "electric_scooter", "lat": 38.89612533333333, "is_reserved": 0, "lon": -77.05076416666667, "fusion_lon": 0.0, "is_disabled": 0, "fusion_lat": 0.0, "bike_id": "c7a657cbc35b280b0591e9f5c7a4c810", "rental_uris": {"ios": "https://dc.lft.to/lastmile_qr_scan", "android": "https://dc.lft.to/lastmile_qr_scan"}}, {"name": "c295bd7239fc4394eb6b545c87f5f4aa", "type": "electric_scooter", "lat": 38.8975315, "is_reserved": 0, "lon": -77.02701816666666, "fusion_lon": 0.0, "is_disabled": 0, "fusion_lat": 0.0, "bike_id": "c295bd7239fc4394eb6b545c87f5f4aa", "rental_uris": {"ios": "https://dc.lft.to/lastmile_qr_scan", "android": "https://dc.lft.to/lastmile_qr_scan"}}, {"name": "696764b7df5103f85c01bd5a44e51f4c", "type": "electric_scooter", "lat": 38.931185666666664, "is_reserved": 0, "lon": -77.03612766666667, "fusion_lon": 0.0, "is_disabled": 0, "fusion_lat": 0.0, "bike_id": "696764b7df5103f85c01bd5a44e51f4c", "rental_uris": {"ios": "https://dc.lft.to/lastmile_qr_scan", "android": "https://dc.lft.to/lastmile_qr_scan"}}, {"name": "db06f997821fcc40ca19159c26e1e7bb", "type": "electric_scooter", "lat": 38.9090645, "is_reserved": 0, "lon": -76.99899783333333, "fusion_lon": 0.0, "is_disabled": 0, "fusion_lat": 0.0, "bike_id": "db06f997821fcc40ca19159c26e1e7bb", "rental_uris": {"ios": "https://dc.lft.to/lastmile_qr_scan", "android": "https://dc.lft.to/lastmile_qr_scan"}}, {"name": "07bbccfb4dc25a784d6f7a0ace06edc7", "type": "electric_scooter", "lat": 38.9301065, "is_reserved": 0, "lon": -77.0232745, "fusion_lon": 0.0, "is_disabled": 0, "fusion_lat": 0.0, "bike_id": "07bbccfb4dc25a784d6f7a0ace06edc7", "rental_uris": {"ios": "https://dc.lft.to/lastmile_qr_scan", "android": "https://dc.lft.to/lastmile_qr_scan"}}, {"name": "06a731ad289ef9cd7d26f5feaea1478c", "type": "electric_scooter", "lat": 38.90659866666667, "is_reserved": 0, "lon": -77.0513105, "fusion_lon": 0.0, "is_disabled": 0, "fusion_lat": 0.0, "bike_id": "06a731ad289ef9cd7d26f5feaea1478c", "rental_uris": {"ios": "https://dc.lft.to/lastmile_qr_scan", "android": "https://dc.lft.to/lastmile_qr_scan"}}, {"name": "46f6f640e572903b8590d01b1a67ff82", "type": "electric_scooter", "lat": 38.924871833333334, "is_reserved": 0, "lon": -77.0271315, "fusion_lon": 0.0, "is_disabled": 0, "fusion_lat": 0.0, "bike_id": "46f6f640e572903b8590d01b1a67ff82", "rental_uris": {"ios": "https://dc.lft.to/lastmile_qr_scan", "android": "https://dc.lft.to/lastmile_qr_scan"}}, {"name": "e8806896e0ed116cb2b0b2b388f6e7f1", "type": "electric_scooter", "lat": 38.9062795, "is_reserved": 0, "lon": -77.0514005, "fusion_lon": 0.0, "is_disabled": 0, "fusion_lat": 0.0, "bike_id": "e8806896e0ed116cb2b0b2b388f6e7f1", "rental_uris": {"ios": "https://dc.lft.to/lastmile_qr_scan", "android": "https://dc.lft.to/lastmile_qr_scan"}}, {"name": "cf147911d7c1107fa09f418dbaa68993", "type": "electric_scooter", "lat": 38.89731616666667, "is_reserved": 0, "lon": -77.04334766666666, "fusion_lon": 0.0, "is_disabled": 0, "fusion_lat": 0.0, "bike_id": "cf147911d7c1107fa09f418dbaa68993", "rental_uris": {"ios": "https://dc.lft.to/lastmile_qr_scan", "android": "https://dc.lft.to/lastmile_qr_scan"}}, {"name": "bd6e26c0a64846eb9c6a592c71940bca", "type": "electric_scooter", "lat": 38.90031616666667, "is_reserved": 0, "lon": -77.0401585, "fusion_lon": 0.0, "is_disabled": 0, "fusion_lat": 0.0, "bike_id": "bd6e26c0a64846eb9c6a592c71940bca", "rental_uris": {"ios": "https://dc.lft.to/lastmile_qr_scan", "android": "https://dc.lft.to/lastmile_qr_scan"}}, {"name": "7cb79cb8b30103f15e4c5d4c79dee53f", "type": "electric_scooter", "lat": 38.90320066666666, "is_reserved": 0, "lon": -77.0385535, "fusion_lon": 0.0, "is_disabled": 0, "fusion_lat": 0.0, "bike_id": "7cb79cb8b30103f15e4c5d4c79dee53f", "rental_uris": {"ios": "https://dc.lft.to/lastmile_qr_scan", "android": "https://dc.lft.to/lastmile_qr_scan"}}, {"name": "96f0e31f5a9875849ebcfbc5883e55ef", "type": "electric_scooter", "lat": 38.927969833333336, "is_reserved": 0, "lon": -77.04355183333334, "fusion_lon": 0.0, "is_disabled": 0, "fusion_lat": 0.0, "bike_id": "96f0e31f5a9875849ebcfbc5883e55ef", "rental_uris": {"ios": "https://dc.lft.to/lastmile_qr_scan", "android": "https://dc.lft.to/lastmile_qr_scan"}}, {"name": "10c54ba328215424b8e7f18250a4bc5b", "type": "electric_scooter", "lat": 38.911810833333334, "is_reserved": 0, "lon": -77.03209716666667, "fusion_lon": 0.0, "is_disabled": 0, "fusion_lat": 0.0, "bike_id": "10c54ba328215424b8e7f18250a4bc5b", "rental_uris": {"ios": "https://dc.lft.to/lastmile_qr_scan", "android": "https://dc.lft.to/lastmile_qr_scan"}}, {"name": "81630e6d4a8b5967f6b875acbf552c63", "type": "electric_scooter", "lat": 38.910985, "is_reserved": 0, "lon": -77.046712, "fusion_lon": 0.0, "is_disabled": 0, "fusion_lat": 0.0, "bike_id": "81630e6d4a8b5967f6b875acbf552c63", "rental_uris": {"ios": "https://dc.lft.to/lastmile_qr_scan", "android": "https://dc.lft.to/lastmile_qr_scan"}}, {"name": "4aa3e83eb7d1680c5745435b3b1eefac", "type": "electric_scooter", "lat": 38.91208816666666, "is_reserved": 0, "lon": -77.03204533333333, "fusion_lon": 0.0, "is_disabled": 0, "fusion_lat": 0.0, "bike_id": "4aa3e83eb7d1680c5745435b3b1eefac", "rental_uris": {"ios": "https://dc.lft.to/lastmile_qr_scan", "android": "https://dc.lft.to/lastmile_qr_scan"}}, {"name": "afd028a8354ccda802c0c78f43a1c067", "type": "electric_scooter", "lat": 38.94947616666666, "is_reserved": 0, "lon": -77.0161755, "fusion_lon": 0.0, "is_disabled": 0, "fusion_lat": 0.0, "bike_id": "afd028a8354ccda802c0c78f43a1c067", "rental_uris": {"ios": "https://dc.lft.to/lastmile_qr_scan", "android": "https://dc.lft.to/lastmile_qr_scan"}}, {"name": "346383a6910203a62ea0b38710c526b6", "type": "electric_scooter", "lat": 38.9015195, "is_reserved": 0, "lon": -77.0439625, "fusion_lon": 0.0, "is_disabled": 0, "fusion_lat": 0.0, "bike_id": "346383a6910203a62ea0b38710c526b6", "rental_uris": {"ios": "https://dc.lft.to/lastmile_qr_scan", "android": "https://dc.lft.to/lastmile_qr_scan"}}, {"name": "97d36846cae1c45fc2026ab5636098a9", "type": "electric_scooter", "lat": 38.912681166666665, "is_reserved": 0, "lon": -77.03711766666666, "fusion_lon": 0.0, "is_disabled": 0, "fusion_lat": 0.0, "bike_id": "97d36846cae1c45fc2026ab5636098a9", "rental_uris": {"ios": "https://dc.lft.to/lastmile_qr_scan", "android": "https://dc.lft.to/lastmile_qr_scan"}}, {"name": "b243844c3ec618337e06087128f655cd", "type": "electric_scooter", "lat": 38.89615933333333, "is_reserved": 0, "lon": -77.009189, "fusion_lon": 0.0, "is_disabled": 0, "fusion_lat": 0.0, "bike_id": "b243844c3ec618337e06087128f655cd", "rental_uris": {"ios": "https://dc.lft.to/lastmile_qr_scan", "android": "https://dc.lft.to/lastmile_qr_scan"}}, {"name": "304826aec115692c9db01e25c0565337", "type": "electric_scooter", "lat": 38.908618833333335, "is_reserved": 0, "lon": -77.0241695, "fusion_lon": 0.0, "is_disabled": 0, "fusion_lat": 0.0, "bike_id": "304826aec115692c9db01e25c0565337", "rental_uris": {"ios": "https://dc.lft.to/lastmile_qr_scan", "android": "https://dc.lft.to/lastmile_qr_scan"}}, {"name": "85e629164c8dfbd191c530fdcea5ad45", "type": "electric_scooter", "lat": 38.8665695, "is_reserved": 0, "lon": -76.988844, "fusion_lon": 0.0, "is_disabled": 0, "fusion_lat": 0.0, "bike_id": "85e629164c8dfbd191c530fdcea5ad45", "rental_uris": {"ios": "https://dc.lft.to/lastmile_qr_scan", "android": "https://dc.lft.to/lastmile_qr_scan"}}, {"name": "9c07a67335b87fa4f917135376affa3c", "type": "electric_scooter", "lat": 38.92512816666667, "is_reserved": 0, "lon": -77.001789, "fusion_lon": 0.0, "is_disabled": 0, "fusion_lat": 0.0, "bike_id": "9c07a67335b87fa4f917135376affa3c", "rental_uris": {"ios": "https://dc.lft.to/lastmile_qr_scan", "android": "https://dc.lft.to/lastmile_qr_scan"}}, {"name": "f6a237848553b7e249576cf21d81a89c", "type": "electric_scooter", "lat": 38.925146, "is_reserved": 0, "lon": -77.03323933333333, "fusion_lon": 0.0, "is_disabled": 0, "fusion_lat": 0.0, "bike_id": "f6a237848553b7e249576cf21d81a89c", "rental_uris": {"ios": "https://dc.lft.to/lastmile_qr_scan", "android": "https://dc.lft.to/lastmile_qr_scan"}}, {"name": "f62c8efe5c1c419e466ceaf7f1062216", "type": "electric_scooter", "lat": 38.923629, "is_reserved": 0, "lon": -77.05838233333333, "fusion_lon": 0.0, "is_disabled": 0, "fusion_lat": 0.0, "bike_id": "f62c8efe5c1c419e466ceaf7f1062216", "rental_uris": {"ios": "https://dc.lft.to/lastmile_qr_scan", "android": "https://dc.lft.to/lastmile_qr_scan"}}, {"name": "be98259831bc113228cfe7603b51a056", "type": "electric_scooter", "lat": 38.920063999999996, "is_reserved": 0, "lon": -77.0315665, "fusion_lon": 0.0, "is_disabled": 0, "fusion_lat": 0.0, "bike_id": "be98259831bc113228cfe7603b51a056", "rental_uris": {"ios": "https://dc.lft.to/lastmile_qr_scan", "android": "https://dc.lft.to/lastmile_qr_scan"}}, {"name": "1b3bc82d7ff0b9014ccca2e0bc2d896d", "type": "electric_scooter", "lat": 38.90611666666667, "is_reserved": 0, "lon": -77.07492483333333, "fusion_lon": 0.0, "is_disabled": 0, "fusion_lat": 0.0, "bike_id": "1b3bc82d7ff0b9014ccca2e0bc2d896d", "rental_uris": {"ios": "https://dc.lft.to/lastmile_qr_scan", "android": "https://dc.lft.to/lastmile_qr_scan"}}, {"name": "a032769c543c265ad4f8483b71844c79", "type": "electric_scooter", "lat": 38.8837295, "is_reserved": 0, "lon": -76.92372983333334, "fusion_lon": 0.0, "is_disabled": 0, "fusion_lat": 0.0, "bike_id": "a032769c543c265ad4f8483b71844c79", "rental_uris": {"ios": "https://dc.lft.to/lastmile_qr_scan", "android": "https://dc.lft.to/lastmile_qr_scan"}}, {"name": "796f745742f38ac1a9d761e24dd3d3c9", "type": "electric_bike", "lat": 38.90866583333333, "is_reserved": 0, "lon": -77.0807045, "fusion_lon": 0.0, "is_disabled": 0, "fusion_lat": 0.0, "bike_id": "796f745742f38ac1a9d761e24dd3d3c9", "rental_uris": {"ios": "https://dc.lft.to/lastmile_qr_scan", "android": "https://dc.lft.to/lastmile_qr_scan"}}, {"name": "3388904ebd83f33f20325b719a35dedd", "type": "electric_scooter", "lat": 38.934275666666665, "is_reserved": 0, "lon": -77.04422233333334, "fusion_lon": 0.0, "is_disabled": 0, "fusion_lat": 0.0, "bike_id": "3388904ebd83f33f20325b719a35dedd", "rental_uris": {"ios": "https://dc.lft.to/lastmile_qr_scan", "android": "https://dc.lft.to/lastmile_qr_scan"}}, {"name": "11e9494f7e7f1845a9c4dd81c70e5e54", "type": "electric_scooter", "lat": 38.91954283333333, "is_reserved": 0, "lon": -77.0338485, "fusion_lon": 0.0, "is_disabled": 0, "fusion_lat": 0.0, "bike_id": "11e9494f7e7f1845a9c4dd81c70e5e54", "rental_uris": {"ios": "https://dc.lft.to/lastmile_qr_scan", "android": "https://dc.lft.to/lastmile_qr_scan"}}, {"name": "ca22a2659f11bdf4992515248187302d", "type": "electric_scooter", "lat": 38.914342, "is_reserved": 0, "lon": -77.02210966666667, "fusion_lon": 0.0, "is_disabled": 0, "fusion_lat": 0.0, "bike_id": "ca22a2659f11bdf4992515248187302d", "rental_uris": {"ios": "https://dc.lft.to/lastmile_qr_scan", "android": "https://dc.lft.to/lastmile_qr_scan"}}, {"name": "2fba21c5e8eac0ded147712dee93fb81", "type": "electric_bike", "lat": 38.828755666666666, "is_reserved": 0, "lon": -77.11217616666667, "fusion_lon": 0.0, "is_disabled": 0, "fusion_lat": 0.0, "bike_id": "2fba21c5e8eac0ded147712dee93fb81", "rental_uris": {"ios": "https://dc.lft.to/lastmile_qr_scan", "android": "https://dc.lft.to/lastmile_qr_scan"}}, {"name": "0da13c4250c29c9da884b8d952bc2a09", "type": "electric_scooter", "lat": 38.892307833333334, "is_reserved": 0, "lon": -77.02209, "fusion_lon": 0.0, "is_disabled": 0, "fusion_lat": 0.0, "bike_id": "0da13c4250c29c9da884b8d952bc2a09", "rental_uris": {"ios": "https://dc.lft.to/lastmile_qr_scan", "android": "https://dc.lft.to/lastmile_qr_scan"}}, {"name": "e0c0858aca9263ba2ce1bb9579417bc4", "type": "electric_scooter", "lat": 38.90536383333333, "is_reserved": 0, "lon": -77.05922116666666, "fusion_lon": 0.0, "is_disabled": 0, "fusion_lat": 0.0, "bike_id": "e0c0858aca9263ba2ce1bb9579417bc4", "rental_uris": {"ios": "https://dc.lft.to/lastmile_qr_scan", "android": "https://dc.lft.to/lastmile_qr_scan"}}, {"name": "320b01feef10a777d3970e065e7a798a", "type": "electric_scooter", "lat": 38.88412316666667, "is_reserved": 0, "lon": -77.0151355, "fusion_lon": 0.0, "is_disabled": 0, "fusion_lat": 0.0, "bike_id": "320b01feef10a777d3970e065e7a798a", "rental_uris": {"ios": "https://dc.lft.to/lastmile_qr_scan", "android": "https://dc.lft.to/lastmile_qr_scan"}}, {"name": "97723af66cbcb73c6e2f2079c7c725fb", "type": "electric_scooter", "lat": 38.86665466666667, "is_reserved": 0, "lon": -76.9844495, "fusion_lon": 0.0, "is_disabled": 0, "fusion_lat": 0.0, "bike_id": "97723af66cbcb73c6e2f2079c7c725fb", "rental_uris": {"ios": "https://dc.lft.to/lastmile_qr_scan", "android": "https://dc.lft.to/lastmile_qr_scan"}}, {"name": "d6c203b4a6b616d7c8cf4f61abd230a7", "type": "electric_scooter", "lat": 38.90676333333333, "is_reserved": 0, "lon": -77.023934, "fusion_lon": 0.0, "is_disabled": 0, "fusion_lat": 0.0, "bike_id": "d6c203b4a6b616d7c8cf4f61abd230a7", "rental_uris": {"ios": "https://dc.lft.to/lastmile_qr_scan", "android": "https://dc.lft.to/lastmile_qr_scan"}}, {"name": "8a321df673d477b96576b19738da9efe", "type": "electric_scooter", "lat": 38.924421333333335, "is_reserved": 0, "lon": -77.033581, "fusion_lon": 0.0, "is_disabled": 0, "fusion_lat": 0.0, "bike_id": "8a321df673d477b96576b19738da9efe", "rental_uris": {"ios": "https://dc.lft.to/lastmile_qr_scan", "android": "https://dc.lft.to/lastmile_qr_scan"}}, {"name": "706861308ceed9937a7c28450a53c6f1", "type": "electric_scooter", "lat": 38.876728166666666, "is_reserved": 0, "lon": -77.017819, "fusion_lon": 0.0, "is_disabled": 0, "fusion_lat": 0.0, "bike_id": "706861308ceed9937a7c28450a53c6f1", "rental_uris": {"ios": "https://dc.lft.to/lastmile_qr_scan", "android": "https://dc.lft.to/lastmile_qr_scan"}}, {"name": "8950d2277c024d3023b05acae6de26bc", "type": "electric_scooter", "lat": 38.94845983333333, "is_reserved": 0, "lon": -77.0270985, "fusion_lon": 0.0, "is_disabled": 0, "fusion_lat": 0.0, "bike_id": "8950d2277c024d3023b05acae6de26bc", "rental_uris": {"ios": "https://dc.lft.to/lastmile_qr_scan", "android": "https://dc.lft.to/lastmile_qr_scan"}}, {"name": "70d3aa5a8c58a8b6554b42cfca5a1259", "type": "electric_scooter", "lat": 38.93607683333333, "is_reserved": 0, "lon": -77.05861483333334, "fusion_lon": 0.0, "is_disabled": 0, "fusion_lat": 0.0, "bike_id": "70d3aa5a8c58a8b6554b42cfca5a1259", "rental_uris": {"ios": "https://dc.lft.to/lastmile_qr_scan", "android": "https://dc.lft.to/lastmile_qr_scan"}}, {"name": "0843e25cecab0a03b4c9c360e9c3d35b", "type": "electric_bike", "lat": 38.990912333333334, "is_reserved": 0, "lon": -76.87495466666667, "fusion_lon": 0.0, "is_disabled": 0, "fusion_lat": 0.0, "bike_id": "0843e25cecab0a03b4c9c360e9c3d35b", "rental_uris": {"ios": "https://dc.lft.to/lastmile_qr_scan", "android": "https://dc.lft.to/lastmile_qr_scan"}}, {"name": "2b646b001078a3e115600cd21830c1b7", "type": "electric_scooter", "lat": 38.920291, "is_reserved": 0, "lon": -77.031031, "fusion_lon": 0.0, "is_disabled": 0, "fusion_lat": 0.0, "bike_id": "2b646b001078a3e115600cd21830c1b7", "rental_uris": {"ios": "https://dc.lft.to/lastmile_qr_scan", "android": "https://dc.lft.to/lastmile_qr_scan"}}, {"name": "756c71278879dd92689b3c416ddaafde", "type": "electric_scooter", "lat": 38.901272166666665, "is_reserved": 0, "lon": -77.00048466666667, "fusion_lon": 0.0, "is_disabled": 0, "fusion_lat": 0.0, "bike_id": "756c71278879dd92689b3c416ddaafde", "rental_uris": {"ios": "https://dc.lft.to/lastmile_qr_scan", "android": "https://dc.lft.to/lastmile_qr_scan"}}, {"name": "6702a9cd28497c7bcc4d082ae9125479", "type": "electric_scooter", "lat": 38.93226883333333, "is_reserved": 0, "lon": -77.035477, "fusion_lon": 0.0, "is_disabled": 0, "fusion_lat": 0.0, "bike_id": "6702a9cd28497c7bcc4d082ae9125479", "rental_uris": {"ios": "https://dc.lft.to/lastmile_qr_scan", "android": "https://dc.lft.to/lastmile_qr_scan"}}, {"name": "a0aebd12c9bd74ceae90ab6e1484608e", "type": "electric_bike", "lat": 38.8386335, "is_reserved": 0, "lon": -77.088665, "fusion_lon": 0.0, "is_disabled": 0, "fusion_lat": 0.0, "bike_id": "a0aebd12c9bd74ceae90ab6e1484608e", "rental_uris": {"ios": "https://dc.lft.to/lastmile_qr_scan", "android": "https://dc.lft.to/lastmile_qr_scan"}}, {"name": "4ac6dbfc0ea0576430c884197f8db77b", "type": "electric_bike", "lat": 38.95900816666666, "is_reserved": 0, "lon": -76.924898, "fusion_lon": 0.0, "is_disabled": 0, "fusion_lat": 0.0, "bike_id": "4ac6dbfc0ea0576430c884197f8db77b", "rental_uris": {"ios": "https://dc.lft.to/lastmile_qr_scan", "android": "https://dc.lft.to/lastmile_qr_scan"}}, {"name": "1c02d7b9b1e4919def7766cfe2090ae7", "type": "electric_scooter", "lat": 38.9031185, "is_reserved": 0, "lon": -77.03876833333334, "fusion_lon": 0.0, "is_disabled": 0, "fusion_lat": 0.0, "bike_id": "1c02d7b9b1e4919def7766cfe2090ae7", "rental_uris": {"ios": "https://dc.lft.to/lastmile_qr_scan", "android": "https://dc.lft.to/lastmile_qr_scan"}}, {"name": "75f81532577af6a06b63297df1e8feb4", "type": "electric_bike", "lat": 38.97325683333333, "is_reserved": 0, "lon": -77.0215245, "fusion_lon": 0.0, "is_disabled": 0, "fusion_lat": 0.0, "bike_id": "75f81532577af6a06b63297df1e8feb4", "rental_uris": {"ios": "https://dc.lft.to/lastmile_qr_scan", "android": "https://dc.lft.to/lastmile_qr_scan"}}, {"name": "0b494e59425fa1e116f1eb5e5f81d8e9", "type": "electric_scooter", "lat": 38.929126333333336, "is_reserved": 0, "lon": -77.02193833333334, "fusion_lon": 0.0, "is_disabled": 0, "fusion_lat": 0.0, "bike_id": "0b494e59425fa1e116f1eb5e5f81d8e9", "rental_uris": {"ios": "https://dc.lft.to/lastmile_qr_scan", "android": "https://dc.lft.to/lastmile_qr_scan"}}, {"name": "65837699e7ff8c42aafc01d82107450b", "type": "electric_bike", "lat": 38.90357733333333, "is_reserved": 0, "lon": -76.98091683333334, "fusion_lon": 0.0, "is_disabled": 0, "fusion_lat": 0.0, "bike_id": "65837699e7ff8c42aafc01d82107450b", "rental_uris": {"ios": "https://dc.lft.to/lastmile_qr_scan", "android": "https://dc.lft.to/lastmile_qr_scan"}}, {"name": "7f8866d3193c4493051857ef4e116061", "type": "electric_scooter", "lat": 38.889467833333335, "is_reserved": 0, "lon": -76.94822866666667, "fusion_lon": 0.0, "is_disabled": 0, "fusion_lat": 0.0, "bike_id": "7f8866d3193c4493051857ef4e116061", "rental_uris": {"ios": "https://dc.lft.to/lastmile_qr_scan", "android": "https://dc.lft.to/lastmile_qr_scan"}}, {"name": "c79ae74f1e33ae72c85533af708a1bdf", "type": "electric_scooter", "lat": 38.9034495, "is_reserved": 0, "lon": -77.03960366666666, "fusion_lon": 0.0, "is_disabled": 0, "fusion_lat": 0.0, "bike_id": "c79ae74f1e33ae72c85533af708a1bdf", "rental_uris": {"ios": "https://dc.lft.to/lastmile_qr_scan", "android": "https://dc.lft.to/lastmile_qr_scan"}}, {"name": "1f7a2e4b94ca1748e749bad529731f58", "type": "electric_scooter", "lat": 38.919299333333335, "is_reserved": 0, "lon": -77.001593, "fusion_lon": 0.0, "is_disabled": 0, "fusion_lat": 0.0, "bike_id": "1f7a2e4b94ca1748e749bad529731f58", "rental_uris": {"ios": "https://dc.lft.to/lastmile_qr_scan", "android": "https://dc.lft.to/lastmile_qr_scan"}}, {"name": "a1a671a47d00c817da03948760c799ed", "type": "electric_scooter", "lat": 38.90972133333333, "is_reserved": 0, "lon": -77.01120866666666, "fusion_lon": 0.0, "is_disabled": 0, "fusion_lat": 0.0, "bike_id": "a1a671a47d00c817da03948760c799ed", "rental_uris": {"ios": "https://dc.lft.to/lastmile_qr_scan", "android": "https://dc.lft.to/lastmile_qr_scan"}}, {"name": "c63c74d28ceb7dc0e26c935f2b4eca4d", "type": "electric_bike", "lat": 38.88836216666667, "is_reserved": 0, "lon": -76.99363733333334, "fusion_lon": 0.0, "is_disabled": 0, "fusion_lat": 0.0, "bike_id": "c63c74d28ceb7dc0e26c935f2b4eca4d", "rental_uris": {"ios": "https://dc.lft.to/lastmile_qr_scan", "android": "https://dc.lft.to/lastmile_qr_scan"}}, {"name": "d4654fa89a9047a32f563b10fc249f87", "type": "electric_scooter", "lat": 38.9206615, "is_reserved": 0, "lon": -76.97801749999999, "fusion_lon": 0.0, "is_disabled": 0, "fusion_lat": 0.0, "bike_id": "d4654fa89a9047a32f563b10fc249f87", "rental_uris": {"ios": "https://dc.lft.to/lastmile_qr_scan", "android": "https://dc.lft.to/lastmile_qr_scan"}}, {"name": "b65c70128a3edf1731cf61206034e9b7", "type": "electric_scooter", "lat": 38.917213333333336, "is_reserved": 0, "lon": -77.00815833333333, "fusion_lon": 0.0, "is_disabled": 0, "fusion_lat": 0.0, "bike_id": "b65c70128a3edf1731cf61206034e9b7", "rental_uris": {"ios": "https://dc.lft.to/lastmile_qr_scan", "android": "https://dc.lft.to/lastmile_qr_scan"}}, {"name": "93ab2d79aed1a5d42355368cddd645a6", "type": "electric_bike", "lat": 38.93681, "is_reserved": 0, "lon": -77.02683766666667, "fusion_lon": 0.0, "is_disabled": 0, "fusion_lat": 0.0, "bike_id": "93ab2d79aed1a5d42355368cddd645a6", "rental_uris": {"ios": "https://dc.lft.to/lastmile_qr_scan", "android": "https://dc.lft.to/lastmile_qr_scan"}}, {"name": "332b43078e29350914003fb982fd5c42", "type": "electric_scooter", "lat": 38.86538866666667, "is_reserved": 0, "lon": -76.987085, "fusion_lon": 0.0, "is_disabled": 0, "fusion_lat": 0.0, "bike_id": "332b43078e29350914003fb982fd5c42", "rental_uris": {"ios": "https://dc.lft.to/lastmile_qr_scan", "android": "https://dc.lft.to/lastmile_qr_scan"}}, {"name": "6a0788910e10cdaed3fa5c00ad7bbbd1", "type": "electric_scooter", "lat": 38.905857833333336, "is_reserved": 0, "lon": -77.06518316666667, "fusion_lon": 0.0, "is_disabled": 0, "fusion_lat": 0.0, "bike_id": "6a0788910e10cdaed3fa5c00ad7bbbd1", "rental_uris": {"ios": "https://dc.lft.to/lastmile_qr_scan", "android": "https://dc.lft.to/lastmile_qr_scan"}}, {"name": "e11b863715d877c09ba401c0ff79e1c4", "type": "electric_scooter", "lat": 38.931687833333335, "is_reserved": 0, "lon": -77.036423, "fusion_lon": 0.0, "is_disabled": 0, "fusion_lat": 0.0, "bike_id": "e11b863715d877c09ba401c0ff79e1c4", "rental_uris": {"ios": "https://dc.lft.to/lastmile_qr_scan", "android": "https://dc.lft.to/lastmile_qr_scan"}}, {"name": "54ad7953306023bc575df299a003bd1f", "type": "electric_scooter", "lat": 38.92354483333333, "is_reserved": 0, "lon": -77.01898733333333, "fusion_lon": 0.0, "is_disabled": 0, "fusion_lat": 0.0, "bike_id": "54ad7953306023bc575df299a003bd1f", "rental_uris": {"ios": "https://dc.lft.to/lastmile_qr_scan", "android": "https://dc.lft.to/lastmile_qr_scan"}}, {"name": "7d4d3fd8a0bc996ab43eaef2f15d25c9", "type": "electric_scooter", "lat": 38.90978, "is_reserved": 0, "lon": -77.04769966666667, "fusion_lon": 0.0, "is_disabled": 0, "fusion_lat": 0.0, "bike_id": "7d4d3fd8a0bc996ab43eaef2f15d25c9", "rental_uris": {"ios": "https://dc.lft.to/lastmile_qr_scan", "android": "https://dc.lft.to/lastmile_qr_scan"}}, {"name": "ee05d76cc7f1dff634a02e0eae8a9045", "type": "electric_scooter", "lat": 38.91258833333333, "is_reserved": 0, "lon": -77.07593233333333, "fusion_lon": 0.0, "is_disabled": 0, "fusion_lat": 0.0, "bike_id": "ee05d76cc7f1dff634a02e0eae8a9045", "rental_uris": {"ios": "https://dc.lft.to/lastmile_qr_scan", "android": "https://dc.lft.to/lastmile_qr_scan"}}, {"name": "6f1b3d41dd0faa15e8a8732525f298e1", "type": "electric_scooter", "lat": 38.92627533333334, "is_reserved": 0, "lon": -77.03518383333333, "fusion_lon": 0.0, "is_disabled": 0, "fusion_lat": 0.0, "bike_id": "6f1b3d41dd0faa15e8a8732525f298e1", "rental_uris": {"ios": "https://dc.lft.to/lastmile_qr_scan", "android": "https://dc.lft.to/lastmile_qr_scan"}}, {"name": "00cc7aacb337316b9d129c76a8c55687", "type": "electric_scooter", "lat": 38.9159995, "is_reserved": 0, "lon": -77.02392966666666, "fusion_lon": 0.0, "is_disabled": 0, "fusion_lat": 0.0, "bike_id": "00cc7aacb337316b9d129c76a8c55687", "rental_uris": {"ios": "https://dc.lft.to/lastmile_qr_scan", "android": "https://dc.lft.to/lastmile_qr_scan"}}, {"name": "8167465fc8cda43241e7a2b251640a52", "type": "electric_scooter", "lat": 38.899790333333335, "is_reserved": 0, "lon": -76.99149916666667, "fusion_lon": 0.0, "is_disabled": 0, "fusion_lat": 0.0, "bike_id": "8167465fc8cda43241e7a2b251640a52", "rental_uris": {"ios": "https://dc.lft.to/lastmile_qr_scan", "android": "https://dc.lft.to/lastmile_qr_scan"}}, {"name": "3504814a472cab47673b6e304156043e", "type": "electric_scooter", "lat": 38.910342666666665, "is_reserved": 0, "lon": -77.03259683333333, "fusion_lon": 0.0, "is_disabled": 0, "fusion_lat": 0.0, "bike_id": "3504814a472cab47673b6e304156043e", "rental_uris": {"ios": "https://dc.lft.to/lastmile_qr_scan", "android": "https://dc.lft.to/lastmile_qr_scan"}}, {"name": "531412b0f5dde759a48bd066a3f3368f", "type": "electric_bike", "lat": 38.9415215, "is_reserved": 0, "lon": -77.0020345, "fusion_lon": 0.0, "is_disabled": 0, "fusion_lat": 0.0, "bike_id": "531412b0f5dde759a48bd066a3f3368f", "rental_uris": {"ios": "https://dc.lft.to/lastmile_qr_scan", "android": "https://dc.lft.to/lastmile_qr_scan"}}, {"name": "99ee770a242424d4b12d83b99cd6e540", "type": "electric_scooter", "lat": 38.90352, "is_reserved": 0, "lon": -77.04174516666667, "fusion_lon": 0.0, "is_disabled": 0, "fusion_lat": 0.0, "bike_id": "99ee770a242424d4b12d83b99cd6e540", "rental_uris": {"ios": "https://dc.lft.to/lastmile_qr_scan", "android": "https://dc.lft.to/lastmile_qr_scan"}}, {"name": "05f75bec0d5b2c9bbdd81e2c2b659a7a", "type": "electric_scooter", "lat": 38.907578666666666, "is_reserved": 0, "lon": -77.0308325, "fusion_lon": 0.0, "is_disabled": 0, "fusion_lat": 0.0, "bike_id": "05f75bec0d5b2c9bbdd81e2c2b659a7a", "rental_uris": {"ios": "https://dc.lft.to/lastmile_qr_scan", "android": "https://dc.lft.to/lastmile_qr_scan"}}, {"name": "442c0eb4fe6ed183048e292683bd8505", "type": "electric_scooter", "lat": 38.918644666666665, "is_reserved": 0, "lon": -77.036597, "fusion_lon": 0.0, "is_disabled": 0, "fusion_lat": 0.0, "bike_id": "442c0eb4fe6ed183048e292683bd8505", "rental_uris": {"ios": "https://dc.lft.to/lastmile_qr_scan", "android": "https://dc.lft.to/lastmile_qr_scan"}}, {"name": "8c0a7674e36ffce5ab2cd15c1becc230", "type": "electric_scooter", "lat": 38.893302, "is_reserved": 0, "lon": -76.92999916666666, "fusion_lon": 0.0, "is_disabled": 0, "fusion_lat": 0.0, "bike_id": "8c0a7674e36ffce5ab2cd15c1becc230", "rental_uris": {"ios": "https://dc.lft.to/lastmile_qr_scan", "android": "https://dc.lft.to/lastmile_qr_scan"}}, {"name": "d05372e8c0498afeaf8e4c80e87daccd", "type": "electric_scooter", "lat": 38.900262166666664, "is_reserved": 0, "lon": -77.040048, "fusion_lon": 0.0, "is_disabled": 0, "fusion_lat": 0.0, "bike_id": "d05372e8c0498afeaf8e4c80e87daccd", "rental_uris": {"ios": "https://dc.lft.to/lastmile_qr_scan", "android": "https://dc.lft.to/lastmile_qr_scan"}}, {"name": "319eb4fb90fb3986714a09ec08411b5f", "type": "electric_bike", "lat": 38.9675735, "is_reserved": 0, "lon": -77.09166583333334, "fusion_lon": 0.0, "is_disabled": 0, "fusion_lat": 0.0, "bike_id": "319eb4fb90fb3986714a09ec08411b5f", "rental_uris": {"ios": "https://dc.lft.to/lastmile_qr_scan", "android": "https://dc.lft.to/lastmile_qr_scan"}}, {"name": "45c5e87145b87cf873555f6a716f1d2b", "type": "electric_scooter", "lat": 38.934908666666665, "is_reserved": 0, "lon": -77.03286116666666, "fusion_lon": 0.0, "is_disabled": 0, "fusion_lat": 0.0, "bike_id": "45c5e87145b87cf873555f6a716f1d2b", "rental_uris": {"ios": "https://dc.lft.to/lastmile_qr_scan", "android": "https://dc.lft.to/lastmile_qr_scan"}}, {"name": "de004de93cb2428b30812aaa4d8bc288", "type": "electric_scooter", "lat": 38.9141, "is_reserved": 0, "lon": -77.00803, "fusion_lon": 0.0, "is_disabled": 0, "fusion_lat": 0.0, "bike_id": "de004de93cb2428b30812aaa4d8bc288", "rental_uris": {"ios": "https://dc.lft.to/lastmile_qr_scan", "android": "https://dc.lft.to/lastmile_qr_scan"}}, {"name": "47fb31a0faf43c57380398cc86713336", "type": "electric_scooter", "lat": 38.9163505, "is_reserved": 0, "lon": -77.02696666666667, "fusion_lon": 0.0, "is_disabled": 0, "fusion_lat": 0.0, "bike_id": "47fb31a0faf43c57380398cc86713336", "rental_uris": {"ios": "https://dc.lft.to/lastmile_qr_scan", "android": "https://dc.lft.to/lastmile_qr_scan"}}, {"name": "5454896529074c88bea08ff2399dea7b", "type": "electric_scooter", "lat": 38.90240466666667, "is_reserved": 0, "lon": -76.97413216666666, "fusion_lon": 0.0, "is_disabled": 0, "fusion_lat": 0.0, "bike_id": "5454896529074c88bea08ff2399dea7b", "rental_uris": {"ios": "https://dc.lft.to/lastmile_qr_scan", "android": "https://dc.lft.to/lastmile_qr_scan"}}, {"name": "866437538210c141027cc06eea00746d", "type": "electric_scooter", "lat": 38.891835, "is_reserved": 0, "lon": -77.01533733333333, "fusion_lon": 0.0, "is_disabled": 0, "fusion_lat": 0.0, "bike_id": "866437538210c141027cc06eea00746d", "rental_uris": {"ios": "https://dc.lft.to/lastmile_qr_scan", "android": "https://dc.lft.to/lastmile_qr_scan"}}, {"name": "d6a80398b6852579d4771f560cc88796", "type": "electric_scooter", "lat": 38.92580316666667, "is_reserved": 0, "lon": -77.02843133333333, "fusion_lon": 0.0, "is_disabled": 0, "fusion_lat": 0.0, "bike_id": "d6a80398b6852579d4771f560cc88796", "rental_uris": {"ios": "https://dc.lft.to/lastmile_qr_scan", "android": "https://dc.lft.to/lastmile_qr_scan"}}, {"name": "4e4d2339e2230abeee7c65c6a23e0d3f", "type": "electric_bike", "lat": 38.861633, "is_reserved": 0, "lon": -77.130927, "fusion_lon": 0.0, "is_disabled": 0, "fusion_lat": 0.0, "bike_id": "4e4d2339e2230abeee7c65c6a23e0d3f", "rental_uris": {"ios": "https://dc.lft.to/lastmile_qr_scan", "android": "https://dc.lft.to/lastmile_qr_scan"}}, {"name": "3bf721c1e0d7b965fca6695954e1ccd9", "type": "electric_scooter", "lat": 38.919806, "is_reserved": 0, "lon": -77.04127833333334, "fusion_lon": 0.0, "is_disabled": 0, "fusion_lat": 0.0, "bike_id": "3bf721c1e0d7b965fca6695954e1ccd9", "rental_uris": {"ios": "https://dc.lft.to/lastmile_qr_scan", "android": "https://dc.lft.to/lastmile_qr_scan"}}, {"name": "6318f14301b9db433d58ad6186d9c241", "type": "electric_scooter", "lat": 38.8796845, "is_reserved": 0, "lon": -77.02435, "fusion_lon": 0.0, "is_disabled": 0, "fusion_lat": 0.0, "bike_id": "6318f14301b9db433d58ad6186d9c241", "rental_uris": {"ios": "https://dc.lft.to/lastmile_qr_scan", "android": "https://dc.lft.to/lastmile_qr_scan"}}, {"name": "21bb230b55aaf927a9db1837b02c1075", "type": "electric_scooter", "lat": 38.91487333333333, "is_reserved": 0, "lon": -77.0244545, "fusion_lon": 0.0, "is_disabled": 0, "fusion_lat": 0.0, "bike_id": "21bb230b55aaf927a9db1837b02c1075", "rental_uris": {"ios": "https://dc.lft.to/lastmile_qr_scan", "android": "https://dc.lft.to/lastmile_qr_scan"}}, {"name": "96a33d0872492d88198e7323c2851649", "type": "electric_scooter", "lat": 38.89995033333334, "is_reserved": 0, "lon": -77.02714483333334, "fusion_lon": 0.0, "is_disabled": 0, "fusion_lat": 0.0, "bike_id": "96a33d0872492d88198e7323c2851649", "rental_uris": {"ios": "https://dc.lft.to/lastmile_qr_scan", "android": "https://dc.lft.to/lastmile_qr_scan"}}, {"name": "af2117e7ffa5a64ccf182c7c59c1ef87", "type": "electric_scooter", "lat": 38.89671633333333, "is_reserved": 0, "lon": -76.94725133333333, "fusion_lon": 0.0, "is_disabled": 0, "fusion_lat": 0.0, "bike_id": "af2117e7ffa5a64ccf182c7c59c1ef87", "rental_uris": {"ios": "https://dc.lft.to/lastmile_qr_scan", "android": "https://dc.lft.to/lastmile_qr_scan"}}, {"name": "2e079e42bfebad14f3886e9f036f065e", "type": "electric_scooter", "lat": 38.91660483333333, "is_reserved": 0, "lon": -77.02698516666666, "fusion_lon": 0.0, "is_disabled": 0, "fusion_lat": 0.0, "bike_id": "2e079e42bfebad14f3886e9f036f065e", "rental_uris": {"ios": "https://dc.lft.to/lastmile_qr_scan", "android": "https://dc.lft.to/lastmile_qr_scan"}}, {"name": "91afbaa6e772537f1849e6ffebe26498", "type": "electric_scooter", "lat": 38.91417533333333, "is_reserved": 0, "lon": -77.0097785, "fusion_lon": 0.0, "is_disabled": 0, "fusion_lat": 0.0, "bike_id": "91afbaa6e772537f1849e6ffebe26498", "rental_uris": {"ios": "https://dc.lft.to/lastmile_qr_scan", "android": "https://dc.lft.to/lastmile_qr_scan"}}, {"name": "9a3868d9578e8978a808b21b4c43a74f", "type": "electric_scooter", "lat": 38.898808833333334, "is_reserved": 0, "lon": -77.0400395, "fusion_lon": 0.0, "is_disabled": 0, "fusion_lat": 0.0, "bike_id": "9a3868d9578e8978a808b21b4c43a74f", "rental_uris": {"ios": "https://dc.lft.to/lastmile_qr_scan", "android": "https://dc.lft.to/lastmile_qr_scan"}}, {"name": "b62173fab80cb2a25f3c4c39b94b5f6d", "type": "electric_scooter", "lat": 38.91957766666667, "is_reserved": 0, "lon": -77.023862, "fusion_lon": 0.0, "is_disabled": 0, "fusion_lat": 0.0, "bike_id": "b62173fab80cb2a25f3c4c39b94b5f6d", "rental_uris": {"ios": "https://dc.lft.to/lastmile_qr_scan", "android": "https://dc.lft.to/lastmile_qr_scan"}}, {"name": "ad28f4a93c04d76fe96903a583b265ef", "type": "electric_scooter", "lat": 38.902344666666664, "is_reserved": 0, "lon": -76.97408333333334, "fusion_lon": 0.0, "is_disabled": 0, "fusion_lat": 0.0, "bike_id": "ad28f4a93c04d76fe96903a583b265ef", "rental_uris": {"ios": "https://dc.lft.to/lastmile_qr_scan", "android": "https://dc.lft.to/lastmile_qr_scan"}}, {"name": "ef1a19880577792802d61948a146fe8c", "type": "electric_scooter", "lat": 38.90987633333334, "is_reserved": 0, "lon": -77.009002, "fusion_lon": 0.0, "is_disabled": 0, "fusion_lat": 0.0, "bike_id": "ef1a19880577792802d61948a146fe8c", "rental_uris": {"ios": "https://dc.lft.to/lastmile_qr_scan", "android": "https://dc.lft.to/lastmile_qr_scan"}}, {"name": "28cb70b406dc5b620c93a05f7bbb74a8", "type": "electric_scooter", "lat": 38.928889833333336, "is_reserved": 0, "lon": -77.03324466666666, "fusion_lon": 0.0, "is_disabled": 0, "fusion_lat": 0.0, "bike_id": "28cb70b406dc5b620c93a05f7bbb74a8", "rental_uris": {"ios": "https://dc.lft.to/lastmile_qr_scan", "android": "https://dc.lft.to/lastmile_qr_scan"}}, {"name": "fc2f0b195d9ad5e6ad4d5dd8b81508e9", "type": "electric_scooter", "lat": 38.909735166666664, "is_reserved": 0, "lon": -77.048223, "fusion_lon": 0.0, "is_disabled": 0, "fusion_lat": 0.0, "bike_id": "fc2f0b195d9ad5e6ad4d5dd8b81508e9", "rental_uris": {"ios": "https://dc.lft.to/lastmile_qr_scan", "android": "https://dc.lft.to/lastmile_qr_scan"}}, {"name": "6d728a721aa8d0baa890e5375afc1a2e", "type": "electric_scooter", "lat": 38.89764566666667, "is_reserved": 0, "lon": -77.0292155, "fusion_lon": 0.0, "is_disabled": 0, "fusion_lat": 0.0, "bike_id": "6d728a721aa8d0baa890e5375afc1a2e", "rental_uris": {"ios": "https://dc.lft.to/lastmile_qr_scan", "android": "https://dc.lft.to/lastmile_qr_scan"}}, {"name": "772dc61f63c31663674f10c5719e05ef", "type": "electric_scooter", "lat": 38.876859, "is_reserved": 0, "lon": -77.000727, "fusion_lon": 0.0, "is_disabled": 0, "fusion_lat": 0.0, "bike_id": "772dc61f63c31663674f10c5719e05ef", "rental_uris": {"ios": "https://dc.lft.to/lastmile_qr_scan", "android": "https://dc.lft.to/lastmile_qr_scan"}}, {"name": "a1a5e9903380f13cb30b6f43c55daaad", "type": "electric_scooter", "lat": 38.89856283333334, "is_reserved": 0, "lon": -77.02907333333333, "fusion_lon": 0.0, "is_disabled": 0, "fusion_lat": 0.0, "bike_id": "a1a5e9903380f13cb30b6f43c55daaad", "rental_uris": {"ios": "https://dc.lft.to/lastmile_qr_scan", "android": "https://dc.lft.to/lastmile_qr_scan"}}, {"name": "f8845fd32d14641787123b7dee0af659", "type": "electric_scooter", "lat": 38.94283083333333, "is_reserved": 0, "lon": -77.025053, "fusion_lon": 0.0, "is_disabled": 0, "fusion_lat": 0.0, "bike_id": "f8845fd32d14641787123b7dee0af659", "rental_uris": {"ios": "https://dc.lft.to/lastmile_qr_scan", "android": "https://dc.lft.to/lastmile_qr_scan"}}, {"name": "fbcdeac110d9ad7550299f141a60b230", "type": "electric_scooter", "lat": 38.9067035, "is_reserved": 0, "lon": -77.026991, "fusion_lon": 0.0, "is_disabled": 0, "fusion_lat": 0.0, "bike_id": "fbcdeac110d9ad7550299f141a60b230", "rental_uris": {"ios": "https://dc.lft.to/lastmile_qr_scan", "android": "https://dc.lft.to/lastmile_qr_scan"}}, {"name": "99b6f176a05a8dd3080ea0f2cabd18e9", "type": "electric_scooter", "lat": 38.89970366666667, "is_reserved": 0, "lon": -76.93775533333333, "fusion_lon": 0.0, "is_disabled": 0, "fusion_lat": 0.0, "bike_id": "99b6f176a05a8dd3080ea0f2cabd18e9", "rental_uris": {"ios": "https://dc.lft.to/lastmile_qr_scan", "android": "https://dc.lft.to/lastmile_qr_scan"}}, {"name": "1674493719dbe07facbacf43f882d092", "type": "electric_scooter", "lat": 38.90846066666667, "is_reserved": 0, "lon": -77.08529883333334, "fusion_lon": 0.0, "is_disabled": 0, "fusion_lat": 0.0, "bike_id": "1674493719dbe07facbacf43f882d092", "rental_uris": {"ios": "https://dc.lft.to/lastmile_qr_scan", "android": "https://dc.lft.to/lastmile_qr_scan"}}, {"name": "863916d7ea3a3c227c5752d172fcf172", "type": "electric_scooter", "lat": 38.90036466666667, "is_reserved": 0, "lon": -77.04501683333334, "fusion_lon": 0.0, "is_disabled": 0, "fusion_lat": 0.0, "bike_id": "863916d7ea3a3c227c5752d172fcf172", "rental_uris": {"ios": "https://dc.lft.to/lastmile_qr_scan", "android": "https://dc.lft.to/lastmile_qr_scan"}}, {"name": "b101ff88ce751e6b74d0090bad28f75a", "type": "electric_scooter", "lat": 38.86701033333333, "is_reserved": 0, "lon": -76.98710983333334, "fusion_lon": 0.0, "is_disabled": 0, "fusion_lat": 0.0, "bike_id": "b101ff88ce751e6b74d0090bad28f75a", "rental_uris": {"ios": "https://dc.lft.to/lastmile_qr_scan", "android": "https://dc.lft.to/lastmile_qr_scan"}}, {"name": "1bb379f21328ed3ad525a2d260744cd3", "type": "electric_bike", "lat": 38.9662425, "is_reserved": 0, "lon": -76.97670783333334, "fusion_lon": 0.0, "is_disabled": 0, "fusion_lat": 0.0, "bike_id": "1bb379f21328ed3ad525a2d260744cd3", "rental_uris": {"ios": "https://dc.lft.to/lastmile_qr_scan", "android": "https://dc.lft.to/lastmile_qr_scan"}}, {"name": "1c89216cf9cf59abe7c2706ec0847f2a", "type": "electric_bike", "lat": 38.85691766666667, "is_reserved": 0, "lon": -77.0853655, "fusion_lon": 0.0, "is_disabled": 0, "fusion_lat": 0.0, "bike_id": "1c89216cf9cf59abe7c2706ec0847f2a", "rental_uris": {"ios": "https://dc.lft.to/lastmile_qr_scan", "android": "https://dc.lft.to/lastmile_qr_scan"}}, {"name": "9c0681fa6442cabe337898b9ce506ce1", "type": "electric_scooter", "lat": 38.900053166666666, "is_reserved": 0, "lon": -76.99159416666667, "fusion_lon": 0.0, "is_disabled": 0, "fusion_lat": 0.0, "bike_id": "9c0681fa6442cabe337898b9ce506ce1", "rental_uris": {"ios": "https://dc.lft.to/lastmile_qr_scan", "android": "https://dc.lft.to/lastmile_qr_scan"}}, {"name": "6f76aff1096cfcd062e84deb629da123", "type": "electric_scooter", "lat": 38.93976033333333, "is_reserved": 0, "lon": -77.02894916666666, "fusion_lon": 0.0, "is_disabled": 0, "fusion_lat": 0.0, "bike_id": "6f76aff1096cfcd062e84deb629da123", "rental_uris": {"ios": "https://dc.lft.to/lastmile_qr_scan", "android": "https://dc.lft.to/lastmile_qr_scan"}}, {"name": "0dec3798857aa52ae4f1013e7cd31c87", "type": "electric_scooter", "lat": 38.933758, "is_reserved": 0, "lon": -77.0297575, "fusion_lon": 0.0, "is_disabled": 0, "fusion_lat": 0.0, "bike_id": "0dec3798857aa52ae4f1013e7cd31c87", "rental_uris": {"ios": "https://dc.lft.to/lastmile_qr_scan", "android": "https://dc.lft.to/lastmile_qr_scan"}}, {"name": "811a34402825aa49997b58547082886c", "type": "electric_scooter", "lat": 38.92061533333333, "is_reserved": 0, "lon": -77.0346375, "fusion_lon": 0.0, "is_disabled": 0, "fusion_lat": 0.0, "bike_id": "811a34402825aa49997b58547082886c", "rental_uris": {"ios": "https://dc.lft.to/lastmile_qr_scan", "android": "https://dc.lft.to/lastmile_qr_scan"}}, {"name": "50552828f3e98a5f142edd62115278c2", "type": "electric_scooter", "lat": 38.920511, "is_reserved": 0, "lon": -77.03344666666666, "fusion_lon": 0.0, "is_disabled": 0, "fusion_lat": 0.0, "bike_id": "50552828f3e98a5f142edd62115278c2", "rental_uris": {"ios": "https://dc.lft.to/lastmile_qr_scan", "android": "https://dc.lft.to/lastmile_qr_scan"}}, {"name": "0c2776737b294d438a04a099eb207b07", "type": "electric_scooter", "lat": 38.92459366666667, "is_reserved": 0, "lon": -77.03279716666667, "fusion_lon": 0.0, "is_disabled": 0, "fusion_lat": 0.0, "bike_id": "0c2776737b294d438a04a099eb207b07", "rental_uris": {"ios": "https://dc.lft.to/lastmile_qr_scan", "android": "https://dc.lft.to/lastmile_qr_scan"}}, {"name": "c7e6db050dd9acf4d0927064e4e7aa44", "type": "electric_bike", "lat": 38.999413, "is_reserved": 0, "lon": -77.01766866666667, "fusion_lon": 0.0, "is_disabled": 0, "fusion_lat": 0.0, "bike_id": "c7e6db050dd9acf4d0927064e4e7aa44", "rental_uris": {"ios": "https://dc.lft.to/lastmile_qr_scan", "android": "https://dc.lft.to/lastmile_qr_scan"}}, {"name": "dbe9f6c74d2bfd793e864879de6c4bb9", "type": "electric_scooter", "lat": 38.9160335, "is_reserved": 0, "lon": -77.04901466666666, "fusion_lon": 0.0, "is_disabled": 0, "fusion_lat": 0.0, "bike_id": "dbe9f6c74d2bfd793e864879de6c4bb9", "rental_uris": {"ios": "https://dc.lft.to/lastmile_qr_scan", "android": "https://dc.lft.to/lastmile_qr_scan"}}, {"name": "4ec5be52e7df7e5317b1ae015ba3bc3c", "type": "electric_scooter", "lat": 38.88586383333333, "is_reserved": 0, "lon": -77.020022, "fusion_lon": 0.0, "is_disabled": 0, "fusion_lat": 0.0, "bike_id": "4ec5be52e7df7e5317b1ae015ba3bc3c", "rental_uris": {"ios": "https://dc.lft.to/lastmile_qr_scan", "android": "https://dc.lft.to/lastmile_qr_scan"}}, {"name": "6b82c8137e7d9bbb11ffab12d6d7c92d", "type": "electric_scooter", "lat": 38.9035555, "is_reserved": 0, "lon": -77.038589, "fusion_lon": 0.0, "is_disabled": 0, "fusion_lat": 0.0, "bike_id": "6b82c8137e7d9bbb11ffab12d6d7c92d", "rental_uris": {"ios": "https://dc.lft.to/lastmile_qr_scan", "android": "https://dc.lft.to/lastmile_qr_scan"}}, {"name": "4fee22f096f4978528d480348a79dee6", "type": "electric_scooter", "lat": 38.90038583333333, "is_reserved": 0, "lon": -77.039962, "fusion_lon": 0.0, "is_disabled": 0, "fusion_lat": 0.0, "bike_id": "4fee22f096f4978528d480348a79dee6", "rental_uris": {"ios": "https://dc.lft.to/lastmile_qr_scan", "android": "https://dc.lft.to/lastmile_qr_scan"}}, {"name": "d4650cb9236286ecf9e1c37e410880b6", "type": "electric_scooter", "lat": 38.89345516666667, "is_reserved": 0, "lon": -76.99149866666667, "fusion_lon": 0.0, "is_disabled": 0, "fusion_lat": 0.0, "bike_id": "d4650cb9236286ecf9e1c37e410880b6", "rental_uris": {"ios": "https://dc.lft.to/lastmile_qr_scan", "android": "https://dc.lft.to/lastmile_qr_scan"}}, {"name": "7d6f1a890f1a2b19196cf746719411dd", "type": "electric_scooter", "lat": 38.917305166666665, "is_reserved": 0, "lon": -77.02300916666667, "fusion_lon": 0.0, "is_disabled": 0, "fusion_lat": 0.0, "bike_id": "7d6f1a890f1a2b19196cf746719411dd", "rental_uris": {"ios": "https://dc.lft.to/lastmile_qr_scan", "android": "https://dc.lft.to/lastmile_qr_scan"}}, {"name": "398f96ff24ef68c5957e9a586e085915", "type": "electric_scooter", "lat": 38.878706333333334, "is_reserved": 0, "lon": -76.965386, "fusion_lon": 0.0, "is_disabled": 0, "fusion_lat": 0.0, "bike_id": "398f96ff24ef68c5957e9a586e085915", "rental_uris": {"ios": "https://dc.lft.to/lastmile_qr_scan", "android": "https://dc.lft.to/lastmile_qr_scan"}}, {"name": "2be6aad0f21a166e9f0916e8020730bd", "type": "electric_scooter", "lat": 38.924732166666665, "is_reserved": 0, "lon": -77.028346, "fusion_lon": 0.0, "is_disabled": 0, "fusion_lat": 0.0, "bike_id": "2be6aad0f21a166e9f0916e8020730bd", "rental_uris": {"ios": "https://dc.lft.to/lastmile_qr_scan", "android": "https://dc.lft.to/lastmile_qr_scan"}}, {"name": "b1b7a5c62fc769721d120035d7765544", "type": "electric_scooter", "lat": 38.8884035, "is_reserved": 0, "lon": -77.04905733333334, "fusion_lon": 0.0, "is_disabled": 0, "fusion_lat": 0.0, "bike_id": "b1b7a5c62fc769721d120035d7765544", "rental_uris": {"ios": "https://dc.lft.to/lastmile_qr_scan", "android": "https://dc.lft.to/lastmile_qr_scan"}}, {"name": "9de925d9b34af049fb6e230c56cbd4d4", "type": "electric_scooter", "lat": 38.90257833333333, "is_reserved": 0, "lon": -77.054052, "fusion_lon": 0.0, "is_disabled": 0, "fusion_lat": 0.0, "bike_id": "9de925d9b34af049fb6e230c56cbd4d4", "rental_uris": {"ios": "https://dc.lft.to/lastmile_qr_scan", "android": "https://dc.lft.to/lastmile_qr_scan"}}, {"name": "3151385050e5da95f9a6bfb0f01776a9", "type": "electric_scooter", "lat": 38.88622266666667, "is_reserved": 0, "lon": -76.99615816666666, "fusion_lon": 0.0, "is_disabled": 0, "fusion_lat": 0.0, "bike_id": "3151385050e5da95f9a6bfb0f01776a9", "rental_uris": {"ios": "https://dc.lft.to/lastmile_qr_scan", "android": "https://dc.lft.to/lastmile_qr_scan"}}, {"name": "b7cd918e0d08e9d618459900ac19b765", "type": "electric_scooter", "lat": 38.922899666666666, "is_reserved": 0, "lon": -77.04258166666666, "fusion_lon": 0.0, "is_disabled": 0, "fusion_lat": 0.0, "bike_id": "b7cd918e0d08e9d618459900ac19b765", "rental_uris": {"ios": "https://dc.lft.to/lastmile_qr_scan", "android": "https://dc.lft.to/lastmile_qr_scan"}}, {"name": "e4feef5f65c388fa3ff112aee4e8d654", "type": "electric_scooter", "lat": 38.911946666666665, "is_reserved": 0, "lon": -77.03663033333333, "fusion_lon": 0.0, "is_disabled": 0, "fusion_lat": 0.0, "bike_id": "e4feef5f65c388fa3ff112aee4e8d654", "rental_uris": {"ios": "https://dc.lft.to/lastmile_qr_scan", "android": "https://dc.lft.to/lastmile_qr_scan"}}, {"name": "8a33c802037cb0afa738944d6dbf4449", "type": "electric_scooter", "lat": 38.9086765, "is_reserved": 0, "lon": -77.031973, "fusion_lon": 0.0, "is_disabled": 0, "fusion_lat": 0.0, "bike_id": "8a33c802037cb0afa738944d6dbf4449", "rental_uris": {"ios": "https://dc.lft.to/lastmile_qr_scan", "android": "https://dc.lft.to/lastmile_qr_scan"}}, {"name": "c5068b65336ceb6a289aa77acd8f4e72", "type": "electric_bike", "lat": 39.038830833333336, "is_reserved": 0, "lon": -76.99044516666666, "fusion_lon": 0.0, "is_disabled": 0, "fusion_lat": 0.0, "bike_id": "c5068b65336ceb6a289aa77acd8f4e72", "rental_uris": {"ios": "https://dc.lft.to/lastmile_qr_scan", "android": "https://dc.lft.to/lastmile_qr_scan"}}, {"name": "a345ea921fb4aac222bcd0446fd4e2de", "type": "electric_scooter", "lat": 38.94302866666666, "is_reserved": 0, "lon": -77.05932333333334, "fusion_lon": 0.0, "is_disabled": 0, "fusion_lat": 0.0, "bike_id": "a345ea921fb4aac222bcd0446fd4e2de", "rental_uris": {"ios": "https://dc.lft.to/lastmile_qr_scan", "android": "https://dc.lft.to/lastmile_qr_scan"}}, {"name": "f485402cb8669dcefe2f3a00138cd91a", "type": "electric_scooter", "lat": 38.900735166666664, "is_reserved": 0, "lon": -77.050159, "fusion_lon": 0.0, "is_disabled": 0, "fusion_lat": 0.0, "bike_id": "f485402cb8669dcefe2f3a00138cd91a", "rental_uris": {"ios": "https://dc.lft.to/lastmile_qr_scan", "android": "https://dc.lft.to/lastmile_qr_scan"}}, {"name": "ac4e5602a798cddcc8d8bdb11aa9b06a", "type": "electric_scooter", "lat": 38.90126516666667, "is_reserved": 0, "lon": -77.04148166666667, "fusion_lon": 0.0, "is_disabled": 0, "fusion_lat": 0.0, "bike_id": "ac4e5602a798cddcc8d8bdb11aa9b06a", "rental_uris": {"ios": "https://dc.lft.to/lastmile_qr_scan", "android": "https://dc.lft.to/lastmile_qr_scan"}}, {"name": "2e281a42a4edaa8af6f61b2152b0d5f8", "type": "electric_scooter", "lat": 38.90926133333333, "is_reserved": 0, "lon": -77.032076, "fusion_lon": 0.0, "is_disabled": 0, "fusion_lat": 0.0, "bike_id": "2e281a42a4edaa8af6f61b2152b0d5f8", "rental_uris": {"ios": "https://dc.lft.to/lastmile_qr_scan", "android": "https://dc.lft.to/lastmile_qr_scan"}}, {"name": "2e2ba0feee42b6b231974d8ef34e402b", "type": "electric_scooter", "lat": 38.906114, "is_reserved": 0, "lon": -77.07486333333334, "fusion_lon": 0.0, "is_disabled": 0, "fusion_lat": 0.0, "bike_id": "2e2ba0feee42b6b231974d8ef34e402b", "rental_uris": {"ios": "https://dc.lft.to/lastmile_qr_scan", "android": "https://dc.lft.to/lastmile_qr_scan"}}, {"name": "5536efb8cc9d308655f7e8b4a5867c4b", "type": "electric_scooter", "lat": 38.934295, "is_reserved": 0, "lon": -77.04004733333333, "fusion_lon": 0.0, "is_disabled": 0, "fusion_lat": 0.0, "bike_id": "5536efb8cc9d308655f7e8b4a5867c4b", "rental_uris": {"ios": "https://dc.lft.to/lastmile_qr_scan", "android": "https://dc.lft.to/lastmile_qr_scan"}}, {"name": "7e8c26745d550a5b5a70ee02934b1f1e", "type": "electric_scooter", "lat": 38.91591316666667, "is_reserved": 0, "lon": -77.04475166666667, "fusion_lon": 0.0, "is_disabled": 0, "fusion_lat": 0.0, "bike_id": "7e8c26745d550a5b5a70ee02934b1f1e", "rental_uris": {"ios": "https://dc.lft.to/lastmile_qr_scan", "android": "https://dc.lft.to/lastmile_qr_scan"}}, {"name": "f6ae0a54839e3f38e9123ef5aa0e9f2c", "type": "electric_scooter", "lat": 38.8851785, "is_reserved": 0, "lon": -77.03065683333334, "fusion_lon": 0.0, "is_disabled": 0, "fusion_lat": 0.0, "bike_id": "f6ae0a54839e3f38e9123ef5aa0e9f2c", "rental_uris": {"ios": "https://dc.lft.to/lastmile_qr_scan", "android": "https://dc.lft.to/lastmile_qr_scan"}}, {"name": "9392e321ebb8a50be3f137947f4db2cd", "type": "electric_scooter", "lat": 38.8832215, "is_reserved": 0, "lon": -77.0175985, "fusion_lon": 0.0, "is_disabled": 0, "fusion_lat": 0.0, "bike_id": "9392e321ebb8a50be3f137947f4db2cd", "rental_uris": {"ios": "https://dc.lft.to/lastmile_qr_scan", "android": "https://dc.lft.to/lastmile_qr_scan"}}, {"name": "afd64033c580ad06057ce981ac34425b", "type": "electric_scooter", "lat": 38.9168405, "is_reserved": 0, "lon": -77.0239565, "fusion_lon": 0.0, "is_disabled": 0, "fusion_lat": 0.0, "bike_id": "afd64033c580ad06057ce981ac34425b", "rental_uris": {"ios": "https://dc.lft.to/lastmile_qr_scan", "android": "https://dc.lft.to/lastmile_qr_scan"}}, {"name": "253b9fc2759677b13b20ecc906d85475", "type": "electric_bike", "lat": 38.9220805, "is_reserved": 0, "lon": -76.98800533333333, "fusion_lon": 0.0, "is_disabled": 0, "fusion_lat": 0.0, "bike_id": "253b9fc2759677b13b20ecc906d85475", "rental_uris": {"ios": "https://dc.lft.to/lastmile_qr_scan", "android": "https://dc.lft.to/lastmile_qr_scan"}}, {"name": "04b3fc94c0c5ec70216e188734af623c", "type": "electric_scooter", "lat": 38.88397333333333, "is_reserved": 0, "lon": -76.93043916666667, "fusion_lon": 0.0, "is_disabled": 0, "fusion_lat": 0.0, "bike_id": "04b3fc94c0c5ec70216e188734af623c", "rental_uris": {"ios": "https://dc.lft.to/lastmile_qr_scan", "android": "https://dc.lft.to/lastmile_qr_scan"}}, {"name": "21d6d8b3bd4fc0b58c85934f5ee69cf6", "type": "electric_scooter", "lat": 38.89638516666667, "is_reserved": 0, "lon": -77.0322815, "fusion_lon": 0.0, "is_disabled": 0, "fusion_lat": 0.0, "bike_id": "21d6d8b3bd4fc0b58c85934f5ee69cf6", "rental_uris": {"ios": "https://dc.lft.to/lastmile_qr_scan", "android": "https://dc.lft.to/lastmile_qr_scan"}}, {"name": "f07f483ac9d73e3b435422370d3299e1", "type": "electric_scooter", "lat": 38.92326033333333, "is_reserved": 0, "lon": -77.02973033333333, "fusion_lon": 0.0, "is_disabled": 0, "fusion_lat": 0.0, "bike_id": "f07f483ac9d73e3b435422370d3299e1", "rental_uris": {"ios": "https://dc.lft.to/lastmile_qr_scan", "android": "https://dc.lft.to/lastmile_qr_scan"}}, {"name": "006b606286a5487571bb299ee1750b83", "type": "electric_scooter", "lat": 38.894922666666666, "is_reserved": 0, "lon": -77.01014766666667, "fusion_lon": 0.0, "is_disabled": 0, "fusion_lat": 0.0, "bike_id": "006b606286a5487571bb299ee1750b83", "rental_uris": {"ios": "https://dc.lft.to/lastmile_qr_scan", "android": "https://dc.lft.to/lastmile_qr_scan"}}, {"name": "00e90c82389aa2da1f8494ba642d2a99", "type": "electric_scooter", "lat": 38.91823633333333, "is_reserved": 0, "lon": -77.0314675, "fusion_lon": 0.0, "is_disabled": 0, "fusion_lat": 0.0, "bike_id": "00e90c82389aa2da1f8494ba642d2a99", "rental_uris": {"ios": "https://dc.lft.to/lastmile_qr_scan", "android": "https://dc.lft.to/lastmile_qr_scan"}}, {"name": "566de97c125c29233664dc4acdf13f8f", "type": "electric_scooter", "lat": 38.93588783333333, "is_reserved": 0, "lon": -77.0241385, "fusion_lon": 0.0, "is_disabled": 0, "fusion_lat": 0.0, "bike_id": "566de97c125c29233664dc4acdf13f8f", "rental_uris": {"ios": "https://dc.lft.to/lastmile_qr_scan", "android": "https://dc.lft.to/lastmile_qr_scan"}}, {"name": "bffcc334880bd2d10c5dec049545be1f", "type": "electric_scooter", "lat": 38.914848, "is_reserved": 0, "lon": -77.04159666666666, "fusion_lon": 0.0, "is_disabled": 0, "fusion_lat": 0.0, "bike_id": "bffcc334880bd2d10c5dec049545be1f", "rental_uris": {"ios": "https://dc.lft.to/lastmile_qr_scan", "android": "https://dc.lft.to/lastmile_qr_scan"}}, {"name": "a0114e2f5943836b7b2498a537ec8269", "type": "electric_scooter", "lat": 38.93889333333333, "is_reserved": 0, "lon": -77.02466983333333, "fusion_lon": 0.0, "is_disabled": 0, "fusion_lat": 0.0, "bike_id": "a0114e2f5943836b7b2498a537ec8269", "rental_uris": {"ios": "https://dc.lft.to/lastmile_qr_scan", "android": "https://dc.lft.to/lastmile_qr_scan"}}, {"name": "d2cd041e89066dfc470e3ff01deff7e7", "type": "electric_scooter", "lat": 38.88756633333333, "is_reserved": 0, "lon": -76.97980583333333, "fusion_lon": 0.0, "is_disabled": 0, "fusion_lat": 0.0, "bike_id": "d2cd041e89066dfc470e3ff01deff7e7", "rental_uris": {"ios": "https://dc.lft.to/lastmile_qr_scan", "android": "https://dc.lft.to/lastmile_qr_scan"}}, {"name": "413300c472c79796ccd2b08b63124e56", "type": "electric_scooter", "lat": 38.91899133333333, "is_reserved": 0, "lon": -77.01972533333333, "fusion_lon": 0.0, "is_disabled": 0, "fusion_lat": 0.0, "bike_id": "413300c472c79796ccd2b08b63124e56", "rental_uris": {"ios": "https://dc.lft.to/lastmile_qr_scan", "android": "https://dc.lft.to/lastmile_qr_scan"}}, {"name": "a8ed356c7ba8f047e7d87d7a4b03168a", "type": "electric_scooter", "lat": 38.90276633333333, "is_reserved": 0, "lon": -77.03850966666667, "fusion_lon": 0.0, "is_disabled": 0, "fusion_lat": 0.0, "bike_id": "a8ed356c7ba8f047e7d87d7a4b03168a", "rental_uris": {"ios": "https://dc.lft.to/lastmile_qr_scan", "android": "https://dc.lft.to/lastmile_qr_scan"}}, {"name": "7c15a478e3a611915238552369683afc", "type": "electric_scooter", "lat": 38.92039533333333, "is_reserved": 0, "lon": -77.03199583333334, "fusion_lon": 0.0, "is_disabled": 0, "fusion_lat": 0.0, "bike_id": "7c15a478e3a611915238552369683afc", "rental_uris": {"ios": "https://dc.lft.to/lastmile_qr_scan", "android": "https://dc.lft.to/lastmile_qr_scan"}}, {"name": "f7123b83795ce3d0ff8318fa8f2b3205", "type": "electric_scooter", "lat": 38.874971, "is_reserved": 0, "lon": -76.99796166666667, "fusion_lon": 0.0, "is_disabled": 0, "fusion_lat": 0.0, "bike_id": "f7123b83795ce3d0ff8318fa8f2b3205", "rental_uris": {"ios": "https://dc.lft.to/lastmile_qr_scan", "android": "https://dc.lft.to/lastmile_qr_scan"}},