{"data": {"bikes": [{"lat": 38.9249225, "is_disabled": 0, "type": "electric_scooter", "lon": -77.052154, "bike_id": "0df14e91311c66ea7b21fc366342db6e", "fusion_lat": 0.0, "name": "0df14e91311c66ea7b21fc366342db6e", "is_reserved": 0, "rental_uris": {"android": "https://dc.lft.to/lastmile_qr_scan", "ios": "https://dc.lft.to/lastmile_qr_scan"}, "fusion_lon": 0.0}, {"lat": 38.911669833333335, "is_disabled": 0, "type": "electric_scooter", "lon": -77.038726, "bike_id": "8d3ed216c724d157310ba326b8f0f53e", "fusion_lat": 0.0, "name": "8d3ed216c724d157310ba326b8f0f53e", "is_reserved": 0, "rental_uris": {"android": "https://dc.lft.to/lastmile_qr_scan", "ios": "https://dc.lft.to/lastmile_qr_scan"}, "fusion_lon": 0.0}, {"lat": 38.93342966666667, "is_disabled": 0, "type": "electric_scooter", "lon": -77.05870916666667, "bike_id": "65a8ceb0de8c6d44ef335bd900f0a57e", "fusion_lat": 0.0, "name": "65a8ceb0de8c6d44ef335bd900f0a57e", "is_reserved": 0, "rental_uris": {"android": "https://dc.lft.to/lastmile_qr_scan", "ios": "https://dc.lft.to/lastmile_qr_scan"}, "fusion_lon": 0.0}, {"lat": 38.907810166666664, "is_disabled": 0, "type": "electric_scooter", "lon": -77.06930366666667, "bike_id": "37c8bfa842984a59209a4c6cf47c5e14", "fusion_lat": 0.0, "name": "37c8bfa842984a59209a4c6cf47c5e14", "is_reserved": 0, "rental_uris": {"android": "https://dc.lft.to/lastmile_qr_scan", "ios": "https://dc.lft.to/lastmile_qr_scan"}, "fusion_lon": 0.0}, {"lat": 38.897046833333334, "is_disabled": 0, "type": "electric_scooter", "lon": -77.00731183333333, "bike_id": "1d937fff0d378fbc1d5f0a05cca109cb", "fusion_lat": 0.0, "name": "1d937fff0d378fbc1d5f0a05cca109cb", "is_reserved": 0, "rental_uris": {"android": "https://dc.lft.to/lastmile_qr_scan", "ios": "https://dc.lft.to/lastmile_qr_scan"}, "fusion_lon": 0.0}, {"lat": 38.866474333333336, "is_disabled": 0, "type": "electric_scooter", "lon": -76.98888833333334, "bike_id": "e7f54ea8b892fdbe97c52368221f95ec", "fusion_lat": 0.0, "name": "e7f54ea8b892fdbe97c52368221f95ec", "is_reserved": 0, "rental_uris": {"android": "https://dc.lft.to/lastmile_qr_scan", "ios": "https://dc.lft.to/lastmile_qr_scan"}, "fusion_lon": 0.0}, {"lat": 38.9002525, "is_disabled": 0, "type": "electric_scooter", "lon": -76.99616616666667, "bike_id": "61d8bd5472e69a5cd0ebfba7fa42461f", "fusion_lat": 0.0, "name": "61d8bd5472e69a5cd0ebfba7fa42461f", "is_reserved": 0, "rental_uris": {"android": "https://dc.lft.to/lastmile_qr_scan", "ios": "https://dc.lft.to/lastmile_qr_scan"}, "fusion_lon": 0.0}, {"lat": 38.923088666666665, "is_disabled": 0, "type": "electric_scooter", "lon": -77.03971583333333, "bike_id": "2afcd0592876c8cfa82a19ccb503dac0", "fusion_lat": 0.0, "name": "2afcd0592876c8cfa82a19ccb503dac0", "is_reserved": 0, "rental_uris": {"android": "https://dc.lft.to/lastmile_qr_scan", "ios": "https://dc.lft.to/lastmile_qr_scan"}, "fusion_lon": 0.0}, {"lat": 38.91950933333333, "is_disabled": 0, "type": "electric_scooter", "lon": -77.02496633333334, "bike_id": "6c52feb0f1c00aba943d27c41aa36b53", "fusion_lat": 0.0, "name": "6c52feb0f1c00aba943d27c41aa36b53", "is_reserved": 0, "rental_uris": {"android": "https://dc.lft.to/lastmile_qr_scan", "ios": "https://dc.lft.to/lastmile_qr_scan"}, "fusion_lon": 0.0}, {"lat": 38.90104783333334, "is_disabled": 0, "type": "electric_scooter", "lon": -77.05904183333334, "bike_id": "517a34db648bf6d707c80623e57b9dd9", "fusion_lat": 0.0, "name": "517a34db648bf6d707c80623e57b9dd9", "is_reserved": 0, "rental_uris": {"android": "https://dc.lft.to/lastmile_qr_scan", "ios": "https://dc.lft.to/lastmile_qr_scan"}, "fusion_lon": 0.0}, {"lat": 38.97190333333333, "is_disabled": 0, "type": "electric_bike", "lon": -77.02720016666666, "bike_id": "6ed6ed3a3d67b0a70c3c2b1d2d06d31e", "fusion_lat": 0.0, "name": "6ed6ed3a3d67b0a70c3c2b1d2d06d31e", "is_reserved": 0, "rental_uris": {"android": "https://dc.lft.to/lastmile_qr_scan", "ios": "https://dc.lft.to/lastmile_qr_scan"}, "fusion_lon": 0.0}, {"lat": 38.924218333333336, "is_disabled": 0, "type": "electric_scooter", "lon": -77.0517775, "bike_id": "0d6a7c6d6b83c1cd4be50c41f8f1bd5a", "fusion_lat": 0.0, "name": "0d6a7c6d6b83c1cd4be50c41f8f1bd5a", "is_reserved": 0, "rental_uris": {"android": "https://dc.lft.to/lastmile_qr_scan", "ios": "https://dc.lft.to/lastmile_qr_scan"}, "fusion_lon": 0.0}, {"lat": 38.9096135, "is_disabled": 0, "type": "electric_scooter", "lon": -77.00927116666666, "bike_id": "f2d45be06f089111b14ac7b0c8e1a413", "fusion_lat": 0.0, "name": "f2d45be06f089111b14ac7b0c8e1a413", "is_reserved": 0, "rental_uris": {"android": "https://dc.lft.to/lastmile_qr_scan", "ios": "https://dc.lft.to/lastmile_qr_scan"}, "fusion_lon": 0.0}, {"lat": 38.91262733333333, "is_disabled": 0, "type": "electric_scooter", "lon": -77.03935266666667, "bike_id": "19adfa4c23e0b5cbb9f51192a3b87b01", "fusion_lat": 0.0, "name": "19adfa4c23e0b5cbb9f51192a3b87b01", "is_reserved": 0, "rental_uris": {"android": "https://dc.lft.to/lastmile_qr_scan", "ios": "https://dc.lft.to/lastmile_qr_scan"}, "fusion_lon": 0.0}, {"lat": 38.889846166666665, "is_disabled": 0, "type": "electric_bike", "lon": -77.07134366666666, "bike_id": "eb39b8c779675ad4e5cd0a0dbe63a71f", "fusion_lat": 0.0, "name": "eb39b8c779675ad4e5cd0a0dbe63a71f", "is_reserved": 0, "rental_uris": {"android": "https://dc.lft.to/lastmile_qr_scan", "ios": "https://dc.lft.to/lastmile_qr_scan"}, "fusion_lon": 0.0}, {"lat": 38.905591, "is_disabled": 0, "type": "electric_scooter", "lon": -77.03404216666667, "bike_id": "e000254bb6d393f5852e0daa7accaf56", "fusion_lat": 0.0, "name": "e000254bb6d393f5852e0daa7accaf56", "is_reserved": 0, "rental_uris": {"android": "https://dc.lft.to/lastmile_qr_scan", "ios": "https://dc.lft.to/lastmile_qr_scan"}, "fusion_lon": 0.0}, {"lat": 38.908606, "is_disabled": 0, "type": "electric_scooter", "lon": -77.02409083333333, "bike_id": "9373297826596c1c1e46ff6e92f5fae8", "fusion_lat": 0.0, "name": "9373297826596c1c1e46ff6e92f5fae8", "is_reserved": 0, "rental_uris": {"android": "https://dc.lft.to/lastmile_qr_scan", "ios": "https://dc.lft.to/lastmile_qr_scan"}, "fusion_lon": 0.0}, {"lat": 38.89342583333333, "is_disabled": 0, "type": "electric_scooter", "lon": -76.949382, "bike_id": "aa99f235c5fad470600f87c7cc59f7cf", "fusion_lat": 0.0, "name": "aa99f235c5fad470600f87c7cc59f7cf", "is_reserved": 0, "rental_uris": {"android": "https://dc.lft.to/lastmile_qr_scan", "ios": "https://dc.lft.to/lastmile_qr_scan"}, "fusion_lon": 0.0}, {"lat": 38.91704083333333, "is_disabled": 0, "type": "electric_scooter", "lon": -77.023926, "bike_id": "e24a8fc84c8063452ecbd5322a565bf3", "fusion_lat": 0.0, "name": "e24a8fc84c8063452ecbd5322a565bf3", "is_reserved": 0, "rental_uris": {"android": "https://dc.lft.to/lastmile_qr_scan", "ios": "https://dc.lft.to/lastmile_qr_scan"}, "fusion_lon": 0.0}, {"lat": 38.886137, "is_disabled": 0, "type": "electric_scooter", "lon": -77.02174716666667, "bike_id": "11dc506c834167d23810b9deab4a02fc", "fusion_lat": 0.0, "name": "11dc506c834167d23810b9deab4a02fc", "is_reserved": 0, "rental_uris": {"android": "https://dc.lft.to/lastmile_qr_scan", "ios": "https://dc.lft.to/lastmile_qr_scan"}, "fusion_lon": 0.0}, {"lat": 38.906416666666665, "is_disabled": 0, "type": "electric_scooter", "lon": -77.04199516666667, "bike_id": "ab19b42b48584823d7f533d287787a5c", "fusion_lat": 0.0, "name": "ab19b42b48584823d7f533d287787a5c", "is_reserved": 0, "rental_uris": {"android": "https://dc.lft.to/lastmile_qr_scan", "ios": "https://dc.lft.to/lastmile_qr_scan"}, "fusion_lon": 0.0}, {"lat": 38.90258133333333, "is_disabled": 0, "type": "electric_scooter", "lon": -77.03960583333334, "bike_id": "34d726ed3e3bfee583a5d75a2e5ff345", "fusion_lat": 0.0, "name": "34d726ed3e3bfee583a5d75a2e5ff345", "is_reserved": 0, "rental_uris": {"android": "https://dc.lft.to/lastmile_qr_scan", "ios": "https://dc.lft.to/lastmile_qr_scan"}, "fusion_lon": 0.0}, {"lat": 38.9058215, "is_disabled": 0, "type": "electric_scooter", "lon": -76.98622766666666, "bike_id": "384634292c29b202b8e8adf1fb3ab3f9", "fusion_lat": 0.0, "name": "384634292c29b202b8e8adf1fb3ab3f9", "is_reserved": 0, "rental_uris": {"android": "https://dc.lft.to/lastmile_qr_scan", "ios": "https://dc.lft.to/lastmile_qr_scan"}, "fusion_lon": 0.0}, {"lat": 38.92122083333334, "is_disabled": 0, "type": "electric_scooter", "lon": -77.04573383333333, "bike_id": "2ecdb8f1cb01c12c8004d37adbb47d78", "fusion_lat": 0.0, "name": "2ecdb8f1cb01c12c8004d37adbb47d78", "is_reserved": 0, "rental_uris": {"android": "https://dc.lft.to/lastmile_qr_scan", "ios": "https://dc.lft.to/lastmile_qr_scan"}, "fusion_lon": 0.0}, {"lat": 38.904887333333335, "is_disabled": 0, "type": "electric_scooter", "lon": -77.04207833333334, "bike_id": "df431bb729355b81c24b6b83fe491048", "fusion_lat": 0.0, "name": "df431bb729355b81c24b6b83fe491048", "is_reserved": 0, "rental_uris": {"android": "https://dc.lft.to/lastmile_qr_scan", "ios": "https://dc.lft.to/lastmile_qr_scan"}, "fusion_lon": 0.0}, {"lat": 38.91738016666667, "is_disabled": 0, "type": "electric_scooter", "lon": -77.03191566666666, "bike_id": "001258beb111a60f2c56ffc7f2a9bb9f", "fusion_lat": 0.0, "name": "001258beb111a60f2c56ffc7f2a9bb9f", "is_reserved": 0, "rental_uris": {"android": "https://dc.lft.to/lastmile_qr_scan", "ios": "https://dc.lft.to/lastmile_qr_scan"}, "fusion_lon": 0.0}, {"lat": 38.939117, "is_disabled": 0, "type": "electric_scooter", "lon": -77.06679233333334, "bike_id": "316fb72342b544e39d9c44cfdf223cbd", "fusion_lat": 0.0, "name": "316fb72342b544e39d9c44cfdf223cbd", "is_reserved": 0, "rental_uris": {"android": "https://dc.lft.to/lastmile_qr_scan", "ios": "https://dc.lft.to/lastmile_qr_scan"}, "fusion_lon": 0.0}, {"lat": 38.9085965, "is_disabled": 0, "type": "electric_bike", "lon": -76.940167, "bike_id": "4f36a812846e4fe2f5c33325099f13e6", "fusion_lat": 0.0, "name": "4f36a812846e4fe2f5c33325099f13e6", "is_reserved": 0, "rental_uris": {"android": "https://dc.lft.to/lastmile_qr_scan", "ios": "https://dc.lft.to/lastmile_qr_scan"}, "fusion_lon": 0.0}, {"lat": 38.92148666666667, "is_disabled": 0, "type": "electric_scooter", "lon": -77.03362483333333, "bike_id": "eb0c27cd31a199e00e81cf711ee56eed", "fusion_lat": 0.0, "name": "eb0c27cd31a199e00e81cf711ee56eed", "is_reserved": 0, "rental_uris": {"android": "https://dc.lft.to/lastmile_qr_scan", "ios": "https://dc.lft.to/lastmile_qr_scan"}, "fusion_lon": 0.0}, {"lat": 38.922525, "is_disabled": 0, "type": "electric_scooter", "lon": -77.0703735, "bike_id": "5b22db2aa5c98199fbdcc2dae8c43590", "fusion_lat": 0.0, "name": "5b22db2aa5c98199fbdcc2dae8c43590", "is_reserved": 0, "rental_uris": {"android": "https://dc.lft.to/lastmile_qr_scan", "ios": "https://dc.lft.to/lastmile_qr_scan"}, "fusion_lon": 0.0}, {"lat": 38.867096, "is_disabled": 0, "type": "electric_scooter", "lon": -76.9873145, "bike_id": "445001d0cfb727bad2bd412f313647ad", "fusion_lat": 0.0, "name": "445001d0cfb727bad2bd412f313647ad", "is_reserved": 0, "rental_uris": {"android": "https://dc.lft.to/lastmile_qr_scan", "ios": "https://dc.lft.to/lastmile_qr_scan"}, "fusion_lon": 0.0}, {"lat": 38.89532233333333, "is_disabled": 0, "type": "electric_scooter", "lon": -77.05019783333333, "bike_id": "17bc2acdb28f9758e26359dd66274606", "fusion_lat": 0.0, "name": "17bc2acdb28f9758e26359dd66274606", "is_reserved": 0, "rental_uris": {"android": "https://dc.lft.to/lastmile_qr_scan", "ios": "https://dc.lft.to/lastmile_qr_scan"}, "fusion_lon": 0.0}, {"lat": 38.858466666666665, "is_disabled": 0, "type": "electric_bike", "lon": -77.0976515, "bike_id": "c4084a3b922010e4cfbcbc5e1dc6bbb2", "fusion_lat": 0.0, "name": "c4084a3b922010e4cfbcbc5e1dc6bbb2", "is_reserved": 0, "rental_uris": {"android": "https://dc.lft.to/lastmile_qr_scan", "ios": "https://dc.lft.to/lastmile_qr_scan"}, "fusion_lon": 0.0}, {"lat": 38.91735233333333, "is_disabled": 0, "type": "electric_scooter", "lon": -77.02298083333334, "bike_id": "dccef228ae605c6719344f71d0772e2f", "fusion_lat": 0.0, "name": "dccef228ae605c6719344f71d0772e2f", "is_reserved": 0, "rental_uris": {"android": "https://dc.lft.to/lastmile_qr_scan", "ios": "https://dc.lft.to/lastmile_qr_scan"}, "fusion_lon": 0.0}, {"lat": 38.91417083333333, "is_disabled": 0, "type": "electric_scooter", "lon": -77.03172716666667, "bike_id": "490049129183e1d6e528652287de7a99", "fusion_lat": 0.0, "name": "490049129183e1d6e528652287de7a99", "is_reserved": 0, "rental_uris": {"android": "https://dc.lft.to/lastmile_qr_scan", "ios": "https://dc.lft.to/lastmile_qr_scan"}, "fusion_lon": 0.0}, {"lat": 38.944140833333336, "is_disabled": 0, "type": "electric_scooter", "lon": -77.03199633333334, "bike_id": "180cdc924e69c254b34b03d3768b7e43", "fusion_lat": 0.0, "name": "180cdc924e69c254b34b03d3768b7e43", "is_reserved": 0, "rental_uris": {"android": "https://dc.lft.to/lastmile_qr_scan", "ios": "https://dc.lft.to/lastmile_qr_scan"}, "fusion_lon": 0.0}, {"lat": 38.95880183333333, "is_disabled": 0, "type": "electric_bike", "lon": -76.92477016666666, "bike_id": "0a1080b65ccad7779b5972380ce0ad87", "fusion_lat": 0.0, "name": "0a1080b65ccad7779b5972380ce0ad87", "is_reserved": 0, "rental_uris": {"android": "https://dc.lft.to/lastmile_qr_scan", "ios": "https://dc.lft.to/lastmile_qr_scan"}, "fusion_lon": 0.0}, {"lat": 38.90281483333333, "is_disabled": 0, "type": "electric_scooter", "lon": -77.0365025, "bike_id": "4218846eb82726546a3f28dbb494b933", "fusion_lat": 0.0, "name": "4218846eb82726546a3f28dbb494b933", "is_reserved": 0, "rental_uris": {"android": "https://dc.lft.to/lastmile_qr_scan", "ios": "https://dc.lft.to/lastmile_qr_scan"}, "fusion_lon": 0.0}, {"lat": 38.90834133333333, "is_disabled": 0, "type": "electric_scooter", "lon": -77.06360466666666, "bike_id": "f0f2f035fa2f35bc946afc6b0c2ef188", "fusion_lat": 0.0, "name": "f0f2f035fa2f35bc946afc6b0c2ef188", "is_reserved": 0, "rental_uris": {"android": "https://dc.lft.to/lastmile_qr_scan", "ios": "https://dc.lft.to/lastmile_qr_scan"}, "fusion_lon": 0.0}, {"lat": 38.92894883333334, "is_disabled": 0, "type": "electric_scooter", "lon": -77.03187616666666, "bike_id": "8117a269d04bf4213f552d0322dfcb52", "fusion_lat": 0.0, "name": "8117a269d04bf4213f552d0322dfcb52", "is_reserved": 0, "rental_uris": {"android": "https://dc.lft.to/lastmile_qr_scan", "ios": "https://dc.lft.to/lastmile_qr_scan"}, "fusion_lon": 0.0}, {"lat": 38.8904345, "is_disabled": 0, "type": "electric_scooter", "lon": -76.9407955, "bike_id": "fd1054b2415710f09ac448a59f24527b", "fusion_lat": 0.0, "name": "fd1054b2415710f09ac448a59f24527b", "is_reserved": 0, "rental_uris": {"android": "https://dc.lft.to/lastmile_qr_scan", "ios": "https://dc.lft.to/lastmile_qr_scan"}, "fusion_lon": 0.0}, {"lat": 38.920686, "is_disabled": 0, "type": "electric_scooter", "lon": -77.0250065, "bike_id": "bf43148bbd7c14020aad999e32097468", "fusion_lat": 0.0, "name": "bf43148bbd7c14020aad999e32097468", "is_reserved": 0, "rental_uris": {"android": "https://dc.lft.to/lastmile_qr_scan", "ios": "https://dc.lft.to/lastmile_qr_scan"}, "fusion_lon": 0.0}, {"lat": 38.92113166666667, "is_disabled": 0, "type": "electric_bike", "lon": -76.98579133333334, "bike_id": "6511af38a41218564ad6e71dca37e14c", "fusion_lat": 0.0, "name": "6511af38a41218564ad6e71dca37e14c", "is_reserved": 0, "rental_uris": {"android": "https://dc.lft.to/lastmile_qr_scan", "ios": "https://dc.lft.to/lastmile_qr_scan"}, "fusion_lon": 0.0}, {"lat": 38.90009766666667, "is_disabled": 0, "type": "electric_scooter", "lon": -77.02016733333333, "bike_id": "b3623be12e606972ea654a56a737237f", "fusion_lat": 0.0, "name": "b3623be12e606972ea654a56a737237f", "is_reserved": 0, "rental_uris": {"android": "https://dc.lft.to/lastmile_qr_scan", "ios": "https://dc.lft.to/lastmile_qr_scan"}, "fusion_lon": 0.0}, {"lat": 38.871363833333334, "is_disabled": 0, "type": "electric_bike", "lon": -76.9370565, "bike_id": "25d4c71b11d8df43580cee53b1d3d9eb", "fusion_lat": 0.0, "name": "25d4c71b11d8df43580cee53b1d3d9eb", "is_reserved": 0, "rental_uris": {"android": "https://dc.lft.to/lastmile_qr_scan", "ios": "https://dc.lft.to/lastmile_qr_scan"}, "fusion_lon": 0.0}, {"lat": 38.96131966666667, "is_disabled": 0, "type": "electric_scooter", "lon": -77.0223895, "bike_id": "9f9a4541a9854b2534fb99f96a972594", "fusion_lat": 0.0, "name": "9f9a4541a9854b2534fb99f96a972594", "is_reserved": 0, "rental_uris": {"android": "https://dc.lft.to/lastmile_qr_scan", "ios": "https://dc.lft.to/lastmile_qr_scan"}, "fusion_lon": 0.0}, {"lat": 38.854423833333335, "is_disabled": 0, "type": "electric_scooter", "lon": -76.985886, "bike_id": "588f914d8de0ce958ccadc781ad80790", "fusion_lat": 0.0, "name": "588f914d8de0ce958ccadc781ad80790", "is_reserved": 0, "rental_uris": {"android": "https://dc.lft.to/lastmile_qr_scan", "ios": "https://dc.lft.to/lastmile_qr_scan"}, "fusion_lon": 0.0}, {"lat": 38.922496, "is_disabled": 0, "type": "electric_scooter", "lon": -77.0272685, "bike_id": "5be00d5b30bf341de6e98b2fb902b6ca", "fusion_lat": 0.0, "name": "5be00d5b30bf341de6e98b2fb902b6ca", "is_reserved": 0, "rental_uris": {"android": "https://dc.lft.to/lastmile_qr_scan", "ios": "https://dc.lft.to/lastmile_qr_scan"}, "fusion_lon": 0.0}, {"lat": 38.92972266666666, "is_disabled": 0, "type": "electric_scooter", "lon": -77.01302966666667, "bike_id": "4ce6c61ade7172e7a5f30fbea3dc6bf2", "fusion_lat": 0.0, "name": "4ce6c61ade7172e7a5f30fbea3dc6bf2", "is_reserved": 0, "rental_uris": {"android": "https://dc.lft.to/lastmile_qr_scan", "ios": "https://dc.lft.to/lastmile_qr_scan"}, "fusion_lon": 0.0}, {"lat": 38.918195, "is_disabled": 0, "type": "electric_scooter", "lon": -77.01215316666666, "bike_id": "c343c72213575321b5a71b8b37a47c0e", "fusion_lat": 0.0, "name": "c343c72213575321b5a71b8b37a47c0e", "is_reserved": 0, "rental_uris": {"android": "https://dc.lft.to/lastmile_qr_scan", "ios": "https://dc.lft.to/lastmile_qr_scan"}, "fusion_lon": 0.0}, {"lat": 38.86446133333333, "is_disabled": 0, "type": "electric_bike", "lon": -76.94543533333334, "bike_id": "e30d8dfb78030c64f40cafdd6bc10186", "fusion_lat": 0.0, "name": "e30d8dfb78030c64f40cafdd6bc10186", "is_reserved": 0, "rental_uris": {"android": "https://dc.lft.to/lastmile_qr_scan", "ios": "https://dc.lft.to/lastmile_qr_scan"}, "fusion_lon": 0.0}, {"lat": 38.892233, "is_disabled": 0, "type": "electric_scooter", "lon": -77.048653, "bike_id": "ecf698a86f7d73bd35889abe615c9063", "fusion_lat": 0.0, "name": "ecf698a86f7d73bd35889abe615c9063", "is_reserved": 0, "rental_uris": {"android": "https://dc.lft.to/lastmile_qr_scan", "ios": "https://dc.lft.to/lastmile_qr_scan"}, "fusion_lon": 0.0}, {"lat": 38.907853833333334, "is_disabled": 0, "type": "electric_scooter", "lon": -77.02291916666667, "bike_id": "c460b274633dc06889213487306d8f36", "fusion_lat": 0.0, "name": "c460b274633dc06889213487306d8f36", "is_reserved": 0, "rental_uris": {"android": "https://dc.lft.to/lastmile_qr_scan", "ios": "https://dc.lft.to/lastmile_qr_scan"}, "fusion_lon": 0.0}, {"lat": 38.901180833333335, "is_disabled": 0, "type": "electric_scooter", "lon": -77.0498325, "bike_id": "ab22e691a835c4525d232a2ac2859aff", "fusion_lat": 0.0, "name": "ab22e691a835c4525d232a2ac2859aff", "is_reserved": 0, "rental_uris": {"android": "https://dc.lft.to/lastmile_qr_scan", "ios": "https://dc.lft.to/lastmile_qr_scan"}, "fusion_lon": 0.0}, {"lat": 38.9082105, "is_disabled": 0, "type": "electric_scooter", "lon": -77.06369666666667, "bike_id": "f5bd7f37c225510cbafa8e0da576e84f", "fusion_lat": 0.0, "name": "f5bd7f37c225510cbafa8e0da576e84f", "is_reserved": 0, "rental_uris": {"android": "https://dc.lft.to/lastmile_qr_scan", "ios": "https://dc.lft.to/lastmile_qr_scan"}, "fusion_lon": 0.0}, {"lat": 38.8504755, "is_disabled": 0, "type": "electric_bike", "lon": -76.97323716666666, "bike_id": "0e21d92a5fac80300aa4d834f521705c", "fusion_lat": 0.0, "name": "0e21d92a5fac80300aa4d834f521705c", "is_reserved": 0, "rental_uris": {"android": "https://dc.lft.to/lastmile_qr_scan", "ios": "https://dc.lft.to/lastmile_qr_scan"}, "fusion_lon": 0.0}, {"lat": 38.906728666666666, "is_disabled": 0, "type": "electric_scooter", "lon": -77.0375805, "bike_id": "0814105127e22577c1e5233d28085ec3", "fusion_lat": 0.0, "name": "0814105127e22577c1e5233d28085ec3", "is_reserved": 0, "rental_uris": {"android": "https://dc.lft.to/lastmile_qr_scan", "ios": "https://dc.lft.to/lastmile_qr_scan"}, "fusion_lon": 0.0}, {"lat": 38.912743, "is_disabled": 0, "type": "electric_scooter", "lon": -77.02268216666667, "bike_id": "9950fc9e0e1d297222c8f13db705354a", "fusion_lat": 0.0, "name": "9950fc9e0e1d297222c8f13db705354a", "is_reserved": 0, "rental_uris": {"android": "https://dc.lft.to/lastmile_qr_scan", "ios": "https://dc.lft.to/lastmile_qr_scan"}, "fusion_lon": 0.0}, {"lat": 38.918527, "is_disabled": 0, "type": "electric_scooter", "lon": -77.04103683333334, "bike_id": "da031f07cfa0db354f82b75c3782f752", "fusion_lat": 0.0, "name": "da031f07cfa0db354f82b75c3782f752", "is_reserved": 0, "rental_uris": {"android": "https://dc.lft.to/lastmile_qr_scan", "ios": "https://dc.lft.to/lastmile_qr_scan"}, "fusion_lon": 0.0}, {"lat": 38.936036666666666, "is_disabled": 0, "type": "electric_scooter", "lon": -77.05898783333333, "bike_id": "d1a53fe31884e4b294d714008405dffc", "fusion_lat": 0.0, "name": "d1a53fe31884e4b294d714008405dffc", "is_reserved": 0, "rental_uris": {"android": "https://dc.lft.to/lastmile_qr_scan", "ios": "https://dc.lft.to/lastmile_qr_scan"}, "fusion_lon": 0.0}, {"lat": 38.91215033333334, "is_disabled": 0, "type": "electric_scooter", "lon": -77.032145, "bike_id": "0134f6133b04bc2c1b0488bf54903839", "fusion_lat": 0.0, "name": "0134f6133b04bc2c1b0488bf54903839", "is_reserved": 0, "rental_uris": {"android": "https://dc.lft.to/lastmile_qr_scan", "ios": "https://dc.lft.to/lastmile_qr_scan"}, "fusion_lon": 0.0}, {"lat": 38.89733783333333, "is_disabled": 0, "type": "electric_scooter", "lon": -77.04769716666667, "bike_id": "3def4c7d6c53f761c4de26370acd1e10", "fusion_lat": 0.0, "name": "3def4c7d6c53f761c4de26370acd1e10", "is_reserved": 0, "rental_uris": {"android": "https://dc.lft.to/lastmile_qr_scan", "ios": "https://dc.lft.to/lastmile_qr_scan"}, "fusion_lon": 0.0}, {"lat": 38.898805833333334, "is_disabled": 0, "type": "electric_scooter", "lon": -76.93180633333333, "bike_id": "92f3c0312dadf23e95ca3465f4bbcd97", "fusion_lat": 0.0, "name": "92f3c0312dadf23e95ca3465f4bbcd97", "is_reserved": 0, "rental_uris": {"android": "https://dc.lft.to/lastmile_qr_scan", "ios": "https://dc.lft.to/lastmile_qr_scan"}, "fusion_lon": 0.0}, {"lat": 38.92115016666666, "is_disabled": 0, "type": "electric_scooter", "lon": -77.04374416666667, "bike_id": "7aac86bb9cae0490edc051f39b239b17", "fusion_lat": 0.0, "name": "7aac86bb9cae0490edc051f39b239b17", "is_reserved": 0, "rental_uris": {"android": "https://dc.lft.to/lastmile_qr_scan", "ios": "https://dc.lft.to/lastmile_qr_scan"}, "fusion_lon": 0.0}, {"lat": 38.90035233333333, "is_disabled": 0, "type": "electric_scooter", "lon": -77.02615533333334, "bike_id": "0a31078796ab06f9f3dde260b7dd8721", "fusion_lat": 0.0, "name": "0a31078796ab06f9f3dde260b7dd8721", "is_reserved": 0, "rental_uris": {"android": "https://dc.lft.to/lastmile_qr_scan", "ios": "https://dc.lft.to/lastmile_qr_scan"}, "fusion_lon": 0.0}, {"lat": 38.92237333333333, "is_disabled": 0, "type": "electric_scooter", "lon": -77.04577283333333, "bike_id": "ed1eec79251d5602c64d5c4ab8f96b51", "fusion_lat": 0.0, "name": "ed1eec79251d5602c64d5c4ab8f96b51", "is_reserved": 0, "rental_uris": {"android": "https://dc.lft.to/lastmile_qr_scan", "ios": "https://dc.lft.to/lastmile_qr_scan"}, "fusion_lon": 0.0}, {"lat": 38.88145466666667, "is_disabled": 0, "type": "electric_scooter", "lon": -77.02745816666666, "bike_id": "0e697e2ac3d2a586edfe44084422945b", "fusion_lat": 0.0, "name": "0e697e2ac3d2a586edfe44084422945b", "is_reserved": 0, "rental_uris": {"android": "https://dc.lft.to/lastmile_qr_scan", "ios": "https://dc.lft.to/lastmile_qr_scan"}, "fusion_lon": 0.0}, {"lat": 38.9076465, "is_disabled": 0, "type": "electric_scooter", "lon": -77.06077133333334, "bike_id": "3462b8cfb0a4880d4e13b97eb369404f", "fusion_lat": 0.0, "name": "3462b8cfb0a4880d4e13b97eb369404f", "is_reserved": 0, "rental_uris": {"android": "https://dc.lft.to/lastmile_qr_scan", "ios": "https://dc.lft.to/lastmile_qr_scan"}, "fusion_lon": 0.0}, {"lat": 38.9191855, "is_disabled": 0, "type": "electric_scooter", "lon": -77.03132883333333, "bike_id": "b4f6a00d988932a2f6d35e0adc022b40", "fusion_lat": 0.0, "name": "b4f6a00d988932a2f6d35e0adc022b40", "is_reserved": 0, "rental_uris": {"android": "https://dc.lft.to/lastmile_qr_scan", "ios": "https://dc.lft.to/lastmile_qr_scan"}, "fusion_lon": 0.0}, {"lat": 38.90498983333333, "is_disabled": 0, "type": "electric_scooter", "lon": -77.05814983333333, "bike_id": "fd22ac85e0dd1573b7c0b4a03344295f", "fusion_lat": 0.0, "name": "fd22ac85e0dd1573b7c0b4a03344295f", "is_reserved": 0, "rental_uris": {"android": "https://dc.lft.to/lastmile_qr_scan", "ios": "https://dc.lft.to/lastmile_qr_scan"}, "fusion_lon": 0.0}, {"lat": 38.8652025, "is_disabled": 0, "type": "electric_scooter", "lon": -76.99044216666667, "bike_id": "0bb89df4d1a5ec5a79b338c2bba4449c", "fusion_lat": 0.0, "name": "0bb89df4d1a5ec5a79b338c2bba4449c", "is_reserved": 0, "rental_uris": {"android": "https://dc.lft.to/lastmile_qr_scan", "ios": "https://dc.lft.to/lastmile_qr_scan"}, "fusion_lon": 0.0}, {"lat": 38.90094466666667, "is_disabled": 0, "type": "electric_scooter", "lon": -77.02035033333334, "bike_id": "112067fde3f90289cca24fb34cca23b3", "fusion_lat": 0.0, "name": "112067fde3f90289cca24fb34cca23b3", "is_reserved": 0, "rental_uris": {"android": "https://dc.lft.to/lastmile_qr_scan", "ios": "https://dc.lft.to/lastmile_qr_scan"}, "fusion_lon": 0.0}, {"lat": 38.933536, "is_disabled": 0, "type": "electric_bike", "lon": -77.0996615, "bike_id": "f4fb72736da7824b3b3acc3218eb9f2c", "fusion_lat": 0.0, "name": "f4fb72736da7824b3b3acc3218eb9f2c", "is_reserved": 0, "rental_uris": {"android": "https://dc.lft.to/lastmile_qr_scan", "ios": "https://dc.lft.to/lastmile_qr_scan"}, "fusion_lon": 0.0}, {"lat": 38.87371066666667, "is_disabled": 0, "type": "electric_bike", "lon": -77.0095015, "bike_id": "f84a53f17bb1122887be08decb5141bb", "fusion_lat": 0.0, "name": "f84a53f17bb1122887be08decb5141bb", "is_reserved": 0, "rental_uris": {"android": "https://dc.lft.to/lastmile_qr_scan", "ios": "https://dc.lft.to/lastmile_qr_scan"}, "fusion_lon": 0.0}, {"lat": 38.919090833333335, "is_disabled": 0, "type": "electric_scooter", "lon": -77.04629116666666, "bike_id": "ab25d29f0b5e80f419bf5aa0b675a373", "fusion_lat": 0.0, "name": "ab25d29f0b5e80f419bf5aa0b675a373", "is_reserved": 0, "rental_uris": {"android": "https://dc.lft.to/lastmile_qr_scan", "ios": "https://dc.lft.to/lastmile_qr_scan"}, "fusion_lon": 0.0}, {"lat": 38.909559, "is_disabled": 0, "type": "electric_scooter", "lon": -77.037272, "bike_id": "1c48a1a72b02c644b99e4ef469c5d9ad", "fusion_lat": 0.0, "name": "1c48a1a72b02c644b99e4ef469c5d9ad", "is_reserved": 0, "rental_uris": {"android": "https://dc.lft.to/lastmile_qr_scan", "ios": "https://dc.lft.to/lastmile_qr_scan"}, "fusion_lon": 0.0}, {"lat": 38.82246833333333, "is_disabled": 0, "type": "electric_scooter", "lon": -76.9999265, "bike_id": "bf9a8cc96cfa9a3ff3aaf4873a7eb3e9", "fusion_lat": 0.0, "name": "bf9a8cc96cfa9a3ff3aaf4873a7eb3e9", "is_reserved": 0, "rental_uris": {"android": "https://dc.lft.to/lastmile_qr_scan", "ios": "https://dc.lft.to/lastmile_qr_scan"}, "fusion_lon": 0.0}, {"lat": 38.9045745, "is_disabled": 0, "type": "electric_scooter", "lon": -77.0325155, "bike_id": "70cd43565998acaa847c64150f8318dd", "fusion_lat": 0.0, "name": "70cd43565998acaa847c64150f8318dd", "is_reserved": 0, "rental_uris": {"android": "https://dc.lft.to/lastmile_qr_scan", "ios": "https://dc.lft.to/lastmile_qr_scan"}, "fusion_lon": 0.0}, {"lat": 38.90739416666667, "is_disabled": 0, "type": "electric_scooter", "lon": -77.02387266666666, "bike_id": "c7466b44ecdd0c0231722fc988becd8c", "fusion_lat": 0.0, "name": "c7466b44ecdd0c0231722fc988becd8c", "is_reserved": 0, "rental_uris": {"android": "https://dc.lft.to/lastmile_qr_scan", "ios": "https://dc.lft.to/lastmile_qr_scan"}, "fusion_lon": 0.0}, {"lat": 38.913059833333335, "is_disabled": 0, "type": "electric_scooter", "lon": -77.032208, "bike_id": "f7f01d43c2d997cbe95160ccb2c3aa3f", "fusion_lat": 0.0, "name": "f7f01d43c2d997cbe95160ccb2c3aa3f", "is_reserved": 0, "rental_uris": {"android": "https://dc.lft.to/lastmile_qr_scan", "ios": "https://dc.lft.to/lastmile_qr_scan"}, "fusion_lon": 0.0}, {"lat": 38.8874295, "is_disabled": 0, "type": "electric_scooter", "lon": -77.02071833333333, "bike_id": "3ca07157a154861d24183bcc75a15422", "fusion_lat": 0.0, "name": "3ca07157a154861d24183bcc75a15422", "is_reserved": 0, "rental_uris": {"android": "https://dc.lft.to/lastmile_qr_scan", "ios": "https://dc.lft.to/lastmile_qr_scan"}, "fusion_lon": 0.0}, {"lat": 38.86710883333333, "is_disabled": 0, "type": "electric_scooter", "lon": -76.98729566666667, "bike_id": "3398074a10d948a347406f8997c1239d", "fusion_lat": 0.0, "name": "3398074a10d948a347406f8997c1239d", "is_reserved": 0, "rental_uris": {"android": "https://dc.lft.to/lastmile_qr_scan", "ios": "https://dc.lft.to/lastmile_qr_scan"}, "fusion_lon": 0.0}, {"lat": 38.88472016666667, "is_disabled": 0, "type": "electric_scooter", "lon": -77.024119, "bike_id": "5579f4c74ccb9f6fb71f6b1711c494ce", "fusion_lat": 0.0, "name": "5579f4c74ccb9f6fb71f6b1711c494ce", "is_reserved": 0, "rental_uris": {"android": "https://dc.lft.to/lastmile_qr_scan", "ios": "https://dc.lft.to/lastmile_qr_scan"}, "fusion_lon": 0.0}, {"lat": 38.905287666666666, "is_disabled": 0, "type": "electric_scooter", "lon": -77.04890883333333, "bike_id": "b9b348b21294311d679740055fd0b039", "fusion_lat": 0.0, "name": "b9b348b21294311d679740055fd0b039", "is_reserved": 0, "rental_uris": {"android": "https://dc.lft.to/lastmile_qr_scan", "ios": "https://dc.lft.to/lastmile_qr_scan"}, "fusion_lon": 0.0}, {"lat": 38.925084, "is_disabled": 0, "type": "electric_scooter", "lon": -76.9857645, "bike_id": "e90d28d73240b62c403e182970531c32", "fusion_lat": 0.0, "name": "e90d28d73240b62c403e182970531c32", "is_reserved": 0, "rental_uris": {"android": "https://dc.lft.to/lastmile_qr_scan", "ios": "https://dc.lft.to/lastmile_qr_scan"}, "fusion_lon": 0.0}, {"lat": 38.9119515, "is_disabled": 0, "type": "electric_scooter", "lon": -77.04342783333334, "bike_id": "64e21516e6924888e37d7ca012ffcdd4", "fusion_lat": 0.0, "name": "64e21516e6924888e37d7ca012ffcdd4", "is_reserved": 0, "rental_uris": {"android": "https://dc.lft.to/lastmile_qr_scan", "ios": "https://dc.lft.to/lastmile_qr_scan"}, "fusion_lon": 0.0}, {"lat": 38.91693733333334, "is_disabled": 0, "type": "electric_scooter", "lon": -77.0459515, "bike_id": "6ac0db763148f475a1757348cd43e133", "fusion_lat": 0.0, "name": "6ac0db763148f475a1757348cd43e133", "is_reserved": 0, "rental_uris": {"android": "https://dc.lft.to/lastmile_qr_scan", "ios": "https://dc.lft.to/lastmile_qr_scan"}, "fusion_lon": 0.0}, {"lat": 38.91041516666667, "is_disabled": 0, "type": "electric_scooter", "lon": -77.03184033333334, "bike_id": "4b90c22a11c2eae18f69349c07f0a702", "fusion_lat": 0.0, "name": "4b90c22a11c2eae18f69349c07f0a702", "is_reserved": 0, "rental_uris": {"android": "https://dc.lft.to/lastmile_qr_scan", "ios": "https://dc.lft.to/lastmile_qr_scan"}, "fusion_lon": 0.0}, {"lat": 38.915617833333336, "is_disabled": 0, "type": "electric_scooter", "lon": -77.031583, "bike_id": "db2456eaee9ccf5c50828a8f57b2e655", "fusion_lat": 0.0, "name": "db2456eaee9ccf5c50828a8f57b2e655", "is_reserved": 0, "rental_uris": {"android": "https://dc.lft.to/lastmile_qr_scan", "ios": "https://dc.lft.to/lastmile_qr_scan"}, "fusion_lon": 0.0}, {"lat": 38.841007, "is_disabled": 0, "type": "electric_bike", "lon": -77.08936516666667, "bike_id": "2f0b03abf8c9c9543b88bcb15c10b169", "fusion_lat": 0.0, "name": "2f0b03abf8c9c9543b88bcb15c10b169", "is_reserved": 0, "rental_uris": {"android": "https://dc.lft.to/lastmile_qr_scan", "ios": "https://dc.lft.to/lastmile_qr_scan"}, "fusion_lon": 0.0}, {"lat": 38.90106266666667, "is_disabled": 0, "type": "electric_scooter", "lon": -77.05903866666667, "bike_id": "1ddb3cd7c211dc628b1edde3018512a1", "fusion_lat": 0.0, "name": "1ddb3cd7c211dc628b1edde3018512a1", "is_reserved": 0, "rental_uris": {"android": "https://dc.lft.to/lastmile_qr_scan", "ios": "https://dc.lft.to/lastmile_qr_scan"}, "fusion_lon": 0.0}, {"lat": 38.9229885, "is_disabled": 0, "type": "electric_scooter", "lon": -77.02336333333334, "bike_id": "898767db53da1f8a11078eadd20b9c76", "fusion_lat": 0.0, "name": "898767db53da1f8a11078eadd20b9c76", "is_reserved": 0, "rental_uris": {"android": "https://dc.lft.to/lastmile_qr_scan", "ios": "https://dc.lft.to/lastmile_qr_scan"}, "fusion_lon": 0.0}, {"lat": 38.876383833333335, "is_disabled": 0, "type": "electric_scooter", "lon": -77.009177, "bike_id": "045a23f7be7eed5716a281b448f323fe", "fusion_lat": 0.0, "name": "045a23f7be7eed5716a281b448f323fe", "is_reserved": 0, "rental_uris": {"android": "https://dc.lft.to/lastmile_qr_scan", "ios": "https://dc.lft.to/lastmile_qr_scan"}, "fusion_lon": 0.0}, {"lat": 38.91705366666667, "is_disabled": 0, "type": "electric_scooter", "lon": -77.01107033333334, "bike_id": "ece49426a5af1e187e4dff7fbaaa1dc3", "fusion_lat": 0.0, "name": "ece49426a5af1e187e4dff7fbaaa1dc3", "is_reserved": 0, "rental_uris": {"android": "https://dc.lft.to/lastmile_qr_scan", "ios": "https://dc.lft.to/lastmile_qr_scan"}, "fusion_lon": 0.0}, {"lat": 38.89887983333333, "is_disabled": 0, "type": "electric_scooter", "lon": -77.07236733333333, "bike_id": "9b6c9eb81b8f364b2aaae3a6a911becb", "fusion_lat": 0.0, "name": "9b6c9eb81b8f364b2aaae3a6a911becb", "is_reserved": 0, "rental_uris": {"android": "https://dc.lft.to/lastmile_qr_scan", "ios": "https://dc.lft.to/lastmile_qr_scan"}, "fusion_lon": 0.0}, {"lat": 38.8666095, "is_disabled": 0, "type": "electric_scooter", "lon": -76.9890325, "bike_id": "1162cc604c418d976bc30e36d0ff256e", "fusion_lat": 0.0, "name": "1162cc604c418d976bc30e36d0ff256e", "is_reserved": 0, "rental_uris": {"android": "https://dc.lft.to/lastmile_qr_scan", "ios": "https://dc.lft.to/lastmile_qr_scan"}, "fusion_lon": 0.0}, {"lat": 38.90683516666667, "is_disabled": 0, "type": "electric_scooter", "lon": -77.0627635, "bike_id": "f2924f5f92bb17521fbd8b82075bd82a", "fusion_lat": 0.0, "name": "f2924f5f92bb17521fbd8b82075bd82a", "is_reserved": 0, "rental_uris": {"android": "https://dc.lft.to/lastmile_qr_scan", "ios": "https://dc.lft.to/lastmile_qr_scan"}, "fusion_lon": 0.0}, {"lat": 38.896436666666666, "is_disabled": 0, "type": "electric_scooter", "lon": -77.04689533333334, "bike_id": "e96be0951a912f9c8b6dd6aeac8897f5", "fusion_lat": 0.0, "name": "e96be0951a912f9c8b6dd6aeac8897f5", "is_reserved": 0, "rental_uris": {"android": "https://dc.lft.to/lastmile_qr_scan", "ios": "https://dc.lft.to/lastmile_qr_scan"}, "fusion_lon": 0.0}, {"lat": 38.93840983333333, "is_disabled": 0, "type": "electric_scooter", "lon": -77.03395416666666, "bike_id": "cb5671de09e63bad1cc5d7e30fc7bca3", "fusion_lat": 0.0, "name": "cb5671de09e63bad1cc5d7e30fc7bca3", "is_reserved": 0, "rental_uris": {"android": "https://dc.lft.to/lastmile_qr_scan", "ios": "https://dc.lft.to/lastmile_qr_scan"}, "fusion_lon": 0.0}, {"lat": 38.9265135, "is_disabled": 0, "type": "electric_scooter", "lon": -77.024394, "bike_id": "ca9eda51efd3e76a1f62def143ea040b", "fusion_lat": 0.0, "name": "ca9eda51efd3e76a1f62def143ea040b", "is_reserved": 0, "rental_uris": {"android": "https://dc.lft.to/lastmile_qr_scan", "ios": "https://dc.lft.to/lastmile_qr_scan"}, "fusion_lon": 0.0}, {"lat": 38.916915833333334, "is_disabled": 0, "type": "electric_scooter", "lon": -77.03045416666667, "bike_id": "7429552ca7e8d5d1804bca9c6b3bf513", "fusion_lat": 0.0, "name": "7429552ca7e8d5d1804bca9c6b3bf513", "is_reserved": 0, "rental_uris": {"android": "https://dc.lft.to/lastmile_qr_scan", "ios": "https://dc.lft.to/lastmile_qr_scan"}, "fusion_lon": 0.0}, {"lat": 38.91696916666667, "is_disabled": 0, "type": "electric_scooter", "lon": -77.02901883333334, "bike_id": "eae62d9a25faa0e17ece3939f3b71cd1", "fusion_lat": 0.0, "name": "eae62d9a25faa0e17ece3939f3b71cd1", "is_reserved": 0, "rental_uris": {"android": "https://dc.lft.to/lastmile_qr_scan", "ios": "https://dc.lft.to/lastmile_qr_scan"}, "fusion_lon": 0.0}, {"lat": 38.928338833333335, "is_disabled": 0, "type": "electric_scooter", "lon": -77.0542505, "bike_id": "4e6c75bdd205361de7d497e097ac356c", "fusion_lat": 0.0, "name": "4e6c75bdd205361de7d497e097ac356c", "is_reserved": 0, "rental_uris": {"android": "https://dc.lft.to/lastmile_qr_scan", "ios": "https://dc.lft.to/lastmile_qr_scan"}, "fusion_lon": 0.0}, {"lat": 38.909873833333336, "is_disabled": 0, "type": "electric_scooter", "lon": -76.99741016666667, "bike_id": "8b2c92fb422b8f11c301120cfcbe9cd3", "fusion_lat": 0.0, "name": "8b2c92fb422b8f11c301120cfcbe9cd3", "is_reserved": 0, "rental_uris": {"android": "https://dc.lft.to/lastmile_qr_scan", "ios": "https://dc.lft.to/lastmile_qr_scan"}, "fusion_lon": 0.0}, {"lat": 38.88128183333333, "is_disabled": 0, "type": "electric_scooter", "lon": -76.9873235, "bike_id": "76a47cd653654c4284f58dcdad549cc0", "fusion_lat": 0.0, "name": "76a47cd653654c4284f58dcdad549cc0", "is_reserved": 0, "rental_uris": {"android": "https://dc.lft.to/lastmile_qr_scan", "ios": "https://dc.lft.to/lastmile_qr_scan"}, "fusion_lon": 0.0}, {"lat": 38.919337166666665, "is_disabled": 0, "type": "electric_scooter", "lon": -77.04179066666667, "bike_id": "ad29a00c90babf04137da462cc0eb402", "fusion_lat": 0.0, "name": "ad29a00c90babf04137da462cc0eb402", "is_reserved": 0, "rental_uris": {"android": "https://dc.lft.to/lastmile_qr_scan", "ios": "https://dc.lft.to/lastmile_qr_scan"}, "fusion_lon": 0.0}, {"lat": 38.9313395, "is_disabled": 0, "type": "electric_scooter", "lon": -77.0215505, "bike_id": "fc661bd7be0907c646513c4a2465e1ce", "fusion_lat": 0.0, "name": "fc661bd7be0907c646513c4a2465e1ce", "is_reserved": 0, "rental_uris": {"android": "https://dc.lft.to/lastmile_qr_scan", "ios": "https://dc.lft.to/lastmile_qr_scan"}, "fusion_lon": 0.0}, {"lat": 38.906486666666666, "is_disabled": 0, "type": "electric_scooter", "lon": -77.0083775, "bike_id": "8fbbd3204fe4728d0f051f0598b436ae", "fusion_lat": 0.0, "name": "8fbbd3204fe4728d0f051f0598b436ae", "is_reserved": 0, "rental_uris": {"android": "https://dc.lft.to/lastmile_qr_scan", "ios": "https://dc.lft.to/lastmile_qr_scan"}, "fusion_lon": 0.0}, {"lat": 38.923623166666665, "is_disabled": 0, "type": "electric_scooter", "lon": -77.0403925, "bike_id": "0bbab95cb4b907a05c1b96c62c88802c", "fusion_lat": 0.0, "name": "0bbab95cb4b907a05c1b96c62c88802c", "is_reserved": 0, "rental_uris": {"android": "https://dc.lft.to/lastmile_qr_scan", "ios": "https://dc.lft.to/lastmile_qr_scan"}, "fusion_lon": 0.0}, {"lat": 38.84936316666667, "is_disabled": 0, "type": "electric_bike", "lon": -77.100189, "bike_id": "b6521d2ffaffc34deca24a7170c7856e", "fusion_lat": 0.0, "name": "b6521d2ffaffc34deca24a7170c7856e", "is_reserved": 0, "rental_uris": {"android": "https://dc.lft.to/lastmile_qr_scan", "ios": "https://dc.lft.to/lastmile_qr_scan"}, "fusion_lon": 0.0}, {"lat": 38.917727166666666, "is_disabled": 0, "type": "electric_scooter", "lon": -77.02303383333333, "bike_id": "fde628cebd448329585cdca5de170c2f", "fusion_lat": 0.0, "name": "fde628cebd448329585cdca5de170c2f", "is_reserved": 0, "rental_uris": {"android": "https://dc.lft.to/lastmile_qr_scan", "ios": "https://dc.lft.to/lastmile_qr_scan"}, "fusion_lon": 0.0}, {"lat": 38.92131066666666, "is_disabled": 0, "type": "electric_scooter", "lon": -77.010512, "bike_id": "ebc597ee43a85bf394b68f777dcb8c40", "fusion_lat": 0.0, "name": "ebc597ee43a85bf394b68f777dcb8c40", "is_reserved": 0, "rental_uris": {"android": "https://dc.lft.to/lastmile_qr_scan", "ios": "https://dc.lft.to/lastmile_qr_scan"}, "fusion_lon": 0.0}, {"lat": 38.86623383333333, "is_disabled": 0, "type": "electric_scooter", "lon": -76.98701483333333, "bike_id": "13888ce50aba22f262df7311731107e0", "fusion_lat": 0.0, "name": "13888ce50aba22f262df7311731107e0", "is_reserved": 0, "rental_uris": {"android": "https://dc.lft.to/lastmile_qr_scan", "ios": "https://dc.lft.to/lastmile_qr_scan"}, "fusion_lon": 0.0}, {"lat": 38.8428215, "is_disabled": 0, "type": "electric_bike", "lon": -76.98844516666666, "bike_id": "48e171032f1fbc0d0e218133477b77be", "fusion_lat": 0.0, "name": "48e171032f1fbc0d0e218133477b77be", "is_reserved": 0, "rental_uris": {"android": "https://dc.lft.to/lastmile_qr_scan", "ios": "https://dc.lft.to/lastmile_qr_scan"}, "fusion_lon": 0.0}, {"lat": 38.88761183333333, "is_disabled": 0, "type": "electric_scooter", "lon": -76.95608966666667, "bike_id": "8916e2e7bdb5fad90f86005d9d76a6b2", "fusion_lat": 0.0, "name": "8916e2e7bdb5fad90f86005d9d76a6b2", "is_reserved": 0, "rental_uris": {"android": "https://dc.lft.to/lastmile_qr_scan", "ios": "https://dc.lft.to/lastmile_qr_scan"}, "fusion_lon": 0.0}, {"lat": 38.842899333333335, "is_disabled": 0, "type": "electric_scooter", "lon": -76.99956283333333, "bike_id": "16b48c2473b976854813080ba6a4f5e0", "fusion_lat": 0.0, "name": "16b48c2473b976854813080ba6a4f5e0", "is_reserved": 0, "rental_uris": {"android": "https://dc.lft.to/lastmile_qr_scan", "ios": "https://dc.lft.to/lastmile_qr_scan"}, "fusion_lon": 0.0}, {"lat": 38.884911333333335, "is_disabled": 0, "type": "electric_scooter", "lon": -77.007143, "bike_id": "2629d5f92d29820e2537d105f1c7efdc", "fusion_lat": 0.0, "name": "2629d5f92d29820e2537d105f1c7efdc", "is_reserved": 0, "rental_uris": {"android": "https://dc.lft.to/lastmile_qr_scan", "ios": "https://dc.lft.to/lastmile_qr_scan"}, "fusion_lon": 0.0}, {"lat": 38.90671616666667, "is_disabled": 0, "type": "electric_scooter", "lon": -77.03537116666666, "bike_id": "116f34a2d3b85cee68b51586a94501ad", "fusion_lat": 0.0, "name": "116f34a2d3b85cee68b51586a94501ad", "is_reserved": 0, "rental_uris": {"android": "https://dc.lft.to/lastmile_qr_scan", "ios": "https://dc.lft.to/lastmile_qr_scan"}, "fusion_lon": 0.0}, {"lat": 38.902062666666666, "is_disabled": 0, "type": "electric_scooter", "lon": -76.98195783333334, "bike_id": "1e1e1d8061df8c697ed18402f0494a30", "fusion_lat": 0.0, "name": "1e1e1d8061df8c697ed18402f0494a30", "is_reserved": 0, "rental_uris": {"android": "https://dc.lft.to/lastmile_qr_scan", "ios": "https://dc.lft.to/lastmile_qr_scan"}, "fusion_lon": 0.0}, {"lat": 38.8968195, "is_disabled": 0, "type": "electric_scooter", "lon": -76.93609633333334, "bike_id": "63db7fa1ea74d329d1090486a12995aa", "fusion_lat": 0.0, "name": "63db7fa1ea74d329d1090486a12995aa", "is_reserved": 0, "rental_uris": {"android": "https://dc.lft.to/lastmile_qr_scan", "ios": "https://dc.lft.to/lastmile_qr_scan"}, "fusion_lon": 0.0}, {"lat": 38.90591516666667, "is_disabled": 0, "type": "electric_scooter", "lon": -77.0224695, "bike_id": "001c47fb9e7fd76fba1d0320a26726f6", "fusion_lat": 0.0, "name": "001c47fb9e7fd76fba1d0320a26726f6", "is_reserved": 0, "rental_uris": {"android": "https://dc.lft.to/lastmile_qr_scan", "ios": "https://dc.lft.to/lastmile_qr_scan"}, "fusion_lon": 0.0}, {"lat": 38.88718166666666, "is_disabled": 0, "type": "electric_scooter", "lon": -76.95474866666666, "bike_id": "36e306754a4250d7e32e182567957bbc", "fusion_lat": 0.0, "name": "36e306754a4250d7e32e182567957bbc", "is_reserved": 0, "rental_uris": {"android": "https://dc.lft.to/lastmile_qr_scan", "ios": "https://dc.lft.to/lastmile_qr_scan"}, "fusion_lon": 0.0}, {"lat": 38.89593266666667, "is_disabled": 0, "type": "electric_scooter", "lon": -77.02182716666667, "bike_id": "f5fc59c7d653453c68453faad4deccae", "fusion_lat": 0.0, "name": "f5fc59c7d653453c68453faad4deccae", "is_reserved": 0, "rental_uris": {"android": "https://dc.lft.to/lastmile_qr_scan", "ios": "https://dc.lft.to/lastmile_qr_scan"}, "fusion_lon": 0.0}, {"lat": 38.913571833333336, "is_disabled": 0, "type": "electric_scooter", "lon": -77.04584333333334, "bike_id": "8e5095bd8abfc684d84da9db588228b6", "fusion_lat": 0.0, "name": "8e5095bd8abfc684d84da9db588228b6", "is_reserved": 0, "rental_uris": {"android": "https://dc.lft.to/lastmile_qr_scan", "ios": "https://dc.lft.to/lastmile_qr_scan"}, "fusion_lon": 0.0}, {"lat": 38.99694266666667, "is_disabled": 0, "type": "electric_bike", "lon": -77.02447166666667, "bike_id": "dd600aeca2be65b1056b99faeee438ea", "fusion_lat": 0.0, "name": "dd600aeca2be65b1056b99faeee438ea", "is_reserved": 0, "rental_uris": {"android": "https://dc.lft.to/lastmile_qr_scan", "ios": "https://dc.lft.to/lastmile_qr_scan"}, "fusion_lon": 0.0}, {"lat": 38.928513, "is_disabled": 0, "type": "electric_bike", "lon": -77.1068425, "bike_id": "317d6b447e43ca8ef11a556a1d225863", "fusion_lat": 0.0, "name": "317d6b447e43ca8ef11a556a1d225863", "is_reserved": 0, "rental_uris": {"android": "https://dc.lft.to/lastmile_qr_scan", "ios": "https://dc.lft.to/lastmile_qr_scan"}, "fusion_lon": 0.0}, {"lat": 38.938694166666664, "is_disabled": 0, "type": "electric_scooter", "lon": -77.02450016666667, "bike_id": "db056b11c02f60ab70d1005feba5932d", "fusion_lat": 0.0, "name": "db056b11c02f60ab70d1005feba5932d", "is_reserved": 0, "rental_uris": {"android": "https://dc.lft.to/lastmile_qr_scan", "ios": "https://dc.lft.to/lastmile_qr_scan"}, "fusion_lon": 0.0}, {"lat": 38.80739483333333, "is_disabled": 0, "type": "electric_bike", "lon": -77.09434566666667, "bike_id": "658a1cb29c03aded596f8b3b1b881822", "fusion_lat": 0.0, "name": "658a1cb29c03aded596f8b3b1b881822", "is_reserved": 0, "rental_uris": {"android": "https://dc.lft.to/lastmile_qr_scan", "ios": "https://dc.lft.to/lastmile_qr_scan"}, "fusion_lon": 0.0}, {"lat": 38.9088415, "is_disabled": 0, "type": "electric_scooter", "lon": -77.06441, "bike_id": "e4a5604332ee5285d16e2333c2aeb3ec", "fusion_lat": 0.0, "name": "e4a5604332ee5285d16e2333c2aeb3ec", "is_reserved": 0, "rental_uris": {"android": "https://dc.lft.to/lastmile_qr_scan", "ios": "https://dc.lft.to/lastmile_qr_scan"}, "fusion_lon": 0.0}, {"lat": 38.937568666666664, "is_disabled": 0, "type": "electric_scooter", "lon": -77.0315015, "bike_id": "5cad2b0cbe635a517e7b558a09423cd1", "fusion_lat": 0.0, "name": "5cad2b0cbe635a517e7b558a09423cd1", "is_reserved": 0, "rental_uris": {"android": "https://dc.lft.to/lastmile_qr_scan", "ios": "https://dc.lft.to/lastmile_qr_scan"}, "fusion_lon": 0.0}, {"lat": 38.913972333333334, "is_disabled": 0, "type": "electric_scooter", "lon": -77.0366385, "bike_id": "1a6815ea467805d52c4d3227e311f688", "fusion_lat": 0.0, "name": "1a6815ea467805d52c4d3227e311f688", "is_reserved": 0, "rental_uris": {"android": "https://dc.lft.to/lastmile_qr_scan", "ios": "https://dc.lft.to/lastmile_qr_scan"}, "fusion_lon": 0.0}, {"lat": 38.918637333333336, "is_disabled": 0, "type": "electric_scooter", "lon": -76.97122316666666, "bike_id": "f1efc564611dc42f55d2e0c74d0fcb20", "fusion_lat": 0.0, "name": "f1efc564611dc42f55d2e0c74d0fcb20", "is_reserved": 0, "rental_uris": {"android": "https://dc.lft.to/lastmile_qr_scan", "ios": "https://dc.lft.to/lastmile_qr_scan"}, "fusion_lon": 0.0}, {"lat": 38.934799, "is_disabled": 0, "type": "electric_scooter", "lon": -77.02845133333334, "bike_id": "da0d471a42fa2044f7dcb874ff171439", "fusion_lat": 0.0, "name": "da0d471a42fa2044f7dcb874ff171439", "is_reserved": 0, "rental_uris": {"android": "https://dc.lft.to/lastmile_qr_scan", "ios": "https://dc.lft.to/lastmile_qr_scan"}, "fusion_lon": 0.0}, {"lat": 38.908524, "is_disabled": 0, "type": "electric_scooter", "lon": -76.99966966666666, "bike_id": "91d537681a0be6572496d89452c5cc8c", "fusion_lat": 0.0, "name": "91d537681a0be6572496d89452c5cc8c", "is_reserved": 0, "rental_uris": {"android": "https://dc.lft.to/lastmile_qr_scan", "ios": "https://dc.lft.to/lastmile_qr_scan"}, "fusion_lon": 0.0}, {"lat": 38.911152, "is_disabled": 0, "type": "electric_scooter", "lon": -77.04403016666667, "bike_id": "086e969a648a1c51029012789765e4de", "fusion_lat": 0.0, "name": "086e969a648a1c51029012789765e4de", "is_reserved": 0, "rental_uris": {"android": "https://dc.lft.to/lastmile_qr_scan", "ios": "https://dc.lft.to/lastmile_qr_scan"}, "fusion_lon": 0.0}, {"lat": 38.92192166666667, "is_disabled": 0, "type": "electric_scooter", "lon": -77.0413725, "bike_id": "7c775eedbf0f85e6f07100448a935d6c", "fusion_lat": 0.0, "name": "7c775eedbf0f85e6f07100448a935d6c", "is_reserved": 0, "rental_uris": {"android": "https://dc.lft.to/lastmile_qr_scan", "ios": "https://dc.lft.to/lastmile_qr_scan"}, "fusion_lon": 0.0}, {"lat": 38.910123166666665, "is_disabled": 0, "type": "electric_scooter", "lon": -77.03845633333333, "bike_id": "299de1496535056271adc4bb15af20cb", "fusion_lat": 0.0, "name": "299de1496535056271adc4bb15af20cb", "is_reserved": 0, "rental_uris": {"android": "https://dc.lft.to/lastmile_qr_scan", "ios": "https://dc.lft.to/lastmile_qr_scan"}, "fusion_lon": 0.0}, {"lat": 38.9059415, "is_disabled": 0, "type": "electric_scooter", "lon": -77.0630345, "bike_id": "0a06d5e51a324848f6186a7649644173", "fusion_lat": 0.0, "name": "0a06d5e51a324848f6186a7649644173", "is_reserved": 0, "rental_uris": {"android": "https://dc.lft.to/lastmile_qr_scan", "ios": "https://dc.lft.to/lastmile_qr_scan"}, "fusion_lon": 0.0}, {"lat": 38.884588666666666, "is_disabled": 0, "type": "electric_scooter", "lon": -76.9262375, "bike_id": "4a7634329b615df8bb585e5e5c528ad9", "fusion_lat": 0.0, "name": "4a7634329b615df8bb585e5e5c528ad9", "is_reserved": 0, "rental_uris": {"android": "https://dc.lft.to/lastmile_qr_scan", "ios": "https://dc.lft.to/lastmile_qr_scan"}, "fusion_lon": 0.0}, {"lat": 38.8848265, "is_disabled": 0, "type": "electric_scooter", "lon": -77.03482483333333, "bike_id": "c39b78a55d136f49df83b794462fa5b7", "fusion_lat": 0.0, "name": "c39b78a55d136f49df83b794462fa5b7", "is_reserved": 0, "rental_uris": {"android": "https://dc.lft.to/lastmile_qr_scan", "ios": "https://dc.lft.to/lastmile_qr_scan"}, "fusion_lon": 0.0}, {"lat": 38.952881, "is_disabled": 0, "type": "electric_bike", "lon": -76.946018, "bike_id": "775ee293a743215aaa4a813083a6c397", "fusion_lat": 0.0, "name": "775ee293a743215aaa4a813083a6c397", "is_reserved": 0, "rental_uris": {"android": "https://dc.lft.to/lastmile_qr_scan", "ios": "https://dc.lft.to/lastmile_qr_scan"}, "fusion_lon": 0.0}, {"lat": 38.908913, "is_disabled": 0, "type": "electric_scooter", "lon": -77.04310516666666, "bike_id": "7e83b44f375b7de7027c526709161457", "fusion_lat": 0.0, "name": "7e83b44f375b7de7027c526709161457", "is_reserved": 0, "rental_uris": {"android": "https://dc.lft.to/lastmile_qr_scan", "ios": "https://dc.lft.to/lastmile_qr_scan"}, "fusion_lon": 0.0}, {"lat": 38.95628633333333, "is_disabled": 0, "type": "electric_bike", "lon": -77.02300816666667, "bike_id": "5d097db27af269bed1c68fc252797469", "fusion_lat": 0.0, "name": "5d097db27af269bed1c68fc252797469", "is_reserved": 0, "rental_uris": {"android": "https://dc.lft.to/lastmile_qr_scan", "ios": "https://dc.lft.to/lastmile_qr_scan"}, "fusion_lon": 0.0}, {"lat": 38.916993166666664, "is_disabled": 0, "type": "electric_scooter", "lon": -77.0012275, "bike_id": "55b9662ca697e0507079f53a2e9b0984", "fusion_lat": 0.0, "name": "55b9662ca697e0507079f53a2e9b0984", "is_reserved": 0, "rental_uris": {"android": "https://dc.lft.to/lastmile_qr_scan", "ios": "https://dc.lft.to/lastmile_qr_scan"}, "fusion_lon": 0.0}, {"lat": 38.895557333333336, "is_disabled": 0, "type": "electric_scooter", "lon": -76.93083866666667, "bike_id": "0c194310d953f8e6785d52bef135879b", "fusion_lat": 0.0, "name": "0c194310d953f8e6785d52bef135879b", "is_reserved": 0, "rental_uris": {"android": "https://dc.lft.to/lastmile_qr_scan", "ios": "https://dc.lft.to/lastmile_qr_scan"}, "fusion_lon": 0.0}, {"lat": 38.9058985, "is_disabled": 0, "type": "electric_scooter", "lon": -77.04693016666667, "bike_id": "0d5c80c298f91be07024e2eb1186869c", "fusion_lat": 0.0, "name": "0d5c80c298f91be07024e2eb1186869c", "is_reserved": 0, "rental_uris": {"android": "https://dc.lft.to/lastmile_qr_scan", "ios": "https://dc.lft.to/lastmile_qr_scan"}, "fusion_lon": 0.0}, {"lat": 38.92756833333333, "is_disabled": 0, "type": "electric_scooter", "lon": -77.0321565, "bike_id": "5953cd6d5b51a594439953fa794eab25", "fusion_lat": 0.0, "name": "5953cd6d5b51a594439953fa794eab25", "is_reserved": 0, "rental_uris": {"android": "https://dc.lft.to/lastmile_qr_scan", "ios": "https://dc.lft.to/lastmile_qr_scan"}, "fusion_lon": 0.0}, {"lat": 38.9200905, "is_disabled": 0, "type": "electric_scooter", "lon": -77.03877116666666, "bike_id": "37cac4f932f9a8340cab89e49cdc8a50", "fusion_lat": 0.0, "name": "37cac4f932f9a8340cab89e49cdc8a50", "is_reserved": 0, "rental_uris": {"android": "https://dc.lft.to/lastmile_qr_scan", "ios": "https://dc.lft.to/lastmile_qr_scan"}, "fusion_lon": 0.0}, {"lat": 38.939488, "is_disabled": 0, "type": "electric_bike", "lon": -77.36102616666666, "bike_id": "e5e7fc0d65cb10f29b6151b10c858365", "fusion_lat": 0.0, "name": "e5e7fc0d65cb10f29b6151b10c858365", "is_reserved": 0, "rental_uris": {"android": "https://dc.lft.to/lastmile_qr_scan", "ios": "https://dc.lft.to/lastmile_qr_scan"}, "fusion_lon": 0.0}, {"lat": 38.917313, "is_disabled": 0, "type": "electric_scooter", "lon": -77.02395733333333, "bike_id": "3d1ef3ea7c9231d1290c3ae5a89c3ba4", "fusion_lat": 0.0, "name": "3d1ef3ea7c9231d1290c3ae5a89c3ba4", "is_reserved": 0, "rental_uris": {"android": "https://dc.lft.to/lastmile_qr_scan", "ios": "https://dc.lft.to/lastmile_qr_scan"}, "fusion_lon": 0.0}, {"lat": 38.9181435, "is_disabled": 0, "type": "electric_scooter", "lon": -77.00011483333333, "bike_id": "8684335c70e7d9cfe85c59586da42634", "fusion_lat": 0.0, "name": "8684335c70e7d9cfe85c59586da42634", "is_reserved": 0, "rental_uris": {"android": "https://dc.lft.to/lastmile_qr_scan", "ios": "https://dc.lft.to/lastmile_qr_scan"}, "fusion_lon": 0.0}, {"lat": 38.897397833333336, "is_disabled": 0, "type": "electric_scooter", "lon": -77.00946883333333, "bike_id": "edc686a2541f340e098bb1a5945433de", "fusion_lat": 0.0, "name": "edc686a2541f340e098bb1a5945433de", "is_reserved": 0, "rental_uris": {"android": "https://dc.lft.to/lastmile_qr_scan", "ios": "https://dc.lft.to/lastmile_qr_scan"}, "fusion_lon": 0.0}, {"lat": 38.89265566666667, "is_disabled": 0, "type": "electric_scooter", "lon": -77.02024816666666, "bike_id": "324b5571888ee1db50444c7eeba8f9dd", "fusion_lat": 0.0, "name": "324b5571888ee1db50444c7eeba8f9dd", "is_reserved": 0, "rental_uris": {"android": "https://dc.lft.to/lastmile_qr_scan", "ios": "https://dc.lft.to/lastmile_qr_scan"}, "fusion_lon": 0.0}, {"lat": 38.9244075, "is_disabled": 0, "type": "electric_scooter", "lon": -77.040369, "bike_id": "c634d8d8f97dd1b0a805746e6e5d8b92", "fusion_lat": 0.0, "name": "c634d8d8f97dd1b0a805746e6e5d8b92", "is_reserved": 0, "rental_uris": {"android": "https://dc.lft.to/lastmile_qr_scan", "ios": "https://dc.lft.to/lastmile_qr_scan"}, "fusion_lon": 0.0}, {"lat": 38.92707166666667, "is_disabled": 0, "type": "electric_scooter", "lon": -77.0210125, "bike_id": "2ddd4fa1924444947a57f7a47e3a95e9", "fusion_lat": 0.0, "name": "2ddd4fa1924444947a57f7a47e3a95e9", "is_reserved": 0, "rental_uris": {"android": "https://dc.lft.to/lastmile_qr_scan", "ios": "https://dc.lft.to/lastmile_qr_scan"}, "fusion_lon": 0.0}, {"lat": 38.884962, "is_disabled": 0, "type": "electric_bike", "lon": -76.98089183333333, "bike_id": "c2510c16b43b821183d082d01f4325db", "fusion_lat": 0.0, "name": "c2510c16b43b821183d082d01f4325db", "is_reserved": 0, "rental_uris": {"android": "https://dc.lft.to/lastmile_qr_scan", "ios": "https://dc.lft.to/lastmile_qr_scan"}, "fusion_lon": 0.0}, {"lat": 38.8865845, "is_disabled": 0, "type": "electric_scooter", "lon": -76.9963745, "bike_id": "08b7b8a9e1d02f11ed12ac09a40791e4", "fusion_lat": 0.0, "name": "08b7b8a9e1d02f11ed12ac09a40791e4", "is_reserved": 0, "rental_uris": {"android": "https://dc.lft.to/lastmile_qr_scan", "ios": "https://dc.lft.to/lastmile_qr_scan"}, "fusion_lon": 0.0}, {"lat": 38.933497833333334, "is_disabled": 0, "type": "electric_bike", "lon": -77.09965766666667, "bike_id": "ddc17cf02cc4c388af469684865d763f", "fusion_lat": 0.0, "name": "ddc17cf02cc4c388af469684865d763f", "is_reserved": 0, "rental_uris": {"android": "https://dc.lft.to/lastmile_qr_scan", "ios": "https://dc.lft.to/lastmile_qr_scan"}, "fusion_lon": 0.0}, {"lat": 38.906076, "is_disabled": 0, "type": "electric_scooter", "lon": -77.0397085, "bike_id": "1da71466ce386129c45e6255be91bb71", "fusion_lat": 0.0, "name": "1da71466ce386129c45e6255be91bb71", "is_reserved": 0, "rental_uris": {"android": "https://dc.lft.to/lastmile_qr_scan", "ios": "https://dc.lft.to/lastmile_qr_scan"}, "fusion_lon": 0.0}, {"lat": 38.94229166666667, "is_disabled": 0, "type": "electric_scooter", "lon": -77.01388216666666, "bike_id": "59ad8289969dea8526a4cd496861f80b", "fusion_lat": 0.0, "name": "59ad8289969dea8526a4cd496861f80b", "is_reserved": 0, "rental_uris": {"android": "https://dc.lft.to/lastmile_qr_scan", "ios": "https://dc.lft.to/lastmile_qr_scan"}, "fusion_lon": 0.0}, {"lat": 38.931085833333334, "is_disabled": 0, "type": "electric_scooter", "lon": -77.03027316666666, "bike_id": "b6b1f51280aa1bf8d2bf302abc8ae2e5", "fusion_lat": 0.0, "name": "b6b1f51280aa1bf8d2bf302abc8ae2e5", "is_reserved": 0, "rental_uris": {"android": "https://dc.lft.to/lastmile_qr_scan", "ios": "https://dc.lft.to/lastmile_qr_scan"}, "fusion_lon": 0.0}, {"lat": 38.89006333333333, "is_disabled": 0, "type": "electric_scooter", "lon": -76.9374135, "bike_id": "42807830342e48f106905431b0c54db2", "fusion_lat": 0.0, "name": "42807830342e48f106905431b0c54db2", "is_reserved": 0, "rental_uris": {"android": "https://dc.lft.to/lastmile_qr_scan", "ios": "https://dc.lft.to/lastmile_qr_scan"}, "fusion_lon": 0.0}, {"lat": 38.908523, "is_disabled": 0, "type": "electric_scooter", "lon": -76.99973533333333, "bike_id": "abb2a23c5b260af3f31eda0e99f11871", "fusion_lat": 0.0, "name": "abb2a23c5b260af3f31eda0e99f11871", "is_reserved": 0, "rental_uris": {"android": "https://dc.lft.to/lastmile_qr_scan", "ios": "https://dc.lft.to/lastmile_qr_scan"}, "fusion_lon": 0.0}, {"lat": 38.90362433333333, "is_disabled": 0, "type": "electric_scooter", "lon": -77.06289383333333, "bike_id": "df7efc9ad134c596e3dd6068022ccf2d", "fusion_lat": 0.0, "name": "df7efc9ad134c596e3dd6068022ccf2d", "is_reserved": 0, "rental_uris": {"android": "https://dc.lft.to/lastmile_qr_scan", "ios": "https://dc.lft.to/lastmile_qr_scan"}, "fusion_lon": 0.0}, {"lat": 38.90413183333333, "is_disabled": 0, "type": "electric_scooter", "lon": -77.0432805, "bike_id": "79891dbf1b782f6f6b1da7dc76c91d17", "fusion_lat": 0.0, "name": "79891dbf1b782f6f6b1da7dc76c91d17", "is_reserved": 0, "rental_uris": {"android": "https://dc.lft.to/lastmile_qr_scan", "ios": "https://dc.lft.to/lastmile_qr_scan"}, "fusion_lon": 0.0}, {"lat": 38.87988266666667, "is_disabled": 0, "type": "electric_scooter", "lon": -77.0059825, "bike_id": "c01c8b005c1c9f9c5fdb99a380a3b653", "fusion_lat": 0.0, "name": "c01c8b005c1c9f9c5fdb99a380a3b653", "is_reserved": 0, "rental_uris": {"android": "https://dc.lft.to/lastmile_qr_scan", "ios": "https://dc.lft.to/lastmile_qr_scan"}, "fusion_lon": 0.0}, {"lat": 38.904211333333336, "is_disabled": 0, "type": "electric_scooter", "lon": -76.99067, "bike_id": "ac069f4b8edb9a0ed1cfbdd2ed6b16ec", "fusion_lat": 0.0, "name": "ac069f4b8edb9a0ed1cfbdd2ed6b16ec", "is_reserved": 0, "rental_uris": {"android": "https://dc.lft.to/lastmile_qr_scan", "ios": "https://dc.lft.to/lastmile_qr_scan"}, "fusion_lon": 0.0}, {"lat": 38.846113, "is_disabled": 0, "type": "electric_bike", "lon": -76.96906933333334, "bike_id": "37c7b421bead4e33dcb021d63c6109b4", "fusion_lat": 0.0, "name": "37c7b421bead4e33dcb021d63c6109b4", "is_reserved": 0, "rental_uris": {"android": "https://dc.lft.to/lastmile_qr_scan", "ios": "https://dc.lft.to/lastmile_qr_scan"}, "fusion_lon": 0.0}, {"lat": 38.90137683333333, "is_disabled": 0, "type": "electric_scooter", "lon": -76.9805935, "bike_id": "fcbd5cfd20a14c0e34a784aeb2591d87", "fusion_lat": 0.0, "name": "fcbd5cfd20a14c0e34a784aeb2591d87", "is_reserved": 0, "rental_uris": {"android": "https://dc.lft.to/lastmile_qr_scan", "ios": "https://dc.lft.to/lastmile_qr_scan"}, "fusion_lon": 0.0}, {"lat": 38.908522833333336, "is_disabled": 0, "type": "electric_scooter", "lon": -77.0062685, "bike_id": "9dcad12f2b1ebdf828c139335278660f", "fusion_lat": 0.0, "name": "9dcad12f2b1ebdf828c139335278660f", "is_reserved": 0, "rental_uris": {"android": "https://dc.lft.to/lastmile_qr_scan", "ios": "https://dc.lft.to/lastmile_qr_scan"}, "fusion_lon": 0.0}, {"lat": 38.919677666666665, "is_disabled": 0, "type": "electric_scooter", "lon": -77.00023383333334, "bike_id": "946ebe5ac31ff72e0da76ee3fea11bfc", "fusion_lat": 0.0, "name": "946ebe5ac31ff72e0da76ee3fea11bfc", "is_reserved": 0, "rental_uris": {"android": "https://dc.lft.to/lastmile_qr_scan", "ios": "https://dc.lft.to/lastmile_qr_scan"}, "fusion_lon": 0.0}, {"lat": 38.90951366666667, "is_disabled": 0, "type": "electric_scooter", "lon": -77.01844166666666, "bike_id": "01c4ccd06ca97db8c59563ec841b7c49", "fusion_lat": 0.0, "name": "01c4ccd06ca97db8c59563ec841b7c49", "is_reserved": 0, "rental_uris": {"android": "https://dc.lft.to/lastmile_qr_scan", "ios": "https://dc.lft.to/lastmile_qr_scan"}, "fusion_lon": 0.0}, {"lat": 38.922216, "is_disabled": 0, "type": "electric_scooter", "lon": -77.042394, "bike_id": "a563c4d542df792507dfe5345d6e2dcf", "fusion_lat": 0.0, "name": "a563c4d542df792507dfe5345d6e2dcf", "is_reserved": 0, "rental_uris": {"android": "https://dc.lft.to/lastmile_qr_scan", "ios": "https://dc.lft.to/lastmile_qr_scan"}, "fusion_lon": 0.0}, {"lat": 38.941156666666664, "is_disabled": 0, "type": "electric_scooter", "lon": -77.0008695, "bike_id": "1c72bb03541e03c401f88963c174df32", "fusion_lat": 0.0, "name": "1c72bb03541e03c401f88963c174df32", "is_reserved": 0, "rental_uris": {"android": "https://dc.lft.to/lastmile_qr_scan", "ios": "https://dc.lft.to/lastmile_qr_scan"}, "fusion_lon": 0.0}, {"lat": 38.98822766666667, "is_disabled": 0, "type": "electric_bike", "lon": -76.99654783333334, "bike_id": "e31a42cd748bbf0f10bb7f7aa43bedb2", "fusion_lat": 0.0, "name": "e31a42cd748bbf0f10bb7f7aa43bedb2", "is_reserved": 0, "rental_uris": {"android": "https://dc.lft.to/lastmile_qr_scan", "ios": "https://dc.lft.to/lastmile_qr_scan"}, "fusion_lon": 0.0}, {"lat": 38.92630966666667, "is_disabled": 0, "type": "electric_scooter", "lon": -77.037885, "bike_id": "1db7a4270d18469f1359d13115c7e01c", "fusion_lat": 0.0, "name": "1db7a4270d18469f1359d13115c7e01c", "is_reserved": 0, "rental_uris": {"android": "https://dc.lft.to/lastmile_qr_scan", "ios": "https://dc.lft.to/lastmile_qr_scan"}, "fusion_lon": 0.0}, {"lat": 38.958853500000004, "is_disabled": 0, "type": "electric_bike", "lon": -76.92485366666666, "bike_id": "874477195b206870bc692bc49466d436", "fusion_lat": 0.0, "name": "874477195b206870bc692bc49466d436", "is_reserved": 0, "rental_uris": {"android": "https://dc.lft.to/lastmile_qr_scan", "ios": "https://dc.lft.to/lastmile_qr_scan"}, "fusion_lon": 0.0}, {"lat": 38.902648166666665, "is_disabled": 0, "type": "electric_scooter", "lon": -77.03485566666667, "bike_id": "613b81d821744fe8729be02629b8b099", "fusion_lat": 0.0, "name": "613b81d821744fe8729be02629b8b099", "is_reserved": 0, "rental_uris": {"android": "https://dc.lft.to/lastmile_qr_scan", "ios": "https://dc.lft.to/lastmile_qr_scan"}, "fusion_lon": 0.0}, {"lat": 38.91709683333333, "is_disabled": 0, "type": "electric_scooter", "lon": -77.03234266666666, "bike_id": "8bb02dd1a1c8c4b5e88ea3bc408033dd", "fusion_lat": 0.0, "name": "8bb02dd1a1c8c4b5e88ea3bc408033dd", "is_reserved": 0, "rental_uris": {"android": "https://dc.lft.to/lastmile_qr_scan", "ios": "https://dc.lft.to/lastmile_qr_scan"}, "fusion_lon": 0.0}, {"lat": 38.916836833333335, "is_disabled": 0, "type": "electric_scooter", "lon": -77.00202983333334, "bike_id": "ebd44ad76cf4f5a844501ae972ee6838", "fusion_lat": 0.0, "name": "ebd44ad76cf4f5a844501ae972ee6838", "is_reserved": 0, "rental_uris": {"android": "https://dc.lft.to/lastmile_qr_scan", "ios": "https://dc.lft.to/lastmile_qr_scan"}, "fusion_lon": 0.0}, {"lat": 38.90211, "is_disabled": 0, "type": "electric_scooter", "lon": -77.05314333333334, "bike_id": "ac0c51d2c2c6487728337aa386c37aea", "fusion_lat": 0.0, "name": "ac0c51d2c2c6487728337aa386c37aea", "is_reserved": 0, "rental_uris": {"android": "https://dc.lft.to/lastmile_qr_scan", "ios": "https://dc.lft.to/lastmile_qr_scan"}, "fusion_lon": 0.0}, {"lat": 38.883637666666665, "is_disabled": 0, "type": "electric_scooter", "lon": -76.94150966666666, "bike_id": "ef62c2f3f9a3f311983f59a55bc2d3f1", "fusion_lat": 0.0, "name": "ef62c2f3f9a3f311983f59a55bc2d3f1", "is_reserved": 0, "rental_uris": {"android": "https://dc.lft.to/lastmile_qr_scan", "ios": "https://dc.lft.to/lastmile_qr_scan"}, "fusion_lon": 0.0}, {"lat": 38.917617, "is_disabled": 0, "type": "electric_scooter", "lon": -76.97617583333333, "bike_id": "a79595896311bf7590719560fbfb9cec", "fusion_lat": 0.0, "name": "a79595896311bf7590719560fbfb9cec", "is_reserved": 0, "rental_uris": {"android": "https://dc.lft.to/lastmile_qr_scan", "ios": "https://dc.lft.to/lastmile_qr_scan"}, "fusion_lon": 0.0}, {"lat": 38.903923, "is_disabled": 0, "type": "electric_scooter", "lon": -77.053794, "bike_id": "92df461cb4cde70467eef00d3c0e2f29", "fusion_lat": 0.0, "name": "92df461cb4cde70467eef00d3c0e2f29", "is_reserved": 0, "rental_uris": {"android": "https://dc.lft.to/lastmile_qr_scan", "ios": "https://dc.lft.to/lastmile_qr_scan"}, "fusion_lon": 0.0}, {"lat": 38.915577, "is_disabled": 0, "type": "electric_scooter", "lon": -77.0324475, "bike_id": "fd22616c058c02d042107f99a7e0b9e1", "fusion_lat": 0.0, "name": "fd22616c058c02d042107f99a7e0b9e1", "is_reserved": 0, "rental_uris": {"android": "https://dc.lft.to/lastmile_qr_scan", "ios": "https://dc.lft.to/lastmile_qr_scan"}, "fusion_lon": 0.0}, {"lat": 38.929482, "is_disabled": 0, "type": "electric_scooter", "lon": -77.0189085, "bike_id": "a62f23da9841c1943d763893642714de", "fusion_lat": 0.0, "name": "a62f23da9841c1943d763893642714de", "is_reserved": 0, "rental_uris": {"android": "https://dc.lft.to/lastmile_qr_scan", "ios": "https://dc.lft.to/lastmile_qr_scan"}, "fusion_lon": 0.0}, {"lat": 38.919194833333336, "is_disabled": 0, "type": "electric_scooter", "lon": -77.03129933333334, "bike_id": "3054c7c2ba46c2841373fa0523b8190e", "fusion_lat": 0.0, "name": "3054c7c2ba46c2841373fa0523b8190e", "is_reserved": 0, "rental_uris": {"android": "https://dc.lft.to/lastmile_qr_scan", "ios": "https://dc.lft.to/lastmile_qr_scan"}, "fusion_lon": 0.0}, {"lat": 38.92149466666667, "is_disabled": 0, "type": "electric_scooter", "lon": -77.035083, "bike_id": "4ee0e73dbc4107d20daad838579ec66b", "fusion_lat": 0.0, "name": "4ee0e73dbc4107d20daad838579ec66b", "is_reserved": 0, "rental_uris": {"android": "https://dc.lft.to/lastmile_qr_scan", "ios": "https://dc.lft.to/lastmile_qr_scan"}, "fusion_lon": 0.0}, {"lat": 38.90137433333334, "is_disabled": 0, "type": "electric_scooter", "lon": -77.05912783333333, "bike_id": "08ef9d891cca6d99af445ff55f0faca6", "fusion_lat": 0.0, "name": "08ef9d891cca6d99af445ff55f0faca6", "is_reserved": 0, "rental_uris": {"android": "https://dc.lft.to/lastmile_qr_scan", "ios": "https://dc.lft.to/lastmile_qr_scan"}, "fusion_lon": 0.0}, {"lat": 39.051975166666665, "is_disabled": 0, "type": "electric_bike", "lon": -77.10929933333334, "bike_id": "1da07ef0d3df0940bf3baa018e271b26", "fusion_lat": 0.0, "name": "1da07ef0d3df0940bf3baa018e271b26", "is_reserved": 0, "rental_uris": {"android": "https://dc.lft.to/lastmile_qr_scan", "ios": "https://dc.lft.to/lastmile_qr_scan"}, "fusion_lon": 0.0}, {"lat": 38.91478033333333, "is_disabled": 0, "type": "electric_scooter", "lon": -77.02178733333334, "bike_id": "f04caf1329b2aeb99c80dae9801b0fcc", "fusion_lat": 0.0, "name": "f04caf1329b2aeb99c80dae9801b0fcc", "is_reserved": 0, "rental_uris": {"android": "https://dc.lft.to/lastmile_qr_scan", "ios": "https://dc.lft.to/lastmile_qr_scan"}, "fusion_lon": 0.0}, {"lat": 38.899671833333336, "is_disabled": 0, "type": "electric_scooter", "lon": -76.92647316666667, "bike_id": "a206fe5f9ba5ebeb66a6ffee806c2d9e", "fusion_lat": 0.0, "name": "a206fe5f9ba5ebeb66a6ffee806c2d9e", "is_reserved": 0, "rental_uris": {"android": "https://dc.lft.to/lastmile_qr_scan", "ios": "https://dc.lft.to/lastmile_qr_scan"}, "fusion_lon": 0.0}, {"lat": 38.9081775, "is_disabled": 0, "type": "electric_scooter", "lon": -77.0444995, "bike_id": "58d5ffcd06dc50cc6db2711826e7aaff", "fusion_lat": 0.0, "name": "58d5ffcd06dc50cc6db2711826e7aaff", "is_reserved": 0, "rental_uris": {"android": "https://dc.lft.to/lastmile_qr_scan", "ios": "https://dc.lft.to/lastmile_qr_scan"}, "fusion_lon": 0.0}, {"lat": 38.900585166666666, "is_disabled": 0, "type": "electric_scooter", "lon": -77.025962, "bike_id": "f28ce30847b547a4b1ed91d0aad57073", "fusion_lat": 0.0, "name": "f28ce30847b547a4b1ed91d0aad57073", "is_reserved": 0, "rental_uris": {"android": "https://dc.lft.to/lastmile_qr_scan", "ios": "https://dc.lft.to/lastmile_qr_scan"}, "fusion_lon": 0.0}, {"lat": 38.900102, "is_disabled": 0, "type": "electric_scooter", "lon": -77.04499566666667, "bike_id": "e8cc074aed011e1a50001f16d8f5e939", "fusion_lat": 0.0, "name": "e8cc074aed011e1a50001f16d8f5e939", "is_reserved": 0, "rental_uris": {"android": "https://dc.lft.to/lastmile_qr_scan", "ios": "https://dc.lft.to/lastmile_qr_scan"}, "fusion_lon": 0.0}, {"lat": 38.925178833333334, "is_disabled": 0, "type": "electric_scooter", "lon": -77.0272325, "bike_id": "79b8fecb8281be086fafca4e809eb6fb", "fusion_lat": 0.0, "name": "79b8fecb8281be086fafca4e809eb6fb", "is_reserved": 0, "rental_uris": {"android": "https://dc.lft.to/lastmile_qr_scan", "ios": "https://dc.lft.to/lastmile_qr_scan"}, "fusion_lon": 0.0}, {"lat": 38.876444666666664, "is_disabled": 0, "type": "electric_scooter", "lon": -77.00601316666666, "bike_id": "582171a78e5ee268186b06bb50438a3a", "fusion_lat": 0.0, "name": "582171a78e5ee268186b06bb50438a3a", "is_reserved": 0, "rental_uris": {"android": "https://dc.lft.to/lastmile_qr_scan", "ios": "https://dc.lft.to/lastmile_qr_scan"}, "fusion_lon": 0.0}, {"lat": 38.892209666666666, "is_disabled": 0, "type": "electric_scooter", "lon": -76.93302383333334, "bike_id": "36469e795d3d8addeea98a08376da6d8", "fusion_lat": 0.0, "name": "36469e795d3d8addeea98a08376da6d8", "is_reserved": 0, "rental_uris": {"android": "https://dc.lft.to/lastmile_qr_scan", "ios": "https://dc.lft.to/lastmile_qr_scan"}, "fusion_lon": 0.0}, {"lat": 38.932186333333334, "is_disabled": 0, "type": "electric_scooter", "lon": -77.02735033333333, "bike_id": "94bea84dfcae8256855737fa31f696d9", "fusion_lat": 0.0, "name": "94bea84dfcae8256855737fa31f696d9", "is_reserved": 0, "rental_uris": {"android": "https://dc.lft.to/lastmile_qr_scan", "ios": "https://dc.lft.to/lastmile_qr_scan"}, "fusion_lon": 0.0}, {"lat": 38.88969816666667, "is_disabled": 0, "type": "electric_scooter", "lon": -76.93747716666667, "bike_id": "b3292d3e8ddbbcb3d78b6922163c07b6", "fusion_lat": 0.0, "name": "b3292d3e8ddbbcb3d78b6922163c07b6", "is_reserved": 0, "rental_uris": {"android": "https://dc.lft.to/lastmile_qr_scan", "ios": "https://dc.lft.to/lastmile_qr_scan"}, "fusion_lon": 0.0}, {"lat": 38.91061716666667, "is_disabled": 0, "type": "electric_scooter", "lon": -77.020952, "bike_id": "695d025d1cb75427f14ae014dad83700", "fusion_lat": 0.0, "name": "695d025d1cb75427f14ae014dad83700", "is_reserved": 0, "rental_uris": {"android": "https://dc.lft.to/lastmile_qr_scan", "ios": "https://dc.lft.to/lastmile_qr_scan"}, "fusion_lon": 0.0}, {"lat": 38.945108166666664, "is_disabled": 0, "type": "electric_scooter", "lon": -77.02179216666667, "bike_id": "d93a27a9fe4ba56dfb0555f1820f2d02", "fusion_lat": 0.0, "name": "d93a27a9fe4ba56dfb0555f1820f2d02", "is_reserved": 0, "rental_uris": {"android": "https://dc.lft.to/lastmile_qr_scan", "ios": "https://dc.lft.to/lastmile_qr_scan"}, "fusion_lon": 0.0}, {"lat": 38.912704, "is_disabled": 0, "type": "electric_scooter", "lon": -77.022707, "bike_id": "3d6aa0f07b28339e669186d2d05c437e", "fusion_lat": 0.0, "name": "3d6aa0f07b28339e669186d2d05c437e", "is_reserved": 0, "rental_uris": {"android": "https://dc.lft.to/lastmile_qr_scan", "ios": "https://dc.lft.to/lastmile_qr_scan"}, "fusion_lon": 0.0}, {"lat": 38.89282216666667, "is_disabled": 0, "type": "electric_scooter", "lon": -77.01206566666667, "bike_id": "004d7e75f6798cc2b949543b68a70d33", "fusion_lat": 0.0, "name": "004d7e75f6798cc2b949543b68a70d33", "is_reserved": 0, "rental_uris": {"android": "https://dc.lft.to/lastmile_qr_scan", "ios": "https://dc.lft.to/lastmile_qr_scan"}, "fusion_lon": 0.0}, {"lat": 38.928687833333335, "is_disabled": 0, "type": "electric_scooter", "lon": -77.03367316666667, "bike_id": "b16a7c8bf63c377e86efa3348cace0d4", "fusion_lat": 0.0, "name": "b16a7c8bf63c377e86efa3348cace0d4", "is_reserved": 0, "rental_uris": {"android": "https://dc.lft.to/lastmile_qr_scan", "ios": "https://dc.lft.to/lastmile_qr_scan"}, "fusion_lon": 0.0}, {"lat": 38.904586, "is_disabled": 0, "type": "electric_scooter", "lon": -77.03232266666667, "bike_id": "1ca1b4403809df2063d7d3e47228ab52", "fusion_lat": 0.0, "name": "1ca1b4403809df2063d7d3e47228ab52", "is_reserved": 0, "rental_uris": {"android": "https://dc.lft.to/lastmile_qr_scan", "ios": "https://dc.lft.to/lastmile_qr_scan"}, "fusion_lon": 0.0}, {"lat": 38.90723333333333, "is_disabled": 0, "type": "electric_scooter", "lon": -77.02550916666667, "bike_id": "e2bbf8172419bf580775930813cd3762", "fusion_lat": 0.0, "name": "e2bbf8172419bf580775930813cd3762", "is_reserved": 0, "rental_uris": {"android": "https://dc.lft.to/lastmile_qr_scan", "ios": "https://dc.lft.to/lastmile_qr_scan"}, "fusion_lon": 0.0}, {"lat": 38.86612733333333, "is_disabled": 0, "type": "electric_bike", "lon": -76.945793, "bike_id": "3d21a52c7c36e4de9d167e6f6744d4dd", "fusion_lat": 0.0, "name": "3d21a52c7c36e4de9d167e6f6744d4dd", "is_reserved": 0, "rental_uris": {"android": "https://dc.lft.to/lastmile_qr_scan", "ios": "https://dc.lft.to/lastmile_qr_scan"}, "fusion_lon": 0.0}, {"lat": 38.88429933333333, "is_disabled": 0, "type": "electric_scooter", "lon": -76.9575995, "bike_id": "a9a08c2e7cae57fe901f6cec897c3027", "fusion_lat": 0.0, "name": "a9a08c2e7cae57fe901f6cec897c3027", "is_reserved": 0, "rental_uris": {"android": "https://dc.lft.to/lastmile_qr_scan", "ios": "https://dc.lft.to/lastmile_qr_scan"}, "fusion_lon": 0.0}, {"lat": 38.86559833333333, "is_disabled": 0, "type": "electric_scooter", "lon": -76.98951566666666, "bike_id": "3ca209f83538e70e8ce468a388bbe170", "fusion_lat": 0.0, "name": "3ca209f83538e70e8ce468a388bbe170", "is_reserved": 0, "rental_uris": {"android": "https://dc.lft.to/lastmile_qr_scan", "ios": "https://dc.lft.to/lastmile_qr_scan"}, "fusion_lon": 0.0}, {"lat": 38.88115616666666, "is_disabled": 0, "type": "electric_scooter", "lon": -77.0165095, "bike_id": "7eec9dbfcc436ca98c6669f97d2d3bdf", "fusion_lat": 0.0, "name": "7eec9dbfcc436ca98c6669f97d2d3bdf", "is_reserved": 0, "rental_uris": {"android": "https://dc.lft.to/lastmile_qr_scan", "ios": "https://dc.lft.to/lastmile_qr_scan"}, "fusion_lon": 0.0}, {"lat": 38.949068, "is_disabled": 0, "type": "electric_scooter", "lon": -77.0663475, "bike_id": "e49efd848bf78b4b1b6c4a32deb4f724", "fusion_lat": 0.0, "name": "e49efd848bf78b4b1b6c4a32deb4f724", "is_reserved": 0, "rental_uris": {"android": "https://dc.lft.to/lastmile_qr_scan", "ios": "https://dc.lft.to/lastmile_qr_scan"}, "fusion_lon": 0.0}, {"lat": 38.88622983333333, "is_disabled": 0, "type": "electric_scooter", "lon": -77.02300133333334, "bike_id": "14eab13cab6aa3bc3d3de3f03b65f51e", "fusion_lat": 0.0, "name": "14eab13cab6aa3bc3d3de3f03b65f51e", "is_reserved": 0, "rental_uris": {"android": "https://dc.lft.to/lastmile_qr_scan", "ios": "https://dc.lft.to/lastmile_qr_scan"}, "fusion_lon": 0.0}, {"lat": 38.920833333333334, "is_disabled": 0, "type": "electric_scooter", "lon": -77.03164, "bike_id": "2ca5c81c406865f7f46c24ff688128ac", "fusion_lat": 0.0, "name": "2ca5c81c406865f7f46c24ff688128ac", "is_reserved": 0, "rental_uris": {"android": "https://dc.lft.to/lastmile_qr_scan", "ios": "https://dc.lft.to/lastmile_qr_scan"}, "fusion_lon": 0.0}, {"lat": 38.91105183333333, "is_disabled": 0, "type": "electric_scooter", "lon": -77.02180083333333, "bike_id": "fc17dab35e197c46293e06c26844a7c8", "fusion_lat": 0.0, "name": "fc17dab35e197c46293e06c26844a7c8", "is_reserved": 0, "rental_uris": {"android": "https://dc.lft.to/lastmile_qr_scan", "ios": "https://dc.lft.to/lastmile_qr_scan"}, "fusion_lon": 0.0}, {"lat": 38.91826983333333, "is_disabled": 0, "type": "electric_scooter", "lon": -77.03182216666667, "bike_id": "c4d338538657e1ba0e6fb98de672a46b", "fusion_lat": 0.0, "name": "c4d338538657e1ba0e6fb98de672a46b", "is_reserved": 0, "rental_uris": {"android": "https://dc.lft.to/lastmile_qr_scan", "ios": "https://dc.lft.to/lastmile_qr_scan"}, "fusion_lon": 0.0}, {"lat": 38.85316066666667, "is_disabled": 0, "type": "electric_scooter", "lon": -76.98024483333333, "bike_id": "a9650c7bfb7cbdf9f80e660f40ea5849", "fusion_lat": 0.0, "name": "a9650c7bfb7cbdf9f80e660f40ea5849", "is_reserved": 0, "rental_uris": {"android": "https://dc.lft.to/lastmile_qr_scan", "ios": "https://dc.lft.to/lastmile_qr_scan"}, "fusion_lon": 0.0}, {"lat": 38.877747, "is_disabled": 0, "type": "electric_scooter", "lon": -76.99508683333333, "bike_id": "53fb852d8b4cb14c47d898f8d38e2e0e", "fusion_lat": 0.0, "name": "53fb852d8b4cb14c47d898f8d38e2e0e", "is_reserved": 0, "rental_uris": {"android": "https://dc.lft.to/lastmile_qr_scan", "ios": "https://dc.lft.to/lastmile_qr_scan"}, "fusion_lon": 0.0}, {"lat": 38.88377533333333, "is_disabled": 0, "type": "electric_scooter", "lon": -77.04608883333333, "bike_id": "4de6aab565abc53642731363e5c2a8bf", "fusion_lat": 0.0, "name": "4de6aab565abc53642731363e5c2a8bf", "is_reserved": 0, "rental_uris": {"android": "https://dc.lft.to/lastmile_qr_scan", "ios": "https://dc.lft.to/lastmile_qr_scan"}, "fusion_lon": 0.0}, {"lat": 38.93098533333333, "is_disabled": 0, "type": "electric_scooter", "lon": -77.02440783333333, "bike_id": "66539f5cfb1289937c56d2333bc94b7f", "fusion_lat": 0.0, "name": "66539f5cfb1289937c56d2333bc94b7f", "is_reserved": 0, "rental_uris": {"android": "https://dc.lft.to/lastmile_qr_scan", "ios": "https://dc.lft.to/lastmile_qr_scan"}, "fusion_lon": 0.0}, {"lat": 38.8999985, "is_disabled": 0, "type": "electric_scooter", "lon": -77.03302683333334, "bike_id": "eb2249d3ce5a34306ba4a84e0135b543", "fusion_lat": 0.0, "name": "eb2249d3ce5a34306ba4a84e0135b543", "is_reserved": 0, "rental_uris": {"android": "https://dc.lft.to/lastmile_qr_scan", "ios": "https://dc.lft.to/lastmile_qr_scan"}, "fusion_lon": 0.0}, {"lat": 38.96200983333333, "is_disabled": 0, "type": "electric_bike", "lon": -77.03521583333334, "bike_id": "52dee8fa70406b29557c5bc4bab4be1c", "fusion_lat": 0.0, "name": "52dee8fa70406b29557c5bc4bab4be1c", "is_reserved": 0, "rental_uris": {"android": "https://dc.lft.to/lastmile_qr_scan", "ios": "https://dc.lft.to/lastmile_qr_scan"}, "fusion_lon": 0.0}, {"lat": 38.872364, "is_disabled": 0, "type": "electric_scooter", "lon": -77.01200833333333, "bike_id": "32bf12e402a4cfc782985ae7d16d42ab", "fusion_lat": 0.0, "name": "32bf12e402a4cfc782985ae7d16d42ab", "is_reserved": 0, "rental_uris": {"android": "https://dc.lft.to/lastmile_qr_scan", "ios": "https://dc.lft.to/lastmile_qr_scan"}, "fusion_lon": 0.0}, {"lat": 38.92882766666666, "is_disabled": 0, "type": "electric_scooter", "lon": -77.038735, "bike_id": "411e0380e49759cc4fd41cff7198189b", "fusion_lat": 0.0, "name": "411e0380e49759cc4fd41cff7198189b", "is_reserved": 0, "rental_uris": {"android": "https://dc.lft.to/lastmile_qr_scan", "ios": "https://dc.lft.to/lastmile_qr_scan"}, "fusion_lon": 0.0}, {"lat": 38.926179833333336, "is_disabled": 0, "type": "electric_scooter", "lon": -77.04407916666666, "bike_id": "875e59e0a66d4eada9c20452e8ec30e9", "fusion_lat": 0.0, "name": "875e59e0a66d4eada9c20452e8ec30e9", "is_reserved": 0, "rental_uris": {"android": "https://dc.lft.to/lastmile_qr_scan", "ios": "https://dc.lft.to/lastmile_qr_scan"}, "fusion_lon": 0.0}, {"lat": 38.93735, "is_disabled": 0, "type": "electric_scooter", "lon": -77.035015, "bike_id": "63903a8c8f6d82e0ce824fb5e4020757", "fusion_lat": 0.0, "name": "63903a8c8f6d82e0ce824fb5e4020757", "is_reserved": 0, "rental_uris": {"android": "https://dc.lft.to/lastmile_qr_scan", "ios": "https://dc.lft.to/lastmile_qr_scan"}, "fusion_lon": 0.0}, {"lat": 38.90133216666667, "is_disabled": 0, "type": "electric_scooter", "lon": -77.003369, "bike_id": "67957df9b487df41d2988efcef048603", "fusion_lat": 0.0, "name": "67957df9b487df41d2988efcef048603", "is_reserved": 0, "rental_uris": {"android": "https://dc.lft.to/lastmile_qr_scan", "ios": "https://dc.lft.to/lastmile_qr_scan"}, "fusion_lon": 0.0}, {"lat": 38.91367366666667, "is_disabled": 0, "type": "electric_scooter", "lon": -77.03203666666667, "bike_id": "9780b723d4d5d29cde763322da11eb92", "fusion_lat": 0.0, "name": "9780b723d4d5d29cde763322da11eb92", "is_reserved": 0, "rental_uris": {"android": "https://dc.lft.to/lastmile_qr_scan", "ios": "https://dc.lft.to/lastmile_qr_scan"}, "fusion_lon": 0.0}, {"lat": 38.89607, "is_disabled": 0, "type": "electric_scooter", "lon": -76.95665716666667, "bike_id": "744dc07cc034d4e728bea787528f1c40", "fusion_lat": 0.0, "name": "744dc07cc034d4e728bea787528f1c40", "is_reserved": 0, "rental_uris": {"android": "https://dc.lft.to/lastmile_qr_scan", "ios": "https://dc.lft.to/lastmile_qr_scan"}, "fusion_lon": 0.0}, {"lat": 38.8740105, "is_disabled": 0, "type": "electric_scooter", "lon": -77.01452833333333, "bike_id": "9fe86ea9a172defcd77f92cd63aed327", "fusion_lat": 0.0, "name": "9fe86ea9a172defcd77f92cd63aed327", "is_reserved": 0, "rental_uris": {"android": "https://dc.lft.to/lastmile_qr_scan", "ios": "https://dc.lft.to/lastmile_qr_scan"}, "fusion_lon": 0.0}, {"lat": 38.922011, "is_disabled": 0, "type": "electric_scooter", "lon": -77.0426245, "bike_id": "bc6843b259efd3465ab7e95eca65e344", "fusion_lat": 0.0, "name": "bc6843b259efd3465ab7e95eca65e344", "is_reserved": 0, "rental_uris": {"android": "https://dc.lft.to/lastmile_qr_scan", "ios": "https://dc.lft.to/lastmile_qr_scan"}, "fusion_lon": 0.0}, {"lat": 38.9118665, "is_disabled": 0, "type": "electric_scooter", "lon": -77.03840866666667, "bike_id": "70456ec1b3bce119d9a1b534f2825950", "fusion_lat": 0.0, "name": "70456ec1b3bce119d9a1b534f2825950", "is_reserved": 0, "rental_uris": {"android": "https://dc.lft.to/lastmile_qr_scan", "ios": "https://dc.lft.to/lastmile_qr_scan"}, "fusion_lon": 0.0}, {"lat": 38.907277666666666, "is_disabled": 0, "type": "electric_scooter", "lon": -77.048266, "bike_id": "4b9e44cc12e8fe2f57e91a8aba411e7d", "fusion_lat": 0.0, "name": "4b9e44cc12e8fe2f57e91a8aba411e7d", "is_reserved": 0, "rental_uris": {"android": "https://dc.lft.to/lastmile_qr_scan", "ios": "https://dc.lft.to/lastmile_qr_scan"}, "fusion_lon": 0.0}, {"lat": 38.92889816666667, "is_disabled": 0, "type": "electric_scooter", "lon": -77.03237183333333, "bike_id": "15f24c4f531f39af9fd9aa947baa2e98", "fusion_lat": 0.0, "name": "15f24c4f531f39af9fd9aa947baa2e98", "is_reserved": 0, "rental_uris": {"android": "https://dc.lft.to/lastmile_qr_scan", "ios": "https://dc.lft.to/lastmile_qr_scan"}, "fusion_lon": 0.0}, {"lat": 38.909688833333334, "is_disabled": 0, "type": "electric_scooter", "lon": -77.04526183333333, "bike_id": "1186251a8bca8505a52a7ac13255cf8b", "fusion_lat": 0.0, "name": "1186251a8bca8505a52a7ac13255cf8b", "is_reserved": 0, "rental_uris": {"android": "https://dc.lft.to/lastmile_qr_scan", "ios": "https://dc.lft.to/lastmile_qr_scan"}, "fusion_lon": 0.0}, {"lat": 38.921769, "is_disabled": 0, "type": "electric_scooter", "lon": -77.04233383333333, "bike_id": "18334193d6c4c9362171e1c5aa49e220", "fusion_lat": 0.0, "name": "18334193d6c4c9362171e1c5aa49e220", "is_reserved": 0, "rental_uris": {"android": "https://dc.lft.to/lastmile_qr_scan", "ios": "https://dc.lft.to/lastmile_qr_scan"}, "fusion_lon": 0.0}, {"lat": 38.927096666666664, "is_disabled": 0, "type": "electric_scooter", "lon": -77.0233, "bike_id": "3a9a55e5e65a7f303e38e5191301a21d", "fusion_lat": 0.0, "name": "3a9a55e5e65a7f303e38e5191301a21d", "is_reserved": 0, "rental_uris": {"android": "https://dc.lft.to/lastmile_qr_scan", "ios": "https://dc.lft.to/lastmile_qr_scan"}, "fusion_lon": 0.0}, {"lat": 39.03044416666667, "is_disabled": 0, "type": "electric_bike", "lon": -77.09490166666667, "bike_id": "6a9f214b8544b08849bf20e9fd05ea12", "fusion_lat": 0.0, "name": "6a9f214b8544b08849bf20e9fd05ea12", "is_reserved": 0, "rental_uris": {"android": "https://dc.lft.to/lastmile_qr_scan", "ios": "https://dc.lft.to/lastmile_qr_scan"}, "fusion_lon": 0.0}, {"lat": 38.89518733333333, "is_disabled": 0, "type": "electric_scooter", "lon": -77.0436455, "bike_id": "0bd8fe1193d3b6fc619cd5c5c2b08352", "fusion_lat": 0.0, "name": "0bd8fe1193d3b6fc619cd5c5c2b08352", "is_reserved": 0, "rental_uris": {"android": "https://dc.lft.to/lastmile_qr_scan", "ios": "https://dc.lft.to/lastmile_qr_scan"}, "fusion_lon": 0.0}, {"lat": 38.918082166666665, "is_disabled": 0, "type": "electric_scooter", "lon": -77.028659, "bike_id": "d5946bc05ad57736b23eb0be5d3d9f93", "fusion_lat": 0.0, "name": "d5946bc05ad57736b23eb0be5d3d9f93", "is_reserved": 0, "rental_uris": {"android": "https://dc.lft.to/lastmile_qr_scan", "ios": "https://dc.lft.to/lastmile_qr_scan"}, "fusion_lon": 0.0}, {"lat": 38.923222, "is_disabled": 0, "type": "electric_scooter", "lon": -77.03897333333333, "bike_id": "b88d49abf161a6af3dcc573657860819", "fusion_lat": 0.0, "name": "b88d49abf161a6af3dcc573657860819", "is_reserved": 0, "rental_uris": {"android": "https://dc.lft.to/lastmile_qr_scan", "ios": "https://dc.lft.to/lastmile_qr_scan"}, "fusion_lon": 0.0}, {"lat": 38.8851065, "is_disabled": 0, "type": "electric_scooter", "lon": -77.0068075, "bike_id": "b6a51c3cd6f41465477d9733a1b38bab", "fusion_lat": 0.0, "name": "b6a51c3cd6f41465477d9733a1b38bab", "is_reserved": 0, "rental_uris": {"android": "https://dc.lft.to/lastmile_qr_scan", "ios": "https://dc.lft.to/lastmile_qr_scan"}, "fusion_lon": 0.0}, {"lat": 38.91949966666667, "is_disabled": 0, "type": "electric_scooter", "lon": -77.02503316666666, "bike_id": "cd29c5d3f277218f1262ac99315e3fa7", "fusion_lat": 0.0, "name": "cd29c5d3f277218f1262ac99315e3fa7", "is_reserved": 0, "rental_uris": {"android": "https://dc.lft.to/lastmile_qr_scan", "ios": "https://dc.lft.to/lastmile_qr_scan"}, "fusion_lon": 0.0}, {"lat": 38.90525816666667, "is_disabled": 0, "type": "electric_scooter", "lon": -77.05140483333334, "bike_id": "85061452d292bb8841c66f6cc5d58461", "fusion_lat": 0.0, "name": "85061452d292bb8841c66f6cc5d58461", "is_reserved": 0, "rental_uris": {"android": "https://dc.lft.to/lastmile_qr_scan", "ios": "https://dc.lft.to/lastmile_qr_scan"}, "fusion_lon": 0.0}, {"lat": 38.92792766666667, "is_disabled": 0, "type": "electric_scooter", "lon": -77.05524866666667, "bike_id": "9e1cee78505fe8612b412a0e5cefb1d9", "fusion_lat": 0.0, "name": "9e1cee78505fe8612b412a0e5cefb1d9", "is_reserved": 0, "rental_uris": {"android": "https://dc.lft.to/lastmile_qr_scan", "ios": "https://dc.lft.to/lastmile_qr_scan"}, "fusion_lon": 0.0}, {"lat": 38.89224133333333, "is_disabled": 0, "type": "electric_bike", "lon": -77.03326783333333, "bike_id": "8336dc03baf72dda9a8804278b908da2", "fusion_lat": 0.0, "name": "8336dc03baf72dda9a8804278b908da2", "is_reserved": 0, "rental_uris": {"android": "https://dc.lft.to/lastmile_qr_scan", "ios": "https://dc.lft.to/lastmile_qr_scan"}, "fusion_lon": 0.0}, {"lat": 38.93506683333333, "is_disabled": 0, "type": "electric_scooter", "lon": -77.0335165, "bike_id": "b44d5e321b8a83f1c2bb473325fbdd4b", "fusion_lat": 0.0, "name": "b44d5e321b8a83f1c2bb473325fbdd4b", "is_reserved": 0, "rental_uris": {"android": "https://dc.lft.to/lastmile_qr_scan", "ios": "https://dc.lft.to/lastmile_qr_scan"}, "fusion_lon": 0.0}, {"lat": 38.853172, "is_disabled": 0, "type": "electric_bike", "lon": -76.98013516666667, "bike_id": "686cb5125d7940b6d8ac7e049466a7b4", "fusion_lat": 0.0, "name": "686cb5125d7940b6d8ac7e049466a7b4", "is_reserved": 0, "rental_uris": {"android": "https://dc.lft.to/lastmile_qr_scan", "ios": "https://dc.lft.to/lastmile_qr_scan"}, "fusion_lon": 0.0}, {"lat": 39.000020166666665, "is_disabled": 0, "type": "electric_bike", "lon": -76.91079133333334, "bike_id": "c58982bbae136146eb5419df68857cde", "fusion_lat": 0.0, "name": "c58982bbae136146eb5419df68857cde", "is_reserved": 0, "rental_uris": {"android": "https://dc.lft.to/lastmile_qr_scan", "ios": "https://dc.lft.to/lastmile_qr_scan"}, "fusion_lon": 0.0}, {"lat": 38.922865, "is_disabled": 0, "type": "electric_scooter", "lon": -77.02431566666667, "bike_id": "7c79041e7c5cfeda5e47fb7b939638b1", "fusion_lat": 0.0, "name": "7c79041e7c5cfeda5e47fb7b939638b1", "is_reserved": 0, "rental_uris": {"android": "https://dc.lft.to/lastmile_qr_scan", "ios": "https://dc.lft.to/lastmile_qr_scan"}, "fusion_lon": 0.0}, {"lat": 38.95196166666667, "is_disabled": 0, "type": "electric_bike", "lon": -76.96721783333334, "bike_id": "4da980ef5f90fa58b27a9b3018f7e97c", "fusion_lat": 0.0, "name": "4da980ef5f90fa58b27a9b3018f7e97c", "is_reserved": 0, "rental_uris": {"android": "https://dc.lft.to/lastmile_qr_scan", "ios": "https://dc.lft.to/lastmile_qr_scan"}, "fusion_lon": 0.0}, {"lat": 38.90359483333334, "is_disabled": 0, "type": "electric_scooter", "lon": -77.01096783333334, "bike_id": "04084736f2807e67d24d60462b33d8d6", "fusion_lat": 0.0, "name": "04084736f2807e67d24d60462b33d8d6", "is_reserved": 0, "rental_uris": {"android": "https://dc.lft.to/lastmile_qr_scan", "ios": "https://dc.lft.to/lastmile_qr_scan"}, "fusion_lon": 0.0}, {"lat": 38.86385533333333, "is_disabled": 0, "type": "electric_bike", "lon": -76.98994966666666, "bike_id": "ca87a600e8f2a329cce9ff21ccf10a3f", "fusion_lat": 0.0, "name": "ca87a600e8f2a329cce9ff21ccf10a3f", "is_reserved": 0, "rental_uris": {"android": "https://dc.lft.to/lastmile_qr_scan", "ios": "https://dc.lft.to/lastmile_qr_scan"}, "fusion_lon": 0.0}, {"lat": 38.89231016666667, "is_disabled": 0, "type": "electric_scooter", "lon": -77.05003183333334, "bike_id": "3ca0e49245ec14f9a684fc6d53f3fe7e", "fusion_lat": 0.0, "name": "3ca0e49245ec14f9a684fc6d53f3fe7e", "is_reserved": 0, "rental_uris": {"android": "https://dc.lft.to/lastmile_qr_scan", "ios": "https://dc.lft.to/lastmile_qr_scan"}, "fusion_lon": 0.0}, {"lat": 38.862295, "is_disabled": 0, "type": "electric_scooter", "lon": -76.99554833333333, "bike_id": "2b463daa083ee9bac1ef8024b8897103", "fusion_lat": 0.0, "name": "2b463daa083ee9bac1ef8024b8897103", "is_reserved": 0, "rental_uris": {"android": "https://dc.lft.to/lastmile_qr_scan", "ios": "https://dc.lft.to/lastmile_qr_scan"}, "fusion_lon": 0.0}, {"lat": 38.9068175, "is_disabled": 0, "type": "electric_scooter", "lon": -77.06355883333333, "bike_id": "794d12367b93a9744d74d62260596130", "fusion_lat": 0.0, "name": "794d12367b93a9744d74d62260596130", "is_reserved": 0, "rental_uris": {"android": "https://dc.lft.to/lastmile_qr_scan", "ios": "https://dc.lft.to/lastmile_qr_scan"}, "fusion_lon": 0.0}, {"lat": 38.929793833333335, "is_disabled": 0, "type": "electric_scooter", "lon": -77.0382605, "bike_id": "86b5c433770669a3181b2f0c3590a933", "fusion_lat": 0.0, "name": "86b5c433770669a3181b2f0c3590a933", "is_reserved": 0, "rental_uris": {"android": "https://dc.lft.to/lastmile_qr_scan", "ios": "https://dc.lft.to/lastmile_qr_scan"}, "fusion_lon": 0.0}, {"lat": 38.942267666666666, "is_disabled": 0, "type": "electric_scooter", "lon": -77.02521233333333, "bike_id": "8e6ffd436784b9b085d1c2470a6a4084", "fusion_lat": 0.0, "name": "8e6ffd436784b9b085d1c2470a6a4084", "is_reserved": 0, "rental_uris": {"android": "https://dc.lft.to/lastmile_qr_scan", "ios": "https://dc.lft.to/lastmile_qr_scan"}, "fusion_lon": 0.0}, {"lat": 38.894934666666664, "is_disabled": 0, "type": "electric_scooter", "lon": -77.00208483333333, "bike_id": "92d5c0e8fe10b826bf092c853d283399", "fusion_lat": 0.0, "name": "92d5c0e8fe10b826bf092c853d283399", "is_reserved": 0, "rental_uris": {"android": "https://dc.lft.to/lastmile_qr_scan", "ios": "https://dc.lft.to/lastmile_qr_scan"}, "fusion_lon": 0.0}, {"lat": 38.9035315, "is_disabled": 0, "type": "electric_scooter", "lon": -77.04111016666667, "bike_id": "0e2fc96f15667c99d2405adbbed6aedd", "fusion_lat": 0.0, "name": "0e2fc96f15667c99d2405adbbed6aedd", "is_reserved": 0, "rental_uris": {"android": "https://dc.lft.to/lastmile_qr_scan", "ios": "https://dc.lft.to/lastmile_qr_scan"}, "fusion_lon": 0.0}, {"lat": 38.90505483333333, "is_disabled": 0, "type": "electric_scooter", "lon": -77.04484366666667, "bike_id": "7c0b689f566fb0f2e265ba72a25a0898", "fusion_lat": 0.0, "name": "7c0b689f566fb0f2e265ba72a25a0898", "is_reserved": 0, "rental_uris": {"android": "https://dc.lft.to/lastmile_qr_scan", "ios": "https://dc.lft.to/lastmile_qr_scan"}, "fusion_lon": 0.0}, {"lat": 38.93592666666667, "is_disabled": 0, "type": "electric_scooter", "lon": -77.056382, "bike_id": "45061bd2a7ad7b7e9e689cd91d36c20c", "fusion_lat": 0.0, "name": "45061bd2a7ad7b7e9e689cd91d36c20c", "is_reserved": 0, "rental_uris": {"android": "https://dc.lft.to/lastmile_qr_scan", "ios": "https://dc.lft.to/lastmile_qr_scan"}, "fusion_lon": 0.0}, {"lat": 38.913929, "is_disabled": 0, "type": "electric_scooter", "lon": -77.03188533333334, "bike_id": "0b148ec56406130d190950578c351094", "fusion_lat": 0.0, "name": "0b148ec56406130d190950578c351094", "is_reserved": 0, "rental_uris": {"android": "https://dc.lft.to/lastmile_qr_scan", "ios": "https://dc.lft.to/lastmile_qr_scan"}, "fusion_lon": 0.0}, {"lat": 38.91171516666667, "is_disabled": 0, "type": "electric_scooter", "lon": -77.03875633333334, "bike_id": "bc091e5ee12437bc2a7c13fb931ce70d", "fusion_lat": 0.0, "name": "bc091e5ee12437bc2a7c13fb931ce70d", "is_reserved": 0, "rental_uris": {"android": "https://dc.lft.to/lastmile_qr_scan", "ios": "https://dc.lft.to/lastmile_qr_scan"}, "fusion_lon": 0.0}, {"lat": 38.90406083333333, "is_disabled": 0, "type": "electric_scooter", "lon": -77.0240395, "bike_id": "58c04d6e8ae35c9ddd01378bc0fa3f4d", "fusion_lat": 0.0, "name": "58c04d6e8ae35c9ddd01378bc0fa3f4d", "is_reserved": 0, "rental_uris": {"android": "https://dc.lft.to/lastmile_qr_scan", "ios": "https://dc.lft.to/lastmile_qr_scan"}, "fusion_lon": 0.0}, {"lat": 38.919858833333336, "is_disabled": 0, "type": "electric_scooter", "lon": -77.02162466666667, "bike_id": "c0b418d9a8aa6d8f16e6be7c284e0a24", "fusion_lat": 0.0, "name": "c0b418d9a8aa6d8f16e6be7c284e0a24", "is_reserved": 0, "rental_uris": {"android": "https://dc.lft.to/lastmile_qr_scan", "ios": "https://dc.lft.to/lastmile_qr_scan"}, "fusion_lon": 0.0}, {"lat": 38.88255516666667, "is_disabled": 0, "type": "electric_scooter", "lon": -76.98832566666667, "bike_id": "a26f1938c446cf5bdc841204eb3cd291", "fusion_lat": 0.0, "name": "a26f1938c446cf5bdc841204eb3cd291", "is_reserved": 0, "rental_uris": {"android": "https://dc.lft.to/lastmile_qr_scan", "ios": "https://dc.lft.to/lastmile_qr_scan"}, "fusion_lon": 0.0}, {"lat": 38.91709866666667, "is_disabled": 0, "type": "electric_scooter", "lon": -77.04032783333334, "bike_id": "3b37fc63639a985f771c246fac61fa93", "fusion_lat": 0.0, "name": "3b37fc63639a985f771c246fac61fa93", "is_reserved": 0, "rental_uris": {"android": "https://dc.lft.to/lastmile_qr_scan", "ios": "https://dc.lft.to/lastmile_qr_scan"}, "fusion_lon": 0.0}, {"lat": 38.91059533333333, "is_disabled": 0, "type": "electric_scooter", "lon": -77.02923033333333, "bike_id": "e6f857f3d734241c42497dc79357582a", "fusion_lat": 0.0, "name": "e6f857f3d734241c42497dc79357582a", "is_reserved": 0, "rental_uris": {"android": "https://dc.lft.to/lastmile_qr_scan", "ios": "https://dc.lft.to/lastmile_qr_scan"}, "fusion_lon": 0.0}, {"lat": 38.942409, "is_disabled": 0, "type": "electric_scooter", "lon": -77.03589033333333, "bike_id": "edfbc80322ad6e3fc9035c0ca5cbea32", "fusion_lat": 0.0, "name": "edfbc80322ad6e3fc9035c0ca5cbea32", "is_reserved": 0, "rental_uris": {"android": "https://dc.lft.to/lastmile_qr_scan", "ios": "https://dc.lft.to/lastmile_qr_scan"}, "fusion_lon": 0.0}, {"lat": 38.9180145, "is_disabled": 0, "type": "electric_scooter", "lon": -77.03638966666666, "bike_id": "52aa46cfc887cf57ab8f38edbe50fa4d", "fusion_lat": 0.0, "name": "52aa46cfc887cf57ab8f38edbe50fa4d", "is_reserved": 0, "rental_uris": {"android": "https://dc.lft.to/lastmile_qr_scan", "ios": "https://dc.lft.to/lastmile_qr_scan"}, "fusion_lon": 0.0}, {"lat": 38.889260166666666, "is_disabled": 0, "type": "electric_scooter", "lon": -76.97377866666666, "bike_id": "f600d5ff3afa712dd64929df167c5a2c", "fusion_lat": 0.0, "name": "f600d5ff3afa712dd64929df167c5a2c", "is_reserved": 0, "rental_uris": {"android": "https://dc.lft.to/lastmile_qr_scan", "ios": "https://dc.lft.to/lastmile_qr_scan"}, "fusion_lon": 0.0}, {"lat": 38.88733366666666, "is_disabled": 0, "type": "electric_scooter", "lon": -77.01539433333333, "bike_id": "c9dcf414dd3c2be4a4c05e138c1c004b", "fusion_lat": 0.0, "name": "c9dcf414dd3c2be4a4c05e138c1c004b", "is_reserved": 0, "rental_uris": {"android": "https://dc.lft.to/lastmile_qr_scan", "ios": "https://dc.lft.to/lastmile_qr_scan"}, "fusion_lon": 0.0}, {"lat": 38.90629783333333, "is_disabled": 0, "type": "electric_scooter", "lon": -77.06280916666667, "bike_id": "71018de9ee20e6516c793af30516afb7", "fusion_lat": 0.0, "name": "71018de9ee20e6516c793af30516afb7", "is_reserved": 0, "rental_uris": {"android": "https://dc.lft.to/lastmile_qr_scan", "ios": "https://dc.lft.to/lastmile_qr_scan"}, "fusion_lon": 0.0}, {"lat": 38.90574266666667, "is_disabled": 0, "type": "electric_scooter", "lon": -77.04341166666667, "bike_id": "03c8f8988d949219aacdf7f9f3ffd784", "fusion_lat": 0.0, "name": "03c8f8988d949219aacdf7f9f3ffd784", "is_reserved": 0, "rental_uris": {"android": "https://dc.lft.to/lastmile_qr_scan", "ios": "https://dc.lft.to/lastmile_qr_scan"}, "fusion_lon": 0.0}, {"lat": 38.921674, "is_disabled": 0, "type": "electric_scooter", "lon": -77.04226416666667, "bike_id": "97b57f63928b32a278138045ae53eb51", "fusion_lat": 0.0, "name": "97b57f63928b32a278138045ae53eb51", "is_reserved": 0, "rental_uris": {"android": "https://dc.lft.to/lastmile_qr_scan", "ios": "https://dc.lft.to/lastmile_qr_scan"}, "fusion_lon": 0.0}, {"lat": 38.91777116666667, "is_disabled": 0, "type": "electric_scooter", "lon": -77.022747, "bike_id": "a460237cfcce54e6b843fc9ffcef617d", "fusion_lat": 0.0, "name": "a460237cfcce54e6b843fc9ffcef617d", "is_reserved": 0, "rental_uris": {"android": "https://dc.lft.to/lastmile_qr_scan", "ios": "https://dc.lft.to/lastmile_qr_scan"}, "fusion_lon": 0.0}, {"lat": 38.90868966666667, "is_disabled": 0, "type": "electric_scooter", "lon": -77.04345016666667, "bike_id": "b0715416f7ea6c794dc0ff85950f68b5", "fusion_lat": 0.0, "name": "b0715416f7ea6c794dc0ff85950f68b5", "is_reserved": 0, "rental_uris": {"android": "https://dc.lft.to/lastmile_qr_scan", "ios": "https://dc.lft.to/lastmile_qr_scan"}, "fusion_lon": 0.0}, {"lat": 38.90746683333333, "is_disabled": 0, "type": "electric_scooter", "lon": -77.00104883333333, "bike_id": "049b611027cae2150020de2b3e183852", "fusion_lat": 0.0, "name": "049b611027cae2150020de2b3e183852", "is_reserved": 0, "rental_uris": {"android": "https://dc.lft.to/lastmile_qr_scan", "ios": "https://dc.lft.to/lastmile_qr_scan"}, "fusion_lon": 0.0}, {"lat": 38.920450833333334, "is_disabled": 0, "type": "electric_scooter", "lon": -77.03289983333333, "bike_id": "1b344f39966f44856cee559096e68d1a", "fusion_lat": 0.0, "name": "1b344f39966f44856cee559096e68d1a", "is_reserved": 0, "rental_uris": {"android": "https://dc.lft.to/lastmile_qr_scan", "ios": "https://dc.lft.to/lastmile_qr_scan"}, "fusion_lon": 0.0}, {"lat": 38.861583333333336, "is_disabled": 0, "type": "electric_bike", "lon": -77.13098183333334, "bike_id": "29d1c60d888a28fca803e4cf285ecefe", "fusion_lat": 0.0, "name": "29d1c60d888a28fca803e4cf285ecefe", "is_reserved": 0, "rental_uris": {"android": "https://dc.lft.to/lastmile_qr_scan", "ios": "https://dc.lft.to/lastmile_qr_scan"}, "fusion_lon": 0.0}, {"lat": 38.93973033333333, "is_disabled": 0, "type": "electric_scooter", "lon": -77.035912, "bike_id": "3a6bb158fe6e61788036fbc64dce8311", "fusion_lat": 0.0, "name": "3a6bb158fe6e61788036fbc64dce8311", "is_reserved": 0, "rental_uris": {"android": "https://dc.lft.to/lastmile_qr_scan", "ios": "https://dc.lft.to/lastmile_qr_scan"}, "fusion_lon": 0.0},