{"data": {"bikes": [{"fusion_lat": 0.0, "name": "69924f9ea376054f004af2294543c392", "is_disabled": 0, "rental_uris": {"android": "https://dc.lft.to/lastmile_qr_scan", "ios": "https://dc.lft.to/lastmile_qr_scan"}, "fusion_lon": 0.0, "lat": 38.908420166666666, "bike_id": "69924f9ea376054f004af2294543c392", "type": "electric_scooter", "is_reserved": 0, "lon": -77.02696883333333}, {"fusion_lat": 0.0, "name": "95b43d9fb9e7d76ce3f04a11cafb8b75", "is_disabled": 0, "rental_uris": {"android": "https://dc.lft.to/lastmile_qr_scan", "ios": "https://dc.lft.to/lastmile_qr_scan"}, "fusion_lon": 0.0, "lat": 38.90530066666667, "bike_id": "95b43d9fb9e7d76ce3f04a11cafb8b75", "type": "electric_scooter", "is_reserved": 0, "lon": -77.02980066666667}, {"fusion_lat": 0.0, "name": "63f26e9cccf3d53710243b91b2bdec16", "is_disabled": 0, "rental_uris": {"android": "https://dc.lft.to/lastmile_qr_scan", "ios": "https://dc.lft.to/lastmile_qr_scan"}, "fusion_lon": 0.0, "lat": 38.9089215, "bike_id": "63f26e9cccf3d53710243b91b2bdec16", "type": "electric_scooter", "is_reserved": 0, "lon": -77.002866}, {"fusion_lat": 0.0, "name": "54ebc5a70300407f88e798cb7a95dce2", "is_disabled": 0, "rental_uris": {"android": "https://dc.lft.to/lastmile_qr_scan", "ios": "https://dc.lft.to/lastmile_qr_scan"}, "fusion_lon": 0.0, "lat": 38.88721233333333, "bike_id": "54ebc5a70300407f88e798cb7a95dce2", "type": "electric_scooter", "is_reserved": 0, "lon": -77.02197766666667}, {"fusion_lat": 0.0, "name": "e9698346ac8eebc87ccfb0da4d191037", "is_disabled": 0, "rental_uris": {"android": "https://dc.lft.to/lastmile_qr_scan", "ios": "https://dc.lft.to/lastmile_qr_scan"}, "fusion_lon": 0.0, "lat": 38.89883533333333, "bike_id": "e9698346ac8eebc87ccfb0da4d191037", "type": "electric_scooter", "is_reserved": 0, "lon": -77.02164966666666}, {"fusion_lat": 0.0, "name": "d1cecf1cf5370d45eb4579a2d37a1ee5", "is_disabled": 0, "rental_uris": {"android": "https://dc.lft.to/lastmile_qr_scan", "ios": "https://dc.lft.to/lastmile_qr_scan"}, "fusion_lon": 0.0, "lat": 38.916209333333335, "bike_id": "d1cecf1cf5370d45eb4579a2d37a1ee5", "type": "electric_scooter", "is_reserved": 0, "lon": -77.01128266666667}, {"fusion_lat": 0.0, "name": "7943cb7a086485fca218d41cac2a3f96", "is_disabled": 0, "rental_uris": {"android": "https://dc.lft.to/lastmile_qr_scan", "ios": "https://dc.lft.to/lastmile_qr_scan"}, "fusion_lon": 0.0, "lat": 38.907203, "bike_id": "7943cb7a086485fca218d41cac2a3f96", "type": "electric_scooter", "is_reserved": 0, "lon": -77.0434455}, {"fusion_lat": 0.0, "name": "15e4117665f4370c6a70e763da901160", "is_disabled": 0, "rental_uris": {"android": "https://dc.lft.to/lastmile_qr_scan", "ios": "https://dc.lft.to/lastmile_qr_scan"}, "fusion_lon": 0.0, "lat": 38.909299, "bike_id": "15e4117665f4370c6a70e763da901160", "type": "electric_scooter", "is_reserved": 0, "lon": -77.045687}, {"fusion_lat": 0.0, "name": "9b0828ad063b720cc6acc977757a88e1", "is_disabled": 0, "rental_uris": {"android": "https://dc.lft.to/lastmile_qr_scan", "ios": "https://dc.lft.to/lastmile_qr_scan"}, "fusion_lon": 0.0, "lat": 38.9040975, "bike_id": "9b0828ad063b720cc6acc977757a88e1", "type": "electric_scooter", "is_reserved": 0, "lon": -77.06771166666667}, {"fusion_lat": 0.0, "name": "fb223e7474b2bab4913cc2e25ff5930c", "is_disabled": 0, "rental_uris": {"android": "https://dc.lft.to/lastmile_qr_scan", "ios": "https://dc.lft.to/lastmile_qr_scan"}, "fusion_lon": 0.0, "lat": 38.91726966666667, "bike_id": "fb223e7474b2bab4913cc2e25ff5930c", "type": "electric_scooter", "is_reserved": 0, "lon": -77.01206783333333}, {"fusion_lat": 0.0, "name": "86e5601b281ad4f6a559a69512936bc8", "is_disabled": 0, "rental_uris": {"android": "https://dc.lft.to/lastmile_qr_scan", "ios": "https://dc.lft.to/lastmile_qr_scan"}, "fusion_lon": 0.0, "lat": 38.918482166666664, "bike_id": "86e5601b281ad4f6a559a69512936bc8", "type": "electric_scooter", "is_reserved": 0, "lon": -77.02711333333333}, {"fusion_lat": 0.0, "name": "8521cdf7e70e10f47a1c88e9b655aade", "is_disabled": 0, "rental_uris": {"android": "https://dc.lft.to/lastmile_qr_scan", "ios": "https://dc.lft.to/lastmile_qr_scan"}, "fusion_lon": 0.0, "lat": 38.90829633333333, "bike_id": "8521cdf7e70e10f47a1c88e9b655aade", "type": "electric_scooter", "is_reserved": 0, "lon": -77.05490816666666}, {"fusion_lat": 0.0, "name": "9cffab0dc706e9f7859afbcd1d901822", "is_disabled": 0, "rental_uris": {"android": "https://dc.lft.to/lastmile_qr_scan", "ios": "https://dc.lft.to/lastmile_qr_scan"}, "fusion_lon": 0.0, "lat": 38.920293, "bike_id": "9cffab0dc706e9f7859afbcd1d901822", "type": "electric_scooter", "is_reserved": 0, "lon": -77.012802}, {"fusion_lat": 0.0, "name": "7f16ba13e9318d5c0a59d14bad740613", "is_disabled": 0, "rental_uris": {"android": "https://dc.lft.to/lastmile_qr_scan", "ios": "https://dc.lft.to/lastmile_qr_scan"}, "fusion_lon": 0.0, "lat": 38.918081666666666, "bike_id": "7f16ba13e9318d5c0a59d14bad740613", "type": "electric_scooter", "is_reserved": 0, "lon": -76.99977866666667}, {"fusion_lat": 0.0, "name": "8cdea738878b8304c7ac956b0e81ae80", "is_disabled": 0, "rental_uris": {"android": "https://dc.lft.to/lastmile_qr_scan", "ios": "https://dc.lft.to/lastmile_qr_scan"}, "fusion_lon": 0.0, "lat": 38.95118683333333, "bike_id": "8cdea738878b8304c7ac956b0e81ae80", "type": "electric_scooter", "is_reserved": 0, "lon": -77.0136175}, {"fusion_lat": 0.0, "name": "f629f63070a01b7d77cb75b74d02a092", "is_disabled": 0, "rental_uris": {"android": "https://dc.lft.to/lastmile_qr_scan", "ios": "https://dc.lft.to/lastmile_qr_scan"}, "fusion_lon": 0.0, "lat": 38.947060666666665, "bike_id": "f629f63070a01b7d77cb75b74d02a092", "type": "electric_scooter", "is_reserved": 0, "lon": -77.01943183333333}, {"fusion_lat": 0.0, "name": "5a4cd3d68d3f4cec79c737cd6042504b", "is_disabled": 0, "rental_uris": {"android": "https://dc.lft.to/lastmile_qr_scan", "ios": "https://dc.lft.to/lastmile_qr_scan"}, "fusion_lon": 0.0, "lat": 38.93194333333334, "bike_id": "5a4cd3d68d3f4cec79c737cd6042504b", "type": "electric_scooter", "is_reserved": 0, "lon": -77.04294466666667}, {"fusion_lat": 0.0, "name": "11af32a3a897f29b82bfc15596b5afad", "is_disabled": 0, "rental_uris": {"android": "https://dc.lft.to/lastmile_qr_scan", "ios": "https://dc.lft.to/lastmile_qr_scan"}, "fusion_lon": 0.0, "lat": 38.892232166666666, "bike_id": "11af32a3a897f29b82bfc15596b5afad", "type": "electric_scooter", "is_reserved": 0, "lon": -77.04126833333333}, {"fusion_lat": 0.0, "name": "1811799e5db97a5293a0f1b5d07ac740", "is_disabled": 0, "rental_uris": {"android": "https://dc.lft.to/lastmile_qr_scan", "ios": "https://dc.lft.to/lastmile_qr_scan"}, "fusion_lon": 0.0, "lat": 38.96118533333333, "bike_id": "1811799e5db97a5293a0f1b5d07ac740", "type": "electric_scooter", "is_reserved": 0, "lon": -77.02867583333334}, {"fusion_lat": 0.0, "name": "2702611d5c7fb1e56aad84399291168b", "is_disabled": 0, "rental_uris": {"android": "https://dc.lft.to/lastmile_qr_scan", "ios": "https://dc.lft.to/lastmile_qr_scan"}, "fusion_lon": 0.0, "lat": 38.975011, "bike_id": "2702611d5c7fb1e56aad84399291168b", "type": "electric_scooter", "is_reserved": 0, "lon": -77.0169365}, {"fusion_lat": 0.0, "name": "0bb6bc3ec4f3fb2b2724e6073152dd71", "is_disabled": 0, "rental_uris": {"android": "https://dc.lft.to/lastmile_qr_scan", "ios": "https://dc.lft.to/lastmile_qr_scan"}, "fusion_lon": 0.0, "lat": 38.93664533333333, "bike_id": "0bb6bc3ec4f3fb2b2724e6073152dd71", "type": "electric_scooter", "is_reserved": 0, "lon": -77.03660483333333}, {"fusion_lat": 0.0, "name": "d73f81543999a99f5118958299d245be", "is_disabled": 0, "rental_uris": {"android": "https://dc.lft.to/lastmile_qr_scan", "ios": "https://dc.lft.to/lastmile_qr_scan"}, "fusion_lon": 0.0, "lat": 38.929524666666666, "bike_id": "d73f81543999a99f5118958299d245be", "type": "electric_scooter", "is_reserved": 0, "lon": -77.04405283333334}, {"fusion_lat": 0.0, "name": "8877ef90e1a8dfbf3e8bea22d6d2ea99", "is_disabled": 0, "rental_uris": {"android": "https://dc.lft.to/lastmile_qr_scan", "ios": "https://dc.lft.to/lastmile_qr_scan"}, "fusion_lon": 0.0, "lat": 38.916881000000004, "bike_id": "8877ef90e1a8dfbf3e8bea22d6d2ea99", "type": "electric_scooter", "is_reserved": 0, "lon": -77.03756733333333}, {"fusion_lat": 0.0, "name": "a3094a6d8cb7e5076190c01aaf95fa23", "is_disabled": 0, "rental_uris": {"android": "https://dc.lft.to/lastmile_qr_scan", "ios": "https://dc.lft.to/lastmile_qr_scan"}, "fusion_lon": 0.0, "lat": 38.885185166666666, "bike_id": "a3094a6d8cb7e5076190c01aaf95fa23", "type": "electric_scooter", "is_reserved": 0, "lon": -76.9295105}, {"fusion_lat": 0.0, "name": "e21a6c786e6101e936b5d1ac9b32d48f", "is_disabled": 0, "rental_uris": {"android": "https://dc.lft.to/lastmile_qr_scan", "ios": "https://dc.lft.to/lastmile_qr_scan"}, "fusion_lon": 0.0, "lat": 38.88459616666667, "bike_id": "e21a6c786e6101e936b5d1ac9b32d48f", "type": "electric_scooter", "is_reserved": 0, "lon": -76.99842816666667}, {"fusion_lat": 0.0, "name": "459e05dcfa2774a3e9e52b71a14d0775", "is_disabled": 0, "rental_uris": {"android": "https://dc.lft.to/lastmile_qr_scan", "ios": "https://dc.lft.to/lastmile_qr_scan"}, "fusion_lon": 0.0, "lat": 38.91917983333333, "bike_id": "459e05dcfa2774a3e9e52b71a14d0775", "type": "electric_scooter", "is_reserved": 0, "lon": -77.033091}, {"fusion_lat": 0.0, "name": "d11ebdf7d0df43471c743f3beba0984f", "is_disabled": 0, "rental_uris": {"android": "https://dc.lft.to/lastmile_qr_scan", "ios": "https://dc.lft.to/lastmile_qr_scan"}, "fusion_lon": 0.0, "lat": 38.937833, "bike_id": "d11ebdf7d0df43471c743f3beba0984f", "type": "electric_scooter", "is_reserved": 0, "lon": -77.02478583333334}, {"fusion_lat": 0.0, "name": "2116879ea7732aa282764beda602f595", "is_disabled": 0, "rental_uris": {"android": "https://dc.lft.to/lastmile_qr_scan", "ios": "https://dc.lft.to/lastmile_qr_scan"}, "fusion_lon": 0.0, "lat": 38.92081116666667, "bike_id": "2116879ea7732aa282764beda602f595", "type": "electric_scooter", "is_reserved": 0, "lon": -77.00460116666666}, {"fusion_lat": 0.0, "name": "8811964a4d0b407fa56bc4b96b7123a4", "is_disabled": 0, "rental_uris": {"android": "https://dc.lft.to/lastmile_qr_scan", "ios": "https://dc.lft.to/lastmile_qr_scan"}, "fusion_lon": 0.0, "lat": 38.933062166666666, "bike_id": "8811964a4d0b407fa56bc4b96b7123a4", "type": "electric_scooter", "is_reserved": 0, "lon": -77.02465}, {"fusion_lat": 0.0, "name": "9d89af4dcc1a4331ac6a66f214042285", "is_disabled": 0, "rental_uris": {"android": "https://dc.lft.to/lastmile_qr_scan", "ios": "https://dc.lft.to/lastmile_qr_scan"}, "fusion_lon": 0.0, "lat": 38.95885033333333, "bike_id": "9d89af4dcc1a4331ac6a66f214042285", "type": "electric_bike", "is_reserved": 0, "lon": -77.00267533333333}, {"fusion_lat": 0.0, "name": "d1a04ad0a017688df55598eb36c3a992", "is_disabled": 0, "rental_uris": {"android": "https://dc.lft.to/lastmile_qr_scan", "ios": "https://dc.lft.to/lastmile_qr_scan"}, "fusion_lon": 0.0, "lat": 38.993777333333334, "bike_id": "d1a04ad0a017688df55598eb36c3a992", "type": "electric_bike", "is_reserved": 0, "lon": -77.03166316666666}, {"fusion_lat": 0.0, "name": "05f28ad7571c42921adda1caf5deae1c", "is_disabled": 0, "rental_uris": {"android": "https://dc.lft.to/lastmile_qr_scan", "ios": "https://dc.lft.to/lastmile_qr_scan"}, "fusion_lon": 0.0, "lat": 38.910173666666665, "bike_id": "05f28ad7571c42921adda1caf5deae1c", "type": "electric_scooter", "is_reserved": 0, "lon": -77.027132}, {"fusion_lat": 0.0, "name": "c3f1104fb010eeada07e68fbdda442ba", "is_disabled": 0, "rental_uris": {"android": "https://dc.lft.to/lastmile_qr_scan", "ios": "https://dc.lft.to/lastmile_qr_scan"}, "fusion_lon": 0.0, "lat": 38.905804333333336, "bike_id": "c3f1104fb010eeada07e68fbdda442ba", "type": "electric_scooter", "is_reserved": 0, "lon": -77.02208283333333}, {"fusion_lat": 0.0, "name": "e28152b8a85c2a12adb9769fe66a96bc", "is_disabled": 0, "rental_uris": {"android": "https://dc.lft.to/lastmile_qr_scan", "ios": "https://dc.lft.to/lastmile_qr_scan"}, "fusion_lon": 0.0, "lat": 38.9057615, "bike_id": "e28152b8a85c2a12adb9769fe66a96bc", "type": "electric_scooter", "is_reserved": 0, "lon": -77.04638}, {"fusion_lat": 0.0, "name": "79ac75f14890deaf8fbf6c5c8057c9bd", "is_disabled": 0, "rental_uris": {"android": "https://dc.lft.to/lastmile_qr_scan", "ios": "https://dc.lft.to/lastmile_qr_scan"}, "fusion_lon": 0.0, "lat": 38.923747666666664, "bike_id": "79ac75f14890deaf8fbf6c5c8057c9bd", "type": "electric_scooter", "is_reserved": 0, "lon": -77.0213465}, {"fusion_lat": 0.0, "name": "489d51b8b94f753100f0646d7b1033fe", "is_disabled": 0, "rental_uris": {"android": "https://dc.lft.to/lastmile_qr_scan", "ios": "https://dc.lft.to/lastmile_qr_scan"}, "fusion_lon": 0.0, "lat": 38.907767, "bike_id": "489d51b8b94f753100f0646d7b1033fe", "type": "electric_scooter", "is_reserved": 0, "lon": -77.03836116666666}, {"fusion_lat": 0.0, "name": "0880aff4427d43882556d7ba9448a285", "is_disabled": 0, "rental_uris": {"android": "https://dc.lft.to/lastmile_qr_scan", "ios": "https://dc.lft.to/lastmile_qr_scan"}, "fusion_lon": 0.0, "lat": 38.907944, "bike_id": "0880aff4427d43882556d7ba9448a285", "type": "electric_scooter", "is_reserved": 0, "lon": -77.03445416666666}, {"fusion_lat": 0.0, "name": "8cd3c75a9d27ce63f2afe4961bf578c9", "is_disabled": 0, "rental_uris": {"android": "https://dc.lft.to/lastmile_qr_scan", "ios": "https://dc.lft.to/lastmile_qr_scan"}, "fusion_lon": 0.0, "lat": 38.8847465, "bike_id": "8cd3c75a9d27ce63f2afe4961bf578c9", "type": "electric_scooter", "is_reserved": 0, "lon": -77.01519}, {"fusion_lat": 0.0, "name": "c4290e67d3267b8d0f4ff6b93adaccfa", "is_disabled": 0, "rental_uris": {"android": "https://dc.lft.to/lastmile_qr_scan", "ios": "https://dc.lft.to/lastmile_qr_scan"}, "fusion_lon": 0.0, "lat": 38.91323333333333, "bike_id": "c4290e67d3267b8d0f4ff6b93adaccfa", "type": "electric_scooter", "is_reserved": 0, "lon": -77.02137233333333}, {"fusion_lat": 0.0, "name": "37eed521a2096e965feb4ee6509b58f7", "is_disabled": 0, "rental_uris": {"android": "https://dc.lft.to/lastmile_qr_scan", "ios": "https://dc.lft.to/lastmile_qr_scan"}, "fusion_lon": 0.0, "lat": 38.883339, "bike_id": "37eed521a2096e965feb4ee6509b58f7", "type": "electric_scooter", "is_reserved": 0, "lon": -77.01697433333334}, {"fusion_lat": 0.0, "name": "1884f0c73a5005bdabde688ad95f9518", "is_disabled": 0, "rental_uris": {"android": "https://dc.lft.to/lastmile_qr_scan", "ios": "https://dc.lft.to/lastmile_qr_scan"}, "fusion_lon": 0.0, "lat": 38.9247725, "bike_id": "1884f0c73a5005bdabde688ad95f9518", "type": "electric_bike", "is_reserved": 0, "lon": -77.03908583333333}, {"fusion_lat": 0.0, "name": "73dad9a07c8e120e3b92fbf23c1130dc", "is_disabled": 0, "rental_uris": {"android": "https://dc.lft.to/lastmile_qr_scan", "ios": "https://dc.lft.to/lastmile_qr_scan"}, "fusion_lon": 0.0, "lat": 38.89611133333333, "bike_id": "73dad9a07c8e120e3b92fbf23c1130dc", "type": "electric_scooter", "is_reserved": 0, "lon": -77.0092845}, {"fusion_lat": 0.0, "name": "36fbf6e2b56dd7513d7cfd8d8e5df690", "is_disabled": 0, "rental_uris": {"android": "https://dc.lft.to/lastmile_qr_scan", "ios": "https://dc.lft.to/lastmile_qr_scan"}, "fusion_lon": 0.0, "lat": 38.92824616666667, "bike_id": "36fbf6e2b56dd7513d7cfd8d8e5df690", "type": "electric_scooter", "is_reserved": 0, "lon": -77.054444}, {"fusion_lat": 0.0, "name": "e277c7a1eec2f29e46441a6ad767dcef", "is_disabled": 0, "rental_uris": {"android": "https://dc.lft.to/lastmile_qr_scan", "ios": "https://dc.lft.to/lastmile_qr_scan"}, "fusion_lon": 0.0, "lat": 38.88492166666666, "bike_id": "e277c7a1eec2f29e46441a6ad767dcef", "type": "electric_scooter", "is_reserved": 0, "lon": -77.01087083333333}, {"fusion_lat": 0.0, "name": "a21e8aef82ee1989976a6121dffaf6a4", "is_disabled": 0, "rental_uris": {"android": "https://dc.lft.to/lastmile_qr_scan", "ios": "https://dc.lft.to/lastmile_qr_scan"}, "fusion_lon": 0.0, "lat": 38.892262333333335, "bike_id": "a21e8aef82ee1989976a6121dffaf6a4", "type": "electric_scooter", "is_reserved": 0, "lon": -77.04400383333333}, {"fusion_lat": 0.0, "name": "3568cd48ea92e59ae86102e60e6fe5f2", "is_disabled": 0, "rental_uris": {"android": "https://dc.lft.to/lastmile_qr_scan", "ios": "https://dc.lft.to/lastmile_qr_scan"}, "fusion_lon": 0.0, "lat": 38.9191775, "bike_id": "3568cd48ea92e59ae86102e60e6fe5f2", "type": "electric_scooter", "is_reserved": 0, "lon": -77.02467133333333}, {"fusion_lat": 0.0, "name": "4a491acefcf5f1d2eae47626ab432455", "is_disabled": 0, "rental_uris": {"android": "https://dc.lft.to/lastmile_qr_scan", "ios": "https://dc.lft.to/lastmile_qr_scan"}, "fusion_lon": 0.0, "lat": 38.896171833333334, "bike_id": "4a491acefcf5f1d2eae47626ab432455", "type": "electric_bike", "is_reserved": 0, "lon": -76.90735616666667}, {"fusion_lat": 0.0, "name": "97bf1d88deeefd442ed74cb8a8f870e7", "is_disabled": 0, "rental_uris": {"android": "https://dc.lft.to/lastmile_qr_scan", "ios": "https://dc.lft.to/lastmile_qr_scan"}, "fusion_lon": 0.0, "lat": 38.91665366666667, "bike_id": "97bf1d88deeefd442ed74cb8a8f870e7", "type": "electric_scooter", "is_reserved": 0, "lon": -77.02819616666666}, {"fusion_lat": 0.0, "name": "b967a6ef05d096386f4f66323af5ce48", "is_disabled": 0, "rental_uris": {"android": "https://dc.lft.to/lastmile_qr_scan", "ios": "https://dc.lft.to/lastmile_qr_scan"}, "fusion_lon": 0.0, "lat": 38.878804333333335, "bike_id": "b967a6ef05d096386f4f66323af5ce48", "type": "electric_scooter", "is_reserved": 0, "lon": -77.0223625}, {"fusion_lat": 0.0, "name": "f5fa89516d81cd146a7c8107ed373c73", "is_disabled": 0, "rental_uris": {"android": "https://dc.lft.to/lastmile_qr_scan", "ios": "https://dc.lft.to/lastmile_qr_scan"}, "fusion_lon": 0.0, "lat": 38.92698816666667, "bike_id": "f5fa89516d81cd146a7c8107ed373c73", "type": "electric_scooter", "is_reserved": 0, "lon": -77.01472816666667}, {"fusion_lat": 0.0, "name": "0c0fa0b389ee61ca0d3c483eb06d35bd", "is_disabled": 0, "rental_uris": {"android": "https://dc.lft.to/lastmile_qr_scan", "ios": "https://dc.lft.to/lastmile_qr_scan"}, "fusion_lon": 0.0, "lat": 38.923381166666665, "bike_id": "0c0fa0b389ee61ca0d3c483eb06d35bd", "type": "electric_scooter", "is_reserved": 0, "lon": -77.05298366666666}, {"fusion_lat": 0.0, "name": "c7acaa0c6316b9fba719d69f9e8bb8a8", "is_disabled": 0, "rental_uris": {"android": "https://dc.lft.to/lastmile_qr_scan", "ios": "https://dc.lft.to/lastmile_qr_scan"}, "fusion_lon": 0.0, "lat": 38.937618666666665, "bike_id": "c7acaa0c6316b9fba719d69f9e8bb8a8", "type": "electric_scooter", "is_reserved": 0, "lon": -77.0235775}, {"fusion_lat": 0.0, "name": "b31fb37709c3ce0ab50db53fd171bd69", "is_disabled": 0, "rental_uris": {"android": "https://dc.lft.to/lastmile_qr_scan", "ios": "https://dc.lft.to/lastmile_qr_scan"}, "fusion_lon": 0.0, "lat": 38.93144916666667, "bike_id": "b31fb37709c3ce0ab50db53fd171bd69", "type": "electric_scooter", "is_reserved": 0, "lon": -77.02986666666666}, {"fusion_lat": 0.0, "name": "057acb4f20f94c2e3fe4096c0ceea71c", "is_disabled": 0, "rental_uris": {"android": "https://dc.lft.to/lastmile_qr_scan", "ios": "https://dc.lft.to/lastmile_qr_scan"}, "fusion_lon": 0.0, "lat": 38.92745133333333, "bike_id": "057acb4f20f94c2e3fe4096c0ceea71c", "type": "electric_scooter", "is_reserved": 0, "lon": -77.025319}, {"fusion_lat": 0.0, "name": "313016ad3c54bd75e7100cee84e67bdf", "is_disabled": 0, "rental_uris": {"android": "https://dc.lft.to/lastmile_qr_scan", "ios": "https://dc.lft.to/lastmile_qr_scan"}, "fusion_lon": 0.0, "lat": 38.90852866666667, "bike_id": "313016ad3c54bd75e7100cee84e67bdf", "type": "electric_scooter", "is_reserved": 0, "lon": -77.03201716666666}, {"fusion_lat": 0.0, "name": "54aa27e213bb91f5d14fa279c4afc019", "is_disabled": 0, "rental_uris": {"android": "https://dc.lft.to/lastmile_qr_scan", "ios": "https://dc.lft.to/lastmile_qr_scan"}, "fusion_lon": 0.0, "lat": 38.898435, "bike_id": "54aa27e213bb91f5d14fa279c4afc019", "type": "electric_scooter", "is_reserved": 0, "lon": -77.04148416666666}, {"fusion_lat": 0.0, "name": "59b1c1cd3fa153a36ab1ab8b24cecded", "is_disabled": 0, "rental_uris": {"android": "https://dc.lft.to/lastmile_qr_scan", "ios": "https://dc.lft.to/lastmile_qr_scan"}, "fusion_lon": 0.0, "lat": 38.91694016666667, "bike_id": "59b1c1cd3fa153a36ab1ab8b24cecded", "type": "electric_scooter", "is_reserved": 0, "lon": -77.025164}, {"fusion_lat": 0.0, "name": "54efa5a54582f84be6f41de751d29fde", "is_disabled": 0, "rental_uris": {"android": "https://dc.lft.to/lastmile_qr_scan", "ios": "https://dc.lft.to/lastmile_qr_scan"}, "fusion_lon": 0.0, "lat": 38.892397833333334, "bike_id": "54efa5a54582f84be6f41de751d29fde", "type": "electric_scooter", "is_reserved": 0, "lon": -77.02202566666666}, {"fusion_lat": 0.0, "name": "a8e0bee256691e4f94b2ede02505318b", "is_disabled": 0, "rental_uris": {"android": "https://dc.lft.to/lastmile_qr_scan", "ios": "https://dc.lft.to/lastmile_qr_scan"}, "fusion_lon": 0.0, "lat": 38.90255716666667, "bike_id": "a8e0bee256691e4f94b2ede02505318b", "type": "electric_scooter", "is_reserved": 0, "lon": -77.044759}, {"fusion_lat": 0.0, "name": "d6181f1ad13ac782b347387ce6989968", "is_disabled": 0, "rental_uris": {"android": "https://dc.lft.to/lastmile_qr_scan", "ios": "https://dc.lft.to/lastmile_qr_scan"}, "fusion_lon": 0.0, "lat": 38.940558833333334, "bike_id": "d6181f1ad13ac782b347387ce6989968", "type": "electric_bike", "is_reserved": 0, "lon": -76.9041805}, {"fusion_lat": 0.0, "name": "c477e058d8c89afbb09acba8d397d096", "is_disabled": 0, "rental_uris": {"android": "https://dc.lft.to/lastmile_qr_scan", "ios": "https://dc.lft.to/lastmile_qr_scan"}, "fusion_lon": 0.0, "lat": 38.904131, "bike_id": "c477e058d8c89afbb09acba8d397d096", "type": "electric_scooter", "is_reserved": 0, "lon": -77.025012}, {"fusion_lat": 0.0, "name": "bdc8f0078153202aece209b7134ee34d", "is_disabled": 0, "rental_uris": {"android": "https://dc.lft.to/lastmile_qr_scan", "ios": "https://dc.lft.to/lastmile_qr_scan"}, "fusion_lon": 0.0, "lat": 38.98669916666667, "bike_id": "bdc8f0078153202aece209b7134ee34d", "type": "electric_bike", "is_reserved": 0, "lon": -76.99995883333334}, {"fusion_lat": 0.0, "name": "a7989c9d841aef8df83e930a5be45601", "is_disabled": 0, "rental_uris": {"android": "https://dc.lft.to/lastmile_qr_scan", "ios": "https://dc.lft.to/lastmile_qr_scan"}, "fusion_lon": 0.0, "lat": 38.9944285, "bike_id": "a7989c9d841aef8df83e930a5be45601", "type": "electric_bike", "is_reserved": 0, "lon": -76.9958425}, {"fusion_lat": 0.0, "name": "11c06f896932c761398949e6755e7772", "is_disabled": 0, "rental_uris": {"android": "https://dc.lft.to/lastmile_qr_scan", "ios": "https://dc.lft.to/lastmile_qr_scan"}, "fusion_lon": 0.0, "lat": 38.904171, "bike_id": "11c06f896932c761398949e6755e7772", "type": "electric_scooter", "is_reserved": 0, "lon": -77.00133116666667}, {"fusion_lat": 0.0, "name": "05d98605617d1bed1eff80162218db49", "is_disabled": 0, "rental_uris": {"android": "https://dc.lft.to/lastmile_qr_scan", "ios": "https://dc.lft.to/lastmile_qr_scan"}, "fusion_lon": 0.0, "lat": 38.8923135, "bike_id": "05d98605617d1bed1eff80162218db49", "type": "electric_scooter", "is_reserved": 0, "lon": -77.03178166666666}, {"fusion_lat": 0.0, "name": "99b2e26b350ad6d5f8cfc33354a29f82", "is_disabled": 0, "rental_uris": {"android": "https://dc.lft.to/lastmile_qr_scan", "ios": "https://dc.lft.to/lastmile_qr_scan"}, "fusion_lon": 0.0, "lat": 38.871073, "bike_id": "99b2e26b350ad6d5f8cfc33354a29f82", "type": "electric_scooter", "is_reserved": 0, "lon": -76.9659075}, {"fusion_lat": 0.0, "name": "fee3db6a899ea96ce497073459633522", "is_disabled": 0, "rental_uris": {"android": "https://dc.lft.to/lastmile_qr_scan", "ios": "https://dc.lft.to/lastmile_qr_scan"}, "fusion_lon": 0.0, "lat": 38.93547866666667, "bike_id": "fee3db6a899ea96ce497073459633522", "type": "electric_scooter", "is_reserved": 0, "lon": -77.03260466666667}, {"fusion_lat": 0.0, "name": "5fb26173b3309a67ba49f011c875ef54", "is_disabled": 0, "rental_uris": {"android": "https://dc.lft.to/lastmile_qr_scan", "ios": "https://dc.lft.to/lastmile_qr_scan"}, "fusion_lon": 0.0, "lat": 38.9078375, "bike_id": "5fb26173b3309a67ba49f011c875ef54", "type": "electric_scooter", "is_reserved": 0, "lon": -77.00404433333334}, {"fusion_lat": 0.0, "name": "c438f59002fc78d2c5f2d5a208393777", "is_disabled": 0, "rental_uris": {"android": "https://dc.lft.to/lastmile_qr_scan", "ios": "https://dc.lft.to/lastmile_qr_scan"}, "fusion_lon": 0.0, "lat": 38.917235, "bike_id": "c438f59002fc78d2c5f2d5a208393777", "type": "electric_scooter", "is_reserved": 0, "lon": -77.02877583333333}, {"fusion_lat": 0.0, "name": "3c110009aced29956f8684f4ee7f7fa0", "is_disabled": 0, "rental_uris": {"android": "https://dc.lft.to/lastmile_qr_scan", "ios": "https://dc.lft.to/lastmile_qr_scan"}, "fusion_lon": 0.0, "lat": 38.91667483333333, "bike_id": "3c110009aced29956f8684f4ee7f7fa0", "type": "electric_scooter", "is_reserved": 0, "lon": -77.034642}, {"fusion_lat": 0.0, "name": "abdae83439b456beeacca98e99825971", "is_disabled": 0, "rental_uris": {"android": "https://dc.lft.to/lastmile_qr_scan", "ios": "https://dc.lft.to/lastmile_qr_scan"}, "fusion_lon": 0.0, "lat": 38.896499666666664, "bike_id": "abdae83439b456beeacca98e99825971", "type": "electric_scooter", "is_reserved": 0, "lon": -77.05000066666666}, {"fusion_lat": 0.0, "name": "6e8d270d188d5f723729f04960e6d3a4", "is_disabled": 0, "rental_uris": {"android": "https://dc.lft.to/lastmile_qr_scan", "ios": "https://dc.lft.to/lastmile_qr_scan"}, "fusion_lon": 0.0, "lat": 38.90383416666667, "bike_id": "6e8d270d188d5f723729f04960e6d3a4", "type": "electric_scooter", "is_reserved": 0, "lon": -77.0670825}, {"fusion_lat": 0.0, "name": "fb2a9ec0b7e2c8b790b1ca89e9f81d61", "is_disabled": 0, "rental_uris": {"android": "https://dc.lft.to/lastmile_qr_scan", "ios": "https://dc.lft.to/lastmile_qr_scan"}, "fusion_lon": 0.0, "lat": 38.915540666666665, "bike_id": "fb2a9ec0b7e2c8b790b1ca89e9f81d61", "type": "electric_scooter", "is_reserved": 0, "lon": -77.04113033333333}, {"fusion_lat": 0.0, "name": "e0b59bb8a3938a665056fa6dacb63fc0", "is_disabled": 0, "rental_uris": {"android": "https://dc.lft.to/lastmile_qr_scan", "ios": "https://dc.lft.to/lastmile_qr_scan"}, "fusion_lon": 0.0, "lat": 38.908969666666664, "bike_id": "e0b59bb8a3938a665056fa6dacb63fc0", "type": "electric_scooter", "is_reserved": 0, "lon": -77.04453116666667}, {"fusion_lat": 0.0, "name": "822ca87a52bc8f3553160d06e60908f1", "is_disabled": 0, "rental_uris": {"android": "https://dc.lft.to/lastmile_qr_scan", "ios": "https://dc.lft.to/lastmile_qr_scan"}, "fusion_lon": 0.0, "lat": 38.95893616666667, "bike_id": "822ca87a52bc8f3553160d06e60908f1", "type": "electric_scooter", "is_reserved": 0, "lon": -77.02758966666667}, {"fusion_lat": 0.0, "name": "78fbb3a3385f260a66512b58a44bd353", "is_disabled": 0, "rental_uris": {"android": "https://dc.lft.to/lastmile_qr_scan", "ios": "https://dc.lft.to/lastmile_qr_scan"}, "fusion_lon": 0.0, "lat": 38.90524583333333, "bike_id": "78fbb3a3385f260a66512b58a44bd353", "type": "electric_scooter", "is_reserved": 0, "lon": -77.03480833333333}, {"fusion_lat": 0.0, "name": "b1dd0e5aeb5d7be61732dc32fc8c4837", "is_disabled": 0, "rental_uris": {"android": "https://dc.lft.to/lastmile_qr_scan", "ios": "https://dc.lft.to/lastmile_qr_scan"}, "fusion_lon": 0.0, "lat": 38.949692166666665, "bike_id": "b1dd0e5aeb5d7be61732dc32fc8c4837", "type": "electric_bike", "is_reserved": 0, "lon": -77.0663655}, {"fusion_lat": 0.0, "name": "cccd7a3f62186c48be64d57dd661560b", "is_disabled": 0, "rental_uris": {"android": "https://dc.lft.to/lastmile_qr_scan", "ios": "https://dc.lft.to/lastmile_qr_scan"}, "fusion_lon": 0.0, "lat": 38.81334716666667, "bike_id": "cccd7a3f62186c48be64d57dd661560b", "type": "electric_bike", "is_reserved": 0, "lon": -77.05084833333333}, {"fusion_lat": 0.0, "name": "790df9fdfb3d1a6f357b59f64e7c95cd", "is_disabled": 0, "rental_uris": {"android": "https://dc.lft.to/lastmile_qr_scan", "ios": "https://dc.lft.to/lastmile_qr_scan"}, "fusion_lon": 0.0, "lat": 38.8839945, "bike_id": "790df9fdfb3d1a6f357b59f64e7c95cd", "type": "electric_scooter", "is_reserved": 0, "lon": -76.93045733333334}, {"fusion_lat": 0.0, "name": "93a25d57c6f951fe229da9ab2e6da166", "is_disabled": 0, "rental_uris": {"android": "https://dc.lft.to/lastmile_qr_scan", "ios": "https://dc.lft.to/lastmile_qr_scan"}, "fusion_lon": 0.0, "lat": 38.897241666666666, "bike_id": "93a25d57c6f951fe229da9ab2e6da166", "type": "electric_scooter", "is_reserved": 0, "lon": -77.04986966666667}, {"fusion_lat": 0.0, "name": "54243991bcab60b8becc8f048d4445c3", "is_disabled": 0, "rental_uris": {"android": "https://dc.lft.to/lastmile_qr_scan", "ios": "https://dc.lft.to/lastmile_qr_scan"}, "fusion_lon": 0.0, "lat": 38.806797333333336, "bike_id": "54243991bcab60b8becc8f048d4445c3", "type": "electric_bike", "is_reserved": 0, "lon": -77.0691305}, {"fusion_lat": 0.0, "name": "6c06428f0c0c4391a1fff6357b06684e", "is_disabled": 0, "rental_uris": {"android": "https://dc.lft.to/lastmile_qr_scan", "ios": "https://dc.lft.to/lastmile_qr_scan"}, "fusion_lon": 0.0, "lat": 38.88749383333333, "bike_id": "6c06428f0c0c4391a1fff6357b06684e", "type": "electric_scooter", "is_reserved": 0, "lon": -76.998342}, {"fusion_lat": 0.0, "name": "0432dd880c1fe4ddae85a37addae6f99", "is_disabled": 0, "rental_uris": {"android": "https://dc.lft.to/lastmile_qr_scan", "ios": "https://dc.lft.to/lastmile_qr_scan"}, "fusion_lon": 0.0, "lat": 38.91843716666666, "bike_id": "0432dd880c1fe4ddae85a37addae6f99", "type": "electric_scooter", "is_reserved": 0, "lon": -77.04487616666667}, {"fusion_lat": 0.0, "name": "e9d3d5fc9f31dcd1a30bfd9aabad5acc", "is_disabled": 0, "rental_uris": {"android": "https://dc.lft.to/lastmile_qr_scan", "ios": "https://dc.lft.to/lastmile_qr_scan"}, "fusion_lon": 0.0, "lat": 38.905690666666665, "bike_id": "e9d3d5fc9f31dcd1a30bfd9aabad5acc", "type": "electric_scooter", "is_reserved": 0, "lon": -77.04634616666667}, {"fusion_lat": 0.0, "name": "e9c7df972a7a5b5e73ceb1fe778dbbfd", "is_disabled": 0, "rental_uris": {"android": "https://dc.lft.to/lastmile_qr_scan", "ios": "https://dc.lft.to/lastmile_qr_scan"}, "fusion_lon": 0.0, "lat": 38.905573, "bike_id": "e9c7df972a7a5b5e73ceb1fe778dbbfd", "type": "electric_scooter", "is_reserved": 0, "lon": -77.04645983333333}, {"fusion_lat": 0.0, "name": "790cb546a2e8f53c59918db0ab53d2d7", "is_disabled": 0, "rental_uris": {"android": "https://dc.lft.to/lastmile_qr_scan", "ios": "https://dc.lft.to/lastmile_qr_scan"}, "fusion_lon": 0.0, "lat": 38.9064835, "bike_id": "790cb546a2e8f53c59918db0ab53d2d7", "type": "electric_scooter", "is_reserved": 0, "lon": -77.0185055}, {"fusion_lat": 0.0, "name": "5e36f525a4d93db5deb055b5c57b49c6", "is_disabled": 0, "rental_uris": {"android": "https://dc.lft.to/lastmile_qr_scan", "ios": "https://dc.lft.to/lastmile_qr_scan"}, "fusion_lon": 0.0, "lat": 38.92054316666667, "bike_id": "5e36f525a4d93db5deb055b5c57b49c6", "type": "electric_scooter", "is_reserved": 0, "lon": -76.9988115}, {"fusion_lat": 0.0, "name": "c0216b113c923c6c167be13ddce4383d", "is_disabled": 0, "rental_uris": {"android": "https://dc.lft.to/lastmile_qr_scan", "ios": "https://dc.lft.to/lastmile_qr_scan"}, "fusion_lon": 0.0, "lat": 38.900334, "bike_id": "c0216b113c923c6c167be13ddce4383d", "type": "electric_scooter", "is_reserved": 0, "lon": -77.0022495}, {"fusion_lat": 0.0, "name": "56423570f520b6466628338feeb84c60", "is_disabled": 0, "rental_uris": {"android": "https://dc.lft.to/lastmile_qr_scan", "ios": "https://dc.lft.to/lastmile_qr_scan"}, "fusion_lon": 0.0, "lat": 38.97062316666667, "bike_id": "56423570f520b6466628338feeb84c60", "type": "electric_bike", "is_reserved": 0, "lon": -76.93611333333334}, {"fusion_lat": 0.0, "name": "679cde6ef86c30523b480f4e853a1e6b", "is_disabled": 0, "rental_uris": {"android": "https://dc.lft.to/lastmile_qr_scan", "ios": "https://dc.lft.to/lastmile_qr_scan"}, "fusion_lon": 0.0, "lat": 38.907213666666664, "bike_id": "679cde6ef86c30523b480f4e853a1e6b", "type": "electric_scooter", "is_reserved": 0, "lon": -77.043453}, {"fusion_lat": 0.0, "name": "120663d3da143e57bf270c5a47ad3286", "is_disabled": 0, "rental_uris": {"android": "https://dc.lft.to/lastmile_qr_scan", "ios": "https://dc.lft.to/lastmile_qr_scan"}, "fusion_lon": 0.0, "lat": 38.884550833333336, "bike_id": "120663d3da143e57bf270c5a47ad3286", "type": "electric_scooter", "is_reserved": 0, "lon": -76.993909}, {"fusion_lat": 0.0, "name": "b1adb0ba010fb14d2f819380d47e4078", "is_disabled": 0, "rental_uris": {"android": "https://dc.lft.to/lastmile_qr_scan", "ios": "https://dc.lft.to/lastmile_qr_scan"}, "fusion_lon": 0.0, "lat": 38.917140333333336, "bike_id": "b1adb0ba010fb14d2f819380d47e4078", "type": "electric_scooter", "is_reserved": 0, "lon": -77.038585}, {"fusion_lat": 0.0, "name": "7d1a9786c01125edb07f84b849e559ea", "is_disabled": 0, "rental_uris": {"android": "https://dc.lft.to/lastmile_qr_scan", "ios": "https://dc.lft.to/lastmile_qr_scan"}, "fusion_lon": 0.0, "lat": 38.903647166666666, "bike_id": "7d1a9786c01125edb07f84b849e559ea", "type": "electric_scooter", "is_reserved": 0, "lon": -77.045035}, {"fusion_lat": 0.0, "name": "b68a57ffcc61b1a8fa714f61b923b904", "is_disabled": 0, "rental_uris": {"android": "https://dc.lft.to/lastmile_qr_scan", "ios": "https://dc.lft.to/lastmile_qr_scan"}, "fusion_lon": 0.0, "lat": 38.88781, "bike_id": "b68a57ffcc61b1a8fa714f61b923b904", "type": "electric_scooter", "is_reserved": 0, "lon": -77.02594433333333}, {"fusion_lat": 0.0, "name": "2fc67b233e2c81022f1f2a10dfab165d", "is_disabled": 0, "rental_uris": {"android": "https://dc.lft.to/lastmile_qr_scan", "ios": "https://dc.lft.to/lastmile_qr_scan"}, "fusion_lon": 0.0, "lat": 38.897539333333334, "bike_id": "2fc67b233e2c81022f1f2a10dfab165d", "type": "electric_scooter", "is_reserved": 0, "lon": -77.02714816666666}, {"fusion_lat": 0.0, "name": "ce8c76f13aa055d36f07efdd5c161024", "is_disabled": 0, "rental_uris": {"android": "https://dc.lft.to/lastmile_qr_scan", "ios": "https://dc.lft.to/lastmile_qr_scan"}, "fusion_lon": 0.0, "lat": 38.921217666666664, "bike_id": "ce8c76f13aa055d36f07efdd5c161024", "type": "electric_scooter", "is_reserved": 0, "lon": -77.01209016666667}, {"fusion_lat": 0.0, "name": "78b6600f2dbb68e5bb63862c428d5a53", "is_disabled": 0, "rental_uris": {"android": "https://dc.lft.to/lastmile_qr_scan", "ios": "https://dc.lft.to/lastmile_qr_scan"}, "fusion_lon": 0.0, "lat": 38.92691933333333, "bike_id": "78b6600f2dbb68e5bb63862c428d5a53", "type": "electric_scooter", "is_reserved": 0, "lon": -77.02298666666667}, {"fusion_lat": 0.0, "name": "d5ab41123c60684ba512c2444229bbdb", "is_disabled": 0, "rental_uris": {"android": "https://dc.lft.to/lastmile_qr_scan", "ios": "https://dc.lft.to/lastmile_qr_scan"}, "fusion_lon": 0.0, "lat": 38.980609333333334, "bike_id": "d5ab41123c60684ba512c2444229bbdb", "type": "electric_bike", "is_reserved": 0, "lon": -77.09605533333334}, {"fusion_lat": 0.0, "name": "0c539810e731fec278654cefc29c4382", "is_disabled": 0, "rental_uris": {"android": "https://dc.lft.to/lastmile_qr_scan", "ios": "https://dc.lft.to/lastmile_qr_scan"}, "fusion_lon": 0.0, "lat": 38.92092533333334, "bike_id": "0c539810e731fec278654cefc29c4382", "type": "electric_scooter", "is_reserved": 0, "lon": -76.9945655}, {"fusion_lat": 0.0, "name": "f80b033c3657d1696e8e11d9dc575a51", "is_disabled": 0, "rental_uris": {"android": "https://dc.lft.to/lastmile_qr_scan", "ios": "https://dc.lft.to/lastmile_qr_scan"}, "fusion_lon": 0.0, "lat": 38.906990666666665, "bike_id": "f80b033c3657d1696e8e11d9dc575a51", "type": "electric_scooter", "is_reserved": 0, "lon": -77.07472683333333}, {"fusion_lat": 0.0, "name": "2a205917428efe45bae17f357ded73d0", "is_disabled": 0, "rental_uris": {"android": "https://dc.lft.to/lastmile_qr_scan", "ios": "https://dc.lft.to/lastmile_qr_scan"}, "fusion_lon": 0.0, "lat": 38.89356983333333, "bike_id": "2a205917428efe45bae17f357ded73d0", "type": "electric_scooter", "is_reserved": 0, "lon": -77.027966}, {"fusion_lat": 0.0, "name": "c6907efda74f5c918b70e8502fa41b93", "is_disabled": 0, "rental_uris": {"android": "https://dc.lft.to/lastmile_qr_scan", "ios": "https://dc.lft.to/lastmile_qr_scan"}, "fusion_lon": 0.0, "lat": 38.941681833333334, "bike_id": "c6907efda74f5c918b70e8502fa41b93", "type": "electric_scooter", "is_reserved": 0, "lon": -77.02519733333334}, {"fusion_lat": 0.0, "name": "7aa81ccf6cfeeb6001065aa6dc6e0e33", "is_disabled": 0, "rental_uris": {"android": "https://dc.lft.to/lastmile_qr_scan", "ios": "https://dc.lft.to/lastmile_qr_scan"}, "fusion_lon": 0.0, "lat": 38.888141, "bike_id": "7aa81ccf6cfeeb6001065aa6dc6e0e33", "type": "electric_scooter", "is_reserved": 0, "lon": -76.98359966666666}, {"fusion_lat": 0.0, "name": "4d294b63390e3af6917dd3b66593ba35", "is_disabled": 0, "rental_uris": {"android": "https://dc.lft.to/lastmile_qr_scan", "ios": "https://dc.lft.to/lastmile_qr_scan"}, "fusion_lon": 0.0, "lat": 38.866459, "bike_id": "4d294b63390e3af6917dd3b66593ba35", "type": "electric_scooter", "is_reserved": 0, "lon": -76.98304466666667}, {"fusion_lat": 0.0, "name": "c16b5e2d108600f9db1e55f7ebab0d83", "is_disabled": 0, "rental_uris": {"android": "https://dc.lft.to/lastmile_qr_scan", "ios": "https://dc.lft.to/lastmile_qr_scan"}, "fusion_lon": 0.0, "lat": 38.90721666666666, "bike_id": "c16b5e2d108600f9db1e55f7ebab0d83", "type": "electric_scooter", "is_reserved": 0, "lon": -77.02957266666667}, {"fusion_lat": 0.0, "name": "5405a1e709a62c4b71e650d9a1d9b3d3", "is_disabled": 0, "rental_uris": {"android": "https://dc.lft.to/lastmile_qr_scan", "ios": "https://dc.lft.to/lastmile_qr_scan"}, "fusion_lon": 0.0, "lat": 38.93105083333333, "bike_id": "5405a1e709a62c4b71e650d9a1d9b3d3", "type": "electric_scooter", "is_reserved": 0, "lon": -77.02401283333333}, {"fusion_lat": 0.0, "name": "0e71372795dec64e5e888605f7047e1f", "is_disabled": 0, "rental_uris": {"android": "https://dc.lft.to/lastmile_qr_scan", "ios": "https://dc.lft.to/lastmile_qr_scan"}, "fusion_lon": 0.0, "lat": 38.925513, "bike_id": "0e71372795dec64e5e888605f7047e1f", "type": "electric_scooter", "is_reserved": 0, "lon": -76.98301716666667}, {"fusion_lat": 0.0, "name": "662ca7c57a3528c5b1e546385a10d833", "is_disabled": 0, "rental_uris": {"android": "https://dc.lft.to/lastmile_qr_scan", "ios": "https://dc.lft.to/lastmile_qr_scan"}, "fusion_lon": 0.0, "lat": 38.9198375, "bike_id": "662ca7c57a3528c5b1e546385a10d833", "type": "electric_scooter", "is_reserved": 0, "lon": -77.02382766666666}, {"fusion_lat": 0.0, "name": "9c77423a3c98163d8bbd29abb8515687", "is_disabled": 0, "rental_uris": {"android": "https://dc.lft.to/lastmile_qr_scan", "ios": "https://dc.lft.to/lastmile_qr_scan"}, "fusion_lon": 0.0, "lat": 38.91340966666667, "bike_id": "9c77423a3c98163d8bbd29abb8515687", "type": "electric_scooter", "is_reserved": 0, "lon": -77.0435025}, {"fusion_lat": 0.0, "name": "34cab57039e7982c7c9a90ed558faaef", "is_disabled": 0, "rental_uris": {"android": "https://dc.lft.to/lastmile_qr_scan", "ios": "https://dc.lft.to/lastmile_qr_scan"}, "fusion_lon": 0.0, "lat": 38.905531833333335, "bike_id": "34cab57039e7982c7c9a90ed558faaef", "type": "electric_scooter", "is_reserved": 0, "lon": -77.0057655}, {"fusion_lat": 0.0, "name": "9cbcbafcab17d954ea5524482dde97b1", "is_disabled": 0, "rental_uris": {"android": "https://dc.lft.to/lastmile_qr_scan", "ios": "https://dc.lft.to/lastmile_qr_scan"}, "fusion_lon": 0.0, "lat": 38.931317166666666, "bike_id": "9cbcbafcab17d954ea5524482dde97b1", "type": "electric_scooter", "is_reserved": 0, "lon": -77.0219775}, {"fusion_lat": 0.0, "name": "b0fdc6ab7a4448fda4e3a52e52093469", "is_disabled": 0, "rental_uris": {"android": "https://dc.lft.to/lastmile_qr_scan", "ios": "https://dc.lft.to/lastmile_qr_scan"}, "fusion_lon": 0.0, "lat": 38.904197, "bike_id": "b0fdc6ab7a4448fda4e3a52e52093469", "type": "electric_scooter", "is_reserved": 0, "lon": -77.03859933333334}, {"fusion_lat": 0.0, "name": "8652b7c82d85929a3b940d524bdce8cd", "is_disabled": 0, "rental_uris": {"android": "https://dc.lft.to/lastmile_qr_scan", "ios": "https://dc.lft.to/lastmile_qr_scan"}, "fusion_lon": 0.0, "lat": 38.902018, "bike_id": "8652b7c82d85929a3b940d524bdce8cd", "type": "electric_scooter", "is_reserved": 0, "lon": -77.0161915}, {"fusion_lat": 0.0, "name": "96059dc30e4e1fb83f01f1939403a015", "is_disabled": 0, "rental_uris": {"android": "https://dc.lft.to/lastmile_qr_scan", "ios": "https://dc.lft.to/lastmile_qr_scan"}, "fusion_lon": 0.0, "lat": 38.916662, "bike_id": "96059dc30e4e1fb83f01f1939403a015", "type": "electric_scooter", "is_reserved": 0, "lon": -77.0383915}, {"fusion_lat": 0.0, "name": "9ca7fc4aee39f2ff23e9cab9679d5ba1", "is_disabled": 0, "rental_uris": {"android": "https://dc.lft.to/lastmile_qr_scan", "ios": "https://dc.lft.to/lastmile_qr_scan"}, "fusion_lon": 0.0, "lat": 38.92680883333333, "bike_id": "9ca7fc4aee39f2ff23e9cab9679d5ba1", "type": "electric_scooter", "is_reserved": 0, "lon": -77.031428}, {"fusion_lat": 0.0, "name": "30000379b2ff67375e1c3d2837db3fac", "is_disabled": 0, "rental_uris": {"android": "https://dc.lft.to/lastmile_qr_scan", "ios": "https://dc.lft.to/lastmile_qr_scan"}, "fusion_lon": 0.0, "lat": 38.88597383333333, "bike_id": "30000379b2ff67375e1c3d2837db3fac", "type": "electric_scooter", "is_reserved": 0, "lon": -77.01718816666667}, {"fusion_lat": 0.0, "name": "315900a66e47708618fe22da19679bf1", "is_disabled": 0, "rental_uris": {"android": "https://dc.lft.to/lastmile_qr_scan", "ios": "https://dc.lft.to/lastmile_qr_scan"}, "fusion_lon": 0.0, "lat": 38.950617, "bike_id": "315900a66e47708618fe22da19679bf1", "type": "electric_scooter", "is_reserved": 0, "lon": -77.08029033333334}, {"fusion_lat": 0.0, "name": "f0e643fef627592b5e1bccde68adfe92", "is_disabled": 0, "rental_uris": {"android": "https://dc.lft.to/lastmile_qr_scan", "ios": "https://dc.lft.to/lastmile_qr_scan"}, "fusion_lon": 0.0, "lat": 38.91062083333333, "bike_id": "f0e643fef627592b5e1bccde68adfe92", "type": "electric_scooter", "is_reserved": 0, "lon": -77.04089183333333}, {"fusion_lat": 0.0, "name": "6b9b38b63e235988d7ed749003070d3d", "is_disabled": 0, "rental_uris": {"android": "https://dc.lft.to/lastmile_qr_scan", "ios": "https://dc.lft.to/lastmile_qr_scan"}, "fusion_lon": 0.0, "lat": 38.916651, "bike_id": "6b9b38b63e235988d7ed749003070d3d", "type": "electric_scooter", "is_reserved": 0, "lon": -77.03853033333333}, {"fusion_lat": 0.0, "name": "9818242d5242672e565b8ae3c41adde9", "is_disabled": 0, "rental_uris": {"android": "https://dc.lft.to/lastmile_qr_scan", "ios": "https://dc.lft.to/lastmile_qr_scan"}, "fusion_lon": 0.0, "lat": 38.90829683333333, "bike_id": "9818242d5242672e565b8ae3c41adde9", "type": "electric_scooter", "is_reserved": 0, "lon": -76.98421916666666}, {"fusion_lat": 0.0, "name": "a59d4a54752f3edfc5db89414fe856ea", "is_disabled": 0, "rental_uris": {"android": "https://dc.lft.to/lastmile_qr_scan", "ios": "https://dc.lft.to/lastmile_qr_scan"}, "fusion_lon": 0.0, "lat": 38.905542833333335, "bike_id": "a59d4a54752f3edfc5db89414fe856ea", "type": "electric_scooter", "is_reserved": 0, "lon": -77.0464625}, {"fusion_lat": 0.0, "name": "a22f6188ae1a47c6336064b81e0831d4", "is_disabled": 0, "rental_uris": {"android": "https://dc.lft.to/lastmile_qr_scan", "ios": "https://dc.lft.to/lastmile_qr_scan"}, "fusion_lon": 0.0, "lat": 38.90607766666667, "bike_id": "a22f6188ae1a47c6336064b81e0831d4", "type": "electric_scooter", "is_reserved": 0, "lon": -77.024049}, {"fusion_lat": 0.0, "name": "13dcff7d7b5a161fb744e956bd1abda3", "is_disabled": 0, "rental_uris": {"android": "https://dc.lft.to/lastmile_qr_scan", "ios": "https://dc.lft.to/lastmile_qr_scan"}, "fusion_lon": 0.0, "lat": 38.8967535, "bike_id": "13dcff7d7b5a161fb744e956bd1abda3", "type": "electric_scooter", "is_reserved": 0, "lon": -77.00515816666666}, {"fusion_lat": 0.0, "name": "03430514ddd1398d42375fb5437ffe47", "is_disabled": 0, "rental_uris": {"android": "https://dc.lft.to/lastmile_qr_scan", "ios": "https://dc.lft.to/lastmile_qr_scan"}, "fusion_lon": 0.0, "lat": 38.93401016666667, "bike_id": "03430514ddd1398d42375fb5437ffe47", "type": "electric_scooter", "is_reserved": 0, "lon": -77.05744716666666}, {"fusion_lat": 0.0, "name": "84c0775ffd166d717ced83b2324189e3", "is_disabled": 0, "rental_uris": {"android": "https://dc.lft.to/lastmile_qr_scan", "ios": "https://dc.lft.to/lastmile_qr_scan"}, "fusion_lon": 0.0, "lat": 38.9453785, "bike_id": "84c0775ffd166d717ced83b2324189e3", "type": "electric_scooter", "is_reserved": 0, "lon": -77.02532283333333}, {"fusion_lat": 0.0, "name": "d3c8b1b817d8c7682cfac1fbc678e504", "is_disabled": 0, "rental_uris": {"android": "https://dc.lft.to/lastmile_qr_scan", "ios": "https://dc.lft.to/lastmile_qr_scan"}, "fusion_lon": 0.0, "lat": 38.902677833333335, "bike_id": "d3c8b1b817d8c7682cfac1fbc678e504", "type": "electric_scooter", "is_reserved": 0, "lon": -77.03968516666667}, {"fusion_lat": 0.0, "name": "77f692c55845421fe15f9b34d8c39be8", "is_disabled": 0, "rental_uris": {"android": "https://dc.lft.to/lastmile_qr_scan", "ios": "https://dc.lft.to/lastmile_qr_scan"}, "fusion_lon": 0.0, "lat": 38.8985395, "bike_id": "77f692c55845421fe15f9b34d8c39be8", "type": "electric_scooter", "is_reserved": 0, "lon": -76.99030866666666}, {"fusion_lat": 0.0, "name": "93c0a59b46ca8b0c2c4886e3b169187a", "is_disabled": 0, "rental_uris": {"android": "https://dc.lft.to/lastmile_qr_scan", "ios": "https://dc.lft.to/lastmile_qr_scan"}, "fusion_lon": 0.0, "lat": 38.88300383333333, "bike_id": "93c0a59b46ca8b0c2c4886e3b169187a", "type": "electric_scooter", "is_reserved": 0, "lon": -76.94852733333333}, {"fusion_lat": 0.0, "name": "e7e545192cff59415aadaf7e4d5c12f3", "is_disabled": 0, "rental_uris": {"android": "https://dc.lft.to/lastmile_qr_scan", "ios": "https://dc.lft.to/lastmile_qr_scan"}, "fusion_lon": 0.0, "lat": 38.903888333333335, "bike_id": "e7e545192cff59415aadaf7e4d5c12f3", "type": "electric_scooter", "is_reserved": 0, "lon": -77.03303883333334}, {"fusion_lat": 0.0, "name": "2ed48fe02500512c3c41b6097725a663", "is_disabled": 0, "rental_uris": {"android": "https://dc.lft.to/lastmile_qr_scan", "ios": "https://dc.lft.to/lastmile_qr_scan"}, "fusion_lon": 0.0, "lat": 39.07058516666667, "bike_id": "2ed48fe02500512c3c41b6097725a663", "type": "electric_bike", "is_reserved": 0, "lon": -77.11485733333333}, {"fusion_lat": 0.0, "name": "6b71125f80a9389d0dc9fc19119150d8", "is_disabled": 0, "rental_uris": {"android": "https://dc.lft.to/lastmile_qr_scan", "ios": "https://dc.lft.to/lastmile_qr_scan"}, "fusion_lon": 0.0, "lat": 38.916283, "bike_id": "6b71125f80a9389d0dc9fc19119150d8", "type": "electric_scooter", "is_reserved": 0, "lon": -77.03151566666666}, {"fusion_lat": 0.0, "name": "77cc79baee4346926889f2a7dc23b1f2", "is_disabled": 0, "rental_uris": {"android": "https://dc.lft.to/lastmile_qr_scan", "ios": "https://dc.lft.to/lastmile_qr_scan"}, "fusion_lon": 0.0, "lat": 38.903147833333335, "bike_id": "77cc79baee4346926889f2a7dc23b1f2", "type": "electric_scooter", "is_reserved": 0, "lon": -77.04499933333334}, {"fusion_lat": 0.0, "name": "f1dff080929b1724cd16d89d15e5e67d", "is_disabled": 0, "rental_uris": {"android": "https://dc.lft.to/lastmile_qr_scan", "ios": "https://dc.lft.to/lastmile_qr_scan"}, "fusion_lon": 0.0, "lat": 38.89489666666667, "bike_id": "f1dff080929b1724cd16d89d15e5e67d", "type": "electric_scooter", "is_reserved": 0, "lon": -77.00252366666666}, {"fusion_lat": 0.0, "name": "167a7549081030e1c42e0bbf959e36e3", "is_disabled": 0, "rental_uris": {"android": "https://dc.lft.to/lastmile_qr_scan", "ios": "https://dc.lft.to/lastmile_qr_scan"}, "fusion_lon": 0.0, "lat": 38.94294883333333, "bike_id": "167a7549081030e1c42e0bbf959e36e3", "type": "electric_scooter", "is_reserved": 0, "lon": -77.02167966666667}, {"fusion_lat": 0.0, "name": "c66d2462d37c3a3fbbe7f64ec8ac375a", "is_disabled": 0, "rental_uris": {"android": "https://dc.lft.to/lastmile_qr_scan", "ios": "https://dc.lft.to/lastmile_qr_scan"}, "fusion_lon": 0.0, "lat": 38.93401266666667, "bike_id": "c66d2462d37c3a3fbbe7f64ec8ac375a", "type": "electric_scooter", "is_reserved": 0, "lon": -77.02844366666666}, {"fusion_lat": 0.0, "name": "5b486874ccd2d299db04cfb35a3ee6c2", "is_disabled": 0, "rental_uris": {"android": "https://dc.lft.to/lastmile_qr_scan", "ios": "https://dc.lft.to/lastmile_qr_scan"}, "fusion_lon": 0.0, "lat": 38.9027485, "bike_id": "5b486874ccd2d299db04cfb35a3ee6c2", "type": "electric_scooter", "is_reserved": 0, "lon": -77.01759416666667}, {"fusion_lat": 0.0, "name": "da381eacccc85662cae75cd95238c517", "is_disabled": 0, "rental_uris": {"android": "https://dc.lft.to/lastmile_qr_scan", "ios": "https://dc.lft.to/lastmile_qr_scan"}, "fusion_lon": 0.0, "lat": 38.899664666666666, "bike_id": "da381eacccc85662cae75cd95238c517", "type": "electric_scooter", "is_reserved": 0, "lon": -76.98156366666667}, {"fusion_lat": 0.0, "name": "6727f3d0db3e3a3af5e85e98dba9e6b6", "is_disabled": 0, "rental_uris": {"android": "https://dc.lft.to/lastmile_qr_scan", "ios": "https://dc.lft.to/lastmile_qr_scan"}, "fusion_lon": 0.0, "lat": 38.89748766666666, "bike_id": "6727f3d0db3e3a3af5e85e98dba9e6b6", "type": "electric_scooter", "is_reserved": 0, "lon": -77.023822}, {"fusion_lat": 0.0, "name": "53f79daa9a344092d3d46f36806c8c4c", "is_disabled": 0, "rental_uris": {"android": "https://dc.lft.to/lastmile_qr_scan", "ios": "https://dc.lft.to/lastmile_qr_scan"}, "fusion_lon": 0.0, "lat": 38.917330166666666, "bike_id": "53f79daa9a344092d3d46f36806c8c4c", "type": "electric_scooter", "is_reserved": 0, "lon": -77.041714}, {"fusion_lat": 0.0, "name": "7660e6ddf1fb239e58631f16d78d42e4", "is_disabled": 0, "rental_uris": {"android": "https://dc.lft.to/lastmile_qr_scan", "ios": "https://dc.lft.to/lastmile_qr_scan"}, "fusion_lon": 0.0, "lat": 38.909591166666665, "bike_id": "7660e6ddf1fb239e58631f16d78d42e4", "type": "electric_scooter", "is_reserved": 0, "lon": -76.985373}, {"fusion_lat": 0.0, "name": "9fc5166f57605173ec361d87f16ae53a", "is_disabled": 0, "rental_uris": {"android": "https://dc.lft.to/lastmile_qr_scan", "ios": "https://dc.lft.to/lastmile_qr_scan"}, "fusion_lon": 0.0, "lat": 38.902491, "bike_id": "9fc5166f57605173ec361d87f16ae53a", "type": "electric_scooter", "is_reserved": 0, "lon": -77.03482766666667}, {"fusion_lat": 0.0, "name": "29c35f7a0f4014995a68f40e523ce016", "is_disabled": 0, "rental_uris": {"android": "https://dc.lft.to/lastmile_qr_scan", "ios": "https://dc.lft.to/lastmile_qr_scan"}, "fusion_lon": 0.0, "lat": 38.952965666666664, "bike_id": "29c35f7a0f4014995a68f40e523ce016", "type": "electric_bike", "is_reserved": 0, "lon": -77.00001383333333}, {"fusion_lat": 0.0, "name": "cc1fb7e42ce46aff8946acc15fddae71", "is_disabled": 0, "rental_uris": {"android": "https://dc.lft.to/lastmile_qr_scan", "ios": "https://dc.lft.to/lastmile_qr_scan"}, "fusion_lon": 0.0, "lat": 38.931244666666665, "bike_id": "cc1fb7e42ce46aff8946acc15fddae71", "type": "electric_scooter", "is_reserved": 0, "lon": -76.98440516666666}, {"fusion_lat": 0.0, "name": "5eb8ef20dbf03182cdb33afed21668b7", "is_disabled": 0, "rental_uris": {"android": "https://dc.lft.to/lastmile_qr_scan", "ios": "https://dc.lft.to/lastmile_qr_scan"}, "fusion_lon": 0.0, "lat": 38.892278, "bike_id": "5eb8ef20dbf03182cdb33afed21668b7", "type": "electric_scooter", "is_reserved": 0, "lon": -77.04508033333333}, {"fusion_lat": 0.0, "name": "0da6ac84fae9b9ae0f266ae1718a5f60", "is_disabled": 0, "rental_uris": {"android": "https://dc.lft.to/lastmile_qr_scan", "ios": "https://dc.lft.to/lastmile_qr_scan"}, "fusion_lon": 0.0, "lat": 38.90643, "bike_id": "0da6ac84fae9b9ae0f266ae1718a5f60", "type": "electric_scooter", "is_reserved": 0, "lon": -77.0060155}, {"fusion_lat": 0.0, "name": "99a686d7ae0041bdcfe32b45907c8dc4", "is_disabled": 0, "rental_uris": {"android": "https://dc.lft.to/lastmile_qr_scan", "ios": "https://dc.lft.to/lastmile_qr_scan"}, "fusion_lon": 0.0, "lat": 38.84130066666667, "bike_id": "99a686d7ae0041bdcfe32b45907c8dc4", "type": "electric_bike", "is_reserved": 0, "lon": -77.06308583333333}, {"fusion_lat": 0.0, "name": "c6ffec4805d5648c670712572dedc03a", "is_disabled": 0, "rental_uris": {"android": "https://dc.lft.to/lastmile_qr_scan", "ios": "https://dc.lft.to/lastmile_qr_scan"}, "fusion_lon": 0.0, "lat": 38.9239745, "bike_id": "c6ffec4805d5648c670712572dedc03a", "type": "electric_scooter", "is_reserved": 0, "lon": -77.04305516666666}, {"fusion_lat": 0.0, "name": "69464a8092fe6c3c8ad33b2349165606", "is_disabled": 0, "rental_uris": {"android": "https://dc.lft.to/lastmile_qr_scan", "ios": "https://dc.lft.to/lastmile_qr_scan"}, "fusion_lon": 0.0, "lat": 38.85429416666667, "bike_id": "69464a8092fe6c3c8ad33b2349165606", "type": "electric_bike", "is_reserved": 0, "lon": -77.12079066666666}, {"fusion_lat": 0.0, "name": "d7f056b3c17a2a405fde41b105aebe9e", "is_disabled": 0, "rental_uris": {"android": "https://dc.lft.to/lastmile_qr_scan", "ios": "https://dc.lft.to/lastmile_qr_scan"}, "fusion_lon": 0.0, "lat": 38.900401, "bike_id": "d7f056b3c17a2a405fde41b105aebe9e", "type": "electric_scooter", "is_reserved": 0, "lon": -77.0352225}, {"fusion_lat": 0.0, "name": "eaa85c99b30a974a81a2d123a9abae1e", "is_disabled": 0, "rental_uris": {"android": "https://dc.lft.to/lastmile_qr_scan", "ios": "https://dc.lft.to/lastmile_qr_scan"}, "fusion_lon": 0.0, "lat": 38.94297733333333, "bike_id": "eaa85c99b30a974a81a2d123a9abae1e", "type": "electric_scooter", "is_reserved": 0, "lon": -77.02166616666666}, {"fusion_lat": 0.0, "name": "60d8ab5e8099cd00e105621cba51c8a0", "is_disabled": 0, "rental_uris": {"android": "https://dc.lft.to/lastmile_qr_scan", "ios": "https://dc.lft.to/lastmile_qr_scan"}, "fusion_lon": 0.0, "lat": 38.883037333333334, "bike_id": "60d8ab5e8099cd00e105621cba51c8a0", "type": "electric_scooter", "is_reserved": 0, "lon": -76.94857016666667}, {"fusion_lat": 0.0, "name": "8268db39b7caaee69087de7e1f26510f", "is_disabled": 0, "rental_uris": {"android": "https://dc.lft.to/lastmile_qr_scan", "ios": "https://dc.lft.to/lastmile_qr_scan"}, "fusion_lon": 0.0, "lat": 38.924174, "bike_id": "8268db39b7caaee69087de7e1f26510f", "type": "electric_scooter", "is_reserved": 0, "lon": -76.996232}, {"fusion_lat": 0.0, "name": "bdf77e968ad77fb6567fec68ffbbd166", "is_disabled": 0, "rental_uris": {"android": "https://dc.lft.to/lastmile_qr_scan", "ios": "https://dc.lft.to/lastmile_qr_scan"}, "fusion_lon": 0.0, "lat": 38.898386, "bike_id": "bdf77e968ad77fb6567fec68ffbbd166", "type": "electric_scooter", "is_reserved": 0, "lon": -77.01339233333333}, {"fusion_lat": 0.0, "name": "b73786d072d6aada01b618b6f0da0281", "is_disabled": 0, "rental_uris": {"android": "https://dc.lft.to/lastmile_qr_scan", "ios": "https://dc.lft.to/lastmile_qr_scan"}, "fusion_lon": 0.0, "lat": 38.8842515, "bike_id": "b73786d072d6aada01b618b6f0da0281", "type": "electric_scooter", "is_reserved": 0, "lon": -76.9575265}, {"fusion_lat": 0.0, "name": "eee9ed84258abd5855300db438a6311f", "is_disabled": 0, "rental_uris": {"android": "https://dc.lft.to/lastmile_qr_scan", "ios": "https://dc.lft.to/lastmile_qr_scan"}, "fusion_lon": 0.0, "lat": 38.8934235, "bike_id": "eee9ed84258abd5855300db438a6311f", "type": "electric_scooter", "is_reserved": 0, "lon": -77.04674966666667}, {"fusion_lat": 0.0, "name": "2590362fe2ba788a076f62c7ced6153e", "is_disabled": 0, "rental_uris": {"android": "https://dc.lft.to/lastmile_qr_scan", "ios": "https://dc.lft.to/lastmile_qr_scan"}, "fusion_lon": 0.0, "lat": 38.91625533333333, "bike_id": "2590362fe2ba788a076f62c7ced6153e", "type": "electric_scooter", "is_reserved": 0, "lon": -77.02304366666667}, {"fusion_lat": 0.0, "name": "fdb3e3e5cdb437b59771a5651f022e4a", "is_disabled": 0, "rental_uris": {"android": "https://dc.lft.to/lastmile_qr_scan", "ios": "https://dc.lft.to/lastmile_qr_scan"}, "fusion_lon": 0.0, "lat": 38.92513566666667, "bike_id": "fdb3e3e5cdb437b59771a5651f022e4a", "type": "electric_scooter", "is_reserved": 0, "lon": -77.02287866666667}, {"fusion_lat": 0.0, "name": "96693712c29846e267c63ed4b8bd0a85", "is_disabled": 0, "rental_uris": {"android": "https://dc.lft.to/lastmile_qr_scan", "ios": "https://dc.lft.to/lastmile_qr_scan"}, "fusion_lon": 0.0, "lat": 38.98554383333333, "bike_id": "96693712c29846e267c63ed4b8bd0a85", "type": "electric_bike", "is_reserved": 0, "lon": -77.004043}, {"fusion_lat": 0.0, "name": "12e872f068402edffa5146f3e5772b68", "is_disabled": 0, "rental_uris": {"android": "https://dc.lft.to/lastmile_qr_scan", "ios": "https://dc.lft.to/lastmile_qr_scan"}, "fusion_lon": 0.0, "lat": 38.90777116666667, "bike_id": "12e872f068402edffa5146f3e5772b68", "type": "electric_scooter", "is_reserved": 0, "lon": -77.05597983333334}, {"fusion_lat": 0.0, "name": "e95faa340a687a830dab8d5a6270b198", "is_disabled": 0, "rental_uris": {"android": "https://dc.lft.to/lastmile_qr_scan", "ios": "https://dc.lft.to/lastmile_qr_scan"}, "fusion_lon": 0.0, "lat": 38.9358195, "bike_id": "e95faa340a687a830dab8d5a6270b198", "type": "electric_scooter", "is_reserved": 0, "lon": -77.02846033333333}, {"fusion_lat": 0.0, "name": "5f63beceec3602166344737f73f8d0b0", "is_disabled": 0, "rental_uris": {"android": "https://dc.lft.to/lastmile_qr_scan", "ios": "https://dc.lft.to/lastmile_qr_scan"}, "fusion_lon": 0.0, "lat": 38.952241666666666, "bike_id": "5f63beceec3602166344737f73f8d0b0", "type": "electric_scooter", "is_reserved": 0, "lon": -77.08218883333333}, {"fusion_lat": 0.0, "name": "0cdf8fd044209db357c4d848ee59132a", "is_disabled": 0, "rental_uris": {"android": "https://dc.lft.to/lastmile_qr_scan", "ios": "https://dc.lft.to/lastmile_qr_scan"}, "fusion_lon": 0.0, "lat": 38.920803666666664, "bike_id": "0cdf8fd044209db357c4d848ee59132a", "type": "electric_scooter", "is_reserved": 0, "lon": -76.9944485}, {"fusion_lat": 0.0, "name": "f042c5625d2e85405ea4e2ed3bca26da", "is_disabled": 0, "rental_uris": {"android": "https://dc.lft.to/lastmile_qr_scan", "ios": "https://dc.lft.to/lastmile_qr_scan"}, "fusion_lon": 0.0, "lat": 38.8973, "bike_id": "f042c5625d2e85405ea4e2ed3bca26da", "type": "electric_scooter", "is_reserved": 0, "lon": -77.046366}, {"fusion_lat": 0.0, "name": "f863e9a1ab6b2e243c8a1abd8934a6dd", "is_disabled": 0, "rental_uris": {"android": "https://dc.lft.to/lastmile_qr_scan", "ios": "https://dc.lft.to/lastmile_qr_scan"}, "fusion_lon": 0.0, "lat": 38.920002333333336, "bike_id": "f863e9a1ab6b2e243c8a1abd8934a6dd", "type": "electric_scooter", "is_reserved": 0, "lon": -77.0718775}, {"fusion_lat": 0.0, "name": "5b0aebd20d786dfee34edcbb7f50643d", "is_disabled": 0, "rental_uris": {"android": "https://dc.lft.to/lastmile_qr_scan", "ios": "https://dc.lft.to/lastmile_qr_scan"}, "fusion_lon": 0.0, "lat": 38.87852616666667, "bike_id": "5b0aebd20d786dfee34edcbb7f50643d", "type": "electric_bike", "is_reserved": 0, "lon": -77.03028533333334}, {"fusion_lat": 0.0, "name": "2fcbe89c308674ccdf3330bc4390a33e", "is_disabled": 0, "rental_uris": {"android": "https://dc.lft.to/lastmile_qr_scan", "ios": "https://dc.lft.to/lastmile_qr_scan"}, "fusion_lon": 0.0, "lat": 38.88773166666667, "bike_id": "2fcbe89c308674ccdf3330bc4390a33e", "type": "electric_scooter", "is_reserved": 0, "lon": -77.03298383333333}, {"fusion_lat": 0.0, "name": "6a4aacb8f1b0dda532536b4d072d0ab4", "is_disabled": 0, "rental_uris": {"android": "https://dc.lft.to/lastmile_qr_scan", "ios": "https://dc.lft.to/lastmile_qr_scan"}, "fusion_lon": 0.0, "lat": 38.92381433333333, "bike_id": "6a4aacb8f1b0dda532536b4d072d0ab4", "type": "electric_scooter", "is_reserved": 0, "lon": -77.07529383333333}, {"fusion_lat": 0.0, "name": "4a87e38cd1eed6c25983a480429aae38", "is_disabled": 0, "rental_uris": {"android": "https://dc.lft.to/lastmile_qr_scan", "ios": "https://dc.lft.to/lastmile_qr_scan"}, "fusion_lon": 0.0, "lat": 38.90718866666667, "bike_id": "4a87e38cd1eed6c25983a480429aae38", "type": "electric_scooter", "is_reserved": 0, "lon": -77.04347383333334}, {"fusion_lat": 0.0, "name": "832c1c25097949634d1623e599b52664", "is_disabled": 0, "rental_uris": {"android": "https://dc.lft.to/lastmile_qr_scan", "ios": "https://dc.lft.to/lastmile_qr_scan"}, "fusion_lon": 0.0, "lat": 38.904248333333335, "bike_id": "832c1c25097949634d1623e599b52664", "type": "electric_scooter", "is_reserved": 0, "lon": -77.023844}, {"fusion_lat": 0.0, "name": "65463d1a8464c60f44a8403e19b096f0", "is_disabled": 0, "rental_uris": {"android": "https://dc.lft.to/lastmile_qr_scan", "ios": "https://dc.lft.to/lastmile_qr_scan"}, "fusion_lon": 0.0, "lat": 38.91695766666667, "bike_id": "65463d1a8464c60f44a8403e19b096f0", "type": "electric_scooter", "is_reserved": 0, "lon": -77.01165733333333}, {"fusion_lat": 0.0, "name": "0534a5d0aa20e77645e3b95f50026128", "is_disabled": 0, "rental_uris": {"android": "https://dc.lft.to/lastmile_qr_scan", "ios": "https://dc.lft.to/lastmile_qr_scan"}, "fusion_lon": 0.0, "lat": 38.90388083333333, "bike_id": "0534a5d0aa20e77645e3b95f50026128", "type": "electric_scooter", "is_reserved": 0, "lon": -77.0320645}, {"fusion_lat": 0.0, "name": "450e5190323e65977b8fd48b5e1b0906", "is_disabled": 0, "rental_uris": {"android": "https://dc.lft.to/lastmile_qr_scan", "ios": "https://dc.lft.to/lastmile_qr_scan"}, "fusion_lon": 0.0, "lat": 38.897284166666665, "bike_id": "450e5190323e65977b8fd48b5e1b0906", "type": "electric_scooter", "is_reserved": 0, "lon": -77.03174783333333}, {"fusion_lat": 0.0, "name": "2cde785c2ac104b93d4d89fad649e826", "is_disabled": 0, "rental_uris": {"android": "https://dc.lft.to/lastmile_qr_scan", "ios": "https://dc.lft.to/lastmile_qr_scan"}, "fusion_lon": 0.0, "lat": 38.932400666666666, "bike_id": "2cde785c2ac104b93d4d89fad649e826", "type": "electric_scooter", "is_reserved": 0, "lon": -77.02840266666666}, {"fusion_lat": 0.0, "name": "0ca29d1fae95a21b02b76efde5882634", "is_disabled": 0, "rental_uris": {"android": "https://dc.lft.to/lastmile_qr_scan", "ios": "https://dc.lft.to/lastmile_qr_scan"}, "fusion_lon": 0.0, "lat": 38.907437, "bike_id": "0ca29d1fae95a21b02b76efde5882634", "type": "electric_scooter", "is_reserved": 0, "lon": -77.03838866666666}, {"fusion_lat": 0.0, "name": "a9f6224937ae913f18e8c0e8ccb984d3", "is_disabled": 0, "rental_uris": {"android": "https://dc.lft.to/lastmile_qr_scan", "ios": "https://dc.lft.to/lastmile_qr_scan"}, "fusion_lon": 0.0, "lat": 38.845082166666664, "bike_id": "a9f6224937ae913f18e8c0e8ccb984d3", "type": "electric_bike", "is_reserved": 0, "lon": -76.9935355}, {"fusion_lat": 0.0, "name": "6c3d3b58d15b6e244655bd75d5a6a117", "is_disabled": 0, "rental_uris": {"android": "https://dc.lft.to/lastmile_qr_scan", "ios": "https://dc.lft.to/lastmile_qr_scan"}, "fusion_lon": 0.0, "lat": 38.916536666666666, "bike_id": "6c3d3b58d15b6e244655bd75d5a6a117", "type": "electric_scooter", "is_reserved": 0, "lon": -77.02819883333333}, {"fusion_lat": 0.0, "name": "c417d3debe4bf1bf1d8d85899277d119", "is_disabled": 0, "rental_uris": {"android": "https://dc.lft.to/lastmile_qr_scan", "ios": "https://dc.lft.to/lastmile_qr_scan"}, "fusion_lon": 0.0, "lat": 38.92361783333333, "bike_id": "c417d3debe4bf1bf1d8d85899277d119", "type": "electric_scooter", "is_reserved": 0, "lon": -77.04260083333334}, {"fusion_lat": 0.0, "name": "9c191afc5caacda5aa65ca69e6c824fc", "is_disabled": 0, "rental_uris": {"android": "https://dc.lft.to/lastmile_qr_scan", "ios": "https://dc.lft.to/lastmile_qr_scan"}, "fusion_lon": 0.0, "lat": 38.9229635, "bike_id": "9c191afc5caacda5aa65ca69e6c824fc", "type": "electric_scooter", "is_reserved": 0, "lon": -76.997753}, {"fusion_lat": 0.0, "name": "594c3258a8164f019374c6508eb598fe", "is_disabled": 0, "rental_uris": {"android": "https://dc.lft.to/lastmile_qr_scan", "ios": "https://dc.lft.to/lastmile_qr_scan"}, "fusion_lon": 0.0, "lat": 38.906795, "bike_id": "594c3258a8164f019374c6508eb598fe", "type": "electric_scooter", "is_reserved": 0, "lon": -77.02384816666667}, {"fusion_lat": 0.0, "name": "daa6f16f701515ee181b6da0c88c36c6", "is_disabled": 0, "rental_uris": {"android": "https://dc.lft.to/lastmile_qr_scan", "ios": "https://dc.lft.to/lastmile_qr_scan"}, "fusion_lon": 0.0, "lat": 38.92958, "bike_id": "daa6f16f701515ee181b6da0c88c36c6", "type": "electric_scooter", "is_reserved": 0, "lon": -77.031558}, {"fusion_lat": 0.0, "name": "262d974d44d1ccde8ee9b73e812a0363", "is_disabled": 0, "rental_uris": {"android": "https://dc.lft.to/lastmile_qr_scan", "ios": "https://dc.lft.to/lastmile_qr_scan"}, "fusion_lon": 0.0, "lat": 38.8626895, "bike_id": "262d974d44d1ccde8ee9b73e812a0363", "type": "electric_bike", "is_reserved": 0, "lon": -76.98358533333334}, {"fusion_lat": 0.0, "name": "31ca07820fe2c38c1311bf7398663da3", "is_disabled": 0, "rental_uris": {"android": "https://dc.lft.to/lastmile_qr_scan", "ios": "https://dc.lft.to/lastmile_qr_scan"}, "fusion_lon": 0.0, "lat": 38.922513, "bike_id": "31ca07820fe2c38c1311bf7398663da3", "type": "electric_scooter", "is_reserved": 0, "lon": -77.029945}, {"fusion_lat": 0.0, "name": "bd7b113ed23da4c5f3a91ceafee39fc8", "is_disabled": 0, "rental_uris": {"android": "https://dc.lft.to/lastmile_qr_scan", "ios": "https://dc.lft.to/lastmile_qr_scan"}, "fusion_lon": 0.0, "lat": 38.916446666666666, "bike_id": "bd7b113ed23da4c5f3a91ceafee39fc8", "type": "electric_scooter", "is_reserved": 0, "lon": -77.032175}, {"fusion_lat": 0.0, "name": "67f61613cee635a4aa0bc2bca25ff582", "is_disabled": 0, "rental_uris": {"android": "https://dc.lft.to/lastmile_qr_scan", "ios": "https://dc.lft.to/lastmile_qr_scan"}, "fusion_lon": 0.0, "lat": 38.886325, "bike_id": "67f61613cee635a4aa0bc2bca25ff582", "type": "electric_scooter", "is_reserved": 0, "lon": -77.020032}, {"fusion_lat": 0.0, "name": "7325a2528390e9dadc901267fa723be4", "is_disabled": 0, "rental_uris": {"android": "https://dc.lft.to/lastmile_qr_scan", "ios": "https://dc.lft.to/lastmile_qr_scan"}, "fusion_lon": 0.0, "lat": 38.89234033333334, "bike_id": "7325a2528390e9dadc901267fa723be4", "type": "electric_scooter", "is_reserved": 0, "lon": -77.03210883333334}, {"fusion_lat": 0.0, "name": "e75292e46383e114ef107ada14a3b4be", "is_disabled": 0, "rental_uris": {"android": "https://dc.lft.to/lastmile_qr_scan", "ios": "https://dc.lft.to/lastmile_qr_scan"}, "fusion_lon": 0.0, "lat": 38.887262666666665, "bike_id": "e75292e46383e114ef107ada14a3b4be", "type": "electric_scooter", "is_reserved": 0, "lon": -77.0133095}, {"fusion_lat": 0.0, "name": "592820cebd9a81a0d34f4c0cbfb757d5", "is_disabled": 0, "rental_uris": {"android": "https://dc.lft.to/lastmile_qr_scan", "ios": "https://dc.lft.to/lastmile_qr_scan"}, "fusion_lon": 0.0, "lat": 38.9465825, "bike_id": "592820cebd9a81a0d34f4c0cbfb757d5", "type": "electric_bike", "is_reserved": 0, "lon": -77.007037}, {"fusion_lat": 0.0, "name": "27baf5f46ed314b866e8fbc647ed0396", "is_disabled": 0, "rental_uris": {"android": "https://dc.lft.to/lastmile_qr_scan", "ios": "https://dc.lft.to/lastmile_qr_scan"}, "fusion_lon": 0.0, "lat": 38.995519333333334, "bike_id": "27baf5f46ed314b866e8fbc647ed0396", "type": "electric_bike", "is_reserved": 0, "lon": -77.07463916666667}, {"fusion_lat": 0.0, "name": "ebcfc12a3ba0598192c7d862ccdc053e", "is_disabled": 0, "rental_uris": {"android": "https://dc.lft.to/lastmile_qr_scan", "ios": "https://dc.lft.to/lastmile_qr_scan"}, "fusion_lon": 0.0, "lat": 38.881206666666664, "bike_id": "ebcfc12a3ba0598192c7d862ccdc053e", "type": "electric_scooter", "is_reserved": 0, "lon": -76.9984925}, {"fusion_lat": 0.0, "name": "efc7f7f9b070c6dd38b84120328242c0", "is_disabled": 0, "rental_uris": {"android": "https://dc.lft.to/lastmile_qr_scan", "ios": "https://dc.lft.to/lastmile_qr_scan"}, "fusion_lon": 0.0, "lat": 38.91255816666666, "bike_id": "efc7f7f9b070c6dd38b84120328242c0", "type": "electric_scooter", "is_reserved": 0, "lon": -77.00775466666667}, {"fusion_lat": 0.0, "name": "7d995bb2216559c01117c7329d4ee737", "is_disabled": 0, "rental_uris": {"android": "https://dc.lft.to/lastmile_qr_scan", "ios": "https://dc.lft.to/lastmile_qr_scan"}, "fusion_lon": 0.0, "lat": 38.901347333333334, "bike_id": "7d995bb2216559c01117c7329d4ee737", "type": "electric_scooter", "is_reserved": 0, "lon": -76.99047116666667}, {"fusion_lat": 0.0, "name": "e20eb51ef99839e0e39e14cb9c40ff03", "is_disabled": 0, "rental_uris": {"android": "https://dc.lft.to/lastmile_qr_scan", "ios": "https://dc.lft.to/lastmile_qr_scan"}, "fusion_lon": 0.0, "lat": 38.91519516666666, "bike_id": "e20eb51ef99839e0e39e14cb9c40ff03", "type": "electric_scooter", "is_reserved": 0, "lon": -77.01328916666667}, {"fusion_lat": 0.0, "name": "91e90709411b83062910d434b66cfc55", "is_disabled": 0, "rental_uris": {"android": "https://dc.lft.to/lastmile_qr_scan", "ios": "https://dc.lft.to/lastmile_qr_scan"}, "fusion_lon": 0.0, "lat": 38.992269666666665, "bike_id": "91e90709411b83062910d434b66cfc55", "type": "electric_bike", "is_reserved": 0, "lon": -76.9442935}, {"fusion_lat": 0.0, "name": "51365a88edf04b14a8bbec04ef6c72a5", "is_disabled": 0, "rental_uris": {"android": "https://dc.lft.to/lastmile_qr_scan", "ios": "https://dc.lft.to/lastmile_qr_scan"}, "fusion_lon": 0.0, "lat": 38.855273333333336, "bike_id": "51365a88edf04b14a8bbec04ef6c72a5", "type": "electric_bike", "is_reserved": 0, "lon": -77.12020133333333}, {"fusion_lat": 0.0, "name": "ef50d90a01d7cee3cfcb041330fdd4ed", "is_disabled": 0, "rental_uris": {"android": "https://dc.lft.to/lastmile_qr_scan", "ios": "https://dc.lft.to/lastmile_qr_scan"}, "fusion_lon": 0.0, "lat": 38.9223085, "bike_id": "ef50d90a01d7cee3cfcb041330fdd4ed", "type": "electric_scooter", "is_reserved": 0, "lon": -77.04642116666666}, {"fusion_lat": 0.0, "name": "fe08982beb84e562bae5ec24857119c9", "is_disabled": 0, "rental_uris": {"android": "https://dc.lft.to/lastmile_qr_scan", "ios": "https://dc.lft.to/lastmile_qr_scan"}, "fusion_lon": 0.0, "lat": 38.91711033333333, "bike_id": "fe08982beb84e562bae5ec24857119c9", "type": "electric_scooter", "is_reserved": 0, "lon": -77.02728533333334}, {"fusion_lat": 0.0, "name": "a72c130fdc4fe4769da2cc552b4bbc40", "is_disabled": 0, "rental_uris": {"android": "https://dc.lft.to/lastmile_qr_scan", "ios": "https://dc.lft.to/lastmile_qr_scan"}, "fusion_lon": 0.0, "lat": 38.952813666666664, "bike_id": "a72c130fdc4fe4769da2cc552b4bbc40", "type": "electric_scooter", "is_reserved": 0, "lon": -77.036483}, {"fusion_lat": 0.0, "name": "9522169aa8693163206e3179de8e39fd", "is_disabled": 0, "rental_uris": {"android": "https://dc.lft.to/lastmile_qr_scan", "ios": "https://dc.lft.to/lastmile_qr_scan"}, "fusion_lon": 0.0, "lat": 38.9042415, "bike_id": "9522169aa8693163206e3179de8e39fd", "type": "electric_scooter", "is_reserved": 0, "lon": -77.02671516666666}, {"fusion_lat": 0.0, "name": "a198b2f6962f796269fabd8f6afc1fdd", "is_disabled": 0, "rental_uris": {"android": "https://dc.lft.to/lastmile_qr_scan", "ios": "https://dc.lft.to/lastmile_qr_scan"}, "fusion_lon": 0.0, "lat": 39.01414716666667, "bike_id": "a198b2f6962f796269fabd8f6afc1fdd", "type": "electric_bike", "is_reserved": 0, "lon": -77.04499216666666}, {"fusion_lat": 0.0, "name": "528f61cd067ae209133157f852c5747e", "is_disabled": 0, "rental_uris": {"android": "https://dc.lft.to/lastmile_qr_scan", "ios": "https://dc.lft.to/lastmile_qr_scan"}, "fusion_lon": 0.0, "lat": 38.9319195, "bike_id": "528f61cd067ae209133157f852c5747e", "type": "electric_scooter", "is_reserved": 0, "lon": -77.02972883333334}, {"fusion_lat": 0.0, "name": "dc25a65581b19b62068a890f9f53c094", "is_disabled": 0, "rental_uris": {"android": "https://dc.lft.to/lastmile_qr_scan", "ios": "https://dc.lft.to/lastmile_qr_scan"}, "fusion_lon": 0.0, "lat": 38.92709516666667, "bike_id": "dc25a65581b19b62068a890f9f53c094", "type": "electric_scooter", "is_reserved": 0, "lon": -77.0208225}, {"fusion_lat": 0.0, "name": "afb76ca4c526a987fc92300ca706f95c", "is_disabled": 0, "rental_uris": {"android": "https://dc.lft.to/lastmile_qr_scan", "ios": "https://dc.lft.to/lastmile_qr_scan"}, "fusion_lon": 0.0, "lat": 38.900666, "bike_id": "afb76ca4c526a987fc92300ca706f95c", "type": "electric_scooter", "is_reserved": 0, "lon": -76.9871095}, {"fusion_lat": 0.0, "name": "de340f9b5359bf0db24deabaf9967a98", "is_disabled": 0, "rental_uris": {"android": "https://dc.lft.to/lastmile_qr_scan", "ios": "https://dc.lft.to/lastmile_qr_scan"}, "fusion_lon": 0.0, "lat": 38.885092, "bike_id": "de340f9b5359bf0db24deabaf9967a98", "type": "electric_scooter", "is_reserved": 0, "lon": -76.99752933333333}, {"fusion_lat": 0.0, "name": "b8c71bcaf55eebfb17666d78ee8847c4", "is_disabled": 0, "rental_uris": {"android": "https://dc.lft.to/lastmile_qr_scan", "ios": "https://dc.lft.to/lastmile_qr_scan"}, "fusion_lon": 0.0, "lat": 38.887246, "bike_id": "b8c71bcaf55eebfb17666d78ee8847c4", "type": "electric_scooter", "is_reserved": 0, "lon": -77.02187916666666}, {"fusion_lat": 0.0, "name": "5f3a580c447898f4cc256195034c8a81", "is_disabled": 0, "rental_uris": {"android": "https://dc.lft.to/lastmile_qr_scan", "ios": "https://dc.lft.to/lastmile_qr_scan"}, "fusion_lon": 0.0, "lat": 38.8491595, "bike_id": "5f3a580c447898f4cc256195034c8a81", "type": "electric_bike", "is_reserved": 0, "lon": -77.07927733333334}, {"fusion_lat": 0.0, "name": "334726e8531e8b8105c1ba6c49be434e", "is_disabled": 0, "rental_uris": {"android": "https://dc.lft.to/lastmile_qr_scan", "ios": "https://dc.lft.to/lastmile_qr_scan"}, "fusion_lon": 0.0, "lat": 38.816083666666664, "bike_id": "334726e8531e8b8105c1ba6c49be434e", "type": "electric_bike", "is_reserved": 0, "lon": -76.99652216666667}, {"fusion_lat": 0.0, "name": "ab42fcdf2e8f951f9e9ef373cae1dd0c", "is_disabled": 0, "rental_uris": {"android": "https://dc.lft.to/lastmile_qr_scan", "ios": "https://dc.lft.to/lastmile_qr_scan"}, "fusion_lon": 0.0, "lat": 38.906034166666664, "bike_id": "ab42fcdf2e8f951f9e9ef373cae1dd0c", "type": "electric_scooter", "is_reserved": 0, "lon": -77.044992}, {"fusion_lat": 0.0, "name": "6197083f5f1253801bc7b8ba56ab48cc", "is_disabled": 0, "rental_uris": {"android": "https://dc.lft.to/lastmile_qr_scan", "ios": "https://dc.lft.to/lastmile_qr_scan"}, "fusion_lon": 0.0, "lat": 38.87764383333333, "bike_id": "6197083f5f1253801bc7b8ba56ab48cc", "type": "electric_scooter", "is_reserved": 0, "lon": -76.9942255}, {"fusion_lat": 0.0, "name": "38b34791786b54d215230a85b16eea2a", "is_disabled": 0, "rental_uris": {"android": "https://dc.lft.to/lastmile_qr_scan", "ios": "https://dc.lft.to/lastmile_qr_scan"}, "fusion_lon": 0.0, "lat": 38.90719266666667, "bike_id": "38b34791786b54d215230a85b16eea2a", "type": "electric_scooter", "is_reserved": 0, "lon": -77.0513215}, {"fusion_lat": 0.0, "name": "9f9dd22a5705d74bde77231c28298991", "is_disabled": 0, "rental_uris": {"android": "https://dc.lft.to/lastmile_qr_scan", "ios": "https://dc.lft.to/lastmile_qr_scan"}, "fusion_lon": 0.0, "lat": 38.9186475, "bike_id": "9f9dd22a5705d74bde77231c28298991", "type": "electric_scooter", "is_reserved": 0, "lon": -76.96555566666666}, {"fusion_lat": 0.0, "name": "133a16aad8f20a6f24e669f8bfacb8c1", "is_disabled": 0, "rental_uris": {"android": "https://dc.lft.to/lastmile_qr_scan", "ios": "https://dc.lft.to/lastmile_qr_scan"}, "fusion_lon": 0.0, "lat": 38.892307, "bike_id": "133a16aad8f20a6f24e669f8bfacb8c1", "type": "electric_scooter", "is_reserved": 0, "lon": -77.02826733333333}, {"fusion_lat": 0.0, "name": "a0c6e2c0931ab05cb357eb6bb9de5a90", "is_disabled": 0, "rental_uris": {"android": "https://dc.lft.to/lastmile_qr_scan", "ios": "https://dc.lft.to/lastmile_qr_scan"}, "fusion_lon": 0.0, "lat": 38.933089, "bike_id": "a0c6e2c0931ab05cb357eb6bb9de5a90", "type": "electric_scooter", "is_reserved": 0, "lon": -77.03078033333334}, {"fusion_lat": 0.0, "name": "94724237e0373711e626547cd7322a5e", "is_disabled": 0, "rental_uris": {"android": "https://dc.lft.to/lastmile_qr_scan", "ios": "https://dc.lft.to/lastmile_qr_scan"}, "fusion_lon": 0.0, "lat": 38.899469, "bike_id": "94724237e0373711e626547cd7322a5e", "type": "electric_scooter", "is_reserved": 0, "lon": -77.041492}, {"fusion_lat": 0.0, "name": "e4b4d7879ec17cdab4104c54abc62b63", "is_disabled": 0, "rental_uris": {"android": "https://dc.lft.to/lastmile_qr_scan", "ios": "https://dc.lft.to/lastmile_qr_scan"}, "fusion_lon": 0.0, "lat": 38.90571966666667, "bike_id": "e4b4d7879ec17cdab4104c54abc62b63", "type": "electric_scooter", "is_reserved": 0, "lon": -77.0384755}, {"fusion_lat": 0.0, "name": "4c4cbcfe19668df7d6986d0545e58b4b", "is_disabled": 0, "rental_uris": {"android": "https://dc.lft.to/lastmile_qr_scan", "ios": "https://dc.lft.to/lastmile_qr_scan"}, "fusion_lon": 0.0, "lat": 38.900489666666665, "bike_id": "4c4cbcfe19668df7d6986d0545e58b4b", "type": "electric_scooter", "is_reserved": 0, "lon": -77.03987633333334}, {"fusion_lat": 0.0, "name": "4182d1eec18f847c1b7ebae1662a9b31", "is_disabled": 0, "rental_uris": {"android": "https://dc.lft.to/lastmile_qr_scan", "ios": "https://dc.lft.to/lastmile_qr_scan"}, "fusion_lon": 0.0, "lat": 38.91131933333333, "bike_id": "4182d1eec18f847c1b7ebae1662a9b31", "type": "electric_scooter", "is_reserved": 0, "lon": -77.00362}, {"fusion_lat": 0.0, "name": "368638eb2691308afa73df761bfdcdba", "is_disabled": 0, "rental_uris": {"android": "https://dc.lft.to/lastmile_qr_scan", "ios": "https://dc.lft.to/lastmile_qr_scan"}, "fusion_lon": 0.0, "lat": 38.89206683333333, "bike_id": "368638eb2691308afa73df761bfdcdba", "type": "electric_scooter", "is_reserved": 0, "lon": -76.97707516666667}, {"fusion_lat": 0.0, "name": "ae59f8cc8d50ad465c6e2a2d865c05a5", "is_disabled": 0, "rental_uris": {"android": "https://dc.lft.to/lastmile_qr_scan", "ios": "https://dc.lft.to/lastmile_qr_scan"}, "fusion_lon": 0.0, "lat": 38.90537533333333, "bike_id": "ae59f8cc8d50ad465c6e2a2d865c05a5", "type": "electric_scooter", "is_reserved": 0, "lon": -77.05655866666666}, {"fusion_lat": 0.0, "name": "95838c8e7fd3523b7ac018c055248a6e", "is_disabled": 0, "rental_uris": {"android": "https://dc.lft.to/lastmile_qr_scan", "ios": "https://dc.lft.to/lastmile_qr_scan"}, "fusion_lon": 0.0, "lat": 38.938486833333336, "bike_id": "95838c8e7fd3523b7ac018c055248a6e", "type": "electric_scooter", "is_reserved": 0, "lon": -77.06250116666666}, {"fusion_lat": 0.0, "name": "73adafc1512c3db5d83d554bbc7e25fc", "is_disabled": 0, "rental_uris": {"android": "https://dc.lft.to/lastmile_qr_scan", "ios": "https://dc.lft.to/lastmile_qr_scan"}, "fusion_lon": 0.0, "lat": 38.903190333333335, "bike_id": "73adafc1512c3db5d83d554bbc7e25fc", "type": "electric_scooter", "is_reserved": 0, "lon": -77.045007}, {"fusion_lat": 0.0, "name": "514ae560b2ba7396c45cf3d5698f3343", "is_disabled": 0, "rental_uris": {"android": "https://dc.lft.to/lastmile_qr_scan", "ios": "https://dc.lft.to/lastmile_qr_scan"}, "fusion_lon": 0.0, "lat": 38.95338866666667, "bike_id": "514ae560b2ba7396c45cf3d5698f3343", "type": "electric_bike", "is_reserved": 0, "lon": -76.98257866666667}, {"fusion_lat": 0.0, "name": "bb8bee034ce457768d87d9d3a789743f", "is_disabled": 0, "rental_uris": {"android": "https://dc.lft.to/lastmile_qr_scan", "ios": "https://dc.lft.to/lastmile_qr_scan"}, "fusion_lon": 0.0, "lat": 38.90032683333333, "bike_id": "bb8bee034ce457768d87d9d3a789743f", "type": "electric_scooter", "is_reserved": 0, "lon": -77.00030766666667}, {"fusion_lat": 0.0, "name": "553ccdfca677c2a071c42ee6a91325d4", "is_disabled": 0, "rental_uris": {"android": "https://dc.lft.to/lastmile_qr_scan", "ios": "https://dc.lft.to/lastmile_qr_scan"}, "fusion_lon": 0.0, "lat": 38.92004683333333, "bike_id": "553ccdfca677c2a071c42ee6a91325d4", "type": "electric_scooter", "is_reserved": 0, "lon": -77.07132216666666}, {"fusion_lat": 0.0, "name": "5c0ae791fdbeea3939c6c0a70277acc6", "is_disabled": 0, "rental_uris": {"android": "https://dc.lft.to/lastmile_qr_scan", "ios": "https://dc.lft.to/lastmile_qr_scan"}, "fusion_lon": 0.0, "lat": 38.925106, "bike_id": "5c0ae791fdbeea3939c6c0a70277acc6", "type": "electric_scooter", "is_reserved": 0, "lon": -77.00217066666667}, {"fusion_lat": 0.0, "name": "d6ccede44860fa2fc3e8f529eabab223", "is_disabled": 0, "rental_uris": {"android": "https://dc.lft.to/lastmile_qr_scan", "ios": "https://dc.lft.to/lastmile_qr_scan"}, "fusion_lon": 0.0, "lat": 38.91596716666667, "bike_id": "d6ccede44860fa2fc3e8f529eabab223", "type": "electric_scooter", "is_reserved": 0, "lon": -77.04020766666666}, {"fusion_lat": 0.0, "name": "c714f3156d2f45b3e7375d074eee3a28", "is_disabled": 0, "rental_uris": {"android": "https://dc.lft.to/lastmile_qr_scan", "ios": "https://dc.lft.to/lastmile_qr_scan"}, "fusion_lon": 0.0, "lat": 38.905995, "bike_id": "c714f3156d2f45b3e7375d074eee3a28", "type": "electric_scooter", "is_reserved": 0, "lon": -77.056918}, {"fusion_lat": 0.0, "name": "ef659fff81a306c218f3e3a6ded4f395", "is_disabled": 0, "rental_uris": {"android": "https://dc.lft.to/lastmile_qr_scan", "ios": "https://dc.lft.to/lastmile_qr_scan"}, "fusion_lon": 0.0, "lat": 38.92042883333333, "bike_id": "ef659fff81a306c218f3e3a6ded4f395", "type": "electric_scooter", "is_reserved": 0, "lon": -77.01788933333333}, {"fusion_lat": 0.0, "name": "473cf4d89b0c8bd3ccb28a2483673b78", "is_disabled": 0, "rental_uris": {"android": "https://dc.lft.to/lastmile_qr_scan", "ios": "https://dc.lft.to/lastmile_qr_scan"}, "fusion_lon": 0.0, "lat": 38.90565383333333, "bike_id": "473cf4d89b0c8bd3ccb28a2483673b78", "type": "electric_scooter", "is_reserved": 0, "lon": -77.0060415}, {"fusion_lat": 0.0, "name": "fd1c46bbec40337c57e5c5cbb57f53b5", "is_disabled": 0, "rental_uris": {"android": "https://dc.lft.to/lastmile_qr_scan", "ios": "https://dc.lft.to/lastmile_qr_scan"}, "fusion_lon": 0.0, "lat": 38.90650816666667, "bike_id": "fd1c46bbec40337c57e5c5cbb57f53b5", "type": "electric_scooter", "is_reserved": 0, "lon": -77.01141966666667}, {"fusion_lat": 0.0, "name": "a808e908c3043beb5a3f112cba74ed9e", "is_disabled": 0, "rental_uris": {"android": "https://dc.lft.to/lastmile_qr_scan", "ios": "https://dc.lft.to/lastmile_qr_scan"}, "fusion_lon": 0.0, "lat": 38.92323366666667, "bike_id": "a808e908c3043beb5a3f112cba74ed9e", "type": "electric_scooter", "is_reserved": 0, "lon": -77.02132333333333}, {"fusion_lat": 0.0, "name": "98a9f5ce762f605cf5c5da9f2419724b", "is_disabled": 0, "rental_uris": {"android": "https://dc.lft.to/lastmile_qr_scan", "ios": "https://dc.lft.to/lastmile_qr_scan"}, "fusion_lon": 0.0, "lat": 38.925140166666665, "bike_id": "98a9f5ce762f605cf5c5da9f2419724b", "type": "electric_scooter", "is_reserved": 0, "lon": -77.00223633333333}, {"fusion_lat": 0.0, "name": "8e24a14272f6996b0f954e80e9250b29", "is_disabled": 0, "rental_uris": {"android": "https://dc.lft.to/lastmile_qr_scan", "ios": "https://dc.lft.to/lastmile_qr_scan"}, "fusion_lon": 0.0, "lat": 38.840927666666666, "bike_id": "8e24a14272f6996b0f954e80e9250b29", "type": "electric_bike", "is_reserved": 0, "lon": -76.97026966666667}, {"fusion_lat": 0.0, "name": "5e76a29d8da5b4cd9de5fbccdd5ce5e8", "is_disabled": 0, "rental_uris": {"android": "https://dc.lft.to/lastmile_qr_scan", "ios": "https://dc.lft.to/lastmile_qr_scan"}, "fusion_lon": 0.0, "lat": 38.9241605, "bike_id": "5e76a29d8da5b4cd9de5fbccdd5ce5e8", "type": "electric_scooter", "is_reserved": 0, "lon": -77.03640116666666}, {"fusion_lat": 0.0, "name": "482bc93be423546e69cc355dd4540c9f", "is_disabled": 0, "rental_uris": {"android": "https://dc.lft.to/lastmile_qr_scan", "ios": "https://dc.lft.to/lastmile_qr_scan"}, "fusion_lon": 0.0, "lat": 38.855461166666664, "bike_id": "482bc93be423546e69cc355dd4540c9f", "type": "electric_scooter", "is_reserved": 0, "lon": -76.98759683333333}, {"fusion_lat": 0.0, "name": "ef7385cbebadf05ef6ca65da5c1c301a", "is_disabled": 0, "rental_uris": {"android": "https://dc.lft.to/lastmile_qr_scan", "ios": "https://dc.lft.to/lastmile_qr_scan"}, "fusion_lon": 0.0, "lat": 38.9034575, "bike_id": "ef7385cbebadf05ef6ca65da5c1c301a", "type": "electric_scooter", "is_reserved": 0, "lon": -76.974761}, {"fusion_lat": 0.0, "name": "09f5e22a65ec01952079bd9c14286573", "is_disabled": 0, "rental_uris": {"android": "https://dc.lft.to/lastmile_qr_scan", "ios": "https://dc.lft.to/lastmile_qr_scan"}, "fusion_lon": 0.0, "lat": 38.88309366666667, "bike_id": "09f5e22a65ec01952079bd9c14286573", "type": "electric_scooter", "is_reserved": 0, "lon": -77.01374266666667}, {"fusion_lat": 0.0, "name": "79936e267300895ffa65b4e8a8b1c696", "is_disabled": 0, "rental_uris": {"android": "https://dc.lft.to/lastmile_qr_scan", "ios": "https://dc.lft.to/lastmile_qr_scan"}, "fusion_lon": 0.0, "lat": 38.89527, "bike_id": "79936e267300895ffa65b4e8a8b1c696", "type": "electric_scooter", "is_reserved": 0, "lon": -77.02676933333333}, {"fusion_lat": 0.0, "name": "afa5ce5b7820121778ddb7895eb36861", "is_disabled": 0, "rental_uris": {"android": "https://dc.lft.to/lastmile_qr_scan", "ios": "https://dc.lft.to/lastmile_qr_scan"}, "fusion_lon": 0.0, "lat": 38.90761416666667, "bike_id": "afa5ce5b7820121778ddb7895eb36861", "type": "electric_scooter", "is_reserved": 0, "lon": -77.06282683333333}, {"fusion_lat": 0.0, "name": "71a194e625808e6ddedb93c459693b7b", "is_disabled": 0, "rental_uris": {"android": "https://dc.lft.to/lastmile_qr_scan", "ios": "https://dc.lft.to/lastmile_qr_scan"}, "fusion_lon": 0.0, "lat": 38.9179325, "bike_id": "71a194e625808e6ddedb93c459693b7b", "type": "electric_scooter", "is_reserved": 0, "lon": -77.03457266666666}, {"fusion_lat": 0.0, "name": "749da0c3743aa4b6f269fb7d9d25d00e", "is_disabled": 0, "rental_uris": {"android": "https://dc.lft.to/lastmile_qr_scan", "ios": "https://dc.lft.to/lastmile_qr_scan"}, "fusion_lon": 0.0, "lat": 38.91859816666667, "bike_id": "749da0c3743aa4b6f269fb7d9d25d00e", "type": "electric_scooter", "is_reserved": 0, "lon": -77.03493966666667}, {"fusion_lat": 0.0, "name": "1784588d4f75fd59e5d32e1857758d3a", "is_disabled": 0, "rental_uris": {"android": "https://dc.lft.to/lastmile_qr_scan", "ios": "https://dc.lft.to/lastmile_qr_scan"}, "fusion_lon": 0.0, "lat": 38.909806333333336, "bike_id": "1784588d4f75fd59e5d32e1857758d3a", "type": "electric_scooter", "is_reserved": 0, "lon": -77.04865566666666}, {"fusion_lat": 0.0, "name": "9605ddbb26c3543988ec8e48e9f78c46", "is_disabled": 0, "rental_uris": {"android": "https://dc.lft.to/lastmile_qr_scan", "ios": "https://dc.lft.to/lastmile_qr_scan"}, "fusion_lon": 0.0, "lat": 38.92390433333333, "bike_id": "9605ddbb26c3543988ec8e48e9f78c46", "type": "electric_scooter", "is_reserved": 0, "lon": -77.03660033333334}, {"fusion_lat": 0.0, "name": "cc9c951633285d3730bbfe5f7bec9fcf", "is_disabled": 0, "rental_uris": {"android": "https://dc.lft.to/lastmile_qr_scan", "ios": "https://dc.lft.to/lastmile_qr_scan"}, "fusion_lon": 0.0, "lat": 38.93262983333334, "bike_id": "cc9c951633285d3730bbfe5f7bec9fcf", "type": "electric_scooter", "is_reserved": 0, "lon": -77.03449016666667}, {"fusion_lat": 0.0, "name": "0e3f1a22e66fb96a5db179e67bded1a2", "is_disabled": 0, "rental_uris": {"android": "https://dc.lft.to/lastmile_qr_scan", "ios": "https://dc.lft.to/lastmile_qr_scan"}, "fusion_lon": 0.0, "lat": 38.92115883333334, "bike_id": "0e3f1a22e66fb96a5db179e67bded1a2", "type": "electric_scooter", "is_reserved": 0, "lon": -77.04206383333333}, {"fusion_lat": 0.0, "name": "9741db036afeb45b6c63a43371f86fa1", "is_disabled": 0, "rental_uris": {"android": "https://dc.lft.to/lastmile_qr_scan", "ios": "https://dc.lft.to/lastmile_qr_scan"}, "fusion_lon": 0.0, "lat": 38.9343205, "bike_id": "9741db036afeb45b6c63a43371f86fa1", "type": "electric_scooter", "is_reserved": 0, "lon": -77.0399775}, {"fusion_lat": 0.0, "name": "a35cdc30ced80246db428c105a5610b8", "is_disabled": 0, "rental_uris": {"android": "https://dc.lft.to/lastmile_qr_scan", "ios": "https://dc.lft.to/lastmile_qr_scan"}, "fusion_lon": 0.0, "lat": 38.83553033333333, "bike_id": "a35cdc30ced80246db428c105a5610b8", "type": "electric_bike", "is_reserved": 0, "lon": -76.98724566666667}, {"fusion_lat": 0.0, "name": "738818c75604a8f90dd3cf9eb7fa6a57", "is_disabled": 0, "rental_uris": {"android": "https://dc.lft.to/lastmile_qr_scan", "ios": "https://dc.lft.to/lastmile_qr_scan"}, "fusion_lon": 0.0, "lat": 38.902551, "bike_id": "738818c75604a8f90dd3cf9eb7fa6a57", "type": "electric_scooter", "is_reserved": 0, "lon": -77.04694}, {"fusion_lat": 0.0, "name": "6bdb060c19d289d948df60bbccad7462", "is_disabled": 0, "rental_uris": {"android": "https://dc.lft.to/lastmile_qr_scan", "ios": "https://dc.lft.to/lastmile_qr_scan"}, "fusion_lon": 0.0, "lat": 38.900672166666666, "bike_id": "6bdb060c19d289d948df60bbccad7462", "type": "electric_scooter", "is_reserved": 0, "lon": -76.93388}, {"fusion_lat": 0.0, "name": "5a77d4b24d6e871dc35805391c5b81e2", "is_disabled": 0, "rental_uris": {"android": "https://dc.lft.to/lastmile_qr_scan", "ios": "https://dc.lft.to/lastmile_qr_scan"}, "fusion_lon": 0.0, "lat": 38.89240016666667, "bike_id": "5a77d4b24d6e871dc35805391c5b81e2", "type": "electric_scooter", "is_reserved": 0, "lon": -77.03348766666667}, {"fusion_lat": 0.0, "name": "be2ed80404b818e206483ca0d55d4b10", "is_disabled": 0, "rental_uris": {"android": "https://dc.lft.to/lastmile_qr_scan", "ios": "https://dc.lft.to/lastmile_qr_scan"}, "fusion_lon": 0.0, "lat": 38.92241833333333, "bike_id": "be2ed80404b818e206483ca0d55d4b10", "type": "electric_scooter", "is_reserved": 0, "lon": -77.04251183333334}, {"fusion_lat": 0.0, "name": "a1eecdfd019037103cc21f3438a191d9", "is_disabled": 0, "rental_uris": {"android": "https://dc.lft.to/lastmile_qr_scan", "ios": "https://dc.lft.to/lastmile_qr_scan"}, "fusion_lon": 0.0, "lat": 38.94828166666667, "bike_id": "a1eecdfd019037103cc21f3438a191d9", "type": "electric_scooter", "is_reserved": 0, "lon": -77.02617166666667}, {"fusion_lat": 0.0, "name": "1602848755302b0bdb850c98c26b9024", "is_disabled": 0, "rental_uris": {"android": "https://dc.lft.to/lastmile_qr_scan", "ios": "https://dc.lft.to/lastmile_qr_scan"}, "fusion_lon": 0.0, "lat": 38.90564666666667, "bike_id": "1602848755302b0bdb850c98c26b9024", "type": "electric_scooter", "is_reserved": 0, "lon": -77.00601283333333}, {"fusion_lat": 0.0, "name": "1fec5a4f7c97970edc772155a261cc2d", "is_disabled": 0, "rental_uris": {"android": "https://dc.lft.to/lastmile_qr_scan", "ios": "https://dc.lft.to/lastmile_qr_scan"}, "fusion_lon": 0.0, "lat": 38.88102583333333, "bike_id": "1fec5a4f7c97970edc772155a261cc2d", "type": "electric_scooter", "is_reserved": 0, "lon": -76.98666466666667}, {"fusion_lat": 0.0, "name": "3549af72967a1b2d280e5aed650681a0", "is_disabled": 0, "rental_uris": {"android": "https://dc.lft.to/lastmile_qr_scan", "ios": "https://dc.lft.to/lastmile_qr_scan"}, "fusion_lon": 0.0, "lat": 38.88610666666667, "bike_id": "3549af72967a1b2d280e5aed650681a0", "type": "electric_scooter", "is_reserved": 0, "lon": -77.01553716666666}, {"fusion_lat": 0.0, "name": "0c9b779388847415140c855c32583f6c", "is_disabled": 0, "rental_uris": {"android": "https://dc.lft.to/lastmile_qr_scan", "ios": "https://dc.lft.to/lastmile_qr_scan"}, "fusion_lon": 0.0, "lat": 38.92059283333333, "bike_id": "0c9b779388847415140c855c32583f6c", "type": "electric_scooter", "is_reserved": 0, "lon": -77.0425485}, {"fusion_lat": 0.0, "name": "01d0c0941402e8c807189c4aac5c3492", "is_disabled": 0, "rental_uris": {"android": "https://dc.lft.to/lastmile_qr_scan", "ios": "https://dc.lft.to/lastmile_qr_scan"}, "fusion_lon": 0.0, "lat": 38.8832425, "bike_id": "01d0c0941402e8c807189c4aac5c3492", "type": "electric_scooter", "is_reserved": 0, "lon": -77.0176425}, {"fusion_lat": 0.0, "name": "dc0d227b1a5862f0161d9b5f27cc28f7", "is_disabled": 0, "rental_uris": {"android": "https://dc.lft.to/lastmile_qr_scan", "ios": "https://dc.lft.to/lastmile_qr_scan"}, "fusion_lon": 0.0, "lat": 38.931891666666665, "bike_id": "dc0d227b1a5862f0161d9b5f27cc28f7", "type": "electric_bike", "is_reserved": 0, "lon": -77.22924533333334}, {"fusion_lat": 0.0, "name": "0467ecac2f69db75a5708317de8f939d", "is_disabled": 0, "rental_uris": {"android": "https://dc.lft.to/lastmile_qr_scan", "ios": "https://dc.lft.to/lastmile_qr_scan"}, "fusion_lon": 0.0, "lat": 38.813353, "bike_id": "0467ecac2f69db75a5708317de8f939d", "type": "electric_bike", "is_reserved": 0, "lon": -77.05094}, {"fusion_lat": 0.0, "name": "69510bae6897cba456c70f6fb2d01c3e", "is_disabled": 0, "rental_uris": {"android": "https://dc.lft.to/lastmile_qr_scan", "ios": "https://dc.lft.to/lastmile_qr_scan"}, "fusion_lon": 0.0, "lat": 38.92474633333333, "bike_id": "69510bae6897cba456c70f6fb2d01c3e", "type": "electric_scooter", "is_reserved": 0, "lon": -77.02627166666667}, {"fusion_lat": 0.0, "name": "7984681572c3a1d49a0fd77aeab5ba11", "is_disabled": 0, "rental_uris": {"android": "https://dc.lft.to/lastmile_qr_scan", "ios": "https://dc.lft.to/lastmile_qr_scan"}, "fusion_lon": 0.0, "lat": 38.900355833333336, "bike_id": "7984681572c3a1d49a0fd77aeab5ba11", "type": "electric_scooter", "is_reserved": 0, "lon": -77.00225333333333}, {"fusion_lat": 0.0, "name": "ad8ea33dd134a8aa2c780da5f31d1de8", "is_disabled": 0, "rental_uris": {"android": "https://dc.lft.to/lastmile_qr_scan", "ios": "https://dc.lft.to/lastmile_qr_scan"}, "fusion_lon": 0.0, "lat": 38.89259416666667, "bike_id": "ad8ea33dd134a8aa2c780da5f31d1de8", "type": "electric_scooter", "is_reserved": 0, "lon": -77.0259075}, {"fusion_lat": 0.0, "name": "18f07db626d36b4e3badc97ab0ee8306", "is_disabled": 0, "rental_uris": {"android": "https://dc.lft.to/lastmile_qr_scan", "ios": "https://dc.lft.to/lastmile_qr_scan"}, "fusion_lon": 0.0, "lat": 38.922513333333335, "bike_id": "18f07db626d36b4e3badc97ab0ee8306", "type": "electric_scooter", "is_reserved": 0, "lon": -77.074715}, {"fusion_lat": 0.0, "name": "99a08bc6687acbd31883ae9924023535", "is_disabled": 0, "rental_uris": {"android": "https://dc.lft.to/lastmile_qr_scan", "ios": "https://dc.lft.to/lastmile_qr_scan"}, "fusion_lon": 0.0, "lat": 38.935207, "bike_id": "99a08bc6687acbd31883ae9924023535", "type": "electric_scooter", "is_reserved": 0, "lon": -77.03269583333334}, {"fusion_lat": 0.0, "name": "f8f461086cd7871213831ba4685923c1", "is_disabled": 0, "rental_uris": {"android": "https://dc.lft.to/lastmile_qr_scan", "ios": "https://dc.lft.to/lastmile_qr_scan"}, "fusion_lon": 0.0, "lat": 38.918223166666664, "bike_id": "f8f461086cd7871213831ba4685923c1", "type": "electric_scooter", "is_reserved": 0, "lon": -77.02531783333333}, {"fusion_lat": 0.0, "name": "26129b7ce4e871a12b7960ac25fc0121", "is_disabled": 0, "rental_uris": {"android": "https://dc.lft.to/lastmile_qr_scan", "ios": "https://dc.lft.to/lastmile_qr_scan"}, "fusion_lon": 0.0, "lat": 38.926106, "bike_id": "26129b7ce4e871a12b7960ac25fc0121", "type": "electric_scooter", "is_reserved": 0, "lon": -77.03966466666667}, {"fusion_lat": 0.0, "name": "d2695480ee85cd3e6f5a2dc6d788e8fc", "is_disabled": 0, "rental_uris": {"android": "https://dc.lft.to/lastmile_qr_scan", "ios": "https://dc.lft.to/lastmile_qr_scan"}, "fusion_lon": 0.0, "lat": 38.890091, "bike_id": "d2695480ee85cd3e6f5a2dc6d788e8fc", "type": "electric_scooter", "is_reserved": 0, "lon": -76.93736266666667}, {"fusion_lat": 0.0, "name": "608d1e079fab016a04e562c3b72bb9cf", "is_disabled": 0, "rental_uris": {"android": "https://dc.lft.to/lastmile_qr_scan", "ios": "https://dc.lft.to/lastmile_qr_scan"}, "fusion_lon": 0.0, "lat": 38.8560405, "bike_id": "608d1e079fab016a04e562c3b72bb9cf", "type": "electric_scooter", "is_reserved": 0, "lon": -76.972728}, {"fusion_lat": 0.0, "name": "c928fca5e94cd744321b3b5cfd3e1b79", "is_disabled": 0, "rental_uris": {"android": "https://dc.lft.to/lastmile_qr_scan", "ios": "https://dc.lft.to/lastmile_qr_scan"}, "fusion_lon": 0.0, "lat": 38.89830833333333, "bike_id": "c928fca5e94cd744321b3b5cfd3e1b79", "type": "electric_scooter", "is_reserved": 0, "lon": -77.04653783333333}, {"fusion_lat": 0.0, "name": "abc8f25f4dadd86cd74af22513e247ab", "is_disabled": 0, "rental_uris": {"android": "https://dc.lft.to/lastmile_qr_scan", "ios": "https://dc.lft.to/lastmile_qr_scan"}, "fusion_lon": 0.0, "lat": 38.920813, "bike_id": "abc8f25f4dadd86cd74af22513e247ab", "type": "electric_scooter", "is_reserved": 0, "lon": -77.02313833333334}, {"fusion_lat": 0.0, "name": "b090f94bc850bb0d9217a94e67e6270e", "is_disabled": 0, "rental_uris": {"android": "https://dc.lft.to/lastmile_qr_scan", "ios": "https://dc.lft.to/lastmile_qr_scan"}, "fusion_lon": 0.0, "lat": 38.897497666666666, "bike_id": "b090f94bc850bb0d9217a94e67e6270e", "type": "electric_scooter", "is_reserved": 0, "lon": -77.027221}, {"fusion_lat": 0.0, "name": "93df04861a16975a2535a9fbe35c93fc", "is_disabled": 0, "rental_uris": {"android": "https://dc.lft.to/lastmile_qr_scan", "ios": "https://dc.lft.to/lastmile_qr_scan"}, "fusion_lon": 0.0, "lat": 38.937659333333336, "bike_id": "93df04861a16975a2535a9fbe35c93fc", "type": "electric_scooter", "is_reserved": 0, "lon": -77.02084033333334}, {"fusion_lat": 0.0, "name": "2a6cc0286d73073495763a00f4b64b8f", "is_disabled": 0, "rental_uris": {"android": "https://dc.lft.to/lastmile_qr_scan", "ios": "https://dc.lft.to/lastmile_qr_scan"}, "fusion_lon": 0.0, "lat": 38.892441, "bike_id": "2a6cc0286d73073495763a00f4b64b8f", "type": "electric_scooter", "is_reserved": 0, "lon": -77.032209}, {"fusion_lat": 0.0, "name": "db75ffaf5bf2ff8bad13283ccb285f4f", "is_disabled": 0, "rental_uris": {"android": "https://dc.lft.to/lastmile_qr_scan", "ios": "https://dc.lft.to/lastmile_qr_scan"}, "fusion_lon": 0.0, "lat": 38.89251433333333, "bike_id": "db75ffaf5bf2ff8bad13283ccb285f4f", "type": "electric_scooter", "is_reserved": 0, "lon": -77.0465405}, {"fusion_lat": 0.0, "name": "705cd140d1eee4478206e9151116db35", "is_disabled": 0, "rental_uris": {"android": "https://dc.lft.to/lastmile_qr_scan", "ios": "https://dc.lft.to/lastmile_qr_scan"}, "fusion_lon": 0.0, "lat": 38.88531716666667, "bike_id": "705cd140d1eee4478206e9151116db35", "type": "electric_scooter", "is_reserved": 0, "lon": -76.92917933333334}, {"fusion_lat": 0.0, "name": "cc8f0832e43ddf59f03bdb73d64a29b1", "is_disabled": 0, "rental_uris": {"android": "https://dc.lft.to/lastmile_qr_scan", "ios": "https://dc.lft.to/lastmile_qr_scan"}, "fusion_lon": 0.0, "lat": 38.87577816666666, "bike_id": "cc8f0832e43ddf59f03bdb73d64a29b1", "type": "electric_bike", "is_reserved": 0, "lon": -77.23410483333333}, {"fusion_lat": 0.0, "name": "61cc89aec75bb9ac576f48df3672a992", "is_disabled": 0, "rental_uris": {"android": "https://dc.lft.to/lastmile_qr_scan", "ios": "https://dc.lft.to/lastmile_qr_scan"}, "fusion_lon": 0.0, "lat": 38.900338, "bike_id": "61cc89aec75bb9ac576f48df3672a992", "type": "electric_scooter", "is_reserved": 0, "lon": -77.03519866666667}, {"fusion_lat": 0.0, "name": "5c530904b15fd0d1cf7d68d0367b58b9", "is_disabled": 0, "rental_uris": {"android": "https://dc.lft.to/lastmile_qr_scan", "ios": "https://dc.lft.to/lastmile_qr_scan"}, "fusion_lon": 0.0, "lat": 38.93696666666666, "bike_id": "5c530904b15fd0d1cf7d68d0367b58b9", "type": "electric_scooter", "is_reserved": 0, "lon": -77.03263483333333}, {"fusion_lat": 0.0, "name": "3c0ce658f819f18895ccb01e26cd4f71", "is_disabled": 0, "rental_uris": {"android": "https://dc.lft.to/lastmile_qr_scan", "ios": "https://dc.lft.to/lastmile_qr_scan"}, "fusion_lon": 0.0, "lat": 38.92145433333334, "bike_id": "3c0ce658f819f18895ccb01e26cd4f71", "type": "electric_scooter", "is_reserved": 0, "lon": -77.0178685}, {"fusion_lat": 0.0, "name": "4cca3cc6cabc5a8c18ab6d3df8f0bf25", "is_disabled": 0, "rental_uris": {"android": "https://dc.lft.to/lastmile_qr_scan", "ios": "https://dc.lft.to/lastmile_qr_scan"}, "fusion_lon": 0.0, "lat": 38.89829783333333, "bike_id": "4cca3cc6cabc5a8c18ab6d3df8f0bf25", "type": "electric_scooter", "is_reserved": 0, "lon": -76.94650266666666}, {"fusion_lat": 0.0, "name": "68a043d7f2ed3eb652cd46d001fd33ee", "is_disabled": 0, "rental_uris": {"android": "https://dc.lft.to/lastmile_qr_scan", "ios": "https://dc.lft.to/lastmile_qr_scan"}, "fusion_lon": 0.0, "lat": 38.9171575, "bike_id": "68a043d7f2ed3eb652cd46d001fd33ee", "type": "electric_scooter", "is_reserved": 0, "lon": -77.03238383333333}, {"fusion_lat": 0.0, "name": "5ad923f42022be0acd480ab84cfa38ed", "is_disabled": 0, "rental_uris": {"android": "https://dc.lft.to/lastmile_qr_scan", "ios": "https://dc.lft.to/lastmile_qr_scan"}, "fusion_lon": 0.0, "lat": 38.92113916666667, "bike_id": "5ad923f42022be0acd480ab84cfa38ed", "type": "electric_scooter", "is_reserved": 0, "lon": -77.017667}, {"fusion_lat": 0.0, "name": "8b47bc0a1ade37a8d6a5bdc831278311", "is_disabled": 0, "rental_uris": {"android": "https://dc.lft.to/lastmile_qr_scan", "ios": "https://dc.lft.to/lastmile_qr_scan"}, "fusion_lon": 0.0, "lat": 38.89903366666667, "bike_id": "8b47bc0a1ade37a8d6a5bdc831278311", "type": "electric_scooter", "is_reserved": 0, "lon": -76.93357266666666},