{"data": {"bikes": [{"fusion_lat": 0.0, "name": "c2504cb944e6dfdddde55bbe9d6bb008", "is_disabled": 0, "rental_uris": {"android": "https://dc.lft.to/lastmile_qr_scan", "ios": "https://dc.lft.to/lastmile_qr_scan"}, "fusion_lon": 0.0, "lat": 38.92184233333333, "bike_id": "c2504cb944e6dfdddde55bbe9d6bb008", "type": "electric_scooter", "is_reserved": 0, "lon": -77.0254415}, {"fusion_lat": 0.0, "name": "1b8997cfe654096666cdad1aad029a75", "is_disabled": 0, "rental_uris": {"android": "https://dc.lft.to/lastmile_qr_scan", "ios": "https://dc.lft.to/lastmile_qr_scan"}, "fusion_lon": 0.0, "lat": 38.929976833333335, "bike_id": "1b8997cfe654096666cdad1aad029a75", "type": "electric_scooter", "is_reserved": 0, "lon": -77.02357016666667}, {"fusion_lat": 0.0, "name": "f575fff6abb2fe05e9cb3df33217a976", "is_disabled": 0, "rental_uris": {"android": "https://dc.lft.to/lastmile_qr_scan", "ios": "https://dc.lft.to/lastmile_qr_scan"}, "fusion_lon": 0.0, "lat": 38.93178733333333, "bike_id": "f575fff6abb2fe05e9cb3df33217a976", "type": "electric_scooter", "is_reserved": 0, "lon": -77.043016}, {"fusion_lat": 0.0, "name": "8357bdfaf81beb8426498c765ba15ab5", "is_disabled": 0, "rental_uris": {"android": "https://dc.lft.to/lastmile_qr_scan", "ios": "https://dc.lft.to/lastmile_qr_scan"}, "fusion_lon": 0.0, "lat": 38.92156266666667, "bike_id": "8357bdfaf81beb8426498c765ba15ab5", "type": "electric_scooter", "is_reserved": 0, "lon": -77.036639}, {"fusion_lat": 0.0, "name": "9be3b5dab87e5a573726708fe6117b8a", "is_disabled": 0, "rental_uris": {"android": "https://dc.lft.to/lastmile_qr_scan", "ios": "https://dc.lft.to/lastmile_qr_scan"}, "fusion_lon": 0.0, "lat": 38.879137, "bike_id": "9be3b5dab87e5a573726708fe6117b8a", "type": "electric_scooter", "is_reserved": 0, "lon": -77.0088505}, {"fusion_lat": 0.0, "name": "721e9ebf1fad8f70c251738415614e7b", "is_disabled": 0, "rental_uris": {"android": "https://dc.lft.to/lastmile_qr_scan", "ios": "https://dc.lft.to/lastmile_qr_scan"}, "fusion_lon": 0.0, "lat": 38.92199316666667, "bike_id": "721e9ebf1fad8f70c251738415614e7b", "type": "electric_scooter", "is_reserved": 0, "lon": -77.02432633333333}, {"fusion_lat": 0.0, "name": "dab07cc988d47920d40b99e243d0a115", "is_disabled": 0, "rental_uris": {"android": "https://dc.lft.to/lastmile_qr_scan", "ios": "https://dc.lft.to/lastmile_qr_scan"}, "fusion_lon": 0.0, "lat": 38.898761666666665, "bike_id": "dab07cc988d47920d40b99e243d0a115", "type": "electric_scooter", "is_reserved": 0, "lon": -76.93186166666666}, {"fusion_lat": 0.0, "name": "cd9558a30117a088227f90fea6875f20", "is_disabled": 0, "rental_uris": {"android": "https://dc.lft.to/lastmile_qr_scan", "ios": "https://dc.lft.to/lastmile_qr_scan"}, "fusion_lon": 0.0, "lat": 38.9217905, "bike_id": "cd9558a30117a088227f90fea6875f20", "type": "electric_scooter", "is_reserved": 0, "lon": -76.99770616666666}, {"fusion_lat": 0.0, "name": "77025a339edd0922e2db50ac8d208f6a", "is_disabled": 0, "rental_uris": {"android": "https://dc.lft.to/lastmile_qr_scan", "ios": "https://dc.lft.to/lastmile_qr_scan"}, "fusion_lon": 0.0, "lat": 38.92838583333333, "bike_id": "77025a339edd0922e2db50ac8d208f6a", "type": "electric_scooter", "is_reserved": 0, "lon": -77.0138105}, {"fusion_lat": 0.0, "name": "e59f9111fc715edfff4e09cfb0dcb41f", "is_disabled": 0, "rental_uris": {"android": "https://dc.lft.to/lastmile_qr_scan", "ios": "https://dc.lft.to/lastmile_qr_scan"}, "fusion_lon": 0.0, "lat": 38.928250166666665, "bike_id": "e59f9111fc715edfff4e09cfb0dcb41f", "type": "electric_scooter", "is_reserved": 0, "lon": -77.0544865}, {"fusion_lat": 0.0, "name": "dc961851529bf7deaf488928629e5dc2", "is_disabled": 0, "rental_uris": {"android": "https://dc.lft.to/lastmile_qr_scan", "ios": "https://dc.lft.to/lastmile_qr_scan"}, "fusion_lon": 0.0, "lat": 38.912622, "bike_id": "dc961851529bf7deaf488928629e5dc2", "type": "electric_scooter", "is_reserved": 0, "lon": -77.04301333333333}, {"fusion_lat": 0.0, "name": "5161de32ff81644bcc466c340054dba7", "is_disabled": 0, "rental_uris": {"android": "https://dc.lft.to/lastmile_qr_scan", "ios": "https://dc.lft.to/lastmile_qr_scan"}, "fusion_lon": 0.0, "lat": 38.89962416666667, "bike_id": "5161de32ff81644bcc466c340054dba7", "type": "electric_scooter", "is_reserved": 0, "lon": -77.01629666666666}, {"fusion_lat": 0.0, "name": "e818076dcdd2401f721be5b3eb2a7127", "is_disabled": 0, "rental_uris": {"android": "https://dc.lft.to/lastmile_qr_scan", "ios": "https://dc.lft.to/lastmile_qr_scan"}, "fusion_lon": 0.0, "lat": 38.90615066666667, "bike_id": "e818076dcdd2401f721be5b3eb2a7127", "type": "electric_scooter", "is_reserved": 0, "lon": -77.05899633333334}, {"fusion_lat": 0.0, "name": "d933f4ae6b33c5aef9c0846d16f96e24", "is_disabled": 0, "rental_uris": {"android": "https://dc.lft.to/lastmile_qr_scan", "ios": "https://dc.lft.to/lastmile_qr_scan"}, "fusion_lon": 0.0, "lat": 38.908449, "bike_id": "d933f4ae6b33c5aef9c0846d16f96e24", "type": "electric_scooter", "is_reserved": 0, "lon": -77.043321}, {"fusion_lat": 0.0, "name": "00af9d342bc6df70a39ab3a6d99620ca", "is_disabled": 0, "rental_uris": {"android": "https://dc.lft.to/lastmile_qr_scan", "ios": "https://dc.lft.to/lastmile_qr_scan"}, "fusion_lon": 0.0, "lat": 38.916844, "bike_id": "00af9d342bc6df70a39ab3a6d99620ca", "type": "electric_scooter", "is_reserved": 0, "lon": -77.04142433333334}, {"fusion_lat": 0.0, "name": "fe650e5c81f90117a3362fb2b997f955", "is_disabled": 0, "rental_uris": {"android": "https://dc.lft.to/lastmile_qr_scan", "ios": "https://dc.lft.to/lastmile_qr_scan"}, "fusion_lon": 0.0, "lat": 38.899892666666666, "bike_id": "fe650e5c81f90117a3362fb2b997f955", "type": "electric_scooter", "is_reserved": 0, "lon": -76.98435666666667}, {"fusion_lat": 0.0, "name": "dc0f697af62984a2faf4b3eb4d881446", "is_disabled": 0, "rental_uris": {"android": "https://dc.lft.to/lastmile_qr_scan", "ios": "https://dc.lft.to/lastmile_qr_scan"}, "fusion_lon": 0.0, "lat": 38.92414983333333, "bike_id": "dc0f697af62984a2faf4b3eb4d881446", "type": "electric_scooter", "is_reserved": 0, "lon": -77.03644333333334}, {"fusion_lat": 0.0, "name": "1d26d8a3df9cfd1399701e0978934cbd", "is_disabled": 0, "rental_uris": {"android": "https://dc.lft.to/lastmile_qr_scan", "ios": "https://dc.lft.to/lastmile_qr_scan"}, "fusion_lon": 0.0, "lat": 38.90093666666667, "bike_id": "1d26d8a3df9cfd1399701e0978934cbd", "type": "electric_bike", "is_reserved": 0, "lon": -76.97685233333333}, {"fusion_lat": 0.0, "name": "c0166eb0a1f1c62d5eb6d06a41755180", "is_disabled": 0, "rental_uris": {"android": "https://dc.lft.to/lastmile_qr_scan", "ios": "https://dc.lft.to/lastmile_qr_scan"}, "fusion_lon": 0.0, "lat": 38.91815833333333, "bike_id": "c0166eb0a1f1c62d5eb6d06a41755180", "type": "electric_scooter", "is_reserved": 0, "lon": -77.0247945}, {"fusion_lat": 0.0, "name": "a951e85243cf747beb489d77ec6e05d6", "is_disabled": 0, "rental_uris": {"android": "https://dc.lft.to/lastmile_qr_scan", "ios": "https://dc.lft.to/lastmile_qr_scan"}, "fusion_lon": 0.0, "lat": 38.92839416666666, "bike_id": "a951e85243cf747beb489d77ec6e05d6", "type": "electric_scooter", "is_reserved": 0, "lon": -77.05968066666667}, {"fusion_lat": 0.0, "name": "997f939d5d0c7f72096a286ed85fb17f", "is_disabled": 0, "rental_uris": {"android": "https://dc.lft.to/lastmile_qr_scan", "ios": "https://dc.lft.to/lastmile_qr_scan"}, "fusion_lon": 0.0, "lat": 39.036106, "bike_id": "997f939d5d0c7f72096a286ed85fb17f", "type": "electric_bike", "is_reserved": 0, "lon": -77.05543516666667}, {"fusion_lat": 0.0, "name": "64659a04b62194b8a2f05b5347dbdbe5", "is_disabled": 0, "rental_uris": {"android": "https://dc.lft.to/lastmile_qr_scan", "ios": "https://dc.lft.to/lastmile_qr_scan"}, "fusion_lon": 0.0, "lat": 38.916934, "bike_id": "64659a04b62194b8a2f05b5347dbdbe5", "type": "electric_scooter", "is_reserved": 0, "lon": -77.04111216666666}, {"fusion_lat": 0.0, "name": "0cedbd5b3f27a9fab81d7b535a7597f7", "is_disabled": 0, "rental_uris": {"android": "https://dc.lft.to/lastmile_qr_scan", "ios": "https://dc.lft.to/lastmile_qr_scan"}, "fusion_lon": 0.0, "lat": 38.92368483333333, "bike_id": "0cedbd5b3f27a9fab81d7b535a7597f7", "type": "electric_scooter", "is_reserved": 0, "lon": -77.04317183333333}, {"fusion_lat": 0.0, "name": "790fa3e22acab79f7b77a305f6fcaba9", "is_disabled": 0, "rental_uris": {"android": "https://dc.lft.to/lastmile_qr_scan", "ios": "https://dc.lft.to/lastmile_qr_scan"}, "fusion_lon": 0.0, "lat": 38.912683666666666, "bike_id": "790fa3e22acab79f7b77a305f6fcaba9", "type": "electric_scooter", "is_reserved": 0, "lon": -77.03868266666667}, {"fusion_lat": 0.0, "name": "c64c9a9a549f76c21105c324d5c34477", "is_disabled": 0, "rental_uris": {"android": "https://dc.lft.to/lastmile_qr_scan", "ios": "https://dc.lft.to/lastmile_qr_scan"}, "fusion_lon": 0.0, "lat": 38.96190816666667, "bike_id": "c64c9a9a549f76c21105c324d5c34477", "type": "electric_bike", "is_reserved": 0, "lon": -77.05270033333333}, {"fusion_lat": 0.0, "name": "f17294276a8e9b962d42e5e14470664c", "is_disabled": 0, "rental_uris": {"android": "https://dc.lft.to/lastmile_qr_scan", "ios": "https://dc.lft.to/lastmile_qr_scan"}, "fusion_lon": 0.0, "lat": 38.896189, "bike_id": "f17294276a8e9b962d42e5e14470664c", "type": "electric_bike", "is_reserved": 0, "lon": -76.90741516666667}, {"fusion_lat": 0.0, "name": "0f94754a5f57066509fe2ee85a39fb63", "is_disabled": 0, "rental_uris": {"android": "https://dc.lft.to/lastmile_qr_scan", "ios": "https://dc.lft.to/lastmile_qr_scan"}, "fusion_lon": 0.0, "lat": 38.84611683333333, "bike_id": "0f94754a5f57066509fe2ee85a39fb63", "type": "electric_bike", "is_reserved": 0, "lon": -76.96909416666666}, {"fusion_lat": 0.0, "name": "31885ade6b25187264dadbcd3b38a91f", "is_disabled": 0, "rental_uris": {"android": "https://dc.lft.to/lastmile_qr_scan", "ios": "https://dc.lft.to/lastmile_qr_scan"}, "fusion_lon": 0.0, "lat": 38.958823333333335, "bike_id": "31885ade6b25187264dadbcd3b38a91f", "type": "electric_bike", "is_reserved": 0, "lon": -76.92481683333334}, {"fusion_lat": 0.0, "name": "4751ea015cb64307862f40e026f4844d", "is_disabled": 0, "rental_uris": {"android": "https://dc.lft.to/lastmile_qr_scan", "ios": "https://dc.lft.to/lastmile_qr_scan"}, "fusion_lon": 0.0, "lat": 38.9286185, "bike_id": "4751ea015cb64307862f40e026f4844d", "type": "electric_scooter", "is_reserved": 0, "lon": -77.05629933333333}, {"fusion_lat": 0.0, "name": "641013ec0c8b324f15284d27c2cb4e3e", "is_disabled": 0, "rental_uris": {"android": "https://dc.lft.to/lastmile_qr_scan", "ios": "https://dc.lft.to/lastmile_qr_scan"}, "fusion_lon": 0.0, "lat": 38.91758766666667, "bike_id": "641013ec0c8b324f15284d27c2cb4e3e", "type": "electric_scooter", "is_reserved": 0, "lon": -77.02302366666666}, {"fusion_lat": 0.0, "name": "e147913465e690a3c5a462f61e9df1f5", "is_disabled": 0, "rental_uris": {"android": "https://dc.lft.to/lastmile_qr_scan", "ios": "https://dc.lft.to/lastmile_qr_scan"}, "fusion_lon": 0.0, "lat": 38.87742866666667, "bike_id": "e147913465e690a3c5a462f61e9df1f5", "type": "electric_scooter", "is_reserved": 0, "lon": -77.0026525}, {"fusion_lat": 0.0, "name": "6f5706bd14d4835aafaad2b7394fcd42", "is_disabled": 0, "rental_uris": {"android": "https://dc.lft.to/lastmile_qr_scan", "ios": "https://dc.lft.to/lastmile_qr_scan"}, "fusion_lon": 0.0, "lat": 38.92327083333333, "bike_id": "6f5706bd14d4835aafaad2b7394fcd42", "type": "electric_scooter", "is_reserved": 0, "lon": -77.02966633333334}, {"fusion_lat": 0.0, "name": "b23925805c7a988bd01d9801e54b7fc2", "is_disabled": 0, "rental_uris": {"android": "https://dc.lft.to/lastmile_qr_scan", "ios": "https://dc.lft.to/lastmile_qr_scan"}, "fusion_lon": 0.0, "lat": 38.9482955, "bike_id": "b23925805c7a988bd01d9801e54b7fc2", "type": "electric_scooter", "is_reserved": 0, "lon": -77.0800465}, {"fusion_lat": 0.0, "name": "847f73308819387a73680dbdfa50d487", "is_disabled": 0, "rental_uris": {"android": "https://dc.lft.to/lastmile_qr_scan", "ios": "https://dc.lft.to/lastmile_qr_scan"}, "fusion_lon": 0.0, "lat": 38.926766666666666, "bike_id": "847f73308819387a73680dbdfa50d487", "type": "electric_scooter", "is_reserved": 0, "lon": -77.036381}, {"fusion_lat": 0.0, "name": "2a7499af00f02f457b109c5dc99c3e2d", "is_disabled": 0, "rental_uris": {"android": "https://dc.lft.to/lastmile_qr_scan", "ios": "https://dc.lft.to/lastmile_qr_scan"}, "fusion_lon": 0.0, "lat": 38.874945833333335, "bike_id": "2a7499af00f02f457b109c5dc99c3e2d", "type": "electric_bike", "is_reserved": 0, "lon": -77.21122666666666}, {"fusion_lat": 0.0, "name": "eb107d231e05a49e0a31fc4a7dcbaab5", "is_disabled": 0, "rental_uris": {"android": "https://dc.lft.to/lastmile_qr_scan", "ios": "https://dc.lft.to/lastmile_qr_scan"}, "fusion_lon": 0.0, "lat": 38.92272, "bike_id": "eb107d231e05a49e0a31fc4a7dcbaab5", "type": "electric_scooter", "is_reserved": 0, "lon": -77.02968416666667}, {"fusion_lat": 0.0, "name": "2f577888dd0191984a94ff233a74a74b", "is_disabled": 0, "rental_uris": {"android": "https://dc.lft.to/lastmile_qr_scan", "ios": "https://dc.lft.to/lastmile_qr_scan"}, "fusion_lon": 0.0, "lat": 38.94617233333334, "bike_id": "2f577888dd0191984a94ff233a74a74b", "type": "electric_scooter", "is_reserved": 0, "lon": -77.08017166666667}, {"fusion_lat": 0.0, "name": "d56bafc46f515e2e481d421543e57d95", "is_disabled": 0, "rental_uris": {"android": "https://dc.lft.to/lastmile_qr_scan", "ios": "https://dc.lft.to/lastmile_qr_scan"}, "fusion_lon": 0.0, "lat": 38.896897333333335, "bike_id": "d56bafc46f515e2e481d421543e57d95", "type": "electric_scooter", "is_reserved": 0, "lon": -77.0434225}, {"fusion_lat": 0.0, "name": "28bd24725a412fdb4d7c05549c6161a0", "is_disabled": 0, "rental_uris": {"android": "https://dc.lft.to/lastmile_qr_scan", "ios": "https://dc.lft.to/lastmile_qr_scan"}, "fusion_lon": 0.0, "lat": 38.89003483333333, "bike_id": "28bd24725a412fdb4d7c05549c6161a0", "type": "electric_scooter", "is_reserved": 0, "lon": -76.937418}, {"fusion_lat": 0.0, "name": "db282d577e7f96c883604afeb8bca7fe", "is_disabled": 0, "rental_uris": {"android": "https://dc.lft.to/lastmile_qr_scan", "ios": "https://dc.lft.to/lastmile_qr_scan"}, "fusion_lon": 0.0, "lat": 38.864202, "bike_id": "db282d577e7f96c883604afeb8bca7fe", "type": "electric_scooter", "is_reserved": 0, "lon": -76.97421866666667}, {"fusion_lat": 0.0, "name": "002561430e4823a2d0ae21ccfb024792", "is_disabled": 0, "rental_uris": {"android": "https://dc.lft.to/lastmile_qr_scan", "ios": "https://dc.lft.to/lastmile_qr_scan"}, "fusion_lon": 0.0, "lat": 38.9182035, "bike_id": "002561430e4823a2d0ae21ccfb024792", "type": "electric_scooter", "is_reserved": 0, "lon": -77.02536516666666}, {"fusion_lat": 0.0, "name": "a33307ee9e0f2909e6161c4dd7be237c", "is_disabled": 0, "rental_uris": {"android": "https://dc.lft.to/lastmile_qr_scan", "ios": "https://dc.lft.to/lastmile_qr_scan"}, "fusion_lon": 0.0, "lat": 38.909856166666664, "bike_id": "a33307ee9e0f2909e6161c4dd7be237c", "type": "electric_scooter", "is_reserved": 0, "lon": -77.03385883333333}, {"fusion_lat": 0.0, "name": "8680d312e320a0946fd73c66d4b13c13", "is_disabled": 0, "rental_uris": {"android": "https://dc.lft.to/lastmile_qr_scan", "ios": "https://dc.lft.to/lastmile_qr_scan"}, "fusion_lon": 0.0, "lat": 38.932156, "bike_id": "8680d312e320a0946fd73c66d4b13c13", "type": "electric_scooter", "is_reserved": 0, "lon": -77.033488}, {"fusion_lat": 0.0, "name": "acc128292b031c6cfaf255c3ad006ac1", "is_disabled": 0, "rental_uris": {"android": "https://dc.lft.to/lastmile_qr_scan", "ios": "https://dc.lft.to/lastmile_qr_scan"}, "fusion_lon": 0.0, "lat": 38.89794533333333, "bike_id": "acc128292b031c6cfaf255c3ad006ac1", "type": "electric_scooter", "is_reserved": 0, "lon": -76.93116433333333}, {"fusion_lat": 0.0, "name": "1087163df2cef44d08cd46e880a45ed8", "is_disabled": 0, "rental_uris": {"android": "https://dc.lft.to/lastmile_qr_scan", "ios": "https://dc.lft.to/lastmile_qr_scan"}, "fusion_lon": 0.0, "lat": 38.90028266666667, "bike_id": "1087163df2cef44d08cd46e880a45ed8", "type": "electric_scooter", "is_reserved": 0, "lon": -76.99855933333333}, {"fusion_lat": 0.0, "name": "cb65064a4021d135f0d8a263328ff83d", "is_disabled": 0, "rental_uris": {"android": "https://dc.lft.to/lastmile_qr_scan", "ios": "https://dc.lft.to/lastmile_qr_scan"}, "fusion_lon": 0.0, "lat": 38.91671866666667, "bike_id": "cb65064a4021d135f0d8a263328ff83d", "type": "electric_scooter", "is_reserved": 0, "lon": -77.038554}, {"fusion_lat": 0.0, "name": "9273f064ff6f0116409e3d96a3758366", "is_disabled": 0, "rental_uris": {"android": "https://dc.lft.to/lastmile_qr_scan", "ios": "https://dc.lft.to/lastmile_qr_scan"}, "fusion_lon": 0.0, "lat": 38.853509833333334, "bike_id": "9273f064ff6f0116409e3d96a3758366", "type": "electric_bike", "is_reserved": 0, "lon": -77.134644}, {"fusion_lat": 0.0, "name": "47fbf8eaa0c25c250650b2cbc6007b2d", "is_disabled": 0, "rental_uris": {"android": "https://dc.lft.to/lastmile_qr_scan", "ios": "https://dc.lft.to/lastmile_qr_scan"}, "fusion_lon": 0.0, "lat": 38.88653516666667, "bike_id": "47fbf8eaa0c25c250650b2cbc6007b2d", "type": "electric_scooter", "is_reserved": 0, "lon": -77.0011585}, {"fusion_lat": 0.0, "name": "1c7443a11baadd59a086e033339d9eb2", "is_disabled": 0, "rental_uris": {"android": "https://dc.lft.to/lastmile_qr_scan", "ios": "https://dc.lft.to/lastmile_qr_scan"}, "fusion_lon": 0.0, "lat": 38.914605, "bike_id": "1c7443a11baadd59a086e033339d9eb2", "type": "electric_scooter", "is_reserved": 0, "lon": -77.00212666666667}, {"fusion_lat": 0.0, "name": "b7d1053e5dab039a930c9370b93452d4", "is_disabled": 0, "rental_uris": {"android": "https://dc.lft.to/lastmile_qr_scan", "ios": "https://dc.lft.to/lastmile_qr_scan"}, "fusion_lon": 0.0, "lat": 38.896339166666664, "bike_id": "b7d1053e5dab039a930c9370b93452d4", "type": "electric_scooter", "is_reserved": 0, "lon": -77.03228866666667}, {"fusion_lat": 0.0, "name": "f11ed27656ff2c3a64024214d0a62550", "is_disabled": 0, "rental_uris": {"android": "https://dc.lft.to/lastmile_qr_scan", "ios": "https://dc.lft.to/lastmile_qr_scan"}, "fusion_lon": 0.0, "lat": 38.862459, "bike_id": "f11ed27656ff2c3a64024214d0a62550", "type": "electric_scooter", "is_reserved": 0, "lon": -76.99498133333333}, {"fusion_lat": 0.0, "name": "564dc351705655814f7803c0f5b76894", "is_disabled": 0, "rental_uris": {"android": "https://dc.lft.to/lastmile_qr_scan", "ios": "https://dc.lft.to/lastmile_qr_scan"}, "fusion_lon": 0.0, "lat": 38.897385, "bike_id": "564dc351705655814f7803c0f5b76894", "type": "electric_scooter", "is_reserved": 0, "lon": -77.00437866666667}, {"fusion_lat": 0.0, "name": "8eaf9e8203fed471ffb1c670d87f9b75", "is_disabled": 0, "rental_uris": {"android": "https://dc.lft.to/lastmile_qr_scan", "ios": "https://dc.lft.to/lastmile_qr_scan"}, "fusion_lon": 0.0, "lat": 38.91700016666667, "bike_id": "8eaf9e8203fed471ffb1c670d87f9b75", "type": "electric_scooter", "is_reserved": 0, "lon": -77.03586633333333}, {"fusion_lat": 0.0, "name": "19a18457ed9a19e6fea346812d2b50b4", "is_disabled": 0, "rental_uris": {"android": "https://dc.lft.to/lastmile_qr_scan", "ios": "https://dc.lft.to/lastmile_qr_scan"}, "fusion_lon": 0.0, "lat": 38.89754883333333, "bike_id": "19a18457ed9a19e6fea346812d2b50b4", "type": "electric_scooter", "is_reserved": 0, "lon": -77.04397416666667}, {"fusion_lat": 0.0, "name": "7f651464bb4efe8d94c7b3c78fcce3be", "is_disabled": 0, "rental_uris": {"android": "https://dc.lft.to/lastmile_qr_scan", "ios": "https://dc.lft.to/lastmile_qr_scan"}, "fusion_lon": 0.0, "lat": 38.98770283333333, "bike_id": "7f651464bb4efe8d94c7b3c78fcce3be", "type": "electric_bike", "is_reserved": 0, "lon": -77.1405995}, {"fusion_lat": 0.0, "name": "b09aac3dd7be380061375782a2ec61e9", "is_disabled": 0, "rental_uris": {"android": "https://dc.lft.to/lastmile_qr_scan", "ios": "https://dc.lft.to/lastmile_qr_scan"}, "fusion_lon": 0.0, "lat": 38.87247266666667, "bike_id": "b09aac3dd7be380061375782a2ec61e9", "type": "electric_scooter", "is_reserved": 0, "lon": -76.97728933333333}, {"fusion_lat": 0.0, "name": "bf13e5b0eb58c31d1337b69b395fc9dc", "is_disabled": 0, "rental_uris": {"android": "https://dc.lft.to/lastmile_qr_scan", "ios": "https://dc.lft.to/lastmile_qr_scan"}, "fusion_lon": 0.0, "lat": 38.9041165, "bike_id": "bf13e5b0eb58c31d1337b69b395fc9dc", "type": "electric_scooter", "is_reserved": 0, "lon": -76.9733095}, {"fusion_lat": 0.0, "name": "2df1f31d10d2d3c6c8bfe87b89a927b3", "is_disabled": 0, "rental_uris": {"android": "https://dc.lft.to/lastmile_qr_scan", "ios": "https://dc.lft.to/lastmile_qr_scan"}, "fusion_lon": 0.0, "lat": 38.941486833333336, "bike_id": "2df1f31d10d2d3c6c8bfe87b89a927b3", "type": "electric_bike", "is_reserved": 0, "lon": -77.00194033333334}, {"fusion_lat": 0.0, "name": "9747211f6918e257c3caa6083bcb0cbb", "is_disabled": 0, "rental_uris": {"android": "https://dc.lft.to/lastmile_qr_scan", "ios": "https://dc.lft.to/lastmile_qr_scan"}, "fusion_lon": 0.0, "lat": 38.914147, "bike_id": "9747211f6918e257c3caa6083bcb0cbb", "type": "electric_scooter", "is_reserved": 0, "lon": -77.02214616666667}, {"fusion_lat": 0.0, "name": "2fe80dac71e87f602413bd59179e8900", "is_disabled": 0, "rental_uris": {"android": "https://dc.lft.to/lastmile_qr_scan", "ios": "https://dc.lft.to/lastmile_qr_scan"}, "fusion_lon": 0.0, "lat": 38.91057883333333, "bike_id": "2fe80dac71e87f602413bd59179e8900", "type": "electric_scooter", "is_reserved": 0, "lon": -77.0532405}, {"fusion_lat": 0.0, "name": "01799fdf8a2a4e39a0c677f262c1ec37", "is_disabled": 0, "rental_uris": {"android": "https://dc.lft.to/lastmile_qr_scan", "ios": "https://dc.lft.to/lastmile_qr_scan"}, "fusion_lon": 0.0, "lat": 38.95599333333333, "bike_id": "01799fdf8a2a4e39a0c677f262c1ec37", "type": "electric_bike", "is_reserved": 0, "lon": -77.010183}, {"fusion_lat": 0.0, "name": "db5d8c6447056a8df8e427b73a0c33af", "is_disabled": 0, "rental_uris": {"android": "https://dc.lft.to/lastmile_qr_scan", "ios": "https://dc.lft.to/lastmile_qr_scan"}, "fusion_lon": 0.0, "lat": 38.907071, "bike_id": "db5d8c6447056a8df8e427b73a0c33af", "type": "electric_scooter", "is_reserved": 0, "lon": -77.02389133333334}, {"fusion_lat": 0.0, "name": "32243d4263baad9ea99c440a303aa5a9", "is_disabled": 0, "rental_uris": {"android": "https://dc.lft.to/lastmile_qr_scan", "ios": "https://dc.lft.to/lastmile_qr_scan"}, "fusion_lon": 0.0, "lat": 38.87912583333333, "bike_id": "32243d4263baad9ea99c440a303aa5a9", "type": "electric_scooter", "is_reserved": 0, "lon": -77.008862}, {"fusion_lat": 0.0, "name": "7df11465a062bc90e135c36a041156e6", "is_disabled": 0, "rental_uris": {"android": "https://dc.lft.to/lastmile_qr_scan", "ios": "https://dc.lft.to/lastmile_qr_scan"}, "fusion_lon": 0.0, "lat": 38.915524166666664, "bike_id": "7df11465a062bc90e135c36a041156e6", "type": "electric_scooter", "is_reserved": 0, "lon": -77.0323215}, {"fusion_lat": 0.0, "name": "4303fc404d77f7d246ccef33bf515e5a", "is_disabled": 0, "rental_uris": {"android": "https://dc.lft.to/lastmile_qr_scan", "ios": "https://dc.lft.to/lastmile_qr_scan"}, "fusion_lon": 0.0, "lat": 38.92480883333333, "bike_id": "4303fc404d77f7d246ccef33bf515e5a", "type": "electric_scooter", "is_reserved": 0, "lon": -77.02650733333333}, {"fusion_lat": 0.0, "name": "8c174f7a47665433acd7dbfa8c26d470", "is_disabled": 0, "rental_uris": {"android": "https://dc.lft.to/lastmile_qr_scan", "ios": "https://dc.lft.to/lastmile_qr_scan"}, "fusion_lon": 0.0, "lat": 38.932562833333336, "bike_id": "8c174f7a47665433acd7dbfa8c26d470", "type": "electric_scooter", "is_reserved": 0, "lon": -77.0327095}, {"fusion_lat": 0.0, "name": "5e271e37ed391579618f4c6217bf238f", "is_disabled": 0, "rental_uris": {"android": "https://dc.lft.to/lastmile_qr_scan", "ios": "https://dc.lft.to/lastmile_qr_scan"}, "fusion_lon": 0.0, "lat": 38.9588675, "bike_id": "5e271e37ed391579618f4c6217bf238f", "type": "electric_scooter", "is_reserved": 0, "lon": -77.01164883333334}, {"fusion_lat": 0.0, "name": "6db4f0cac0f48c0b11454c7e225bf730", "is_disabled": 0, "rental_uris": {"android": "https://dc.lft.to/lastmile_qr_scan", "ios": "https://dc.lft.to/lastmile_qr_scan"}, "fusion_lon": 0.0, "lat": 38.876607, "bike_id": "6db4f0cac0f48c0b11454c7e225bf730", "type": "electric_scooter", "is_reserved": 0, "lon": -77.00914566666667}, {"fusion_lat": 0.0, "name": "2b51cdeb425009ec67699836da1e4a87", "is_disabled": 0, "rental_uris": {"android": "https://dc.lft.to/lastmile_qr_scan", "ios": "https://dc.lft.to/lastmile_qr_scan"}, "fusion_lon": 0.0, "lat": 38.88231733333333, "bike_id": "2b51cdeb425009ec67699836da1e4a87", "type": "electric_scooter", "is_reserved": 0, "lon": -77.02616666666667}, {"fusion_lat": 0.0, "name": "1c0739f0f14cbb3f2c00135298647fe2", "is_disabled": 0, "rental_uris": {"android": "https://dc.lft.to/lastmile_qr_scan", "ios": "https://dc.lft.to/lastmile_qr_scan"}, "fusion_lon": 0.0, "lat": 38.90980966666667, "bike_id": "1c0739f0f14cbb3f2c00135298647fe2", "type": "electric_scooter", "is_reserved": 0, "lon": -77.02293483333334}, {"fusion_lat": 0.0, "name": "2e16b379de4f765d88dbe7030eb90ddf", "is_disabled": 0, "rental_uris": {"android": "https://dc.lft.to/lastmile_qr_scan", "ios": "https://dc.lft.to/lastmile_qr_scan"}, "fusion_lon": 0.0, "lat": 38.924861666666665, "bike_id": "2e16b379de4f765d88dbe7030eb90ddf", "type": "electric_scooter", "is_reserved": 0, "lon": -77.02550216666667}, {"fusion_lat": 0.0, "name": "aa049aa1bf1d3c7ca7e961f77a38984b", "is_disabled": 0, "rental_uris": {"android": "https://dc.lft.to/lastmile_qr_scan", "ios": "https://dc.lft.to/lastmile_qr_scan"}, "fusion_lon": 0.0, "lat": 38.9192195, "bike_id": "aa049aa1bf1d3c7ca7e961f77a38984b", "type": "electric_scooter", "is_reserved": 0, "lon": -77.02393333333333}, {"fusion_lat": 0.0, "name": "c8da9b21b902d2e8b9842cb7d3211b03", "is_disabled": 0, "rental_uris": {"android": "https://dc.lft.to/lastmile_qr_scan", "ios": "https://dc.lft.to/lastmile_qr_scan"}, "fusion_lon": 0.0, "lat": 38.91559766666666, "bike_id": "c8da9b21b902d2e8b9842cb7d3211b03", "type": "electric_scooter", "is_reserved": 0, "lon": -77.03224816666666}, {"fusion_lat": 0.0, "name": "6f1e81dcb5f353bc04f977fcddd9cbe5", "is_disabled": 0, "rental_uris": {"android": "https://dc.lft.to/lastmile_qr_scan", "ios": "https://dc.lft.to/lastmile_qr_scan"}, "fusion_lon": 0.0, "lat": 38.94232483333333, "bike_id": "6f1e81dcb5f353bc04f977fcddd9cbe5", "type": "electric_scooter", "is_reserved": 0, "lon": -77.013858}, {"fusion_lat": 0.0, "name": "b3af621f64a03c213a399ae0bbc6ce64", "is_disabled": 0, "rental_uris": {"android": "https://dc.lft.to/lastmile_qr_scan", "ios": "https://dc.lft.to/lastmile_qr_scan"}, "fusion_lon": 0.0, "lat": 38.93647166666667, "bike_id": "b3af621f64a03c213a399ae0bbc6ce64", "type": "electric_scooter", "is_reserved": 0, "lon": -77.03051633333334}, {"fusion_lat": 0.0, "name": "9a19287a8fc7619df4eac67b3e614ee6", "is_disabled": 0, "rental_uris": {"android": "https://dc.lft.to/lastmile_qr_scan", "ios": "https://dc.lft.to/lastmile_qr_scan"}, "fusion_lon": 0.0, "lat": 38.91328216666667, "bike_id": "9a19287a8fc7619df4eac67b3e614ee6", "type": "electric_scooter", "is_reserved": 0, "lon": -77.03195766666667}, {"fusion_lat": 0.0, "name": "e46c8ced11998e8fb01d3eccd41bfb4d", "is_disabled": 0, "rental_uris": {"android": "https://dc.lft.to/lastmile_qr_scan", "ios": "https://dc.lft.to/lastmile_qr_scan"}, "fusion_lon": 0.0, "lat": 38.88514816666667, "bike_id": "e46c8ced11998e8fb01d3eccd41bfb4d", "type": "electric_scooter", "is_reserved": 0, "lon": -77.01508683333333}, {"fusion_lat": 0.0, "name": "7804e881316677030490d2cfce2544ca", "is_disabled": 0, "rental_uris": {"android": "https://dc.lft.to/lastmile_qr_scan", "ios": "https://dc.lft.to/lastmile_qr_scan"}, "fusion_lon": 0.0, "lat": 38.92337116666667, "bike_id": "7804e881316677030490d2cfce2544ca", "type": "electric_scooter", "is_reserved": 0, "lon": -77.03515883333333}, {"fusion_lat": 0.0, "name": "39c67ce312937c3928c6274492546be3", "is_disabled": 0, "rental_uris": {"android": "https://dc.lft.to/lastmile_qr_scan", "ios": "https://dc.lft.to/lastmile_qr_scan"}, "fusion_lon": 0.0, "lat": 38.9022085, "bike_id": "39c67ce312937c3928c6274492546be3", "type": "electric_scooter", "is_reserved": 0, "lon": -77.05947933333333}, {"fusion_lat": 0.0, "name": "94027b1e36bd01eeff385eb5649fd6ca", "is_disabled": 0, "rental_uris": {"android": "https://dc.lft.to/lastmile_qr_scan", "ios": "https://dc.lft.to/lastmile_qr_scan"}, "fusion_lon": 0.0, "lat": 38.910480166666666, "bike_id": "94027b1e36bd01eeff385eb5649fd6ca", "type": "electric_scooter", "is_reserved": 0, "lon": -77.04345366666666}, {"fusion_lat": 0.0, "name": "694dbd5c970f502195f5ce9387d5658b", "is_disabled": 0, "rental_uris": {"android": "https://dc.lft.to/lastmile_qr_scan", "ios": "https://dc.lft.to/lastmile_qr_scan"}, "fusion_lon": 0.0, "lat": 38.917287333333334, "bike_id": "694dbd5c970f502195f5ce9387d5658b", "type": "electric_scooter", "is_reserved": 0, "lon": -77.02505816666667}, {"fusion_lat": 0.0, "name": "4079a3c36acdb3db1cf4d3009b8a2433", "is_disabled": 0, "rental_uris": {"android": "https://dc.lft.to/lastmile_qr_scan", "ios": "https://dc.lft.to/lastmile_qr_scan"}, "fusion_lon": 0.0, "lat": 38.894946833333336, "bike_id": "4079a3c36acdb3db1cf4d3009b8a2433", "type": "electric_scooter", "is_reserved": 0, "lon": -77.0217865}, {"fusion_lat": 0.0, "name": "6af5f809094dc0af6bb2fb40b952a5f2", "is_disabled": 0, "rental_uris": {"android": "https://dc.lft.to/lastmile_qr_scan", "ios": "https://dc.lft.to/lastmile_qr_scan"}, "fusion_lon": 0.0, "lat": 38.9372775, "bike_id": "6af5f809094dc0af6bb2fb40b952a5f2", "type": "electric_scooter", "is_reserved": 0, "lon": -77.024531}, {"fusion_lat": 0.0, "name": "63f4cd4e426d8e1fd37f167e28452334", "is_disabled": 0, "rental_uris": {"android": "https://dc.lft.to/lastmile_qr_scan", "ios": "https://dc.lft.to/lastmile_qr_scan"}, "fusion_lon": 0.0, "lat": 38.920805333333334, "bike_id": "63f4cd4e426d8e1fd37f167e28452334", "type": "electric_bike", "is_reserved": 0, "lon": -76.9894745}, {"fusion_lat": 0.0, "name": "29035437da016bc9fb7d30a44039b619", "is_disabled": 0, "rental_uris": {"android": "https://dc.lft.to/lastmile_qr_scan", "ios": "https://dc.lft.to/lastmile_qr_scan"}, "fusion_lon": 0.0, "lat": 38.90131233333334, "bike_id": "29035437da016bc9fb7d30a44039b619", "type": "electric_scooter", "is_reserved": 0, "lon": -77.04995516666666}, {"fusion_lat": 0.0, "name": "b7ceedf57ae974f3eb391da8c3303008", "is_disabled": 0, "rental_uris": {"android": "https://dc.lft.to/lastmile_qr_scan", "ios": "https://dc.lft.to/lastmile_qr_scan"}, "fusion_lon": 0.0, "lat": 38.8982965, "bike_id": "b7ceedf57ae974f3eb391da8c3303008", "type": "electric_scooter", "is_reserved": 0, "lon": -77.04678116666666}, {"fusion_lat": 0.0, "name": "bb72c9d3a9ddc4b4dfc790f9a4b9f0df", "is_disabled": 0, "rental_uris": {"android": "https://dc.lft.to/lastmile_qr_scan", "ios": "https://dc.lft.to/lastmile_qr_scan"}, "fusion_lon": 0.0, "lat": 38.9057535, "bike_id": "bb72c9d3a9ddc4b4dfc790f9a4b9f0df", "type": "electric_scooter", "is_reserved": 0, "lon": -77.00888166666667}, {"fusion_lat": 0.0, "name": "8422c63de024e00f0c147c9b6094e5b8", "is_disabled": 0, "rental_uris": {"android": "https://dc.lft.to/lastmile_qr_scan", "ios": "https://dc.lft.to/lastmile_qr_scan"}, "fusion_lon": 0.0, "lat": 38.9022995, "bike_id": "8422c63de024e00f0c147c9b6094e5b8", "type": "electric_scooter", "is_reserved": 0, "lon": -77.045457}, {"fusion_lat": 0.0, "name": "2dfc3fb4155ece62bb7ec1711fb44a90", "is_disabled": 0, "rental_uris": {"android": "https://dc.lft.to/lastmile_qr_scan", "ios": "https://dc.lft.to/lastmile_qr_scan"}, "fusion_lon": 0.0, "lat": 38.905672833333334, "bike_id": "2dfc3fb4155ece62bb7ec1711fb44a90", "type": "electric_scooter", "is_reserved": 0, "lon": -77.034502}, {"fusion_lat": 0.0, "name": "0d8f69ce82c890e8326c6e14e31a220c", "is_disabled": 0, "rental_uris": {"android": "https://dc.lft.to/lastmile_qr_scan", "ios": "https://dc.lft.to/lastmile_qr_scan"}, "fusion_lon": 0.0, "lat": 38.909714666666666, "bike_id": "0d8f69ce82c890e8326c6e14e31a220c", "type": "electric_scooter", "is_reserved": 0, "lon": -77.00886333333334}, {"fusion_lat": 0.0, "name": "5f4485abe76d78f47cdd419acf0b203f", "is_disabled": 0, "rental_uris": {"android": "https://dc.lft.to/lastmile_qr_scan", "ios": "https://dc.lft.to/lastmile_qr_scan"}, "fusion_lon": 0.0, "lat": 38.918384333333336, "bike_id": "5f4485abe76d78f47cdd419acf0b203f", "type": "electric_scooter", "is_reserved": 0, "lon": -77.03518416666667}, {"fusion_lat": 0.0, "name": "d68d3543e99e235b194f3bfaf3543e7d", "is_disabled": 0, "rental_uris": {"android": "https://dc.lft.to/lastmile_qr_scan", "ios": "https://dc.lft.to/lastmile_qr_scan"}, "fusion_lon": 0.0, "lat": 38.922514, "bike_id": "d68d3543e99e235b194f3bfaf3543e7d", "type": "electric_scooter", "is_reserved": 0, "lon": -77.0425675}, {"fusion_lat": 0.0, "name": "330705271a2bd3963ea200808e3d4910", "is_disabled": 0, "rental_uris": {"android": "https://dc.lft.to/lastmile_qr_scan", "ios": "https://dc.lft.to/lastmile_qr_scan"}, "fusion_lon": 0.0, "lat": 38.862430333333336, "bike_id": "330705271a2bd3963ea200808e3d4910", "type": "electric_scooter", "is_reserved": 0, "lon": -76.99498983333334}, {"fusion_lat": 0.0, "name": "afc9007e8f06e695a11e35fbff727684", "is_disabled": 0, "rental_uris": {"android": "https://dc.lft.to/lastmile_qr_scan", "ios": "https://dc.lft.to/lastmile_qr_scan"}, "fusion_lon": 0.0, "lat": 38.905095333333335, "bike_id": "afc9007e8f06e695a11e35fbff727684", "type": "electric_scooter", "is_reserved": 0, "lon": -77.06388516666667}, {"fusion_lat": 0.0, "name": "4b9d31029413c2b6cf8706bbbb32d7dc", "is_disabled": 0, "rental_uris": {"android": "https://dc.lft.to/lastmile_qr_scan", "ios": "https://dc.lft.to/lastmile_qr_scan"}, "fusion_lon": 0.0, "lat": 38.957342, "bike_id": "4b9d31029413c2b6cf8706bbbb32d7dc", "type": "electric_scooter", "is_reserved": 0, "lon": -77.024036}, {"fusion_lat": 0.0, "name": "cdb979c306175465f133e4e7dc4cd17d", "is_disabled": 0, "rental_uris": {"android": "https://dc.lft.to/lastmile_qr_scan", "ios": "https://dc.lft.to/lastmile_qr_scan"}, "fusion_lon": 0.0, "lat": 38.915668833333335, "bike_id": "cdb979c306175465f133e4e7dc4cd17d", "type": "electric_scooter", "is_reserved": 0, "lon": -77.0385825}, {"fusion_lat": 0.0, "name": "7f83e082c0eb557773b812c8973c47c8", "is_disabled": 0, "rental_uris": {"android": "https://dc.lft.to/lastmile_qr_scan", "ios": "https://dc.lft.to/lastmile_qr_scan"}, "fusion_lon": 0.0, "lat": 38.89733966666667, "bike_id": "7f83e082c0eb557773b812c8973c47c8", "type": "electric_bike", "is_reserved": 0, "lon": -76.920483}, {"fusion_lat": 0.0, "name": "f85f96cd6fdba4976b586b032609914f", "is_disabled": 0, "rental_uris": {"android": "https://dc.lft.to/lastmile_qr_scan", "ios": "https://dc.lft.to/lastmile_qr_scan"}, "fusion_lon": 0.0, "lat": 38.896905333333336, "bike_id": "f85f96cd6fdba4976b586b032609914f", "type": "electric_scooter", "is_reserved": 0, "lon": -77.043472}, {"fusion_lat": 0.0, "name": "d10f57fb2f3223fd31c88e019bb93834", "is_disabled": 0, "rental_uris": {"android": "https://dc.lft.to/lastmile_qr_scan", "ios": "https://dc.lft.to/lastmile_qr_scan"}, "fusion_lon": 0.0, "lat": 38.908693, "bike_id": "d10f57fb2f3223fd31c88e019bb93834", "type": "electric_scooter", "is_reserved": 0, "lon": -77.04303416666667}, {"fusion_lat": 0.0, "name": "090c16323f245cf427c9432634f2cce1", "is_disabled": 0, "rental_uris": {"android": "https://dc.lft.to/lastmile_qr_scan", "ios": "https://dc.lft.to/lastmile_qr_scan"}, "fusion_lon": 0.0, "lat": 38.906979, "bike_id": "090c16323f245cf427c9432634f2cce1", "type": "electric_scooter", "is_reserved": 0, "lon": -77.0271915}, {"fusion_lat": 0.0, "name": "6b12ed6a9fb8c8c43b57925a46bc7c36", "is_disabled": 0, "rental_uris": {"android": "https://dc.lft.to/lastmile_qr_scan", "ios": "https://dc.lft.to/lastmile_qr_scan"}, "fusion_lon": 0.0, "lat": 38.911256, "bike_id": "6b12ed6a9fb8c8c43b57925a46bc7c36", "type": "electric_scooter", "is_reserved": 0, "lon": -77.02096716666667}, {"fusion_lat": 0.0, "name": "1cb7923c86bc89328af71d72fe7be291", "is_disabled": 0, "rental_uris": {"android": "https://dc.lft.to/lastmile_qr_scan", "ios": "https://dc.lft.to/lastmile_qr_scan"}, "fusion_lon": 0.0, "lat": 38.891172166666664, "bike_id": "1cb7923c86bc89328af71d72fe7be291", "type": "electric_scooter", "is_reserved": 0, "lon": -76.94388433333333}, {"fusion_lat": 0.0, "name": "f3e2d7e45d5c2176d72e92061945e625", "is_disabled": 0, "rental_uris": {"android": "https://dc.lft.to/lastmile_qr_scan", "ios": "https://dc.lft.to/lastmile_qr_scan"}, "fusion_lon": 0.0, "lat": 38.969865166666665, "bike_id": "f3e2d7e45d5c2176d72e92061945e625", "type": "electric_scooter", "is_reserved": 0, "lon": -77.011615}, {"fusion_lat": 0.0, "name": "4732ef479296e38dda2af847dc3143a4", "is_disabled": 0, "rental_uris": {"android": "https://dc.lft.to/lastmile_qr_scan", "ios": "https://dc.lft.to/lastmile_qr_scan"}, "fusion_lon": 0.0, "lat": 38.91108533333333, "bike_id": "4732ef479296e38dda2af847dc3143a4", "type": "electric_scooter", "is_reserved": 0, "lon": -77.02910333333334}, {"fusion_lat": 0.0, "name": "11d350b36f157f9661ba417463dcd34f", "is_disabled": 0, "rental_uris": {"android": "https://dc.lft.to/lastmile_qr_scan", "ios": "https://dc.lft.to/lastmile_qr_scan"}, "fusion_lon": 0.0, "lat": 38.930615333333336, "bike_id": "11d350b36f157f9661ba417463dcd34f", "type": "electric_scooter", "is_reserved": 0, "lon": -77.04055733333334}, {"fusion_lat": 0.0, "name": "4244721546e422900fe5aa6dede48e3e", "is_disabled": 0, "rental_uris": {"android": "https://dc.lft.to/lastmile_qr_scan", "ios": "https://dc.lft.to/lastmile_qr_scan"}, "fusion_lon": 0.0, "lat": 38.97465183333333, "bike_id": "4244721546e422900fe5aa6dede48e3e", "type": "electric_scooter", "is_reserved": 0, "lon": -77.01317233333333}, {"fusion_lat": 0.0, "name": "df737a106632c9d189d59254fba24f4c", "is_disabled": 0, "rental_uris": {"android": "https://dc.lft.to/lastmile_qr_scan", "ios": "https://dc.lft.to/lastmile_qr_scan"}, "fusion_lon": 0.0, "lat": 38.909205166666666, "bike_id": "df737a106632c9d189d59254fba24f4c", "type": "electric_scooter", "is_reserved": 0, "lon": -77.07289516666667}, {"fusion_lat": 0.0, "name": "02e920116ae8014f156bfd2fd3bc9196", "is_disabled": 0, "rental_uris": {"android": "https://dc.lft.to/lastmile_qr_scan", "ios": "https://dc.lft.to/lastmile_qr_scan"}, "fusion_lon": 0.0, "lat": 38.9618565, "bike_id": "02e920116ae8014f156bfd2fd3bc9196", "type": "electric_bike", "is_reserved": 0, "lon": -77.05267483333333}, {"fusion_lat": 0.0, "name": "ddcde17047927fc90985b5d887aeda2a", "is_disabled": 0, "rental_uris": {"android": "https://dc.lft.to/lastmile_qr_scan", "ios": "https://dc.lft.to/lastmile_qr_scan"}, "fusion_lon": 0.0, "lat": 38.897297, "bike_id": "ddcde17047927fc90985b5d887aeda2a", "type": "electric_scooter", "is_reserved": 0, "lon": -77.00373116666667}, {"fusion_lat": 0.0, "name": "a0f7b7c0aafb688778ba5aae48111ff2", "is_disabled": 0, "rental_uris": {"android": "https://dc.lft.to/lastmile_qr_scan", "ios": "https://dc.lft.to/lastmile_qr_scan"}, "fusion_lon": 0.0, "lat": 38.919098, "bike_id": "a0f7b7c0aafb688778ba5aae48111ff2", "type": "electric_scooter", "is_reserved": 0, "lon": -77.00215916666667}, {"fusion_lat": 0.0, "name": "65d9d404cd643346ca4aaa5476a99528", "is_disabled": 0, "rental_uris": {"android": "https://dc.lft.to/lastmile_qr_scan", "ios": "https://dc.lft.to/lastmile_qr_scan"}, "fusion_lon": 0.0, "lat": 38.9575905, "bike_id": "65d9d404cd643346ca4aaa5476a99528", "type": "electric_bike", "is_reserved": 0, "lon": -76.98092866666667}, {"fusion_lat": 0.0, "name": "1b98a382bb4af802af4c58f198f853c6", "is_disabled": 0, "rental_uris": {"android": "https://dc.lft.to/lastmile_qr_scan", "ios": "https://dc.lft.to/lastmile_qr_scan"}, "fusion_lon": 0.0, "lat": 38.932379833333336, "bike_id": "1b98a382bb4af802af4c58f198f853c6", "type": "electric_bike", "is_reserved": 0, "lon": -76.9742575}, {"fusion_lat": 0.0, "name": "c5677c384dd96f2296edb7d1281ff818", "is_disabled": 0, "rental_uris": {"android": "https://dc.lft.to/lastmile_qr_scan", "ios": "https://dc.lft.to/lastmile_qr_scan"}, "fusion_lon": 0.0, "lat": 38.923258, "bike_id": "c5677c384dd96f2296edb7d1281ff818", "type": "electric_scooter", "is_reserved": 0, "lon": -77.02075916666666}, {"fusion_lat": 0.0, "name": "69de33f4544fb2e265e8bb5c34d3e2e1", "is_disabled": 0, "rental_uris": {"android": "https://dc.lft.to/lastmile_qr_scan", "ios": "https://dc.lft.to/lastmile_qr_scan"}, "fusion_lon": 0.0, "lat": 38.95968933333333, "bike_id": "69de33f4544fb2e265e8bb5c34d3e2e1", "type": "electric_bike", "is_reserved": 0, "lon": -76.981556}, {"fusion_lat": 0.0, "name": "3f7d47032257f5f2dcf7528a9f8896b1", "is_disabled": 0, "rental_uris": {"android": "https://dc.lft.to/lastmile_qr_scan", "ios": "https://dc.lft.to/lastmile_qr_scan"}, "fusion_lon": 0.0, "lat": 38.89913133333334, "bike_id": "3f7d47032257f5f2dcf7528a9f8896b1", "type": "electric_scooter", "is_reserved": 0, "lon": -76.93351116666666}, {"fusion_lat": 0.0, "name": "818f86e75f93394c3ad34081f09f9c12", "is_disabled": 0, "rental_uris": {"android": "https://dc.lft.to/lastmile_qr_scan", "ios": "https://dc.lft.to/lastmile_qr_scan"}, "fusion_lon": 0.0, "lat": 38.884951666666666, "bike_id": "818f86e75f93394c3ad34081f09f9c12", "type": "electric_scooter", "is_reserved": 0, "lon": -77.0073085}, {"fusion_lat": 0.0, "name": "b89d0cfc0730d6b1352d9176f0e21957", "is_disabled": 0, "rental_uris": {"android": "https://dc.lft.to/lastmile_qr_scan", "ios": "https://dc.lft.to/lastmile_qr_scan"}, "fusion_lon": 0.0, "lat": 38.926488, "bike_id": "b89d0cfc0730d6b1352d9176f0e21957", "type": "electric_scooter", "is_reserved": 0, "lon": -77.02726983333334}, {"fusion_lat": 0.0, "name": "cea8f078415c7c504341411fa9bccc4d", "is_disabled": 0, "rental_uris": {"android": "https://dc.lft.to/lastmile_qr_scan", "ios": "https://dc.lft.to/lastmile_qr_scan"}, "fusion_lon": 0.0, "lat": 38.9204065, "bike_id": "cea8f078415c7c504341411fa9bccc4d", "type": "electric_scooter", "is_reserved": 0, "lon": -77.048147}, {"fusion_lat": 0.0, "name": "fe3cec771a636a209befeb97421f0ad2", "is_disabled": 0, "rental_uris": {"android": "https://dc.lft.to/lastmile_qr_scan", "ios": "https://dc.lft.to/lastmile_qr_scan"}, "fusion_lon": 0.0, "lat": 38.89638816666667, "bike_id": "fe3cec771a636a209befeb97421f0ad2", "type": "electric_scooter", "is_reserved": 0, "lon": -77.04658333333333}, {"fusion_lat": 0.0, "name": "7dc4ce0b570da60940e891dd2a598e29", "is_disabled": 0, "rental_uris": {"android": "https://dc.lft.to/lastmile_qr_scan", "ios": "https://dc.lft.to/lastmile_qr_scan"}, "fusion_lon": 0.0, "lat": 38.92852233333333, "bike_id": "7dc4ce0b570da60940e891dd2a598e29", "type": "electric_scooter", "is_reserved": 0, "lon": -77.03101366666667}, {"fusion_lat": 0.0, "name": "a6b6b4d3120e02e6ba7199e90c138ff6", "is_disabled": 0, "rental_uris": {"android": "https://dc.lft.to/lastmile_qr_scan", "ios": "https://dc.lft.to/lastmile_qr_scan"}, "fusion_lon": 0.0, "lat": 38.929020333333334, "bike_id": "a6b6b4d3120e02e6ba7199e90c138ff6", "type": "electric_scooter", "is_reserved": 0, "lon": -77.06409016666667}, {"fusion_lat": 0.0, "name": "7703e0dfb4452ef393d0166aec486a0b", "is_disabled": 0, "rental_uris": {"android": "https://dc.lft.to/lastmile_qr_scan", "ios": "https://dc.lft.to/lastmile_qr_scan"}, "fusion_lon": 0.0, "lat": 38.901273333333336, "bike_id": "7703e0dfb4452ef393d0166aec486a0b", "type": "electric_scooter", "is_reserved": 0, "lon": -77.00323516666667}, {"fusion_lat": 0.0, "name": "da9ea756709c043b4a5542534423b250", "is_disabled": 0, "rental_uris": {"android": "https://dc.lft.to/lastmile_qr_scan", "ios": "https://dc.lft.to/lastmile_qr_scan"}, "fusion_lon": 0.0, "lat": 38.912190833333334, "bike_id": "da9ea756709c043b4a5542534423b250", "type": "electric_scooter", "is_reserved": 0, "lon": -77.03212016666667}, {"fusion_lat": 0.0, "name": "2650574a5cf7e0fe9111f3f35410b162", "is_disabled": 0, "rental_uris": {"android": "https://dc.lft.to/lastmile_qr_scan", "ios": "https://dc.lft.to/lastmile_qr_scan"}, "fusion_lon": 0.0, "lat": 38.917691166666664, "bike_id": "2650574a5cf7e0fe9111f3f35410b162", "type": "electric_scooter", "is_reserved": 0, "lon": -77.0150215}, {"fusion_lat": 0.0, "name": "73af0b5ae93edd7b4db6f9d8257c87b6", "is_disabled": 0, "rental_uris": {"android": "https://dc.lft.to/lastmile_qr_scan", "ios": "https://dc.lft.to/lastmile_qr_scan"}, "fusion_lon": 0.0, "lat": 38.90253166666667, "bike_id": "73af0b5ae93edd7b4db6f9d8257c87b6", "type": "electric_scooter", "is_reserved": 0, "lon": -77.01767983333333}, {"fusion_lat": 0.0, "name": "8d26b0dd74032dc8ff31abb226ae1ac2", "is_disabled": 0, "rental_uris": {"android": "https://dc.lft.to/lastmile_qr_scan", "ios": "https://dc.lft.to/lastmile_qr_scan"}, "fusion_lon": 0.0, "lat": 38.944084333333336, "bike_id": "8d26b0dd74032dc8ff31abb226ae1ac2", "type": "electric_scooter", "is_reserved": 0, "lon": -77.0320415}, {"fusion_lat": 0.0, "name": "1e90c9a79c2c8452a78abef3ce4082a6", "is_disabled": 0, "rental_uris": {"android": "https://dc.lft.to/lastmile_qr_scan", "ios": "https://dc.lft.to/lastmile_qr_scan"}, "fusion_lon": 0.0, "lat": 38.92771366666667, "bike_id": "1e90c9a79c2c8452a78abef3ce4082a6", "type": "electric_scooter", "is_reserved": 0, "lon": -77.01614333333333}, {"fusion_lat": 0.0, "name": "3f026d5e171e1e20a7b3d67b61b4cf03", "is_disabled": 0, "rental_uris": {"android": "https://dc.lft.to/lastmile_qr_scan", "ios": "https://dc.lft.to/lastmile_qr_scan"}, "fusion_lon": 0.0, "lat": 38.913279333333335, "bike_id": "3f026d5e171e1e20a7b3d67b61b4cf03", "type": "electric_scooter", "is_reserved": 0, "lon": -77.03190316666667}, {"fusion_lat": 0.0, "name": "7344c7468f470239e3ae0c1ba351a873", "is_disabled": 0, "rental_uris": {"android": "https://dc.lft.to/lastmile_qr_scan", "ios": "https://dc.lft.to/lastmile_qr_scan"}, "fusion_lon": 0.0, "lat": 38.916674, "bike_id": "7344c7468f470239e3ae0c1ba351a873", "type": "electric_scooter", "is_reserved": 0, "lon": -77.0385335}, {"fusion_lat": 0.0, "name": "ad9e6ff5f4e6b12c135565521e8299c0", "is_disabled": 0, "rental_uris": {"android": "https://dc.lft.to/lastmile_qr_scan", "ios": "https://dc.lft.to/lastmile_qr_scan"}, "fusion_lon": 0.0, "lat": 38.9260185, "bike_id": "ad9e6ff5f4e6b12c135565521e8299c0", "type": "electric_scooter", "is_reserved": 0, "lon": -77.0215675}, {"fusion_lat": 0.0, "name": "c30152d349627f3f9cf229b34313bc35", "is_disabled": 0, "rental_uris": {"android": "https://dc.lft.to/lastmile_qr_scan", "ios": "https://dc.lft.to/lastmile_qr_scan"}, "fusion_lon": 0.0, "lat": 38.89831066666667, "bike_id": "c30152d349627f3f9cf229b34313bc35", "type": "electric_scooter", "is_reserved": 0, "lon": -76.94650333333334}, {"fusion_lat": 0.0, "name": "5d8e94addc37e67f90e5f5aa7517d983", "is_disabled": 0, "rental_uris": {"android": "https://dc.lft.to/lastmile_qr_scan", "ios": "https://dc.lft.to/lastmile_qr_scan"}, "fusion_lon": 0.0, "lat": 38.906837833333334, "bike_id": "5d8e94addc37e67f90e5f5aa7517d983", "type": "electric_scooter", "is_reserved": 0, "lon": -77.04733216666666}, {"fusion_lat": 0.0, "name": "c5a61b199bddcacc79ce5f78186a897c", "is_disabled": 0, "rental_uris": {"android": "https://dc.lft.to/lastmile_qr_scan", "ios": "https://dc.lft.to/lastmile_qr_scan"}, "fusion_lon": 0.0, "lat": 38.878983166666664, "bike_id": "c5a61b199bddcacc79ce5f78186a897c", "type": "electric_scooter", "is_reserved": 0, "lon": -77.01365133333333}, {"fusion_lat": 0.0, "name": "ae5052efac9b4d8637a81688097f3250", "is_disabled": 0, "rental_uris": {"android": "https://dc.lft.to/lastmile_qr_scan", "ios": "https://dc.lft.to/lastmile_qr_scan"}, "fusion_lon": 0.0, "lat": 38.884581833333336, "bike_id": "ae5052efac9b4d8637a81688097f3250", "type": "electric_scooter", "is_reserved": 0, "lon": -76.99834483333333}, {"fusion_lat": 0.0, "name": "54065a3f45d7279c44659a089f0ecc66", "is_disabled": 0, "rental_uris": {"android": "https://dc.lft.to/lastmile_qr_scan", "ios": "https://dc.lft.to/lastmile_qr_scan"}, "fusion_lon": 0.0, "lat": 38.93797583333333, "bike_id": "54065a3f45d7279c44659a089f0ecc66", "type": "electric_scooter", "is_reserved": 0, "lon": -77.02470766666667}, {"fusion_lat": 0.0, "name": "0ead80d5d382df0d0369f206d9fb2de2", "is_disabled": 0, "rental_uris": {"android": "https://dc.lft.to/lastmile_qr_scan", "ios": "https://dc.lft.to/lastmile_qr_scan"}, "fusion_lon": 0.0, "lat": 38.91916483333333, "bike_id": "0ead80d5d382df0d0369f206d9fb2de2", "type": "electric_scooter", "is_reserved": 0, "lon": -77.03315433333333}, {"fusion_lat": 0.0, "name": "25e98a69853d4b8e6293fa86ad32a244", "is_disabled": 0, "rental_uris": {"android": "https://dc.lft.to/lastmile_qr_scan", "ios": "https://dc.lft.to/lastmile_qr_scan"}, "fusion_lon": 0.0, "lat": 38.91121, "bike_id": "25e98a69853d4b8e6293fa86ad32a244", "type": "electric_scooter", "is_reserved": 0, "lon": -77.02086733333333}, {"fusion_lat": 0.0, "name": "8fed1bbfb555393768468c27d87cf245", "is_disabled": 0, "rental_uris": {"android": "https://dc.lft.to/lastmile_qr_scan", "ios": "https://dc.lft.to/lastmile_qr_scan"}, "fusion_lon": 0.0, "lat": 38.94644783333333, "bike_id": "8fed1bbfb555393768468c27d87cf245", "type": "electric_bike", "is_reserved": 0, "lon": -77.0305445}, {"fusion_lat": 0.0, "name": "6936ca7c107566e8f79708222b2cbccd", "is_disabled": 0, "rental_uris": {"android": "https://dc.lft.to/lastmile_qr_scan", "ios": "https://dc.lft.to/lastmile_qr_scan"}, "fusion_lon": 0.0, "lat": 38.9330005, "bike_id": "6936ca7c107566e8f79708222b2cbccd", "type": "electric_scooter", "is_reserved": 0, "lon": -77.0246945}, {"fusion_lat": 0.0, "name": "58b1b4d4af006899079954327c857671", "is_disabled": 0, "rental_uris": {"android": "https://dc.lft.to/lastmile_qr_scan", "ios": "https://dc.lft.to/lastmile_qr_scan"}, "fusion_lon": 0.0, "lat": 38.920803, "bike_id": "58b1b4d4af006899079954327c857671", "type": "electric_scooter", "is_reserved": 0, "lon": -77.004586}, {"fusion_lat": 0.0, "name": "e752a2c9e8ac59217449c216e613d2b9", "is_disabled": 0, "rental_uris": {"android": "https://dc.lft.to/lastmile_qr_scan", "ios": "https://dc.lft.to/lastmile_qr_scan"}, "fusion_lon": 0.0, "lat": 38.919637333333334, "bike_id": "e752a2c9e8ac59217449c216e613d2b9", "type": "electric_scooter", "is_reserved": 0, "lon": -77.023764}, {"fusion_lat": 0.0, "name": "c9b1704d509c29b21d76d6feceddaf5b", "is_disabled": 0, "rental_uris": {"android": "https://dc.lft.to/lastmile_qr_scan", "ios": "https://dc.lft.to/lastmile_qr_scan"}, "fusion_lon": 0.0, "lat": 38.91713333333333, "bike_id": "c9b1704d509c29b21d76d6feceddaf5b", "type": "electric_scooter", "is_reserved": 0, "lon": -77.0120985}, {"fusion_lat": 0.0, "name": "652489855f344bcc7c9adc7ac232211d", "is_disabled": 0, "rental_uris": {"android": "https://dc.lft.to/lastmile_qr_scan", "ios": "https://dc.lft.to/lastmile_qr_scan"}, "fusion_lon": 0.0, "lat": 38.908224833333335, "bike_id": "652489855f344bcc7c9adc7ac232211d", "type": "electric_scooter", "is_reserved": 0, "lon": -77.05495633333334}, {"fusion_lat": 0.0, "name": "29ec479e9a0413cbc9339c2a1b1cbbef", "is_disabled": 0, "rental_uris": {"android": "https://dc.lft.to/lastmile_qr_scan", "ios": "https://dc.lft.to/lastmile_qr_scan"}, "fusion_lon": 0.0, "lat": 38.91808533333333, "bike_id": "29ec479e9a0413cbc9339c2a1b1cbbef", "type": "electric_scooter", "is_reserved": 0, "lon": -76.99983283333333}, {"fusion_lat": 0.0, "name": "59d4b77ceb6b9a7247f3422dc36b8a77", "is_disabled": 0, "rental_uris": {"android": "https://dc.lft.to/lastmile_qr_scan", "ios": "https://dc.lft.to/lastmile_qr_scan"}, "fusion_lon": 0.0, "lat": 38.92950583333333, "bike_id": "59d4b77ceb6b9a7247f3422dc36b8a77", "type": "electric_scooter", "is_reserved": 0, "lon": -77.04411266666666}, {"fusion_lat": 0.0, "name": "ca43e035c827ad2966f137e5fa541c26", "is_disabled": 0, "rental_uris": {"android": "https://dc.lft.to/lastmile_qr_scan", "ios": "https://dc.lft.to/lastmile_qr_scan"}, "fusion_lon": 0.0, "lat": 38.951185833333334, "bike_id": "ca43e035c827ad2966f137e5fa541c26", "type": "electric_scooter", "is_reserved": 0, "lon": -77.01366566666667}, {"fusion_lat": 0.0, "name": "dda7d7ff9fd73e9518d284677a299700", "is_disabled": 0, "rental_uris": {"android": "https://dc.lft.to/lastmile_qr_scan", "ios": "https://dc.lft.to/lastmile_qr_scan"}, "fusion_lon": 0.0, "lat": 38.96118966666667, "bike_id": "dda7d7ff9fd73e9518d284677a299700", "type": "electric_scooter", "is_reserved": 0, "lon": -77.028678}, {"fusion_lat": 0.0, "name": "151ae2414908d229d85a9e51cadacf09", "is_disabled": 0, "rental_uris": {"android": "https://dc.lft.to/lastmile_qr_scan", "ios": "https://dc.lft.to/lastmile_qr_scan"}, "fusion_lon": 0.0, "lat": 38.947052, "bike_id": "151ae2414908d229d85a9e51cadacf09", "type": "electric_scooter", "is_reserved": 0, "lon": -77.01938883333334}, {"fusion_lat": 0.0, "name": "020ec957720ac4fb2d71f5e543a0e101", "is_disabled": 0, "rental_uris": {"android": "https://dc.lft.to/lastmile_qr_scan", "ios": "https://dc.lft.to/lastmile_qr_scan"}, "fusion_lon": 0.0, "lat": 38.93191516666667, "bike_id": "020ec957720ac4fb2d71f5e543a0e101", "type": "electric_scooter", "is_reserved": 0, "lon": -77.04295016666667}, {"fusion_lat": 0.0, "name": "bac42954c860d18a5738e18fdebf475e", "is_disabled": 0, "rental_uris": {"android": "https://dc.lft.to/lastmile_qr_scan", "ios": "https://dc.lft.to/lastmile_qr_scan"}, "fusion_lon": 0.0, "lat": 38.9202905, "bike_id": "bac42954c860d18a5738e18fdebf475e", "type": "electric_scooter", "is_reserved": 0, "lon": -77.0128175}, {"fusion_lat": 0.0, "name": "c7175fcd56190002d1ad56e7fbd2b4ac", "is_disabled": 0, "rental_uris": {"android": "https://dc.lft.to/lastmile_qr_scan", "ios": "https://dc.lft.to/lastmile_qr_scan"}, "fusion_lon": 0.0, "lat": 38.97502716666666, "bike_id": "c7175fcd56190002d1ad56e7fbd2b4ac", "type": "electric_scooter", "is_reserved": 0, "lon": -77.0169815}, {"fusion_lat": 0.0, "name": "0ff3cddb5316dd33413493916ad3f31b", "is_disabled": 0, "rental_uris": {"android": "https://dc.lft.to/lastmile_qr_scan", "ios": "https://dc.lft.to/lastmile_qr_scan"}, "fusion_lon": 0.0, "lat": 38.8851555, "bike_id": "0ff3cddb5316dd33413493916ad3f31b", "type": "electric_scooter", "is_reserved": 0, "lon": -76.9295415}, {"fusion_lat": 0.0, "name": "020f51c69d46b9ca591d26d2c5dd7f05", "is_disabled": 0, "rental_uris": {"android": "https://dc.lft.to/lastmile_qr_scan", "ios": "https://dc.lft.to/lastmile_qr_scan"}, "fusion_lon": 0.0, "lat": 38.918528333333335, "bike_id": "020f51c69d46b9ca591d26d2c5dd7f05", "type": "electric_scooter", "is_reserved": 0, "lon": -77.0270145}, {"fusion_lat": 0.0, "name": "5fa9397db055ed6192f28fd0bbba8922", "is_disabled": 0, "rental_uris": {"android": "https://dc.lft.to/lastmile_qr_scan", "ios": "https://dc.lft.to/lastmile_qr_scan"}, "fusion_lon": 0.0, "lat": 38.912535, "bike_id": "5fa9397db055ed6192f28fd0bbba8922", "type": "electric_scooter", "is_reserved": 0, "lon": -77.047391}, {"fusion_lat": 0.0, "name": "b3f8497c7c44fb0c6b3e9fcacd886916", "is_disabled": 0, "rental_uris": {"android": "https://dc.lft.to/lastmile_qr_scan", "ios": "https://dc.lft.to/lastmile_qr_scan"}, "fusion_lon": 0.0, "lat": 38.863363666666665, "bike_id": "b3f8497c7c44fb0c6b3e9fcacd886916", "type": "electric_bike", "is_reserved": 0, "lon": -76.987227}, {"fusion_lat": 0.0, "name": "f487fbe5f8c5ab9d83a385fbb4cd5e1a", "is_disabled": 0, "rental_uris": {"android": "https://dc.lft.to/lastmile_qr_scan", "ios": "https://dc.lft.to/lastmile_qr_scan"}, "fusion_lon": 0.0, "lat": 38.90976583333333, "bike_id": "f487fbe5f8c5ab9d83a385fbb4cd5e1a", "type": "electric_scooter", "is_reserved": 0, "lon": -77.0386765}, {"fusion_lat": 0.0, "name": "29cbf5a8b1c092909fab1ee7b21423f9", "is_disabled": 0, "rental_uris": {"android": "https://dc.lft.to/lastmile_qr_scan", "ios": "https://dc.lft.to/lastmile_qr_scan"}, "fusion_lon": 0.0, "lat": 38.910036833333336, "bike_id": "29cbf5a8b1c092909fab1ee7b21423f9", "type": "electric_scooter", "is_reserved": 0, "lon": -77.04482666666667}, {"fusion_lat": 0.0, "name": "20098843a272bb99f84585445d42968a", "is_disabled": 0, "rental_uris": {"android": "https://dc.lft.to/lastmile_qr_scan", "ios": "https://dc.lft.to/lastmile_qr_scan"}, "fusion_lon": 0.0, "lat": 38.940721, "bike_id": "20098843a272bb99f84585445d42968a", "type": "electric_scooter", "is_reserved": 0, "lon": -77.017083}, {"fusion_lat": 0.0, "name": "27c84fc4d579cefff63ee18e630b3624", "is_disabled": 0, "rental_uris": {"android": "https://dc.lft.to/lastmile_qr_scan", "ios": "https://dc.lft.to/lastmile_qr_scan"}, "fusion_lon": 0.0, "lat": 38.922873333333335, "bike_id": "27c84fc4d579cefff63ee18e630b3624", "type": "electric_scooter", "is_reserved": 0, "lon": -77.03661466666667}, {"fusion_lat": 0.0, "name": "165a47378b9e51e8d241a5640ff11c2a", "is_disabled": 0, "rental_uris": {"android": "https://dc.lft.to/lastmile_qr_scan", "ios": "https://dc.lft.to/lastmile_qr_scan"}, "fusion_lon": 0.0, "lat": 38.8655725, "bike_id": "165a47378b9e51e8d241a5640ff11c2a", "type": "electric_scooter", "is_reserved": 0, "lon": -76.9835075}, {"fusion_lat": 0.0, "name": "3b95c46c1e6fd381f5be18baae74576e", "is_disabled": 0, "rental_uris": {"android": "https://dc.lft.to/lastmile_qr_scan", "ios": "https://dc.lft.to/lastmile_qr_scan"}, "fusion_lon": 0.0, "lat": 38.882596, "bike_id": "3b95c46c1e6fd381f5be18baae74576e", "type": "electric_scooter", "is_reserved": 0, "lon": -76.99491233333333}, {"fusion_lat": 0.0, "name": "373ebe1e6d50a5d6c06ee2fb46bc0da6", "is_disabled": 0, "rental_uris": {"android": "https://dc.lft.to/lastmile_qr_scan", "ios": "https://dc.lft.to/lastmile_qr_scan"}, "fusion_lon": 0.0, "lat": 38.908323333333335, "bike_id": "373ebe1e6d50a5d6c06ee2fb46bc0da6", "type": "electric_scooter", "is_reserved": 0, "lon": -77.03854516666667}, {"fusion_lat": 0.0, "name": "3ec2d12612ee71df8a36dcd754e64ce5", "is_disabled": 0, "rental_uris": {"android": "https://dc.lft.to/lastmile_qr_scan", "ios": "https://dc.lft.to/lastmile_qr_scan"}, "fusion_lon": 0.0, "lat": 38.91703, "bike_id": "3ec2d12612ee71df8a36dcd754e64ce5", "type": "electric_scooter", "is_reserved": 0, "lon": -77.03112783333333}, {"fusion_lat": 0.0, "name": "bc2b476749817ac42ce0e807838e5783", "is_disabled": 0, "rental_uris": {"android": "https://dc.lft.to/lastmile_qr_scan", "ios": "https://dc.lft.to/lastmile_qr_scan"}, "fusion_lon": 0.0, "lat": 38.88121783333333, "bike_id": "bc2b476749817ac42ce0e807838e5783", "type": "electric_scooter", "is_reserved": 0, "lon": -76.992834}, {"fusion_lat": 0.0, "name": "c07659faacc568328ca74c4557d789c9", "is_disabled": 0, "rental_uris": {"android": "https://dc.lft.to/lastmile_qr_scan", "ios": "https://dc.lft.to/lastmile_qr_scan"}, "fusion_lon": 0.0, "lat": 38.900477, "bike_id": "c07659faacc568328ca74c4557d789c9", "type": "electric_scooter", "is_reserved": 0, "lon": -77.01184366666666}, {"fusion_lat": 0.0, "name": "6212b1ef8ba362ccc780fae40da83f55", "is_disabled": 0, "rental_uris": {"android": "https://dc.lft.to/lastmile_qr_scan", "ios": "https://dc.lft.to/lastmile_qr_scan"}, "fusion_lon": 0.0, "lat": 38.905244333333336, "bike_id": "6212b1ef8ba362ccc780fae40da83f55", "type": "electric_scooter", "is_reserved": 0, "lon": -77.03475733333333}, {"fusion_lat": 0.0, "name": "a7c7afb3ee502af9f967bff723709bd2", "is_disabled": 0, "rental_uris": {"android": "https://dc.lft.to/lastmile_qr_scan", "ios": "https://dc.lft.to/lastmile_qr_scan"}, "fusion_lon": 0.0, "lat": 38.91640366666667, "bike_id": "a7c7afb3ee502af9f967bff723709bd2", "type": "electric_scooter", "is_reserved": 0, "lon": -77.048184}, {"fusion_lat": 0.0, "name": "5b9fb4b89b573f149159e93176cdcd18", "is_disabled": 0, "rental_uris": {"android": "https://dc.lft.to/lastmile_qr_scan", "ios": "https://dc.lft.to/lastmile_qr_scan"}, "fusion_lon": 0.0, "lat": 38.9203595, "bike_id": "5b9fb4b89b573f149159e93176cdcd18", "type": "electric_scooter", "is_reserved": 0, "lon": -77.01794466666666}, {"fusion_lat": 0.0, "name": "2af09a95edf29c6cd5cd2b0810429d60", "is_disabled": 0, "rental_uris": {"android": "https://dc.lft.to/lastmile_qr_scan", "ios": "https://dc.lft.to/lastmile_qr_scan"}, "fusion_lon": 0.0, "lat": 38.88740283333333, "bike_id": "2af09a95edf29c6cd5cd2b0810429d60", "type": "electric_scooter", "is_reserved": 0, "lon": -77.02583083333333}, {"fusion_lat": 0.0, "name": "8934020fe7fb8f65085135f995f59dc1", "is_disabled": 0, "rental_uris": {"android": "https://dc.lft.to/lastmile_qr_scan", "ios": "https://dc.lft.to/lastmile_qr_scan"}, "fusion_lon": 0.0, "lat": 38.876354666666664, "bike_id": "8934020fe7fb8f65085135f995f59dc1", "type": "electric_scooter", "is_reserved": 0, "lon": -77.0011675}, {"fusion_lat": 0.0, "name": "21588d0c318f4edbb29812fcc6a2ee13", "is_disabled": 0, "rental_uris": {"android": "https://dc.lft.to/lastmile_qr_scan", "ios": "https://dc.lft.to/lastmile_qr_scan"}, "fusion_lon": 0.0, "lat": 38.9345335, "bike_id": "21588d0c318f4edbb29812fcc6a2ee13", "type": "electric_scooter", "is_reserved": 0, "lon": -77.07269033333333}, {"fusion_lat": 0.0, "name": "a56156fb4c085d187898716f47a0de49", "is_disabled": 0, "rental_uris": {"android": "https://dc.lft.to/lastmile_qr_scan", "ios": "https://dc.lft.to/lastmile_qr_scan"}, "fusion_lon": 0.0, "lat": 38.957337333333335, "bike_id": "a56156fb4c085d187898716f47a0de49", "type": "electric_scooter", "is_reserved": 0, "lon": -77.02402566666666}, {"fusion_lat": 0.0, "name": "7683b54a925d4a20b663bceaa5317e0f", "is_disabled": 0, "rental_uris": {"android": "https://dc.lft.to/lastmile_qr_scan", "ios": "https://dc.lft.to/lastmile_qr_scan"}, "fusion_lon": 0.0, "lat": 38.918456666666664, "bike_id": "7683b54a925d4a20b663bceaa5317e0f", "type": "electric_scooter", "is_reserved": 0, "lon": -77.023967}, {"fusion_lat": 0.0, "name": "1acc9c476f7ea891de49af70f755c23d", "is_disabled": 0, "rental_uris": {"android": "https://dc.lft.to/lastmile_qr_scan", "ios": "https://dc.lft.to/lastmile_qr_scan"}, "fusion_lon": 0.0, "lat": 38.891595833333334, "bike_id": "1acc9c476f7ea891de49af70f755c23d", "type": "electric_bike", "is_reserved": 0, "lon": -77.00470116666666}, {"fusion_lat": 0.0, "name": "3690bcc343d0d9ee04966244761b641e", "is_disabled": 0, "rental_uris": {"android": "https://dc.lft.to/lastmile_qr_scan", "ios": "https://dc.lft.to/lastmile_qr_scan"}, "fusion_lon": 0.0, "lat": 38.89741216666667, "bike_id": "3690bcc343d0d9ee04966244761b641e", "type": "electric_scooter", "is_reserved": 0, "lon": -77.00008766666667}, {"fusion_lat": 0.0, "name": "6af5329f71df5aaf9ea97736ae187c4c", "is_disabled": 0, "rental_uris": {"android": "https://dc.lft.to/lastmile_qr_scan", "ios": "https://dc.lft.to/lastmile_qr_scan"}, "fusion_lon": 0.0, "lat": 38.901760833333334, "bike_id": "6af5329f71df5aaf9ea97736ae187c4c", "type": "electric_scooter", "is_reserved": 0, "lon": -76.9414745}, {"fusion_lat": 0.0, "name": "1fd02a28df02af4f9d9940719b345c60", "is_disabled": 0, "rental_uris": {"android": "https://dc.lft.to/lastmile_qr_scan", "ios": "https://dc.lft.to/lastmile_qr_scan"}, "fusion_lon": 0.0, "lat": 38.945114333333336, "bike_id": "1fd02a28df02af4f9d9940719b345c60", "type": "electric_bike", "is_reserved": 0, "lon": -77.006801}, {"fusion_lat": 0.0, "name": "aa3f4a6f5db2dbf2c2d645784a89ab07", "is_disabled": 0, "rental_uris": {"android": "https://dc.lft.to/lastmile_qr_scan", "ios": "https://dc.lft.to/lastmile_qr_scan"}, "fusion_lon": 0.0, "lat": 38.912847166666666, "bike_id": "aa3f4a6f5db2dbf2c2d645784a89ab07", "type": "electric_scooter", "is_reserved": 0, "lon": -77.031757}, {"fusion_lat": 0.0, "name": "0fc5d6e240c451a94d2f70fca0be8603", "is_disabled": 0, "rental_uris": {"android": "https://dc.lft.to/lastmile_qr_scan", "ios": "https://dc.lft.to/lastmile_qr_scan"}, "fusion_lon": 0.0, "lat": 38.90975366666667, "bike_id": "0fc5d6e240c451a94d2f70fca0be8603", "type": "electric_scooter", "is_reserved": 0, "lon": -77.02090533333333}, {"fusion_lat": 0.0, "name": "c18f6cf78711103ecb043cde1a2f537b", "is_disabled": 0, "rental_uris": {"android": "https://dc.lft.to/lastmile_qr_scan", "ios": "https://dc.lft.to/lastmile_qr_scan"}, "fusion_lon": 0.0, "lat": 38.838670666666665, "bike_id": "c18f6cf78711103ecb043cde1a2f537b", "type": "electric_scooter", "is_reserved": 0, "lon": -76.997083}, {"fusion_lat": 0.0, "name": "0f14b8bd6eaa301906d9d2168a34583c", "is_disabled": 0, "rental_uris": {"android": "https://dc.lft.to/lastmile_qr_scan", "ios": "https://dc.lft.to/lastmile_qr_scan"}, "fusion_lon": 0.0, "lat": 38.877979, "bike_id": "0f14b8bd6eaa301906d9d2168a34583c", "type": "electric_scooter", "is_reserved": 0, "lon": -76.99014783333334}, {"fusion_lat": 0.0, "name": "fcfbb7b021ce3606bc5b4fc2fb537b25", "is_disabled": 0, "rental_uris": {"android": "https://dc.lft.to/lastmile_qr_scan", "ios": "https://dc.lft.to/lastmile_qr_scan"}, "fusion_lon": 0.0, "lat": 38.923324666666666, "bike_id": "fcfbb7b021ce3606bc5b4fc2fb537b25", "type": "electric_scooter", "is_reserved": 0, "lon": -77.037798}, {"fusion_lat": 0.0, "name": "7adc3730b2e323132e843e180aaaf5aa", "is_disabled": 0, "rental_uris": {"android": "https://dc.lft.to/lastmile_qr_scan", "ios": "https://dc.lft.to/lastmile_qr_scan"}, "fusion_lon": 0.0, "lat": 38.82864216666667, "bike_id": "7adc3730b2e323132e843e180aaaf5aa", "type": "electric_bike", "is_reserved": 0, "lon": -77.088054}, {"fusion_lat": 0.0, "name": "a36e01c75e0dea570bbc3bb255f64867", "is_disabled": 0, "rental_uris": {"android": "https://dc.lft.to/lastmile_qr_scan", "ios": "https://dc.lft.to/lastmile_qr_scan"}, "fusion_lon": 0.0, "lat": 38.909455333333334, "bike_id": "a36e01c75e0dea570bbc3bb255f64867", "type": "electric_scooter", "is_reserved": 0, "lon": -77.04477283333334}, {"fusion_lat": 0.0, "name": "04a9b5bb212c154033ad3f8e5b7d6f64", "is_disabled": 0, "rental_uris": {"android": "https://dc.lft.to/lastmile_qr_scan", "ios": "https://dc.lft.to/lastmile_qr_scan"}, "fusion_lon": 0.0, "lat": 38.9156625, "bike_id": "04a9b5bb212c154033ad3f8e5b7d6f64", "type": "electric_scooter", "is_reserved": 0, "lon": -77.03153483333334}, {"fusion_lat": 0.0, "name": "c1506151610ecd73ff2059df50362b3b", "is_disabled": 0, "rental_uris": {"android": "https://dc.lft.to/lastmile_qr_scan", "ios": "https://dc.lft.to/lastmile_qr_scan"}, "fusion_lon": 0.0, "lat": 38.92900933333333, "bike_id": "c1506151610ecd73ff2059df50362b3b", "type": "electric_scooter", "is_reserved": 0, "lon": -77.03254483333333}, {"fusion_lat": 0.0, "name": "22bebb77dc763a2aaadeca60bebc06f5", "is_disabled": 0, "rental_uris": {"android": "https://dc.lft.to/lastmile_qr_scan", "ios": "https://dc.lft.to/lastmile_qr_scan"}, "fusion_lon": 0.0, "lat": 38.90844166666667, "bike_id": "22bebb77dc763a2aaadeca60bebc06f5", "type": "electric_scooter", "is_reserved": 0, "lon": -77.04350883333333}, {"fusion_lat": 0.0, "name": "184f164e9e2dce77a08b69bf5dc95233", "is_disabled": 0, "rental_uris": {"android": "https://dc.lft.to/lastmile_qr_scan", "ios": "https://dc.lft.to/lastmile_qr_scan"}, "fusion_lon": 0.0, "lat": 38.91677116666666, "bike_id": "184f164e9e2dce77a08b69bf5dc95233", "type": "electric_scooter", "is_reserved": 0, "lon": -77.03225616666667}, {"fusion_lat": 0.0, "name": "a2a3b27362d0c2769cbaa4b5f34c48a2", "is_disabled": 0, "rental_uris": {"android": "https://dc.lft.to/lastmile_qr_scan", "ios": "https://dc.lft.to/lastmile_qr_scan"}, "fusion_lon": 0.0, "lat": 38.91711033333333, "bike_id": "a2a3b27362d0c2769cbaa4b5f34c48a2", "type": "electric_scooter", "is_reserved": 0, "lon": -77.04041916666667}, {"fusion_lat": 0.0, "name": "54958e2b6d102c3e69f5d2c2b872ce9f", "is_disabled": 0, "rental_uris": {"android": "https://dc.lft.to/lastmile_qr_scan", "ios": "https://dc.lft.to/lastmile_qr_scan"}, "fusion_lon": 0.0, "lat": 38.913145, "bike_id": "54958e2b6d102c3e69f5d2c2b872ce9f", "type": "electric_scooter", "is_reserved": 0, "lon": -77.04485266666667}, {"fusion_lat": 0.0, "name": "9cf12e7491c0b8f9a0fbd9412eda05f5", "is_disabled": 0, "rental_uris": {"android": "https://dc.lft.to/lastmile_qr_scan", "ios": "https://dc.lft.to/lastmile_qr_scan"}, "fusion_lon": 0.0, "lat": 38.9325235, "bike_id": "9cf12e7491c0b8f9a0fbd9412eda05f5", "type": "electric_scooter", "is_reserved": 0, "lon": -77.029539}, {"fusion_lat": 0.0, "name": "b1f6ca740d4f201591e46634a440ef28", "is_disabled": 0, "rental_uris": {"android": "https://dc.lft.to/lastmile_qr_scan", "ios": "https://dc.lft.to/lastmile_qr_scan"}, "fusion_lon": 0.0, "lat": 38.903975, "bike_id": "b1f6ca740d4f201591e46634a440ef28", "type": "electric_scooter", "is_reserved": 0, "lon": -76.98945466666666}, {"fusion_lat": 0.0, "name": "155aaf570942c75fc0702330f25347a2", "is_disabled": 0, "rental_uris": {"android": "https://dc.lft.to/lastmile_qr_scan", "ios": "https://dc.lft.to/lastmile_qr_scan"}, "fusion_lon": 0.0, "lat": 39.041814333333335, "bike_id": "155aaf570942c75fc0702330f25347a2", "type": "electric_bike", "is_reserved": 0, "lon": -77.05241816666667}, {"fusion_lat": 0.0, "name": "d6ad91c5f3604e9bcc176e537eb7640e", "is_disabled": 0, "rental_uris": {"android": "https://dc.lft.to/lastmile_qr_scan", "ios": "https://dc.lft.to/lastmile_qr_scan"}, "fusion_lon": 0.0, "lat": 38.89826766666667, "bike_id": "d6ad91c5f3604e9bcc176e537eb7640e", "type": "electric_scooter", "is_reserved": 0, "lon": -76.94654366666667}, {"fusion_lat": 0.0, "name": "4ac0e8fde0a5fdc5979337ea5f4fc092", "is_disabled": 0, "rental_uris": {"android": "https://dc.lft.to/lastmile_qr_scan", "ios": "https://dc.lft.to/lastmile_qr_scan"}, "fusion_lon": 0.0, "lat": 38.904515333333336, "bike_id": "4ac0e8fde0a5fdc5979337ea5f4fc092", "type": "electric_bike", "is_reserved": 0, "lon": -76.9742355}, {"fusion_lat": 0.0, "name": "fea532106e8de1ddd2d4a406a2f16390", "is_disabled": 0, "rental_uris": {"android": "https://dc.lft.to/lastmile_qr_scan", "ios": "https://dc.lft.to/lastmile_qr_scan"}, "fusion_lon": 0.0, "lat": 38.89223916666667, "bike_id": "fea532106e8de1ddd2d4a406a2f16390", "type": "electric_scooter", "is_reserved": 0, "lon": -77.03217183333334}, {"fusion_lat": 0.0, "name": "7e7f42b1bdca6681998a567e929b023c", "is_disabled": 0, "rental_uris": {"android": "https://dc.lft.to/lastmile_qr_scan", "ios": "https://dc.lft.to/lastmile_qr_scan"}, "fusion_lon": 0.0, "lat": 38.950808333333335, "bike_id": "7e7f42b1bdca6681998a567e929b023c", "type": "electric_scooter", "is_reserved": 0, "lon": -77.0281855}, {"fusion_lat": 0.0, "name": "6bafc4f961b5548265704eadebc58a3d", "is_disabled": 0, "rental_uris": {"android": "https://dc.lft.to/lastmile_qr_scan", "ios": "https://dc.lft.to/lastmile_qr_scan"}, "fusion_lon": 0.0, "lat": 38.8983515, "bike_id": "6bafc4f961b5548265704eadebc58a3d", "type": "electric_scooter", "is_reserved": 0, "lon": -76.9318145}, {"fusion_lat": 0.0, "name": "0145b201f8a5fbc745e1db615ff64f5a", "is_disabled": 0, "rental_uris": {"android": "https://dc.lft.to/lastmile_qr_scan", "ios": "https://dc.lft.to/lastmile_qr_scan"}, "fusion_lon": 0.0, "lat": 38.84053516666667, "bike_id": "0145b201f8a5fbc745e1db615ff64f5a", "type": "electric_scooter", "is_reserved": 0, "lon": -76.97666933333333}, {"fusion_lat": 0.0, "name": "81078974df72018bc88122fdc38bd2d5", "is_disabled": 0, "rental_uris": {"android": "https://dc.lft.to/lastmile_qr_scan", "ios": "https://dc.lft.to/lastmile_qr_scan"}, "fusion_lon": 0.0, "lat": 38.91028333333333, "bike_id": "81078974df72018bc88122fdc38bd2d5", "type": "electric_scooter", "is_reserved": 0, "lon": -77.007589}, {"fusion_lat": 0.0, "name": "59314309917a27088bd046c2bded09e4", "is_disabled": 0, "rental_uris": {"android": "https://dc.lft.to/lastmile_qr_scan", "ios": "https://dc.lft.to/lastmile_qr_scan"}, "fusion_lon": 0.0, "lat": 38.94536216666667, "bike_id": "59314309917a27088bd046c2bded09e4", "type": "electric_scooter", "is_reserved": 0, "lon": -77.02533816666667}, {"fusion_lat": 0.0, "name": "c79d5b9bdcab02b67318649e5b862fde", "is_disabled": 0, "rental_uris": {"android": "https://dc.lft.to/lastmile_qr_scan", "ios": "https://dc.lft.to/lastmile_qr_scan"}, "fusion_lon": 0.0, "lat": 38.921789, "bike_id": "c79d5b9bdcab02b67318649e5b862fde", "type": "electric_scooter", "is_reserved": 0, "lon": -76.99761866666667}, {"fusion_lat": 0.0, "name": "74ae8d544b0ab16f0badb1d9e7bdc330", "is_disabled": 0, "rental_uris": {"android": "https://dc.lft.to/lastmile_qr_scan", "ios": "https://dc.lft.to/lastmile_qr_scan"}, "fusion_lon": 0.0, "lat": 38.898543, "bike_id": "74ae8d544b0ab16f0badb1d9e7bdc330", "type": "electric_scooter", "is_reserved": 0, "lon": -76.99034183333333}, {"fusion_lat": 0.0, "name": "c90262f1882a7dfecf39cc7fcee0d793", "is_disabled": 0, "rental_uris": {"android": "https://dc.lft.to/lastmile_qr_scan", "ios": "https://dc.lft.to/lastmile_qr_scan"}, "fusion_lon": 0.0, "lat": 38.883018, "bike_id": "c90262f1882a7dfecf39cc7fcee0d793", "type": "electric_scooter", "is_reserved": 0, "lon": -76.94854283333333}, {"fusion_lat": 0.0, "name": "4e29becd1fc6d0583ca696b608acf520", "is_disabled": 0, "rental_uris": {"android": "https://dc.lft.to/lastmile_qr_scan", "ios": "https://dc.lft.to/lastmile_qr_scan"}, "fusion_lon": 0.0, "lat": 38.90602833333333, "bike_id": "4e29becd1fc6d0583ca696b608acf520", "type": "electric_scooter", "is_reserved": 0, "lon": -77.00753933333333}, {"fusion_lat": 0.0, "name": "a916e33476098595ab5a2c1e1b85479c", "is_disabled": 0, "rental_uris": {"android": "https://dc.lft.to/lastmile_qr_scan", "ios": "https://dc.lft.to/lastmile_qr_scan"}, "fusion_lon": 0.0, "lat": 39.07055166666667, "bike_id": "a916e33476098595ab5a2c1e1b85479c", "type": "electric_bike", "is_reserved": 0, "lon": -77.11484316666666}, {"fusion_lat": 0.0, "name": "5ab5a14bee377f868327cb21f6e3a5d3", "is_disabled": 0, "rental_uris": {"android": "https://dc.lft.to/lastmile_qr_scan", "ios": "https://dc.lft.to/lastmile_qr_scan"}, "fusion_lon": 0.0, "lat": 38.9025855, "bike_id": "5ab5a14bee377f868327cb21f6e3a5d3", "type": "electric_scooter", "is_reserved": 0, "lon": -77.03956866666667}, {"fusion_lat": 0.0, "name": "69c55895a4c634223220d78ae353d46f", "is_disabled": 0, "rental_uris": {"android": "https://dc.lft.to/lastmile_qr_scan", "ios": "https://dc.lft.to/lastmile_qr_scan"}, "fusion_lon": 0.0, "lat": 38.93812533333333, "bike_id": "69c55895a4c634223220d78ae353d46f", "type": "electric_scooter", "is_reserved": 0, "lon": -77.06019366666666}, {"fusion_lat": 0.0, "name": "dc3cf68f3edf4494baca6b042376edaf", "is_disabled": 0, "rental_uris": {"android": "https://dc.lft.to/lastmile_qr_scan", "ios": "https://dc.lft.to/lastmile_qr_scan"}, "fusion_lon": 0.0, "lat": 38.924937, "bike_id": "dc3cf68f3edf4494baca6b042376edaf", "type": "electric_scooter", "is_reserved": 0, "lon": -77.051198}, {"fusion_lat": 0.0, "name": "036ceedc5898a0035cb01900eb9f34d9", "is_disabled": 0, "rental_uris": {"android": "https://dc.lft.to/lastmile_qr_scan", "ios": "https://dc.lft.to/lastmile_qr_scan"}, "fusion_lon": 0.0, "lat": 38.9022305, "bike_id": "036ceedc5898a0035cb01900eb9f34d9", "type": "electric_scooter", "is_reserved": 0, "lon": -76.99507533333333}, {"fusion_lat": 0.0, "name": "f99c285165e960bb024417f6136427f7", "is_disabled": 0, "rental_uris": {"android": "https://dc.lft.to/lastmile_qr_scan", "ios": "https://dc.lft.to/lastmile_qr_scan"}, "fusion_lon": 0.0, "lat": 38.919155833333335, "bike_id": "f99c285165e960bb024417f6136427f7", "type": "electric_scooter", "is_reserved": 0, "lon": -77.02516433333334}, {"fusion_lat": 0.0, "name": "37a567a13da89303cf8fea31e65ebf76", "is_disabled": 0, "rental_uris": {"android": "https://dc.lft.to/lastmile_qr_scan", "ios": "https://dc.lft.to/lastmile_qr_scan"}, "fusion_lon": 0.0, "lat": 38.90771, "bike_id": "37a567a13da89303cf8fea31e65ebf76", "type": "electric_scooter", "is_reserved": 0, "lon": -77.03861266666667}, {"fusion_lat": 0.0, "name": "a0f5ff605d4d0c14987da40547207463", "is_disabled": 0, "rental_uris": {"android": "https://dc.lft.to/lastmile_qr_scan", "ios": "https://dc.lft.to/lastmile_qr_scan"}, "fusion_lon": 0.0, "lat": 38.9014755, "bike_id": "a0f5ff605d4d0c14987da40547207463", "type": "electric_scooter", "is_reserved": 0, "lon": -77.00914316666666}, {"fusion_lat": 0.0, "name": "71ad5414b827467ec87bb4ae16c06ca0", "is_disabled": 0, "rental_uris": {"android": "https://dc.lft.to/lastmile_qr_scan", "ios": "https://dc.lft.to/lastmile_qr_scan"}, "fusion_lon": 0.0, "lat": 38.915659, "bike_id": "71ad5414b827467ec87bb4ae16c06ca0", "type": "electric_scooter", "is_reserved": 0, "lon": -77.0222515}, {"fusion_lat": 0.0, "name": "6de505d7713146b3f43295f83ca7fab5", "is_disabled": 0, "rental_uris": {"android": "https://dc.lft.to/lastmile_qr_scan", "ios": "https://dc.lft.to/lastmile_qr_scan"}, "fusion_lon": 0.0, "lat": 38.908094166666665, "bike_id": "6de505d7713146b3f43295f83ca7fab5", "type": "electric_scooter", "is_reserved": 0, "lon": -77.03860133333333}, {"fusion_lat": 0.0, "name": "bc1756ac3d7b9d43cdaa619e21afd336", "is_disabled": 0, "rental_uris": {"android": "https://dc.lft.to/lastmile_qr_scan", "ios": "https://dc.lft.to/lastmile_qr_scan"}, "fusion_lon": 0.0, "lat": 38.93396166666667, "bike_id": "bc1756ac3d7b9d43cdaa619e21afd336", "type": "electric_scooter", "is_reserved": 0, "lon": -77.0577345}, {"fusion_lat": 0.0, "name": "9a4097e40b61cad87fd147a6b1c5107f", "is_disabled": 0, "rental_uris": {"android": "https://dc.lft.to/lastmile_qr_scan", "ios": "https://dc.lft.to/lastmile_qr_scan"}, "fusion_lon": 0.0, "lat": 38.92871733333333, "bike_id": "9a4097e40b61cad87fd147a6b1c5107f", "type": "electric_scooter", "is_reserved": 0, "lon": -77.032196}, {"fusion_lat": 0.0, "name": "1cf4d55e67abf379b41d979dbafca9c9", "is_disabled": 0, "rental_uris": {"android": "https://dc.lft.to/lastmile_qr_scan", "ios": "https://dc.lft.to/lastmile_qr_scan"}, "fusion_lon": 0.0, "lat": 38.8971675, "bike_id": "1cf4d55e67abf379b41d979dbafca9c9", "type": "electric_scooter", "is_reserved": 0, "lon": -77.01318383333333}, {"fusion_lat": 0.0, "name": "1ebf8bf75ff6df9560e39ec3697aa589", "is_disabled": 0, "rental_uris": {"android": "https://dc.lft.to/lastmile_qr_scan", "ios": "https://dc.lft.to/lastmile_qr_scan"}, "fusion_lon": 0.0, "lat": 38.9042685, "bike_id": "1ebf8bf75ff6df9560e39ec3697aa589", "type": "electric_scooter", "is_reserved": 0, "lon": -76.9497635}, {"fusion_lat": 0.0, "name": "e9908d1e8d5578958d699b1fb91edb15", "is_disabled": 0, "rental_uris": {"android": "https://dc.lft.to/lastmile_qr_scan", "ios": "https://dc.lft.to/lastmile_qr_scan"}, "fusion_lon": 0.0, "lat": 38.923972666666664, "bike_id": "e9908d1e8d5578958d699b1fb91edb15", "type": "electric_scooter", "is_reserved": 0, "lon": -77.0429555}, {"fusion_lat": 0.0, "name": "16f41edf77dc15e10b214683f8df093c", "is_disabled": 0, "rental_uris": {"android": "https://dc.lft.to/lastmile_qr_scan", "ios": "https://dc.lft.to/lastmile_qr_scan"}, "fusion_lon": 0.0, "lat": 38.8851725, "bike_id": "16f41edf77dc15e10b214683f8df093c", "type": "electric_scooter", "is_reserved": 0, "lon": -77.01512533333333}, {"fusion_lat": 0.0, "name": "794ae134d235e7e54c85e4207992f382", "is_disabled": 0, "rental_uris": {"android": "https://dc.lft.to/lastmile_qr_scan", "ios": "https://dc.lft.to/lastmile_qr_scan"}, "fusion_lon": 0.0, "lat": 38.8922195, "bike_id": "794ae134d235e7e54c85e4207992f382", "type": "electric_scooter", "is_reserved": 0, "lon": -77.03216516666667}, {"fusion_lat": 0.0, "name": "0ada5a0517dba66c69da0f5dd99d3033", "is_disabled": 0, "rental_uris": {"android": "https://dc.lft.to/lastmile_qr_scan", "ios": "https://dc.lft.to/lastmile_qr_scan"}, "fusion_lon": 0.0, "lat": 38.9229535, "bike_id": "0ada5a0517dba66c69da0f5dd99d3033", "type": "electric_scooter", "is_reserved": 0, "lon": -77.029769}, {"fusion_lat": 0.0, "name": "ca17c7a733604c98a1be83b4abc3c010", "is_disabled": 0, "rental_uris": {"android": "https://dc.lft.to/lastmile_qr_scan", "ios": "https://dc.lft.to/lastmile_qr_scan"}, "fusion_lon": 0.0, "lat": 38.91614766666667, "bike_id": "ca17c7a733604c98a1be83b4abc3c010", "type": "electric_scooter", "is_reserved": 0, "lon": -77.02960383333334}, {"fusion_lat": 0.0, "name": "b9ced2e37888c44b0bcfcc9114169522", "is_disabled": 0, "rental_uris": {"android": "https://dc.lft.to/lastmile_qr_scan", "ios": "https://dc.lft.to/lastmile_qr_scan"}, "fusion_lon": 0.0, "lat": 38.9345435, "bike_id": "b9ced2e37888c44b0bcfcc9114169522", "type": "electric_scooter", "is_reserved": 0, "lon": -77.07269466666666}, {"fusion_lat": 0.0, "name": "bbdc419bd8ceeea7950f8f944fee5244", "is_disabled": 0, "rental_uris": {"android": "https://dc.lft.to/lastmile_qr_scan", "ios": "https://dc.lft.to/lastmile_qr_scan"}, "fusion_lon": 0.0, "lat": 38.90649666666667, "bike_id": "bbdc419bd8ceeea7950f8f944fee5244", "type": "electric_scooter", "is_reserved": 0, "lon": -77.0113875}, {"fusion_lat": 0.0, "name": "d62b203154c7f3172a2fe447130a4719", "is_disabled": 0, "rental_uris": {"android": "https://dc.lft.to/lastmile_qr_scan", "ios": "https://dc.lft.to/lastmile_qr_scan"}, "fusion_lon": 0.0, "lat": 38.928645, "bike_id": "d62b203154c7f3172a2fe447130a4719", "type": "electric_scooter", "is_reserved": 0, "lon": -77.03519416666667}, {"fusion_lat": 0.0, "name": "3e772e6f58e2ca65cf268137d89611f4", "is_disabled": 0, "rental_uris": {"android": "https://dc.lft.to/lastmile_qr_scan", "ios": "https://dc.lft.to/lastmile_qr_scan"}, "fusion_lon": 0.0, "lat": 38.90002666666667, "bike_id": "3e772e6f58e2ca65cf268137d89611f4", "type": "electric_scooter", "is_reserved": 0, "lon": -77.00667266666666}, {"fusion_lat": 0.0, "name": "7537fa4b4089389f076b1bf4939dee31", "is_disabled": 0, "rental_uris": {"android": "https://dc.lft.to/lastmile_qr_scan", "ios": "https://dc.lft.to/lastmile_qr_scan"}, "fusion_lon": 0.0, "lat": 38.92041183333333, "bike_id": "7537fa4b4089389f076b1bf4939dee31", "type": "electric_scooter", "is_reserved": 0, "lon": -77.0102875}, {"fusion_lat": 0.0, "name": "869f305467a5ae33b9ecdf4b7dd5b44c", "is_disabled": 0, "rental_uris": {"android": "https://dc.lft.to/lastmile_qr_scan", "ios": "https://dc.lft.to/lastmile_qr_scan"}, "fusion_lon": 0.0, "lat": 38.92299883333333, "bike_id": "869f305467a5ae33b9ecdf4b7dd5b44c", "type": "electric_scooter", "is_reserved": 0, "lon": -77.0426655}, {"fusion_lat": 0.0, "name": "4528e4409aa9df4e1847f73b9640d9c5", "is_disabled": 0, "rental_uris": {"android": "https://dc.lft.to/lastmile_qr_scan", "ios": "https://dc.lft.to/lastmile_qr_scan"}, "fusion_lon": 0.0, "lat": 38.928130833333334, "bike_id": "4528e4409aa9df4e1847f73b9640d9c5", "type": "electric_scooter", "is_reserved": 0, "lon": -77.02677983333334}, {"fusion_lat": 0.0, "name": "0561e30b9269663660a7a19abf0bfe67", "is_disabled": 0, "rental_uris": {"android": "https://dc.lft.to/lastmile_qr_scan", "ios": "https://dc.lft.to/lastmile_qr_scan"}, "fusion_lon": 0.0, "lat": 38.879193666666666, "bike_id": "0561e30b9269663660a7a19abf0bfe67", "type": "electric_scooter", "is_reserved": 0, "lon": -76.9448735}, {"fusion_lat": 0.0, "name": "6c8b345fdce5591f4a91b77e088ce2f7", "is_disabled": 0, "rental_uris": {"android": "https://dc.lft.to/lastmile_qr_scan", "ios": "https://dc.lft.to/lastmile_qr_scan"}, "fusion_lon": 0.0, "lat": 38.911218, "bike_id": "6c8b345fdce5591f4a91b77e088ce2f7", "type": "electric_scooter", "is_reserved": 0, "lon": -77.0066785}, {"fusion_lat": 0.0, "name": "07602cf4aa5f12b602faecd5216a6579", "is_disabled": 0, "rental_uris": {"android": "https://dc.lft.to/lastmile_qr_scan", "ios": "https://dc.lft.to/lastmile_qr_scan"}, "fusion_lon": 0.0, "lat": 38.89354566666667, "bike_id": "07602cf4aa5f12b602faecd5216a6579", "type": "electric_bike", "is_reserved": 0, "lon": -77.18744616666666}, {"fusion_lat": 0.0, "name": "dbbc0fd9192ac7a05c2a5ed9f1b5f7d3", "is_disabled": 0, "rental_uris": {"android": "https://dc.lft.to/lastmile_qr_scan", "ios": "https://dc.lft.to/lastmile_qr_scan"}, "fusion_lon": 0.0, "lat": 38.8924855, "bike_id": "dbbc0fd9192ac7a05c2a5ed9f1b5f7d3", "type": "electric_bike", "is_reserved": 0, "lon": -76.98544383333333}, {"fusion_lat": 0.0, "name": "a2bff3eda2d9e36b9c2e255be0137e29", "is_disabled": 0, "rental_uris": {"android": "https://dc.lft.to/lastmile_qr_scan", "ios": "https://dc.lft.to/lastmile_qr_scan"}, "fusion_lon": 0.0, "lat": 38.88901766666667, "bike_id": "a2bff3eda2d9e36b9c2e255be0137e29", "type": "electric_scooter", "is_reserved": 0, "lon": -76.99205433333333}, {"fusion_lat": 0.0, "name": "e870abec6f1b54aff681cd437c2bb549", "is_disabled": 0, "rental_uris": {"android": "https://dc.lft.to/lastmile_qr_scan", "ios": "https://dc.lft.to/lastmile_qr_scan"}, "fusion_lon": 0.0, "lat": 38.889148, "bike_id": "e870abec6f1b54aff681cd437c2bb549", "type": "electric_bike", "is_reserved": 0, "lon": -77.04931}, {"fusion_lat": 0.0, "name": "f2f7fe728d9a015e084d6f62832bf7af", "is_disabled": 0, "rental_uris": {"android": "https://dc.lft.to/lastmile_qr_scan", "ios": "https://dc.lft.to/lastmile_qr_scan"}, "fusion_lon": 0.0, "lat": 38.91566016666667, "bike_id": "f2f7fe728d9a015e084d6f62832bf7af", "type": "electric_scooter", "is_reserved": 0, "lon": -77.03149616666667}, {"fusion_lat": 0.0, "name": "940eb69b5708f37db86d6791a481ee7b", "is_disabled": 0, "rental_uris": {"android": "https://dc.lft.to/lastmile_qr_scan", "ios": "https://dc.lft.to/lastmile_qr_scan"}, "fusion_lon": 0.0, "lat": 38.9205265, "bike_id": "940eb69b5708f37db86d6791a481ee7b", "type": "electric_scooter", "is_reserved": 0, "lon": -77.02191816666667}, {"fusion_lat": 0.0, "name": "33d766bdd4f13b2b7102d8ed2f4a362d", "is_disabled": 0, "rental_uris": {"android": "https://dc.lft.to/lastmile_qr_scan", "ios": "https://dc.lft.to/lastmile_qr_scan"}, "fusion_lon": 0.0, "lat": 38.923363, "bike_id": "33d766bdd4f13b2b7102d8ed2f4a362d", "type": "electric_scooter", "is_reserved": 0, "lon": -77.03619566666667}, {"fusion_lat": 0.0, "name": "51bd7a12e4d0a38cfdfe410380dddf51", "is_disabled": 0, "rental_uris": {"android": "https://dc.lft.to/lastmile_qr_scan", "ios": "https://dc.lft.to/lastmile_qr_scan"}, "fusion_lon": 0.0, "lat": 38.94953183333333, "bike_id": "51bd7a12e4d0a38cfdfe410380dddf51", "type": "electric_scooter", "is_reserved": 0, "lon": -77.02317666666667}, {"fusion_lat": 0.0, "name": "eb0bf83637778c47a0fdfb42702dd779", "is_disabled": 0, "rental_uris": {"android": "https://dc.lft.to/lastmile_qr_scan", "ios": "https://dc.lft.to/lastmile_qr_scan"}, "fusion_lon": 0.0, "lat": 38.90980866666666, "bike_id": "eb0bf83637778c47a0fdfb42702dd779", "type": "electric_scooter", "is_reserved": 0, "lon": -77.0320235}, {"fusion_lat": 0.0, "name": "d08be8c12718afca231d3e9e31871ffa", "is_disabled": 0, "rental_uris": {"android": "https://dc.lft.to/lastmile_qr_scan", "ios": "https://dc.lft.to/lastmile_qr_scan"}, "fusion_lon": 0.0, "lat": 38.89429883333333, "bike_id": "d08be8c12718afca231d3e9e31871ffa", "type": "electric_scooter", "is_reserved": 0, "lon": -77.0010675}, {"fusion_lat": 0.0, "name": "f20980d25c9d136a048862f6e40d6212", "is_disabled": 0, "rental_uris": {"android": "https://dc.lft.to/lastmile_qr_scan", "ios": "https://dc.lft.to/lastmile_qr_scan"}, "fusion_lon": 0.0, "lat": 38.89846816666667, "bike_id": "f20980d25c9d136a048862f6e40d6212", "type": "electric_scooter", "is_reserved": 0, "lon": -76.94626933333333}, {"fusion_lat": 0.0, "name": "ad2a02f3b61a4c4290f5571a787b98b5", "is_disabled": 0, "rental_uris": {"android": "https://dc.lft.to/lastmile_qr_scan", "ios": "https://dc.lft.to/lastmile_qr_scan"}, "fusion_lon": 0.0, "lat": 38.877208833333334, "bike_id": "ad2a02f3b61a4c4290f5571a787b98b5", "type": "electric_scooter", "is_reserved": 0, "lon": -77.01763516666666}, {"fusion_lat": 0.0, "name": "cb700ab4ed4dfe605c11b1f151c6bb50", "is_disabled": 0, "rental_uris": {"android": "https://dc.lft.to/lastmile_qr_scan", "ios": "https://dc.lft.to/lastmile_qr_scan"}, "fusion_lon": 0.0, "lat": 38.923571333333335, "bike_id": "cb700ab4ed4dfe605c11b1f151c6bb50", "type": "electric_scooter", "is_reserved": 0, "lon": -77.033691}, {"fusion_lat": 0.0, "name": "4e8785c4ac6fb2c68335882514c492f6", "is_disabled": 0, "rental_uris": {"android": "https://dc.lft.to/lastmile_qr_scan", "ios": "https://dc.lft.to/lastmile_qr_scan"}, "fusion_lon": 0.0, "lat": 38.9176995, "bike_id": "4e8785c4ac6fb2c68335882514c492f6", "type": "electric_scooter", "is_reserved": 0, "lon": -77.02285}, {"fusion_lat": 0.0, "name": "1bfef256ee2e74073ad52feeb5888b6b", "is_disabled": 0, "rental_uris": {"android": "https://dc.lft.to/lastmile_qr_scan", "ios": "https://dc.lft.to/lastmile_qr_scan"}, "fusion_lon": 0.0, "lat": 38.95614416666667, "bike_id": "1bfef256ee2e74073ad52feeb5888b6b", "type": "electric_scooter", "is_reserved": 0, "lon": -77.02762083333333}, {"fusion_lat": 0.0, "name": "cd1c2672d5a656e72d124921b964a2f4", "is_disabled": 0, "rental_uris": {"android": "https://dc.lft.to/lastmile_qr_scan", "ios": "https://dc.lft.to/lastmile_qr_scan"}, "fusion_lon": 0.0, "lat": 38.9307275, "bike_id": "cd1c2672d5a656e72d124921b964a2f4", "type": "electric_scooter", "is_reserved": 0, "lon": -77.01943433333334}, {"fusion_lat": 0.0, "name": "c499bd88a3fb8beb76fd6a419522dcfb", "is_disabled": 0, "rental_uris": {"android": "https://dc.lft.to/lastmile_qr_scan", "ios": "https://dc.lft.to/lastmile_qr_scan"}, "fusion_lon": 0.0, "lat": 38.962353666666665, "bike_id": "c499bd88a3fb8beb76fd6a419522dcfb", "type": "electric_bike", "is_reserved": 0, "lon": -76.92762033333334}, {"fusion_lat": 0.0, "name": "50686709e9cf86f639444d5b1ba9760d", "is_disabled": 0, "rental_uris": {"android": "https://dc.lft.to/lastmile_qr_scan", "ios": "https://dc.lft.to/lastmile_qr_scan"}, "fusion_lon": 0.0, "lat": 38.94302066666667, "bike_id": "50686709e9cf86f639444d5b1ba9760d", "type": "electric_scooter", "is_reserved": 0, "lon": -77.06076966666667}, {"fusion_lat": 0.0, "name": "8f0c3d7c555f7e1804bf520e99e5c2ee", "is_disabled": 0, "rental_uris": {"android": "https://dc.lft.to/lastmile_qr_scan", "ios": "https://dc.lft.to/lastmile_qr_scan"}, "fusion_lon": 0.0, "lat": 38.907287, "bike_id": "8f0c3d7c555f7e1804bf520e99e5c2ee", "type": "electric_scooter", "is_reserved": 0, "lon": -77.02975266666667}, {"fusion_lat": 0.0, "name": "e2903c76cbbe6b365b17a169d44cb2ce", "is_disabled": 0, "rental_uris": {"android": "https://dc.lft.to/lastmile_qr_scan", "ios": "https://dc.lft.to/lastmile_qr_scan"}, "fusion_lon": 0.0, "lat": 38.91032716666667, "bike_id": "e2903c76cbbe6b365b17a169d44cb2ce", "type": "electric_scooter", "is_reserved": 0, "lon": -77.01518466666667}, {"fusion_lat": 0.0, "name": "2b11bae38d79ebd8d05be7f579881b33", "is_disabled": 0, "rental_uris": {"android": "https://dc.lft.to/lastmile_qr_scan", "ios": "https://dc.lft.to/lastmile_qr_scan"}, "fusion_lon": 0.0, "lat": 38.927945333333334, "bike_id": "2b11bae38d79ebd8d05be7f579881b33", "type": "electric_scooter", "is_reserved": 0, "lon": -77.031481}, {"fusion_lat": 0.0, "name": "ff8b965fd06f745376749c2b5b21c0b9", "is_disabled": 0, "rental_uris": {"android": "https://dc.lft.to/lastmile_qr_scan", "ios": "https://dc.lft.to/lastmile_qr_scan"}, "fusion_lon": 0.0, "lat": 38.927909166666666, "bike_id": "ff8b965fd06f745376749c2b5b21c0b9", "type": "electric_scooter", "is_reserved": 0, "lon": -77.02585133333334}, {"fusion_lat": 0.0, "name": "02a250cecef69c3b1a857fb143eb101d", "is_disabled": 0, "rental_uris": {"android": "https://dc.lft.to/lastmile_qr_scan", "ios": "https://dc.lft.to/lastmile_qr_scan"}, "fusion_lon": 0.0, "lat": 38.928782, "bike_id": "02a250cecef69c3b1a857fb143eb101d", "type": "electric_scooter", "is_reserved": 0, "lon": -77.05448633333333}, {"fusion_lat": 0.0, "name": "0967244752561457def5cd7a407024b3", "is_disabled": 0, "rental_uris": {"android": "https://dc.lft.to/lastmile_qr_scan", "ios": "https://dc.lft.to/lastmile_qr_scan"}, "fusion_lon": 0.0, "lat": 38.889503166666664, "bike_id": "0967244752561457def5cd7a407024b3", "type": "electric_scooter", "is_reserved": 0, "lon": -76.99162033333333}, {"fusion_lat": 0.0, "name": "f5bfc7e2e373a7a37add8a989d5517db", "is_disabled": 0, "rental_uris": {"android": "https://dc.lft.to/lastmile_qr_scan", "ios": "https://dc.lft.to/lastmile_qr_scan"}, "fusion_lon": 0.0, "lat": 38.905659666666665, "bike_id": "f5bfc7e2e373a7a37add8a989d5517db", "type": "electric_scooter", "is_reserved": 0, "lon": -77.02652666666667}, {"fusion_lat": 0.0, "name": "180312ce254b7c6161222082da9d7fb4", "is_disabled": 0, "rental_uris": {"android": "https://dc.lft.to/lastmile_qr_scan", "ios": "https://dc.lft.to/lastmile_qr_scan"}, "fusion_lon": 0.0, "lat": 38.9050915, "bike_id": "180312ce254b7c6161222082da9d7fb4", "type": "electric_scooter", "is_reserved": 0, "lon": -77.06125216666666}, {"fusion_lat": 0.0, "name": "c8c9951b28d976b790eb16610c07405c", "is_disabled": 0, "rental_uris": {"android": "https://dc.lft.to/lastmile_qr_scan", "ios": "https://dc.lft.to/lastmile_qr_scan"}, "fusion_lon": 0.0, "lat": 38.938788833333334, "bike_id": "c8c9951b28d976b790eb16610c07405c", "type": "electric_scooter", "is_reserved": 0, "lon": -77.02921116666667}, {"fusion_lat": 0.0, "name": "1bcf49871ccbc496cdc7a0aa21c866d8", "is_disabled": 0, "rental_uris": {"android": "https://dc.lft.to/lastmile_qr_scan", "ios": "https://dc.lft.to/lastmile_qr_scan"}, "fusion_lon": 0.0, "lat": 38.931196666666665, "bike_id": "1bcf49871ccbc496cdc7a0aa21c866d8", "type": "electric_scooter", "is_reserved": 0, "lon": -77.0213775}, {"fusion_lat": 0.0, "name": "2a5a446081fbde180a6c8f60ff9407cb", "is_disabled": 0, "rental_uris": {"android": "https://dc.lft.to/lastmile_qr_scan", "ios": "https://dc.lft.to/lastmile_qr_scan"}, "fusion_lon": 0.0, "lat": 38.941641, "bike_id": "2a5a446081fbde180a6c8f60ff9407cb", "type": "electric_scooter", "is_reserved": 0, "lon": -77.024942}, {"fusion_lat": 0.0, "name": "fc93a5e29801ae7d08df359f581c7eaa", "is_disabled": 0, "rental_uris": {"android": "https://dc.lft.to/lastmile_qr_scan", "ios": "https://dc.lft.to/lastmile_qr_scan"}, "fusion_lon": 0.0, "lat": 38.92915283333333, "bike_id": "fc93a5e29801ae7d08df359f581c7eaa", "type": "electric_scooter", "is_reserved": 0, "lon": -77.03253266666667}, {"fusion_lat": 0.0, "name": "ef3e1f6a6f4fa24ef899cd20dd9a2cca", "is_disabled": 0, "rental_uris": {"android": "https://dc.lft.to/lastmile_qr_scan", "ios": "https://dc.lft.to/lastmile_qr_scan"}, "fusion_lon": 0.0, "lat": 38.917720833333334, "bike_id": "ef3e1f6a6f4fa24ef899cd20dd9a2cca", "type": "electric_scooter", "is_reserved": 0, "lon": -77.02288633333333}, {"fusion_lat": 0.0, "name": "0240b30271a64cb08170dff08912c6fb", "is_disabled": 0, "rental_uris": {"android": "https://dc.lft.to/lastmile_qr_scan", "ios": "https://dc.lft.to/lastmile_qr_scan"}, "fusion_lon": 0.0, "lat": 38.90645583333333, "bike_id": "0240b30271a64cb08170dff08912c6fb", "type": "electric_scooter", "is_reserved": 0, "lon": -77.03866983333333}, {"fusion_lat": 0.0, "name": "b6a525f0bf574bf832e4fe9d776b5a73", "is_disabled": 0, "rental_uris": {"android": "https://dc.lft.to/lastmile_qr_scan", "ios": "https://dc.lft.to/lastmile_qr_scan"}, "fusion_lon": 0.0, "lat": 38.9329775, "bike_id": "b6a525f0bf574bf832e4fe9d776b5a73", "type": "electric_scooter", "is_reserved": 0, "lon": -77.03999883333333}, {"fusion_lat": 0.0, "name": "affbac6cd30894dc4b467c1496aabf0c", "is_disabled": 0, "rental_uris": {"android": "https://dc.lft.to/lastmile_qr_scan", "ios": "https://dc.lft.to/lastmile_qr_scan"}, "fusion_lon": 0.0, "lat": 38.9234805, "bike_id": "affbac6cd30894dc4b467c1496aabf0c", "type": "electric_scooter", "is_reserved": 0, "lon": -77.03467416666666}, {"fusion_lat": 0.0, "name": "6c47f33db569c0dfb05413a7e3c06d89", "is_disabled": 0, "rental_uris": {"android": "https://dc.lft.to/lastmile_qr_scan", "ios": "https://dc.lft.to/lastmile_qr_scan"}, "fusion_lon": 0.0, "lat": 38.8636945, "bike_id": "6c47f33db569c0dfb05413a7e3c06d89", "type": "electric_bike", "is_reserved": 0, "lon": -76.97010766666666}, {"fusion_lat": 0.0, "name": "fd944d4375dfdcabd9866ae6cc7de35a", "is_disabled": 0, "rental_uris": {"android": "https://dc.lft.to/lastmile_qr_scan", "ios": "https://dc.lft.to/lastmile_qr_scan"}, "fusion_lon": 0.0, "lat": 38.92503883333333, "bike_id": "fd944d4375dfdcabd9866ae6cc7de35a", "type": "electric_scooter", "is_reserved": 0, "lon": -77.0382925}, {"fusion_lat": 0.0, "name": "561fe529aa4f1993e85ebd5c8ded1c64", "is_disabled": 0, "rental_uris": {"android": "https://dc.lft.to/lastmile_qr_scan", "ios": "https://dc.lft.to/lastmile_qr_scan"}, "fusion_lon": 0.0, "lat": 38.934886666666664, "bike_id": "561fe529aa4f1993e85ebd5c8ded1c64", "type": "electric_scooter", "is_reserved": 0, "lon": -77.03077533333334}, {"fusion_lat": 0.0, "name": "7ef1faa1d5b696c2e13237f110392fed", "is_disabled": 0, "rental_uris": {"android": "https://dc.lft.to/lastmile_qr_scan", "ios": "https://dc.lft.to/lastmile_qr_scan"}, "fusion_lon": 0.0, "lat": 38.904566, "bike_id": "7ef1faa1d5b696c2e13237f110392fed", "type": "electric_scooter", "is_reserved": 0, "lon": -76.98532466666667}, {"fusion_lat": 0.0, "name": "4cd1e095c578b9a1043db96f9dfc7ca5", "is_disabled": 0, "rental_uris": {"android": "https://dc.lft.to/lastmile_qr_scan", "ios": "https://dc.lft.to/lastmile_qr_scan"}, "fusion_lon": 0.0, "lat": 38.884827333333334, "bike_id": "4cd1e095c578b9a1043db96f9dfc7ca5", "type": "electric_scooter", "is_reserved": 0, "lon": -77.0059635}, {"fusion_lat": 0.0, "name": "25ff4c25878f1ac373ecf860b8db08bc", "is_disabled": 0, "rental_uris": {"android": "https://dc.lft.to/lastmile_qr_scan", "ios": "https://dc.lft.to/lastmile_qr_scan"}, "fusion_lon": 0.0, "lat": 38.888957166666664, "bike_id": "25ff4c25878f1ac373ecf860b8db08bc", "type": "electric_bike", "is_reserved": 0, "lon": -77.11526983333333}, {"fusion_lat": 0.0, "name": "174b6cf6c24a2921ebf475cff7dcbbe5", "is_disabled": 0, "rental_uris": {"android": "https://dc.lft.to/lastmile_qr_scan", "ios": "https://dc.lft.to/lastmile_qr_scan"}, "fusion_lon": 0.0, "lat": 38.8876725, "bike_id": "174b6cf6c24a2921ebf475cff7dcbbe5", "type": "electric_scooter", "is_reserved": 0, "lon": -76.98353633333333}, {"fusion_lat": 0.0, "name": "a448391a026caaf6181cc86b9891170b", "is_disabled": 0, "rental_uris": {"android": "https://dc.lft.to/lastmile_qr_scan", "ios": "https://dc.lft.to/lastmile_qr_scan"}, "fusion_lon": 0.0, "lat": 38.88063266666666, "bike_id": "a448391a026caaf6181cc86b9891170b", "type": "electric_scooter", "is_reserved": 0, "lon": -76.93218466666667}, {"fusion_lat": 0.0, "name": "393fae69ce5ddce5c1d013a5e77e7204", "is_disabled": 0, "rental_uris": {"android": "https://dc.lft.to/lastmile_qr_scan", "ios": "https://dc.lft.to/lastmile_qr_scan"}, "fusion_lon": 0.0, "lat": 38.9088225, "bike_id": "393fae69ce5ddce5c1d013a5e77e7204", "type": "electric_scooter", "is_reserved": 0, "lon": -77.03469016666666}, {"fusion_lat": 0.0, "name": "fbc31d8fb1a5069d705bd8e531ede77a", "is_disabled": 0, "rental_uris": {"android": "https://dc.lft.to/lastmile_qr_scan", "ios": "https://dc.lft.to/lastmile_qr_scan"}, "fusion_lon": 0.0, "lat": 38.8984365, "bike_id": "fbc31d8fb1a5069d705bd8e531ede77a", "type": "electric_scooter", "is_reserved": 0, "lon": -77.03323916666666}, {"fusion_lat": 0.0, "name": "a5a2e9ed58f6bd067a41ed2ad7ae0674", "is_disabled": 0, "rental_uris": {"android": "https://dc.lft.to/lastmile_qr_scan", "ios": "https://dc.lft.to/lastmile_qr_scan"}, "fusion_lon": 0.0, "lat": 38.90954683333333, "bike_id": "a5a2e9ed58f6bd067a41ed2ad7ae0674", "type": "electric_bike", "is_reserved": 0, "lon": -77.2289125}, {"fusion_lat": 0.0, "name": "ea3c152cfc2a545f8cb920834a0ebea0", "is_disabled": 0, "rental_uris": {"android": "https://dc.lft.to/lastmile_qr_scan", "ios": "https://dc.lft.to/lastmile_qr_scan"}, "fusion_lon": 0.0, "lat": 38.92557883333333, "bike_id": "ea3c152cfc2a545f8cb920834a0ebea0", "type": "electric_scooter", "is_reserved": 0, "lon": -77.02282216666667}, {"fusion_lat": 0.0, "name": "ce46fba8fcef5793a09f4c1e60b21895", "is_disabled": 0, "rental_uris": {"android": "https://dc.lft.to/lastmile_qr_scan", "ios": "https://dc.lft.to/lastmile_qr_scan"}, "fusion_lon": 0.0, "lat": 38.91716366666667, "bike_id": "ce46fba8fcef5793a09f4c1e60b21895", "type": "electric_scooter", "is_reserved": 0, "lon": -77.03663466666667}, {"fusion_lat": 0.0, "name": "09e773f9677e8b231298927a91f684fa", "is_disabled": 0, "rental_uris": {"android": "https://dc.lft.to/lastmile_qr_scan", "ios": "https://dc.lft.to/lastmile_qr_scan"}, "fusion_lon": 0.0, "lat": 38.91733583333333, "bike_id": "09e773f9677e8b231298927a91f684fa", "type": "electric_scooter", "is_reserved": 0, "lon": -77.02957583333334}, {"fusion_lat": 0.0, "name": "332524d529291ac2447b629a09704a83", "is_disabled": 0, "rental_uris": {"android": "https://dc.lft.to/lastmile_qr_scan", "ios": "https://dc.lft.to/lastmile_qr_scan"}, "fusion_lon": 0.0, "lat": 38.879655166666666, "bike_id": "332524d529291ac2447b629a09704a83", "type": "electric_scooter", "is_reserved": 0, "lon": -77.00598433333333}, {"fusion_lat": 0.0, "name": "c98b6ae29a1abd13fc8db6e29c08ca33", "is_disabled": 0, "rental_uris": {"android": "https://dc.lft.to/lastmile_qr_scan", "ios": "https://dc.lft.to/lastmile_qr_scan"},