{"data": {"bikes": [{"rental_uris": {"ios": "https://dc.lft.to/lastmile_qr_scan", "android": "https://dc.lft.to/lastmile_qr_scan"}, "lon": -77.04027733333334, "type": "electric_scooter", "fusion_lat": 0.0, "lat": 38.92435166666667, "name": "ba2195d7cadcc04351b2eec85ae5995e", "fusion_lon": 0.0, "bike_id": "ba2195d7cadcc04351b2eec85ae5995e", "is_disabled": 0, "is_reserved": 0}, {"rental_uris": {"ios": "https://dc.lft.to/lastmile_qr_scan", "android": "https://dc.lft.to/lastmile_qr_scan"}, "lon": -77.0434015, "type": "electric_scooter", "fusion_lat": 0.0, "lat": 38.896672833333334, "name": "244817ae3cad9bce7ac0acc17e064db0", "fusion_lon": 0.0, "bike_id": "244817ae3cad9bce7ac0acc17e064db0", "is_disabled": 0, "is_reserved": 0}, {"rental_uris": {"ios": "https://dc.lft.to/lastmile_qr_scan", "android": "https://dc.lft.to/lastmile_qr_scan"}, "lon": -77.0440965, "type": "electric_scooter", "fusion_lat": 0.0, "lat": 38.9092175, "name": "8eddd35397a1ec75154b2408b8efb102", "fusion_lon": 0.0, "bike_id": "8eddd35397a1ec75154b2408b8efb102", "is_disabled": 0, "is_reserved": 0}, {"rental_uris": {"ios": "https://dc.lft.to/lastmile_qr_scan", "android": "https://dc.lft.to/lastmile_qr_scan"}, "lon": -77.03339433333333, "type": "electric_scooter", "fusion_lat": 0.0, "lat": 38.898458, "name": "4166528b98c8c4e0abfabca1784f9779", "fusion_lon": 0.0, "bike_id": "4166528b98c8c4e0abfabca1784f9779", "is_disabled": 0, "is_reserved": 0}, {"rental_uris": {"ios": "https://dc.lft.to/lastmile_qr_scan", "android": "https://dc.lft.to/lastmile_qr_scan"}, "lon": -77.05155483333333, "type": "electric_scooter", "fusion_lat": 0.0, "lat": 38.905511833333335, "name": "bd1361e11ac6983477bb7ef374d41712", "fusion_lon": 0.0, "bike_id": "bd1361e11ac6983477bb7ef374d41712", "is_disabled": 0, "is_reserved": 0}, {"rental_uris": {"ios": "https://dc.lft.to/lastmile_qr_scan", "android": "https://dc.lft.to/lastmile_qr_scan"}, "lon": -77.02725216666667, "type": "electric_scooter", "fusion_lat": 0.0, "lat": 38.937949, "name": "20cd5417013e2d5fe032edeb9f1ed214", "fusion_lon": 0.0, "bike_id": "20cd5417013e2d5fe032edeb9f1ed214", "is_disabled": 0, "is_reserved": 0}, {"rental_uris": {"ios": "https://dc.lft.to/lastmile_qr_scan", "android": "https://dc.lft.to/lastmile_qr_scan"}, "lon": -77.030745, "type": "electric_scooter", "fusion_lat": 0.0, "lat": 38.899681333333334, "name": "27f759cdbeafa88b38db4b66cf93ca0a", "fusion_lon": 0.0, "bike_id": "27f759cdbeafa88b38db4b66cf93ca0a", "is_disabled": 0, "is_reserved": 0}, {"rental_uris": {"ios": "https://dc.lft.to/lastmile_qr_scan", "android": "https://dc.lft.to/lastmile_qr_scan"}, "lon": -77.063892, "type": "electric_scooter", "fusion_lat": 0.0, "lat": 38.90836, "name": "d3821ef6ef13c347058477959c33c005", "fusion_lon": 0.0, "bike_id": "d3821ef6ef13c347058477959c33c005", "is_disabled": 0, "is_reserved": 0}, {"rental_uris": {"ios": "https://dc.lft.to/lastmile_qr_scan", "android": "https://dc.lft.to/lastmile_qr_scan"}, "lon": -77.0193385, "type": "electric_scooter", "fusion_lat": 0.0, "lat": 38.94925933333333, "name": "a69f2de2555c6913d2430b02bec0d537", "fusion_lon": 0.0, "bike_id": "a69f2de2555c6913d2430b02bec0d537", "is_disabled": 0, "is_reserved": 0}, {"rental_uris": {"ios": "https://dc.lft.to/lastmile_qr_scan", "android": "https://dc.lft.to/lastmile_qr_scan"}, "lon": -77.03842916666666, "type": "electric_scooter", "fusion_lat": 0.0, "lat": 38.91333683333333, "name": "7febd1a75b22380e7087550ad88743c0", "fusion_lon": 0.0, "bike_id": "7febd1a75b22380e7087550ad88743c0", "is_disabled": 0, "is_reserved": 0}, {"rental_uris": {"ios": "https://dc.lft.to/lastmile_qr_scan", "android": "https://dc.lft.to/lastmile_qr_scan"}, "lon": -77.03806283333333, "type": "electric_scooter", "fusion_lat": 0.0, "lat": 38.912303, "name": "d3165e22d62a5767cc04a7cda389f501", "fusion_lon": 0.0, "bike_id": "d3165e22d62a5767cc04a7cda389f501", "is_disabled": 0, "is_reserved": 0}, {"rental_uris": {"ios": "https://dc.lft.to/lastmile_qr_scan", "android": "https://dc.lft.to/lastmile_qr_scan"}, "lon": -77.03814866666667, "type": "electric_scooter", "fusion_lat": 0.0, "lat": 38.906803833333335, "name": "6a32a648fabcc20dcf9c04ebcf517384", "fusion_lon": 0.0, "bike_id": "6a32a648fabcc20dcf9c04ebcf517384", "is_disabled": 0, "is_reserved": 0}, {"rental_uris": {"ios": "https://dc.lft.to/lastmile_qr_scan", "android": "https://dc.lft.to/lastmile_qr_scan"}, "lon": -77.03851633333333, "type": "electric_scooter", "fusion_lat": 0.0, "lat": 38.912457333333336, "name": "29f8407ffc47d0ef63601485b6358fe1", "fusion_lon": 0.0, "bike_id": "29f8407ffc47d0ef63601485b6358fe1", "is_disabled": 0, "is_reserved": 0}, {"rental_uris": {"ios": "https://dc.lft.to/lastmile_qr_scan", "android": "https://dc.lft.to/lastmile_qr_scan"}, "lon": -77.0200565, "type": "electric_scooter", "fusion_lat": 0.0, "lat": 38.913109, "name": "522ff2692fedd039e85f11f6978c6a67", "fusion_lon": 0.0, "bike_id": "522ff2692fedd039e85f11f6978c6a67", "is_disabled": 0, "is_reserved": 0}, {"rental_uris": {"ios": "https://dc.lft.to/lastmile_qr_scan", "android": "https://dc.lft.to/lastmile_qr_scan"}, "lon": -76.94630833333333, "type": "electric_scooter", "fusion_lat": 0.0, "lat": 38.8983395, "name": "41cd4ff466f4aa7a63c65a103d8e8101", "fusion_lon": 0.0, "bike_id": "41cd4ff466f4aa7a63c65a103d8e8101", "is_disabled": 0, "is_reserved": 0}, {"rental_uris": {"ios": "https://dc.lft.to/lastmile_qr_scan", "android": "https://dc.lft.to/lastmile_qr_scan"}, "lon": -77.03605216666666, "type": "electric_scooter", "fusion_lat": 0.0, "lat": 38.934829666666666, "name": "3c31bc8ee8afab707b40bbce96dde8e4", "fusion_lon": 0.0, "bike_id": "3c31bc8ee8afab707b40bbce96dde8e4", "is_disabled": 0, "is_reserved": 0}, {"rental_uris": {"ios": "https://dc.lft.to/lastmile_qr_scan", "android": "https://dc.lft.to/lastmile_qr_scan"}, "lon": -77.00975733333334, "type": "electric_scooter", "fusion_lat": 0.0, "lat": 38.896004, "name": "f7b5e81708e28cac53cd83875d117c29", "fusion_lon": 0.0, "bike_id": "f7b5e81708e28cac53cd83875d117c29", "is_disabled": 0, "is_reserved": 0}, {"rental_uris": {"ios": "https://dc.lft.to/lastmile_qr_scan", "android": "https://dc.lft.to/lastmile_qr_scan"}, "lon": -76.9992555, "type": "electric_scooter", "fusion_lat": 0.0, "lat": 38.90908266666667, "name": "a9579c9ed204478f21d706380dc8b150", "fusion_lon": 0.0, "bike_id": "a9579c9ed204478f21d706380dc8b150", "is_disabled": 0, "is_reserved": 0}, {"rental_uris": {"ios": "https://dc.lft.to/lastmile_qr_scan", "android": "https://dc.lft.to/lastmile_qr_scan"}, "lon": -77.0138025, "type": "electric_scooter", "fusion_lat": 0.0, "lat": 38.9286825, "name": "3942e0f78e288dd8b300334e8e82b889", "fusion_lon": 0.0, "bike_id": "3942e0f78e288dd8b300334e8e82b889", "is_disabled": 0, "is_reserved": 0}, {"rental_uris": {"ios": "https://dc.lft.to/lastmile_qr_scan", "android": "https://dc.lft.to/lastmile_qr_scan"}, "lon": -77.02839966666667, "type": "electric_scooter", "fusion_lat": 0.0, "lat": 38.93417183333333, "name": "3e249f44b5ac82cdde1cdfd8112ba464", "fusion_lon": 0.0, "bike_id": "3e249f44b5ac82cdde1cdfd8112ba464", "is_disabled": 0, "is_reserved": 0}, {"rental_uris": {"ios": "https://dc.lft.to/lastmile_qr_scan", "android": "https://dc.lft.to/lastmile_qr_scan"}, "lon": -76.98950066666667, "type": "electric_scooter", "fusion_lat": 0.0, "lat": 38.9014105, "name": "4f04f872b998646a0ed5f175cca069d7", "fusion_lon": 0.0, "bike_id": "4f04f872b998646a0ed5f175cca069d7", "is_disabled": 0, "is_reserved": 0}, {"rental_uris": {"ios": "https://dc.lft.to/lastmile_qr_scan", "android": "https://dc.lft.to/lastmile_qr_scan"}, "lon": -77.02703733333334, "type": "electric_scooter", "fusion_lat": 0.0, "lat": 38.949987, "name": "ab39055655f355f62cee99d52dd35e0f", "fusion_lon": 0.0, "bike_id": "ab39055655f355f62cee99d52dd35e0f", "is_disabled": 0, "is_reserved": 0}, {"rental_uris": {"ios": "https://dc.lft.to/lastmile_qr_scan", "android": "https://dc.lft.to/lastmile_qr_scan"}, "lon": -77.00618833333333, "type": "electric_scooter", "fusion_lat": 0.0, "lat": 38.90249983333333, "name": "dcc5c0bd8be56d4b4fcceb45041534cb", "fusion_lon": 0.0, "bike_id": "dcc5c0bd8be56d4b4fcceb45041534cb", "is_disabled": 0, "is_reserved": 0}, {"rental_uris": {"ios": "https://dc.lft.to/lastmile_qr_scan", "android": "https://dc.lft.to/lastmile_qr_scan"}, "lon": -76.98965966666667, "type": "electric_scooter", "fusion_lat": 0.0, "lat": 38.90243433333333, "name": "356fc4f02f672d86954fae652e8fbf43", "fusion_lon": 0.0, "bike_id": "356fc4f02f672d86954fae652e8fbf43", "is_disabled": 0, "is_reserved": 0}, {"rental_uris": {"ios": "https://dc.lft.to/lastmile_qr_scan", "android": "https://dc.lft.to/lastmile_qr_scan"}, "lon": -77.03179416666667, "type": "electric_scooter", "fusion_lat": 0.0, "lat": 38.914644833333334, "name": "b9e8c188849182e8c2eb50da46e3053a", "fusion_lon": 0.0, "bike_id": "b9e8c188849182e8c2eb50da46e3053a", "is_disabled": 0, "is_reserved": 0}, {"rental_uris": {"ios": "https://dc.lft.to/lastmile_qr_scan", "android": "https://dc.lft.to/lastmile_qr_scan"}, "lon": -76.983152, "type": "electric_scooter", "fusion_lat": 0.0, "lat": 38.899611, "name": "89eeb0a43c88a79d8684160e7205efb4", "fusion_lon": 0.0, "bike_id": "89eeb0a43c88a79d8684160e7205efb4", "is_disabled": 0, "is_reserved": 0}, {"rental_uris": {"ios": "https://dc.lft.to/lastmile_qr_scan", "android": "https://dc.lft.to/lastmile_qr_scan"}, "lon": -76.98996216666667, "type": "electric_scooter", "fusion_lat": 0.0, "lat": 38.90391416666667, "name": "c63bef47a5282832495a2dc109a907a0", "fusion_lon": 0.0, "bike_id": "c63bef47a5282832495a2dc109a907a0", "is_disabled": 0, "is_reserved": 0}, {"rental_uris": {"ios": "https://dc.lft.to/lastmile_qr_scan", "android": "https://dc.lft.to/lastmile_qr_scan"}, "lon": -76.998438, "type": "electric_scooter", "fusion_lat": 0.0, "lat": 38.90047283333333, "name": "e134a2e112a8f36972168ff420b36faa", "fusion_lon": 0.0, "bike_id": "e134a2e112a8f36972168ff420b36faa", "is_disabled": 0, "is_reserved": 0}, {"rental_uris": {"ios": "https://dc.lft.to/lastmile_qr_scan", "android": "https://dc.lft.to/lastmile_qr_scan"}, "lon": -77.03741083333334, "type": "electric_scooter", "fusion_lat": 0.0, "lat": 38.91265683333334, "name": "e2ac1fb608288d0cc961267d05f9ace6", "fusion_lon": 0.0, "bike_id": "e2ac1fb608288d0cc961267d05f9ace6", "is_disabled": 0, "is_reserved": 0}, {"rental_uris": {"ios": "https://dc.lft.to/lastmile_qr_scan", "android": "https://dc.lft.to/lastmile_qr_scan"}, "lon": -77.0575365, "type": "electric_scooter", "fusion_lat": 0.0, "lat": 38.93419333333333, "name": "e98662c5376bd1be59107e9bc39b531b", "fusion_lon": 0.0, "bike_id": "e98662c5376bd1be59107e9bc39b531b", "is_disabled": 0, "is_reserved": 0}, {"rental_uris": {"ios": "https://dc.lft.to/lastmile_qr_scan", "android": "https://dc.lft.to/lastmile_qr_scan"}, "lon": -77.05930616666667, "type": "electric_scooter", "fusion_lat": 0.0, "lat": 38.90951883333334, "name": "7730c5670f6b8bdeaaf17cc564045df7", "fusion_lon": 0.0, "bike_id": "7730c5670f6b8bdeaaf17cc564045df7", "is_disabled": 0, "is_reserved": 0}, {"rental_uris": {"ios": "https://dc.lft.to/lastmile_qr_scan", "android": "https://dc.lft.to/lastmile_qr_scan"}, "lon": -77.0198915, "type": "electric_scooter", "fusion_lat": 0.0, "lat": 38.937818666666665, "name": "68c035c2d609345d4971c0a69f925da8", "fusion_lon": 0.0, "bike_id": "68c035c2d609345d4971c0a69f925da8", "is_disabled": 0, "is_reserved": 0}, {"rental_uris": {"ios": "https://dc.lft.to/lastmile_qr_scan", "android": "https://dc.lft.to/lastmile_qr_scan"}, "lon": -76.99552366666667, "type": "electric_scooter", "fusion_lat": 0.0, "lat": 38.862341666666666, "name": "3c92eb95962919b1b3add426ba5e61ff", "fusion_lon": 0.0, "bike_id": "3c92eb95962919b1b3add426ba5e61ff", "is_disabled": 0, "is_reserved": 0}, {"rental_uris": {"ios": "https://dc.lft.to/lastmile_qr_scan", "android": "https://dc.lft.to/lastmile_qr_scan"}, "lon": -77.01025366666667, "type": "electric_scooter", "fusion_lat": 0.0, "lat": 38.918053, "name": "4ec392b05c159b003e50d9000a0f6c30", "fusion_lon": 0.0, "bike_id": "4ec392b05c159b003e50d9000a0f6c30", "is_disabled": 0, "is_reserved": 0}, {"rental_uris": {"ios": "https://dc.lft.to/lastmile_qr_scan", "android": "https://dc.lft.to/lastmile_qr_scan"}, "lon": -77.03472416666666, "type": "electric_scooter", "fusion_lat": 0.0, "lat": 38.9343345, "name": "f9669cba9c0ecd8bb54f153494c07136", "fusion_lon": 0.0, "bike_id": "f9669cba9c0ecd8bb54f153494c07136", "is_disabled": 0, "is_reserved": 0}, {"rental_uris": {"ios": "https://dc.lft.to/lastmile_qr_scan", "android": "https://dc.lft.to/lastmile_qr_scan"}, "lon": -77.031428, "type": "electric_scooter", "fusion_lat": 0.0, "lat": 38.9141135, "name": "cb840f02d19bdd6997f6e1faf0124035", "fusion_lon": 0.0, "bike_id": "cb840f02d19bdd6997f6e1faf0124035", "is_disabled": 0, "is_reserved": 0}, {"rental_uris": {"ios": "https://dc.lft.to/lastmile_qr_scan", "android": "https://dc.lft.to/lastmile_qr_scan"}, "lon": -77.03655266666667, "type": "electric_scooter", "fusion_lat": 0.0, "lat": 38.93085416666667, "name": "f0e7585140ee3f0e2b198ecfff4ad5f6", "fusion_lon": 0.0, "bike_id": "f0e7585140ee3f0e2b198ecfff4ad5f6", "is_disabled": 0, "is_reserved": 0}, {"rental_uris": {"ios": "https://dc.lft.to/lastmile_qr_scan", "android": "https://dc.lft.to/lastmile_qr_scan"}, "lon": -77.0247605, "type": "electric_scooter", "fusion_lat": 0.0, "lat": 38.90404, "name": "1b40cc57da2d56da786c947f58b6e8e1", "fusion_lon": 0.0, "bike_id": "1b40cc57da2d56da786c947f58b6e8e1", "is_disabled": 0, "is_reserved": 0}, {"rental_uris": {"ios": "https://dc.lft.to/lastmile_qr_scan", "android": "https://dc.lft.to/lastmile_qr_scan"}, "lon": -77.0278595, "type": "electric_scooter", "fusion_lat": 0.0, "lat": 38.923739, "name": "77766d863081ba29f580415f066f3f4c", "fusion_lon": 0.0, "bike_id": "77766d863081ba29f580415f066f3f4c", "is_disabled": 0, "is_reserved": 0}, {"rental_uris": {"ios": "https://dc.lft.to/lastmile_qr_scan", "android": "https://dc.lft.to/lastmile_qr_scan"}, "lon": -77.04717433333333, "type": "electric_scooter", "fusion_lat": 0.0, "lat": 38.9095545, "name": "26ae3cc9a29ebb9ec360e7f36b26298a", "fusion_lon": 0.0, "bike_id": "26ae3cc9a29ebb9ec360e7f36b26298a", "is_disabled": 0, "is_reserved": 0}, {"rental_uris": {"ios": "https://dc.lft.to/lastmile_qr_scan", "android": "https://dc.lft.to/lastmile_qr_scan"}, "lon": -77.03833133333333, "type": "electric_scooter", "fusion_lat": 0.0, "lat": 38.90389966666667, "name": "fdf94c45a351692af95f5563b10c595b", "fusion_lon": 0.0, "bike_id": "fdf94c45a351692af95f5563b10c595b", "is_disabled": 0, "is_reserved": 0}, {"rental_uris": {"ios": "https://dc.lft.to/lastmile_qr_scan", "android": "https://dc.lft.to/lastmile_qr_scan"}, "lon": -77.041771, "type": "electric_scooter", "fusion_lat": 0.0, "lat": 38.903679, "name": "adfef9f85048ffa9ecf5b072915a3afc", "fusion_lon": 0.0, "bike_id": "adfef9f85048ffa9ecf5b072915a3afc", "is_disabled": 0, "is_reserved": 0}, {"rental_uris": {"ios": "https://dc.lft.to/lastmile_qr_scan", "android": "https://dc.lft.to/lastmile_qr_scan"}, "lon": -77.02203433333334, "type": "electric_scooter", "fusion_lat": 0.0, "lat": 38.915398333333336, "name": "7c74eff0f886904b3d2c5a2b375f0c0c", "fusion_lon": 0.0, "bike_id": "7c74eff0f886904b3d2c5a2b375f0c0c", "is_disabled": 0, "is_reserved": 0}, {"rental_uris": {"ios": "https://dc.lft.to/lastmile_qr_scan", "android": "https://dc.lft.to/lastmile_qr_scan"}, "lon": -77.03320883333333, "type": "electric_scooter", "fusion_lat": 0.0, "lat": 38.90146683333333, "name": "e79f7e01aa54fead3314f678b369dda9", "fusion_lon": 0.0, "bike_id": "e79f7e01aa54fead3314f678b369dda9", "is_disabled": 0, "is_reserved": 0}, {"rental_uris": {"ios": "https://dc.lft.to/lastmile_qr_scan", "android": "https://dc.lft.to/lastmile_qr_scan"}, "lon": -77.02806233333334, "type": "electric_scooter", "fusion_lat": 0.0, "lat": 38.93082916666667, "name": "0c26a90f1865f35a81c6caa3ce90b73e", "fusion_lon": 0.0, "bike_id": "0c26a90f1865f35a81c6caa3ce90b73e", "is_disabled": 0, "is_reserved": 0}, {"rental_uris": {"ios": "https://dc.lft.to/lastmile_qr_scan", "android": "https://dc.lft.to/lastmile_qr_scan"}, "lon": -77.06343783333334, "type": "electric_scooter", "fusion_lat": 0.0, "lat": 38.94454133333333, "name": "9677df03a220b4d7418ffa3b2ddd07e0", "fusion_lon": 0.0, "bike_id": "9677df03a220b4d7418ffa3b2ddd07e0", "is_disabled": 0, "is_reserved": 0}, {"rental_uris": {"ios": "https://dc.lft.to/lastmile_qr_scan", "android": "https://dc.lft.to/lastmile_qr_scan"}, "lon": -77.0214595, "type": "electric_scooter", "fusion_lat": 0.0, "lat": 38.92820866666667, "name": "f9f7219a0376397f0080046793a1590c", "fusion_lon": 0.0, "bike_id": "f9f7219a0376397f0080046793a1590c", "is_disabled": 0, "is_reserved": 0}, {"rental_uris": {"ios": "https://dc.lft.to/lastmile_qr_scan", "android": "https://dc.lft.to/lastmile_qr_scan"}, "lon": -77.0342615, "type": "electric_scooter", "fusion_lat": 0.0, "lat": 38.919139666666666, "name": "1b9ec112306a8a75fd28364705fe5c73", "fusion_lon": 0.0, "bike_id": "1b9ec112306a8a75fd28364705fe5c73", "is_disabled": 0, "is_reserved": 0}, {"rental_uris": {"ios": "https://dc.lft.to/lastmile_qr_scan", "android": "https://dc.lft.to/lastmile_qr_scan"}, "lon": -76.94718233333333, "type": "electric_scooter", "fusion_lat": 0.0, "lat": 38.89677433333333, "name": "4517a0fbe12d1daa55515742d575e2e6", "fusion_lon": 0.0, "bike_id": "4517a0fbe12d1daa55515742d575e2e6", "is_disabled": 0, "is_reserved": 0}, {"rental_uris": {"ios": "https://dc.lft.to/lastmile_qr_scan", "android": "https://dc.lft.to/lastmile_qr_scan"}, "lon": -77.0249035, "type": "electric_scooter", "fusion_lat": 0.0, "lat": 38.89756716666667, "name": "dee78bba6c0670d2915eec7b69a3332c", "fusion_lon": 0.0, "bike_id": "dee78bba6c0670d2915eec7b69a3332c", "is_disabled": 0, "is_reserved": 0}, {"rental_uris": {"ios": "https://dc.lft.to/lastmile_qr_scan", "android": "https://dc.lft.to/lastmile_qr_scan"}, "lon": -76.99840766666667, "type": "electric_scooter", "fusion_lat": 0.0, "lat": 38.9004825, "name": "ca11cbae4d402eaf0109eb997bc438bd", "fusion_lon": 0.0, "bike_id": "ca11cbae4d402eaf0109eb997bc438bd", "is_disabled": 0, "is_reserved": 0}, {"rental_uris": {"ios": "https://dc.lft.to/lastmile_qr_scan", "android": "https://dc.lft.to/lastmile_qr_scan"}, "lon": -76.98850916666666, "type": "electric_scooter", "fusion_lat": 0.0, "lat": 38.903452333333334, "name": "172e6cfe904ac43af1a3d1334d6d6c86", "fusion_lon": 0.0, "bike_id": "172e6cfe904ac43af1a3d1334d6d6c86", "is_disabled": 0, "is_reserved": 0}, {"rental_uris": {"ios": "https://dc.lft.to/lastmile_qr_scan", "android": "https://dc.lft.to/lastmile_qr_scan"}, "lon": -77.0162795, "type": "electric_scooter", "fusion_lat": 0.0, "lat": 38.903544833333335, "name": "6943d47124b6053b2568725cd4361802", "fusion_lon": 0.0, "bike_id": "6943d47124b6053b2568725cd4361802", "is_disabled": 0, "is_reserved": 0}, {"rental_uris": {"ios": "https://dc.lft.to/lastmile_qr_scan", "android": "https://dc.lft.to/lastmile_qr_scan"}, "lon": -77.09879316666667, "type": "electric_bike", "fusion_lat": 0.0, "lat": 38.947923, "name": "672bfb2796a2ea697600fe4a7a53852a", "fusion_lon": 0.0, "bike_id": "672bfb2796a2ea697600fe4a7a53852a", "is_disabled": 0, "is_reserved": 0}, {"rental_uris": {"ios": "https://dc.lft.to/lastmile_qr_scan", "android": "https://dc.lft.to/lastmile_qr_scan"}, "lon": -77.04465766666667, "type": "electric_scooter", "fusion_lat": 0.0, "lat": 38.90338883333333, "name": "fa1a0401bf3c6909e91f469e740b42d0", "fusion_lon": 0.0, "bike_id": "fa1a0401bf3c6909e91f469e740b42d0", "is_disabled": 0, "is_reserved": 0}, {"rental_uris": {"ios": "https://dc.lft.to/lastmile_qr_scan", "android": "https://dc.lft.to/lastmile_qr_scan"}, "lon": -76.92371683333333, "type": "electric_bike", "fusion_lat": 0.0, "lat": 38.8837785, "name": "b7ac10c8744d85e86c3ad27d7dc3a99a", "fusion_lon": 0.0, "bike_id": "b7ac10c8744d85e86c3ad27d7dc3a99a", "is_disabled": 0, "is_reserved": 0}, {"rental_uris": {"ios": "https://dc.lft.to/lastmile_qr_scan", "android": "https://dc.lft.to/lastmile_qr_scan"}, "lon": -77.00810366666667, "type": "electric_scooter", "fusion_lat": 0.0, "lat": 38.9055955, "name": "def5b757789f35be1038486e55ea8a0a", "fusion_lon": 0.0, "bike_id": "def5b757789f35be1038486e55ea8a0a", "is_disabled": 0, "is_reserved": 0}, {"rental_uris": {"ios": "https://dc.lft.to/lastmile_qr_scan", "android": "https://dc.lft.to/lastmile_qr_scan"}, "lon": -77.04304333333333, "type": "electric_scooter", "fusion_lat": 0.0, "lat": 38.908783, "name": "d49a7089009d214006e0d763233b886f", "fusion_lon": 0.0, "bike_id": "d49a7089009d214006e0d763233b886f", "is_disabled": 0, "is_reserved": 0}, {"rental_uris": {"ios": "https://dc.lft.to/lastmile_qr_scan", "android": "https://dc.lft.to/lastmile_qr_scan"}, "lon": -76.9958505, "type": "electric_scooter", "fusion_lat": 0.0, "lat": 38.95504416666667, "name": "24fa51a31c02adcc90fcb5e9efca082d", "fusion_lon": 0.0, "bike_id": "24fa51a31c02adcc90fcb5e9efca082d", "is_disabled": 0, "is_reserved": 0}, {"rental_uris": {"ios": "https://dc.lft.to/lastmile_qr_scan", "android": "https://dc.lft.to/lastmile_qr_scan"}, "lon": -76.97564783333334, "type": "electric_bike", "fusion_lat": 0.0, "lat": 38.9250655, "name": "47a0368ec78b2c213fc4c8f753cdbfe5", "fusion_lon": 0.0, "bike_id": "47a0368ec78b2c213fc4c8f753cdbfe5", "is_disabled": 0, "is_reserved": 0}, {"rental_uris": {"ios": "https://dc.lft.to/lastmile_qr_scan", "android": "https://dc.lft.to/lastmile_qr_scan"}, "lon": -76.99574733333333, "type": "electric_scooter", "fusion_lat": 0.0, "lat": 38.900319333333336, "name": "18f6cf2f0c1d755a0921040244a57750", "fusion_lon": 0.0, "bike_id": "18f6cf2f0c1d755a0921040244a57750", "is_disabled": 0, "is_reserved": 0}, {"rental_uris": {"ios": "https://dc.lft.to/lastmile_qr_scan", "android": "https://dc.lft.to/lastmile_qr_scan"}, "lon": -77.044993, "type": "electric_scooter", "fusion_lat": 0.0, "lat": 38.91113566666667, "name": "75f68d680ca70fd5ca328ae1249091f5", "fusion_lon": 0.0, "bike_id": "75f68d680ca70fd5ca328ae1249091f5", "is_disabled": 0, "is_reserved": 0}, {"rental_uris": {"ios": "https://dc.lft.to/lastmile_qr_scan", "android": "https://dc.lft.to/lastmile_qr_scan"}, "lon": -77.0738705, "type": "electric_bike", "fusion_lat": 0.0, "lat": 38.96173, "name": "626db0a2f09d929d5f22718830e17d3b", "fusion_lon": 0.0, "bike_id": "626db0a2f09d929d5f22718830e17d3b", "is_disabled": 0, "is_reserved": 0}, {"rental_uris": {"ios": "https://dc.lft.to/lastmile_qr_scan", "android": "https://dc.lft.to/lastmile_qr_scan"}, "lon": -77.04179283333333, "type": "electric_scooter", "fusion_lat": 0.0, "lat": 38.911796, "name": "ed01f5d0d43a98cffbaaaec17bcfc8d0", "fusion_lon": 0.0, "bike_id": "ed01f5d0d43a98cffbaaaec17bcfc8d0", "is_disabled": 0, "is_reserved": 0}, {"rental_uris": {"ios": "https://dc.lft.to/lastmile_qr_scan", "android": "https://dc.lft.to/lastmile_qr_scan"}, "lon": -77.043604, "type": "electric_scooter", "fusion_lat": 0.0, "lat": 38.921480333333335, "name": "86d446d48ba5fbfef420fa0f90fd86ff", "fusion_lon": 0.0, "bike_id": "86d446d48ba5fbfef420fa0f90fd86ff", "is_disabled": 0, "is_reserved": 0}, {"rental_uris": {"ios": "https://dc.lft.to/lastmile_qr_scan", "android": "https://dc.lft.to/lastmile_qr_scan"}, "lon": -77.027622, "type": "electric_scooter", "fusion_lat": 0.0, "lat": 38.91345883333334, "name": "483e2a242ee0d1894479f2fc2711e3ee", "fusion_lon": 0.0, "bike_id": "483e2a242ee0d1894479f2fc2711e3ee", "is_disabled": 0, "is_reserved": 0}, {"rental_uris": {"ios": "https://dc.lft.to/lastmile_qr_scan", "android": "https://dc.lft.to/lastmile_qr_scan"}, "lon": -76.93174133333333, "type": "electric_scooter", "fusion_lat": 0.0, "lat": 38.8988865, "name": "94a0d1773d2d22aba3c505159c95ac57", "fusion_lon": 0.0, "bike_id": "94a0d1773d2d22aba3c505159c95ac57", "is_disabled": 0, "is_reserved": 0}, {"rental_uris": {"ios": "https://dc.lft.to/lastmile_qr_scan", "android": "https://dc.lft.to/lastmile_qr_scan"}, "lon": -77.02465683333334, "type": "electric_scooter", "fusion_lat": 0.0, "lat": 38.9203575, "name": "5e29559ae5d9ae1cab71523681282b97", "fusion_lon": 0.0, "bike_id": "5e29559ae5d9ae1cab71523681282b97", "is_disabled": 0, "is_reserved": 0}, {"rental_uris": {"ios": "https://dc.lft.to/lastmile_qr_scan", "android": "https://dc.lft.to/lastmile_qr_scan"}, "lon": -77.03815116666667, "type": "electric_scooter", "fusion_lat": 0.0, "lat": 38.920664, "name": "e8d4d43fddb2c52e1f782eb02508dd6a", "fusion_lon": 0.0, "bike_id": "e8d4d43fddb2c52e1f782eb02508dd6a", "is_disabled": 0, "is_reserved": 0}, {"rental_uris": {"ios": "https://dc.lft.to/lastmile_qr_scan", "android": "https://dc.lft.to/lastmile_qr_scan"}, "lon": -77.00245933333333, "type": "electric_scooter", "fusion_lat": 0.0, "lat": 38.911770833333335, "name": "2a29b6314747bb3e7c69958d0c8e788a", "fusion_lon": 0.0, "bike_id": "2a29b6314747bb3e7c69958d0c8e788a", "is_disabled": 0, "is_reserved": 0}, {"rental_uris": {"ios": "https://dc.lft.to/lastmile_qr_scan", "android": "https://dc.lft.to/lastmile_qr_scan"}, "lon": -77.03044, "type": "electric_scooter", "fusion_lat": 0.0, "lat": 38.88407983333333, "name": "0792ccf91455d46e22febfdb468378f2", "fusion_lon": 0.0, "bike_id": "0792ccf91455d46e22febfdb468378f2", "is_disabled": 0, "is_reserved": 0}, {"rental_uris": {"ios": "https://dc.lft.to/lastmile_qr_scan", "android": "https://dc.lft.to/lastmile_qr_scan"}, "lon": -77.047794, "type": "electric_scooter", "fusion_lat": 0.0, "lat": 38.893652, "name": "866425f0374569fea10d9d9c20a79cc9", "fusion_lon": 0.0, "bike_id": "866425f0374569fea10d9d9c20a79cc9", "is_disabled": 0, "is_reserved": 0}, {"rental_uris": {"ios": "https://dc.lft.to/lastmile_qr_scan", "android": "https://dc.lft.to/lastmile_qr_scan"}, "lon": -77.04195533333333, "type": "electric_scooter", "fusion_lat": 0.0, "lat": 38.91878916666667, "name": "a721097ac0e04d76e250d09e64ea8ed5", "fusion_lon": 0.0, "bike_id": "a721097ac0e04d76e250d09e64ea8ed5", "is_disabled": 0, "is_reserved": 0}, {"rental_uris": {"ios": "https://dc.lft.to/lastmile_qr_scan", "android": "https://dc.lft.to/lastmile_qr_scan"}, "lon": -77.02371333333333, "type": "electric_scooter", "fusion_lat": 0.0, "lat": 38.9204445, "name": "353c336c20e57922d7b0d339f962fbe1", "fusion_lon": 0.0, "bike_id": "353c336c20e57922d7b0d339f962fbe1", "is_disabled": 0, "is_reserved": 0}, {"rental_uris": {"ios": "https://dc.lft.to/lastmile_qr_scan", "android": "https://dc.lft.to/lastmile_qr_scan"}, "lon": -77.003294, "type": "electric_scooter", "fusion_lat": 0.0, "lat": 38.8935555, "name": "dd2b0eed4ec1c65a0674c0a3eaa1265f", "fusion_lon": 0.0, "bike_id": "dd2b0eed4ec1c65a0674c0a3eaa1265f", "is_disabled": 0, "is_reserved": 0}, {"rental_uris": {"ios": "https://dc.lft.to/lastmile_qr_scan", "android": "https://dc.lft.to/lastmile_qr_scan"}, "lon": -77.04158166666667, "type": "electric_scooter", "fusion_lat": 0.0, "lat": 38.911772, "name": "310a43d104538b75911534f402c55f41", "fusion_lon": 0.0, "bike_id": "310a43d104538b75911534f402c55f41", "is_disabled": 0, "is_reserved": 0}, {"rental_uris": {"ios": "https://dc.lft.to/lastmile_qr_scan", "android": "https://dc.lft.to/lastmile_qr_scan"}, "lon": -77.04366816666666, "type": "electric_scooter", "fusion_lat": 0.0, "lat": 38.9334145, "name": "a8b33e9573a9ff5ca1a74c6a539ab4a1", "fusion_lon": 0.0, "bike_id": "a8b33e9573a9ff5ca1a74c6a539ab4a1", "is_disabled": 0, "is_reserved": 0}, {"rental_uris": {"ios": "https://dc.lft.to/lastmile_qr_scan", "android": "https://dc.lft.to/lastmile_qr_scan"}, "lon": -77.04144166666667, "type": "electric_scooter", "fusion_lat": 0.0, "lat": 38.9025175, "name": "d183661450306647503d21a8f3e0438a", "fusion_lon": 0.0, "bike_id": "d183661450306647503d21a8f3e0438a", "is_disabled": 0, "is_reserved": 0}, {"rental_uris": {"ios": "https://dc.lft.to/lastmile_qr_scan", "android": "https://dc.lft.to/lastmile_qr_scan"}, "lon": -77.00196466666667, "type": "electric_bike", "fusion_lat": 0.0, "lat": 38.90848066666667, "name": "de152a0758e57b13bdd9f0355b3b4c54", "fusion_lon": 0.0, "bike_id": "de152a0758e57b13bdd9f0355b3b4c54", "is_disabled": 0, "is_reserved": 0}, {"rental_uris": {"ios": "https://dc.lft.to/lastmile_qr_scan", "android": "https://dc.lft.to/lastmile_qr_scan"}, "lon": -77.02600766666667, "type": "electric_scooter", "fusion_lat": 0.0, "lat": 38.88744766666667, "name": "6b5c4c8ff159f870e535703beabd535e", "fusion_lon": 0.0, "bike_id": "6b5c4c8ff159f870e535703beabd535e", "is_disabled": 0, "is_reserved": 0}, {"rental_uris": {"ios": "https://dc.lft.to/lastmile_qr_scan", "android": "https://dc.lft.to/lastmile_qr_scan"}, "lon": -77.02094966666667, "type": "electric_scooter", "fusion_lat": 0.0, "lat": 38.885044, "name": "1c1ece9acc873a4424d8342a6a6e7aab", "fusion_lon": 0.0, "bike_id": "1c1ece9acc873a4424d8342a6a6e7aab", "is_disabled": 0, "is_reserved": 0}, {"rental_uris": {"ios": "https://dc.lft.to/lastmile_qr_scan", "android": "https://dc.lft.to/lastmile_qr_scan"}, "lon": -77.0239745, "type": "electric_scooter", "fusion_lat": 0.0, "lat": 38.9159525, "name": "1bd5f13ae158b57e31d953840abb087c", "fusion_lon": 0.0, "bike_id": "1bd5f13ae158b57e31d953840abb087c", "is_disabled": 0, "is_reserved": 0}, {"rental_uris": {"ios": "https://dc.lft.to/lastmile_qr_scan", "android": "https://dc.lft.to/lastmile_qr_scan"}, "lon": -76.94613533333333, "type": "electric_bike", "fusion_lat": 0.0, "lat": 38.832381166666664, "name": "691ede01643a787dd4e8519487e13f7b", "fusion_lon": 0.0, "bike_id": "691ede01643a787dd4e8519487e13f7b", "is_disabled": 0, "is_reserved": 0}, {"rental_uris": {"ios": "https://dc.lft.to/lastmile_qr_scan", "android": "https://dc.lft.to/lastmile_qr_scan"}, "lon": -76.97596283333333, "type": "electric_scooter", "fusion_lat": 0.0, "lat": 38.9033315, "name": "1d4d39c24de82718c33af81b3fd9edbe", "fusion_lon": 0.0, "bike_id": "1d4d39c24de82718c33af81b3fd9edbe", "is_disabled": 0, "is_reserved": 0}, {"rental_uris": {"ios": "https://dc.lft.to/lastmile_qr_scan", "android": "https://dc.lft.to/lastmile_qr_scan"}, "lon": -77.05138933333333, "type": "electric_scooter", "fusion_lat": 0.0, "lat": 38.89913, "name": "25aa1f538d23373a25a9f046793b2d48", "fusion_lon": 0.0, "bike_id": "25aa1f538d23373a25a9f046793b2d48", "is_disabled": 0, "is_reserved": 0}, {"rental_uris": {"ios": "https://dc.lft.to/lastmile_qr_scan", "android": "https://dc.lft.to/lastmile_qr_scan"}, "lon": -77.037054, "type": "electric_scooter", "fusion_lat": 0.0, "lat": 38.9263755, "name": "e63327d049dd7d35edfa461dabb66c45", "fusion_lon": 0.0, "bike_id": "e63327d049dd7d35edfa461dabb66c45", "is_disabled": 0, "is_reserved": 0}, {"rental_uris": {"ios": "https://dc.lft.to/lastmile_qr_scan", "android": "https://dc.lft.to/lastmile_qr_scan"}, "lon": -77.0107635, "type": "electric_bike", "fusion_lat": 0.0, "lat": 38.95656783333333, "name": "3d999531b79f0848ae64ff2a784d028a", "fusion_lon": 0.0, "bike_id": "3d999531b79f0848ae64ff2a784d028a", "is_disabled": 0, "is_reserved": 0}, {"rental_uris": {"ios": "https://dc.lft.to/lastmile_qr_scan", "android": "https://dc.lft.to/lastmile_qr_scan"}, "lon": -77.02069133333333, "type": "electric_scooter", "fusion_lat": 0.0, "lat": 38.935334833333336, "name": "2e2c34af49573aaa14a4b471a4026cfa", "fusion_lon": 0.0, "bike_id": "2e2c34af49573aaa14a4b471a4026cfa", "is_disabled": 0, "is_reserved": 0}, {"rental_uris": {"ios": "https://dc.lft.to/lastmile_qr_scan", "android": "https://dc.lft.to/lastmile_qr_scan"}, "lon": -77.02766416666667, "type": "electric_scooter", "fusion_lat": 0.0, "lat": 38.891998666666666, "name": "f434ff35dad36689de9015020e7fe4a2", "fusion_lon": 0.0, "bike_id": "f434ff35dad36689de9015020e7fe4a2", "is_disabled": 0, "is_reserved": 0}, {"rental_uris": {"ios": "https://dc.lft.to/lastmile_qr_scan", "android": "https://dc.lft.to/lastmile_qr_scan"}, "lon": -77.0446075, "type": "electric_scooter", "fusion_lat": 0.0, "lat": 38.9034155, "name": "9e4e13cbf21a0b4cb37cc27901825057", "fusion_lon": 0.0, "bike_id": "9e4e13cbf21a0b4cb37cc27901825057", "is_disabled": 0, "is_reserved": 0}, {"rental_uris": {"ios": "https://dc.lft.to/lastmile_qr_scan", "android": "https://dc.lft.to/lastmile_qr_scan"}, "lon": -77.0425905, "type": "electric_scooter", "fusion_lat": 0.0, "lat": 38.9206485, "name": "7c1007a4cc39d0e4d61dc3adc2730347", "fusion_lon": 0.0, "bike_id": "7c1007a4cc39d0e4d61dc3adc2730347", "is_disabled": 0, "is_reserved": 0}, {"rental_uris": {"ios": "https://dc.lft.to/lastmile_qr_scan", "android": "https://dc.lft.to/lastmile_qr_scan"}, "lon": -77.04475883333333, "type": "electric_scooter", "fusion_lat": 0.0, "lat": 38.913191166666664, "name": "b2aee119f6b85ecd60660cc781a16851", "fusion_lon": 0.0, "bike_id": "b2aee119f6b85ecd60660cc781a16851", "is_disabled": 0, "is_reserved": 0}, {"rental_uris": {"ios": "https://dc.lft.to/lastmile_qr_scan", "android": "https://dc.lft.to/lastmile_qr_scan"}, "lon": -77.0282965, "type": "electric_scooter", "fusion_lat": 0.0, "lat": 38.924762666666666, "name": "a8a12dec291dde00d401f3f3b3c83e7e", "fusion_lon": 0.0, "bike_id": "a8a12dec291dde00d401f3f3b3c83e7e", "is_disabled": 0, "is_reserved": 0}, {"rental_uris": {"ios": "https://dc.lft.to/lastmile_qr_scan", "android": "https://dc.lft.to/lastmile_qr_scan"}, "lon": -77.00602116666667, "type": "electric_scooter", "fusion_lat": 0.0, "lat": 38.90605716666666, "name": "617024de6b80e5c4cbe808d81bc5b333", "fusion_lon": 0.0, "bike_id": "617024de6b80e5c4cbe808d81bc5b333", "is_disabled": 0, "is_reserved": 0}, {"rental_uris": {"ios": "https://dc.lft.to/lastmile_qr_scan", "android": "https://dc.lft.to/lastmile_qr_scan"}, "lon": -76.99265316666667, "type": "electric_scooter", "fusion_lat": 0.0, "lat": 38.897683, "name": "044b3d0a1d4427c86eaa5bcb560caeaf", "fusion_lon": 0.0, "bike_id": "044b3d0a1d4427c86eaa5bcb560caeaf", "is_disabled": 0, "is_reserved": 0}, {"rental_uris": {"ios": "https://dc.lft.to/lastmile_qr_scan", "android": "https://dc.lft.to/lastmile_qr_scan"}, "lon": -76.98994433333333, "type": "electric_bike", "fusion_lat": 0.0, "lat": 38.863914333333334, "name": "2ca9c82f9bc1561a83c717e4f7eadaa8", "fusion_lon": 0.0, "bike_id": "2ca9c82f9bc1561a83c717e4f7eadaa8", "is_disabled": 0, "is_reserved": 0}, {"rental_uris": {"ios": "https://dc.lft.to/lastmile_qr_scan", "android": "https://dc.lft.to/lastmile_qr_scan"}, "lon": -77.02410033333334, "type": "electric_scooter", "fusion_lat": 0.0, "lat": 38.91706966666667, "name": "c4366bc87038404508d62b965337d047", "fusion_lon": 0.0, "bike_id": "c4366bc87038404508d62b965337d047", "is_disabled": 0, "is_reserved": 0}, {"rental_uris": {"ios": "https://dc.lft.to/lastmile_qr_scan", "android": "https://dc.lft.to/lastmile_qr_scan"}, "lon": -77.0344075, "type": "electric_scooter", "fusion_lat": 0.0, "lat": 38.91843933333333, "name": "98cc0982019609ce9426f2a870021e92", "fusion_lon": 0.0, "bike_id": "98cc0982019609ce9426f2a870021e92", "is_disabled": 0, "is_reserved": 0}, {"rental_uris": {"ios": "https://dc.lft.to/lastmile_qr_scan", "android": "https://dc.lft.to/lastmile_qr_scan"}, "lon": -77.04668566666666, "type": "electric_scooter", "fusion_lat": 0.0, "lat": 38.913205, "name": "3b6266ccdce2923cf4b5a38530863bd8", "fusion_lon": 0.0, "bike_id": "3b6266ccdce2923cf4b5a38530863bd8", "is_disabled": 0, "is_reserved": 0}, {"rental_uris": {"ios": "https://dc.lft.to/lastmile_qr_scan", "android": "https://dc.lft.to/lastmile_qr_scan"}, "lon": -77.0110535, "type": "electric_scooter", "fusion_lat": 0.0, "lat": 38.91564283333334, "name": "f72dfc71874ded375817cd63ba13b4bc", "fusion_lon": 0.0, "bike_id": "f72dfc71874ded375817cd63ba13b4bc", "is_disabled": 0, "is_reserved": 0}, {"rental_uris": {"ios": "https://dc.lft.to/lastmile_qr_scan", "android": "https://dc.lft.to/lastmile_qr_scan"}, "lon": -77.03243916666666, "type": "electric_scooter", "fusion_lat": 0.0, "lat": 38.904672833333336, "name": "64b96bde424415091029416f6eb9df49", "fusion_lon": 0.0, "bike_id": "64b96bde424415091029416f6eb9df49", "is_disabled": 0, "is_reserved": 0}, {"rental_uris": {"ios": "https://dc.lft.to/lastmile_qr_scan", "android": "https://dc.lft.to/lastmile_qr_scan"}, "lon": -76.9761795, "type": "electric_bike", "fusion_lat": 0.0, "lat": 38.895815, "name": "2c98ac7260bec7afa75e8d5e8f05de7d", "fusion_lon": 0.0, "bike_id": "2c98ac7260bec7afa75e8d5e8f05de7d", "is_disabled": 0, "is_reserved": 0}, {"rental_uris": {"ios": "https://dc.lft.to/lastmile_qr_scan", "android": "https://dc.lft.to/lastmile_qr_scan"}, "lon": -77.0111185, "type": "electric_scooter", "fusion_lat": 0.0, "lat": 38.894882, "name": "05c95a469af3042396988b83f9d7c639", "fusion_lon": 0.0, "bike_id": "05c95a469af3042396988b83f9d7c639", "is_disabled": 0, "is_reserved": 0}, {"rental_uris": {"ios": "https://dc.lft.to/lastmile_qr_scan", "android": "https://dc.lft.to/lastmile_qr_scan"}, "lon": -77.0024, "type": "electric_scooter", "fusion_lat": 0.0, "lat": 38.911779333333335, "name": "8bbd40daeaac3a24769008b0667c097f", "fusion_lon": 0.0, "bike_id": "8bbd40daeaac3a24769008b0667c097f", "is_disabled": 0, "is_reserved": 0}, {"rental_uris": {"ios": "https://dc.lft.to/lastmile_qr_scan", "android": "https://dc.lft.to/lastmile_qr_scan"}, "lon": -77.0121955, "type": "electric_scooter", "fusion_lat": 0.0, "lat": 38.87076483333333, "name": "0f07f76529c056d84cb9d65e3eb7cb87", "fusion_lon": 0.0, "bike_id": "0f07f76529c056d84cb9d65e3eb7cb87", "is_disabled": 0, "is_reserved": 0}, {"rental_uris": {"ios": "https://dc.lft.to/lastmile_qr_scan", "android": "https://dc.lft.to/lastmile_qr_scan"}, "lon": -77.04183183333333, "type": "electric_scooter", "fusion_lat": 0.0, "lat": 38.905483333333336, "name": "dd7d46245d780994983197a4a224b62a", "fusion_lon": 0.0, "bike_id": "dd7d46245d780994983197a4a224b62a", "is_disabled": 0, "is_reserved": 0}, {"rental_uris": {"ios": "https://dc.lft.to/lastmile_qr_scan", "android": "https://dc.lft.to/lastmile_qr_scan"}, "lon": -77.0424865, "type": "electric_scooter", "fusion_lat": 0.0, "lat": 38.907070833333336, "name": "82e2b1002fdbaa496912ad17ce90b1d3", "fusion_lon": 0.0, "bike_id": "82e2b1002fdbaa496912ad17ce90b1d3", "is_disabled": 0, "is_reserved": 0}, {"rental_uris": {"ios": "https://dc.lft.to/lastmile_qr_scan", "android": "https://dc.lft.to/lastmile_qr_scan"}, "lon": -77.04110333333334, "type": "electric_scooter", "fusion_lat": 0.0, "lat": 38.924459166666665, "name": "2c832ddd791f8b15f9d0a69ca00f2212", "fusion_lon": 0.0, "bike_id": "2c832ddd791f8b15f9d0a69ca00f2212", "is_disabled": 0, "is_reserved": 0}, {"rental_uris": {"ios": "https://dc.lft.to/lastmile_qr_scan", "android": "https://dc.lft.to/lastmile_qr_scan"}, "lon": -77.00250316666667, "type": "electric_scooter", "fusion_lat": 0.0, "lat": 38.912694, "name": "46b43d8eca3f0cb98a4e98eae37baa5e", "fusion_lon": 0.0, "bike_id": "46b43d8eca3f0cb98a4e98eae37baa5e", "is_disabled": 0, "is_reserved": 0}, {"rental_uris": {"ios": "https://dc.lft.to/lastmile_qr_scan", "android": "https://dc.lft.to/lastmile_qr_scan"}, "lon": -77.03428166666667, "type": "electric_scooter", "fusion_lat": 0.0, "lat": 38.90353983333333, "name": "b1a2c0b378832843c472c4b214dcc262", "fusion_lon": 0.0, "bike_id": "b1a2c0b378832843c472c4b214dcc262", "is_disabled": 0, "is_reserved": 0}, {"rental_uris": {"ios": "https://dc.lft.to/lastmile_qr_scan", "android": "https://dc.lft.to/lastmile_qr_scan"}, "lon": -76.937178, "type": "electric_scooter", "fusion_lat": 0.0, "lat": 38.89586466666667, "name": "29afcc0ae110c4d1e8ccd22f03ac41aa", "fusion_lon": 0.0, "bike_id": "29afcc0ae110c4d1e8ccd22f03ac41aa", "is_disabled": 0, "is_reserved": 0}, {"rental_uris": {"ios": "https://dc.lft.to/lastmile_qr_scan", "android": "https://dc.lft.to/lastmile_qr_scan"}, "lon": -77.019443, "type": "electric_scooter", "fusion_lat": 0.0, "lat": 38.903668333333336, "name": "5bbb4dc4ce78990a572df6aa526208f3", "fusion_lon": 0.0, "bike_id": "5bbb4dc4ce78990a572df6aa526208f3", "is_disabled": 0, "is_reserved": 0}, {"rental_uris": {"ios": "https://dc.lft.to/lastmile_qr_scan", "android": "https://dc.lft.to/lastmile_qr_scan"}, "lon": -76.97402033333333, "type": "electric_scooter", "fusion_lat": 0.0, "lat": 38.9016165, "name": "1b7725cd89c2738a3baf2a66b132f45b", "fusion_lon": 0.0, "bike_id": "1b7725cd89c2738a3baf2a66b132f45b", "is_disabled": 0, "is_reserved": 0}, {"rental_uris": {"ios": "https://dc.lft.to/lastmile_qr_scan", "android": "https://dc.lft.to/lastmile_qr_scan"}, "lon": -76.97922833333334, "type": "electric_scooter", "fusion_lat": 0.0, "lat": 38.906732166666664, "name": "d2c251c8030470605f862d125afabd01", "fusion_lon": 0.0, "bike_id": "d2c251c8030470605f862d125afabd01", "is_disabled": 0, "is_reserved": 0}, {"rental_uris": {"ios": "https://dc.lft.to/lastmile_qr_scan", "android": "https://dc.lft.to/lastmile_qr_scan"}, "lon": -77.02963966666667, "type": "electric_scooter", "fusion_lat": 0.0, "lat": 38.92333516666667, "name": "a2327df4e312890ae64c3a7269af8416", "fusion_lon": 0.0, "bike_id": "a2327df4e312890ae64c3a7269af8416", "is_disabled": 0, "is_reserved": 0}, {"rental_uris": {"ios": "https://dc.lft.to/lastmile_qr_scan", "android": "https://dc.lft.to/lastmile_qr_scan"}, "lon": -77.03480316666666, "type": "electric_scooter", "fusion_lat": 0.0, "lat": 38.90366816666667, "name": "0e1a65d9872e7c614b1e8475536a6ea2", "fusion_lon": 0.0, "bike_id": "0e1a65d9872e7c614b1e8475536a6ea2", "is_disabled": 0, "is_reserved": 0}, {"rental_uris": {"ios": "https://dc.lft.to/lastmile_qr_scan", "android": "https://dc.lft.to/lastmile_qr_scan"}, "lon": -77.00565233333333, "type": "electric_scooter", "fusion_lat": 0.0, "lat": 38.898253, "name": "33413c1a14bd1e35ea42765a53fa80fe", "fusion_lon": 0.0, "bike_id": "33413c1a14bd1e35ea42765a53fa80fe", "is_disabled": 0, "is_reserved": 0}, {"rental_uris": {"ios": "https://dc.lft.to/lastmile_qr_scan", "android": "https://dc.lft.to/lastmile_qr_scan"}, "lon": -77.00119266666667, "type": "electric_scooter", "fusion_lat": 0.0, "lat": 38.90779116666667, "name": "cbc0df2a07014892b1e2f5b5f26d8f47", "fusion_lon": 0.0, "bike_id": "cbc0df2a07014892b1e2f5b5f26d8f47", "is_disabled": 0, "is_reserved": 0}, {"rental_uris": {"ios": "https://dc.lft.to/lastmile_qr_scan", "android": "https://dc.lft.to/lastmile_qr_scan"}, "lon": -76.977081, "type": "electric_scooter", "fusion_lat": 0.0, "lat": 38.89893, "name": "b475e6ecd93b581d5dc275c8d036083f", "fusion_lon": 0.0, "bike_id": "b475e6ecd93b581d5dc275c8d036083f", "is_disabled": 0, "is_reserved": 0}, {"rental_uris": {"ios": "https://dc.lft.to/lastmile_qr_scan", "android": "https://dc.lft.to/lastmile_qr_scan"}, "lon": -77.02147783333334, "type": "electric_scooter", "fusion_lat": 0.0, "lat": 38.93003066666667, "name": "744297e1eea99f8ab389fedb2644e4ee", "fusion_lon": 0.0, "bike_id": "744297e1eea99f8ab389fedb2644e4ee", "is_disabled": 0, "is_reserved": 0}, {"rental_uris": {"ios": "https://dc.lft.to/lastmile_qr_scan", "android": "https://dc.lft.to/lastmile_qr_scan"}, "lon": -77.0230935, "type": "electric_scooter", "fusion_lat": 0.0, "lat": 38.92886683333333, "name": "41670d149081513b320d7ecc1d843532", "fusion_lon": 0.0, "bike_id": "41670d149081513b320d7ecc1d843532", "is_disabled": 0, "is_reserved": 0}, {"rental_uris": {"ios": "https://dc.lft.to/lastmile_qr_scan", "android": "https://dc.lft.to/lastmile_qr_scan"}, "lon": -76.97218216666667, "type": "electric_bike", "fusion_lat": 0.0, "lat": 38.84484533333333, "name": "ccd4146d42ad8de726a0970edc01f708", "fusion_lon": 0.0, "bike_id": "ccd4146d42ad8de726a0970edc01f708", "is_disabled": 0, "is_reserved": 0}, {"rental_uris": {"ios": "https://dc.lft.to/lastmile_qr_scan", "android": "https://dc.lft.to/lastmile_qr_scan"}, "lon": -77.04019033333333, "type": "electric_scooter", "fusion_lat": 0.0, "lat": 38.92354433333333, "name": "34ace731fb87c40d334c51728aed4bae", "fusion_lon": 0.0, "bike_id": "34ace731fb87c40d334c51728aed4bae", "is_disabled": 0, "is_reserved": 0}, {"rental_uris": {"ios": "https://dc.lft.to/lastmile_qr_scan", "android": "https://dc.lft.to/lastmile_qr_scan"}, "lon": -77.006494, "type": "electric_scooter", "fusion_lat": 0.0, "lat": 38.91705783333333, "name": "fabb5b136952c2cd7fbf63a34e6ded17", "fusion_lon": 0.0, "bike_id": "fabb5b136952c2cd7fbf63a34e6ded17", "is_disabled": 0, "is_reserved": 0}, {"rental_uris": {"ios": "https://dc.lft.to/lastmile_qr_scan", "android": "https://dc.lft.to/lastmile_qr_scan"}, "lon": -77.02401533333334, "type": "electric_scooter", "fusion_lat": 0.0, "lat": 38.915938833333335, "name": "833e9ada7779be45c281ac37ec5ffb12", "fusion_lon": 0.0, "bike_id": "833e9ada7779be45c281ac37ec5ffb12", "is_disabled": 0, "is_reserved": 0}, {"rental_uris": {"ios": "https://dc.lft.to/lastmile_qr_scan", "android": "https://dc.lft.to/lastmile_qr_scan"}, "lon": -77.063987, "type": "electric_bike", "fusion_lat": 0.0, "lat": 38.84345733333333, "name": "a88e3c50925e8ae8480cf9706c2f15cc", "fusion_lon": 0.0, "bike_id": "a88e3c50925e8ae8480cf9706c2f15cc", "is_disabled": 0, "is_reserved": 0}, {"rental_uris": {"ios": "https://dc.lft.to/lastmile_qr_scan", "android": "https://dc.lft.to/lastmile_qr_scan"}, "lon": -77.03159616666667, "type": "electric_scooter", "fusion_lat": 0.0, "lat": 38.89364916666667, "name": "ba4db1de349ef881e35a609060d72ba8", "fusion_lon": 0.0, "bike_id": "ba4db1de349ef881e35a609060d72ba8", "is_disabled": 0, "is_reserved": 0}, {"rental_uris": {"ios": "https://dc.lft.to/lastmile_qr_scan", "android": "https://dc.lft.to/lastmile_qr_scan"}, "lon": -77.038681, "type": "electric_scooter", "fusion_lat": 0.0, "lat": 38.903941333333336, "name": "a1aff716fb1549784e297daa16561ac4", "fusion_lon": 0.0, "bike_id": "a1aff716fb1549784e297daa16561ac4", "is_disabled": 0, "is_reserved": 0}, {"rental_uris": {"ios": "https://dc.lft.to/lastmile_qr_scan", "android": "https://dc.lft.to/lastmile_qr_scan"}, "lon": -77.02996083333333, "type": "electric_scooter", "fusion_lat": 0.0, "lat": 38.900125833333334, "name": "77e12f6b6c9f1f73fcc4298313265a13", "fusion_lon": 0.0, "bike_id": "77e12f6b6c9f1f73fcc4298313265a13", "is_disabled": 0, "is_reserved": 0}, {"rental_uris": {"ios": "https://dc.lft.to/lastmile_qr_scan", "android": "https://dc.lft.to/lastmile_qr_scan"}, "lon": -77.04239883333334, "type": "electric_scooter", "fusion_lat": 0.0, "lat": 38.9111235, "name": "d922d8e446bd732a4fa246f5b67def57", "fusion_lon": 0.0, "bike_id": "d922d8e446bd732a4fa246f5b67def57", "is_disabled": 0, "is_reserved": 0}, {"rental_uris": {"ios": "https://dc.lft.to/lastmile_qr_scan", "android": "https://dc.lft.to/lastmile_qr_scan"}, "lon": -77.03011083333334, "type": "electric_bike", "fusion_lat": 0.0, "lat": 38.934878499999996, "name": "d683aea2a34189e1083eeef67674e3b3", "fusion_lon": 0.0, "bike_id": "d683aea2a34189e1083eeef67674e3b3", "is_disabled": 0, "is_reserved": 0}, {"rental_uris": {"ios": "https://dc.lft.to/lastmile_qr_scan", "android": "https://dc.lft.to/lastmile_qr_scan"}, "lon": -76.9982525, "type": "electric_bike", "fusion_lat": 0.0, "lat": 38.84455066666666, "name": "abd190377aa7b380dcf8563f68998f57", "fusion_lon": 0.0, "bike_id": "abd190377aa7b380dcf8563f68998f57", "is_disabled": 0, "is_reserved": 0}, {"rental_uris": {"ios": "https://dc.lft.to/lastmile_qr_scan", "android": "https://dc.lft.to/lastmile_qr_scan"}, "lon": -77.00068266666666, "type": "electric_scooter", "fusion_lat": 0.0, "lat": 38.92553633333333, "name": "9543b96cffff5480064f91f786157854", "fusion_lon": 0.0, "bike_id": "9543b96cffff5480064f91f786157854", "is_disabled": 0, "is_reserved": 0}, {"rental_uris": {"ios": "https://dc.lft.to/lastmile_qr_scan", "android": "https://dc.lft.to/lastmile_qr_scan"}, "lon": -77.0481975, "type": "electric_scooter", "fusion_lat": 0.0, "lat": 38.920397333333334, "name": "8fe7adf28356fe748e28271b29ee008f", "fusion_lon": 0.0, "bike_id": "8fe7adf28356fe748e28271b29ee008f", "is_disabled": 0, "is_reserved": 0}, {"rental_uris": {"ios": "https://dc.lft.to/lastmile_qr_scan", "android": "https://dc.lft.to/lastmile_qr_scan"}, "lon": -76.946637, "type": "electric_scooter", "fusion_lat": 0.0, "lat": 38.8987095, "name": "6a5d1c5f6cadf766b6e58897dd08b732", "fusion_lon": 0.0, "bike_id": "6a5d1c5f6cadf766b6e58897dd08b732", "is_disabled": 0, "is_reserved": 0}, {"rental_uris": {"ios": "https://dc.lft.to/lastmile_qr_scan", "android": "https://dc.lft.to/lastmile_qr_scan"}, "lon": -77.01185866666667, "type": "electric_scooter", "fusion_lat": 0.0, "lat": 38.915473, "name": "30f076ecc7fa424f7d076a32085a6453", "fusion_lon": 0.0, "bike_id": "30f076ecc7fa424f7d076a32085a6453", "is_disabled": 0, "is_reserved": 0}, {"rental_uris": {"ios": "https://dc.lft.to/lastmile_qr_scan", "android": "https://dc.lft.to/lastmile_qr_scan"}, "lon": -76.99479933333333, "type": "electric_scooter", "fusion_lat": 0.0, "lat": 38.89558683333333, "name": "d300261ee1aa7d319ea3a851c2097771", "fusion_lon": 0.0, "bike_id": "d300261ee1aa7d319ea3a851c2097771", "is_disabled": 0, "is_reserved": 0}, {"rental_uris": {"ios": "https://dc.lft.to/lastmile_qr_scan", "android": "https://dc.lft.to/lastmile_qr_scan"}, "lon": -76.9315725, "type": "electric_scooter", "fusion_lat": 0.0, "lat": 38.8987735, "name": "f49dd3e705c621ad85eb8882382bbca7", "fusion_lon": 0.0, "bike_id": "f49dd3e705c621ad85eb8882382bbca7", "is_disabled": 0, "is_reserved": 0}, {"rental_uris": {"ios": "https://dc.lft.to/lastmile_qr_scan", "android": "https://dc.lft.to/lastmile_qr_scan"}, "lon": -77.01189633333334, "type": "electric_scooter", "fusion_lat": 0.0, "lat": 38.90025966666666, "name": "573e6305e6a84f93ef40ab03a8f18f23", "fusion_lon": 0.0, "bike_id": "573e6305e6a84f93ef40ab03a8f18f23", "is_disabled": 0, "is_reserved": 0}, {"rental_uris": {"ios": "https://dc.lft.to/lastmile_qr_scan", "android": "https://dc.lft.to/lastmile_qr_scan"}, "lon": -77.03484416666667, "type": "electric_scooter", "fusion_lat": 0.0, "lat": 38.919274333333334, "name": "ef11cc1bc39b8ec7aed60a33b9755de2", "fusion_lon": 0.0, "bike_id": "ef11cc1bc39b8ec7aed60a33b9755de2", "is_disabled": 0, "is_reserved": 0}, {"rental_uris": {"ios": "https://dc.lft.to/lastmile_qr_scan", "android": "https://dc.lft.to/lastmile_qr_scan"}, "lon": -77.0251845, "type": "electric_scooter", "fusion_lat": 0.0, "lat": 38.9328425, "name": "c50e0b82ad5b1452a2eec522abc3de3f", "fusion_lon": 0.0, "bike_id": "c50e0b82ad5b1452a2eec522abc3de3f", "is_disabled": 0, "is_reserved": 0}, {"rental_uris": {"ios": "https://dc.lft.to/lastmile_qr_scan", "android": "https://dc.lft.to/lastmile_qr_scan"}, "lon": -76.9816375, "type": "electric_scooter", "fusion_lat": 0.0, "lat": 38.899941, "name": "1cea9005240a0b4be3e6b0f7590d199f", "fusion_lon": 0.0, "bike_id": "1cea9005240a0b4be3e6b0f7590d199f", "is_disabled": 0, "is_reserved": 0}, {"rental_uris": {"ios": "https://dc.lft.to/lastmile_qr_scan", "android": "https://dc.lft.to/lastmile_qr_scan"}, "lon": -77.00222083333334, "type": "electric_scooter", "fusion_lat": 0.0, "lat": 38.900241, "name": "7fd59fd667a8e3efe1efe88c9b074a16", "fusion_lon": 0.0, "bike_id": "7fd59fd667a8e3efe1efe88c9b074a16", "is_disabled": 0, "is_reserved": 0}, {"rental_uris": {"ios": "https://dc.lft.to/lastmile_qr_scan", "android": "https://dc.lft.to/lastmile_qr_scan"}, "lon": -77.04722883333334, "type": "electric_scooter", "fusion_lat": 0.0, "lat": 38.908552666666665, "name": "589abadd52fffc092f43fef38bde4117", "fusion_lon": 0.0, "bike_id": "589abadd52fffc092f43fef38bde4117", "is_disabled": 0, "is_reserved": 0}, {"rental_uris": {"ios": "https://dc.lft.to/lastmile_qr_scan", "android": "https://dc.lft.to/lastmile_qr_scan"}, "lon": -77.03365266666667, "type": "electric_scooter", "fusion_lat": 0.0, "lat": 38.92875183333334, "name": "597d777913a9492f47ac8b6c3ea956ba", "fusion_lon": 0.0, "bike_id": "597d777913a9492f47ac8b6c3ea956ba", "is_disabled": 0, "is_reserved": 0}, {"rental_uris": {"ios": "https://dc.lft.to/lastmile_qr_scan", "android": "https://dc.lft.to/lastmile_qr_scan"}, "lon": -76.98509283333334, "type": "electric_scooter", "fusion_lat": 0.0, "lat": 38.906106333333334, "name": "e9372a06939bb786efbfdf73843129be", "fusion_lon": 0.0, "bike_id": "e9372a06939bb786efbfdf73843129be", "is_disabled": 0, "is_reserved": 0}, {"rental_uris": {"ios": "https://dc.lft.to/lastmile_qr_scan", "android": "https://dc.lft.to/lastmile_qr_scan"}, "lon": -76.99972783333334, "type": "electric_scooter", "fusion_lat": 0.0, "lat": 38.90924283333333, "name": "4de58d54102b152edd5e8cd7a9f0ff12", "fusion_lon": 0.0, "bike_id": "4de58d54102b152edd5e8cd7a9f0ff12", "is_disabled": 0, "is_reserved": 0}, {"rental_uris": {"ios": "https://dc.lft.to/lastmile_qr_scan", "android": "https://dc.lft.to/lastmile_qr_scan"}, "lon": -77.01881266666666, "type": "electric_scooter", "fusion_lat": 0.0, "lat": 38.9061445, "name": "23d328991566643a0d5bb666bb1e5f0d", "fusion_lon": 0.0, "bike_id": "23d328991566643a0d5bb666bb1e5f0d", "is_disabled": 0, "is_reserved": 0}, {"rental_uris": {"ios": "https://dc.lft.to/lastmile_qr_scan", "android": "https://dc.lft.to/lastmile_qr_scan"}, "lon": -77.00601483333334, "type": "electric_scooter", "fusion_lat": 0.0, "lat": 38.87720233333334, "name": "528feb4f3451f5f334b8153bf601cd06", "fusion_lon": 0.0, "bike_id": "528feb4f3451f5f334b8153bf601cd06", "is_disabled": 0, "is_reserved": 0}, {"rental_uris": {"ios": "https://dc.lft.to/lastmile_qr_scan", "android": "https://dc.lft.to/lastmile_qr_scan"}, "lon": -77.00215333333334, "type": "electric_scooter", "fusion_lat": 0.0, "lat": 38.90024416666667, "name": "0de94471401a92e61261cc5e5a8603cc", "fusion_lon": 0.0, "bike_id": "0de94471401a92e61261cc5e5a8603cc", "is_disabled": 0, "is_reserved": 0}, {"rental_uris": {"ios": "https://dc.lft.to/lastmile_qr_scan", "android": "https://dc.lft.to/lastmile_qr_scan"}, "lon": -77.0356855, "type": "electric_bike", "fusion_lat": 0.0, "lat": 38.96462783333333, "name": "94ce936f2c5bdedd5586c4bdd8b8f36a", "fusion_lon": 0.0, "bike_id": "94ce936f2c5bdedd5586c4bdd8b8f36a", "is_disabled": 0, "is_reserved": 0}, {"rental_uris": {"ios": "https://dc.lft.to/lastmile_qr_scan", "android": "https://dc.lft.to/lastmile_qr_scan"}, "lon": -77.03517866666667, "type": "electric_scooter", "fusion_lat": 0.0, "lat": 38.92221333333333, "name": "9ea5ebc665a2de82180f3ddca09724af", "fusion_lon": 0.0, "bike_id": "9ea5ebc665a2de82180f3ddca09724af", "is_disabled": 0, "is_reserved": 0}, {"rental_uris": {"ios": "https://dc.lft.to/lastmile_qr_scan", "android": "https://dc.lft.to/lastmile_qr_scan"}, "lon": -77.04143983333333, "type": "electric_scooter", "fusion_lat": 0.0, "lat": 38.921719, "name": "0fe1fdf27a83043a011135e3ec3ba04f", "fusion_lon": 0.0, "bike_id": "0fe1fdf27a83043a011135e3ec3ba04f", "is_disabled": 0, "is_reserved": 0}, {"rental_uris": {"ios": "https://dc.lft.to/lastmile_qr_scan", "android": "https://dc.lft.to/lastmile_qr_scan"}, "lon": -76.9982365, "type": "electric_scooter", "fusion_lat": 0.0, "lat": 38.888727, "name": "bfabb405614f8a4693697d8b3cac02ee", "fusion_lon": 0.0, "bike_id": "bfabb405614f8a4693697d8b3cac02ee", "is_disabled": 0, "is_reserved": 0}, {"rental_uris": {"ios": "https://dc.lft.to/lastmile_qr_scan", "android": "https://dc.lft.to/lastmile_qr_scan"}, "lon": -77.0162025, "type": "electric_scooter", "fusion_lat": 0.0, "lat": 38.90716283333333, "name": "2d1a73871821d47bdd790b6666895f15", "fusion_lon": 0.0, "bike_id": "2d1a73871821d47bdd790b6666895f15", "is_disabled": 0, "is_reserved": 0}, {"rental_uris": {"ios": "https://dc.lft.to/lastmile_qr_scan", "android": "https://dc.lft.to/lastmile_qr_scan"}, "lon": -77.02566916666666, "type": "electric_scooter", "fusion_lat": 0.0, "lat": 38.88414866666667, "name": "f341787dba1242e860cf33c7a280d2b6", "fusion_lon": 0.0, "bike_id": "f341787dba1242e860cf33c7a280d2b6", "is_disabled": 0, "is_reserved": 0}, {"rental_uris": {"ios": "https://dc.lft.to/lastmile_qr_scan", "android": "https://dc.lft.to/lastmile_qr_scan"}, "lon": -77.04342283333334, "type": "electric_scooter", "fusion_lat": 0.0, "lat": 38.896633333333334, "name": "c0c61908d5639413d9f49e42313d57ec", "fusion_lon": 0.0, "bike_id": "c0c61908d5639413d9f49e42313d57ec", "is_disabled": 0, "is_reserved": 0}, {"rental_uris": {"ios": "https://dc.lft.to/lastmile_qr_scan", "android": "https://dc.lft.to/lastmile_qr_scan"}, "lon": -77.01886416666666, "type": "electric_scooter", "fusion_lat": 0.0, "lat": 38.911850666666666, "name": "2d0690487865a635425f1d26267deab5", "fusion_lon": 0.0, "bike_id": "2d0690487865a635425f1d26267deab5", "is_disabled": 0, "is_reserved": 0}, {"rental_uris": {"ios": "https://dc.lft.to/lastmile_qr_scan", "android": "https://dc.lft.to/lastmile_qr_scan"}, "lon": -77.04371933333333, "type": "electric_scooter", "fusion_lat": 0.0, "lat": 38.917868166666665, "name": "d59e0aae4d4e0f3e669a52bfc22b0b6a", "fusion_lon": 0.0, "bike_id": "d59e0aae4d4e0f3e669a52bfc22b0b6a", "is_disabled": 0, "is_reserved": 0}, {"rental_uris": {"ios": "https://dc.lft.to/lastmile_qr_scan", "android": "https://dc.lft.to/lastmile_qr_scan"}, "lon": -77.038679, "type": "electric_scooter", "fusion_lat": 0.0, "lat": 38.91259516666667, "name": "da06e8a3a7824b6f95b6f2af63b88818", "fusion_lon": 0.0, "bike_id": "da06e8a3a7824b6f95b6f2af63b88818", "is_disabled": 0, "is_reserved": 0}, {"rental_uris": {"ios": "https://dc.lft.to/lastmile_qr_scan", "android": "https://dc.lft.to/lastmile_qr_scan"}, "lon": -77.066728, "type": "electric_scooter", "fusion_lat": 0.0, "lat": 38.91405916666667, "name": "928c91756673a43e78ae222cab533969", "fusion_lon": 0.0, "bike_id": "928c91756673a43e78ae222cab533969", "is_disabled": 0, "is_reserved": 0}, {"rental_uris": {"ios": "https://dc.lft.to/lastmile_qr_scan", "android": "https://dc.lft.to/lastmile_qr_scan"}, "lon": -77.06609483333334, "type": "electric_scooter", "fusion_lat": 0.0, "lat": 38.905210833333335, "name": "dfc45f186efc093f7da18dd164300f6e", "fusion_lon": 0.0, "bike_id": "dfc45f186efc093f7da18dd164300f6e", "is_disabled": 0, "is_reserved": 0}, {"rental_uris": {"ios": "https://dc.lft.to/lastmile_qr_scan", "android": "https://dc.lft.to/lastmile_qr_scan"}, "lon": -77.1071345, "type": "electric_bike", "fusion_lat": 0.0, "lat": 38.85560533333334, "name": "183910f97bbaed825dc701fa2a5619d0", "fusion_lon": 0.0, "bike_id": "183910f97bbaed825dc701fa2a5619d0", "is_disabled": 0, "is_reserved": 0}, {"rental_uris": {"ios": "https://dc.lft.to/lastmile_qr_scan", "android": "https://dc.lft.to/lastmile_qr_scan"}, "lon": -77.04407216666667, "type": "electric_scooter", "fusion_lat": 0.0, "lat": 38.91085066666667, "name": "0fa0360a2bae962bdf50119d2c3da9dd", "fusion_lon": 0.0, "bike_id": "0fa0360a2bae962bdf50119d2c3da9dd", "is_disabled": 0, "is_reserved": 0}, {"rental_uris": {"ios": "https://dc.lft.to/lastmile_qr_scan", "android": "https://dc.lft.to/lastmile_qr_scan"}, "lon": -77.0526655, "type": "electric_scooter", "fusion_lat": 0.0, "lat": 38.898423333333334, "name": "78972607541a5c8bb373ab3d201905fa", "fusion_lon": 0.0, "bike_id": "78972607541a5c8bb373ab3d201905fa", "is_disabled": 0, "is_reserved": 0}, {"rental_uris": {"ios": "https://dc.lft.to/lastmile_qr_scan", "android": "https://dc.lft.to/lastmile_qr_scan"}, "lon": -77.00331216666666, "type": "electric_bike", "fusion_lat": 0.0, "lat": 38.919877, "name": "256c43058d4d189186e714369eadc954", "fusion_lon": 0.0, "bike_id": "256c43058d4d189186e714369eadc954", "is_disabled": 0, "is_reserved": 0}, {"rental_uris": {"ios": "https://dc.lft.to/lastmile_qr_scan", "android": "https://dc.lft.to/lastmile_qr_scan"}, "lon": -77.00216766666667, "type": "electric_scooter", "fusion_lat": 0.0, "lat": 38.900254333333336, "name": "fd30abb0d972f5cd166323555a297317", "fusion_lon": 0.0, "bike_id": "fd30abb0d972f5cd166323555a297317", "is_disabled": 0, "is_reserved": 0}, {"rental_uris": {"ios": "https://dc.lft.to/lastmile_qr_scan", "android": "https://dc.lft.to/lastmile_qr_scan"}, "lon": -77.00103166666666, "type": "electric_scooter", "fusion_lat": 0.0, "lat": 38.8943245, "name": "d7864172c47038016f3ecc1024489011", "fusion_lon": 0.0, "bike_id": "d7864172c47038016f3ecc1024489011", "is_disabled": 0, "is_reserved": 0}, {"rental_uris": {"ios": "https://dc.lft.to/lastmile_qr_scan", "android": "https://dc.lft.to/lastmile_qr_scan"}, "lon": -77.03292716666667, "type": "electric_scooter", "fusion_lat": 0.0, "lat": 38.922137166666666, "name": "c0814bc40f3a650ae81b0b68c6ef97d9", "fusion_lon": 0.0, "bike_id": "c0814bc40f3a650ae81b0b68c6ef97d9", "is_disabled": 0, "is_reserved": 0}, {"rental_uris": {"ios": "https://dc.lft.to/lastmile_qr_scan", "android": "https://dc.lft.to/lastmile_qr_scan"}, "lon": -77.02090016666666, "type": "electric_scooter", "fusion_lat": 0.0, "lat": 38.910098, "name": "244c34034e7081fab17b396e91b4623f", "fusion_lon": 0.0, "bike_id": "244c34034e7081fab17b396e91b4623f", "is_disabled": 0, "is_reserved": 0}, {"rental_uris": {"ios": "https://dc.lft.to/lastmile_qr_scan", "android": "https://dc.lft.to/lastmile_qr_scan"}, "lon": -77.02996183333333, "type": "electric_scooter", "fusion_lat": 0.0, "lat": 38.92484783333333, "name": "ef0c4215b22f9e1625fba1083b31fb90", "fusion_lon": 0.0, "bike_id": "ef0c4215b22f9e1625fba1083b31fb90", "is_disabled": 0, "is_reserved": 0}, {"rental_uris": {"ios": "https://dc.lft.to/lastmile_qr_scan", "android": "https://dc.lft.to/lastmile_qr_scan"}, "lon": -76.94776866666666, "type": "electric_bike", "fusion_lat": 0.0, "lat": 38.894414833333336, "name": "68709edded8c8c7635bae13cf8d78cd2", "fusion_lon": 0.0, "bike_id": "68709edded8c8c7635bae13cf8d78cd2", "is_disabled": 0, "is_reserved": 0}, {"rental_uris": {"ios": "https://dc.lft.to/lastmile_qr_scan", "android": "https://dc.lft.to/lastmile_qr_scan"}, "lon": -77.01577483333334, "type": "electric_scooter", "fusion_lat": 0.0, "lat": 38.91683333333334, "name": "bd51ffc687fa1f7a2fdc32634e13e2d0", "fusion_lon": 0.0, "bike_id": "bd51ffc687fa1f7a2fdc32634e13e2d0", "is_disabled": 0, "is_reserved": 0}, {"rental_uris": {"ios": "https://dc.lft.to/lastmile_qr_scan", "android": "https://dc.lft.to/lastmile_qr_scan"}, "lon": -77.36091816666666, "type": "electric_bike", "fusion_lat": 0.0, "lat": 38.93961266666667, "name": "55964800ffdd362327365e278a3ed486", "fusion_lon": 0.0, "bike_id": "55964800ffdd362327365e278a3ed486", "is_disabled": 0, "is_reserved": 0}, {"rental_uris": {"ios": "https://dc.lft.to/lastmile_qr_scan", "android": "https://dc.lft.to/lastmile_qr_scan"}, "lon": -76.97987316666666, "type": "electric_bike", "fusion_lat": 0.0, "lat": 38.87752566666666, "name": "406e3d1427201d7feeb2d5273d0791b8", "fusion_lon": 0.0, "bike_id": "406e3d1427201d7feeb2d5273d0791b8", "is_disabled": 0, "is_reserved": 0}, {"rental_uris": {"ios": "https://dc.lft.to/lastmile_qr_scan", "android": "https://dc.lft.to/lastmile_qr_scan"}, "lon": -77.03501933333334, "type": "electric_scooter", "fusion_lat": 0.0, "lat": 38.92872766666667, "name": "d8e9936406f30801248dd1a684e382b1", "fusion_lon": 0.0, "bike_id": "d8e9936406f30801248dd1a684e382b1", "is_disabled": 0, "is_reserved": 0}, {"rental_uris": {"ios": "https://dc.lft.to/lastmile_qr_scan", "android": "https://dc.lft.to/lastmile_qr_scan"}, "lon": -77.01147233333333, "type": "electric_scooter", "fusion_lat": 0.0, "lat": 38.90733383333333, "name": "cd8d10ea03ee911d78fb97f9c9d7bb0e", "fusion_lon": 0.0, "bike_id": "cd8d10ea03ee911d78fb97f9c9d7bb0e", "is_disabled": 0, "is_reserved": 0}, {"rental_uris": {"ios": "https://dc.lft.to/lastmile_qr_scan", "android": "https://dc.lft.to/lastmile_qr_scan"}, "lon": -77.04648466666667, "type": "electric_scooter", "fusion_lat": 0.0, "lat": 38.90559366666667, "name": "a20e81cd821243f83dd6870979682fa4", "fusion_lon": 0.0, "bike_id": "a20e81cd821243f83dd6870979682fa4", "is_disabled": 0, "is_reserved": 0}, {"rental_uris": {"ios": "https://dc.lft.to/lastmile_qr_scan", "android": "https://dc.lft.to/lastmile_qr_scan"}, "lon": -77.01083616666666, "type": "electric_scooter", "fusion_lat": 0.0, "lat": 38.9181895, "name": "b02fb84da08eeddaf297cfbb3a6aee8f", "fusion_lon": 0.0, "bike_id": "b02fb84da08eeddaf297cfbb3a6aee8f", "is_disabled": 0, "is_reserved": 0}, {"rental_uris": {"ios": "https://dc.lft.to/lastmile_qr_scan", "android": "https://dc.lft.to/lastmile_qr_scan"}, "lon": -77.04079316666666, "type": "electric_scooter", "fusion_lat": 0.0, "lat": 38.9072885, "name": "b484109438707447ccfd861d63c69409", "fusion_lon": 0.0, "bike_id": "b484109438707447ccfd861d63c69409", "is_disabled": 0, "is_reserved": 0}, {"rental_uris": {"ios": "https://dc.lft.to/lastmile_qr_scan", "android": "https://dc.lft.to/lastmile_qr_scan"}, "lon": -76.98891, "type": "electric_scooter", "fusion_lat": 0.0, "lat": 38.86658216666667, "name": "677c4a8716a71d98d1acfe0be146e15b", "fusion_lon": 0.0, "bike_id": "677c4a8716a71d98d1acfe0be146e15b", "is_disabled": 0, "is_reserved": 0}, {"rental_uris": {"ios": "https://dc.lft.to/lastmile_qr_scan", "android": "https://dc.lft.to/lastmile_qr_scan"}, "lon": -77.0243975, "type": "electric_scooter", "fusion_lat": 0.0, "lat": 38.918529666666664, "name": "475fa245b52b3c64f1f5054a69533ffc", "fusion_lon": 0.0, "bike_id": "475fa245b52b3c64f1f5054a69533ffc", "is_disabled": 0, "is_reserved": 0}, {"rental_uris": {"ios": "https://dc.lft.to/lastmile_qr_scan", "android": "https://dc.lft.to/lastmile_qr_scan"}, "lon": -77.08825966666667, "type": "electric_bike", "fusion_lat": 0.0, "lat": 38.90975183333333, "name": "0c1b35c346f30e20b60119c47f4af8e8", "fusion_lon": 0.0, "bike_id": "0c1b35c346f30e20b60119c47f4af8e8", "is_disabled": 0, "is_reserved": 0}, {"rental_uris": {"ios": "https://dc.lft.to/lastmile_qr_scan", "android": "https://dc.lft.to/lastmile_qr_scan"}, "lon": -77.05118666666667, "type": "electric_bike", "fusion_lat": 0.0, "lat": 38.99966833333333, "name": "3722ccf3ed950647a3ded415c3e31602", "fusion_lon": 0.0, "bike_id": "3722ccf3ed950647a3ded415c3e31602", "is_disabled": 0, "is_reserved": 0}, {"rental_uris": {"ios": "https://dc.lft.to/lastmile_qr_scan", "android": "https://dc.lft.to/lastmile_qr_scan"}, "lon": -77.01627983333333, "type": "electric_scooter", "fusion_lat": 0.0, "lat": 38.90341933333333, "name": "51aa6b3e95fa3a1118df39e9ff67c095", "fusion_lon": 0.0, "bike_id": "51aa6b3e95fa3a1118df39e9ff67c095", "is_disabled": 0, "is_reserved": 0}, {"rental_uris": {"ios": "https://dc.lft.to/lastmile_qr_scan", "android": "https://dc.lft.to/lastmile_qr_scan"}, "lon": -76.9860935, "type": "electric_bike", "fusion_lat": 0.0, "lat": 38.90627933333333, "name": "a1d594d52325e5319bee446037f981cc", "fusion_lon": 0.0, "bike_id": "a1d594d52325e5319bee446037f981cc", "is_disabled": 0, "is_reserved": 0}, {"rental_uris": {"ios": "https://dc.lft.to/lastmile_qr_scan", "android": "https://dc.lft.to/lastmile_qr_scan"}, "lon": -77.0242255, "type": "electric_scooter", "fusion_lat": 0.0, "lat": 38.9182365, "name": "2850dc346b5993bf2fccfe0e93ed1d0e", "fusion_lon": 0.0, "bike_id": "2850dc346b5993bf2fccfe0e93ed1d0e", "is_disabled": 0, "is_reserved": 0}, {"rental_uris": {"ios": "https://dc.lft.to/lastmile_qr_scan", "android": "https://dc.lft.to/lastmile_qr_scan"}, "lon": -77.019494, "type": "electric_scooter", "fusion_lat": 0.0, "lat": 38.9241855, "name": "ed35ef5cad9470dd7453bb3ddee53e99", "fusion_lon": 0.0, "bike_id": "ed35ef5cad9470dd7453bb3ddee53e99", "is_disabled": 0, "is_reserved": 0}, {"rental_uris": {"ios": "https://dc.lft.to/lastmile_qr_scan", "android": "https://dc.lft.to/lastmile_qr_scan"}, "lon": -77.04490783333334, "type": "electric_scooter", "fusion_lat": 0.0, "lat": 38.919545, "name": "08e17664c02073bf37220d55f97be678", "fusion_lon": 0.0, "bike_id": "08e17664c02073bf37220d55f97be678", "is_disabled": 0, "is_reserved": 0}, {"rental_uris": {"ios": "https://dc.lft.to/lastmile_qr_scan", "android": "https://dc.lft.to/lastmile_qr_scan"}, "lon": -76.98549516666667, "type": "electric_scooter", "fusion_lat": 0.0, "lat": 38.855868, "name": "5171d2c4f07ee46ca93e00d681441251", "fusion_lon": 0.0, "bike_id": "5171d2c4f07ee46ca93e00d681441251", "is_disabled": 0, "is_reserved": 0}, {"rental_uris": {"ios": "https://dc.lft.to/lastmile_qr_scan", "android": "https://dc.lft.to/lastmile_qr_scan"}, "lon": -77.04182283333333, "type": "electric_scooter", "fusion_lat": 0.0, "lat": 38.90359566666667, "name": "c70769761e1501a8d7612460f89cabb5", "fusion_lon": 0.0, "bike_id": "c70769761e1501a8d7612460f89cabb5", "is_disabled": 0, "is_reserved": 0}, {"rental_uris": {"ios": "https://dc.lft.to/lastmile_qr_scan", "android": "https://dc.lft.to/lastmile_qr_scan"}, "lon": -77.03170716666666, "type": "electric_scooter", "fusion_lat": 0.0, "lat": 38.91557816666667, "name": "cf3cb53749154a064a676457b0b425d8", "fusion_lon": 0.0, "bike_id": "cf3cb53749154a064a676457b0b425d8", "is_disabled": 0, "is_reserved": 0}, {"rental_uris": {"ios": "https://dc.lft.to/lastmile_qr_scan", "android": "https://dc.lft.to/lastmile_qr_scan"}, "lon": -77.079088, "type": "electric_scooter", "fusion_lat": 0.0, "lat": 38.948059666666666, "name": "cf788cc9ba542b90e9de2410101b9f4d", "fusion_lon": 0.0, "bike_id": "cf788cc9ba542b90e9de2410101b9f4d", "is_disabled": 0, "is_reserved": 0}, {"rental_uris": {"ios": "https://dc.lft.to/lastmile_qr_scan", "android": "https://dc.lft.to/lastmile_qr_scan"}, "lon": -77.045454, "type": "electric_scooter", "fusion_lat": 0.0, "lat": 38.90774966666667, "name": "5f292d5aa4045b5b36e8b61c57086565", "fusion_lon": 0.0, "bike_id": "5f292d5aa4045b5b36e8b61c57086565", "is_disabled": 0, "is_reserved": 0}, {"rental_uris": {"ios": "https://dc.lft.to/lastmile_qr_scan", "android": "https://dc.lft.to/lastmile_qr_scan"}, "lon": -77.02591233333334, "type": "electric_scooter", "fusion_lat": 0.0, "lat": 38.89235583333333, "name": "d374f511bc249d24221a721c98805489", "fusion_lon": 0.0, "bike_id": "d374f511bc249d24221a721c98805489", "is_disabled": 0, "is_reserved": 0}, {"rental_uris": {"ios": "https://dc.lft.to/lastmile_qr_scan", "android": "https://dc.lft.to/lastmile_qr_scan"}, "lon": -77.0098585, "type": "electric_scooter", "fusion_lat": 0.0, "lat": 38.895978, "name": "1817baff41eaa75c206376b1bc8e51fb", "fusion_lon": 0.0, "bike_id": "1817baff41eaa75c206376b1bc8e51fb", "is_disabled": 0, "is_reserved": 0}, {"rental_uris": {"ios": "https://dc.lft.to/lastmile_qr_scan", "android": "https://dc.lft.to/lastmile_qr_scan"}, "lon": -76.94889966666666, "type": "electric_scooter", "fusion_lat": 0.0, "lat": 38.895293333333335, "name": "bf2cd1b1180b52b04e9c80c08dbb6c14", "fusion_lon": 0.0, "bike_id": "bf2cd1b1180b52b04e9c80c08dbb6c14", "is_disabled": 0, "is_reserved": 0}, {"rental_uris": {"ios": "https://dc.lft.to/lastmile_qr_scan", "android": "https://dc.lft.to/lastmile_qr_scan"}, "lon": -77.047155, "type": "electric_scooter", "fusion_lat": 0.0, "lat": 38.922360833333336, "name": "62edc1765258c0d9139e2940e25362db", "fusion_lon": 0.0, "bike_id": "62edc1765258c0d9139e2940e25362db", "is_disabled": 0, "is_reserved": 0}, {"rental_uris": {"ios": "https://dc.lft.to/lastmile_qr_scan", "android": "https://dc.lft.to/lastmile_qr_scan"}, "lon": -77.02983666666667, "type": "electric_scooter", "fusion_lat": 0.0, "lat": 38.907233166666664, "name": "ed96c332ebffa48d6e43cc57cf3fb650", "fusion_lon": 0.0, "bike_id": "ed96c332ebffa48d6e43cc57cf3fb650", "is_disabled": 0, "is_reserved": 0}, {"rental_uris": {"ios": "https://dc.lft.to/lastmile_qr_scan", "android": "https://dc.lft.to/lastmile_qr_scan"}, "lon": -77.00858783333334, "type": "electric_bike", "fusion_lat": 0.0, "lat": 38.827308, "name": "12fe2bde0d432bf32ab18c9565df987b", "fusion_lon": 0.0, "bike_id": "12fe2bde0d432bf32ab18c9565df987b", "is_disabled": 0, "is_reserved": 0}, {"rental_uris": {"ios": "https://dc.lft.to/lastmile_qr_scan", "android": "https://dc.lft.to/lastmile_qr_scan"}, "lon": -77.0258555, "type": "electric_scooter", "fusion_lat": 0.0, "lat": 38.9035845, "name": "2d654b9a76975062c0356f45b61bb3f8", "fusion_lon": 0.0, "bike_id": "2d654b9a76975062c0356f45b61bb3f8", "is_disabled": 0, "is_reserved": 0}, {"rental_uris": {"ios": "https://dc.lft.to/lastmile_qr_scan", "android": "https://dc.lft.to/lastmile_qr_scan"}, "lon": -77.03175266666666, "type": "electric_scooter", "fusion_lat": 0.0, "lat": 38.901617333333334, "name": "7a33143b69e949ebb6a152ac5fd1563d", "fusion_lon": 0.0, "bike_id": "7a33143b69e949ebb6a152ac5fd1563d", "is_disabled": 0, "is_reserved": 0}, {"rental_uris": {"ios": "https://dc.lft.to/lastmile_qr_scan", "android": "https://dc.lft.to/lastmile_qr_scan"}, "lon": -77.03465433333334, "type": "electric_scooter", "fusion_lat": 0.0, "lat": 38.908743, "name": "5ad8387cf16f821ffebeb3a850e73ad9", "fusion_lon": 0.0, "bike_id": "5ad8387cf16f821ffebeb3a850e73ad9", "is_disabled": 0, "is_reserved": 0}, {"rental_uris": {"ios": "https://dc.lft.to/lastmile_qr_scan", "android": "https://dc.lft.to/lastmile_qr_scan"}, "lon": -77.00370066666666, "type": "electric_scooter", "fusion_lat": 0.0, "lat": 38.87661633333333, "name": "9edef3b0139c41aed5efcbdf0183376b", "fusion_lon": 0.0, "bike_id": "9edef3b0139c41aed5efcbdf0183376b", "is_disabled": 0, "is_reserved": 0}, {"rental_uris": {"ios": "https://dc.lft.to/lastmile_qr_scan", "android": "https://dc.lft.to/lastmile_qr_scan"}, "lon": -77.02817866666666, "type": "electric_scooter", "fusion_lat": 0.0, "lat": 38.90931633333334, "name": "6a08a855614d822ccaf909b3b201b6ab", "fusion_lon": 0.0, "bike_id": "6a08a855614d822ccaf909b3b201b6ab", "is_disabled": 0, "is_reserved": 0}, {"rental_uris": {"ios": "https://dc.lft.to/lastmile_qr_scan", "android": "https://dc.lft.to/lastmile_qr_scan"}, "lon": -77.05174233333334, "type": "electric_scooter", "fusion_lat": 0.0, "lat": 38.924182, "name": "63ecaa90259ec49167f0e74bb0691569", "fusion_lon": 0.0, "bike_id": "63ecaa90259ec49167f0e74bb0691569", "is_disabled": 0, "is_reserved": 0}, {"rental_uris": {"ios": "https://dc.lft.to/lastmile_qr_scan", "android": "https://dc.lft.to/lastmile_qr_scan"}, "lon": -77.02748033333333, "type": "electric_scooter", "fusion_lat": 0.0, "lat": 38.96624416666667, "name": "2523a45d27fa2cdb5236ba708636c644", "fusion_lon": 0.0, "bike_id": "2523a45d27fa2cdb5236ba708636c644", "is_disabled": 0, "is_reserved": 0}, {"rental_uris": {"ios": "https://dc.lft.to/lastmile_qr_scan", "android": "https://dc.lft.to/lastmile_qr_scan"}, "lon": -76.98495666666666, "type": "electric_scooter", "fusion_lat": 0.0, "lat": 38.86045516666667, "name": "5178a999327d4424fd72bad714ec9364", "fusion_lon": 0.0, "bike_id": "5178a999327d4424fd72bad714ec9364", "is_disabled": 0, "is_reserved": 0}, {"rental_uris": {"ios": "https://dc.lft.to/lastmile_qr_scan", "android": "https://dc.lft.to/lastmile_qr_scan"}, "lon": -77.0301165, "type": "electric_scooter", "fusion_lat": 0.0, "lat": 38.91929616666667, "name": "598a352da557acff8cb519b9406c450c", "fusion_lon": 0.0, "bike_id": "598a352da557acff8cb519b9406c450c", "is_disabled": 0, "is_reserved": 0}, {"rental_uris": {"ios": "https://dc.lft.to/lastmile_qr_scan", "android": "https://dc.lft.to/lastmile_qr_scan"}, "lon": -77.03157316666666, "type": "electric_scooter", "fusion_lat": 0.0, "lat": 38.8934535, "name": "235f369d2b219b4b862a50d18d70c747", "fusion_lon": 0.0, "bike_id": "235f369d2b219b4b862a50d18d70c747", "is_disabled": 0, "is_reserved": 0}, {"rental_uris": {"ios": "https://dc.lft.to/lastmile_qr_scan", "android": "https://dc.lft.to/lastmile_qr_scan"}, "lon": -77.007273, "type": "electric_scooter", "fusion_lat": 0.0, "lat": 38.8765685, "name": "fc5d760c972344f3a8744ead1dc8c3f7", "fusion_lon": 0.0, "bike_id": "fc5d760c972344f3a8744ead1dc8c3f7", "is_disabled": 0, "is_reserved": 0}, {"rental_uris": {"ios": "https://dc.lft.to/lastmile_qr_scan", "android": "https://dc.lft.to/lastmile_qr_scan"}, "lon": -76.99536466666666, "type": "electric_scooter", "fusion_lat": 0.0, "lat": 38.926667333333334, "name": "a375bc485315cc6dd5e8a30ae39fd348", "fusion_lon": 0.0, "bike_id": "a375bc485315cc6dd5e8a30ae39fd348", "is_disabled": 0, "is_reserved": 0}, {"rental_uris": {"ios": "https://dc.lft.to/lastmile_qr_scan", "android": "https://dc.lft.to/lastmile_qr_scan"}, "lon": -76.99513316666666, "type": "electric_scooter", "fusion_lat": 0.0, "lat": 38.84469466666667, "name": "4c570cab08df57d6ac6e5dd36709f9ba", "fusion_lon": 0.0, "bike_id": "4c570cab08df57d6ac6e5dd36709f9ba", "is_disabled": 0, "is_reserved": 0}, {"rental_uris": {"ios": "https://dc.lft.to/lastmile_qr_scan", "android": "https://dc.lft.to/lastmile_qr_scan"}, "lon": -77.02929466666667, "type": "electric_scooter", "fusion_lat": 0.0, "lat": 38.90009, "name": "b7ae1584a61d4dff52125653b70596c3", "fusion_lon": 0.0, "bike_id": "b7ae1584a61d4dff52125653b70596c3", "is_disabled": 0, "is_reserved": 0}, {"rental_uris": {"ios": "https://dc.lft.to/lastmile_qr_scan", "android": "https://dc.lft.to/lastmile_qr_scan"}, "lon": -77.03319516666667, "type": "electric_scooter", "fusion_lat": 0.0, "lat": 38.901460166666666, "name": "fd2d280cd1bb77d5b72902740935e956", "fusion_lon": 0.0, "bike_id": "fd2d280cd1bb77d5b72902740935e956", "is_disabled": 0, "is_reserved": 0}, {"rental_uris": {"ios": "https://dc.lft.to/lastmile_qr_scan", "android": "https://dc.lft.to/lastmile_qr_scan"}, "lon": -76.9883755, "type": "electric_bike", "fusion_lat": 0.0, "lat": 38.842698666666664, "name": "793e2793b4a8ea0547effe3130d4ca91", "fusion_lon": 0.0, "bike_id": "793e2793b4a8ea0547effe3130d4ca91", "is_disabled": 0, "is_reserved": 0}, {"rental_uris": {"ios": "https://dc.lft.to/lastmile_qr_scan", "android": "https://dc.lft.to/lastmile_qr_scan"}, "lon": -77.03195266666667, "type": "electric_scooter", "fusion_lat": 0.0, "lat": 38.91744466666667, "name": "8ea38e22bbebcc612fb942b0ef44952f", "fusion_lon": 0.0, "bike_id": "8ea38e22bbebcc612fb942b0ef44952f", "is_disabled": 0, "is_reserved": 0}, {"rental_uris": {"ios": "https://dc.lft.to/lastmile_qr_scan", "android": "https://dc.lft.to/lastmile_qr_scan"}, "lon": -76.97003266666667, "type": "electric_bike", "fusion_lat": 0.0, "lat": 38.86372216666667, "name": "cc184cec319dced76a6dd3b7235451d1", "fusion_lon": 0.0, "bike_id": "cc184cec319dced76a6dd3b7235451d1", "is_disabled": 0, "is_reserved": 0}, {"rental_uris": {"ios": "https://dc.lft.to/lastmile_qr_scan", "android": "https://dc.lft.to/lastmile_qr_scan"}, "lon": -76.9688105, "type": "electric_bike", "fusion_lat": 0.0, "lat": 38.845991166666664, "name": "84c321991d96de72a04eb36d80dc4a05", "fusion_lon": 0.0, "bike_id": "84c321991d96de72a04eb36d80dc4a05", "is_disabled": 0, "is_reserved": 0}, {"rental_uris": {"ios": "https://dc.lft.to/lastmile_qr_scan", "android": "https://dc.lft.to/lastmile_qr_scan"}, "lon": -77.03647766666667, "type": "electric_scooter", "fusion_lat": 0.0, "lat": 38.902809, "name": "ae2e5fae8680734e5fee5524442c1508", "fusion_lon": 0.0, "bike_id": "ae2e5fae8680734e5fee5524442c1508", "is_disabled": 0, "is_reserved": 0}, {"rental_uris": {"ios": "https://dc.lft.to/lastmile_qr_scan", "android": "https://dc.lft.to/lastmile_qr_scan"}, "lon": -76.97600533333333, "type": "electric_scooter", "fusion_lat": 0.0, "lat": 38.902081, "name": "7d81d2e4c2296c7f9cfbe8d491d4e88e", "fusion_lon": 0.0, "bike_id": "7d81d2e4c2296c7f9cfbe8d491d4e88e", "is_disabled": 0, "is_reserved": 0}, {"rental_uris": {"ios": "https://dc.lft.to/lastmile_qr_scan", "android": "https://dc.lft.to/lastmile_qr_scan"}, "lon": -77.02419766666667, "type": "electric_scooter", "fusion_lat": 0.0, "lat": 38.9185315, "name": "aa37659feb3f8b6ef61fb6af56708f29", "fusion_lon": 0.0, "bike_id": "aa37659feb3f8b6ef61fb6af56708f29", "is_disabled": 0, "is_reserved": 0}, {"rental_uris": {"ios": "https://dc.lft.to/lastmile_qr_scan", "android": "https://dc.lft.to/lastmile_qr_scan"}, "lon": -76.99907416666667, "type": "electric_scooter", "fusion_lat": 0.0, "lat": 38.90943816666667, "name": "0879ff8437c68b489dc7b46dfddbd87e", "fusion_lon": 0.0, "bike_id": "0879ff8437c68b489dc7b46dfddbd87e", "is_disabled": 0, "is_reserved": 0}, {"rental_uris": {"ios": "https://dc.lft.to/lastmile_qr_scan", "android": "https://dc.lft.to/lastmile_qr_scan"}, "lon": -76.92997516666667, "type": "electric_bike", "fusion_lat": 0.0, "lat": 38.8880025, "name": "d79888b20c578efa1d96cd8541fd2c72", "fusion_lon": 0.0, "bike_id": "d79888b20c578efa1d96cd8541fd2c72", "is_disabled": 0, "is_reserved": 0}, {"rental_uris": {"ios": "https://dc.lft.to/lastmile_qr_scan", "android": "https://dc.lft.to/lastmile_qr_scan"}, "lon": -77.013622, "type": "electric_scooter", "fusion_lat": 0.0, "lat": 38.875850666666665, "name": "9e363b681bac66ab0f3863cba966cdc7", "fusion_lon": 0.0, "bike_id": "9e363b681bac66ab0f3863cba966cdc7", "is_disabled": 0, "is_reserved": 0}, {"rental_uris": {"ios": "https://dc.lft.to/lastmile_qr_scan", "android": "https://dc.lft.to/lastmile_qr_scan"}, "lon": -76.99023666666666, "type": "electric_scooter", "fusion_lat": 0.0, "lat": 38.8640735, "name": "60a7235f3ffed3fb06903e35e95f0986", "fusion_lon": 0.0, "bike_id": "60a7235f3ffed3fb06903e35e95f0986", "is_disabled": 0, "is_reserved": 0}, {"rental_uris": {"ios": "https://dc.lft.to/lastmile_qr_scan", "android": "https://dc.lft.to/lastmile_qr_scan"}, "lon": -77.03076683333333, "type": "electric_scooter", "fusion_lat": 0.0, "lat": 38.899723, "name": "23a9dfc2494c3ed0fc9d766a45b84cb7", "fusion_lon": 0.0, "bike_id": "23a9dfc2494c3ed0fc9d766a45b84cb7", "is_disabled": 0, "is_reserved": 0}, {"rental_uris": {"ios": "https://dc.lft.to/lastmile_qr_scan", "android": "https://dc.lft.to/lastmile_qr_scan"}, "lon": -77.07939, "type": "electric_scooter", "fusion_lat": 0.0, "lat": 38.94869583333333, "name": "54a80b3795e6211da83cc84a01c75e9a", "fusion_lon": 0.0, "bike_id": "54a80b3795e6211da83cc84a01c75e9a", "is_disabled": 0, "is_reserved": 0}, {"rental_uris": {"ios": "https://dc.lft.to/lastmile_qr_scan", "android": "https://dc.lft.to/lastmile_qr_scan"}, "lon": -77.07495566666667, "type": "electric_bike", "fusion_lat": 0.0, "lat": 38.892966666666666, "name": "4ba13723e6b7ce494dd289d553256b67", "fusion_lon": 0.0, "bike_id": "4ba13723e6b7ce494dd289d553256b67", "is_disabled": 0, "is_reserved": 0}, {"rental_uris": {"ios": "https://dc.lft.to/lastmile_qr_scan", "android": "https://dc.lft.to/lastmile_qr_scan"}, "lon": -77.01900416666666, "type": "electric_scooter", "fusion_lat": 0.0, "lat": 38.905575, "name": "7e14f9a849acb11504b23b342653202e", "fusion_lon": 0.0, "bike_id": "7e14f9a849acb11504b23b342653202e", "is_disabled": 0, "is_reserved": 0}, {"rental_uris": {"ios": "https://dc.lft.to/lastmile_qr_scan", "android": "https://dc.lft.to/lastmile_qr_scan"}, "lon": -77.03962633333333, "type": "electric_scooter", "fusion_lat": 0.0, "lat": 38.919937833333336, "name": "cf6dede808aa60e2a551c82af56df706", "fusion_lon": 0.0, "bike_id": "cf6dede808aa60e2a551c82af56df706", "is_disabled": 0, "is_reserved": 0}, {"rental_uris": {"ios": "https://dc.lft.to/lastmile_qr_scan", "android": "https://dc.lft.to/lastmile_qr_scan"}, "lon": -77.05291683333333, "type": "electric_scooter", "fusion_lat": 0.0, "lat": 38.91019416666666, "name": "702560febf528cf37f74fef219c5bd2e", "fusion_lon": 0.0, "bike_id": "702560febf528cf37f74fef219c5bd2e", "is_disabled": 0, "is_reserved": 0}, {"rental_uris": {"ios": "https://dc.lft.to/lastmile_qr_scan", "android": "https://dc.lft.to/lastmile_qr_scan"}, "lon": -76.937347, "type": "electric_scooter", "fusion_lat": 0.0, "lat": 38.890188333333334, "name": "d490b18e428110813853332ed52a3b46", "fusion_lon": 0.0, "bike_id": "d490b18e428110813853332ed52a3b46", "is_disabled": 0, "is_reserved": 0}, {"rental_uris": {"ios": "https://dc.lft.to/lastmile_qr_scan", "android": "https://dc.lft.to/lastmile_qr_scan"}, "lon": -77.00722833333333, "type": "electric_scooter", "fusion_lat": 0.0, "lat": 38.91343483333333, "name": "cb52120ebf6128dc87100d5ee9de426f", "fusion_lon": 0.0, "bike_id": "cb52120ebf6128dc87100d5ee9de426f", "is_disabled": 0, "is_reserved": 0}, {"rental_uris": {"ios": "https://dc.lft.to/lastmile_qr_scan", "android": "https://dc.lft.to/lastmile_qr_scan"}, "lon": -77.00208333333333, "type": "electric_scooter", "fusion_lat": 0.0, "lat": 38.908396, "name": "fc54f2717ce28166ce5bcb7440490c46", "fusion_lon": 0.0, "bike_id": "fc54f2717ce28166ce5bcb7440490c46", "is_disabled": 0, "is_reserved": 0}, {"rental_uris": {"ios": "https://dc.lft.to/lastmile_qr_scan", "android": "https://dc.lft.to/lastmile_qr_scan"}, "lon": -77.04920366666667, "type": "electric_scooter", "fusion_lat": 0.0, "lat": 38.90057733333333, "name": "ada8c6c585508501a666fc279570f297", "fusion_lon": 0.0, "bike_id": "ada8c6c585508501a666fc279570f297", "is_disabled": 0, "is_reserved": 0}, {"rental_uris": {"ios": "https://dc.lft.to/lastmile_qr_scan", "android": "https://dc.lft.to/lastmile_qr_scan"}, "lon": -77.02619233333333, "type": "electric_scooter", "fusion_lat": 0.0, "lat": 38.919141833333335, "name": "e4bd8efc44261e5cc46a337093f29e07", "fusion_lon": 0.0, "bike_id": "e4bd8efc44261e5cc46a337093f29e07", "is_disabled": 0, "is_reserved": 0}, {"rental_uris": {"ios": "https://dc.lft.to/lastmile_qr_scan", "android": "https://dc.lft.to/lastmile_qr_scan"}, "lon": -77.01596783333333, "type": "electric_scooter", "fusion_lat": 0.0, "lat": 38.89594366666667, "name": "3147e1353e4d33caef5db8453fa058d9", "fusion_lon": 0.0, "bike_id": "3147e1353e4d33caef5db8453fa058d9", "is_disabled": 0, "is_reserved": 0}, {"rental_uris": {"ios": "https://dc.lft.to/lastmile_qr_scan", "android": "https://dc.lft.to/lastmile_qr_scan"}, "lon": -76.9317565, "type": "electric_scooter", "fusion_lat": 0.0, "lat": 38.89886583333333, "name": "6ea8b7a35b1a132b53d349d148bbff68", "fusion_lon": 0.0, "bike_id": "6ea8b7a35b1a132b53d349d148bbff68", "is_disabled": 0, "is_reserved": 0}, {"rental_uris": {"ios": "https://dc.lft.to/lastmile_qr_scan", "android": "https://dc.lft.to/lastmile_qr_scan"}, "lon": -76.9373815, "type": "electric_scooter", "fusion_lat": 0.0, "lat": 38.8901725, "name": "a634a9d4f7855e97795b1a3bc1217c06", "fusion_lon": 0.0, "bike_id": "a634a9d4f7855e97795b1a3bc1217c06", "is_disabled": 0, "is_reserved": 0}, {"rental_uris": {"ios": "https://dc.lft.to/lastmile_qr_scan", "android": "https://dc.lft.to/lastmile_qr_scan"}, "lon": -77.000303, "type": "electric_scooter", "fusion_lat": 0.0, "lat": 38.87649233333333, "name": "4b5cff222830f835039bc6fba2fa18e2", "fusion_lon": 0.0, "bike_id": "4b5cff222830f835039bc6fba2fa18e2", "is_disabled": 0, "is_reserved": 0}, {"rental_uris": {"ios": "https://dc.lft.to/lastmile_qr_scan", "android": "https://dc.lft.to/lastmile_qr_scan"}, "lon": -77.03788833333333, "type": "electric_scooter", "fusion_lat": 0.0, "lat": 38.9302575, "name": "8c0652e1492da4447d2948f6c2a28dd6", "fusion_lon": 0.0, "bike_id": "8c0652e1492da4447d2948f6c2a28dd6", "is_disabled": 0, "is_reserved": 0}, {"rental_uris": {"ios": "https://dc.lft.to/lastmile_qr_scan", "android": "https://dc.lft.to/lastmile_qr_scan"}, "lon": -77.0416205, "type": "electric_scooter", "fusion_lat": 0.0, "lat": 38.91483683333333, "name": "c5082b70dd6211f4d512b80cc542fbfb", "fusion_lon": 0.0, "bike_id": "c5082b70dd6211f4d512b80cc542fbfb", "is_disabled": 0, "is_reserved": 0}, {"rental_uris": {"ios": "https://dc.lft.to/lastmile_qr_scan", "android": "https://dc.lft.to/lastmile_qr_scan"}, "lon": -77.02646933333334, "type": "electric_scooter", "fusion_lat": 0.0, "lat": 38.8811105, "name": "1c7be3a3503805b7d8cbf5aa0d7a4a84", "fusion_lon": 0.0, "bike_id": "1c7be3a3503805b7d8cbf5aa0d7a4a84", "is_disabled": 0, "is_reserved": 0}, {"rental_uris": {"ios": "https://dc.lft.to/lastmile_qr_scan", "android": "https://dc.lft.to/lastmile_qr_scan"}, "lon": -77.01605116666667, "type": "electric_scooter", "fusion_lat": 0.0, "lat": 38.911331833333335, "name": "63d0396be69896b9400bbc453b0d5db3", "fusion_lon": 0.0, "bike_id": "63d0396be69896b9400bbc453b0d5db3", "is_disabled": 0, "is_reserved": 0}, {"rental_uris": {"ios": "https://dc.lft.to/lastmile_qr_scan", "android": "https://dc.lft.to/lastmile_qr_scan"}, "lon": -76.87818266666666, "type": "electric_bike", "fusion_lat": 0.0, "lat": 38.99233316666667, "name": "3a26a9997452e45942664364a5f656ca", "fusion_lon": 0.0, "bike_id": "3a26a9997452e45942664364a5f656ca", "is_disabled": 0, "is_reserved": 0}, {"rental_uris": {"ios": "https://dc.lft.to/lastmile_qr_scan", "android": "https://dc.lft.to/lastmile_qr_scan"}, "lon": -76.9463455, "type": "electric_scooter", "fusion_lat": 0.0, "lat": 38.8983475, "name": "df3fba09aff65edd5df04d172d3d8e08", "fusion_lon": 0.0, "bike_id": "df3fba09aff65edd5df04d172d3d8e08", "is_disabled": 0, "is_reserved": 0}, {"rental_uris": {"ios": "https://dc.lft.to/lastmile_qr_scan", "android": "https://dc.lft.to/lastmile_qr_scan"}, "lon": -77.021368, "type": "electric_bike", "fusion_lat": 0.0, "lat": 38.94806466666667, "name": "15a71dfc15c8cde89db4c7dca3158144", "fusion_lon": 0.0, "bike_id": "15a71dfc15c8cde89db4c7dca3158144", "is_disabled": 0, "is_reserved": 0}, {"rental_uris": {"ios": "https://dc.lft.to/lastmile_qr_scan", "android": "https://dc.lft.to/lastmile_qr_scan"}, "lon": -77.03785516666667, "type": "electric_scooter", "fusion_lat": 0.0, "lat": 38.92627, "name": "fc21ad3737cb9faf41d0eca7b8ce5848", "fusion_lon": 0.0, "bike_id": "fc21ad3737cb9faf41d0eca7b8ce5848", "is_disabled": 0, "is_reserved": 0}, {"rental_uris": {"ios": "https://dc.lft.to/lastmile_qr_scan", "android": "https://dc.lft.to/lastmile_qr_scan"}, "lon": -76.97612233333334, "type": "electric_scooter", "fusion_lat": 0.0, "lat": 38.90383666666666, "name": "8968452d86576bc1635761640460bf92", "fusion_lon": 0.0, "bike_id": "8968452d86576bc1635761640460bf92", "is_disabled": 0, "is_reserved": 0}, {"rental_uris": {"ios": "https://dc.lft.to/lastmile_qr_scan", "android": "https://dc.lft.to/lastmile_qr_scan"}, "lon": -76.97744133333333, "type": "electric_scooter", "fusion_lat": 0.0, "lat": 38.90010266666667, "name": "d7f4a0a42e7e6a093e68bbcfb6c60f46", "fusion_lon": 0.0, "bike_id": "d7f4a0a42e7e6a093e68bbcfb6c60f46", "is_disabled": 0, "is_reserved": 0}, {"rental_uris": {"ios": "https://dc.lft.to/lastmile_qr_scan", "android": "https://dc.lft.to/lastmile_qr_scan"}, "lon": -77.03840916666667, "type": "electric_scooter", "fusion_lat": 0.0, "lat": 38.921853666666664, "name": "2ec1b5f1af13b01cfe9f874697bb80ae", "fusion_lon": 0.0, "bike_id": "2ec1b5f1af13b01cfe9f874697bb80ae", "is_disabled": 0, "is_reserved": 0}, {"rental_uris": {"ios": "https://dc.lft.to/lastmile_qr_scan", "android": "https://dc.lft.to/lastmile_qr_scan"}, "lon": -77.02472683333333, "type": "electric_scooter", "fusion_lat": 0.0, "lat": 38.918137333333334, "name": "e647433087a69f058e263393f4c18afc", "fusion_lon": 0.0, "bike_id": "e647433087a69f058e263393f4c18afc", "is_disabled": 0, "is_reserved": 0}, {"rental_uris": {"ios": "https://dc.lft.to/lastmile_qr_scan", "android": "https://dc.lft.to/lastmile_qr_scan"}, "lon": -77.0112045, "type": "electric_scooter", "fusion_lat": 0.0, "lat": 38.9000645, "name": "3089c38143b4c1fa11f786e07a39c5b5", "fusion_lon": 0.0, "bike_id": "3089c38143b4c1fa11f786e07a39c5b5", "is_disabled": 0, "is_reserved": 0}, {"rental_uris": {"ios": "https://dc.lft.to/lastmile_qr_scan", "android": "https://dc.lft.to/lastmile_qr_scan"}, "lon": -76.98263883333334, "type": "electric_scooter", "fusion_lat": 0.0, "lat": 38.86352483333334, "name": "a7afc33c8dfb8792bd71b19c69638d1c", "fusion_lon": 0.0, "bike_id": "a7afc33c8dfb8792bd71b19c69638d1c", "is_disabled": 0, "is_reserved": 0}, {"rental_uris": {"ios": "https://dc.lft.to/lastmile_qr_scan", "android": "https://dc.lft.to/lastmile_qr_scan"}, "lon": -77.00516966666666, "type": "electric_scooter", "fusion_lat": 0.0, "lat": 38.92891783333334, "name": "a1f2a0b813e6d45c07e7c694285e5730", "fusion_lon": 0.0, "bike_id": "a1f2a0b813e6d45c07e7c694285e5730", "is_disabled": 0, "is_reserved": 0}, {"rental_uris": {"ios": "https://dc.lft.to/lastmile_qr_scan", "android": "https://dc.lft.to/lastmile_qr_scan"}, "lon": -77.01651, "type": "electric_scooter", "fusion_lat": 0.0, "lat": 38.953321833333334, "name": "9c766e4af89c4838ea5b7c5bfcb16897", "fusion_lon": 0.0, "bike_id": "9c766e4af89c4838ea5b7c5bfcb16897", "is_disabled": 0, "is_reserved": 0}, {"rental_uris": {"ios": "https://dc.lft.to/lastmile_qr_scan", "android": "https://dc.lft.to/lastmile_qr_scan"}, "lon": -77.03808666666667, "type": "electric_scooter", "fusion_lat": 0.0, "lat": 38.909742, "name": "e634e89c28888f04cc0ba1a39d7f0705", "fusion_lon": 0.0, "bike_id": "e634e89c28888f04cc0ba1a39d7f0705", "is_disabled": 0, "is_reserved": 0}, {"rental_uris": {"ios": "https://dc.lft.to/lastmile_qr_scan", "android": "https://dc.lft.to/lastmile_qr_scan"}, "lon": -77.0543845, "type": "electric_scooter", "fusion_lat": 0.0, "lat": 38.896088666666664, "name": "ea33509fd441e9ec038cbff59f7845fa", "fusion_lon": 0.0, "bike_id": "ea33509fd441e9ec038cbff59f7845fa", "is_disabled": 0, "is_reserved": 0}, {"rental_uris": {"ios": "https://dc.lft.to/lastmile_qr_scan", "android": "https://dc.lft.to/lastmile_qr_scan"}, "lon": -77.00263283333334, "type": "electric_scooter", "fusion_lat": 0.0, "lat": 38.877477166666665, "name": "9a3c879673ef9046696b71c74080399a", "fusion_lon": 0.0, "bike_id": "9a3c879673ef9046696b71c74080399a", "is_disabled": 0, "is_reserved": 0}, {"rental_uris": {"ios": "https://dc.lft.to/lastmile_qr_scan", "android": "https://dc.lft.to/lastmile_qr_scan"}, "lon": -77.04788716666667, "type": "electric_scooter", "fusion_lat": 0.0, "lat": 38.89369283333333, "name": "eb07285f891517d20b0d1bb1107d1688", "fusion_lon": 0.0, "bike_id": "eb07285f891517d20b0d1bb1107d1688", "is_disabled": 0, "is_reserved": 0}, {"rental_uris": {"ios": "https://dc.lft.to/lastmile_qr_scan", "android": "https://dc.lft.to/lastmile_qr_scan"}, "lon": -77.04425016666667, "type": "electric_scooter", "fusion_lat": 0.0, "lat": 38.905658, "name": "71a8dab2cfdb53b9f776a19ea0710bc0", "fusion_lon": 0.0, "bike_id": "71a8dab2cfdb53b9f776a19ea0710bc0", "is_disabled": 0, "is_reserved": 0}, {"rental_uris": {"ios": "https://dc.lft.to/lastmile_qr_scan", "android": "https://dc.lft.to/lastmile_qr_scan"}, "lon": -77.02129316666667, "type": "electric_scooter", "fusion_lat": 0.0, "lat": 38.909739, "name": "41258503490b0c1404e35c8e5209ed89", "fusion_lon": 0.0, "bike_id": "41258503490b0c1404e35c8e5209ed89", "is_disabled": 0, "is_reserved": 0}, {"rental_uris": {"ios": "https://dc.lft.to/lastmile_qr_scan", "android": "https://dc.lft.to/lastmile_qr_scan"}, "lon": -76.9855235, "type": "electric_bike", "fusion_lat": 0.0, "lat": 38.8921575, "name": "cd774a72a6d551f7d47628afee7a2e6c", "fusion_lon": 0.0, "bike_id": "cd774a72a6d551f7d47628afee7a2e6c", "is_disabled": 0, "is_reserved": 0}, {"rental_uris": {"ios": "https://dc.lft.to/lastmile_qr_scan", "android": "https://dc.lft.to/lastmile_qr_scan"}, "lon": -77.01836383333334, "type": "electric_scooter", "fusion_lat": 0.0, "lat": 38.908802666666666, "name": "9a69f65eeaf844229c73a0e767597359", "fusion_lon": 0.0, "bike_id": "9a69f65eeaf844229c73a0e767597359", "is_disabled": 0, "is_reserved": 0}, {"rental_uris": {"ios": "https://dc.lft.to/lastmile_qr_scan", "android": "https://dc.lft.to/lastmile_qr_scan"}, "lon": -77.03381966666667, "type": "electric_scooter", "fusion_lat": 0.0, "lat": 38.938475333333336, "name": "5a29c0c57755458e835fa4e249f99575", "fusion_lon": 0.0, "bike_id": "5a29c0c57755458e835fa4e249f99575", "is_disabled": 0, "is_reserved": 0}, {"rental_uris": {"ios": "https://dc.lft.to/lastmile_qr_scan", "android": "https://dc.lft.to/lastmile_qr_scan"}, "lon": -77.01836233333333, "type": "electric_bike", "fusion_lat": 0.0, "lat": 38.90866783333333, "name": "2709d7edd4a2d3e43d9c49c03cd1368d", "fusion_lon": 0.0, "bike_id": "2709d7edd4a2d3e43d9c49c03cd1368d", "is_disabled": 0, "is_reserved": 0}, {"rental_uris": {"ios": "https://dc.lft.to/lastmile_qr_scan", "android": "https://dc.lft.to/lastmile_qr_scan"}, "lon": -77.05119833333333, "type": "electric_scooter", "fusion_lat": 0.0, "lat": 38.9236325, "name": "b086793da60813714586238ae8fb2f7b", "fusion_lon": 0.0, "bike_id": "b086793da60813714586238ae8fb2f7b", "is_disabled": 0, "is_reserved": 0}, {"rental_uris": {"ios": "https://dc.lft.to/lastmile_qr_scan", "android": "https://dc.lft.to/lastmile_qr_scan"}, "lon": -77.01092433333334, "type": "electric_scooter", "fusion_lat": 0.0, "lat": 38.894919, "name": "a6cdb930c2967f7e2bda6f12c72692ad", "fusion_lon": 0.0, "bike_id": "a6cdb930c2967f7e2bda6f12c72692ad", "is_disabled": 0, "is_reserved": 0}, {"rental_uris": {"ios": "https://dc.lft.to/lastmile_qr_scan", "android": "https://dc.lft.to/lastmile_qr_scan"}, "lon": -77.04270566666666, "type": "electric_scooter", "fusion_lat": 0.0, "lat": 38.902823166666664, "name": "e2a19fa536199786b962bc58d7d5d99d", "fusion_lon": 0.0, "bike_id": "e2a19fa536199786b962bc58d7d5d99d", "is_disabled": 0, "is_reserved": 0}, {"rental_uris": {"ios": "https://dc.lft.to/lastmile_qr_scan", "android": "https://dc.lft.to/lastmile_qr_scan"}, "lon": -76.99680233333333, "type": "electric_scooter", "fusion_lat": 0.0, "lat": 38.905044333333336, "name": "d50620c6ec82a70f34f667ce0bcda059", "fusion_lon": 0.0, "bike_id": "d50620c6ec82a70f34f667ce0bcda059", "is_disabled": 0, "is_reserved": 0}, {"rental_uris": {"ios": "https://dc.lft.to/lastmile_qr_scan", "android": "https://dc.lft.to/lastmile_qr_scan"}, "lon": -77.02697866666666, "type": "electric_scooter", "fusion_lat": 0.0, "lat": 38.9067355, "name": "a3e66280a16a90fdff0e7769c70a9e8d", "fusion_lon": 0.0, "bike_id": "a3e66280a16a90fdff0e7769c70a9e8d", "is_disabled": 0, "is_reserved": 0}, {"rental_uris": {"ios": "https://dc.lft.to/lastmile_qr_scan", "android": "https://dc.lft.to/lastmile_qr_scan"}, "lon": -77.04658766666667, "type": "electric_scooter", "fusion_lat": 0.0, "lat": 38.8933805, "name": "ca2463485e57b72e60939c368023fa09", "fusion_lon": 0.0, "bike_id": "ca2463485e57b72e60939c368023fa09", "is_disabled": 0, "is_reserved": 0}, {"rental_uris": {"ios": "https://dc.lft.to/lastmile_qr_scan", "android": "https://dc.lft.to/lastmile_qr_scan"}, "lon": -77.10687283333333, "type": "electric_bike", "fusion_lat": 0.0, "lat": 38.935821833333335, "name": "d6471e6ee259090d10bdd72d01852f89", "fusion_lon": 0.0, "bike_id": "d6471e6ee259090d10bdd72d01852f89", "is_disabled": 0, "is_reserved": 0}, {"rental_uris": {"ios": "https://dc.lft.to/lastmile_qr_scan", "android": "https://dc.lft.to/lastmile_qr_scan"}, "lon": -77.0490615, "type": "electric_scooter", "fusion_lat": 0.0, "lat": 38.905399333333335, "name": "3919620a6fee70a31a9bd71f3e42647a", "fusion_lon": 0.0, "bike_id": "3919620a6fee70a31a9bd71f3e42647a", "is_disabled": 0, "is_reserved": 0}, {"rental_uris": {"ios": "https://dc.lft.to/lastmile_qr_scan", "android": "https://dc.lft.to/lastmile_qr_scan"}, "lon": -77.02210966666667, "type": "electric_scooter", "fusion_lat": 0.0, "lat": 38.905731, "name": "4b00feb8afcb552509c4b7d18f3eef0f", "fusion_lon": 0.0, "bike_id": "4b00feb8afcb552509c4b7d18f3eef0f", "is_disabled": 0, "is_reserved": 0}, {"rental_uris": {"ios": "https://dc.lft.to/lastmile_qr_scan", "android": "https://dc.lft.to/lastmile_qr_scan"}, "lon": -77.0482495, "type": "electric_scooter", "fusion_lat": 0.0, "lat": 38.909675166666666, "name": "272aec42487eaebf671c7126cb7e4bc3", "fusion_lon": 0.0, "bike_id": "272aec42487eaebf671c7126cb7e4bc3", "is_disabled": 0, "is_reserved": 0}, {"rental_uris": {"ios": "https://dc.lft.to/lastmile_qr_scan", "android": "https://dc.lft.to/lastmile_qr_scan"}, "lon": -77.0399575, "type": "electric_scooter", "fusion_lat": 0.0, "lat": 38.902552666666665, "name": "6053ef401d6346e65e2e270f1c5cb32f", "fusion_lon": 0.0, "bike_id": "6053ef401d6346e65e2e270f1c5cb32f", "is_disabled": 0, "is_reserved": 0}, {"rental_uris": {"ios": "https://dc.lft.to/lastmile_qr_scan", "android": "https://dc.lft.to/lastmile_qr_scan"}, "lon": -77.08052033333334, "type": "electric_bike", "fusion_lat": 0.0, "lat": 38.84842016666666, "name": "22c333582aea9e16729437b5dc08e43d", "fusion_lon": 0.0, "bike_id": "22c333582aea9e16729437b5dc08e43d", "is_disabled": 0, "is_reserved": 0}, {"rental_uris": {"ios": "https://dc.lft.to/lastmile_qr_scan", "android": "https://dc.lft.to/lastmile_qr_scan"}, "lon": -77.03642416666666, "type": "electric_scooter", "fusion_lat": 0.0, "lat": 38.902783166666666, "name": "e6c19db2f65b4cbab37d728b781281f7", "fusion_lon": 0.0, "bike_id": "e6c19db2f65b4cbab37d728b781281f7", "is_disabled": 0, "is_reserved": 0}, {"rental_uris": {"ios": "https://dc.lft.to/lastmile_qr_scan", "android": "https://dc.lft.to/lastmile_qr_scan"}, "lon": -76.98605983333333, "type": "electric_scooter", "fusion_lat": 0.0, "lat": 38.87835333333334, "name": "e994593fe40383633d58c7668b3be61e", "fusion_lon": 0.0, "bike_id": "e994593fe40383633d58c7668b3be61e", "is_disabled": 0, "is_reserved": 0}, {"rental_uris": {"ios": "https://dc.lft.to/lastmile_qr_scan", "android": "https://dc.lft.to/lastmile_qr_scan"}, "lon": -76.98517583333333, "type": "electric_scooter", "fusion_lat": 0.0, "lat": 38.910038666666665, "name": "2004aa1e2dc5ddb1d355fe8a004cebb7", "fusion_lon": 0.0, "bike_id": "2004aa1e2dc5ddb1d355fe8a004cebb7", "is_disabled": 0, "is_reserved": 0}, {"rental_uris": {"ios": "https://dc.lft.to/lastmile_qr_scan", "android": "https://dc.lft.to/lastmile_qr_scan"},