{"data": {"bikes": [{"lat": 38.87064733333333, "is_disabled": 0, "type": "electric_scooter", "lon": -77.008391, "bike_id": "e9451ad0ec741e7b0358b33cd82b4d25", "fusion_lat": 0.0, "name": "e9451ad0ec741e7b0358b33cd82b4d25", "is_reserved": 0, "rental_uris": {"android": "https://dc.lft.to/lastmile_qr_scan", "ios": "https://dc.lft.to/lastmile_qr_scan"}, "fusion_lon": 0.0}, {"lat": 38.89870833333333, "is_disabled": 0, "type": "electric_scooter", "lon": -77.04059633333334, "bike_id": "ecb4fcafc05eb2f1c9d0ac90fec95c1f", "fusion_lat": 0.0, "name": "ecb4fcafc05eb2f1c9d0ac90fec95c1f", "is_reserved": 0, "rental_uris": {"android": "https://dc.lft.to/lastmile_qr_scan", "ios": "https://dc.lft.to/lastmile_qr_scan"}, "fusion_lon": 0.0}, {"lat": 38.90799583333333, "is_disabled": 0, "type": "electric_scooter", "lon": -77.04346266666667, "bike_id": "11167613fabccb6ccb7f66752603a62b", "fusion_lat": 0.0, "name": "11167613fabccb6ccb7f66752603a62b", "is_reserved": 0, "rental_uris": {"android": "https://dc.lft.to/lastmile_qr_scan", "ios": "https://dc.lft.to/lastmile_qr_scan"}, "fusion_lon": 0.0}, {"lat": 38.90262966666667, "is_disabled": 0, "type": "electric_scooter", "lon": -77.01753533333333, "bike_id": "4fa7520ee75d1f942cf438f71b166378", "fusion_lat": 0.0, "name": "4fa7520ee75d1f942cf438f71b166378", "is_reserved": 0, "rental_uris": {"android": "https://dc.lft.to/lastmile_qr_scan", "ios": "https://dc.lft.to/lastmile_qr_scan"}, "fusion_lon": 0.0}, {"lat": 38.9242275, "is_disabled": 0, "type": "electric_scooter", "lon": -77.01947616666666, "bike_id": "a83e29447e61a8e214eb7868319e20e1", "fusion_lat": 0.0, "name": "a83e29447e61a8e214eb7868319e20e1", "is_reserved": 0, "rental_uris": {"android": "https://dc.lft.to/lastmile_qr_scan", "ios": "https://dc.lft.to/lastmile_qr_scan"}, "fusion_lon": 0.0}, {"lat": 38.917152, "is_disabled": 0, "type": "electric_scooter", "lon": -77.0365685, "bike_id": "e83f72b19086a25ab59dd9dc1322158d", "fusion_lat": 0.0, "name": "e83f72b19086a25ab59dd9dc1322158d", "is_reserved": 0, "rental_uris": {"android": "https://dc.lft.to/lastmile_qr_scan", "ios": "https://dc.lft.to/lastmile_qr_scan"}, "fusion_lon": 0.0}, {"lat": 38.918199666666666, "is_disabled": 0, "type": "electric_scooter", "lon": -77.02952766666667, "bike_id": "6d7c9ca57c4a4fd471bb7e18b366ff41", "fusion_lat": 0.0, "name": "6d7c9ca57c4a4fd471bb7e18b366ff41", "is_reserved": 0, "rental_uris": {"android": "https://dc.lft.to/lastmile_qr_scan", "ios": "https://dc.lft.to/lastmile_qr_scan"}, "fusion_lon": 0.0}, {"lat": 38.93227483333333, "is_disabled": 0, "type": "electric_scooter", "lon": -77.0388505, "bike_id": "28b8644a939309a6bcb034aeefac51f8", "fusion_lat": 0.0, "name": "28b8644a939309a6bcb034aeefac51f8", "is_reserved": 0, "rental_uris": {"android": "https://dc.lft.to/lastmile_qr_scan", "ios": "https://dc.lft.to/lastmile_qr_scan"}, "fusion_lon": 0.0}, {"lat": 38.876216, "is_disabled": 0, "type": "electric_scooter", "lon": -76.96534133333333, "bike_id": "6dd613e41f2973e4a4f7ef3802d666ce", "fusion_lat": 0.0, "name": "6dd613e41f2973e4a4f7ef3802d666ce", "is_reserved": 0, "rental_uris": {"android": "https://dc.lft.to/lastmile_qr_scan", "ios": "https://dc.lft.to/lastmile_qr_scan"}, "fusion_lon": 0.0}, {"lat": 38.89998633333333, "is_disabled": 0, "type": "electric_scooter", "lon": -76.99309933333333, "bike_id": "94b26470472e770f1b47c642d994a912", "fusion_lat": 0.0, "name": "94b26470472e770f1b47c642d994a912", "is_reserved": 0, "rental_uris": {"android": "https://dc.lft.to/lastmile_qr_scan", "ios": "https://dc.lft.to/lastmile_qr_scan"}, "fusion_lon": 0.0}, {"lat": 38.90239166666667, "is_disabled": 0, "type": "electric_scooter", "lon": -77.04357083333333, "bike_id": "7e13069103feb86c858c0575b9494c6c", "fusion_lat": 0.0, "name": "7e13069103feb86c858c0575b9494c6c", "is_reserved": 0, "rental_uris": {"android": "https://dc.lft.to/lastmile_qr_scan", "ios": "https://dc.lft.to/lastmile_qr_scan"}, "fusion_lon": 0.0}, {"lat": 38.87673066666667, "is_disabled": 0, "type": "electric_scooter", "lon": -77.02006683333333, "bike_id": "af6140747b0bcb80c074f80dcefba39b", "fusion_lat": 0.0, "name": "af6140747b0bcb80c074f80dcefba39b", "is_reserved": 0, "rental_uris": {"android": "https://dc.lft.to/lastmile_qr_scan", "ios": "https://dc.lft.to/lastmile_qr_scan"}, "fusion_lon": 0.0}, {"lat": 38.89997, "is_disabled": 0, "type": "electric_scooter", "lon": -76.998586, "bike_id": "030ee0122dc394ef8ac38c0d18edfeab", "fusion_lat": 0.0, "name": "030ee0122dc394ef8ac38c0d18edfeab", "is_reserved": 0, "rental_uris": {"android": "https://dc.lft.to/lastmile_qr_scan", "ios": "https://dc.lft.to/lastmile_qr_scan"}, "fusion_lon": 0.0}, {"lat": 38.85434516666667, "is_disabled": 0, "type": "electric_bike", "lon": -76.9096825, "bike_id": "a4d96405739b6f13ce82d915d59854a6", "fusion_lat": 0.0, "name": "a4d96405739b6f13ce82d915d59854a6", "is_reserved": 0, "rental_uris": {"android": "https://dc.lft.to/lastmile_qr_scan", "ios": "https://dc.lft.to/lastmile_qr_scan"}, "fusion_lon": 0.0}, {"lat": 38.9246205, "is_disabled": 0, "type": "electric_scooter", "lon": -77.05239833333333, "bike_id": "de51a99fcf7ee1ba13640e1d9db43b02", "fusion_lat": 0.0, "name": "de51a99fcf7ee1ba13640e1d9db43b02", "is_reserved": 0, "rental_uris": {"android": "https://dc.lft.to/lastmile_qr_scan", "ios": "https://dc.lft.to/lastmile_qr_scan"}, "fusion_lon": 0.0}, {"lat": 38.935716166666666, "is_disabled": 0, "type": "electric_scooter", "lon": -77.02122016666667, "bike_id": "e1f4066b2849e0580f332570637ae798", "fusion_lat": 0.0, "name": "e1f4066b2849e0580f332570637ae798", "is_reserved": 0, "rental_uris": {"android": "https://dc.lft.to/lastmile_qr_scan", "ios": "https://dc.lft.to/lastmile_qr_scan"}, "fusion_lon": 0.0}, {"lat": 38.92359066666667, "is_disabled": 0, "type": "electric_scooter", "lon": -77.05133216666667, "bike_id": "52b61ae79c4f0246905783c24830ad8f", "fusion_lat": 0.0, "name": "52b61ae79c4f0246905783c24830ad8f", "is_reserved": 0, "rental_uris": {"android": "https://dc.lft.to/lastmile_qr_scan", "ios": "https://dc.lft.to/lastmile_qr_scan"}, "fusion_lon": 0.0}, {"lat": 38.86905016666667, "is_disabled": 0, "type": "electric_bike", "lon": -77.13180766666666, "bike_id": "5329e6f989fe2afdac022bb59b91528a", "fusion_lat": 0.0, "name": "5329e6f989fe2afdac022bb59b91528a", "is_reserved": 0, "rental_uris": {"android": "https://dc.lft.to/lastmile_qr_scan", "ios": "https://dc.lft.to/lastmile_qr_scan"}, "fusion_lon": 0.0}, {"lat": 38.8993105, "is_disabled": 0, "type": "electric_scooter", "lon": -77.03291366666667, "bike_id": "6c9c3f5c4ebeb95bff7762c874db9d89", "fusion_lat": 0.0, "name": "6c9c3f5c4ebeb95bff7762c874db9d89", "is_reserved": 0, "rental_uris": {"android": "https://dc.lft.to/lastmile_qr_scan", "ios": "https://dc.lft.to/lastmile_qr_scan"}, "fusion_lon": 0.0}, {"lat": 38.9587645, "is_disabled": 0, "type": "electric_bike", "lon": -77.010342, "bike_id": "c85c5c3c8dc6653662ab875b8ff8a31a", "fusion_lat": 0.0, "name": "c85c5c3c8dc6653662ab875b8ff8a31a", "is_reserved": 0, "rental_uris": {"android": "https://dc.lft.to/lastmile_qr_scan", "ios": "https://dc.lft.to/lastmile_qr_scan"}, "fusion_lon": 0.0}, {"lat": 38.912100333333335, "is_disabled": 0, "type": "electric_scooter", "lon": -77.0447985, "bike_id": "ecceeaa0a3e75fe17e7953669299638f", "fusion_lat": 0.0, "name": "ecceeaa0a3e75fe17e7953669299638f", "is_reserved": 0, "rental_uris": {"android": "https://dc.lft.to/lastmile_qr_scan", "ios": "https://dc.lft.to/lastmile_qr_scan"}, "fusion_lon": 0.0}, {"lat": 38.922028833333336, "is_disabled": 0, "type": "electric_scooter", "lon": -77.04014, "bike_id": "2b9d72b681926b42255df9ae0df970f2", "fusion_lat": 0.0, "name": "2b9d72b681926b42255df9ae0df970f2", "is_reserved": 0, "rental_uris": {"android": "https://dc.lft.to/lastmile_qr_scan", "ios": "https://dc.lft.to/lastmile_qr_scan"}, "fusion_lon": 0.0}, {"lat": 38.90731916666667, "is_disabled": 0, "type": "electric_scooter", "lon": -77.02590883333333, "bike_id": "cb60ec5e86448f35e06cff9a5030e90d", "fusion_lat": 0.0, "name": "cb60ec5e86448f35e06cff9a5030e90d", "is_reserved": 0, "rental_uris": {"android": "https://dc.lft.to/lastmile_qr_scan", "ios": "https://dc.lft.to/lastmile_qr_scan"}, "fusion_lon": 0.0}, {"lat": 38.8811855, "is_disabled": 0, "type": "electric_scooter", "lon": -77.01407516666667, "bike_id": "94ab9b4de27c049346d09726c0b06a80", "fusion_lat": 0.0, "name": "94ab9b4de27c049346d09726c0b06a80", "is_reserved": 0, "rental_uris": {"android": "https://dc.lft.to/lastmile_qr_scan", "ios": "https://dc.lft.to/lastmile_qr_scan"}, "fusion_lon": 0.0}, {"lat": 38.804343, "is_disabled": 0, "type": "electric_bike", "lon": -77.06087483333333, "bike_id": "a37cf3f711801a7a742763458e245840", "fusion_lat": 0.0, "name": "a37cf3f711801a7a742763458e245840", "is_reserved": 0, "rental_uris": {"android": "https://dc.lft.to/lastmile_qr_scan", "ios": "https://dc.lft.to/lastmile_qr_scan"}, "fusion_lon": 0.0}, {"lat": 38.901360833333335, "is_disabled": 0, "type": "electric_scooter", "lon": -77.02647483333334, "bike_id": "b7c019b392d5227c0e41a028f7556eae", "fusion_lat": 0.0, "name": "b7c019b392d5227c0e41a028f7556eae", "is_reserved": 0, "rental_uris": {"android": "https://dc.lft.to/lastmile_qr_scan", "ios": "https://dc.lft.to/lastmile_qr_scan"}, "fusion_lon": 0.0}, {"lat": 38.91044566666667, "is_disabled": 0, "type": "electric_scooter", "lon": -77.0151255, "bike_id": "110eb67fd2c11d7340ba201204446ee2", "fusion_lat": 0.0, "name": "110eb67fd2c11d7340ba201204446ee2", "is_reserved": 0, "rental_uris": {"android": "https://dc.lft.to/lastmile_qr_scan", "ios": "https://dc.lft.to/lastmile_qr_scan"}, "fusion_lon": 0.0}, {"lat": 38.907808333333335, "is_disabled": 0, "type": "electric_scooter", "lon": -77.04226116666666, "bike_id": "68d21eecbc7d1dc42b4dbbb01457bda5", "fusion_lat": 0.0, "name": "68d21eecbc7d1dc42b4dbbb01457bda5", "is_reserved": 0, "rental_uris": {"android": "https://dc.lft.to/lastmile_qr_scan", "ios": "https://dc.lft.to/lastmile_qr_scan"}, "fusion_lon": 0.0}, {"lat": 38.89844516666667, "is_disabled": 0, "type": "electric_scooter", "lon": -76.94630616666667, "bike_id": "ff95648db5f9082c151c6f841e2ab2ad", "fusion_lat": 0.0, "name": "ff95648db5f9082c151c6f841e2ab2ad", "is_reserved": 0, "rental_uris": {"android": "https://dc.lft.to/lastmile_qr_scan", "ios": "https://dc.lft.to/lastmile_qr_scan"}, "fusion_lon": 0.0}, {"lat": 38.89939066666667, "is_disabled": 0, "type": "electric_scooter", "lon": -77.0268555, "bike_id": "e720146dbf8f8c5847607bf22e4658f9", "fusion_lat": 0.0, "name": "e720146dbf8f8c5847607bf22e4658f9", "is_reserved": 0, "rental_uris": {"android": "https://dc.lft.to/lastmile_qr_scan", "ios": "https://dc.lft.to/lastmile_qr_scan"}, "fusion_lon": 0.0}, {"lat": 38.905524, "is_disabled": 0, "type": "electric_scooter", "lon": -77.05707583333333, "bike_id": "7c807ca20257f85c1f97fe8bc99b6123", "fusion_lat": 0.0, "name": "7c807ca20257f85c1f97fe8bc99b6123", "is_reserved": 0, "rental_uris": {"android": "https://dc.lft.to/lastmile_qr_scan", "ios": "https://dc.lft.to/lastmile_qr_scan"}, "fusion_lon": 0.0}, {"lat": 38.955664, "is_disabled": 0, "type": "electric_scooter", "lon": -77.0700835, "bike_id": "a4fef3cd2f7509d4a0a73b13e63be377", "fusion_lat": 0.0, "name": "a4fef3cd2f7509d4a0a73b13e63be377", "is_reserved": 0, "rental_uris": {"android": "https://dc.lft.to/lastmile_qr_scan", "ios": "https://dc.lft.to/lastmile_qr_scan"}, "fusion_lon": 0.0}, {"lat": 39.02409516666667, "is_disabled": 0, "type": "electric_bike", "lon": -77.04548566666666, "bike_id": "610fe03b73e40873d6c9da2bbc793561", "fusion_lat": 0.0, "name": "610fe03b73e40873d6c9da2bbc793561", "is_reserved": 0, "rental_uris": {"android": "https://dc.lft.to/lastmile_qr_scan", "ios": "https://dc.lft.to/lastmile_qr_scan"}, "fusion_lon": 0.0}, {"lat": 38.897133, "is_disabled": 0, "type": "electric_scooter", "lon": -77.021429, "bike_id": "bb38014ef154569bbec5903bc2e47f5a", "fusion_lat": 0.0, "name": "bb38014ef154569bbec5903bc2e47f5a", "is_reserved": 0, "rental_uris": {"android": "https://dc.lft.to/lastmile_qr_scan", "ios": "https://dc.lft.to/lastmile_qr_scan"}, "fusion_lon": 0.0}, {"lat": 38.953987166666664, "is_disabled": 0, "type": "electric_scooter", "lon": -77.03637816666667, "bike_id": "5d9ef8bcf6811f3c1993a7e04d07bd6a", "fusion_lat": 0.0, "name": "5d9ef8bcf6811f3c1993a7e04d07bd6a", "is_reserved": 0, "rental_uris": {"android": "https://dc.lft.to/lastmile_qr_scan", "ios": "https://dc.lft.to/lastmile_qr_scan"}, "fusion_lon": 0.0}, {"lat": 38.918035833333334, "is_disabled": 0, "type": "electric_scooter", "lon": -77.040298, "bike_id": "a60289c3204eb900396f523b2cdfce76", "fusion_lat": 0.0, "name": "a60289c3204eb900396f523b2cdfce76", "is_reserved": 0, "rental_uris": {"android": "https://dc.lft.to/lastmile_qr_scan", "ios": "https://dc.lft.to/lastmile_qr_scan"}, "fusion_lon": 0.0}, {"lat": 38.899125833333336, "is_disabled": 0, "type": "electric_scooter", "lon": -76.93347966666667, "bike_id": "87c8a5cc637d32ff256734766e213fee", "fusion_lat": 0.0, "name": "87c8a5cc637d32ff256734766e213fee", "is_reserved": 0, "rental_uris": {"android": "https://dc.lft.to/lastmile_qr_scan", "ios": "https://dc.lft.to/lastmile_qr_scan"}, "fusion_lon": 0.0}, {"lat": 38.91405866666667, "is_disabled": 0, "type": "electric_scooter", "lon": -77.03160616666666, "bike_id": "5e76944b0fdf06468a4c194a037c2819", "fusion_lat": 0.0, "name": "5e76944b0fdf06468a4c194a037c2819", "is_reserved": 0, "rental_uris": {"android": "https://dc.lft.to/lastmile_qr_scan", "ios": "https://dc.lft.to/lastmile_qr_scan"}, "fusion_lon": 0.0}, {"lat": 38.910335333333336, "is_disabled": 0, "type": "electric_scooter", "lon": -77.04281166666667, "bike_id": "21b4cf471f58794329a3765435dec23d", "fusion_lat": 0.0, "name": "21b4cf471f58794329a3765435dec23d", "is_reserved": 0, "rental_uris": {"android": "https://dc.lft.to/lastmile_qr_scan", "ios": "https://dc.lft.to/lastmile_qr_scan"}, "fusion_lon": 0.0}, {"lat": 38.8668865, "is_disabled": 0, "type": "electric_scooter", "lon": -76.98545433333334, "bike_id": "165bd45194cc483fde0af1d70ea648d6", "fusion_lat": 0.0, "name": "165bd45194cc483fde0af1d70ea648d6", "is_reserved": 0, "rental_uris": {"android": "https://dc.lft.to/lastmile_qr_scan", "ios": "https://dc.lft.to/lastmile_qr_scan"}, "fusion_lon": 0.0}, {"lat": 38.9191685, "is_disabled": 0, "type": "electric_scooter", "lon": -77.03182216666667, "bike_id": "7bce4af4eb4b1082309580d906025832", "fusion_lat": 0.0, "name": "7bce4af4eb4b1082309580d906025832", "is_reserved": 0, "rental_uris": {"android": "https://dc.lft.to/lastmile_qr_scan", "ios": "https://dc.lft.to/lastmile_qr_scan"}, "fusion_lon": 0.0}, {"lat": 38.89549933333333, "is_disabled": 0, "type": "electric_scooter", "lon": -77.00920083333334, "bike_id": "7c9e4ace71dc209e498f1be1594dc95b", "fusion_lat": 0.0, "name": "7c9e4ace71dc209e498f1be1594dc95b", "is_reserved": 0, "rental_uris": {"android": "https://dc.lft.to/lastmile_qr_scan", "ios": "https://dc.lft.to/lastmile_qr_scan"}, "fusion_lon": 0.0}, {"lat": 38.930165333333335, "is_disabled": 0, "type": "electric_scooter", "lon": -77.04449283333334, "bike_id": "9728d9a80ba27cda73f2ec16a5ad14fe", "fusion_lat": 0.0, "name": "9728d9a80ba27cda73f2ec16a5ad14fe", "is_reserved": 0, "rental_uris": {"android": "https://dc.lft.to/lastmile_qr_scan", "ios": "https://dc.lft.to/lastmile_qr_scan"}, "fusion_lon": 0.0}, {"lat": 38.897036166666666, "is_disabled": 0, "type": "electric_scooter", "lon": -77.04886033333334, "bike_id": "c72572052e6de21cd086f96e15b5b620", "fusion_lat": 0.0, "name": "c72572052e6de21cd086f96e15b5b620", "is_reserved": 0, "rental_uris": {"android": "https://dc.lft.to/lastmile_qr_scan", "ios": "https://dc.lft.to/lastmile_qr_scan"}, "fusion_lon": 0.0}, {"lat": 38.911828166666666, "is_disabled": 0, "type": "electric_scooter", "lon": -77.0107985, "bike_id": "a2c1a3eaebe9c6663d6d847f4173f982", "fusion_lat": 0.0, "name": "a2c1a3eaebe9c6663d6d847f4173f982", "is_reserved": 0, "rental_uris": {"android": "https://dc.lft.to/lastmile_qr_scan", "ios": "https://dc.lft.to/lastmile_qr_scan"}, "fusion_lon": 0.0}, {"lat": 38.929394, "is_disabled": 0, "type": "electric_scooter", "lon": -77.03260366666666, "bike_id": "85021921d0ccc5b28086d6b6107c81b5", "fusion_lat": 0.0, "name": "85021921d0ccc5b28086d6b6107c81b5", "is_reserved": 0, "rental_uris": {"android": "https://dc.lft.to/lastmile_qr_scan", "ios": "https://dc.lft.to/lastmile_qr_scan"}, "fusion_lon": 0.0}, {"lat": 38.90233683333334, "is_disabled": 0, "type": "electric_scooter", "lon": -77.00198483333334, "bike_id": "e2f662b8b9707c65131f8db48ac7082c", "fusion_lat": 0.0, "name": "e2f662b8b9707c65131f8db48ac7082c", "is_reserved": 0, "rental_uris": {"android": "https://dc.lft.to/lastmile_qr_scan", "ios": "https://dc.lft.to/lastmile_qr_scan"}, "fusion_lon": 0.0}, {"lat": 38.90668566666667, "is_disabled": 0, "type": "electric_scooter", "lon": -77.03804366666667, "bike_id": "67022a622579399971a7c6fa6066330e", "fusion_lat": 0.0, "name": "67022a622579399971a7c6fa6066330e", "is_reserved": 0, "rental_uris": {"android": "https://dc.lft.to/lastmile_qr_scan", "ios": "https://dc.lft.to/lastmile_qr_scan"}, "fusion_lon": 0.0}, {"lat": 38.892189333333334, "is_disabled": 0, "type": "electric_scooter", "lon": -77.02214533333333, "bike_id": "51244d1357a79d6041307afe55564161", "fusion_lat": 0.0, "name": "51244d1357a79d6041307afe55564161", "is_reserved": 0, "rental_uris": {"android": "https://dc.lft.to/lastmile_qr_scan", "ios": "https://dc.lft.to/lastmile_qr_scan"}, "fusion_lon": 0.0}, {"lat": 38.89032366666667, "is_disabled": 0, "type": "electric_scooter", "lon": -76.93756983333333, "bike_id": "a7d9b17b92df690eb97d1e3996fb5859", "fusion_lat": 0.0, "name": "a7d9b17b92df690eb97d1e3996fb5859", "is_reserved": 0, "rental_uris": {"android": "https://dc.lft.to/lastmile_qr_scan", "ios": "https://dc.lft.to/lastmile_qr_scan"}, "fusion_lon": 0.0}, {"lat": 38.91457666666667, "is_disabled": 0, "type": "electric_scooter", "lon": -77.0143505, "bike_id": "164a7f4c49b0ddefa061df27ee41b322", "fusion_lat": 0.0, "name": "164a7f4c49b0ddefa061df27ee41b322", "is_reserved": 0, "rental_uris": {"android": "https://dc.lft.to/lastmile_qr_scan", "ios": "https://dc.lft.to/lastmile_qr_scan"}, "fusion_lon": 0.0}, {"lat": 38.914371833333334, "is_disabled": 0, "type": "electric_bike", "lon": -76.972221, "bike_id": "0cca774d0004a97f30959ec6dc4c3496", "fusion_lat": 0.0, "name": "0cca774d0004a97f30959ec6dc4c3496", "is_reserved": 0, "rental_uris": {"android": "https://dc.lft.to/lastmile_qr_scan", "ios": "https://dc.lft.to/lastmile_qr_scan"}, "fusion_lon": 0.0}, {"lat": 38.900311333333335, "is_disabled": 0, "type": "electric_scooter", "lon": -77.0329685, "bike_id": "5bb11b739a0591e61f205b97d04a9f74", "fusion_lat": 0.0, "name": "5bb11b739a0591e61f205b97d04a9f74", "is_reserved": 0, "rental_uris": {"android": "https://dc.lft.to/lastmile_qr_scan", "ios": "https://dc.lft.to/lastmile_qr_scan"}, "fusion_lon": 0.0}, {"lat": 38.883877166666664, "is_disabled": 0, "type": "electric_scooter", "lon": -76.985358, "bike_id": "4787675b58bc0bbb01f218654135d752", "fusion_lat": 0.0, "name": "4787675b58bc0bbb01f218654135d752", "is_reserved": 0, "rental_uris": {"android": "https://dc.lft.to/lastmile_qr_scan", "ios": "https://dc.lft.to/lastmile_qr_scan"}, "fusion_lon": 0.0}, {"lat": 38.92870283333333, "is_disabled": 0, "type": "electric_scooter", "lon": -77.037016, "bike_id": "42cc3ba0be6bd861db685500c0268439", "fusion_lat": 0.0, "name": "42cc3ba0be6bd861db685500c0268439", "is_reserved": 0, "rental_uris": {"android": "https://dc.lft.to/lastmile_qr_scan", "ios": "https://dc.lft.to/lastmile_qr_scan"}, "fusion_lon": 0.0}, {"lat": 38.90575833333333, "is_disabled": 0, "type": "electric_scooter", "lon": -77.0270105, "bike_id": "1e43a775401b4481dfc7235399003a74", "fusion_lat": 0.0, "name": "1e43a775401b4481dfc7235399003a74", "is_reserved": 0, "rental_uris": {"android": "https://dc.lft.to/lastmile_qr_scan", "ios": "https://dc.lft.to/lastmile_qr_scan"}, "fusion_lon": 0.0}, {"lat": 38.8706765, "is_disabled": 0, "type": "electric_bike", "lon": -76.97835216666667, "bike_id": "ee4fba058a003c32fb6ed80dc966477d", "fusion_lat": 0.0, "name": "ee4fba058a003c32fb6ed80dc966477d", "is_reserved": 0, "rental_uris": {"android": "https://dc.lft.to/lastmile_qr_scan", "ios": "https://dc.lft.to/lastmile_qr_scan"}, "fusion_lon": 0.0}, {"lat": 38.90188833333333, "is_disabled": 0, "type": "electric_scooter", "lon": -77.021816, "bike_id": "6cf88b52c680d37f88b54e364dc6fafc", "fusion_lat": 0.0, "name": "6cf88b52c680d37f88b54e364dc6fafc", "is_reserved": 0, "rental_uris": {"android": "https://dc.lft.to/lastmile_qr_scan", "ios": "https://dc.lft.to/lastmile_qr_scan"}, "fusion_lon": 0.0}, {"lat": 39.03890883333333, "is_disabled": 0, "type": "electric_bike", "lon": -77.05032533333333, "bike_id": "ba424ecaec6f8c2ac62233ded3659ca0", "fusion_lat": 0.0, "name": "ba424ecaec6f8c2ac62233ded3659ca0", "is_reserved": 0, "rental_uris": {"android": "https://dc.lft.to/lastmile_qr_scan", "ios": "https://dc.lft.to/lastmile_qr_scan"}, "fusion_lon": 0.0}, {"lat": 38.877900833333335, "is_disabled": 0, "type": "electric_scooter", "lon": -76.99408516666666, "bike_id": "970d899471da1a8234825cc0cf5f9012", "fusion_lat": 0.0, "name": "970d899471da1a8234825cc0cf5f9012", "is_reserved": 0, "rental_uris": {"android": "https://dc.lft.to/lastmile_qr_scan", "ios": "https://dc.lft.to/lastmile_qr_scan"}, "fusion_lon": 0.0}, {"lat": 38.89373333333333, "is_disabled": 0, "type": "electric_scooter", "lon": -77.0501395, "bike_id": "fc55efdcfec15c10b026201f6a24ada5", "fusion_lat": 0.0, "name": "fc55efdcfec15c10b026201f6a24ada5", "is_reserved": 0, "rental_uris": {"android": "https://dc.lft.to/lastmile_qr_scan", "ios": "https://dc.lft.to/lastmile_qr_scan"}, "fusion_lon": 0.0}, {"lat": 38.92203416666667, "is_disabled": 0, "type": "electric_bike", "lon": -76.98795766666667, "bike_id": "0fcb0fc5a9740bc38fa059b7e61853a8", "fusion_lat": 0.0, "name": "0fcb0fc5a9740bc38fa059b7e61853a8", "is_reserved": 0, "rental_uris": {"android": "https://dc.lft.to/lastmile_qr_scan", "ios": "https://dc.lft.to/lastmile_qr_scan"}, "fusion_lon": 0.0}, {"lat": 38.932990333333336, "is_disabled": 0, "type": "electric_scooter", "lon": -77.035926, "bike_id": "92afea9941e1d153861cd8e56c02a198", "fusion_lat": 0.0, "name": "92afea9941e1d153861cd8e56c02a198", "is_reserved": 0, "rental_uris": {"android": "https://dc.lft.to/lastmile_qr_scan", "ios": "https://dc.lft.to/lastmile_qr_scan"}, "fusion_lon": 0.0}, {"lat": 38.9156485, "is_disabled": 0, "type": "electric_scooter", "lon": -77.03156, "bike_id": "1cd9da950fef87c550cc9bfcca5fc57b", "fusion_lat": 0.0, "name": "1cd9da950fef87c550cc9bfcca5fc57b", "is_reserved": 0, "rental_uris": {"android": "https://dc.lft.to/lastmile_qr_scan", "ios": "https://dc.lft.to/lastmile_qr_scan"}, "fusion_lon": 0.0}, {"lat": 38.92479083333333, "is_disabled": 0, "type": "electric_scooter", "lon": -77.02218466666666, "bike_id": "be7b9fa4fd62c3ed751449948bccee7f", "fusion_lat": 0.0, "name": "be7b9fa4fd62c3ed751449948bccee7f", "is_reserved": 0, "rental_uris": {"android": "https://dc.lft.to/lastmile_qr_scan", "ios": "https://dc.lft.to/lastmile_qr_scan"}, "fusion_lon": 0.0}, {"lat": 38.922329500000004, "is_disabled": 0, "type": "electric_scooter", "lon": -77.042443, "bike_id": "9604efe0931d9a36abae437968f21dfa", "fusion_lat": 0.0, "name": "9604efe0931d9a36abae437968f21dfa", "is_reserved": 0, "rental_uris": {"android": "https://dc.lft.to/lastmile_qr_scan", "ios": "https://dc.lft.to/lastmile_qr_scan"}, "fusion_lon": 0.0}, {"lat": 38.931947666666666, "is_disabled": 0, "type": "electric_scooter", "lon": -77.044254, "bike_id": "f06b41652891b2017cd15af3ed837d6c", "fusion_lat": 0.0, "name": "f06b41652891b2017cd15af3ed837d6c", "is_reserved": 0, "rental_uris": {"android": "https://dc.lft.to/lastmile_qr_scan", "ios": "https://dc.lft.to/lastmile_qr_scan"}, "fusion_lon": 0.0}, {"lat": 38.881935666666664, "is_disabled": 0, "type": "electric_scooter", "lon": -76.99505033333334, "bike_id": "f593c8a0f7f2886c2651748a5268bc91", "fusion_lat": 0.0, "name": "f593c8a0f7f2886c2651748a5268bc91", "is_reserved": 0, "rental_uris": {"android": "https://dc.lft.to/lastmile_qr_scan", "ios": "https://dc.lft.to/lastmile_qr_scan"}, "fusion_lon": 0.0}, {"lat": 38.8933625, "is_disabled": 0, "type": "electric_scooter", "lon": -76.9916145, "bike_id": "472376ce784fc48b811fa53cf3967a99", "fusion_lat": 0.0, "name": "472376ce784fc48b811fa53cf3967a99", "is_reserved": 0, "rental_uris": {"android": "https://dc.lft.to/lastmile_qr_scan", "ios": "https://dc.lft.to/lastmile_qr_scan"}, "fusion_lon": 0.0}, {"lat": 38.93524766666667, "is_disabled": 0, "type": "electric_scooter", "lon": -77.0729635, "bike_id": "2c15af9e53590773a4ac65933f510c07", "fusion_lat": 0.0, "name": "2c15af9e53590773a4ac65933f510c07", "is_reserved": 0, "rental_uris": {"android": "https://dc.lft.to/lastmile_qr_scan", "ios": "https://dc.lft.to/lastmile_qr_scan"}, "fusion_lon": 0.0}, {"lat": 38.910587, "is_disabled": 0, "type": "electric_scooter", "lon": -77.03091216666667, "bike_id": "54e61aef50213b38a94e7b5e09da3826", "fusion_lat": 0.0, "name": "54e61aef50213b38a94e7b5e09da3826", "is_reserved": 0, "rental_uris": {"android": "https://dc.lft.to/lastmile_qr_scan", "ios": "https://dc.lft.to/lastmile_qr_scan"}, "fusion_lon": 0.0}, {"lat": 38.91563283333333, "is_disabled": 0, "type": "electric_scooter", "lon": -77.03154, "bike_id": "0f8a1f3c233740056f2b98a20ad860c8", "fusion_lat": 0.0, "name": "0f8a1f3c233740056f2b98a20ad860c8", "is_reserved": 0, "rental_uris": {"android": "https://dc.lft.to/lastmile_qr_scan", "ios": "https://dc.lft.to/lastmile_qr_scan"}, "fusion_lon": 0.0}, {"lat": 38.9071435, "is_disabled": 0, "type": "electric_scooter", "lon": -77.04496566666667, "bike_id": "1c5f054de25f67c2197981034b054219", "fusion_lat": 0.0, "name": "1c5f054de25f67c2197981034b054219", "is_reserved": 0, "rental_uris": {"android": "https://dc.lft.to/lastmile_qr_scan", "ios": "https://dc.lft.to/lastmile_qr_scan"}, "fusion_lon": 0.0}, {"lat": 38.865233833333335, "is_disabled": 0, "type": "electric_scooter", "lon": -76.99028633333333, "bike_id": "58fcccb00641fae5c2298dbe7065baad", "fusion_lat": 0.0, "name": "58fcccb00641fae5c2298dbe7065baad", "is_reserved": 0, "rental_uris": {"android": "https://dc.lft.to/lastmile_qr_scan", "ios": "https://dc.lft.to/lastmile_qr_scan"}, "fusion_lon": 0.0}, {"lat": 38.924453166666666, "is_disabled": 0, "type": "electric_scooter", "lon": -77.0401925, "bike_id": "9a9402e9b484e7af709e034273a10894", "fusion_lat": 0.0, "name": "9a9402e9b484e7af709e034273a10894", "is_reserved": 0, "rental_uris": {"android": "https://dc.lft.to/lastmile_qr_scan", "ios": "https://dc.lft.to/lastmile_qr_scan"}, "fusion_lon": 0.0}, {"lat": 38.885304833333336, "is_disabled": 0, "type": "electric_scooter", "lon": -77.01513266666667, "bike_id": "f67ddb2828537e9138d57f15edc4f148", "fusion_lat": 0.0, "name": "f67ddb2828537e9138d57f15edc4f148", "is_reserved": 0, "rental_uris": {"android": "https://dc.lft.to/lastmile_qr_scan", "ios": "https://dc.lft.to/lastmile_qr_scan"}, "fusion_lon": 0.0}, {"lat": 38.904915, "is_disabled": 0, "type": "electric_scooter", "lon": -77.00219166666666, "bike_id": "9c74e622b81240c1c8aa7bbd919ee1f2", "fusion_lat": 0.0, "name": "9c74e622b81240c1c8aa7bbd919ee1f2", "is_reserved": 0, "rental_uris": {"android": "https://dc.lft.to/lastmile_qr_scan", "ios": "https://dc.lft.to/lastmile_qr_scan"}, "fusion_lon": 0.0}, {"lat": 38.90039633333333, "is_disabled": 0, "type": "electric_scooter", "lon": -77.00763383333333, "bike_id": "aa22c65b948089b15d8923367afb3552", "fusion_lat": 0.0, "name": "aa22c65b948089b15d8923367afb3552", "is_reserved": 0, "rental_uris": {"android": "https://dc.lft.to/lastmile_qr_scan", "ios": "https://dc.lft.to/lastmile_qr_scan"}, "fusion_lon": 0.0}, {"lat": 38.91914633333333, "is_disabled": 0, "type": "electric_scooter", "lon": -77.03174133333333, "bike_id": "d0a21582a88ce9f56b0b01e3906b34fe", "fusion_lat": 0.0, "name": "d0a21582a88ce9f56b0b01e3906b34fe", "is_reserved": 0, "rental_uris": {"android": "https://dc.lft.to/lastmile_qr_scan", "ios": "https://dc.lft.to/lastmile_qr_scan"}, "fusion_lon": 0.0}, {"lat": 38.89216366666667, "is_disabled": 0, "type": "electric_scooter", "lon": -77.02623, "bike_id": "c8241f80f99c6bec41d1636986ab483d", "fusion_lat": 0.0, "name": "c8241f80f99c6bec41d1636986ab483d", "is_reserved": 0, "rental_uris": {"android": "https://dc.lft.to/lastmile_qr_scan", "ios": "https://dc.lft.to/lastmile_qr_scan"}, "fusion_lon": 0.0}, {"lat": 38.909894, "is_disabled": 0, "type": "electric_scooter", "lon": -77.04008616666667, "bike_id": "7d707ef1cbb424230f11a000d5a5d632", "fusion_lat": 0.0, "name": "7d707ef1cbb424230f11a000d5a5d632", "is_reserved": 0, "rental_uris": {"android": "https://dc.lft.to/lastmile_qr_scan", "ios": "https://dc.lft.to/lastmile_qr_scan"}, "fusion_lon": 0.0}, {"lat": 38.913921333333334, "is_disabled": 0, "type": "electric_scooter", "lon": -77.0318335, "bike_id": "dfc3cdce665d370b6046ec0ace947130", "fusion_lat": 0.0, "name": "dfc3cdce665d370b6046ec0ace947130", "is_reserved": 0, "rental_uris": {"android": "https://dc.lft.to/lastmile_qr_scan", "ios": "https://dc.lft.to/lastmile_qr_scan"}, "fusion_lon": 0.0}, {"lat": 38.91799016666667, "is_disabled": 0, "type": "electric_scooter", "lon": -77.04014933333333, "bike_id": "fe913bf73bdd0fa355a82632eb4251a6", "fusion_lat": 0.0, "name": "fe913bf73bdd0fa355a82632eb4251a6", "is_reserved": 0, "rental_uris": {"android": "https://dc.lft.to/lastmile_qr_scan", "ios": "https://dc.lft.to/lastmile_qr_scan"}, "fusion_lon": 0.0}, {"lat": 38.865922, "is_disabled": 0, "type": "electric_bike", "lon": -76.93224033333334, "bike_id": "e803b6b971a91c255d15507b4d7c8d7b", "fusion_lat": 0.0, "name": "e803b6b971a91c255d15507b4d7c8d7b", "is_reserved": 0, "rental_uris": {"android": "https://dc.lft.to/lastmile_qr_scan", "ios": "https://dc.lft.to/lastmile_qr_scan"}, "fusion_lon": 0.0}, {"lat": 38.90372683333333, "is_disabled": 0, "type": "electric_scooter", "lon": -77.04016716666666, "bike_id": "ad7500afefba7d077a44a4ec92b6fb1e", "fusion_lat": 0.0, "name": "ad7500afefba7d077a44a4ec92b6fb1e", "is_reserved": 0, "rental_uris": {"android": "https://dc.lft.to/lastmile_qr_scan", "ios": "https://dc.lft.to/lastmile_qr_scan"}, "fusion_lon": 0.0}, {"lat": 38.89217216666667, "is_disabled": 0, "type": "electric_scooter", "lon": -77.02624633333333, "bike_id": "b0a481712f430f30bf188fcacecadae6", "fusion_lat": 0.0, "name": "b0a481712f430f30bf188fcacecadae6", "is_reserved": 0, "rental_uris": {"android": "https://dc.lft.to/lastmile_qr_scan", "ios": "https://dc.lft.to/lastmile_qr_scan"}, "fusion_lon": 0.0}, {"lat": 38.8521355, "is_disabled": 0, "type": "electric_bike", "lon": -77.12951316666667, "bike_id": "fa0d6c78c81a8e2285f573cd84e062f2", "fusion_lat": 0.0, "name": "fa0d6c78c81a8e2285f573cd84e062f2", "is_reserved": 0, "rental_uris": {"android": "https://dc.lft.to/lastmile_qr_scan", "ios": "https://dc.lft.to/lastmile_qr_scan"}, "fusion_lon": 0.0}, {"lat": 38.953474, "is_disabled": 0, "type": "electric_bike", "lon": -76.98104483333333, "bike_id": "5fb82ea66c1e0d7d3bd6d83c8411752a", "fusion_lat": 0.0, "name": "5fb82ea66c1e0d7d3bd6d83c8411752a", "is_reserved": 0, "rental_uris": {"android": "https://dc.lft.to/lastmile_qr_scan", "ios": "https://dc.lft.to/lastmile_qr_scan"}, "fusion_lon": 0.0}, {"lat": 38.94629316666666, "is_disabled": 0, "type": "electric_scooter", "lon": -77.01846983333333, "bike_id": "82d45865e385611ee1602b66ca7d221b", "fusion_lat": 0.0, "name": "82d45865e385611ee1602b66ca7d221b", "is_reserved": 0, "rental_uris": {"android": "https://dc.lft.to/lastmile_qr_scan", "ios": "https://dc.lft.to/lastmile_qr_scan"}, "fusion_lon": 0.0}, {"lat": 38.867414, "is_disabled": 0, "type": "electric_scooter", "lon": -76.976666, "bike_id": "94bcf1fbf9fa4c671a18014734e975af", "fusion_lat": 0.0, "name": "94bcf1fbf9fa4c671a18014734e975af", "is_reserved": 0, "rental_uris": {"android": "https://dc.lft.to/lastmile_qr_scan", "ios": "https://dc.lft.to/lastmile_qr_scan"}, "fusion_lon": 0.0}, {"lat": 38.95181183333333, "is_disabled": 0, "type": "electric_bike", "lon": -76.93544333333334, "bike_id": "6c91402296bfb6a0cc59468308a0f50d", "fusion_lat": 0.0, "name": "6c91402296bfb6a0cc59468308a0f50d", "is_reserved": 0, "rental_uris": {"android": "https://dc.lft.to/lastmile_qr_scan", "ios": "https://dc.lft.to/lastmile_qr_scan"}, "fusion_lon": 0.0}, {"lat": 38.90401416666667, "is_disabled": 0, "type": "electric_scooter", "lon": -77.02582583333333, "bike_id": "c8b21204eeb745377ee4ba516f6ee82b", "fusion_lat": 0.0, "name": "c8b21204eeb745377ee4ba516f6ee82b", "is_reserved": 0, "rental_uris": {"android": "https://dc.lft.to/lastmile_qr_scan", "ios": "https://dc.lft.to/lastmile_qr_scan"}, "fusion_lon": 0.0}, {"lat": 38.9199445, "is_disabled": 0, "type": "electric_scooter", "lon": -77.03956716666667, "bike_id": "81c52af93db210bc43849e93f643c3c2", "fusion_lat": 0.0, "name": "81c52af93db210bc43849e93f643c3c2", "is_reserved": 0, "rental_uris": {"android": "https://dc.lft.to/lastmile_qr_scan", "ios": "https://dc.lft.to/lastmile_qr_scan"}, "fusion_lon": 0.0}, {"lat": 38.896170166666664, "is_disabled": 0, "type": "electric_scooter", "lon": -76.9984705, "bike_id": "fe5de3ce07f23c79d0f3672c5f56a3f6", "fusion_lat": 0.0, "name": "fe5de3ce07f23c79d0f3672c5f56a3f6", "is_reserved": 0, "rental_uris": {"android": "https://dc.lft.to/lastmile_qr_scan", "ios": "https://dc.lft.to/lastmile_qr_scan"}, "fusion_lon": 0.0}, {"lat": 38.909619166666666, "is_disabled": 0, "type": "electric_scooter", "lon": -77.03835533333333, "bike_id": "02a508d1dbfffa74e9b5ca77bee95018", "fusion_lat": 0.0, "name": "02a508d1dbfffa74e9b5ca77bee95018", "is_reserved": 0, "rental_uris": {"android": "https://dc.lft.to/lastmile_qr_scan", "ios": "https://dc.lft.to/lastmile_qr_scan"}, "fusion_lon": 0.0}, {"lat": 38.90916716666667, "is_disabled": 0, "type": "electric_scooter", "lon": -77.08021716666667, "bike_id": "c8722f00102caa437102e307a9bf3ff9", "fusion_lat": 0.0, "name": "c8722f00102caa437102e307a9bf3ff9", "is_reserved": 0, "rental_uris": {"android": "https://dc.lft.to/lastmile_qr_scan", "ios": "https://dc.lft.to/lastmile_qr_scan"}, "fusion_lon": 0.0}, {"lat": 38.92641583333333, "is_disabled": 0, "type": "electric_bike", "lon": -77.028358, "bike_id": "0e736efbb7579e003bed5311510a386e", "fusion_lat": 0.0, "name": "0e736efbb7579e003bed5311510a386e", "is_reserved": 0, "rental_uris": {"android": "https://dc.lft.to/lastmile_qr_scan", "ios": "https://dc.lft.to/lastmile_qr_scan"}, "fusion_lon": 0.0}, {"lat": 38.87728333333333, "is_disabled": 0, "type": "electric_bike", "lon": -77.118511, "bike_id": "02e7f6cb3522c6a69c52e19113821795", "fusion_lat": 0.0, "name": "02e7f6cb3522c6a69c52e19113821795", "is_reserved": 0, "rental_uris": {"android": "https://dc.lft.to/lastmile_qr_scan", "ios": "https://dc.lft.to/lastmile_qr_scan"}, "fusion_lon": 0.0}, {"lat": 38.909460333333335, "is_disabled": 0, "type": "electric_scooter", "lon": -77.05494366666667, "bike_id": "e8c831d0d5c3d07a8ec2909913391bfb", "fusion_lat": 0.0, "name": "e8c831d0d5c3d07a8ec2909913391bfb", "is_reserved": 0, "rental_uris": {"android": "https://dc.lft.to/lastmile_qr_scan", "ios": "https://dc.lft.to/lastmile_qr_scan"}, "fusion_lon": 0.0}, {"lat": 38.8982945, "is_disabled": 0, "type": "electric_scooter", "lon": -76.93100216666667, "bike_id": "52cef09f512fd479fe0513facfcd0df0", "fusion_lat": 0.0, "name": "52cef09f512fd479fe0513facfcd0df0", "is_reserved": 0, "rental_uris": {"android": "https://dc.lft.to/lastmile_qr_scan", "ios": "https://dc.lft.to/lastmile_qr_scan"}, "fusion_lon": 0.0}, {"lat": 38.89614433333333, "is_disabled": 0, "type": "electric_scooter", "lon": -77.03160266666667, "bike_id": "9a85d24b62923620ef1e775b44c0d7c1", "fusion_lat": 0.0, "name": "9a85d24b62923620ef1e775b44c0d7c1", "is_reserved": 0, "rental_uris": {"android": "https://dc.lft.to/lastmile_qr_scan", "ios": "https://dc.lft.to/lastmile_qr_scan"}, "fusion_lon": 0.0}, {"lat": 38.969251666666665, "is_disabled": 0, "type": "electric_bike", "lon": -77.02616283333333, "bike_id": "bb3c847e644bbd09ee0ec39a15a233d2", "fusion_lat": 0.0, "name": "bb3c847e644bbd09ee0ec39a15a233d2", "is_reserved": 0, "rental_uris": {"android": "https://dc.lft.to/lastmile_qr_scan", "ios": "https://dc.lft.to/lastmile_qr_scan"}, "fusion_lon": 0.0}, {"lat": 38.8736735, "is_disabled": 0, "type": "electric_bike", "lon": -77.11797983333334, "bike_id": "8d7967d4d091d0dfc5c5404487c22c69", "fusion_lat": 0.0, "name": "8d7967d4d091d0dfc5c5404487c22c69", "is_reserved": 0, "rental_uris": {"android": "https://dc.lft.to/lastmile_qr_scan", "ios": "https://dc.lft.to/lastmile_qr_scan"}, "fusion_lon": 0.0}, {"lat": 38.90961266666667, "is_disabled": 0, "type": "electric_scooter", "lon": -77.03234733333333, "bike_id": "c8730bcfc760c3891699f86dc1c5c038", "fusion_lat": 0.0, "name": "c8730bcfc760c3891699f86dc1c5c038", "is_reserved": 0, "rental_uris": {"android": "https://dc.lft.to/lastmile_qr_scan", "ios": "https://dc.lft.to/lastmile_qr_scan"}, "fusion_lon": 0.0}, {"lat": 38.900187833333334, "is_disabled": 0, "type": "electric_scooter", "lon": -77.0220055, "bike_id": "9f8374317b06dc2f3261db5caeeb9590", "fusion_lat": 0.0, "name": "9f8374317b06dc2f3261db5caeeb9590", "is_reserved": 0, "rental_uris": {"android": "https://dc.lft.to/lastmile_qr_scan", "ios": "https://dc.lft.to/lastmile_qr_scan"}, "fusion_lon": 0.0}, {"lat": 38.906862333333336, "is_disabled": 0, "type": "electric_scooter", "lon": -77.037571, "bike_id": "09a918e10b9b00ce9aba3b74bc68584b", "fusion_lat": 0.0, "name": "09a918e10b9b00ce9aba3b74bc68584b", "is_reserved": 0, "rental_uris": {"android": "https://dc.lft.to/lastmile_qr_scan", "ios": "https://dc.lft.to/lastmile_qr_scan"}, "fusion_lon": 0.0}, {"lat": 38.9002705, "is_disabled": 0, "type": "electric_scooter", "lon": -76.99824416666667, "bike_id": "420bac8f88128668dbee59ddf275ab11", "fusion_lat": 0.0, "name": "420bac8f88128668dbee59ddf275ab11", "is_reserved": 0, "rental_uris": {"android": "https://dc.lft.to/lastmile_qr_scan", "ios": "https://dc.lft.to/lastmile_qr_scan"}, "fusion_lon": 0.0}, {"lat": 38.90714883333333, "is_disabled": 0, "type": "electric_scooter", "lon": -77.047554, "bike_id": "394467b70d2df52ac098be4a38228273", "fusion_lat": 0.0, "name": "394467b70d2df52ac098be4a38228273", "is_reserved": 0, "rental_uris": {"android": "https://dc.lft.to/lastmile_qr_scan", "ios": "https://dc.lft.to/lastmile_qr_scan"}, "fusion_lon": 0.0}, {"lat": 38.907989666666666, "is_disabled": 0, "type": "electric_scooter", "lon": -77.04352366666667, "bike_id": "25a83ed234998c8d563027db9308a2b9", "fusion_lat": 0.0, "name": "25a83ed234998c8d563027db9308a2b9", "is_reserved": 0, "rental_uris": {"android": "https://dc.lft.to/lastmile_qr_scan", "ios": "https://dc.lft.to/lastmile_qr_scan"}, "fusion_lon": 0.0}, {"lat": 38.91737066666666, "is_disabled": 0, "type": "electric_scooter", "lon": -77.0319405, "bike_id": "b1e47189d9c8092a26a54795cadf8e63", "fusion_lat": 0.0, "name": "b1e47189d9c8092a26a54795cadf8e63", "is_reserved": 0, "rental_uris": {"android": "https://dc.lft.to/lastmile_qr_scan", "ios": "https://dc.lft.to/lastmile_qr_scan"}, "fusion_lon": 0.0}, {"lat": 38.89527366666667, "is_disabled": 0, "type": "electric_scooter", "lon": -76.94890833333334, "bike_id": "8139c899ac613f4134a1c296169830b6", "fusion_lat": 0.0, "name": "8139c899ac613f4134a1c296169830b6", "is_reserved": 0, "rental_uris": {"android": "https://dc.lft.to/lastmile_qr_scan", "ios": "https://dc.lft.to/lastmile_qr_scan"}, "fusion_lon": 0.0}, {"lat": 38.90379983333333, "is_disabled": 0, "type": "electric_scooter", "lon": -77.044897, "bike_id": "ba1c6fdd7a1b36d2b7a29788a4598429", "fusion_lat": 0.0, "name": "ba1c6fdd7a1b36d2b7a29788a4598429", "is_reserved": 0, "rental_uris": {"android": "https://dc.lft.to/lastmile_qr_scan", "ios": "https://dc.lft.to/lastmile_qr_scan"}, "fusion_lon": 0.0}, {"lat": 38.88478633333333, "is_disabled": 0, "type": "electric_scooter", "lon": -76.94527033333334, "bike_id": "1a63b2f2f716514dcc941352887a9da2", "fusion_lat": 0.0, "name": "1a63b2f2f716514dcc941352887a9da2", "is_reserved": 0, "rental_uris": {"android": "https://dc.lft.to/lastmile_qr_scan", "ios": "https://dc.lft.to/lastmile_qr_scan"}, "fusion_lon": 0.0}, {"lat": 38.92497916666667, "is_disabled": 0, "type": "electric_scooter", "lon": -77.0521855, "bike_id": "27a7242d6ef04616699a5d3d076e79a4", "fusion_lat": 0.0, "name": "27a7242d6ef04616699a5d3d076e79a4", "is_reserved": 0, "rental_uris": {"android": "https://dc.lft.to/lastmile_qr_scan", "ios": "https://dc.lft.to/lastmile_qr_scan"}, "fusion_lon": 0.0}, {"lat": 38.850244333333336, "is_disabled": 0, "type": "electric_bike", "lon": -77.09798533333333, "bike_id": "118112bd557d3572621cad6bf8dae955", "fusion_lat": 0.0, "name": "118112bd557d3572621cad6bf8dae955", "is_reserved": 0, "rental_uris": {"android": "https://dc.lft.to/lastmile_qr_scan", "ios": "https://dc.lft.to/lastmile_qr_scan"}, "fusion_lon": 0.0}, {"lat": 38.85790733333333, "is_disabled": 0, "type": "electric_bike", "lon": -77.09959416666666, "bike_id": "a5888cecd8f4e760a338b4227f4f8012", "fusion_lat": 0.0, "name": "a5888cecd8f4e760a338b4227f4f8012", "is_reserved": 0, "rental_uris": {"android": "https://dc.lft.to/lastmile_qr_scan", "ios": "https://dc.lft.to/lastmile_qr_scan"}, "fusion_lon": 0.0}, {"lat": 38.901840666666665, "is_disabled": 0, "type": "electric_scooter", "lon": -77.02320583333334, "bike_id": "59a86fb26409a109c6957b4ba3efc9d4", "fusion_lat": 0.0, "name": "59a86fb26409a109c6957b4ba3efc9d4", "is_reserved": 0, "rental_uris": {"android": "https://dc.lft.to/lastmile_qr_scan", "ios": "https://dc.lft.to/lastmile_qr_scan"}, "fusion_lon": 0.0}, {"lat": 38.9451505, "is_disabled": 0, "type": "electric_scooter", "lon": -76.97956866666667, "bike_id": "7fc2e8da5fa29807b62750f1df90bdef", "fusion_lat": 0.0, "name": "7fc2e8da5fa29807b62750f1df90bdef", "is_reserved": 0, "rental_uris": {"android": "https://dc.lft.to/lastmile_qr_scan", "ios": "https://dc.lft.to/lastmile_qr_scan"}, "fusion_lon": 0.0}, {"lat": 38.92341016666666, "is_disabled": 0, "type": "electric_scooter", "lon": -77.03507116666667, "bike_id": "bf9c0611e80fe042da584dbe4a5e668b", "fusion_lat": 0.0, "name": "bf9c0611e80fe042da584dbe4a5e668b", "is_reserved": 0, "rental_uris": {"android": "https://dc.lft.to/lastmile_qr_scan", "ios": "https://dc.lft.to/lastmile_qr_scan"}, "fusion_lon": 0.0}, {"lat": 38.89218016666667, "is_disabled": 0, "type": "electric_scooter", "lon": -77.04682983333333, "bike_id": "3a93db879fc59be5c121aee3cef69bce", "fusion_lat": 0.0, "name": "3a93db879fc59be5c121aee3cef69bce", "is_reserved": 0, "rental_uris": {"android": "https://dc.lft.to/lastmile_qr_scan", "ios": "https://dc.lft.to/lastmile_qr_scan"}, "fusion_lon": 0.0}, {"lat": 38.9595215, "is_disabled": 0, "type": "electric_bike", "lon": -77.10091233333333, "bike_id": "808f87d3eb668f1547006effca61ea69", "fusion_lat": 0.0, "name": "808f87d3eb668f1547006effca61ea69", "is_reserved": 0, "rental_uris": {"android": "https://dc.lft.to/lastmile_qr_scan", "ios": "https://dc.lft.to/lastmile_qr_scan"}, "fusion_lon": 0.0}, {"lat": 38.959589666666666, "is_disabled": 0, "type": "electric_scooter", "lon": -77.03314366666666, "bike_id": "986ca42c4002c4385d959a87f05c60b1", "fusion_lat": 0.0, "name": "986ca42c4002c4385d959a87f05c60b1", "is_reserved": 0, "rental_uris": {"android": "https://dc.lft.to/lastmile_qr_scan", "ios": "https://dc.lft.to/lastmile_qr_scan"}, "fusion_lon": 0.0}, {"lat": 38.905424, "is_disabled": 0, "type": "electric_scooter", "lon": -77.05703583333333, "bike_id": "649cfd7b95af1fc25746fe70b3b242ee", "fusion_lat": 0.0, "name": "649cfd7b95af1fc25746fe70b3b242ee", "is_reserved": 0, "rental_uris": {"android": "https://dc.lft.to/lastmile_qr_scan", "ios": "https://dc.lft.to/lastmile_qr_scan"}, "fusion_lon": 0.0}, {"lat": 38.93733133333333, "is_disabled": 0, "type": "electric_scooter", "lon": -77.036385, "bike_id": "f517cacd52201fb79abff6d5a330b4fb", "fusion_lat": 0.0, "name": "f517cacd52201fb79abff6d5a330b4fb", "is_reserved": 0, "rental_uris": {"android": "https://dc.lft.to/lastmile_qr_scan", "ios": "https://dc.lft.to/lastmile_qr_scan"}, "fusion_lon": 0.0}, {"lat": 38.9249945, "is_disabled": 0, "type": "electric_scooter", "lon": -77.02160633333334, "bike_id": "99d80e147ff1396c8d1b3bcf458f7e05", "fusion_lat": 0.0, "name": "99d80e147ff1396c8d1b3bcf458f7e05", "is_reserved": 0, "rental_uris": {"android": "https://dc.lft.to/lastmile_qr_scan", "ios": "https://dc.lft.to/lastmile_qr_scan"}, "fusion_lon": 0.0}, {"lat": 38.90588916666667, "is_disabled": 0, "type": "electric_scooter", "lon": -77.07003783333333, "bike_id": "a680ed22a17d86be6a317045e1d829b9", "fusion_lat": 0.0, "name": "a680ed22a17d86be6a317045e1d829b9", "is_reserved": 0, "rental_uris": {"android": "https://dc.lft.to/lastmile_qr_scan", "ios": "https://dc.lft.to/lastmile_qr_scan"}, "fusion_lon": 0.0}, {"lat": 38.90628533333334, "is_disabled": 0, "type": "electric_scooter", "lon": -77.00603466666666, "bike_id": "919fa572b77523e4bf3e849c5a282d97", "fusion_lat": 0.0, "name": "919fa572b77523e4bf3e849c5a282d97", "is_reserved": 0, "rental_uris": {"android": "https://dc.lft.to/lastmile_qr_scan", "ios": "https://dc.lft.to/lastmile_qr_scan"}, "fusion_lon": 0.0}, {"lat": 38.91325333333333, "is_disabled": 0, "type": "electric_scooter", "lon": -77.03261966666666, "bike_id": "79250468ab5a01ab50533cf951d6d55c", "fusion_lat": 0.0, "name": "79250468ab5a01ab50533cf951d6d55c", "is_reserved": 0, "rental_uris": {"android": "https://dc.lft.to/lastmile_qr_scan", "ios": "https://dc.lft.to/lastmile_qr_scan"}, "fusion_lon": 0.0}, {"lat": 38.91918616666667, "is_disabled": 0, "type": "electric_scooter", "lon": -77.04820683333334, "bike_id": "0c7fff713c9b6ac0d71733695a49ff50", "fusion_lat": 0.0, "name": "0c7fff713c9b6ac0d71733695a49ff50", "is_reserved": 0, "rental_uris": {"android": "https://dc.lft.to/lastmile_qr_scan", "ios": "https://dc.lft.to/lastmile_qr_scan"}, "fusion_lon": 0.0}, {"lat": 38.867076, "is_disabled": 0, "type": "electric_bike", "lon": -76.9895035, "bike_id": "0a8879df9d0f9fec4a077ba663f6518e", "fusion_lat": 0.0, "name": "0a8879df9d0f9fec4a077ba663f6518e", "is_reserved": 0, "rental_uris": {"android": "https://dc.lft.to/lastmile_qr_scan", "ios": "https://dc.lft.to/lastmile_qr_scan"}, "fusion_lon": 0.0}, {"lat": 38.96219583333333, "is_disabled": 0, "type": "electric_bike", "lon": -77.02623216666667, "bike_id": "b7c351ef22820358c54be4fcd349a7e6", "fusion_lat": 0.0, "name": "b7c351ef22820358c54be4fcd349a7e6", "is_reserved": 0, "rental_uris": {"android": "https://dc.lft.to/lastmile_qr_scan", "ios": "https://dc.lft.to/lastmile_qr_scan"}, "fusion_lon": 0.0}, {"lat": 38.92624766666667, "is_disabled": 0, "type": "electric_scooter", "lon": -77.03787566666666, "bike_id": "6063a895640cd89982e86300c970c4ba", "fusion_lat": 0.0, "name": "6063a895640cd89982e86300c970c4ba", "is_reserved": 0, "rental_uris": {"android": "https://dc.lft.to/lastmile_qr_scan", "ios": "https://dc.lft.to/lastmile_qr_scan"}, "fusion_lon": 0.0}, {"lat": 38.90291533333333, "is_disabled": 0, "type": "electric_scooter", "lon": -77.0395465, "bike_id": "9464379175a18e5f7cd0ae5d3830c8c0", "fusion_lat": 0.0, "name": "9464379175a18e5f7cd0ae5d3830c8c0", "is_reserved": 0, "rental_uris": {"android": "https://dc.lft.to/lastmile_qr_scan", "ios": "https://dc.lft.to/lastmile_qr_scan"}, "fusion_lon": 0.0}, {"lat": 38.948176, "is_disabled": 0, "type": "electric_scooter", "lon": -76.99905866666667, "bike_id": "e5b90a1a7e2d3aef0d72e052174bb3f9", "fusion_lat": 0.0, "name": "e5b90a1a7e2d3aef0d72e052174bb3f9", "is_reserved": 0, "rental_uris": {"android": "https://dc.lft.to/lastmile_qr_scan", "ios": "https://dc.lft.to/lastmile_qr_scan"}, "fusion_lon": 0.0}, {"lat": 38.915670166666665, "is_disabled": 0, "type": "electric_scooter", "lon": -77.03149116666667, "bike_id": "058ac019827274e45ee2604889a4244b", "fusion_lat": 0.0, "name": "058ac019827274e45ee2604889a4244b", "is_reserved": 0, "rental_uris": {"android": "https://dc.lft.to/lastmile_qr_scan", "ios": "https://dc.lft.to/lastmile_qr_scan"}, "fusion_lon": 0.0}, {"lat": 38.901354, "is_disabled": 0, "type": "electric_bike", "lon": -77.0344695, "bike_id": "eeaeac6030c33e8170bf2e792f601eb6", "fusion_lat": 0.0, "name": "eeaeac6030c33e8170bf2e792f601eb6", "is_reserved": 0, "rental_uris": {"android": "https://dc.lft.to/lastmile_qr_scan", "ios": "https://dc.lft.to/lastmile_qr_scan"}, "fusion_lon": 0.0}, {"lat": 38.915760666666664, "is_disabled": 0, "type": "electric_scooter", "lon": -77.03212933333333, "bike_id": "feedb1dea628fd8aed7184893a95489a", "fusion_lat": 0.0, "name": "feedb1dea628fd8aed7184893a95489a", "is_reserved": 0, "rental_uris": {"android": "https://dc.lft.to/lastmile_qr_scan", "ios": "https://dc.lft.to/lastmile_qr_scan"}, "fusion_lon": 0.0}, {"lat": 38.8766425, "is_disabled": 0, "type": "electric_scooter", "lon": -77.00413066666667, "bike_id": "430989559f10d208e01abab195fc7721", "fusion_lat": 0.0, "name": "430989559f10d208e01abab195fc7721", "is_reserved": 0, "rental_uris": {"android": "https://dc.lft.to/lastmile_qr_scan", "ios": "https://dc.lft.to/lastmile_qr_scan"}, "fusion_lon": 0.0}, {"lat": 38.90576383333333, "is_disabled": 0, "type": "electric_scooter", "lon": -77.02693466666666, "bike_id": "ad26d2f3c44d53071d55dbffed6647f4", "fusion_lat": 0.0, "name": "ad26d2f3c44d53071d55dbffed6647f4", "is_reserved": 0, "rental_uris": {"android": "https://dc.lft.to/lastmile_qr_scan", "ios": "https://dc.lft.to/lastmile_qr_scan"}, "fusion_lon": 0.0}, {"lat": 38.945089333333335, "is_disabled": 0, "type": "electric_bike", "lon": -77.021757, "bike_id": "39e02433a7416ce0aeb480cbcca4d9dc", "fusion_lat": 0.0, "name": "39e02433a7416ce0aeb480cbcca4d9dc", "is_reserved": 0, "rental_uris": {"android": "https://dc.lft.to/lastmile_qr_scan", "ios": "https://dc.lft.to/lastmile_qr_scan"}, "fusion_lon": 0.0}, {"lat": 38.91368933333333, "is_disabled": 0, "type": "electric_scooter", "lon": -77.01999783333333, "bike_id": "3bec47ce9041507563fa572cd226e7de", "fusion_lat": 0.0, "name": "3bec47ce9041507563fa572cd226e7de", "is_reserved": 0, "rental_uris": {"android": "https://dc.lft.to/lastmile_qr_scan", "ios": "https://dc.lft.to/lastmile_qr_scan"}, "fusion_lon": 0.0}, {"lat": 38.92543033333333, "is_disabled": 0, "type": "electric_scooter", "lon": -77.03450116666667, "bike_id": "eb299894988aa706c831d223b81cb78d", "fusion_lat": 0.0, "name": "eb299894988aa706c831d223b81cb78d", "is_reserved": 0, "rental_uris": {"android": "https://dc.lft.to/lastmile_qr_scan", "ios": "https://dc.lft.to/lastmile_qr_scan"}, "fusion_lon": 0.0}, {"lat": 38.80494133333333, "is_disabled": 0, "type": "electric_bike", "lon": -77.04133733333333, "bike_id": "c88e75fa99c1d2ea53349d9609d7fa9e", "fusion_lat": 0.0, "name": "c88e75fa99c1d2ea53349d9609d7fa9e", "is_reserved": 0, "rental_uris": {"android": "https://dc.lft.to/lastmile_qr_scan", "ios": "https://dc.lft.to/lastmile_qr_scan"}, "fusion_lon": 0.0}, {"lat": 38.9117605, "is_disabled": 0, "type": "electric_scooter", "lon": -77.04841716666667, "bike_id": "50a7acb369cc5bd49ca4eada531b6c0e", "fusion_lat": 0.0, "name": "50a7acb369cc5bd49ca4eada531b6c0e", "is_reserved": 0, "rental_uris": {"android": "https://dc.lft.to/lastmile_qr_scan", "ios": "https://dc.lft.to/lastmile_qr_scan"}, "fusion_lon": 0.0}, {"lat": 38.899772666666664, "is_disabled": 0, "type": "electric_scooter", "lon": -76.992671, "bike_id": "011b8de1b76253e7373ead24d326630d", "fusion_lat": 0.0, "name": "011b8de1b76253e7373ead24d326630d", "is_reserved": 0, "rental_uris": {"android": "https://dc.lft.to/lastmile_qr_scan", "ios": "https://dc.lft.to/lastmile_qr_scan"}, "fusion_lon": 0.0}, {"lat": 38.9170135, "is_disabled": 0, "type": "electric_scooter", "lon": -77.03729533333333, "bike_id": "b4016ec10976998d21b08f8b51bcb4b5", "fusion_lat": 0.0, "name": "b4016ec10976998d21b08f8b51bcb4b5", "is_reserved": 0, "rental_uris": {"android": "https://dc.lft.to/lastmile_qr_scan", "ios": "https://dc.lft.to/lastmile_qr_scan"}, "fusion_lon": 0.0}, {"lat": 38.937448333333336, "is_disabled": 0, "type": "electric_scooter", "lon": -77.03454366666666, "bike_id": "976253e60850e58d7a38e603e64c6042", "fusion_lat": 0.0, "name": "976253e60850e58d7a38e603e64c6042", "is_reserved": 0, "rental_uris": {"android": "https://dc.lft.to/lastmile_qr_scan", "ios": "https://dc.lft.to/lastmile_qr_scan"}, "fusion_lon": 0.0}, {"lat": 38.875222, "is_disabled": 0, "type": "electric_scooter", "lon": -77.000833, "bike_id": "fd6f256aef8d6f86f7adc64ced32caaa", "fusion_lat": 0.0, "name": "fd6f256aef8d6f86f7adc64ced32caaa", "is_reserved": 0, "rental_uris": {"android": "https://dc.lft.to/lastmile_qr_scan", "ios": "https://dc.lft.to/lastmile_qr_scan"}, "fusion_lon": 0.0}, {"lat": 38.906134, "is_disabled": 0, "type": "electric_scooter", "lon": -77.02603516666667, "bike_id": "dc3beabf3f21fb184b00cb4c35351392", "fusion_lat": 0.0, "name": "dc3beabf3f21fb184b00cb4c35351392", "is_reserved": 0, "rental_uris": {"android": "https://dc.lft.to/lastmile_qr_scan", "ios": "https://dc.lft.to/lastmile_qr_scan"}, "fusion_lon": 0.0}, {"lat": 38.917681, "is_disabled": 0, "type": "electric_scooter", "lon": -77.03183083333333, "bike_id": "3ef1f15fd311a0680297c8eebb7e4026", "fusion_lat": 0.0, "name": "3ef1f15fd311a0680297c8eebb7e4026", "is_reserved": 0, "rental_uris": {"android": "https://dc.lft.to/lastmile_qr_scan", "ios": "https://dc.lft.to/lastmile_qr_scan"}, "fusion_lon": 0.0}, {"lat": 38.90722066666667, "is_disabled": 0, "type": "electric_scooter", "lon": -77.00366266666667, "bike_id": "5f377c00c3ac4e89aa7cca3cb472a3c6", "fusion_lat": 0.0, "name": "5f377c00c3ac4e89aa7cca3cb472a3c6", "is_reserved": 0, "rental_uris": {"android": "https://dc.lft.to/lastmile_qr_scan", "ios": "https://dc.lft.to/lastmile_qr_scan"}, "fusion_lon": 0.0}, {"lat": 38.918208, "is_disabled": 0, "type": "electric_scooter", "lon": -77.02521666666667, "bike_id": "35660767ebf61e930108d1367fbee04b", "fusion_lat": 0.0, "name": "35660767ebf61e930108d1367fbee04b", "is_reserved": 0, "rental_uris": {"android": "https://dc.lft.to/lastmile_qr_scan", "ios": "https://dc.lft.to/lastmile_qr_scan"}, "fusion_lon": 0.0}, {"lat": 38.8454235, "is_disabled": 0, "type": "electric_bike", "lon": -76.9906485, "bike_id": "4b0a897961424824e57f79dba249f393", "fusion_lat": 0.0, "name": "4b0a897961424824e57f79dba249f393", "is_reserved": 0, "rental_uris": {"android": "https://dc.lft.to/lastmile_qr_scan", "ios": "https://dc.lft.to/lastmile_qr_scan"}, "fusion_lon": 0.0}, {"lat": 38.896081, "is_disabled": 0, "type": "electric_scooter", "lon": -77.0456085, "bike_id": "72162c42f6ecab45de2e670f2971a193", "fusion_lat": 0.0, "name": "72162c42f6ecab45de2e670f2971a193", "is_reserved": 0, "rental_uris": {"android": "https://dc.lft.to/lastmile_qr_scan", "ios": "https://dc.lft.to/lastmile_qr_scan"}, "fusion_lon": 0.0}, {"lat": 38.913412, "is_disabled": 0, "type": "electric_scooter", "lon": -77.04354883333333, "bike_id": "a23c274d30fc7b834f19c3d43b21d6db", "fusion_lat": 0.0, "name": "a23c274d30fc7b834f19c3d43b21d6db", "is_reserved": 0, "rental_uris": {"android": "https://dc.lft.to/lastmile_qr_scan", "ios": "https://dc.lft.to/lastmile_qr_scan"}, "fusion_lon": 0.0}, {"lat": 38.90261916666667, "is_disabled": 0, "type": "electric_scooter", "lon": -77.04612833333333, "bike_id": "86ce1fe33b7fe085eb89c3176388290c", "fusion_lat": 0.0, "name": "86ce1fe33b7fe085eb89c3176388290c", "is_reserved": 0, "rental_uris": {"android": "https://dc.lft.to/lastmile_qr_scan", "ios": "https://dc.lft.to/lastmile_qr_scan"}, "fusion_lon": 0.0}, {"lat": 39.02931366666667, "is_disabled": 0, "type": "electric_bike", "lon": -77.04927366666666, "bike_id": "b5765b428e0766c73c98cce368b841ce", "fusion_lat": 0.0, "name": "b5765b428e0766c73c98cce368b841ce", "is_reserved": 0, "rental_uris": {"android": "https://dc.lft.to/lastmile_qr_scan", "ios": "https://dc.lft.to/lastmile_qr_scan"}, "fusion_lon": 0.0}, {"lat": 38.931087833333336, "is_disabled": 0, "type": "electric_scooter", "lon": -77.038402, "bike_id": "52aeb733ac084f2d12d6f369dfc7ad3b", "fusion_lat": 0.0, "name": "52aeb733ac084f2d12d6f369dfc7ad3b", "is_reserved": 0, "rental_uris": {"android": "https://dc.lft.to/lastmile_qr_scan", "ios": "https://dc.lft.to/lastmile_qr_scan"}, "fusion_lon": 0.0}, {"lat": 38.884912166666666, "is_disabled": 0, "type": "electric_scooter", "lon": -77.00714883333333, "bike_id": "69083cb66f211112b993a7da9f6abdec", "fusion_lat": 0.0, "name": "69083cb66f211112b993a7da9f6abdec", "is_reserved": 0, "rental_uris": {"android": "https://dc.lft.to/lastmile_qr_scan", "ios": "https://dc.lft.to/lastmile_qr_scan"}, "fusion_lon": 0.0}, {"lat": 38.915503333333334, "is_disabled": 0, "type": "electric_scooter", "lon": -77.04187816666666, "bike_id": "ae6f79e20f412632f7941ebbabe1a714", "fusion_lat": 0.0, "name": "ae6f79e20f412632f7941ebbabe1a714", "is_reserved": 0, "rental_uris": {"android": "https://dc.lft.to/lastmile_qr_scan", "ios": "https://dc.lft.to/lastmile_qr_scan"}, "fusion_lon": 0.0}, {"lat": 38.89217416666666, "is_disabled": 0, "type": "electric_scooter", "lon": -76.99585766666667, "bike_id": "6154172bbeecc15e08187f1c2fee57a9", "fusion_lat": 0.0, "name": "6154172bbeecc15e08187f1c2fee57a9", "is_reserved": 0, "rental_uris": {"android": "https://dc.lft.to/lastmile_qr_scan", "ios": "https://dc.lft.to/lastmile_qr_scan"}, "fusion_lon": 0.0}, {"lat": 38.9117745, "is_disabled": 0, "type": "electric_scooter", "lon": -77.04844066666666, "bike_id": "65b2a76dfbe9348e861ef6c864affff2", "fusion_lat": 0.0, "name": "65b2a76dfbe9348e861ef6c864affff2", "is_reserved": 0, "rental_uris": {"android": "https://dc.lft.to/lastmile_qr_scan", "ios": "https://dc.lft.to/lastmile_qr_scan"}, "fusion_lon": 0.0}, {"lat": 38.9096395, "is_disabled": 0, "type": "electric_scooter", "lon": -76.9960385, "bike_id": "82e4016057dbd2472b8f4607512a1a81", "fusion_lat": 0.0, "name": "82e4016057dbd2472b8f4607512a1a81", "is_reserved": 0, "rental_uris": {"android": "https://dc.lft.to/lastmile_qr_scan", "ios": "https://dc.lft.to/lastmile_qr_scan"}, "fusion_lon": 0.0}, {"lat": 38.91466116666667, "is_disabled": 0, "type": "electric_bike", "lon": -77.04159866666667, "bike_id": "d692c212f7dfc0ab38cecf7cae596446", "fusion_lat": 0.0, "name": "d692c212f7dfc0ab38cecf7cae596446", "is_reserved": 0, "rental_uris": {"android": "https://dc.lft.to/lastmile_qr_scan", "ios": "https://dc.lft.to/lastmile_qr_scan"}, "fusion_lon": 0.0}, {"lat": 38.92951166666667, "is_disabled": 0, "type": "electric_scooter", "lon": -76.99088366666666, "bike_id": "ce29cd4338aa14e3f8bc8de1b8c350af", "fusion_lat": 0.0, "name": "ce29cd4338aa14e3f8bc8de1b8c350af", "is_reserved": 0, "rental_uris": {"android": "https://dc.lft.to/lastmile_qr_scan", "ios": "https://dc.lft.to/lastmile_qr_scan"}, "fusion_lon": 0.0}, {"lat": 38.88715633333333, "is_disabled": 0, "type": "electric_scooter", "lon": -76.99616483333334, "bike_id": "621617c3932153b9c514038667edd2a9", "fusion_lat": 0.0, "name": "621617c3932153b9c514038667edd2a9", "is_reserved": 0, "rental_uris": {"android": "https://dc.lft.to/lastmile_qr_scan", "ios": "https://dc.lft.to/lastmile_qr_scan"}, "fusion_lon": 0.0}, {"lat": 38.9109205, "is_disabled": 0, "type": "electric_scooter", "lon": -77.03186866666667, "bike_id": "f6a8d83b800e3b3b37ad52cda092ffcc", "fusion_lat": 0.0, "name": "f6a8d83b800e3b3b37ad52cda092ffcc", "is_reserved": 0, "rental_uris": {"android": "https://dc.lft.to/lastmile_qr_scan", "ios": "https://dc.lft.to/lastmile_qr_scan"}, "fusion_lon": 0.0}, {"lat": 38.89843033333333, "is_disabled": 0, "type": "electric_scooter", "lon": -76.946354, "bike_id": "1b8f568dbfb097519463bda27f6b28b2", "fusion_lat": 0.0, "name": "1b8f568dbfb097519463bda27f6b28b2", "is_reserved": 0, "rental_uris": {"android": "https://dc.lft.to/lastmile_qr_scan", "ios": "https://dc.lft.to/lastmile_qr_scan"}, "fusion_lon": 0.0}, {"lat": 38.89991466666667, "is_disabled": 0, "type": "electric_scooter", "lon": -76.99961383333333, "bike_id": "ef29337bd212ecbad74de6b1b33790d4", "fusion_lat": 0.0, "name": "ef29337bd212ecbad74de6b1b33790d4", "is_reserved": 0, "rental_uris": {"android": "https://dc.lft.to/lastmile_qr_scan", "ios": "https://dc.lft.to/lastmile_qr_scan"}, "fusion_lon": 0.0}, {"lat": 38.91542166666667, "is_disabled": 0, "type": "electric_scooter", "lon": -77.07417016666666, "bike_id": "c8133bbb3cc3e8f4ac995fc471199a48", "fusion_lat": 0.0, "name": "c8133bbb3cc3e8f4ac995fc471199a48", "is_reserved": 0, "rental_uris": {"android": "https://dc.lft.to/lastmile_qr_scan", "ios": "https://dc.lft.to/lastmile_qr_scan"}, "fusion_lon": 0.0}, {"lat": 38.90672033333333, "is_disabled": 0, "type": "electric_scooter", "lon": -77.027176, "bike_id": "ec30e93556b106aef53a4530106c4a77", "fusion_lat": 0.0, "name": "ec30e93556b106aef53a4530106c4a77", "is_reserved": 0, "rental_uris": {"android": "https://dc.lft.to/lastmile_qr_scan", "ios": "https://dc.lft.to/lastmile_qr_scan"}, "fusion_lon": 0.0}, {"lat": 38.89278183333333, "is_disabled": 0, "type": "electric_scooter", "lon": -76.958538, "bike_id": "76503c1349322dc2f960649bd4824078", "fusion_lat": 0.0, "name": "76503c1349322dc2f960649bd4824078", "is_reserved": 0, "rental_uris": {"android": "https://dc.lft.to/lastmile_qr_scan", "ios": "https://dc.lft.to/lastmile_qr_scan"}, "fusion_lon": 0.0}, {"lat": 38.91995633333333, "is_disabled": 0, "type": "electric_scooter", "lon": -77.03218783333334, "bike_id": "45a8ccc1c9ec47f5d94a3e37e654ca67", "fusion_lat": 0.0, "name": "45a8ccc1c9ec47f5d94a3e37e654ca67", "is_reserved": 0, "rental_uris": {"android": "https://dc.lft.to/lastmile_qr_scan", "ios": "https://dc.lft.to/lastmile_qr_scan"}, "fusion_lon": 0.0}, {"lat": 38.897451833333335, "is_disabled": 0, "type": "electric_scooter", "lon": -77.00076433333334, "bike_id": "b58d7c6eba69045542ce84fd4b27a721", "fusion_lat": 0.0, "name": "b58d7c6eba69045542ce84fd4b27a721", "is_reserved": 0, "rental_uris": {"android": "https://dc.lft.to/lastmile_qr_scan", "ios": "https://dc.lft.to/lastmile_qr_scan"}, "fusion_lon": 0.0}, {"lat": 38.898609, "is_disabled": 0, "type": "electric_scooter", "lon": -77.02007633333334, "bike_id": "8221116d6e9ca5ffa29070b28a82cc55", "fusion_lat": 0.0, "name": "8221116d6e9ca5ffa29070b28a82cc55", "is_reserved": 0, "rental_uris": {"android": "https://dc.lft.to/lastmile_qr_scan", "ios": "https://dc.lft.to/lastmile_qr_scan"}, "fusion_lon": 0.0}, {"lat": 38.922134166666666, "is_disabled": 0, "type": "electric_scooter", "lon": -77.04026783333333, "bike_id": "bd834ff89a50422db1313a5e22032b22", "fusion_lat": 0.0, "name": "bd834ff89a50422db1313a5e22032b22", "is_reserved": 0, "rental_uris": {"android": "https://dc.lft.to/lastmile_qr_scan", "ios": "https://dc.lft.to/lastmile_qr_scan"}, "fusion_lon": 0.0}, {"lat": 38.898286, "is_disabled": 0, "type": "electric_scooter", "lon": -77.0437595, "bike_id": "b0125ece3a638e4003c8253168602477", "fusion_lat": 0.0, "name": "b0125ece3a638e4003c8253168602477", "is_reserved": 0, "rental_uris": {"android": "https://dc.lft.to/lastmile_qr_scan", "ios": "https://dc.lft.to/lastmile_qr_scan"}, "fusion_lon": 0.0}, {"lat": 38.90783066666667, "is_disabled": 0, "type": "electric_scooter", "lon": -77.03195683333334, "bike_id": "8c3fcd046ac747e472fbdd9238f54a85", "fusion_lat": 0.0, "name": "8c3fcd046ac747e472fbdd9238f54a85", "is_reserved": 0, "rental_uris": {"android": "https://dc.lft.to/lastmile_qr_scan", "ios": "https://dc.lft.to/lastmile_qr_scan"}, "fusion_lon": 0.0}, {"lat": 38.9331555, "is_disabled": 0, "type": "electric_scooter", "lon": -77.0452025, "bike_id": "f04c5bd5d1015bcaa457533a0f4f81e1", "fusion_lat": 0.0, "name": "f04c5bd5d1015bcaa457533a0f4f81e1", "is_reserved": 0, "rental_uris": {"android": "https://dc.lft.to/lastmile_qr_scan", "ios": "https://dc.lft.to/lastmile_qr_scan"}, "fusion_lon": 0.0}, {"lat": 38.86675416666667, "is_disabled": 0, "type": "electric_scooter", "lon": -76.98542383333333, "bike_id": "4c8e34d7022a2e84eeb08f5344f474e2", "fusion_lat": 0.0, "name": "4c8e34d7022a2e84eeb08f5344f474e2", "is_reserved": 0, "rental_uris": {"android": "https://dc.lft.to/lastmile_qr_scan", "ios": "https://dc.lft.to/lastmile_qr_scan"}, "fusion_lon": 0.0}, {"lat": 38.902537, "is_disabled": 0, "type": "electric_scooter", "lon": -77.01753266666667, "bike_id": "94cf4ae492a66efb5c47e3a9b39a973c", "fusion_lat": 0.0, "name": "94cf4ae492a66efb5c47e3a9b39a973c", "is_reserved": 0, "rental_uris": {"android": "https://dc.lft.to/lastmile_qr_scan", "ios": "https://dc.lft.to/lastmile_qr_scan"}, "fusion_lon": 0.0}, {"lat": 38.87729, "is_disabled": 0, "type": "electric_bike", "lon": -76.98104416666666, "bike_id": "37b548d080b0c9f24ccc244edd8d69e5", "fusion_lat": 0.0, "name": "37b548d080b0c9f24ccc244edd8d69e5", "is_reserved": 0, "rental_uris": {"android": "https://dc.lft.to/lastmile_qr_scan", "ios": "https://dc.lft.to/lastmile_qr_scan"}, "fusion_lon": 0.0}, {"lat": 38.90692933333333, "is_disabled": 0, "type": "electric_scooter", "lon": -77.03771883333333, "bike_id": "796c6f721c368cfa507cebacccda7451", "fusion_lat": 0.0, "name": "796c6f721c368cfa507cebacccda7451", "is_reserved": 0, "rental_uris": {"android": "https://dc.lft.to/lastmile_qr_scan", "ios": "https://dc.lft.to/lastmile_qr_scan"}, "fusion_lon": 0.0}, {"lat": 38.897694, "is_disabled": 0, "type": "electric_scooter", "lon": -77.02696033333334, "bike_id": "a54c49495bdcb1674f5a961ef30b2259", "fusion_lat": 0.0, "name": "a54c49495bdcb1674f5a961ef30b2259", "is_reserved": 0, "rental_uris": {"android": "https://dc.lft.to/lastmile_qr_scan", "ios": "https://dc.lft.to/lastmile_qr_scan"}, "fusion_lon": 0.0}, {"lat": 38.905732, "is_disabled": 0, "type": "electric_scooter", "lon": -77.04867783333333, "bike_id": "a8e72693e5df02817d311a9d084ead7f", "fusion_lat": 0.0, "name": "a8e72693e5df02817d311a9d084ead7f", "is_reserved": 0, "rental_uris": {"android": "https://dc.lft.to/lastmile_qr_scan", "ios": "https://dc.lft.to/lastmile_qr_scan"}, "fusion_lon": 0.0}, {"lat": 38.85925783333333, "is_disabled": 0, "type": "electric_scooter", "lon": -76.9970495, "bike_id": "e13babb28812b042464bca658ab5c477", "fusion_lat": 0.0, "name": "e13babb28812b042464bca658ab5c477", "is_reserved": 0, "rental_uris": {"android": "https://dc.lft.to/lastmile_qr_scan", "ios": "https://dc.lft.to/lastmile_qr_scan"}, "fusion_lon": 0.0}, {"lat": 38.92154516666667, "is_disabled": 0, "type": "electric_scooter", "lon": -77.035123, "bike_id": "df63a4340d394c1f36e87027190c30d3", "fusion_lat": 0.0, "name": "df63a4340d394c1f36e87027190c30d3", "is_reserved": 0, "rental_uris": {"android": "https://dc.lft.to/lastmile_qr_scan", "ios": "https://dc.lft.to/lastmile_qr_scan"}, "fusion_lon": 0.0}, {"lat": 38.90591366666666, "is_disabled": 0, "type": "electric_scooter", "lon": -77.0435675, "bike_id": "71fd0297052b49752bf65520ec25b373", "fusion_lat": 0.0, "name": "71fd0297052b49752bf65520ec25b373", "is_reserved": 0, "rental_uris": {"android": "https://dc.lft.to/lastmile_qr_scan", "ios": "https://dc.lft.to/lastmile_qr_scan"}, "fusion_lon": 0.0}, {"lat": 38.95777, "is_disabled": 0, "type": "electric_scooter", "lon": -77.0275285, "bike_id": "5c9d326b9b58f32988b5df8c207ae0b0", "fusion_lat": 0.0, "name": "5c9d326b9b58f32988b5df8c207ae0b0", "is_reserved": 0, "rental_uris": {"android": "https://dc.lft.to/lastmile_qr_scan", "ios": "https://dc.lft.to/lastmile_qr_scan"}, "fusion_lon": 0.0}, {"lat": 38.917990833333334, "is_disabled": 0, "type": "electric_scooter", "lon": -77.04013766666667, "bike_id": "a417205c208156ae3f4f75947a0304c1", "fusion_lat": 0.0, "name": "a417205c208156ae3f4f75947a0304c1", "is_reserved": 0, "rental_uris": {"android": "https://dc.lft.to/lastmile_qr_scan", "ios": "https://dc.lft.to/lastmile_qr_scan"}, "fusion_lon": 0.0}, {"lat": 38.91790666666667, "is_disabled": 0, "type": "electric_scooter", "lon": -77.034348, "bike_id": "4556de0fc1dcc8ec03181df17e767cf5", "fusion_lat": 0.0, "name": "4556de0fc1dcc8ec03181df17e767cf5", "is_reserved": 0, "rental_uris": {"android": "https://dc.lft.to/lastmile_qr_scan", "ios": "https://dc.lft.to/lastmile_qr_scan"}, "fusion_lon": 0.0}, {"lat": 38.8762365, "is_disabled": 0, "type": "electric_scooter", "lon": -76.96530116666666, "bike_id": "145d7b91d8f5da06b83f4d0500472566", "fusion_lat": 0.0, "name": "145d7b91d8f5da06b83f4d0500472566", "is_reserved": 0, "rental_uris": {"android": "https://dc.lft.to/lastmile_qr_scan", "ios": "https://dc.lft.to/lastmile_qr_scan"}, "fusion_lon": 0.0}, {"lat": 38.902751, "is_disabled": 0, "type": "electric_scooter", "lon": -77.0579945, "bike_id": "f9b0da0d3ab6a8e31a24cdaa4fb98a33", "fusion_lat": 0.0, "name": "f9b0da0d3ab6a8e31a24cdaa4fb98a33", "is_reserved": 0, "rental_uris": {"android": "https://dc.lft.to/lastmile_qr_scan", "ios": "https://dc.lft.to/lastmile_qr_scan"}, "fusion_lon": 0.0}, {"lat": 38.9181985, "is_disabled": 0, "type": "electric_scooter", "lon": -77.03188633333333, "bike_id": "de539c6bd940cd57ba0f052ddbbc42cc", "fusion_lat": 0.0, "name": "de539c6bd940cd57ba0f052ddbbc42cc", "is_reserved": 0, "rental_uris": {"android": "https://dc.lft.to/lastmile_qr_scan", "ios": "https://dc.lft.to/lastmile_qr_scan"}, "fusion_lon": 0.0}, {"lat": 38.903544, "is_disabled": 0, "type": "electric_scooter", "lon": -77.01098016666667, "bike_id": "e35ebed7638d275264c1b0baf69f7cf5", "fusion_lat": 0.0, "name": "e35ebed7638d275264c1b0baf69f7cf5", "is_reserved": 0, "rental_uris": {"android": "https://dc.lft.to/lastmile_qr_scan", "ios": "https://dc.lft.to/lastmile_qr_scan"}, "fusion_lon": 0.0}, {"lat": 38.90074216666667, "is_disabled": 0, "type": "electric_scooter", "lon": -77.02717083333333, "bike_id": "94b959d418374c862febc44f17e301d6", "fusion_lat": 0.0, "name": "94b959d418374c862febc44f17e301d6", "is_reserved": 0, "rental_uris": {"android": "https://dc.lft.to/lastmile_qr_scan", "ios": "https://dc.lft.to/lastmile_qr_scan"}, "fusion_lon": 0.0}, {"lat": 38.90561366666667, "is_disabled": 0, "type": "electric_scooter", "lon": -77.01672166666667, "bike_id": "a91e1b5d76c588ea01ad8dac508b3bd1", "fusion_lat": 0.0, "name": "a91e1b5d76c588ea01ad8dac508b3bd1", "is_reserved": 0, "rental_uris": {"android": "https://dc.lft.to/lastmile_qr_scan", "ios": "https://dc.lft.to/lastmile_qr_scan"}, "fusion_lon": 0.0}, {"lat": 38.887445, "is_disabled": 0, "type": "electric_scooter", "lon": -76.98359266666667, "bike_id": "4a8a2f4d8657273075a6c8ec5214e88d", "fusion_lat": 0.0, "name": "4a8a2f4d8657273075a6c8ec5214e88d", "is_reserved": 0, "rental_uris": {"android": "https://dc.lft.to/lastmile_qr_scan", "ios": "https://dc.lft.to/lastmile_qr_scan"}, "fusion_lon": 0.0}, {"lat": 38.840271666666666, "is_disabled": 0, "type": "electric_bike", "lon": -76.97584183333333, "bike_id": "abe7cdee21ae3887d5114a26c5d48519", "fusion_lat": 0.0, "name": "abe7cdee21ae3887d5114a26c5d48519", "is_reserved": 0, "rental_uris": {"android": "https://dc.lft.to/lastmile_qr_scan", "ios": "https://dc.lft.to/lastmile_qr_scan"}, "fusion_lon": 0.0}, {"lat": 38.909408166666665, "is_disabled": 0, "type": "electric_scooter", "lon": -76.98962083333333, "bike_id": "1e70c918feb8f3a51dcf146ed4a7ab4d", "fusion_lat": 0.0, "name": "1e70c918feb8f3a51dcf146ed4a7ab4d", "is_reserved": 0, "rental_uris": {"android": "https://dc.lft.to/lastmile_qr_scan", "ios": "https://dc.lft.to/lastmile_qr_scan"}, "fusion_lon": 0.0}, {"lat": 38.935248666666666, "is_disabled": 0, "type": "electric_scooter", "lon": -77.0728365, "bike_id": "9883cfbaeba99a4fe7044a891594d8f1", "fusion_lat": 0.0, "name": "9883cfbaeba99a4fe7044a891594d8f1", "is_reserved": 0, "rental_uris": {"android": "https://dc.lft.to/lastmile_qr_scan", "ios": "https://dc.lft.to/lastmile_qr_scan"}, "fusion_lon": 0.0}, {"lat": 38.866972833333335, "is_disabled": 0, "type": "electric_scooter", "lon": -76.987128, "bike_id": "6bb7802eb7233f34360ec7775d8a988d", "fusion_lat": 0.0, "name": "6bb7802eb7233f34360ec7775d8a988d", "is_reserved": 0, "rental_uris": {"android": "https://dc.lft.to/lastmile_qr_scan", "ios": "https://dc.lft.to/lastmile_qr_scan"}, "fusion_lon": 0.0}, {"lat": 38.874089833333336, "is_disabled": 0, "type": "electric_bike", "lon": -76.96572633333334, "bike_id": "323774bae79ebda8e28c7d9e8d1e94e7", "fusion_lat": 0.0, "name": "323774bae79ebda8e28c7d9e8d1e94e7", "is_reserved": 0, "rental_uris": {"android": "https://dc.lft.to/lastmile_qr_scan", "ios": "https://dc.lft.to/lastmile_qr_scan"}, "fusion_lon": 0.0}, {"lat": 38.911084333333335, "is_disabled": 0, "type": "electric_scooter", "lon": -77.0233685, "bike_id": "39c5f170a5ffd0db779ef19dd0529eb2", "fusion_lat": 0.0, "name": "39c5f170a5ffd0db779ef19dd0529eb2", "is_reserved": 0, "rental_uris": {"android": "https://dc.lft.to/lastmile_qr_scan", "ios": "https://dc.lft.to/lastmile_qr_scan"}, "fusion_lon": 0.0}, {"lat": 38.916562166666665, "is_disabled": 0, "type": "electric_scooter", "lon": -77.02187983333333, "bike_id": "dcd454a4ca7ca3318a59778035735dcd", "fusion_lat": 0.0, "name": "dcd454a4ca7ca3318a59778035735dcd", "is_reserved": 0, "rental_uris": {"android": "https://dc.lft.to/lastmile_qr_scan", "ios": "https://dc.lft.to/lastmile_qr_scan"}, "fusion_lon": 0.0}, {"lat": 38.907991333333335, "is_disabled": 0, "type": "electric_scooter", "lon": -77.04341416666666, "bike_id": "b7f3d701fa7b2fcad36ffc153f3fd9e7", "fusion_lat": 0.0, "name": "b7f3d701fa7b2fcad36ffc153f3fd9e7", "is_reserved": 0, "rental_uris": {"android": "https://dc.lft.to/lastmile_qr_scan", "ios": "https://dc.lft.to/lastmile_qr_scan"}, "fusion_lon": 0.0}, {"lat": 38.918247, "is_disabled": 0, "type": "electric_scooter", "lon": -77.02419, "bike_id": "7fa4c5e3aca3a8cb8b34174c1682be81", "fusion_lat": 0.0, "name": "7fa4c5e3aca3a8cb8b34174c1682be81", "is_reserved": 0, "rental_uris": {"android": "https://dc.lft.to/lastmile_qr_scan", "ios": "https://dc.lft.to/lastmile_qr_scan"}, "fusion_lon": 0.0}, {"lat": 38.91343066666667, "is_disabled": 0, "type": "electric_scooter", "lon": -77.0319975, "bike_id": "8a1052f50ef57f4fdd9a0fd694473ad1", "fusion_lat": 0.0, "name": "8a1052f50ef57f4fdd9a0fd694473ad1", "is_reserved": 0, "rental_uris": {"android": "https://dc.lft.to/lastmile_qr_scan", "ios": "https://dc.lft.to/lastmile_qr_scan"}, "fusion_lon": 0.0}, {"lat": 38.85460333333333, "is_disabled": 0, "type": "electric_scooter", "lon": -76.97236316666667, "bike_id": "e4dd9051b43bb66185e6a142b4ec77b2", "fusion_lat": 0.0, "name": "e4dd9051b43bb66185e6a142b4ec77b2", "is_reserved": 0, "rental_uris": {"android": "https://dc.lft.to/lastmile_qr_scan", "ios": "https://dc.lft.to/lastmile_qr_scan"}, "fusion_lon": 0.0}, {"lat": 38.9028775, "is_disabled": 0, "type": "electric_bike", "lon": -77.06344883333334, "bike_id": "6273b5e22bbdcc17a988e4c1ab735938", "fusion_lat": 0.0, "name": "6273b5e22bbdcc17a988e4c1ab735938", "is_reserved": 0, "rental_uris": {"android": "https://dc.lft.to/lastmile_qr_scan", "ios": "https://dc.lft.to/lastmile_qr_scan"}, "fusion_lon": 0.0}, {"lat": 38.9112465, "is_disabled": 0, "type": "electric_scooter", "lon": -77.02692183333333, "bike_id": "2447a979eb0b5fd88568fdd2711bf055", "fusion_lat": 0.0, "name": "2447a979eb0b5fd88568fdd2711bf055", "is_reserved": 0, "rental_uris": {"android": "https://dc.lft.to/lastmile_qr_scan", "ios": "https://dc.lft.to/lastmile_qr_scan"}, "fusion_lon": 0.0}, {"lat": 38.9095845, "is_disabled": 0, "type": "electric_scooter", "lon": -77.03817, "bike_id": "3a4c1d8e877241565645b554df4773e9", "fusion_lat": 0.0, "name": "3a4c1d8e877241565645b554df4773e9", "is_reserved": 0, "rental_uris": {"android": "https://dc.lft.to/lastmile_qr_scan", "ios": "https://dc.lft.to/lastmile_qr_scan"}, "fusion_lon": 0.0}, {"lat": 38.978346333333334, "is_disabled": 0, "type": "electric_bike", "lon": -77.0264055, "bike_id": "16ccb9c709d1a8a02522a682169f2407", "fusion_lat": 0.0, "name": "16ccb9c709d1a8a02522a682169f2407", "is_reserved": 0, "rental_uris": {"android": "https://dc.lft.to/lastmile_qr_scan", "ios": "https://dc.lft.to/lastmile_qr_scan"}, "fusion_lon": 0.0}, {"lat": 38.8900515, "is_disabled": 0, "type": "electric_scooter", "lon": -76.93757016666666, "bike_id": "ca687d154591b0159b70a26016467833", "fusion_lat": 0.0, "name": "ca687d154591b0159b70a26016467833", "is_reserved": 0, "rental_uris": {"android": "https://dc.lft.to/lastmile_qr_scan", "ios": "https://dc.lft.to/lastmile_qr_scan"}, "fusion_lon": 0.0}, {"lat": 38.92336916666667, "is_disabled": 0, "type": "electric_scooter", "lon": -77.05032566666667, "bike_id": "70b60828f68f502c7db2b658c81d5492", "fusion_lat": 0.0, "name": "70b60828f68f502c7db2b658c81d5492", "is_reserved": 0, "rental_uris": {"android": "https://dc.lft.to/lastmile_qr_scan", "ios": "https://dc.lft.to/lastmile_qr_scan"}, "fusion_lon": 0.0}, {"lat": 38.97229083333333, "is_disabled": 0, "type": "electric_bike", "lon": -76.99341816666667, "bike_id": "f7cc6ef82168f9104725a7252682cadf", "fusion_lat": 0.0, "name": "f7cc6ef82168f9104725a7252682cadf", "is_reserved": 0, "rental_uris": {"android": "https://dc.lft.to/lastmile_qr_scan", "ios": "https://dc.lft.to/lastmile_qr_scan"}, "fusion_lon": 0.0}, {"lat": 38.928747, "is_disabled": 0, "type": "electric_scooter", "lon": -77.03303966666667, "bike_id": "7f4494710e4f15fae1f390f6afd31b4e", "fusion_lat": 0.0, "name": "7f4494710e4f15fae1f390f6afd31b4e", "is_reserved": 0, "rental_uris": {"android": "https://dc.lft.to/lastmile_qr_scan", "ios": "https://dc.lft.to/lastmile_qr_scan"}, "fusion_lon": 0.0}, {"lat": 38.90248966666667, "is_disabled": 0, "type": "electric_scooter", "lon": -77.02822933333333, "bike_id": "dfeb8507fd11e76b79515d83226bf711", "fusion_lat": 0.0, "name": "dfeb8507fd11e76b79515d83226bf711", "is_reserved": 0, "rental_uris": {"android": "https://dc.lft.to/lastmile_qr_scan", "ios": "https://dc.lft.to/lastmile_qr_scan"}, "fusion_lon": 0.0}, {"lat": 38.909754666666664, "is_disabled": 0, "type": "electric_scooter", "lon": -77.0318845, "bike_id": "dfdd744bff2b7c903b15690a898e68c3", "fusion_lat": 0.0, "name": "dfdd744bff2b7c903b15690a898e68c3", "is_reserved": 0, "rental_uris": {"android": "https://dc.lft.to/lastmile_qr_scan", "ios": "https://dc.lft.to/lastmile_qr_scan"}, "fusion_lon": 0.0}, {"lat": 38.90832666666667, "is_disabled": 0, "type": "electric_scooter", "lon": -76.99697133333333, "bike_id": "3e0c6c70ab6639110a633d48ba2d625c", "fusion_lat": 0.0, "name": "3e0c6c70ab6639110a633d48ba2d625c", "is_reserved": 0, "rental_uris": {"android": "https://dc.lft.to/lastmile_qr_scan", "ios": "https://dc.lft.to/lastmile_qr_scan"}, "fusion_lon": 0.0}, {"lat": 38.88364883333333, "is_disabled": 0, "type": "electric_scooter", "lon": -76.9950665, "bike_id": "7ba1f6d00851531aedf254f1ae0a8a33", "fusion_lat": 0.0, "name": "7ba1f6d00851531aedf254f1ae0a8a33", "is_reserved": 0, "rental_uris": {"android": "https://dc.lft.to/lastmile_qr_scan", "ios": "https://dc.lft.to/lastmile_qr_scan"}, "fusion_lon": 0.0}, {"lat": 38.9223165, "is_disabled": 0, "type": "electric_scooter", "lon": -77.045741, "bike_id": "05761dd55201db5d53a4106d78aba131", "fusion_lat": 0.0, "name": "05761dd55201db5d53a4106d78aba131", "is_reserved": 0, "rental_uris": {"android": "https://dc.lft.to/lastmile_qr_scan", "ios": "https://dc.lft.to/lastmile_qr_scan"}, "fusion_lon": 0.0}, {"lat": 38.84422766666667, "is_disabled": 0, "type": "electric_scooter", "lon": -76.997796, "bike_id": "33faee66a97b760db081a60d2efb2558", "fusion_lat": 0.0, "name": "33faee66a97b760db081a60d2efb2558", "is_reserved": 0, "rental_uris": {"android": "https://dc.lft.to/lastmile_qr_scan", "ios": "https://dc.lft.to/lastmile_qr_scan"}, "fusion_lon": 0.0}, {"lat": 38.933195833333336, "is_disabled": 0, "type": "electric_scooter", "lon": -77.04526733333333, "bike_id": "2bd34fe05a82f50dc73c8fd34c1d1057", "fusion_lat": 0.0, "name": "2bd34fe05a82f50dc73c8fd34c1d1057", "is_reserved": 0, "rental_uris": {"android": "https://dc.lft.to/lastmile_qr_scan", "ios": "https://dc.lft.to/lastmile_qr_scan"}, "fusion_lon": 0.0}, {"lat": 38.87663716666667, "is_disabled": 0, "type": "electric_scooter", "lon": -77.0041495, "bike_id": "2b3d310ffe8fa5de0bd5c71ef862bc2a", "fusion_lat": 0.0, "name": "2b3d310ffe8fa5de0bd5c71ef862bc2a", "is_reserved": 0, "rental_uris": {"android": "https://dc.lft.to/lastmile_qr_scan", "ios": "https://dc.lft.to/lastmile_qr_scan"}, "fusion_lon": 0.0}, {"lat": 38.99810683333333, "is_disabled": 0, "type": "electric_bike", "lon": -76.88368883333334, "bike_id": "6c37e36e8eae85c024e9c5e5d3e70ac2", "fusion_lat": 0.0, "name": "6c37e36e8eae85c024e9c5e5d3e70ac2", "is_reserved": 0, "rental_uris": {"android": "https://dc.lft.to/lastmile_qr_scan", "ios": "https://dc.lft.to/lastmile_qr_scan"}, "fusion_lon": 0.0}, {"lat": 38.892033833333336, "is_disabled": 0, "type": "electric_scooter", "lon": -76.98560633333334, "bike_id": "0fce46bab90ae7b01389b4bea78d9d8e", "fusion_lat": 0.0, "name": "0fce46bab90ae7b01389b4bea78d9d8e", "is_reserved": 0, "rental_uris": {"android": "https://dc.lft.to/lastmile_qr_scan", "ios": "https://dc.lft.to/lastmile_qr_scan"}, "fusion_lon": 0.0}, {"lat": 39.02423916666667, "is_disabled": 0, "type": "electric_bike", "lon": -77.131103, "bike_id": "4264e82b7115db0cc6b96bbf395fa69d", "fusion_lat": 0.0, "name": "4264e82b7115db0cc6b96bbf395fa69d", "is_reserved": 0, "rental_uris": {"android": "https://dc.lft.to/lastmile_qr_scan", "ios": "https://dc.lft.to/lastmile_qr_scan"}, "fusion_lon": 0.0}, {"lat": 38.94308866666667, "is_disabled": 0, "type": "electric_scooter", "lon": -77.0617405, "bike_id": "0d25bebc12d18eb05ea249155e3ed7f9", "fusion_lat": 0.0, "name": "0d25bebc12d18eb05ea249155e3ed7f9", "is_reserved": 0, "rental_uris": {"android": "https://dc.lft.to/lastmile_qr_scan", "ios": "https://dc.lft.to/lastmile_qr_scan"}, "fusion_lon": 0.0}, {"lat": 38.9385335, "is_disabled": 0, "type": "electric_scooter", "lon": -77.030986, "bike_id": "1c7a28c9c8ed66b00fa392628a2e4c27", "fusion_lat": 0.0, "name": "1c7a28c9c8ed66b00fa392628a2e4c27", "is_reserved": 0, "rental_uris": {"android": "https://dc.lft.to/lastmile_qr_scan", "ios": "https://dc.lft.to/lastmile_qr_scan"}, "fusion_lon": 0.0}, {"lat": 39.03039866666666, "is_disabled": 0, "type": "electric_bike", "lon": -77.0948115, "bike_id": "fa354de1f9ba9685af76a78a7f66ec70", "fusion_lat": 0.0, "name": "fa354de1f9ba9685af76a78a7f66ec70", "is_reserved": 0, "rental_uris": {"android": "https://dc.lft.to/lastmile_qr_scan", "ios": "https://dc.lft.to/lastmile_qr_scan"}, "fusion_lon": 0.0}, {"lat": 38.9138485, "is_disabled": 0, "type": "electric_scooter", "lon": -77.01703366666666, "bike_id": "1399d3aa7de628af9f9df71106f8a035", "fusion_lat": 0.0, "name": "1399d3aa7de628af9f9df71106f8a035", "is_reserved": 0, "rental_uris": {"android": "https://dc.lft.to/lastmile_qr_scan", "ios": "https://dc.lft.to/lastmile_qr_scan"}, "fusion_lon": 0.0}, {"lat": 38.89524083333333, "is_disabled": 0, "type": "electric_scooter", "lon": -76.94889516666667, "bike_id": "6dbb3c18816578155164f091133a8d8f", "fusion_lat": 0.0, "name": "6dbb3c18816578155164f091133a8d8f", "is_reserved": 0, "rental_uris": {"android": "https://dc.lft.to/lastmile_qr_scan", "ios": "https://dc.lft.to/lastmile_qr_scan"}, "fusion_lon": 0.0}, {"lat": 38.910296, "is_disabled": 0, "type": "electric_scooter", "lon": -76.99347566666667, "bike_id": "af3196088bf2efb8b5400826e77147e3", "fusion_lat": 0.0, "name": "af3196088bf2efb8b5400826e77147e3", "is_reserved": 0, "rental_uris": {"android": "https://dc.lft.to/lastmile_qr_scan", "ios": "https://dc.lft.to/lastmile_qr_scan"}, "fusion_lon": 0.0}, {"lat": 38.913376666666665, "is_disabled": 0, "type": "electric_scooter", "lon": -77.031641, "bike_id": "eaac3491d0d59d03c9282140a2945906", "fusion_lat": 0.0, "name": "eaac3491d0d59d03c9282140a2945906", "is_reserved": 0, "rental_uris": {"android": "https://dc.lft.to/lastmile_qr_scan", "ios": "https://dc.lft.to/lastmile_qr_scan"}, "fusion_lon": 0.0}, {"lat": 38.886707666666666, "is_disabled": 0, "type": "electric_scooter", "lon": -76.98558616666666, "bike_id": "2051decf480d4f93e866fd7dea641202", "fusion_lat": 0.0, "name": "2051decf480d4f93e866fd7dea641202", "is_reserved": 0, "rental_uris": {"android": "https://dc.lft.to/lastmile_qr_scan", "ios": "https://dc.lft.to/lastmile_qr_scan"}, "fusion_lon": 0.0}, {"lat": 38.917074166666666, "is_disabled": 0, "type": "electric_scooter", "lon": -77.02570483333334, "bike_id": "f14f07ad3628d212457154c18cdb20a9", "fusion_lat": 0.0, "name": "f14f07ad3628d212457154c18cdb20a9", "is_reserved": 0, "rental_uris": {"android": "https://dc.lft.to/lastmile_qr_scan", "ios": "https://dc.lft.to/lastmile_qr_scan"}, "fusion_lon": 0.0}, {"lat": 38.91115883333333, "is_disabled": 0, "type": "electric_scooter", "lon": -77.0432585, "bike_id": "4dee4cafc05143a9e3b00f22078c1bb7", "fusion_lat": 0.0, "name": "4dee4cafc05143a9e3b00f22078c1bb7", "is_reserved": 0, "rental_uris": {"android": "https://dc.lft.to/lastmile_qr_scan", "ios": "https://dc.lft.to/lastmile_qr_scan"}, "fusion_lon": 0.0}, {"lat": 38.904102, "is_disabled": 0, "type": "electric_scooter", "lon": -77.0258805, "bike_id": "d6f4117e2f8510ec44ced29d7e8be2eb", "fusion_lat": 0.0, "name": "d6f4117e2f8510ec44ced29d7e8be2eb", "is_reserved": 0, "rental_uris": {"android": "https://dc.lft.to/lastmile_qr_scan", "ios": "https://dc.lft.to/lastmile_qr_scan"}, "fusion_lon": 0.0}, {"lat": 38.9256625, "is_disabled": 0, "type": "electric_scooter", "lon": -77.057497, "bike_id": "1a858ed4a254a2fc79ff7fb013a03bac", "fusion_lat": 0.0, "name": "1a858ed4a254a2fc79ff7fb013a03bac", "is_reserved": 0, "rental_uris": {"android": "https://dc.lft.to/lastmile_qr_scan", "ios": "https://dc.lft.to/lastmile_qr_scan"}, "fusion_lon": 0.0}, {"lat": 38.9037005, "is_disabled": 0, "type": "electric_scooter", "lon": -77.01835933333334, "bike_id": "07aa03dec4a62d49dcdd934d14b2efae", "fusion_lat": 0.0, "name": "07aa03dec4a62d49dcdd934d14b2efae", "is_reserved": 0, "rental_uris": {"android": "https://dc.lft.to/lastmile_qr_scan", "ios": "https://dc.lft.to/lastmile_qr_scan"}, "fusion_lon": 0.0}, {"lat": 38.919228333333336, "is_disabled": 0, "type": "electric_scooter", "lon": -77.04817033333333, "bike_id": "1d36b6a1783ad6d1d781e2e1af436a29", "fusion_lat": 0.0, "name": "1d36b6a1783ad6d1d781e2e1af436a29", "is_reserved": 0, "rental_uris": {"android": "https://dc.lft.to/lastmile_qr_scan", "ios": "https://dc.lft.to/lastmile_qr_scan"}, "fusion_lon": 0.0}, {"lat": 38.900009, "is_disabled": 0, "type": "electric_scooter", "lon": -76.99855283333333, "bike_id": "e20bd097280f7164f10688f170f67477", "fusion_lat": 0.0, "name": "e20bd097280f7164f10688f170f67477", "is_reserved": 0, "rental_uris": {"android": "https://dc.lft.to/lastmile_qr_scan", "ios": "https://dc.lft.to/lastmile_qr_scan"}, "fusion_lon": 0.0}, {"lat": 38.89771283333333, "is_disabled": 0, "type": "electric_bike", "lon": -76.9044245, "bike_id": "109ca2a97e63f27c42df2632b395b329", "fusion_lat": 0.0, "name": "109ca2a97e63f27c42df2632b395b329", "is_reserved": 0, "rental_uris": {"android": "https://dc.lft.to/lastmile_qr_scan", "ios": "https://dc.lft.to/lastmile_qr_scan"}, "fusion_lon": 0.0}, {"lat": 38.9284085, "is_disabled": 0, "type": "electric_scooter", "lon": -77.01592983333333, "bike_id": "f0c1fbe8c489b23a215ebda109c0ea37", "fusion_lat": 0.0, "name": "f0c1fbe8c489b23a215ebda109c0ea37", "is_reserved": 0, "rental_uris": {"android": "https://dc.lft.to/lastmile_qr_scan", "ios": "https://dc.lft.to/lastmile_qr_scan"}, "fusion_lon": 0.0}, {"lat": 38.9036735, "is_disabled": 0, "type": "electric_scooter", "lon": -77.04483933333333, "bike_id": "e1ef46eb5a0c4056e3f4e124ef7b1569", "fusion_lat": 0.0, "name": "e1ef46eb5a0c4056e3f4e124ef7b1569", "is_reserved": 0, "rental_uris": {"android": "https://dc.lft.to/lastmile_qr_scan", "ios": "https://dc.lft.to/lastmile_qr_scan"}, "fusion_lon": 0.0}, {"lat": 38.87645116666667, "is_disabled": 0, "type": "electric_scooter", "lon": -77.00423666666667, "bike_id": "eeda15226037a0d37a3f064f24669503", "fusion_lat": 0.0, "name": "eeda15226037a0d37a3f064f24669503", "is_reserved": 0, "rental_uris": {"android": "https://dc.lft.to/lastmile_qr_scan", "ios": "https://dc.lft.to/lastmile_qr_scan"}, "fusion_lon": 0.0}, {"lat": 38.85207033333333, "is_disabled": 0, "type": "electric_bike", "lon": -76.985524, "bike_id": "4dec5f630915093598b771a53432f2dc", "fusion_lat": 0.0, "name": "4dec5f630915093598b771a53432f2dc", "is_reserved": 0, "rental_uris": {"android": "https://dc.lft.to/lastmile_qr_scan", "ios": "https://dc.lft.to/lastmile_qr_scan"}, "fusion_lon": 0.0}, {"lat": 38.93249, "is_disabled": 0, "type": "electric_scooter", "lon": -77.032778, "bike_id": "87cafbb79a38fc5156b09a6f5592134c", "fusion_lat": 0.0, "name": "87cafbb79a38fc5156b09a6f5592134c", "is_reserved": 0, "rental_uris": {"android": "https://dc.lft.to/lastmile_qr_scan", "ios": "https://dc.lft.to/lastmile_qr_scan"}, "fusion_lon": 0.0}, {"lat": 38.9352045, "is_disabled": 0, "type": "electric_scooter", "lon": -77.03265616666667, "bike_id": "453591d638bdb421e209e1789532befd", "fusion_lat": 0.0, "name": "453591d638bdb421e209e1789532befd", "is_reserved": 0, "rental_uris": {"android": "https://dc.lft.to/lastmile_qr_scan", "ios": "https://dc.lft.to/lastmile_qr_scan"}, "fusion_lon": 0.0}, {"lat": 38.956287333333336, "is_disabled": 0, "type": "electric_bike", "lon": -76.9388285, "bike_id": "f0dabc22744af0412b37faf43eda6d9e", "fusion_lat": 0.0, "name": "f0dabc22744af0412b37faf43eda6d9e", "is_reserved": 0, "rental_uris": {"android": "https://dc.lft.to/lastmile_qr_scan", "ios": "https://dc.lft.to/lastmile_qr_scan"}, "fusion_lon": 0.0}, {"lat": 38.926666833333336, "is_disabled": 0, "type": "electric_scooter", "lon": -76.99538483333333, "bike_id": "54ad46d2c9bb0c415067fdfaa2f9d519", "fusion_lat": 0.0, "name": "54ad46d2c9bb0c415067fdfaa2f9d519", "is_reserved": 0, "rental_uris": {"android": "https://dc.lft.to/lastmile_qr_scan", "ios": "https://dc.lft.to/lastmile_qr_scan"}, "fusion_lon": 0.0}, {"lat": 38.901045333333336, "is_disabled": 0, "type": "electric_bike", "lon": -77.04875033333333, "bike_id": "a29996c091b0b880a713f81833dc7833", "fusion_lat": 0.0, "name": "a29996c091b0b880a713f81833dc7833", "is_reserved": 0, "rental_uris": {"android": "https://dc.lft.to/lastmile_qr_scan", "ios": "https://dc.lft.to/lastmile_qr_scan"}, "fusion_lon": 0.0}, {"lat": 38.95874333333333, "is_disabled": 0, "type": "electric_bike", "lon": -77.01035116666667, "bike_id": "717e0b6b724f6371f93aa9bcc3e9a6b1", "fusion_lat": 0.0, "name": "717e0b6b724f6371f93aa9bcc3e9a6b1", "is_reserved": 0, "rental_uris": {"android": "https://dc.lft.to/lastmile_qr_scan", "ios": "https://dc.lft.to/lastmile_qr_scan"}, "fusion_lon": 0.0}, {"lat": 38.90949783333333, "is_disabled": 0, "type": "electric_scooter", "lon": -77.0346465, "bike_id": "e6528027c7793f6e82fd753bac2bdba3", "fusion_lat": 0.0, "name": "e6528027c7793f6e82fd753bac2bdba3", "is_reserved": 0, "rental_uris": {"android": "https://dc.lft.to/lastmile_qr_scan", "ios": "https://dc.lft.to/lastmile_qr_scan"}, "fusion_lon": 0.0}, {"lat": 38.916647, "is_disabled": 0, "type": "electric_scooter", "lon": -77.02299383333333, "bike_id": "55c70216ff9b9797f9f5da076b885538", "fusion_lat": 0.0, "name": "55c70216ff9b9797f9f5da076b885538", "is_reserved": 0, "rental_uris": {"android": "https://dc.lft.to/lastmile_qr_scan", "ios": "https://dc.lft.to/lastmile_qr_scan"}, "fusion_lon": 0.0}, {"lat": 38.892176166666665, "is_disabled": 0, "type": "electric_scooter", "lon": -77.02210516666666, "bike_id": "af56d9db49e8ddcc804d800f87b5a7be", "fusion_lat": 0.0, "name": "af56d9db49e8ddcc804d800f87b5a7be", "is_reserved": 0, "rental_uris": {"android": "https://dc.lft.to/lastmile_qr_scan", "ios": "https://dc.lft.to/lastmile_qr_scan"}, "fusion_lon": 0.0}, {"lat": 38.89449783333333, "is_disabled": 0, "type": "electric_scooter", "lon": -76.97805516666666, "bike_id": "412db7b68863355d1a193e2f573a8960", "fusion_lat": 0.0, "name": "412db7b68863355d1a193e2f573a8960", "is_reserved": 0, "rental_uris": {"android": "https://dc.lft.to/lastmile_qr_scan", "ios": "https://dc.lft.to/lastmile_qr_scan"}, "fusion_lon": 0.0}, {"lat": 38.902698, "is_disabled": 0, "type": "electric_scooter", "lon": -77.03069583333334, "bike_id": "fc4a04dbe54b85b26bfc0b1d8469a2e1", "fusion_lat": 0.0, "name": "fc4a04dbe54b85b26bfc0b1d8469a2e1", "is_reserved": 0, "rental_uris": {"android": "https://dc.lft.to/lastmile_qr_scan", "ios": "https://dc.lft.to/lastmile_qr_scan"}, "fusion_lon": 0.0}, {"lat": 38.985029833333336, "is_disabled": 0, "type": "electric_bike", "lon": -76.982148, "bike_id": "52a098b25cf1330d040baff5987e6280", "fusion_lat": 0.0, "name": "52a098b25cf1330d040baff5987e6280", "is_reserved": 0, "rental_uris": {"android": "https://dc.lft.to/lastmile_qr_scan", "ios": "https://dc.lft.to/lastmile_qr_scan"}, "fusion_lon": 0.0}, {"lat": 38.928385, "is_disabled": 0, "type": "electric_scooter", "lon": -77.01382016666666, "bike_id": "25fde203653860d6092cb7e1df4ff7be", "fusion_lat": 0.0, "name": "25fde203653860d6092cb7e1df4ff7be", "is_reserved": 0, "rental_uris": {"android": "https://dc.lft.to/lastmile_qr_scan", "ios": "https://dc.lft.to/lastmile_qr_scan"}, "fusion_lon": 0.0}, {"lat": 38.90394833333333, "is_disabled": 0, "type": "electric_scooter", "lon": -77.0258965, "bike_id": "7ceae646a49166337198f265fdd6c6d0", "fusion_lat": 0.0, "name": "7ceae646a49166337198f265fdd6c6d0", "is_reserved": 0, "rental_uris": {"android": "https://dc.lft.to/lastmile_qr_scan", "ios": "https://dc.lft.to/lastmile_qr_scan"}, "fusion_lon": 0.0}, {"lat": 38.80570766666666, "is_disabled": 0, "type": "electric_bike", "lon": -77.06862816666667, "bike_id": "455297262404dab1c16ca1ee1e0b6ee0", "fusion_lat": 0.0, "name": "455297262404dab1c16ca1ee1e0b6ee0", "is_reserved": 0, "rental_uris": {"android": "https://dc.lft.to/lastmile_qr_scan", "ios": "https://dc.lft.to/lastmile_qr_scan"}, "fusion_lon": 0.0}, {"lat": 38.910129833333336, "is_disabled": 0, "type": "electric_scooter", "lon": -77.03187466666667, "bike_id": "49221c0e2c77931a6d9e74ffefa8fd6f", "fusion_lat": 0.0, "name": "49221c0e2c77931a6d9e74ffefa8fd6f", "is_reserved": 0, "rental_uris": {"android": "https://dc.lft.to/lastmile_qr_scan", "ios": "https://dc.lft.to/lastmile_qr_scan"}, "fusion_lon": 0.0}, {"lat": 38.90965466666667, "is_disabled": 0, "type": "electric_scooter", "lon": -77.03838583333334, "bike_id": "4f21bbee9499436acfc73c37057feb1f", "fusion_lat": 0.0, "name": "4f21bbee9499436acfc73c37057feb1f", "is_reserved": 0, "rental_uris": {"android": "https://dc.lft.to/lastmile_qr_scan", "ios": "https://dc.lft.to/lastmile_qr_scan"}, "fusion_lon": 0.0}, {"lat": 38.982672, "is_disabled": 0, "type": "electric_bike", "lon": -77.01772883333334, "bike_id": "74bda102cfd24f03fc35ba123ddd8a9a", "fusion_lat": 0.0, "name": "74bda102cfd24f03fc35ba123ddd8a9a", "is_reserved": 0, "rental_uris": {"android": "https://dc.lft.to/lastmile_qr_scan", "ios": "https://dc.lft.to/lastmile_qr_scan"}, "fusion_lon": 0.0}, {"lat": 38.925246, "is_disabled": 0, "type": "electric_scooter", "lon": -77.04427366666667, "bike_id": "5a2538193e168e689a83512148d17efd", "fusion_lat": 0.0, "name": "5a2538193e168e689a83512148d17efd", "is_reserved": 0, "rental_uris": {"android": "https://dc.lft.to/lastmile_qr_scan", "ios": "https://dc.lft.to/lastmile_qr_scan"}, "fusion_lon": 0.0}, {"lat": 38.917629833333336, "is_disabled": 0, "type": "electric_scooter", "lon": -77.02302483333334, "bike_id": "f4bb8c0416228f314477927e6859d07a", "fusion_lat": 0.0, "name": "f4bb8c0416228f314477927e6859d07a", "is_reserved": 0, "rental_uris": {"android": "https://dc.lft.to/lastmile_qr_scan", "ios": "https://dc.lft.to/lastmile_qr_scan"}, "fusion_lon": 0.0}, {"lat": 38.911259666666666, "is_disabled": 0, "type": "electric_scooter", "lon": -77.03838983333333, "bike_id": "d30b4b878e97ec246b28b2c25f68be79", "fusion_lat": 0.0, "name": "d30b4b878e97ec246b28b2c25f68be79", "is_reserved": 0, "rental_uris": {"android": "https://dc.lft.to/lastmile_qr_scan", "ios": "https://dc.lft.to/lastmile_qr_scan"}, "fusion_lon": 0.0}, {"lat": 38.89351466666667, "is_disabled": 0, "type": "electric_scooter", "lon": -77.04135816666667, "bike_id": "d608a0768efc5705783fce19f8242dea", "fusion_lat": 0.0, "name": "d608a0768efc5705783fce19f8242dea", "is_reserved": 0, "rental_uris": {"android": "https://dc.lft.to/lastmile_qr_scan", "ios": "https://dc.lft.to/lastmile_qr_scan"}, "fusion_lon": 0.0}, {"lat": 38.918269333333335, "is_disabled": 0, "type": "electric_scooter", "lon": -77.03160833333334, "bike_id": "378a7906c21a52b8de5552d4abbd3d7d", "fusion_lat": 0.0, "name": "378a7906c21a52b8de5552d4abbd3d7d", "is_reserved": 0, "rental_uris": {"android": "https://dc.lft.to/lastmile_qr_scan", "ios": "https://dc.lft.to/lastmile_qr_scan"}, "fusion_lon": 0.0}, {"lat": 38.87712533333333, "is_disabled": 0, "type": "electric_scooter", "lon": -77.0175805, "bike_id": "4d9f3cd7efcb18e2aa107650d1b2d652", "fusion_lat": 0.0, "name": "4d9f3cd7efcb18e2aa107650d1b2d652", "is_reserved": 0, "rental_uris": {"android": "https://dc.lft.to/lastmile_qr_scan", "ios": "https://dc.lft.to/lastmile_qr_scan"}, "fusion_lon": 0.0}, {"lat": 38.93710316666667, "is_disabled": 0, "type": "electric_scooter", "lon": -77.0363665, "bike_id": "005f373736631cd35be5ae01e985c5bf", "fusion_lat": 0.0, "name": "005f373736631cd35be5ae01e985c5bf", "is_reserved": 0, "rental_uris": {"android": "https://dc.lft.to/lastmile_qr_scan", "ios": "https://dc.lft.to/lastmile_qr_scan"}, "fusion_lon": 0.0}, {"lat": 38.916434333333335, "is_disabled": 0, "type": "electric_scooter", "lon": -77.04785383333333, "bike_id": "c959ec9818f58496783b45a4e9d79c53", "fusion_lat": 0.0, "name": "c959ec9818f58496783b45a4e9d79c53", "is_reserved": 0, "rental_uris": {"android": "https://dc.lft.to/lastmile_qr_scan", "ios": "https://dc.lft.to/lastmile_qr_scan"}, "fusion_lon": 0.0}, {"lat": 38.91676433333333, "is_disabled": 0, "type": "electric_scooter", "lon": -77.02974266666666, "bike_id": "a38352b37cf89ca81a6bf3081bfa1579", "fusion_lat": 0.0, "name": "a38352b37cf89ca81a6bf3081bfa1579", "is_reserved": 0, "rental_uris": {"android": "https://dc.lft.to/lastmile_qr_scan", "ios": "https://dc.lft.to/lastmile_qr_scan"}, "fusion_lon": 0.0}, {"lat": 38.93078416666667, "is_disabled": 0, "type": "electric_scooter", "lon": -77.03740066666667, "bike_id": "c7c43531cb4488490a1a807059e71f5b", "fusion_lat": 0.0, "name": "c7c43531cb4488490a1a807059e71f5b", "is_reserved": 0, "rental_uris": {"android": "https://dc.lft.to/lastmile_qr_scan", "ios": "https://dc.lft.to/lastmile_qr_scan"}, "fusion_lon": 0.0}, {"lat": 38.908941, "is_disabled": 0, "type": "electric_scooter", "lon": -77.03142033333333, "bike_id": "b0aa29d61be0b9549355968157afa6c3", "fusion_lat": 0.0, "name": "b0aa29d61be0b9549355968157afa6c3", "is_reserved": 0, "rental_uris": {"android": "https://dc.lft.to/lastmile_qr_scan", "ios": "https://dc.lft.to/lastmile_qr_scan"}, "fusion_lon": 0.0}, {"lat": 38.93245483333333, "is_disabled": 0, "type": "electric_scooter", "lon": -77.032746, "bike_id": "0073e735baf07096da2431ea5c6f02b4", "fusion_lat": 0.0, "name": "0073e735baf07096da2431ea5c6f02b4", "is_reserved": 0, "rental_uris": {"android": "https://dc.lft.to/lastmile_qr_scan", "ios": "https://dc.lft.to/lastmile_qr_scan"}, "fusion_lon": 0.0}, {"lat": 38.91420383333333, "is_disabled": 0, "type": "electric_scooter", "lon": -77.03172966666666, "bike_id": "1f03bb11d0c1b47105965b496da54dfe", "fusion_lat": 0.0, "name": "1f03bb11d0c1b47105965b496da54dfe", "is_reserved": 0, "rental_uris": {"android": "https://dc.lft.to/lastmile_qr_scan", "ios": "https://dc.lft.to/lastmile_qr_scan"}, "fusion_lon": 0.0}, {"lat": 38.935076333333335, "is_disabled": 0, "type": "electric_scooter", "lon": -77.03268166666666, "bike_id": "09eb7c771c1643a3580943cffface3a1", "fusion_lat": 0.0, "name": "09eb7c771c1643a3580943cffface3a1", "is_reserved": 0, "rental_uris": {"android": "https://dc.lft.to/lastmile_qr_scan", "ios": "https://dc.lft.to/lastmile_qr_scan"}, "fusion_lon": 0.0}, {"lat": 38.88461933333333, "is_disabled": 0, "type": "electric_scooter", "lon": -77.0258775, "bike_id": "6cfbf12005b17a38d654b79f54a9fb07", "fusion_lat": 0.0, "name": "6cfbf12005b17a38d654b79f54a9fb07", "is_reserved": 0, "rental_uris": {"android": "https://dc.lft.to/lastmile_qr_scan", "ios": "https://dc.lft.to/lastmile_qr_scan"}, "fusion_lon": 0.0}, {"lat": 38.93631583333333, "is_disabled": 0, "type": "electric_scooter", "lon": -77.025019, "bike_id": "36691f8dd2dcc33f630b54c72d4880ec", "fusion_lat": 0.0, "name": "36691f8dd2dcc33f630b54c72d4880ec", "is_reserved": 0, "rental_uris": {"android": "https://dc.lft.to/lastmile_qr_scan", "ios": "https://dc.lft.to/lastmile_qr_scan"}, "fusion_lon": 0.0},