{"data": {"bikes": [{"bike_id": "d7995cd9c1d59d0179114240be27c1a9", "is_reserved": 0, "name": "d7995cd9c1d59d0179114240be27c1a9", "lat": 38.90909466666667, "fusion_lat": 0.0, "lon": -77.04208083333333, "is_disabled": 0, "fusion_lon": 0.0, "rental_uris": {"android": "https://dc.lft.to/lastmile_qr_scan", "ios": "https://dc.lft.to/lastmile_qr_scan"}, "type": "electric_scooter"}, {"bike_id": "91753948bf2e46d9cea145fe8488d739", "is_reserved": 0, "name": "91753948bf2e46d9cea145fe8488d739", "lat": 38.857361, "fusion_lat": 0.0, "lon": -77.098063, "is_disabled": 0, "fusion_lon": 0.0, "rental_uris": {"android": "https://dc.lft.to/lastmile_qr_scan", "ios": "https://dc.lft.to/lastmile_qr_scan"}, "type": "electric_bike"}, {"bike_id": "10f6576bcf1c214da0a436a43caa8238", "is_reserved": 0, "name": "10f6576bcf1c214da0a436a43caa8238", "lat": 38.866670166666665, "fusion_lat": 0.0, "lon": -76.98902033333333, "is_disabled": 0, "fusion_lon": 0.0, "rental_uris": {"android": "https://dc.lft.to/lastmile_qr_scan", "ios": "https://dc.lft.to/lastmile_qr_scan"}, "type": "electric_scooter"}, {"bike_id": "6967db50bf19593f22c1415fa687125b", "is_reserved": 0, "name": "6967db50bf19593f22c1415fa687125b", "lat": 38.89290583333333, "fusion_lat": 0.0, "lon": -77.01240216666666, "is_disabled": 0, "fusion_lon": 0.0, "rental_uris": {"android": "https://dc.lft.to/lastmile_qr_scan", "ios": "https://dc.lft.to/lastmile_qr_scan"}, "type": "electric_scooter"}, {"bike_id": "8835f65c214a867c092df554c9b4c096", "is_reserved": 0, "name": "8835f65c214a867c092df554c9b4c096", "lat": 38.921506666666666, "fusion_lat": 0.0, "lon": -77.03869216666666, "is_disabled": 0, "fusion_lon": 0.0, "rental_uris": {"android": "https://dc.lft.to/lastmile_qr_scan", "ios": "https://dc.lft.to/lastmile_qr_scan"}, "type": "electric_scooter"}, {"bike_id": "24f2fab8cc701dff6a724e5d87e281ca", "is_reserved": 0, "name": "24f2fab8cc701dff6a724e5d87e281ca", "lat": 38.924138166666665, "fusion_lat": 0.0, "lon": -77.03542033333333, "is_disabled": 0, "fusion_lon": 0.0, "rental_uris": {"android": "https://dc.lft.to/lastmile_qr_scan", "ios": "https://dc.lft.to/lastmile_qr_scan"}, "type": "electric_scooter"}, {"bike_id": "3691d822333be8060aaeff8a0047c37e", "is_reserved": 0, "name": "3691d822333be8060aaeff8a0047c37e", "lat": 38.9343065, "fusion_lat": 0.0, "lon": -77.04000583333334, "is_disabled": 0, "fusion_lon": 0.0, "rental_uris": {"android": "https://dc.lft.to/lastmile_qr_scan", "ios": "https://dc.lft.to/lastmile_qr_scan"}, "type": "electric_scooter"}, {"bike_id": "7f7ad9030b6951f559d4508539515380", "is_reserved": 0, "name": "7f7ad9030b6951f559d4508539515380", "lat": 38.91692583333333, "fusion_lat": 0.0, "lon": -77.03842583333333, "is_disabled": 0, "fusion_lon": 0.0, "rental_uris": {"android": "https://dc.lft.to/lastmile_qr_scan", "ios": "https://dc.lft.to/lastmile_qr_scan"}, "type": "electric_scooter"}, {"bike_id": "4ab952e6c4e2e0f2daf6635eefadc604", "is_reserved": 0, "name": "4ab952e6c4e2e0f2daf6635eefadc604", "lat": 38.871635166666664, "fusion_lat": 0.0, "lon": -77.00566983333333, "is_disabled": 0, "fusion_lon": 0.0, "rental_uris": {"android": "https://dc.lft.to/lastmile_qr_scan", "ios": "https://dc.lft.to/lastmile_qr_scan"}, "type": "electric_scooter"}, {"bike_id": "7434612652edbe22362e9b72951643b3", "is_reserved": 0, "name": "7434612652edbe22362e9b72951643b3", "lat": 38.9041235, "fusion_lat": 0.0, "lon": -77.025887, "is_disabled": 0, "fusion_lon": 0.0, "rental_uris": {"android": "https://dc.lft.to/lastmile_qr_scan", "ios": "https://dc.lft.to/lastmile_qr_scan"}, "type": "electric_scooter"}, {"bike_id": "c27607347e7f950bc63123865fe170c9", "is_reserved": 0, "name": "c27607347e7f950bc63123865fe170c9", "lat": 38.898210166666665, "fusion_lat": 0.0, "lon": -77.03046216666667, "is_disabled": 0, "fusion_lon": 0.0, "rental_uris": {"android": "https://dc.lft.to/lastmile_qr_scan", "ios": "https://dc.lft.to/lastmile_qr_scan"}, "type": "electric_scooter"}, {"bike_id": "e2adc60b579b9b31d0e409983f46ba14", "is_reserved": 0, "name": "e2adc60b579b9b31d0e409983f46ba14", "lat": 38.89971, "fusion_lat": 0.0, "lon": -76.99489516666667, "is_disabled": 0, "fusion_lon": 0.0, "rental_uris": {"android": "https://dc.lft.to/lastmile_qr_scan", "ios": "https://dc.lft.to/lastmile_qr_scan"}, "type": "electric_scooter"}, {"bike_id": "d70573185bac346b849daccb27de0b8d", "is_reserved": 0, "name": "d70573185bac346b849daccb27de0b8d", "lat": 38.9325175, "fusion_lat": 0.0, "lon": -77.03434, "is_disabled": 0, "fusion_lon": 0.0, "rental_uris": {"android": "https://dc.lft.to/lastmile_qr_scan", "ios": "https://dc.lft.to/lastmile_qr_scan"}, "type": "electric_scooter"}, {"bike_id": "0a6e1ce79cf7897fe89e70137e50dceb", "is_reserved": 0, "name": "0a6e1ce79cf7897fe89e70137e50dceb", "lat": 38.91795366666667, "fusion_lat": 0.0, "lon": -77.03440533333334, "is_disabled": 0, "fusion_lon": 0.0, "rental_uris": {"android": "https://dc.lft.to/lastmile_qr_scan", "ios": "https://dc.lft.to/lastmile_qr_scan"}, "type": "electric_scooter"}, {"bike_id": "05043570e8d31766217ac8e2d9b4d8c9", "is_reserved": 0, "name": "05043570e8d31766217ac8e2d9b4d8c9", "lat": 38.950561, "fusion_lat": 0.0, "lon": -77.080206, "is_disabled": 0, "fusion_lon": 0.0, "rental_uris": {"android": "https://dc.lft.to/lastmile_qr_scan", "ios": "https://dc.lft.to/lastmile_qr_scan"}, "type": "electric_scooter"}, {"bike_id": "96c26513d7d86c89f4d94660f2462cc2", "is_reserved": 0, "name": "96c26513d7d86c89f4d94660f2462cc2", "lat": 38.93156483333333, "fusion_lat": 0.0, "lon": -77.07824416666666, "is_disabled": 0, "fusion_lon": 0.0, "rental_uris": {"android": "https://dc.lft.to/lastmile_qr_scan", "ios": "https://dc.lft.to/lastmile_qr_scan"}, "type": "electric_scooter"}, {"bike_id": "5668ef430c575f4ab724d3ba4618148d", "is_reserved": 0, "name": "5668ef430c575f4ab724d3ba4618148d", "lat": 38.90721766666667, "fusion_lat": 0.0, "lon": -77.02677816666667, "is_disabled": 0, "fusion_lon": 0.0, "rental_uris": {"android": "https://dc.lft.to/lastmile_qr_scan", "ios": "https://dc.lft.to/lastmile_qr_scan"}, "type": "electric_scooter"}, {"bike_id": "7c0c9e4e369d8d66c42e3f3b7101f194", "is_reserved": 0, "name": "7c0c9e4e369d8d66c42e3f3b7101f194", "lat": 38.875789833333336, "fusion_lat": 0.0, "lon": -77.2340935, "is_disabled": 0, "fusion_lon": 0.0, "rental_uris": {"android": "https://dc.lft.to/lastmile_qr_scan", "ios": "https://dc.lft.to/lastmile_qr_scan"}, "type": "electric_bike"}, {"bike_id": "00da14987eee6e18cd8f09f0c009ae7c", "is_reserved": 0, "name": "00da14987eee6e18cd8f09f0c009ae7c", "lat": 38.899009166666666, "fusion_lat": 0.0, "lon": -76.99954483333333, "is_disabled": 0, "fusion_lon": 0.0, "rental_uris": {"android": "https://dc.lft.to/lastmile_qr_scan", "ios": "https://dc.lft.to/lastmile_qr_scan"}, "type": "electric_scooter"}, {"bike_id": "88010f7330ac4c0f2277ab45f5c02746", "is_reserved": 0, "name": "88010f7330ac4c0f2277ab45f5c02746", "lat": 38.89953216666667, "fusion_lat": 0.0, "lon": -77.02748133333333, "is_disabled": 0, "fusion_lon": 0.0, "rental_uris": {"android": "https://dc.lft.to/lastmile_qr_scan", "ios": "https://dc.lft.to/lastmile_qr_scan"}, "type": "electric_scooter"}, {"bike_id": "0d043c2ee2cc7f8e8f63bf3d953fc8df", "is_reserved": 0, "name": "0d043c2ee2cc7f8e8f63bf3d953fc8df", "lat": 38.908395666666664, "fusion_lat": 0.0, "lon": -77.03298266666667, "is_disabled": 0, "fusion_lon": 0.0, "rental_uris": {"android": "https://dc.lft.to/lastmile_qr_scan", "ios": "https://dc.lft.to/lastmile_qr_scan"}, "type": "electric_scooter"}, {"bike_id": "0b8b09819f1e1c769369bc27c40b222b", "is_reserved": 0, "name": "0b8b09819f1e1c769369bc27c40b222b", "lat": 38.896857833333335, "fusion_lat": 0.0, "lon": -76.93711816666666, "is_disabled": 0, "fusion_lon": 0.0, "rental_uris": {"android": "https://dc.lft.to/lastmile_qr_scan", "ios": "https://dc.lft.to/lastmile_qr_scan"}, "type": "electric_scooter"}, {"bike_id": "459ac7c2906909244cc316424f815ae0", "is_reserved": 0, "name": "459ac7c2906909244cc316424f815ae0", "lat": 38.899171833333334, "fusion_lat": 0.0, "lon": -76.94556, "is_disabled": 0, "fusion_lon": 0.0, "rental_uris": {"android": "https://dc.lft.to/lastmile_qr_scan", "ios": "https://dc.lft.to/lastmile_qr_scan"}, "type": "electric_scooter"}, {"bike_id": "564dc259fa557fe8e5bcf39c3d8539a8", "is_reserved": 0, "name": "564dc259fa557fe8e5bcf39c3d8539a8", "lat": 38.935449166666665, "fusion_lat": 0.0, "lon": -77.05746266666667, "is_disabled": 0, "fusion_lon": 0.0, "rental_uris": {"android": "https://dc.lft.to/lastmile_qr_scan", "ios": "https://dc.lft.to/lastmile_qr_scan"}, "type": "electric_scooter"}, {"bike_id": "c701108c50e1e8bb628a8019a84fcaa8", "is_reserved": 0, "name": "c701108c50e1e8bb628a8019a84fcaa8", "lat": 38.9172065, "fusion_lat": 0.0, "lon": -77.02596283333334, "is_disabled": 0, "fusion_lon": 0.0, "rental_uris": {"android": "https://dc.lft.to/lastmile_qr_scan", "ios": "https://dc.lft.to/lastmile_qr_scan"}, "type": "electric_scooter"}, {"bike_id": "84e464e996f0b69c86a2b96d79318556", "is_reserved": 0, "name": "84e464e996f0b69c86a2b96d79318556", "lat": 38.904016, "fusion_lat": 0.0, "lon": -77.0432525, "is_disabled": 0, "fusion_lon": 0.0, "rental_uris": {"android": "https://dc.lft.to/lastmile_qr_scan", "ios": "https://dc.lft.to/lastmile_qr_scan"}, "type": "electric_scooter"}, {"bike_id": "e5b1f340f2ee2ff55df19970c4b58470", "is_reserved": 0, "name": "e5b1f340f2ee2ff55df19970c4b58470", "lat": 38.92365266666667, "fusion_lat": 0.0, "lon": -77.05049666666666, "is_disabled": 0, "fusion_lon": 0.0, "rental_uris": {"android": "https://dc.lft.to/lastmile_qr_scan", "ios": "https://dc.lft.to/lastmile_qr_scan"}, "type": "electric_scooter"}, {"bike_id": "00ed166406bad73b48c994de9ce07058", "is_reserved": 0, "name": "00ed166406bad73b48c994de9ce07058", "lat": 38.905810333333335, "fusion_lat": 0.0, "lon": -77.00891316666667, "is_disabled": 0, "fusion_lon": 0.0, "rental_uris": {"android": "https://dc.lft.to/lastmile_qr_scan", "ios": "https://dc.lft.to/lastmile_qr_scan"}, "type": "electric_scooter"}, {"bike_id": "40bd06e0dead6d7b6c76515d501d43e9", "is_reserved": 0, "name": "40bd06e0dead6d7b6c76515d501d43e9", "lat": 38.921547333333336, "fusion_lat": 0.0, "lon": -77.03866566666666, "is_disabled": 0, "fusion_lon": 0.0, "rental_uris": {"android": "https://dc.lft.to/lastmile_qr_scan", "ios": "https://dc.lft.to/lastmile_qr_scan"}, "type": "electric_scooter"}, {"bike_id": "be9a9c375b7d0757a58ca161fe08bb5c", "is_reserved": 0, "name": "be9a9c375b7d0757a58ca161fe08bb5c", "lat": 38.878210833333334, "fusion_lat": 0.0, "lon": -77.00127016666667, "is_disabled": 0, "fusion_lon": 0.0, "rental_uris": {"android": "https://dc.lft.to/lastmile_qr_scan", "ios": "https://dc.lft.to/lastmile_qr_scan"}, "type": "electric_scooter"}, {"bike_id": "d6291a42808a548f89518f346b73edc5", "is_reserved": 0, "name": "d6291a42808a548f89518f346b73edc5", "lat": 38.87371016666667, "fusion_lat": 0.0, "lon": -77.00161416666667, "is_disabled": 0, "fusion_lon": 0.0, "rental_uris": {"android": "https://dc.lft.to/lastmile_qr_scan", "ios": "https://dc.lft.to/lastmile_qr_scan"}, "type": "electric_scooter"}, {"bike_id": "50dc68f2a226e7829c570a743e7deb3c", "is_reserved": 0, "name": "50dc68f2a226e7829c570a743e7deb3c", "lat": 38.90503183333333, "fusion_lat": 0.0, "lon": -77.04654683333334, "is_disabled": 0, "fusion_lon": 0.0, "rental_uris": {"android": "https://dc.lft.to/lastmile_qr_scan", "ios": "https://dc.lft.to/lastmile_qr_scan"}, "type": "electric_scooter"}, {"bike_id": "9d33789f59f147b4590742d73edaf38a", "is_reserved": 0, "name": "9d33789f59f147b4590742d73edaf38a", "lat": 38.930730833333335, "fusion_lat": 0.0, "lon": -77.02161133333334, "is_disabled": 0, "fusion_lon": 0.0, "rental_uris": {"android": "https://dc.lft.to/lastmile_qr_scan", "ios": "https://dc.lft.to/lastmile_qr_scan"}, "type": "electric_scooter"}, {"bike_id": "7aa9033a4b2cabad518daff0f992e39c", "is_reserved": 0, "name": "7aa9033a4b2cabad518daff0f992e39c", "lat": 38.88719833333333, "fusion_lat": 0.0, "lon": -77.02575283333333, "is_disabled": 0, "fusion_lon": 0.0, "rental_uris": {"android": "https://dc.lft.to/lastmile_qr_scan", "ios": "https://dc.lft.to/lastmile_qr_scan"}, "type": "electric_scooter"}, {"bike_id": "b9e63f5a3744b6ec4bf3fa81998ee850", "is_reserved": 0, "name": "b9e63f5a3744b6ec4bf3fa81998ee850", "lat": 38.89221216666667, "fusion_lat": 0.0, "lon": -77.04641616666666, "is_disabled": 0, "fusion_lon": 0.0, "rental_uris": {"android": "https://dc.lft.to/lastmile_qr_scan", "ios": "https://dc.lft.to/lastmile_qr_scan"}, "type": "electric_scooter"}, {"bike_id": "d598dbdd512e4442cafb3c823a53422b", "is_reserved": 0, "name": "d598dbdd512e4442cafb3c823a53422b", "lat": 38.916605, "fusion_lat": 0.0, "lon": -77.031805, "is_disabled": 0, "fusion_lon": 0.0, "rental_uris": {"android": "https://dc.lft.to/lastmile_qr_scan", "ios": "https://dc.lft.to/lastmile_qr_scan"}, "type": "electric_scooter"}, {"bike_id": "159a4a881eaa5e1c83dafe6651de256d", "is_reserved": 0, "name": "159a4a881eaa5e1c83dafe6651de256d", "lat": 38.9262065, "fusion_lat": 0.0, "lon": -77.04193483333333, "is_disabled": 0, "fusion_lon": 0.0, "rental_uris": {"android": "https://dc.lft.to/lastmile_qr_scan", "ios": "https://dc.lft.to/lastmile_qr_scan"}, "type": "electric_scooter"}, {"bike_id": "a997a4fb6bdd2fc4f303bffac138ce6c", "is_reserved": 0, "name": "a997a4fb6bdd2fc4f303bffac138ce6c", "lat": 38.850848666666664, "fusion_lat": 0.0, "lon": -76.95673133333334, "is_disabled": 0, "fusion_lon": 0.0, "rental_uris": {"android": "https://dc.lft.to/lastmile_qr_scan", "ios": "https://dc.lft.to/lastmile_qr_scan"}, "type": "electric_bike"}, {"bike_id": "d3d7b2389e9e8dbf930c0d6b1ead96b9", "is_reserved": 0, "name": "d3d7b2389e9e8dbf930c0d6b1ead96b9", "lat": 38.931099333333336, "fusion_lat": 0.0, "lon": -77.03025466666666, "is_disabled": 0, "fusion_lon": 0.0, "rental_uris": {"android": "https://dc.lft.to/lastmile_qr_scan", "ios": "https://dc.lft.to/lastmile_qr_scan"}, "type": "electric_scooter"}, {"bike_id": "35600181d8e3f00c22c981f4e294ed4d", "is_reserved": 0, "name": "35600181d8e3f00c22c981f4e294ed4d", "lat": 38.9057205, "fusion_lat": 0.0, "lon": -77.02210066666666, "is_disabled": 0, "fusion_lon": 0.0, "rental_uris": {"android": "https://dc.lft.to/lastmile_qr_scan", "ios": "https://dc.lft.to/lastmile_qr_scan"}, "type": "electric_scooter"}, {"bike_id": "6eabdad73fb927111742456662433495", "is_reserved": 0, "name": "6eabdad73fb927111742456662433495", "lat": 38.8985015, "fusion_lat": 0.0, "lon": -77.0221425, "is_disabled": 0, "fusion_lon": 0.0, "rental_uris": {"android": "https://dc.lft.to/lastmile_qr_scan", "ios": "https://dc.lft.to/lastmile_qr_scan"}, "type": "electric_scooter"}, {"bike_id": "5f4c70515791074ce87521fee42f24b3", "is_reserved": 0, "name": "5f4c70515791074ce87521fee42f24b3", "lat": 38.916462, "fusion_lat": 0.0, "lon": -77.0238405, "is_disabled": 0, "fusion_lon": 0.0, "rental_uris": {"android": "https://dc.lft.to/lastmile_qr_scan", "ios": "https://dc.lft.to/lastmile_qr_scan"}, "type": "electric_scooter"}, {"bike_id": "7a1e2b6cc3286a1bf19a5dc07be692a8", "is_reserved": 0, "name": "7a1e2b6cc3286a1bf19a5dc07be692a8", "lat": 38.9804645, "fusion_lat": 0.0, "lon": -76.9578555, "is_disabled": 0, "fusion_lon": 0.0, "rental_uris": {"android": "https://dc.lft.to/lastmile_qr_scan", "ios": "https://dc.lft.to/lastmile_qr_scan"}, "type": "electric_bike"}, {"bike_id": "2fb876f46646dcb454057e95351f5e29", "is_reserved": 0, "name": "2fb876f46646dcb454057e95351f5e29", "lat": 38.941941, "fusion_lat": 0.0, "lon": -77.04112383333333, "is_disabled": 0, "fusion_lon": 0.0, "rental_uris": {"android": "https://dc.lft.to/lastmile_qr_scan", "ios": "https://dc.lft.to/lastmile_qr_scan"}, "type": "electric_scooter"}, {"bike_id": "528560c0e1482f7ec51256f241e8ddbc", "is_reserved": 0, "name": "528560c0e1482f7ec51256f241e8ddbc", "lat": 38.92499183333334, "fusion_lat": 0.0, "lon": -77.02400466666667, "is_disabled": 0, "fusion_lon": 0.0, "rental_uris": {"android": "https://dc.lft.to/lastmile_qr_scan", "ios": "https://dc.lft.to/lastmile_qr_scan"}, "type": "electric_scooter"}, {"bike_id": "66fc479d438d059d5943f7a5d027763d", "is_reserved": 0, "name": "66fc479d438d059d5943f7a5d027763d", "lat": 38.95730783333333, "fusion_lat": 0.0, "lon": -77.02399216666667, "is_disabled": 0, "fusion_lon": 0.0, "rental_uris": {"android": "https://dc.lft.to/lastmile_qr_scan", "ios": "https://dc.lft.to/lastmile_qr_scan"}, "type": "electric_scooter"}, {"bike_id": "4ad9bc42606835a940e9aee19d6d0bef", "is_reserved": 0, "name": "4ad9bc42606835a940e9aee19d6d0bef", "lat": 38.895526, "fusion_lat": 0.0, "lon": -77.00908633333333, "is_disabled": 0, "fusion_lon": 0.0, "rental_uris": {"android": "https://dc.lft.to/lastmile_qr_scan", "ios": "https://dc.lft.to/lastmile_qr_scan"}, "type": "electric_scooter"}, {"bike_id": "db28696a12db430fee29dc434373ab74", "is_reserved": 0, "name": "db28696a12db430fee29dc434373ab74", "lat": 38.90261433333333, "fusion_lat": 0.0, "lon": -77.03414833333333, "is_disabled": 0, "fusion_lon": 0.0, "rental_uris": {"android": "https://dc.lft.to/lastmile_qr_scan", "ios": "https://dc.lft.to/lastmile_qr_scan"}, "type": "electric_scooter"}, {"bike_id": "407bb0e879d65a608a7458544d0d3518", "is_reserved": 0, "name": "407bb0e879d65a608a7458544d0d3518", "lat": 38.92538533333333, "fusion_lat": 0.0, "lon": -77.03535266666667, "is_disabled": 0, "fusion_lon": 0.0, "rental_uris": {"android": "https://dc.lft.to/lastmile_qr_scan", "ios": "https://dc.lft.to/lastmile_qr_scan"}, "type": "electric_scooter"}, {"bike_id": "4fe295a897eaa7847b4358300d80ddf0", "is_reserved": 0, "name": "4fe295a897eaa7847b4358300d80ddf0", "lat": 38.899315666666666, "fusion_lat": 0.0, "lon": -77.01267916666667, "is_disabled": 0, "fusion_lon": 0.0, "rental_uris": {"android": "https://dc.lft.to/lastmile_qr_scan", "ios": "https://dc.lft.to/lastmile_qr_scan"}, "type": "electric_scooter"}, {"bike_id": "58fd209f90cbc9a4a30712f16af1da76", "is_reserved": 0, "name": "58fd209f90cbc9a4a30712f16af1da76", "lat": 38.950885, "fusion_lat": 0.0, "lon": -77.012245, "is_disabled": 0, "fusion_lon": 0.0, "rental_uris": {"android": "https://dc.lft.to/lastmile_qr_scan", "ios": "https://dc.lft.to/lastmile_qr_scan"}, "type": "electric_bike"}, {"bike_id": "cefe575715c6109809c07944654d9e60", "is_reserved": 0, "name": "cefe575715c6109809c07944654d9e60", "lat": 38.91464783333333, "fusion_lat": 0.0, "lon": -77.03857016666667, "is_disabled": 0, "fusion_lon": 0.0, "rental_uris": {"android": "https://dc.lft.to/lastmile_qr_scan", "ios": "https://dc.lft.to/lastmile_qr_scan"}, "type": "electric_scooter"}, {"bike_id": "8ca54b310320b42ae4419ed840fc2963", "is_reserved": 0, "name": "8ca54b310320b42ae4419ed840fc2963", "lat": 38.915865333333336, "fusion_lat": 0.0, "lon": -77.03204383333333, "is_disabled": 0, "fusion_lon": 0.0, "rental_uris": {"android": "https://dc.lft.to/lastmile_qr_scan", "ios": "https://dc.lft.to/lastmile_qr_scan"}, "type": "electric_scooter"}, {"bike_id": "bc4a2213486b93d50a2bedbd73a99540", "is_reserved": 0, "name": "bc4a2213486b93d50a2bedbd73a99540", "lat": 38.90271116666667, "fusion_lat": 0.0, "lon": -77.0531065, "is_disabled": 0, "fusion_lon": 0.0, "rental_uris": {"android": "https://dc.lft.to/lastmile_qr_scan", "ios": "https://dc.lft.to/lastmile_qr_scan"}, "type": "electric_scooter"}, {"bike_id": "f1a2bface70f4b9b3661887531dd0c14", "is_reserved": 0, "name": "f1a2bface70f4b9b3661887531dd0c14", "lat": 38.90125333333334, "fusion_lat": 0.0, "lon": -77.043632, "is_disabled": 0, "fusion_lon": 0.0, "rental_uris": {"android": "https://dc.lft.to/lastmile_qr_scan", "ios": "https://dc.lft.to/lastmile_qr_scan"}, "type": "electric_scooter"}, {"bike_id": "89c1781e201000487e37804bd1261dda", "is_reserved": 0, "name": "89c1781e201000487e37804bd1261dda", "lat": 38.89564333333333, "fusion_lat": 0.0, "lon": -76.9486965, "is_disabled": 0, "fusion_lon": 0.0, "rental_uris": {"android": "https://dc.lft.to/lastmile_qr_scan", "ios": "https://dc.lft.to/lastmile_qr_scan"}, "type": "electric_scooter"}, {"bike_id": "0e50ffa679e90608973bbcdc58c320e9", "is_reserved": 0, "name": "0e50ffa679e90608973bbcdc58c320e9", "lat": 38.86734666666667, "fusion_lat": 0.0, "lon": -76.98787633333333, "is_disabled": 0, "fusion_lon": 0.0, "rental_uris": {"android": "https://dc.lft.to/lastmile_qr_scan", "ios": "https://dc.lft.to/lastmile_qr_scan"}, "type": "electric_scooter"}, {"bike_id": "0a41b4ac6ca0bf9c339c59ae9f95a3a5", "is_reserved": 0, "name": "0a41b4ac6ca0bf9c339c59ae9f95a3a5", "lat": 38.9618555, "fusion_lat": 0.0, "lon": -77.052641, "is_disabled": 0, "fusion_lon": 0.0, "rental_uris": {"android": "https://dc.lft.to/lastmile_qr_scan", "ios": "https://dc.lft.to/lastmile_qr_scan"}, "type": "electric_bike"}, {"bike_id": "690d651dc95ac74a843391166f1841c1", "is_reserved": 0, "name": "690d651dc95ac74a843391166f1841c1", "lat": 38.96575466666667, "fusion_lat": 0.0, "lon": -77.00263716666667, "is_disabled": 0, "fusion_lon": 0.0, "rental_uris": {"android": "https://dc.lft.to/lastmile_qr_scan", "ios": "https://dc.lft.to/lastmile_qr_scan"}, "type": "electric_scooter"}, {"bike_id": "7d9e5331b80b9903783368884443f4ab", "is_reserved": 0, "name": "7d9e5331b80b9903783368884443f4ab", "lat": 38.898319666666666, "fusion_lat": 0.0, "lon": -77.03040366666667, "is_disabled": 0, "fusion_lon": 0.0, "rental_uris": {"android": "https://dc.lft.to/lastmile_qr_scan", "ios": "https://dc.lft.to/lastmile_qr_scan"}, "type": "electric_scooter"}, {"bike_id": "213da7ce28031640b8657ce4f063b075", "is_reserved": 0, "name": "213da7ce28031640b8657ce4f063b075", "lat": 38.8861465, "fusion_lat": 0.0, "lon": -76.99537916666667, "is_disabled": 0, "fusion_lon": 0.0, "rental_uris": {"android": "https://dc.lft.to/lastmile_qr_scan", "ios": "https://dc.lft.to/lastmile_qr_scan"}, "type": "electric_scooter"}, {"bike_id": "1491058ebefbc865e63b1a01aa6bfe38", "is_reserved": 0, "name": "1491058ebefbc865e63b1a01aa6bfe38", "lat": 38.905886333333335, "fusion_lat": 0.0, "lon": -77.02380116666667, "is_disabled": 0, "fusion_lon": 0.0, "rental_uris": {"android": "https://dc.lft.to/lastmile_qr_scan", "ios": "https://dc.lft.to/lastmile_qr_scan"}, "type": "electric_scooter"}, {"bike_id": "45c83b1be952e5eabd3826abf1d51112", "is_reserved": 0, "name": "45c83b1be952e5eabd3826abf1d51112", "lat": 38.9049255, "fusion_lat": 0.0, "lon": -77.02111716666667, "is_disabled": 0, "fusion_lon": 0.0, "rental_uris": {"android": "https://dc.lft.to/lastmile_qr_scan", "ios": "https://dc.lft.to/lastmile_qr_scan"}, "type": "electric_scooter"}, {"bike_id": "e566f727512ab3867860b726f29b0f1b", "is_reserved": 0, "name": "e566f727512ab3867860b726f29b0f1b", "lat": 38.924204333333336, "fusion_lat": 0.0, "lon": -77.05743233333334, "is_disabled": 0, "fusion_lon": 0.0, "rental_uris": {"android": "https://dc.lft.to/lastmile_qr_scan", "ios": "https://dc.lft.to/lastmile_qr_scan"}, "type": "electric_scooter"}, {"bike_id": "fcd9259500864f0b81ca720554f85797", "is_reserved": 0, "name": "fcd9259500864f0b81ca720554f85797", "lat": 38.917214666666666, "fusion_lat": 0.0, "lon": -77.02700533333334, "is_disabled": 0, "fusion_lon": 0.0, "rental_uris": {"android": "https://dc.lft.to/lastmile_qr_scan", "ios": "https://dc.lft.to/lastmile_qr_scan"}, "type": "electric_scooter"}, {"bike_id": "3626027fa8943c89c80ceb96fac7687a", "is_reserved": 0, "name": "3626027fa8943c89c80ceb96fac7687a", "lat": 38.90851683333333, "fusion_lat": 0.0, "lon": -77.0196785, "is_disabled": 0, "fusion_lon": 0.0, "rental_uris": {"android": "https://dc.lft.to/lastmile_qr_scan", "ios": "https://dc.lft.to/lastmile_qr_scan"}, "type": "electric_scooter"}, {"bike_id": "c7cae800f0ca328d09d09399e54f7918", "is_reserved": 0, "name": "c7cae800f0ca328d09d09399e54f7918", "lat": 38.8737125, "fusion_lat": 0.0, "lon": -77.00124466666666, "is_disabled": 0, "fusion_lon": 0.0, "rental_uris": {"android": "https://dc.lft.to/lastmile_qr_scan", "ios": "https://dc.lft.to/lastmile_qr_scan"}, "type": "electric_scooter"}, {"bike_id": "449c7f3d82b124f6a656d3ee20ffb60e", "is_reserved": 0, "name": "449c7f3d82b124f6a656d3ee20ffb60e", "lat": 38.8922345, "fusion_lat": 0.0, "lon": -77.0262835, "is_disabled": 0, "fusion_lon": 0.0, "rental_uris": {"android": "https://dc.lft.to/lastmile_qr_scan", "ios": "https://dc.lft.to/lastmile_qr_scan"}, "type": "electric_scooter"}, {"bike_id": "511c911b4f2f8070771242aff9b16aaf", "is_reserved": 0, "name": "511c911b4f2f8070771242aff9b16aaf", "lat": 38.91623366666666, "fusion_lat": 0.0, "lon": -77.031925, "is_disabled": 0, "fusion_lon": 0.0, "rental_uris": {"android": "https://dc.lft.to/lastmile_qr_scan", "ios": "https://dc.lft.to/lastmile_qr_scan"}, "type": "electric_scooter"}, {"bike_id": "273aa3735402f9e8942e57c37b4813f7", "is_reserved": 0, "name": "273aa3735402f9e8942e57c37b4813f7", "lat": 38.90862966666667, "fusion_lat": 0.0, "lon": -77.02352616666667, "is_disabled": 0, "fusion_lon": 0.0, "rental_uris": {"android": "https://dc.lft.to/lastmile_qr_scan", "ios": "https://dc.lft.to/lastmile_qr_scan"}, "type": "electric_scooter"}, {"bike_id": "ddf03c646915d22220238493fe747e73", "is_reserved": 0, "name": "ddf03c646915d22220238493fe747e73", "lat": 38.884948666666666, "fusion_lat": 0.0, "lon": -76.98057616666667, "is_disabled": 0, "fusion_lon": 0.0, "rental_uris": {"android": "https://dc.lft.to/lastmile_qr_scan", "ios": "https://dc.lft.to/lastmile_qr_scan"}, "type": "electric_scooter"}, {"bike_id": "c4827dc8bf209cbdcee2930165666475", "is_reserved": 0, "name": "c4827dc8bf209cbdcee2930165666475", "lat": 38.989447, "fusion_lat": 0.0, "lon": -77.1010475, "is_disabled": 0, "fusion_lon": 0.0, "rental_uris": {"android": "https://dc.lft.to/lastmile_qr_scan", "ios": "https://dc.lft.to/lastmile_qr_scan"}, "type": "electric_bike"}, {"bike_id": "5a2623ad5b6057229640e076c6ab3c43", "is_reserved": 0, "name": "5a2623ad5b6057229640e076c6ab3c43", "lat": 38.89233483333334, "fusion_lat": 0.0, "lon": -77.04872833333333, "is_disabled": 0, "fusion_lon": 0.0, "rental_uris": {"android": "https://dc.lft.to/lastmile_qr_scan", "ios": "https://dc.lft.to/lastmile_qr_scan"}, "type": "electric_scooter"}, {"bike_id": "b0874aedf14a81e2890e244f132cbbca", "is_reserved": 0, "name": "b0874aedf14a81e2890e244f132cbbca", "lat": 38.903604666666666, "fusion_lat": 0.0, "lon": -77.03640383333334, "is_disabled": 0, "fusion_lon": 0.0, "rental_uris": {"android": "https://dc.lft.to/lastmile_qr_scan", "ios": "https://dc.lft.to/lastmile_qr_scan"}, "type": "electric_scooter"}, {"bike_id": "83158c6565546dc1ebba28a488f178e3", "is_reserved": 0, "name": "83158c6565546dc1ebba28a488f178e3", "lat": 38.9166595, "fusion_lat": 0.0, "lon": -77.0227245, "is_disabled": 0, "fusion_lon": 0.0, "rental_uris": {"android": "https://dc.lft.to/lastmile_qr_scan", "ios": "https://dc.lft.to/lastmile_qr_scan"}, "type": "electric_scooter"}, {"bike_id": "134c8f15795909d4afa1652355e0d986", "is_reserved": 0, "name": "134c8f15795909d4afa1652355e0d986", "lat": 38.91403583333334, "fusion_lat": 0.0, "lon": -77.02204616666667, "is_disabled": 0, "fusion_lon": 0.0, "rental_uris": {"android": "https://dc.lft.to/lastmile_qr_scan", "ios": "https://dc.lft.to/lastmile_qr_scan"}, "type": "electric_scooter"}, {"bike_id": "324c00d4cc84e2812f949d1119e98fe3", "is_reserved": 0, "name": "324c00d4cc84e2812f949d1119e98fe3", "lat": 38.992281166666665, "fusion_lat": 0.0, "lon": -76.944273, "is_disabled": 0, "fusion_lon": 0.0, "rental_uris": {"android": "https://dc.lft.to/lastmile_qr_scan", "ios": "https://dc.lft.to/lastmile_qr_scan"}, "type": "electric_bike"}, {"bike_id": "3c4c438cf1a80b9928dd866a79bafdea", "is_reserved": 0, "name": "3c4c438cf1a80b9928dd866a79bafdea", "lat": 38.923201666666664, "fusion_lat": 0.0, "lon": -77.02891966666667, "is_disabled": 0, "fusion_lon": 0.0, "rental_uris": {"android": "https://dc.lft.to/lastmile_qr_scan", "ios": "https://dc.lft.to/lastmile_qr_scan"}, "type": "electric_scooter"}, {"bike_id": "149f1baad913b708fb35f2df1d3dbbee", "is_reserved": 0, "name": "149f1baad913b708fb35f2df1d3dbbee", "lat": 38.905322, "fusion_lat": 0.0, "lon": -77.056378, "is_disabled": 0, "fusion_lon": 0.0, "rental_uris": {"android": "https://dc.lft.to/lastmile_qr_scan", "ios": "https://dc.lft.to/lastmile_qr_scan"}, "type": "electric_scooter"}, {"bike_id": "6f6929c2746178e70d46fbefc634d6b7", "is_reserved": 0, "name": "6f6929c2746178e70d46fbefc634d6b7", "lat": 38.91556466666667, "fusion_lat": 0.0, "lon": -77.03172016666667, "is_disabled": 0, "fusion_lon": 0.0, "rental_uris": {"android": "https://dc.lft.to/lastmile_qr_scan", "ios": "https://dc.lft.to/lastmile_qr_scan"}, "type": "electric_scooter"}, {"bike_id": "778b82809ad111b636e54a7d86275f88", "is_reserved": 0, "name": "778b82809ad111b636e54a7d86275f88", "lat": 38.91918283333333, "fusion_lat": 0.0, "lon": -77.03131733333333, "is_disabled": 0, "fusion_lon": 0.0, "rental_uris": {"android": "https://dc.lft.to/lastmile_qr_scan", "ios": "https://dc.lft.to/lastmile_qr_scan"}, "type": "electric_scooter"}, {"bike_id": "34f6b28d4fa5424d8ba0252e62fcda79", "is_reserved": 0, "name": "34f6b28d4fa5424d8ba0252e62fcda79", "lat": 38.929839666666666, "fusion_lat": 0.0, "lon": -77.03656316666667, "is_disabled": 0, "fusion_lon": 0.0, "rental_uris": {"android": "https://dc.lft.to/lastmile_qr_scan", "ios": "https://dc.lft.to/lastmile_qr_scan"}, "type": "electric_scooter"}, {"bike_id": "58c9728a98ff91333d8d61532e2069ce", "is_reserved": 0, "name": "58c9728a98ff91333d8d61532e2069ce", "lat": 38.92706333333334, "fusion_lat": 0.0, "lon": -76.99755166666667, "is_disabled": 0, "fusion_lon": 0.0, "rental_uris": {"android": "https://dc.lft.to/lastmile_qr_scan", "ios": "https://dc.lft.to/lastmile_qr_scan"}, "type": "electric_scooter"}, {"bike_id": "119486429c724ff658a44cdba9295469", "is_reserved": 0, "name": "119486429c724ff658a44cdba9295469", "lat": 38.87738233333334, "fusion_lat": 0.0, "lon": -76.97032333333334, "is_disabled": 0, "fusion_lon": 0.0, "rental_uris": {"android": "https://dc.lft.to/lastmile_qr_scan", "ios": "https://dc.lft.to/lastmile_qr_scan"}, "type": "electric_scooter"}, {"bike_id": "804b5dd727fea508591255db0594818d", "is_reserved": 0, "name": "804b5dd727fea508591255db0594818d", "lat": 38.9156775, "fusion_lat": 0.0, "lon": -77.02003, "is_disabled": 0, "fusion_lon": 0.0, "rental_uris": {"android": "https://dc.lft.to/lastmile_qr_scan", "ios": "https://dc.lft.to/lastmile_qr_scan"}, "type": "electric_scooter"}, {"bike_id": "ae42b680493b90599c330c86cd3a6046", "is_reserved": 0, "name": "ae42b680493b90599c330c86cd3a6046", "lat": 38.898888, "fusion_lat": 0.0, "lon": -76.99357316666666, "is_disabled": 0, "fusion_lon": 0.0, "rental_uris": {"android": "https://dc.lft.to/lastmile_qr_scan", "ios": "https://dc.lft.to/lastmile_qr_scan"}, "type": "electric_scooter"}, {"bike_id": "28c468494453b23ad604bbf40dd15000", "is_reserved": 0, "name": "28c468494453b23ad604bbf40dd15000", "lat": 38.8954525, "fusion_lat": 0.0, "lon": -76.983381, "is_disabled": 0, "fusion_lon": 0.0, "rental_uris": {"android": "https://dc.lft.to/lastmile_qr_scan", "ios": "https://dc.lft.to/lastmile_qr_scan"}, "type": "electric_scooter"}, {"bike_id": "288e12575915c23c82974e961601bb36", "is_reserved": 0, "name": "288e12575915c23c82974e961601bb36", "lat": 38.92313083333333, "fusion_lat": 0.0, "lon": -77.03045083333333, "is_disabled": 0, "fusion_lon": 0.0, "rental_uris": {"android": "https://dc.lft.to/lastmile_qr_scan", "ios": "https://dc.lft.to/lastmile_qr_scan"}, "type": "electric_scooter"}, {"bike_id": "488056be36e916b8e53d9bc2a784b1ec", "is_reserved": 0, "name": "488056be36e916b8e53d9bc2a784b1ec", "lat": 38.885078166666666, "fusion_lat": 0.0, "lon": -77.01467866666667, "is_disabled": 0, "fusion_lon": 0.0, "rental_uris": {"android": "https://dc.lft.to/lastmile_qr_scan", "ios": "https://dc.lft.to/lastmile_qr_scan"}, "type": "electric_scooter"}, {"bike_id": "bcf3bc470c2447bbbde22a4c0ff338b1", "is_reserved": 0, "name": "bcf3bc470c2447bbbde22a4c0ff338b1", "lat": 38.956009, "fusion_lat": 0.0, "lon": -77.0100415, "is_disabled": 0, "fusion_lon": 0.0, "rental_uris": {"android": "https://dc.lft.to/lastmile_qr_scan", "ios": "https://dc.lft.to/lastmile_qr_scan"}, "type": "electric_bike"}, {"bike_id": "b8ecb2083d7e7f765122e713ab0943fa", "is_reserved": 0, "name": "b8ecb2083d7e7f765122e713ab0943fa", "lat": 38.93203483333333, "fusion_lat": 0.0, "lon": -77.01871666666666, "is_disabled": 0, "fusion_lon": 0.0, "rental_uris": {"android": "https://dc.lft.to/lastmile_qr_scan", "ios": "https://dc.lft.to/lastmile_qr_scan"}, "type": "electric_scooter"}, {"bike_id": "6c51f6f120f6b4ea15dc5debd34b8387", "is_reserved": 0, "name": "6c51f6f120f6b4ea15dc5debd34b8387", "lat": 38.899668, "fusion_lat": 0.0, "lon": -76.98670266666667, "is_disabled": 0, "fusion_lon": 0.0, "rental_uris": {"android": "https://dc.lft.to/lastmile_qr_scan", "ios": "https://dc.lft.to/lastmile_qr_scan"}, "type": "electric_bike"}, {"bike_id": "a3e13308145862a33ae75e3ddd672a0c", "is_reserved": 0, "name": "a3e13308145862a33ae75e3ddd672a0c", "lat": 38.906943166666665, "fusion_lat": 0.0, "lon": -77.03591066666667, "is_disabled": 0, "fusion_lon": 0.0, "rental_uris": {"android": "https://dc.lft.to/lastmile_qr_scan", "ios": "https://dc.lft.to/lastmile_qr_scan"}, "type": "electric_scooter"}, {"bike_id": "dc5f6bac510725f78997b02d8e709715", "is_reserved": 0, "name": "dc5f6bac510725f78997b02d8e709715", "lat": 38.907785, "fusion_lat": 0.0, "lon": -77.07163216666666, "is_disabled": 0, "fusion_lon": 0.0, "rental_uris": {"android": "https://dc.lft.to/lastmile_qr_scan", "ios": "https://dc.lft.to/lastmile_qr_scan"}, "type": "electric_scooter"}, {"bike_id": "4fb84ef1bbf1a38951b540420584d4fb", "is_reserved": 0, "name": "4fb84ef1bbf1a38951b540420584d4fb", "lat": 38.93468133333333, "fusion_lat": 0.0, "lon": -77.072099, "is_disabled": 0, "fusion_lon": 0.0, "rental_uris": {"android": "https://dc.lft.to/lastmile_qr_scan", "ios": "https://dc.lft.to/lastmile_qr_scan"}, "type": "electric_scooter"}, {"bike_id": "d76dac0d8f9d806939b472a2b5e931d0", "is_reserved": 0, "name": "d76dac0d8f9d806939b472a2b5e931d0", "lat": 38.89749666666667, "fusion_lat": 0.0, "lon": -77.0207235, "is_disabled": 0, "fusion_lon": 0.0, "rental_uris": {"android": "https://dc.lft.to/lastmile_qr_scan", "ios": "https://dc.lft.to/lastmile_qr_scan"}, "type": "electric_scooter"}, {"bike_id": "cfc247746973309744d133c7d3a5844f", "is_reserved": 0, "name": "cfc247746973309744d133c7d3a5844f", "lat": 38.9252825, "fusion_lat": 0.0, "lon": -77.07704566666666, "is_disabled": 0, "fusion_lon": 0.0, "rental_uris": {"android": "https://dc.lft.to/lastmile_qr_scan", "ios": "https://dc.lft.to/lastmile_qr_scan"}, "type": "electric_scooter"}, {"bike_id": "706c608ff1c78109b8cfea820e54697c", "is_reserved": 0, "name": "706c608ff1c78109b8cfea820e54697c", "lat": 38.88822, "fusion_lat": 0.0, "lon": -76.97716233333334, "is_disabled": 0, "fusion_lon": 0.0, "rental_uris": {"android": "https://dc.lft.to/lastmile_qr_scan", "ios": "https://dc.lft.to/lastmile_qr_scan"}, "type": "electric_scooter"}, {"bike_id": "1eff6daf0c5757a17e201f32d5830ed5", "is_reserved": 0, "name": "1eff6daf0c5757a17e201f32d5830ed5", "lat": 38.8882385, "fusion_lat": 0.0, "lon": -76.9771665, "is_disabled": 0, "fusion_lon": 0.0, "rental_uris": {"android": "https://dc.lft.to/lastmile_qr_scan", "ios": "https://dc.lft.to/lastmile_qr_scan"}, "type": "electric_scooter"}, {"bike_id": "24d5ce483db24b6c7bd9ea33acf0b9fe", "is_reserved": 0, "name": "24d5ce483db24b6c7bd9ea33acf0b9fe", "lat": 38.9115265, "fusion_lat": 0.0, "lon": -77.08751833333334, "is_disabled": 0, "fusion_lon": 0.0, "rental_uris": {"android": "https://dc.lft.to/lastmile_qr_scan", "ios": "https://dc.lft.to/lastmile_qr_scan"}, "type": "electric_scooter"}, {"bike_id": "24ebfe1b351606d6779f4eae41710348", "is_reserved": 0, "name": "24ebfe1b351606d6779f4eae41710348", "lat": 38.930806, "fusion_lat": 0.0, "lon": -77.02791266666667, "is_disabled": 0, "fusion_lon": 0.0, "rental_uris": {"android": "https://dc.lft.to/lastmile_qr_scan", "ios": "https://dc.lft.to/lastmile_qr_scan"}, "type": "electric_scooter"}, {"bike_id": "148fc562ed852126d0b8237a59203d66", "is_reserved": 0, "name": "148fc562ed852126d0b8237a59203d66", "lat": 38.90019433333333, "fusion_lat": 0.0, "lon": -76.99969983333334, "is_disabled": 0, "fusion_lon": 0.0, "rental_uris": {"android": "https://dc.lft.to/lastmile_qr_scan", "ios": "https://dc.lft.to/lastmile_qr_scan"}, "type": "electric_scooter"}, {"bike_id": "2a55c757d308fc6f2dac68e8a919322c", "is_reserved": 0, "name": "2a55c757d308fc6f2dac68e8a919322c", "lat": 38.8979975, "fusion_lat": 0.0, "lon": -77.0460885, "is_disabled": 0, "fusion_lon": 0.0, "rental_uris": {"android": "https://dc.lft.to/lastmile_qr_scan", "ios": "https://dc.lft.to/lastmile_qr_scan"}, "type": "electric_scooter"}, {"bike_id": "6c7d09a4ef195f0df26a07fe8a281769", "is_reserved": 0, "name": "6c7d09a4ef195f0df26a07fe8a281769", "lat": 38.90572483333333, "fusion_lat": 0.0, "lon": -77.00806133333333, "is_disabled": 0, "fusion_lon": 0.0, "rental_uris": {"android": "https://dc.lft.to/lastmile_qr_scan", "ios": "https://dc.lft.to/lastmile_qr_scan"}, "type": "electric_scooter"}, {"bike_id": "b46eddc9a7bc8c8d6c526244e1f9dfc7", "is_reserved": 0, "name": "b46eddc9a7bc8c8d6c526244e1f9dfc7", "lat": 38.921498666666665, "fusion_lat": 0.0, "lon": -77.04342933333334, "is_disabled": 0, "fusion_lon": 0.0, "rental_uris": {"android": "https://dc.lft.to/lastmile_qr_scan", "ios": "https://dc.lft.to/lastmile_qr_scan"}, "type": "electric_scooter"}, {"bike_id": "d808ad640fe8d9771e8dc0ef3904e03f", "is_reserved": 0, "name": "d808ad640fe8d9771e8dc0ef3904e03f", "lat": 38.876520166666666, "fusion_lat": 0.0, "lon": -77.003278, "is_disabled": 0, "fusion_lon": 0.0, "rental_uris": {"android": "https://dc.lft.to/lastmile_qr_scan", "ios": "https://dc.lft.to/lastmile_qr_scan"}, "type": "electric_scooter"}, {"bike_id": "c7de675bd2c88c21a9225ae06312b441", "is_reserved": 0, "name": "c7de675bd2c88c21a9225ae06312b441", "lat": 38.89759133333333, "fusion_lat": 0.0, "lon": -77.04463866666667, "is_disabled": 0, "fusion_lon": 0.0, "rental_uris": {"android": "https://dc.lft.to/lastmile_qr_scan", "ios": "https://dc.lft.to/lastmile_qr_scan"}, "type": "electric_scooter"}, {"bike_id": "21ebb926f2e9bb6c7e78fbdbadeff9c5", "is_reserved": 0, "name": "21ebb926f2e9bb6c7e78fbdbadeff9c5", "lat": 38.924280333333336, "fusion_lat": 0.0, "lon": -77.0270335, "is_disabled": 0, "fusion_lon": 0.0, "rental_uris": {"android": "https://dc.lft.to/lastmile_qr_scan", "ios": "https://dc.lft.to/lastmile_qr_scan"}, "type": "electric_scooter"}, {"bike_id": "64de180597c7481cbd79de46933d48fa", "is_reserved": 0, "name": "64de180597c7481cbd79de46933d48fa", "lat": 38.99674666666667, "fusion_lat": 0.0, "lon": -77.02560583333333, "is_disabled": 0, "fusion_lon": 0.0, "rental_uris": {"android": "https://dc.lft.to/lastmile_qr_scan", "ios": "https://dc.lft.to/lastmile_qr_scan"}, "type": "electric_bike"}, {"bike_id": "2a01109a8f24e21b193d77a57c16d185", "is_reserved": 0, "name": "2a01109a8f24e21b193d77a57c16d185", "lat": 38.9148185, "fusion_lat": 0.0, "lon": -77.04253833333334, "is_disabled": 0, "fusion_lon": 0.0, "rental_uris": {"android": "https://dc.lft.to/lastmile_qr_scan", "ios": "https://dc.lft.to/lastmile_qr_scan"}, "type": "electric_scooter"}, {"bike_id": "a203848c94bde3ed12042e8ab1448e3b", "is_reserved": 0, "name": "a203848c94bde3ed12042e8ab1448e3b", "lat": 38.9157825, "fusion_lat": 0.0, "lon": -77.032114, "is_disabled": 0, "fusion_lon": 0.0, "rental_uris": {"android": "https://dc.lft.to/lastmile_qr_scan", "ios": "https://dc.lft.to/lastmile_qr_scan"}, "type": "electric_scooter"}, {"bike_id": "65aa2fc76db33a4a830a00676e7918ab", "is_reserved": 0, "name": "65aa2fc76db33a4a830a00676e7918ab", "lat": 38.90761166666667, "fusion_lat": 0.0, "lon": -77.03579916666666, "is_disabled": 0, "fusion_lon": 0.0, "rental_uris": {"android": "https://dc.lft.to/lastmile_qr_scan", "ios": "https://dc.lft.to/lastmile_qr_scan"}, "type": "electric_scooter"}, {"bike_id": "6b7f18b816e8b99b65174b7d86297f15", "is_reserved": 0, "name": "6b7f18b816e8b99b65174b7d86297f15", "lat": 38.92845883333333, "fusion_lat": 0.0, "lon": -77.02055733333333, "is_disabled": 0, "fusion_lon": 0.0, "rental_uris": {"android": "https://dc.lft.to/lastmile_qr_scan", "ios": "https://dc.lft.to/lastmile_qr_scan"}, "type": "electric_bike"}, {"bike_id": "527f9df4a1d53bab9e70356385c91e60", "is_reserved": 0, "name": "527f9df4a1d53bab9e70356385c91e60", "lat": 38.91290433333333, "fusion_lat": 0.0, "lon": -77.03640066666667, "is_disabled": 0, "fusion_lon": 0.0, "rental_uris": {"android": "https://dc.lft.to/lastmile_qr_scan", "ios": "https://dc.lft.to/lastmile_qr_scan"}, "type": "electric_scooter"}, {"bike_id": "2aa93036689a6307901e0da1cb6e3b41", "is_reserved": 0, "name": "2aa93036689a6307901e0da1cb6e3b41", "lat": 38.89736666666667, "fusion_lat": 0.0, "lon": -77.03308016666666, "is_disabled": 0, "fusion_lon": 0.0, "rental_uris": {"android": "https://dc.lft.to/lastmile_qr_scan", "ios": "https://dc.lft.to/lastmile_qr_scan"}, "type": "electric_scooter"}, {"bike_id": "fcf96be1a25dad4b5d66bbb078fc7f13", "is_reserved": 0, "name": "fcf96be1a25dad4b5d66bbb078fc7f13", "lat": 38.908168833333335, "fusion_lat": 0.0, "lon": -77.0418595, "is_disabled": 0, "fusion_lon": 0.0, "rental_uris": {"android": "https://dc.lft.to/lastmile_qr_scan", "ios": "https://dc.lft.to/lastmile_qr_scan"}, "type": "electric_scooter"}, {"bike_id": "c6acffee994a9a6a94d5c395e5619d1f", "is_reserved": 0, "name": "c6acffee994a9a6a94d5c395e5619d1f", "lat": 38.90125066666667, "fusion_lat": 0.0, "lon": -77.04339883333333, "is_disabled": 0, "fusion_lon": 0.0, "rental_uris": {"android": "https://dc.lft.to/lastmile_qr_scan", "ios": "https://dc.lft.to/lastmile_qr_scan"}, "type": "electric_scooter"}, {"bike_id": "971109df38e05ab285e316517b3bc954", "is_reserved": 0, "name": "971109df38e05ab285e316517b3bc954", "lat": 38.900223833333335, "fusion_lat": 0.0, "lon": -76.99966, "is_disabled": 0, "fusion_lon": 0.0, "rental_uris": {"android": "https://dc.lft.to/lastmile_qr_scan", "ios": "https://dc.lft.to/lastmile_qr_scan"}, "type": "electric_scooter"}, {"bike_id": "aab1d9011910138ce373d9ee643016bd", "is_reserved": 0, "name": "aab1d9011910138ce373d9ee643016bd", "lat": 38.915109666666666, "fusion_lat": 0.0, "lon": -77.01567333333334, "is_disabled": 0, "fusion_lon": 0.0, "rental_uris": {"android": "https://dc.lft.to/lastmile_qr_scan", "ios": "https://dc.lft.to/lastmile_qr_scan"}, "type": "electric_scooter"}, {"bike_id": "7751d414922354bdea6bcdab241ab6d5", "is_reserved": 0, "name": "7751d414922354bdea6bcdab241ab6d5", "lat": 38.929064833333335, "fusion_lat": 0.0, "lon": -77.0325115, "is_disabled": 0, "fusion_lon": 0.0, "rental_uris": {"android": "https://dc.lft.to/lastmile_qr_scan", "ios": "https://dc.lft.to/lastmile_qr_scan"}, "type": "electric_scooter"}, {"bike_id": "3842ec2ac983f8c68238cd11df35f528", "is_reserved": 0, "name": "3842ec2ac983f8c68238cd11df35f528", "lat": 38.8876685, "fusion_lat": 0.0, "lon": -77.01302616666666, "is_disabled": 0, "fusion_lon": 0.0, "rental_uris": {"android": "https://dc.lft.to/lastmile_qr_scan", "ios": "https://dc.lft.to/lastmile_qr_scan"}, "type": "electric_scooter"}, {"bike_id": "fe2daa7c15d8e35b6a983dcfb4883aa7", "is_reserved": 0, "name": "fe2daa7c15d8e35b6a983dcfb4883aa7", "lat": 38.91110616666667, "fusion_lat": 0.0, "lon": -77.04533766666667, "is_disabled": 0, "fusion_lon": 0.0, "rental_uris": {"android": "https://dc.lft.to/lastmile_qr_scan", "ios": "https://dc.lft.to/lastmile_qr_scan"}, "type": "electric_scooter"}, {"bike_id": "eeb4392460233a15f01f2c534b065a87", "is_reserved": 0, "name": "eeb4392460233a15f01f2c534b065a87", "lat": 38.91590933333333, "fusion_lat": 0.0, "lon": -77.01717316666667, "is_disabled": 0, "fusion_lon": 0.0, "rental_uris": {"android": "https://dc.lft.to/lastmile_qr_scan", "ios": "https://dc.lft.to/lastmile_qr_scan"}, "type": "electric_scooter"}, {"bike_id": "8e42f7997ed3d2a75c7d7c415829d943", "is_reserved": 0, "name": "8e42f7997ed3d2a75c7d7c415829d943", "lat": 38.908577333333334, "fusion_lat": 0.0, "lon": -77.02717783333334, "is_disabled": 0, "fusion_lon": 0.0, "rental_uris": {"android": "https://dc.lft.to/lastmile_qr_scan", "ios": "https://dc.lft.to/lastmile_qr_scan"}, "type": "electric_scooter"}, {"bike_id": "78fec5969d9c0317518b55ffab1335e4", "is_reserved": 0, "name": "78fec5969d9c0317518b55ffab1335e4", "lat": 38.89943183333333, "fusion_lat": 0.0, "lon": -77.0392255, "is_disabled": 0, "fusion_lon": 0.0, "rental_uris": {"android": "https://dc.lft.to/lastmile_qr_scan", "ios": "https://dc.lft.to/lastmile_qr_scan"}, "type": "electric_scooter"}, {"bike_id": "e96dc42ad5c93c456be4ae6a0f2b1119", "is_reserved": 0, "name": "e96dc42ad5c93c456be4ae6a0f2b1119", "lat": 38.827990166666666, "fusion_lat": 0.0, "lon": -77.12481466666667, "is_disabled": 0, "fusion_lon": 0.0, "rental_uris": {"android": "https://dc.lft.to/lastmile_qr_scan", "ios": "https://dc.lft.to/lastmile_qr_scan"}, "type": "electric_bike"}, {"bike_id": "10f99907df8a5696656ec03086461c66", "is_reserved": 0, "name": "10f99907df8a5696656ec03086461c66", "lat": 38.9542325, "fusion_lat": 0.0, "lon": -77.02765933333333, "is_disabled": 0, "fusion_lon": 0.0, "rental_uris": {"android": "https://dc.lft.to/lastmile_qr_scan", "ios": "https://dc.lft.to/lastmile_qr_scan"}, "type": "electric_scooter"}, {"bike_id": "d57f25367c2d8b875237369d72fb1c6a", "is_reserved": 0, "name": "d57f25367c2d8b875237369d72fb1c6a", "lat": 38.87488666666667, "fusion_lat": 0.0, "lon": -77.00019483333334, "is_disabled": 0, "fusion_lon": 0.0, "rental_uris": {"android": "https://dc.lft.to/lastmile_qr_scan", "ios": "https://dc.lft.to/lastmile_qr_scan"}, "type": "electric_scooter"}, {"bike_id": "65567217411500ea6c14ca64c9551b52", "is_reserved": 0, "name": "65567217411500ea6c14ca64c9551b52", "lat": 38.90014333333333, "fusion_lat": 0.0, "lon": -77.00064566666667, "is_disabled": 0, "fusion_lon": 0.0, "rental_uris": {"android": "https://dc.lft.to/lastmile_qr_scan", "ios": "https://dc.lft.to/lastmile_qr_scan"}, "type": "electric_scooter"}, {"bike_id": "4a36d0ae6cd7da2ad636ed5e07c0b33a", "is_reserved": 0, "name": "4a36d0ae6cd7da2ad636ed5e07c0b33a", "lat": 38.9329845, "fusion_lat": 0.0, "lon": -77.02141383333333, "is_disabled": 0, "fusion_lon": 0.0, "rental_uris": {"android": "https://dc.lft.to/lastmile_qr_scan", "ios": "https://dc.lft.to/lastmile_qr_scan"}, "type": "electric_scooter"}, {"bike_id": "37413ca861b94a6abd1949b36521e202", "is_reserved": 0, "name": "37413ca861b94a6abd1949b36521e202", "lat": 38.899637166666665, "fusion_lat": 0.0, "lon": -77.02192633333334, "is_disabled": 0, "fusion_lon": 0.0, "rental_uris": {"android": "https://dc.lft.to/lastmile_qr_scan", "ios": "https://dc.lft.to/lastmile_qr_scan"}, "type": "electric_scooter"}, {"bike_id": "ec4b05035ea07d699b5bcfd79e12b567", "is_reserved": 0, "name": "ec4b05035ea07d699b5bcfd79e12b567", "lat": 38.91957883333333, "fusion_lat": 0.0, "lon": -77.07845716666667, "is_disabled": 0, "fusion_lon": 0.0, "rental_uris": {"android": "https://dc.lft.to/lastmile_qr_scan", "ios": "https://dc.lft.to/lastmile_qr_scan"}, "type": "electric_scooter"}, {"bike_id": "3e12bcf221b1d759005c38ffe839b4e6", "is_reserved": 0, "name": "3e12bcf221b1d759005c38ffe839b4e6", "lat": 38.885200833333336, "fusion_lat": 0.0, "lon": -76.9820955, "is_disabled": 0, "fusion_lon": 0.0, "rental_uris": {"android": "https://dc.lft.to/lastmile_qr_scan", "ios": "https://dc.lft.to/lastmile_qr_scan"}, "type": "electric_scooter"}, {"bike_id": "5ac0a8318ba9a3341ae589809dc37f75", "is_reserved": 0, "name": "5ac0a8318ba9a3341ae589809dc37f75", "lat": 38.900640833333334, "fusion_lat": 0.0, "lon": -77.0416925, "is_disabled": 0, "fusion_lon": 0.0, "rental_uris": {"android": "https://dc.lft.to/lastmile_qr_scan", "ios": "https://dc.lft.to/lastmile_qr_scan"}, "type": "electric_scooter"}, {"bike_id": "883a246d0d06078f414c504c535fc88d", "is_reserved": 0, "name": "883a246d0d06078f414c504c535fc88d", "lat": 38.8921285, "fusion_lat": 0.0, "lon": -77.02656583333334, "is_disabled": 0, "fusion_lon": 0.0, "rental_uris": {"android": "https://dc.lft.to/lastmile_qr_scan", "ios": "https://dc.lft.to/lastmile_qr_scan"}, "type": "electric_scooter"}, {"bike_id": "8f684ab7cce56c7ad3821ebfea3e8a4a", "is_reserved": 0, "name": "8f684ab7cce56c7ad3821ebfea3e8a4a", "lat": 38.8739135, "fusion_lat": 0.0, "lon": -77.01453466666666, "is_disabled": 0, "fusion_lon": 0.0, "rental_uris": {"android": "https://dc.lft.to/lastmile_qr_scan", "ios": "https://dc.lft.to/lastmile_qr_scan"}, "type": "electric_scooter"}, {"bike_id": "45e222a54abccd9a464606035478498c", "is_reserved": 0, "name": "45e222a54abccd9a464606035478498c", "lat": 38.916982, "fusion_lat": 0.0, "lon": -77.037632, "is_disabled": 0, "fusion_lon": 0.0, "rental_uris": {"android": "https://dc.lft.to/lastmile_qr_scan", "ios": "https://dc.lft.to/lastmile_qr_scan"}, "type": "electric_scooter"}, {"bike_id": "06cf422043597ae2808938c9ba68ebab", "is_reserved": 0, "name": "06cf422043597ae2808938c9ba68ebab", "lat": 38.89931033333333, "fusion_lat": 0.0, "lon": -77.01262083333333, "is_disabled": 0, "fusion_lon": 0.0, "rental_uris": {"android": "https://dc.lft.to/lastmile_qr_scan", "ios": "https://dc.lft.to/lastmile_qr_scan"}, "type": "electric_scooter"}, {"bike_id": "441b5633ca053c7e573af4cf8daf2634", "is_reserved": 0, "name": "441b5633ca053c7e573af4cf8daf2634", "lat": 38.931909166666664, "fusion_lat": 0.0, "lon": -77.04295866666666, "is_disabled": 0, "fusion_lon": 0.0, "rental_uris": {"android": "https://dc.lft.to/lastmile_qr_scan", "ios": "https://dc.lft.to/lastmile_qr_scan"}, "type": "electric_scooter"}, {"bike_id": "c4b22ae3b399f49eda21ea0a37836772", "is_reserved": 0, "name": "c4b22ae3b399f49eda21ea0a37836772", "lat": 38.903498666666664, "fusion_lat": 0.0, "lon": -76.98664333333333, "is_disabled": 0, "fusion_lon": 0.0, "rental_uris": {"android": "https://dc.lft.to/lastmile_qr_scan", "ios": "https://dc.lft.to/lastmile_qr_scan"}, "type": "electric_bike"}, {"bike_id": "75485a9632401a050da1bc2388607db5", "is_reserved": 0, "name": "75485a9632401a050da1bc2388607db5", "lat": 38.91706216666667, "fusion_lat": 0.0, "lon": -77.030417, "is_disabled": 0, "fusion_lon": 0.0, "rental_uris": {"android": "https://dc.lft.to/lastmile_qr_scan", "ios": "https://dc.lft.to/lastmile_qr_scan"}, "type": "electric_scooter"}, {"bike_id": "4404be923273bfb8e4b1eca1c690fbf1", "is_reserved": 0, "name": "4404be923273bfb8e4b1eca1c690fbf1", "lat": 38.91763066666667, "fusion_lat": 0.0, "lon": -77.02279616666667, "is_disabled": 0, "fusion_lon": 0.0, "rental_uris": {"android": "https://dc.lft.to/lastmile_qr_scan", "ios": "https://dc.lft.to/lastmile_qr_scan"}, "type": "electric_scooter"}, {"bike_id": "d6ffd56ba0c0175e3eef449b38e5901a", "is_reserved": 0, "name": "d6ffd56ba0c0175e3eef449b38e5901a", "lat": 38.91918783333333, "fusion_lat": 0.0, "lon": -77.02729383333333, "is_disabled": 0, "fusion_lon": 0.0, "rental_uris": {"android": "https://dc.lft.to/lastmile_qr_scan", "ios": "https://dc.lft.to/lastmile_qr_scan"}, "type": "electric_scooter"}, {"bike_id": "efffb320f6050c10aa2f0e2037f22a66", "is_reserved": 0, "name": "efffb320f6050c10aa2f0e2037f22a66", "lat": 38.85336183333333, "fusion_lat": 0.0, "lon": -77.1151275, "is_disabled": 0, "fusion_lon": 0.0, "rental_uris": {"android": "https://dc.lft.to/lastmile_qr_scan", "ios": "https://dc.lft.to/lastmile_qr_scan"}, "type": "electric_bike"}, {"bike_id": "7a8831422d4d61ec8a63d90a2ba92930", "is_reserved": 0, "name": "7a8831422d4d61ec8a63d90a2ba92930", "lat": 38.9231995, "fusion_lat": 0.0, "lon": -77.04343433333334, "is_disabled": 0, "fusion_lon": 0.0, "rental_uris": {"android": "https://dc.lft.to/lastmile_qr_scan", "ios": "https://dc.lft.to/lastmile_qr_scan"}, "type": "electric_scooter"}, {"bike_id": "900980ae6d265ec60e42d542064142c6", "is_reserved": 0, "name": "900980ae6d265ec60e42d542064142c6", "lat": 38.91817, "fusion_lat": 0.0, "lon": -77.031794, "is_disabled": 0, "fusion_lon": 0.0, "rental_uris": {"android": "https://dc.lft.to/lastmile_qr_scan", "ios": "https://dc.lft.to/lastmile_qr_scan"}, "type": "electric_scooter"}, {"bike_id": "eceeba602b36dc5e00a86705a6e9a027", "is_reserved": 0, "name": "eceeba602b36dc5e00a86705a6e9a027", "lat": 38.92872766666667, "fusion_lat": 0.0, "lon": -77.032318, "is_disabled": 0, "fusion_lon": 0.0, "rental_uris": {"android": "https://dc.lft.to/lastmile_qr_scan", "ios": "https://dc.lft.to/lastmile_qr_scan"}, "type": "electric_scooter"}, {"bike_id": "1b0c4ba8c5cf0c7235fff0041b1d3722", "is_reserved": 0, "name": "1b0c4ba8c5cf0c7235fff0041b1d3722", "lat": 38.86065283333333, "fusion_lat": 0.0, "lon": -76.96710033333333, "is_disabled": 0, "fusion_lon": 0.0, "rental_uris": {"android": "https://dc.lft.to/lastmile_qr_scan", "ios": "https://dc.lft.to/lastmile_qr_scan"}, "type": "electric_scooter"}, {"bike_id": "e2f086653d1fae017e1804d568b454f2", "is_reserved": 0, "name": "e2f086653d1fae017e1804d568b454f2", "lat": 38.8871545, "fusion_lat": 0.0, "lon": -77.02580866666666, "is_disabled": 0, "fusion_lon": 0.0, "rental_uris": {"android": "https://dc.lft.to/lastmile_qr_scan", "ios": "https://dc.lft.to/lastmile_qr_scan"}, "type": "electric_scooter"}, {"bike_id": "754e599124ae54a4a3d79d12199a1c54", "is_reserved": 0, "name": "754e599124ae54a4a3d79d12199a1c54", "lat": 38.86889266666667, "fusion_lat": 0.0, "lon": -76.99001783333334, "is_disabled": 0, "fusion_lon": 0.0, "rental_uris": {"android": "https://dc.lft.to/lastmile_qr_scan", "ios": "https://dc.lft.to/lastmile_qr_scan"}, "type": "electric_scooter"}, {"bike_id": "3c8c7eea48a2729a13edc03767aadeda", "is_reserved": 0, "name": "3c8c7eea48a2729a13edc03767aadeda", "lat": 39.0343135, "fusion_lat": 0.0, "lon": -77.04305866666667, "is_disabled": 0, "fusion_lon": 0.0, "rental_uris": {"android": "https://dc.lft.to/lastmile_qr_scan", "ios": "https://dc.lft.to/lastmile_qr_scan"}, "type": "electric_bike"}, {"bike_id": "848d768743dde8a973b37b8bd653223d", "is_reserved": 0, "name": "848d768743dde8a973b37b8bd653223d", "lat": 38.91129983333333, "fusion_lat": 0.0, "lon": -77.02198866666667, "is_disabled": 0, "fusion_lon": 0.0, "rental_uris": {"android": "https://dc.lft.to/lastmile_qr_scan", "ios": "https://dc.lft.to/lastmile_qr_scan"}, "type": "electric_scooter"}, {"bike_id": "2d2be4b1f6c829d746e051ead8f8909d", "is_reserved": 0, "name": "2d2be4b1f6c829d746e051ead8f8909d", "lat": 38.90536016666667, "fusion_lat": 0.0, "lon": -77.00694566666667, "is_disabled": 0, "fusion_lon": 0.0, "rental_uris": {"android": "https://dc.lft.to/lastmile_qr_scan", "ios": "https://dc.lft.to/lastmile_qr_scan"}, "type": "electric_scooter"}, {"bike_id": "8d2bd1c1bcaef741ca9ce113a0b3393d", "is_reserved": 0, "name": "8d2bd1c1bcaef741ca9ce113a0b3393d", "lat": 38.87481183333333, "fusion_lat": 0.0, "lon": -77.00592716666667, "is_disabled": 0, "fusion_lon": 0.0, "rental_uris": {"android": "https://dc.lft.to/lastmile_qr_scan", "ios": "https://dc.lft.to/lastmile_qr_scan"}, "type": "electric_scooter"}, {"bike_id": "5a5732febb7cc21dcdda65bd2a42e976", "is_reserved": 0, "name": "5a5732febb7cc21dcdda65bd2a42e976", "lat": 38.89774766666667, "fusion_lat": 0.0, "lon": -76.98461583333334, "is_disabled": 0, "fusion_lon": 0.0, "rental_uris": {"android": "https://dc.lft.to/lastmile_qr_scan", "ios": "https://dc.lft.to/lastmile_qr_scan"}, "type": "electric_scooter"}, {"bike_id": "220535677bd503389e200b38dc72b841", "is_reserved": 0, "name": "220535677bd503389e200b38dc72b841", "lat": 38.902477, "fusion_lat": 0.0, "lon": -77.03263783333334, "is_disabled": 0, "fusion_lon": 0.0, "rental_uris": {"android": "https://dc.lft.to/lastmile_qr_scan", "ios": "https://dc.lft.to/lastmile_qr_scan"}, "type": "electric_scooter"}, {"bike_id": "6971b9115562d46bfd6aac16fd3b4a4b", "is_reserved": 0, "name": "6971b9115562d46bfd6aac16fd3b4a4b", "lat": 38.90483233333333, "fusion_lat": 0.0, "lon": -77.03831083333333, "is_disabled": 0, "fusion_lon": 0.0, "rental_uris": {"android": "https://dc.lft.to/lastmile_qr_scan", "ios": "https://dc.lft.to/lastmile_qr_scan"}, "type": "electric_scooter"}, {"bike_id": "b14be2b92cf0f4f5310e5f4d87a28e60", "is_reserved": 0, "name": "b14be2b92cf0f4f5310e5f4d87a28e60", "lat": 38.89184616666667, "fusion_lat": 0.0, "lon": -77.0158795, "is_disabled": 0, "fusion_lon": 0.0, "rental_uris": {"android": "https://dc.lft.to/lastmile_qr_scan", "ios": "https://dc.lft.to/lastmile_qr_scan"}, "type": "electric_scooter"}, {"bike_id": "b193f59804baab38d9b402c64f1e1039", "is_reserved": 0, "name": "b193f59804baab38d9b402c64f1e1039", "lat": 38.873775333333334, "fusion_lat": 0.0, "lon": -77.00036116666666, "is_disabled": 0, "fusion_lon": 0.0, "rental_uris": {"android": "https://dc.lft.to/lastmile_qr_scan", "ios": "https://dc.lft.to/lastmile_qr_scan"}, "type": "electric_scooter"}, {"bike_id": "d9dfd01e774ced7207061331aaa25481", "is_reserved": 0, "name": "d9dfd01e774ced7207061331aaa25481", "lat": 38.943198333333335, "fusion_lat": 0.0, "lon": -77.06134016666667, "is_disabled": 0, "fusion_lon": 0.0, "rental_uris": {"android": "https://dc.lft.to/lastmile_qr_scan", "ios": "https://dc.lft.to/lastmile_qr_scan"}, "type": "electric_scooter"}, {"bike_id": "b9b0107bf8d08531f7122545c6b3c7f0", "is_reserved": 0, "name": "b9b0107bf8d08531f7122545c6b3c7f0", "lat": 38.90597133333333, "fusion_lat": 0.0, "lon": -77.03340033333333, "is_disabled": 0, "fusion_lon": 0.0, "rental_uris": {"android": "https://dc.lft.to/lastmile_qr_scan", "ios": "https://dc.lft.to/lastmile_qr_scan"}, "type": "electric_scooter"}, {"bike_id": "46047b680a380cc79fcd43475d6f6291", "is_reserved": 0, "name": "46047b680a380cc79fcd43475d6f6291", "lat": 38.922237333333335, "fusion_lat": 0.0, "lon": -77.02095033333333, "is_disabled": 0, "fusion_lon": 0.0, "rental_uris": {"android": "https://dc.lft.to/lastmile_qr_scan", "ios": "https://dc.lft.to/lastmile_qr_scan"}, "type": "electric_scooter"}, {"bike_id": "37650a68599087f6e8bf956095a23790", "is_reserved": 0, "name": "37650a68599087f6e8bf956095a23790", "lat": 38.874213166666664, "fusion_lat": 0.0, "lon": -76.9717645, "is_disabled": 0, "fusion_lon": 0.0, "rental_uris": {"android": "https://dc.lft.to/lastmile_qr_scan", "ios": "https://dc.lft.to/lastmile_qr_scan"}, "type": "electric_scooter"}, {"bike_id": "6aeaca41b2798386f3aa57784ea8719b", "is_reserved": 0, "name": "6aeaca41b2798386f3aa57784ea8719b", "lat": 38.91419966666667, "fusion_lat": 0.0, "lon": -77.02092283333333, "is_disabled": 0, "fusion_lon": 0.0, "rental_uris": {"android": "https://dc.lft.to/lastmile_qr_scan", "ios": "https://dc.lft.to/lastmile_qr_scan"}, "type": "electric_scooter"}, {"bike_id": "200a16416347289b2e9990b67466ef1a", "is_reserved": 0, "name": "200a16416347289b2e9990b67466ef1a", "lat": 38.90406083333333, "fusion_lat": 0.0, "lon": -77.0363355, "is_disabled": 0, "fusion_lon": 0.0, "rental_uris": {"android": "https://dc.lft.to/lastmile_qr_scan", "ios": "https://dc.lft.to/lastmile_qr_scan"}, "type": "electric_scooter"}, {"bike_id": "042e36f4dd9d6a62479a5763a467a52e", "is_reserved": 0, "name": "042e36f4dd9d6a62479a5763a467a52e", "lat": 38.89845583333334, "fusion_lat": 0.0, "lon": -77.02219766666667, "is_disabled": 0, "fusion_lon": 0.0, "rental_uris": {"android": "https://dc.lft.to/lastmile_qr_scan", "ios": "https://dc.lft.to/lastmile_qr_scan"}, "type": "electric_scooter"}, {"bike_id": "641286ffcdc7ffb2d076fa34ac096b7b", "is_reserved": 0, "name": "641286ffcdc7ffb2d076fa34ac096b7b", "lat": 38.8726025, "fusion_lat": 0.0, "lon": -77.00577133333333, "is_disabled": 0, "fusion_lon": 0.0, "rental_uris": {"android": "https://dc.lft.to/lastmile_qr_scan", "ios": "https://dc.lft.to/lastmile_qr_scan"}, "type": "electric_scooter"}, {"bike_id": "eb701274f7fdaa50072c7575a7c9351d", "is_reserved": 0, "name": "eb701274f7fdaa50072c7575a7c9351d", "lat": 38.91555116666667, "fusion_lat": 0.0, "lon": -77.00583466666667, "is_disabled": 0, "fusion_lon": 0.0, "rental_uris": {"android": "https://dc.lft.to/lastmile_qr_scan", "ios": "https://dc.lft.to/lastmile_qr_scan"}, "type": "electric_scooter"}, {"bike_id": "1d673dd9cca56259b4917a862343d509", "is_reserved": 0, "name": "1d673dd9cca56259b4917a862343d509", "lat": 38.92387933333333, "fusion_lat": 0.0, "lon": -77.0273805, "is_disabled": 0, "fusion_lon": 0.0, "rental_uris": {"android": "https://dc.lft.to/lastmile_qr_scan", "ios": "https://dc.lft.to/lastmile_qr_scan"}, "type": "electric_scooter"}, {"bike_id": "8a5582b26aef59715f86f5238d8fa504", "is_reserved": 0, "name": "8a5582b26aef59715f86f5238d8fa504", "lat": 38.902827333333335, "fusion_lat": 0.0, "lon": -77.02380266666667, "is_disabled": 0, "fusion_lon": 0.0, "rental_uris": {"android": "https://dc.lft.to/lastmile_qr_scan", "ios": "https://dc.lft.to/lastmile_qr_scan"}, "type": "electric_scooter"}, {"bike_id": "e69870ff4a78795792aa2aa4cea17301", "is_reserved": 0, "name": "e69870ff4a78795792aa2aa4cea17301", "lat": 38.90955916666667, "fusion_lat": 0.0, "lon": -77.04849033333333, "is_disabled": 0, "fusion_lon": 0.0, "rental_uris": {"android": "https://dc.lft.to/lastmile_qr_scan", "ios": "https://dc.lft.to/lastmile_qr_scan"}, "type": "electric_scooter"}, {"bike_id": "04fcc3f7bb543c91317fa606f9ef2d1e", "is_reserved": 0, "name": "04fcc3f7bb543c91317fa606f9ef2d1e", "lat": 38.923693, "fusion_lat": 0.0, "lon": -77.05178233333334, "is_disabled": 0, "fusion_lon": 0.0, "rental_uris": {"android": "https://dc.lft.to/lastmile_qr_scan", "ios": "https://dc.lft.to/lastmile_qr_scan"}, "type": "electric_scooter"}, {"bike_id": "ae0de8b5dd1e8c829ee8fe79ff1f5086", "is_reserved": 0, "name": "ae0de8b5dd1e8c829ee8fe79ff1f5086", "lat": 38.900651333333336, "fusion_lat": 0.0, "lon": -77.026219, "is_disabled": 0, "fusion_lon": 0.0, "rental_uris": {"android": "https://dc.lft.to/lastmile_qr_scan", "ios": "https://dc.lft.to/lastmile_qr_scan"}, "type": "electric_scooter"}, {"bike_id": "26732fef00004d2582987d85c4bd54f3", "is_reserved": 0, "name": "26732fef00004d2582987d85c4bd54f3", "lat": 38.873811333333336, "fusion_lat": 0.0, "lon": -77.0004605, "is_disabled": 0, "fusion_lon": 0.0, "rental_uris": {"android": "https://dc.lft.to/lastmile_qr_scan", "ios": "https://dc.lft.to/lastmile_qr_scan"}, "type": "electric_scooter"}, {"bike_id": "c6df19bcf325ac477fcc2cd083957ed8", "is_reserved": 0, "name": "c6df19bcf325ac477fcc2cd083957ed8", "lat": 38.902062, "fusion_lat": 0.0, "lon": -77.047078, "is_disabled": 0, "fusion_lon": 0.0, "rental_uris": {"android": "https://dc.lft.to/lastmile_qr_scan", "ios": "https://dc.lft.to/lastmile_qr_scan"}, "type": "electric_scooter"}, {"bike_id": "ba75dc244ed6df6944d4ae54c8513ad1", "is_reserved": 0, "name": "ba75dc244ed6df6944d4ae54c8513ad1", "lat": 38.90075866666667, "fusion_lat": 0.0, "lon": -77.027091, "is_disabled": 0, "fusion_lon": 0.0, "rental_uris": {"android": "https://dc.lft.to/lastmile_qr_scan", "ios": "https://dc.lft.to/lastmile_qr_scan"}, "type": "electric_scooter"}, {"bike_id": "1248e12909cbe7cd222c2af6a1426cbb", "is_reserved": 0, "name": "1248e12909cbe7cd222c2af6a1426cbb", "lat": 38.919135833333335, "fusion_lat": 0.0, "lon": -77.02418416666667, "is_disabled": 0, "fusion_lon": 0.0, "rental_uris": {"android": "https://dc.lft.to/lastmile_qr_scan", "ios": "https://dc.lft.to/lastmile_qr_scan"}, "type": "electric_scooter"}, {"bike_id": "2b920a6d137046f9d4174cf22fdab1a6", "is_reserved": 0, "name": "2b920a6d137046f9d4174cf22fdab1a6", "lat": 38.91933216666666, "fusion_lat": 0.0, "lon": -77.0181215, "is_disabled": 0, "fusion_lon": 0.0, "rental_uris": {"android": "https://dc.lft.to/lastmile_qr_scan", "ios": "https://dc.lft.to/lastmile_qr_scan"}, "type": "electric_scooter"}, {"bike_id": "594a3966c4f23db67fb78e1ab2f4cf08", "is_reserved": 0, "name": "594a3966c4f23db67fb78e1ab2f4cf08", "lat": 38.9088615, "fusion_lat": 0.0, "lon": -77.0029375, "is_disabled": 0, "fusion_lon": 0.0, "rental_uris": {"android": "https://dc.lft.to/lastmile_qr_scan", "ios": "https://dc.lft.to/lastmile_qr_scan"}, "type": "electric_scooter"}, {"bike_id": "0178eeb19466ac384bff00c54363ab74", "is_reserved": 0, "name": "0178eeb19466ac384bff00c54363ab74", "lat": 38.907523833333336, "fusion_lat": 0.0, "lon": -77.02391616666667, "is_disabled": 0, "fusion_lon": 0.0, "rental_uris": {"android": "https://dc.lft.to/lastmile_qr_scan", "ios": "https://dc.lft.to/lastmile_qr_scan"}, "type": "electric_scooter"}, {"bike_id": "1317ed867c028cc6bab83fb647f10f7a", "is_reserved": 0, "name": "1317ed867c028cc6bab83fb647f10f7a", "lat": 38.940849166666666, "fusion_lat": 0.0, "lon": -77.026396, "is_disabled": 0, "fusion_lon": 0.0, "rental_uris": {"android": "https://dc.lft.to/lastmile_qr_scan", "ios": "https://dc.lft.to/lastmile_qr_scan"}, "type": "electric_scooter"}, {"bike_id": "a07c44540a4788a9c94bd111603a00f6", "is_reserved": 0, "name": "a07c44540a4788a9c94bd111603a00f6", "lat": 38.927408666666665, "fusion_lat": 0.0, "lon": -77.022473, "is_disabled": 0, "fusion_lon": 0.0, "rental_uris": {"android": "https://dc.lft.to/lastmile_qr_scan", "ios": "https://dc.lft.to/lastmile_qr_scan"}, "type": "electric_scooter"}, {"bike_id": "7bc6f1e078171b63fd1cb7dfdfc3bec0", "is_reserved": 0, "name": "7bc6f1e078171b63fd1cb7dfdfc3bec0", "lat": 38.92049466666667, "fusion_lat": 0.0, "lon": -77.03387333333333, "is_disabled": 0, "fusion_lon": 0.0, "rental_uris": {"android": "https://dc.lft.to/lastmile_qr_scan", "ios": "https://dc.lft.to/lastmile_qr_scan"}, "type": "electric_scooter"}, {"bike_id": "38e013731cfaad0b10537540be05eedc", "is_reserved": 0, "name": "38e013731cfaad0b10537540be05eedc", "lat": 38.89690566666667, "fusion_lat": 0.0, "lon": -77.00493033333333, "is_disabled": 0, "fusion_lon": 0.0, "rental_uris": {"android": "https://dc.lft.to/lastmile_qr_scan", "ios": "https://dc.lft.to/lastmile_qr_scan"}, "type": "electric_scooter"}, {"bike_id": "68c006200d6779d522cc8811d66714c8", "is_reserved": 0, "name": "68c006200d6779d522cc8811d66714c8", "lat": 38.91577866666667, "fusion_lat": 0.0, "lon": -77.01232316666666, "is_disabled": 0, "fusion_lon": 0.0, "rental_uris": {"android": "https://dc.lft.to/lastmile_qr_scan", "ios": "https://dc.lft.to/lastmile_qr_scan"}, "type": "electric_scooter"}, {"bike_id": "d5723cedbb4ce5641d2f80b0aadaac10", "is_reserved": 0, "name": "d5723cedbb4ce5641d2f80b0aadaac10", "lat": 38.92471833333333, "fusion_lat": 0.0, "lon": -77.02213033333334, "is_disabled": 0, "fusion_lon": 0.0, "rental_uris": {"android": "https://dc.lft.to/lastmile_qr_scan", "ios": "https://dc.lft.to/lastmile_qr_scan"}, "type": "electric_scooter"}, {"bike_id": "bfb90b2861c6d7d874b8fab1d68cd135", "is_reserved": 0, "name": "bfb90b2861c6d7d874b8fab1d68cd135", "lat": 38.912251833333336, "fusion_lat": 0.0, "lon": -77.04883316666667, "is_disabled": 0, "fusion_lon": 0.0, "rental_uris": {"android": "https://dc.lft.to/lastmile_qr_scan", "ios": "https://dc.lft.to/lastmile_qr_scan"}, "type": "electric_scooter"}, {"bike_id": "d8343283e91c10d721f6e43244fa56f6", "is_reserved": 0, "name": "d8343283e91c10d721f6e43244fa56f6", "lat": 38.9148385, "fusion_lat": 0.0, "lon": -77.0424305, "is_disabled": 0, "fusion_lon": 0.0, "rental_uris": {"android": "https://dc.lft.to/lastmile_qr_scan", "ios": "https://dc.lft.to/lastmile_qr_scan"}, "type": "electric_scooter"}, {"bike_id": "2527d5a736122417f810a7b67a7f06f1", "is_reserved": 0, "name": "2527d5a736122417f810a7b67a7f06f1", "lat": 38.91024783333334, "fusion_lat": 0.0, "lon": -77.03441766666667, "is_disabled": 0, "fusion_lon": 0.0, "rental_uris": {"android": "https://dc.lft.to/lastmile_qr_scan", "ios": "https://dc.lft.to/lastmile_qr_scan"}, "type": "electric_scooter"}, {"bike_id": "7b4a637a778d9be94c5f8b7d0bb91ada", "is_reserved": 0, "name": "7b4a637a778d9be94c5f8b7d0bb91ada", "lat": 38.92584883333333, "fusion_lat": 0.0, "lon": -77.052804, "is_disabled": 0, "fusion_lon": 0.0, "rental_uris": {"android": "https://dc.lft.to/lastmile_qr_scan", "ios": "https://dc.lft.to/lastmile_qr_scan"}, "type": "electric_scooter"}, {"bike_id": "3ff79cbd02f13a54b0bfb9187f246cb1", "is_reserved": 0, "name": "3ff79cbd02f13a54b0bfb9187f246cb1", "lat": 38.89894133333333, "fusion_lat": 0.0, "lon": -76.98064583333333, "is_disabled": 0, "fusion_lon": 0.0, "rental_uris": {"android": "https://dc.lft.to/lastmile_qr_scan", "ios": "https://dc.lft.to/lastmile_qr_scan"}, "type": "electric_scooter"}, {"bike_id": "e3734a121097eefdfdeaf3478f3a20b6", "is_reserved": 0, "name": "e3734a121097eefdfdeaf3478f3a20b6", "lat": 38.905446833333336, "fusion_lat": 0.0, "lon": -77.00587433333334, "is_disabled": 0, "fusion_lon": 0.0, "rental_uris": {"android": "https://dc.lft.to/lastmile_qr_scan", "ios": "https://dc.lft.to/lastmile_qr_scan"}, "type": "electric_scooter"}, {"bike_id": "b94034b3cd56e9e5a396a3d3bff08a5d", "is_reserved": 0, "name": "b94034b3cd56e9e5a396a3d3bff08a5d", "lat": 39.07053783333333, "fusion_lat": 0.0, "lon": -77.11510466666667, "is_disabled": 0, "fusion_lon": 0.0, "rental_uris": {"android": "https://dc.lft.to/lastmile_qr_scan", "ios": "https://dc.lft.to/lastmile_qr_scan"}, "type": "electric_bike"}, {"bike_id": "27837f45bb7b1e9682b6e255ac9bdd25", "is_reserved": 0, "name": "27837f45bb7b1e9682b6e255ac9bdd25", "lat": 38.883978666666664, "fusion_lat": 0.0, "lon": -77.0196745, "is_disabled": 0, "fusion_lon": 0.0, "rental_uris": {"android": "https://dc.lft.to/lastmile_qr_scan", "ios": "https://dc.lft.to/lastmile_qr_scan"}, "type": "electric_scooter"}, {"bike_id": "a58ce0893fd0c305838ef50de740afd6", "is_reserved": 0, "name": "a58ce0893fd0c305838ef50de740afd6", "lat": 38.8217385, "fusion_lat": 0.0, "lon": -77.00143333333334, "is_disabled": 0, "fusion_lon": 0.0, "rental_uris": {"android": "https://dc.lft.to/lastmile_qr_scan", "ios": "https://dc.lft.to/lastmile_qr_scan"}, "type": "electric_bike"}, {"bike_id": "b349c22ad8b8dcaf9ac1d60932fb17bd", "is_reserved": 0, "name": "b349c22ad8b8dcaf9ac1d60932fb17bd", "lat": 38.92166516666666, "fusion_lat": 0.0, "lon": -77.03844966666666, "is_disabled": 0, "fusion_lon": 0.0, "rental_uris": {"android": "https://dc.lft.to/lastmile_qr_scan", "ios": "https://dc.lft.to/lastmile_qr_scan"}, "type": "electric_scooter"}, {"bike_id": "540f76f1dcaaaa988c6f82757e443ac1", "is_reserved": 0, "name": "540f76f1dcaaaa988c6f82757e443ac1", "lat": 38.900287166666665, "fusion_lat": 0.0, "lon": -76.99135483333333, "is_disabled": 0, "fusion_lon": 0.0, "rental_uris": {"android": "https://dc.lft.to/lastmile_qr_scan", "ios": "https://dc.lft.to/lastmile_qr_scan"}, "type": "electric_scooter"}, {"bike_id": "cd8834bb215fe4a1a9c66c9715b85282", "is_reserved": 0, "name": "cd8834bb215fe4a1a9c66c9715b85282", "lat": 38.8960255, "fusion_lat": 0.0, "lon": -77.0092875, "is_disabled": 0, "fusion_lon": 0.0, "rental_uris": {"android": "https://dc.lft.to/lastmile_qr_scan", "ios": "https://dc.lft.to/lastmile_qr_scan"}, "type": "electric_scooter"}, {"bike_id": "ffeffe4d3b6c2e5261100b863c4899a8", "is_reserved": 0, "name": "ffeffe4d3b6c2e5261100b863c4899a8", "lat": 38.896491166666664, "fusion_lat": 0.0, "lon": -77.02693033333334, "is_disabled": 0, "fusion_lon": 0.0, "rental_uris": {"android": "https://dc.lft.to/lastmile_qr_scan", "ios": "https://dc.lft.to/lastmile_qr_scan"}, "type": "electric_scooter"}, {"bike_id": "c562eab1a8cef6ea0556291c4cd790d3", "is_reserved": 0, "name": "c562eab1a8cef6ea0556291c4cd790d3", "lat": 38.85801816666667, "fusion_lat": 0.0, "lon": -76.98722, "is_disabled": 0, "fusion_lon": 0.0, "rental_uris": {"android": "https://dc.lft.to/lastmile_qr_scan", "ios": "https://dc.lft.to/lastmile_qr_scan"}, "type": "electric_bike"}, {"bike_id": "da5619cd7bfb1df7a8f8dad3762b7ee2", "is_reserved": 0, "name": "da5619cd7bfb1df7a8f8dad3762b7ee2", "lat": 38.9020085, "fusion_lat": 0.0, "lon": -77.02365816666666, "is_disabled": 0, "fusion_lon": 0.0, "rental_uris": {"android": "https://dc.lft.to/lastmile_qr_scan", "ios": "https://dc.lft.to/lastmile_qr_scan"}, "type": "electric_scooter"}, {"bike_id": "c574220dd233e3d6287ea794f8f3901d", "is_reserved": 0, "name": "c574220dd233e3d6287ea794f8f3901d", "lat": 38.890167, "fusion_lat": 0.0, "lon": -76.93734616666667, "is_disabled": 0, "fusion_lon": 0.0, "rental_uris": {"android": "https://dc.lft.to/lastmile_qr_scan", "ios": "https://dc.lft.to/lastmile_qr_scan"}, "type": "electric_scooter"}, {"bike_id": "092779a1df8305ea28cad104fb3e5328", "is_reserved": 0, "name": "092779a1df8305ea28cad104fb3e5328", "lat": 38.895442833333334, "fusion_lat": 0.0, "lon": -76.98334883333334, "is_disabled": 0, "fusion_lon": 0.0, "rental_uris": {"android": "https://dc.lft.to/lastmile_qr_scan", "ios": "https://dc.lft.to/lastmile_qr_scan"}, "type": "electric_scooter"}, {"bike_id": "722eb3738303a202d195e1211196c6d1", "is_reserved": 0, "name": "722eb3738303a202d195e1211196c6d1", "lat": 38.91033683333333, "fusion_lat": 0.0, "lon": -76.99339166666667, "is_disabled": 0, "fusion_lon": 0.0, "rental_uris": {"android": "https://dc.lft.to/lastmile_qr_scan", "ios": "https://dc.lft.to/lastmile_qr_scan"}, "type": "electric_scooter"}, {"bike_id": "eb6352ab8a15175822cd03ec27c84611", "is_reserved": 0, "name": "eb6352ab8a15175822cd03ec27c84611", "lat": 38.90082483333333, "fusion_lat": 0.0, "lon": -77.05142466666666, "is_disabled": 0, "fusion_lon": 0.0, "rental_uris": {"android": "https://dc.lft.to/lastmile_qr_scan", "ios": "https://dc.lft.to/lastmile_qr_scan"}, "type": "electric_scooter"}, {"bike_id": "7e97f4aab69f1ddf29b6204f93e84556", "is_reserved": 0, "name": "7e97f4aab69f1ddf29b6204f93e84556", "lat": 38.90085033333333, "fusion_lat": 0.0, "lon": -77.05024983333334, "is_disabled": 0, "fusion_lon": 0.0, "rental_uris": {"android": "https://dc.lft.to/lastmile_qr_scan", "ios": "https://dc.lft.to/lastmile_qr_scan"}, "type": "electric_scooter"}, {"bike_id": "880dbb2a47701373b98cf0bfb1f9b57f", "is_reserved": 0, "name": "880dbb2a47701373b98cf0bfb1f9b57f", "lat": 38.901224166666665, "fusion_lat": 0.0, "lon": -77.0447645, "is_disabled": 0, "fusion_lon": 0.0, "rental_uris": {"android": "https://dc.lft.to/lastmile_qr_scan", "ios": "https://dc.lft.to/lastmile_qr_scan"}, "type": "electric_scooter"}, {"bike_id": "a002e878e8f64dc0872a1c417cbdae26", "is_reserved": 0, "name": "a002e878e8f64dc0872a1c417cbdae26", "lat": 38.908471, "fusion_lat": 0.0, "lon": -77.00369016666667, "is_disabled": 0, "fusion_lon": 0.0, "rental_uris": {"android": "https://dc.lft.to/lastmile_qr_scan", "ios": "https://dc.lft.to/lastmile_qr_scan"}, "type": "electric_scooter"}, {"bike_id": "41e7f851a51b6993a5cc85094fbd282b", "is_reserved": 0, "name": "41e7f851a51b6993a5cc85094fbd282b", "lat": 38.89626833333333, "fusion_lat": 0.0, "lon": -76.99847583333333, "is_disabled": 0, "fusion_lon": 0.0, "rental_uris": {"android": "https://dc.lft.to/lastmile_qr_scan", "ios": "https://dc.lft.to/lastmile_qr_scan"}, "type": "electric_scooter"}, {"bike_id": "6c7781c36c08db703c90d78d935ae87b", "is_reserved": 0, "name": "6c7781c36c08db703c90d78d935ae87b", "lat": 38.847009166666666, "fusion_lat": 0.0, "lon": -76.980416, "is_disabled": 0, "fusion_lon": 0.0, "rental_uris": {"android": "https://dc.lft.to/lastmile_qr_scan", "ios": "https://dc.lft.to/lastmile_qr_scan"}, "type": "electric_bike"}, {"bike_id": "a35fa84b30ed0488766284a37c7d65bc", "is_reserved": 0, "name": "a35fa84b30ed0488766284a37c7d65bc", "lat": 38.908845666666664, "fusion_lat": 0.0, "lon": -77.03853066666667, "is_disabled": 0, "fusion_lon": 0.0, "rental_uris": {"android": "https://dc.lft.to/lastmile_qr_scan", "ios": "https://dc.lft.to/lastmile_qr_scan"}, "type": "electric_scooter"}, {"bike_id": "b2917513ec94ef56d8ef243d1f2062a7", "is_reserved": 0, "name": "b2917513ec94ef56d8ef243d1f2062a7", "lat": 38.879661666666664, "fusion_lat": 0.0, "lon": -76.91611483333334, "is_disabled": 0, "fusion_lon": 0.0, "rental_uris": {"android": "https://dc.lft.to/lastmile_qr_scan", "ios": "https://dc.lft.to/lastmile_qr_scan"}, "type": "electric_bike"}, {"bike_id": "6036fcc08bc0f3ca262a89be5fca511b", "is_reserved": 0, "name": "6036fcc08bc0f3ca262a89be5fca511b", "lat": 38.8997085, "fusion_lat": 0.0, "lon": -77.016101, "is_disabled": 0, "fusion_lon": 0.0, "rental_uris": {"android": "https://dc.lft.to/lastmile_qr_scan", "ios": "https://dc.lft.to/lastmile_qr_scan"}, "type": "electric_scooter"}, {"bike_id": "0f3c86626a04f3038508884abe5fe9c3", "is_reserved": 0, "name": "0f3c86626a04f3038508884abe5fe9c3", "lat": 38.94494866666667, "fusion_lat": 0.0, "lon": -77.036274, "is_disabled": 0, "fusion_lon": 0.0, "rental_uris": {"android": "https://dc.lft.to/lastmile_qr_scan", "ios": "https://dc.lft.to/lastmile_qr_scan"}, "type": "electric_scooter"}, {"bike_id": "006cbad3a36da54514d7b41eebbc66d0", "is_reserved": 0, "name": "006cbad3a36da54514d7b41eebbc66d0", "lat": 38.8875, "fusion_lat": 0.0, "lon": -77.030689, "is_disabled": 0, "fusion_lon": 0.0, "rental_uris": {"android": "https://dc.lft.to/lastmile_qr_scan", "ios": "https://dc.lft.to/lastmile_qr_scan"}, "type": "electric_scooter"}, {"bike_id": "de1592e1aed7b7598ae8c883fa1fede9", "is_reserved": 0, "name": "de1592e1aed7b7598ae8c883fa1fede9", "lat": 38.89904966666667, "fusion_lat": 0.0, "lon": -76.99155983333333, "is_disabled": 0, "fusion_lon": 0.0, "rental_uris": {"android": "https://dc.lft.to/lastmile_qr_scan", "ios": "https://dc.lft.to/lastmile_qr_scan"}, "type": "electric_scooter"}, {"bike_id": "a502fbf2336232e0c8fbb0b113dd9319", "is_reserved": 0, "name": "a502fbf2336232e0c8fbb0b113dd9319", "lat": 38.92793283333334, "fusion_lat": 0.0, "lon": -77.0244855, "is_disabled": 0, "fusion_lon": 0.0, "rental_uris": {"android": "https://dc.lft.to/lastmile_qr_scan", "ios": "https://dc.lft.to/lastmile_qr_scan"}, "type": "electric_scooter"}, {"bike_id": "9192ff3903b2562d933c3b178cdd94be", "is_reserved": 0, "name": "9192ff3903b2562d933c3b178cdd94be", "lat": 38.90013833333333, "fusion_lat": 0.0, "lon": -77.01643766666666, "is_disabled": 0, "fusion_lon": 0.0, "rental_uris": {"android": "https://dc.lft.to/lastmile_qr_scan", "ios": "https://dc.lft.to/lastmile_qr_scan"}, "type": "electric_scooter"}, {"bike_id": "92a5047e880e093ec08b37402fe04bd2", "is_reserved": 0, "name": "92a5047e880e093ec08b37402fe04bd2", "lat": 38.91111266666667, "fusion_lat": 0.0, "lon": -77.04089933333333, "is_disabled": 0, "fusion_lon": 0.0, "rental_uris": {"android": "https://dc.lft.to/lastmile_qr_scan", "ios": "https://dc.lft.to/lastmile_qr_scan"}, "type": "electric_scooter"}, {"bike_id": "37961d8851fac96edd441e31c54780c1", "is_reserved": 0, "name": "37961d8851fac96edd441e31c54780c1", "lat": 38.921193333333335, "fusion_lat": 0.0, "lon": -77.01210183333333, "is_disabled": 0, "fusion_lon": 0.0, "rental_uris": {"android": "https://dc.lft.to/lastmile_qr_scan", "ios": "https://dc.lft.to/lastmile_qr_scan"}, "type": "electric_scooter"}, {"bike_id": "5e5ab605fdd8053157d1ec686a8a5bdf", "is_reserved": 0, "name": "5e5ab605fdd8053157d1ec686a8a5bdf", "lat": 38.85517983333333, "fusion_lat": 0.0, "lon": -76.98420216666666, "is_disabled": 0, "fusion_lon": 0.0, "rental_uris": {"android": "https://dc.lft.to/lastmile_qr_scan", "ios": "https://dc.lft.to/lastmile_qr_scan"}, "type": "electric_bike"}, {"bike_id": "02cce416c7122df34dde93d5bc947b74", "is_reserved": 0, "name": "02cce416c7122df34dde93d5bc947b74", "lat": 38.91421733333333, "fusion_lat": 0.0, "lon": -77.01794683333334, "is_disabled": 0, "fusion_lon": 0.0, "rental_uris": {"android": "https://dc.lft.to/lastmile_qr_scan", "ios": "https://dc.lft.to/lastmile_qr_scan"}, "type": "electric_scooter"}, {"bike_id": "e902204c410e6743d9d647b3a7dd225f", "is_reserved": 0, "name": "e902204c410e6743d9d647b3a7dd225f", "lat": 38.872095, "fusion_lat": 0.0, "lon": -77.00574416666667, "is_disabled": 0, "fusion_lon": 0.0, "rental_uris": {"android": "https://dc.lft.to/lastmile_qr_scan", "ios": "https://dc.lft.to/lastmile_qr_scan"}, "type": "electric_scooter"}, {"bike_id": "83d7e8494063d798316730b7a294c610", "is_reserved": 0, "name": "83d7e8494063d798316730b7a294c610", "lat": 38.91700683333333, "fusion_lat": 0.0, "lon": -77.03086383333333, "is_disabled": 0, "fusion_lon": 0.0, "rental_uris": {"android": "https://dc.lft.to/lastmile_qr_scan", "ios": "https://dc.lft.to/lastmile_qr_scan"}, "type": "electric_scooter"}, {"bike_id": "8c7ff66190bb051cefcce820f4fa92b1", "is_reserved": 0, "name": "8c7ff66190bb051cefcce820f4fa92b1", "lat": 38.897135166666665, "fusion_lat": 0.0, "lon": -77.02685366666667, "is_disabled": 0, "fusion_lon": 0.0, "rental_uris": {"android": "https://dc.lft.to/lastmile_qr_scan", "ios": "https://dc.lft.to/lastmile_qr_scan"}, "type": "electric_scooter"}, {"bike_id": "0d63a5eb8f8079859f3413c99f622097", "is_reserved": 0, "name": "0d63a5eb8f8079859f3413c99f622097", "lat": 38.924868833333335, "fusion_lat": 0.0, "lon": -77.02265216666666, "is_disabled": 0, "fusion_lon": 0.0, "rental_uris": {"android": "https://dc.lft.to/lastmile_qr_scan", "ios": "https://dc.lft.to/lastmile_qr_scan"}, "type": "electric_scooter"}, {"bike_id": "090bfd5c2137c98c1a52c33e7cc8526e", "is_reserved": 0, "name": "090bfd5c2137c98c1a52c33e7cc8526e", "lat": 38.883880166666664, "fusion_lat": 0.0, "lon": -76.93047433333334, "is_disabled": 0, "fusion_lon": 0.0, "rental_uris": {"android": "https://dc.lft.to/lastmile_qr_scan", "ios": "https://dc.lft.to/lastmile_qr_scan"}, "type": "electric_scooter"}, {"bike_id": "b525ae00e36a31d82f7ff43a7114f717", "is_reserved": 0, "name": "b525ae00e36a31d82f7ff43a7114f717", "lat": 38.909697, "fusion_lat": 0.0, "lon": -77.0347415, "is_disabled": 0, "fusion_lon": 0.0, "rental_uris": {"android": "https://dc.lft.to/lastmile_qr_scan", "ios": "https://dc.lft.to/lastmile_qr_scan"}, "type": "electric_scooter"}, {"bike_id": "34de8c808c9545a9a8336058c95163ff", "is_reserved": 0, "name": "34de8c808c9545a9a8336058c95163ff", "lat": 38.90077516666667, "fusion_lat": 0.0, "lon": -77.01606516666666, "is_disabled": 0, "fusion_lon": 0.0, "rental_uris": {"android": "https://dc.lft.to/lastmile_qr_scan", "ios": "https://dc.lft.to/lastmile_qr_scan"}, "type": "electric_scooter"}, {"bike_id": "fc4f7b3cbd8496355f2a4b6641ea9644", "is_reserved": 0, "name": "fc4f7b3cbd8496355f2a4b6641ea9644", "lat": 38.904477666666665, "fusion_lat": 0.0, "lon": -76.98217933333333, "is_disabled": 0, "fusion_lon": 0.0, "rental_uris": {"android": "https://dc.lft.to/lastmile_qr_scan", "ios": "https://dc.lft.to/lastmile_qr_scan"}, "type": "electric_scooter"}, {"bike_id": "93889893b0c44946005ab46fcdf3a1f6", "is_reserved": 0, "name": "93889893b0c44946005ab46fcdf3a1f6", "lat": 38.93698466666667, "fusion_lat": 0.0, "lon": -77.055965, "is_disabled": 0, "fusion_lon": 0.0, "rental_uris": {"android": "https://dc.lft.to/lastmile_qr_scan", "ios": "https://dc.lft.to/lastmile_qr_scan"}, "type": "electric_scooter"}, {"bike_id": "9b1df1ee1bd7547627275462e372c761", "is_reserved": 0, "name": "9b1df1ee1bd7547627275462e372c761", "lat": 38.90333616666667, "fusion_lat": 0.0, "lon": -76.97525266666666, "is_disabled": 0, "fusion_lon": 0.0, "rental_uris": {"android": "https://dc.lft.to/lastmile_qr_scan", "ios": "https://dc.lft.to/lastmile_qr_scan"}, "type": "electric_bike"}, {"bike_id": "59b950f271afa080e9dab2b82688856c", "is_reserved": 0, "name": "59b950f271afa080e9dab2b82688856c", "lat": 38.89508516666667, "fusion_lat": 0.0, "lon": -77.01607533333333, "is_disabled": 0, "fusion_lon": 0.0, "rental_uris": {"android": "https://dc.lft.to/lastmile_qr_scan", "ios": "https://dc.lft.to/lastmile_qr_scan"}, "type": "electric_scooter"}, {"bike_id": "4d70377aa30e9a0bab2504b5042bc903", "is_reserved": 0, "name": "4d70377aa30e9a0bab2504b5042bc903", "lat": 38.93560316666667, "fusion_lat": 0.0, "lon": -77.074595, "is_disabled": 0, "fusion_lon": 0.0, "rental_uris": {"android": "https://dc.lft.to/lastmile_qr_scan", "ios": "https://dc.lft.to/lastmile_qr_scan"}, "type": "electric_scooter"}, {"bike_id": "c93afe808dfc8cf89c6895413ad22cca", "is_reserved": 0, "name": "c93afe808dfc8cf89c6895413ad22cca", "lat": 38.9023865, "fusion_lat": 0.0, "lon": -77.03439733333333, "is_disabled": 0, "fusion_lon": 0.0, "rental_uris": {"android": "https://dc.lft.to/lastmile_qr_scan", "ios": "https://dc.lft.to/lastmile_qr_scan"}, "type": "electric_scooter"}, {"bike_id": "3ff932b13d43e180ef1750b7a48ce746", "is_reserved": 0, "name": "3ff932b13d43e180ef1750b7a48ce746", "lat": 38.9085235, "fusion_lat": 0.0, "lon": -77.04307166666666, "is_disabled": 0, "fusion_lon": 0.0, "rental_uris": {"android": "https://dc.lft.to/lastmile_qr_scan", "ios": "https://dc.lft.to/lastmile_qr_scan"}, "type": "electric_scooter"}, {"bike_id": "8156cf703bd564d52436e20f75084d5f", "is_reserved": 0, "name": "8156cf703bd564d52436e20f75084d5f", "lat": 38.9215725, "fusion_lat": 0.0, "lon": -77.03381183333333, "is_disabled": 0, "fusion_lon": 0.0, "rental_uris": {"android": "https://dc.lft.to/lastmile_qr_scan", "ios": "https://dc.lft.to/lastmile_qr_scan"}, "type": "electric_scooter"}, {"bike_id": "e0ea32ce4a4d8ac553ef1cf8186c188e", "is_reserved": 0, "name": "e0ea32ce4a4d8ac553ef1cf8186c188e", "lat": 38.910364666666666, "fusion_lat": 0.0, "lon": -77.0330475, "is_disabled": 0, "fusion_lon": 0.0, "rental_uris": {"android": "https://dc.lft.to/lastmile_qr_scan", "ios": "https://dc.lft.to/lastmile_qr_scan"}, "type": "electric_scooter"}, {"bike_id": "17d54d5f56ebed816b046b4d79b8ebd4", "is_reserved": 0, "name": "17d54d5f56ebed816b046b4d79b8ebd4", "lat": 38.89727416666667, "fusion_lat": 0.0, "lon": -77.00373733333333, "is_disabled": 0, "fusion_lon": 0.0, "rental_uris": {"android": "https://dc.lft.to/lastmile_qr_scan", "ios": "https://dc.lft.to/lastmile_qr_scan"}, "type": "electric_scooter"}, {"bike_id": "51fa6f774e5f888813548b1c76474f9d", "is_reserved": 0, "name": "51fa6f774e5f888813548b1c76474f9d", "lat": 38.92847783333333, "fusion_lat": 0.0, "lon": -77.01584483333333, "is_disabled": 0, "fusion_lon": 0.0, "rental_uris": {"android": "https://dc.lft.to/lastmile_qr_scan", "ios": "https://dc.lft.to/lastmile_qr_scan"}, "type": "electric_scooter"}, {"bike_id": "95b61b40787f158f5a81a666332fc226", "is_reserved": 0, "name": "95b61b40787f158f5a81a666332fc226", "lat": 38.900254833333335, "fusion_lat": 0.0, "lon": -76.99348666666667, "is_disabled": 0, "fusion_lon": 0.0, "rental_uris": {"android": "https://dc.lft.to/lastmile_qr_scan", "ios": "https://dc.lft.to/lastmile_qr_scan"}, "type": "electric_scooter"}, {"bike_id": "61b088b1a518ebce87218a55c2ec2127", "is_reserved": 0, "name": "61b088b1a518ebce87218a55c2ec2127", "lat": 38.892193, "fusion_lat": 0.0, "lon": -77.02632933333334, "is_disabled": 0, "fusion_lon": 0.0, "rental_uris": {"android": "https://dc.lft.to/lastmile_qr_scan", "ios": "https://dc.lft.to/lastmile_qr_scan"}, "type": "electric_scooter"}, {"bike_id": "a06e19611d017c730666922f71c00939", "is_reserved": 0, "name": "a06e19611d017c730666922f71c00939", "lat": 38.887506333333334, "fusion_lat": 0.0, "lon": -76.99604833333333, "is_disabled": 0, "fusion_lon": 0.0, "rental_uris": {"android": "https://dc.lft.to/lastmile_qr_scan", "ios": "https://dc.lft.to/lastmile_qr_scan"}, "type": "electric_scooter"}, {"bike_id": "630e732b5a42f48f43f04aed0c00a035", "is_reserved": 0, "name": "630e732b5a42f48f43f04aed0c00a035", "lat": 38.927619, "fusion_lat": 0.0, "lon": -77.02448316666667, "is_disabled": 0, "fusion_lon": 0.0, "rental_uris": {"android": "https://dc.lft.to/lastmile_qr_scan", "ios": "https://dc.lft.to/lastmile_qr_scan"}, "type": "electric_scooter"}, {"bike_id": "2ff3282c2b6debb04a358b7f7077ce85", "is_reserved": 0, "name": "2ff3282c2b6debb04a358b7f7077ce85", "lat": 38.956280666666665, "fusion_lat": 0.0, "lon": -77.01996616666666, "is_disabled": 0, "fusion_lon": 0.0, "rental_uris": {"android": "https://dc.lft.to/lastmile_qr_scan", "ios": "https://dc.lft.to/lastmile_qr_scan"}, "type": "electric_scooter"}, {"bike_id": "a05f40625c254dddaa83d411637a074e", "is_reserved": 0, "name": "a05f40625c254dddaa83d411637a074e", "lat": 38.842812, "fusion_lat": 0.0, "lon": -77.0449955, "is_disabled": 0, "fusion_lon": 0.0, "rental_uris": {"android": "https://dc.lft.to/lastmile_qr_scan", "ios": "https://dc.lft.to/lastmile_qr_scan"}, "type": "electric_bike"}, {"bike_id": "c125a282e6b82fff13f98b54a9b4c848", "is_reserved": 0, "name": "c125a282e6b82fff13f98b54a9b4c848", "lat": 38.911063666666664, "fusion_lat": 0.0, "lon": -77.04836933333333, "is_disabled": 0, "fusion_lon": 0.0, "rental_uris": {"android": "https://dc.lft.to/lastmile_qr_scan", "ios": "https://dc.lft.to/lastmile_qr_scan"}, "type": "electric_scooter"}, {"bike_id": "9b03dc8c1a6199779d3205223bcf7e6f", "is_reserved": 0, "name": "9b03dc8c1a6199779d3205223bcf7e6f", "lat": 38.900732833333336, "fusion_lat": 0.0, "lon": -77.04903516666667, "is_disabled": 0, "fusion_lon": 0.0, "rental_uris": {"android": "https://dc.lft.to/lastmile_qr_scan", "ios": "https://dc.lft.to/lastmile_qr_scan"}, "type": "electric_scooter"}, {"bike_id": "f1b022aebbf2300fc5f63492912bf982", "is_reserved": 0, "name": "f1b022aebbf2300fc5f63492912bf982", "lat": 38.917161666666665, "fusion_lat": 0.0, "lon": -77.0240215, "is_disabled": 0, "fusion_lon": 0.0, "rental_uris": {"android": "https://dc.lft.to/lastmile_qr_scan", "ios": "https://dc.lft.to/lastmile_qr_scan"}, "type": "electric_scooter"}, {"bike_id": "c62832bd4a7054f3d0e11b93dfc3de64", "is_reserved": 0, "name": "c62832bd4a7054f3d0e11b93dfc3de64", "lat": 38.8738185, "fusion_lat": 0.0, "lon": -77.00083916666667, "is_disabled": 0, "fusion_lon": 0.0, "rental_uris": {"android": "https://dc.lft.to/lastmile_qr_scan", "ios": "https://dc.lft.to/lastmile_qr_scan"}, "type": "electric_scooter"}, {"bike_id": "914980164b69391e9e15fc7befd9ebaa", "is_reserved": 0, "name": "914980164b69391e9e15fc7befd9ebaa", "lat": 38.892458833333336, "fusion_lat": 0.0, "lon": -77.0487135, "is_disabled": 0, "fusion_lon": 0.0, "rental_uris": {"android": "https://dc.lft.to/lastmile_qr_scan", "ios": "https://dc.lft.to/lastmile_qr_scan"}, "type": "electric_scooter"}, {"bike_id": "2ef12be666062994923acc3db82d7e39", "is_reserved": 0, "name": "2ef12be666062994923acc3db82d7e39", "lat": 38.90945133333334, "fusion_lat": 0.0, "lon": -77.0319275, "is_disabled": 0, "fusion_lon": 0.0, "rental_uris": {"android": "https://dc.lft.to/lastmile_qr_scan", "ios": "https://dc.lft.to/lastmile_qr_scan"}, "type": "electric_scooter"}, {"bike_id": "33d3e1622a4ae376bb6f17e2f1f583ba", "is_reserved": 0, "name": "33d3e1622a4ae376bb6f17e2f1f583ba", "lat": 38.901573666666664, "fusion_lat": 0.0, "lon": -77.05909516666667, "is_disabled": 0, "fusion_lon": 0.0, "rental_uris": {"android": "https://dc.lft.to/lastmile_qr_scan", "ios": "https://dc.lft.to/lastmile_qr_scan"}, "type": "electric_scooter"}, {"bike_id": "2434f12f724a80c3dbbe03803b89e513", "is_reserved": 0, "name": "2434f12f724a80c3dbbe03803b89e513", "lat": 38.894981666666666, "fusion_lat": 0.0, "lon": -77.003574, "is_disabled": 0, "fusion_lon": 0.0, "rental_uris": {"android": "https://dc.lft.to/lastmile_qr_scan", "ios": "https://dc.lft.to/lastmile_qr_scan"}, "type": "electric_scooter"}, {"bike_id": "2d23d0013829a006e182a0bfeb991e56", "is_reserved": 0, "name": "2d23d0013829a006e182a0bfeb991e56", "lat": 38.942546166666666, "fusion_lat": 0.0, "lon": -77.0362615, "is_disabled": 0, "fusion_lon": 0.0, "rental_uris": {"android": "https://dc.lft.to/lastmile_qr_scan", "ios": "https://dc.lft.to/lastmile_qr_scan"}, "type": "electric_scooter"}, {"bike_id": "1f4e0d9724cf63bc6e77d5e20f1315fd", "is_reserved": 0, "name": "1f4e0d9724cf63bc6e77d5e20f1315fd", "lat": 38.866679, "fusion_lat": 0.0, "lon": -76.98896816666667, "is_disabled": 0, "fusion_lon": 0.0, "rental_uris": {"android": "https://dc.lft.to/lastmile_qr_scan", "ios": "https://dc.lft.to/lastmile_qr_scan"}, "type": "electric_scooter"}, {"bike_id": "4ba03a5bdaa3722b4022b64064b9a417", "is_reserved": 0, "name": "4ba03a5bdaa3722b4022b64064b9a417", "lat": 38.90021566666667, "fusion_lat": 0.0, "lon": -76.99857233333333, "is_disabled": 0, "fusion_lon": 0.0, "rental_uris": {"android": "https://dc.lft.to/lastmile_qr_scan", "ios": "https://dc.lft.to/lastmile_qr_scan"}, "type": "electric_scooter"}, {"bike_id": "5f91e6de637c5023a3b7c6ed3b41b5a6", "is_reserved": 0, "name": "5f91e6de637c5023a3b7c6ed3b41b5a6", "lat": 38.88767633333333, "fusion_lat": 0.0, "lon": -77.02942233333333, "is_disabled": 0, "fusion_lon": 0.0, "rental_uris": {"android": "https://dc.lft.to/lastmile_qr_scan", "ios": "https://dc.lft.to/lastmile_qr_scan"}, "type": "electric_scooter"}, {"bike_id": "b5e0f1f8e5cab03f8f462ac840163533", "is_reserved": 0, "name": "b5e0f1f8e5cab03f8f462ac840163533", "lat": 38.90952716666666, "fusion_lat": 0.0, "lon": -77.0318365, "is_disabled": 0, "fusion_lon": 0.0, "rental_uris": {"android": "https://dc.lft.to/lastmile_qr_scan", "ios": "https://dc.lft.to/lastmile_qr_scan"}, "type": "electric_scooter"}, {"bike_id": "32ce1c8447b2684dc1b9403e67b51db1", "is_reserved": 0, "name": "32ce1c8447b2684dc1b9403e67b51db1", "lat": 38.902293, "fusion_lat": 0.0, "lon": -77.02180483333333, "is_disabled": 0, "fusion_lon": 0.0, "rental_uris": {"android": "https://dc.lft.to/lastmile_qr_scan", "ios": "https://dc.lft.to/lastmile_qr_scan"}, "type": "electric_scooter"}, {"bike_id": "e2bde695ace69a845c276fbe7628bcc6", "is_reserved": 0, "name": "e2bde695ace69a845c276fbe7628bcc6", "lat": 38.898365, "fusion_lat": 0.0, "lon": -76.94630683333334, "is_disabled": 0, "fusion_lon": 0.0, "rental_uris": {"android": "https://dc.lft.to/lastmile_qr_scan", "ios": "https://dc.lft.to/lastmile_qr_scan"}, "type": "electric_scooter"}, {"bike_id": "5cef8e7a1b78df95cdfc3f77e99485c3", "is_reserved": 0, "name": "5cef8e7a1b78df95cdfc3f77e99485c3", "lat": 38.91552333333333, "fusion_lat": 0.0, "lon": -77.01011983333333, "is_disabled": 0, "fusion_lon": 0.0, "rental_uris": {"android": "https://dc.lft.to/lastmile_qr_scan", "ios": "https://dc.lft.to/lastmile_qr_scan"}, "type": "electric_scooter"}, {"bike_id": "ccd983691f13bad74e35fb6574f6004d", "is_reserved": 0, "name": "ccd983691f13bad74e35fb6574f6004d", "lat": 38.898887333333334, "fusion_lat": 0.0, "lon": -76.9317415, "is_disabled": 0, "fusion_lon": 0.0, "rental_uris": {"android": "https://dc.lft.to/lastmile_qr_scan", "ios": "https://dc.lft.to/lastmile_qr_scan"}, "type": "electric_scooter"}, {"bike_id": "4de9719b8ddbf0ab94275fc31821fd78", "is_reserved": 0, "name": "4de9719b8ddbf0ab94275fc31821fd78", "lat": 38.912167, "fusion_lat": 0.0, "lon": -77.031889, "is_disabled": 0, "fusion_lon": 0.0, "rental_uris": {"android": "https://dc.lft.to/lastmile_qr_scan", "ios": "https://dc.lft.to/lastmile_qr_scan"}, "type": "electric_scooter"}, {"bike_id": "91641bf8d916fd66f1855284bf9d00af", "is_reserved": 0, "name": "91641bf8d916fd66f1855284bf9d00af", "lat": 38.899257166666665, "fusion_lat": 0.0, "lon": -76.9852495, "is_disabled": 0, "fusion_lon": 0.0, "rental_uris": {"android": "https://dc.lft.to/lastmile_qr_scan", "ios": "https://dc.lft.to/lastmile_qr_scan"}, "type": "electric_scooter"}, {"bike_id": "065cd0837ad045a39b20428b0b0fc010", "is_reserved": 0, "name": "065cd0837ad045a39b20428b0b0fc010", "lat": 38.91768283333333, "fusion_lat": 0.0, "lon": -77.04039783333333, "is_disabled": 0, "fusion_lon": 0.0, "rental_uris": {"android": "https://dc.lft.to/lastmile_qr_scan", "ios": "https://dc.lft.to/lastmile_qr_scan"}, "type": "electric_scooter"}, {"bike_id": "a2345def896141ac83f1409524f26a4a", "is_reserved": 0, "name": "a2345def896141ac83f1409524f26a4a", "lat": 38.932244, "fusion_lat": 0.0, "lon": -76.99489033333333, "is_disabled": 0, "fusion_lon": 0.0, "rental_uris": {"android": "https://dc.lft.to/lastmile_qr_scan", "ios": "https://dc.lft.to/lastmile_qr_scan"}, "type": "electric_scooter"}, {"bike_id": "9d3703e459c312cfeaa4183bb80d88fd", "is_reserved": 0, "name": "9d3703e459c312cfeaa4183bb80d88fd", "lat": 38.934452666666665, "fusion_lat": 0.0, "lon": -77.05774766666667, "is_disabled": 0, "fusion_lon": 0.0, "rental_uris": {"android": "https://dc.lft.to/lastmile_qr_scan", "ios": "https://dc.lft.to/lastmile_qr_scan"}, "type": "electric_scooter"}, {"bike_id": "256d92e035b3ae93ad8458028ba25e2d", "is_reserved": 0, "name": "256d92e035b3ae93ad8458028ba25e2d", "lat": 38.9027415, "fusion_lat": 0.0, "lon": -77.03464266666667, "is_disabled": 0, "fusion_lon": 0.0, "rental_uris": {"android": "https://dc.lft.to/lastmile_qr_scan", "ios": "https://dc.lft.to/lastmile_qr_scan"}, "type": "electric_scooter"}, {"bike_id": "956ee16e0973d3851348669ddf562652", "is_reserved": 0, "name": "956ee16e0973d3851348669ddf562652", "lat": 38.924567, "fusion_lat": 0.0, "lon": -76.97105016666667, "is_disabled": 0, "fusion_lon": 0.0, "rental_uris": {"android": "https://dc.lft.to/lastmile_qr_scan", "ios": "https://dc.lft.to/lastmile_qr_scan"}, "type": "electric_scooter"}, {"bike_id": "148e78ace03f58194355594ba97b4050", "is_reserved": 0, "name": "148e78ace03f58194355594ba97b4050", "lat": 38.9084925, "fusion_lat": 0.0, "lon": -77.04520116666667, "is_disabled": 0, "fusion_lon": 0.0, "rental_uris": {"android": "https://dc.lft.to/lastmile_qr_scan", "ios": "https://dc.lft.to/lastmile_qr_scan"}, "type": "electric_scooter"}, {"bike_id": "9d33e098a345de7b43b21297738fd994", "is_reserved": 0, "name": "9d33e098a345de7b43b21297738fd994", "lat": 38.91118483333333, "fusion_lat": 0.0, "lon": -77.03286983333334, "is_disabled": 0, "fusion_lon": 0.0, "rental_uris": {"android": "https://dc.lft.to/lastmile_qr_scan", "ios": "https://dc.lft.to/lastmile_qr_scan"}, "type": "electric_scooter"}, {"bike_id": "5d8ea145231d4cc663eedc5302eaa106", "is_reserved": 0, "name": "5d8ea145231d4cc663eedc5302eaa106", "lat": 38.91421783333333, "fusion_lat": 0.0, "lon": -77.01796666666667, "is_disabled": 0, "fusion_lon": 0.0, "rental_uris": {"android": "https://dc.lft.to/lastmile_qr_scan", "ios": "https://dc.lft.to/lastmile_qr_scan"}, "type": "electric_scooter"}, {"bike_id": "0e27a846252ee108945736b9fd33cb74", "is_reserved": 0, "name": "0e27a846252ee108945736b9fd33cb74", "lat": 38.92167516666667, "fusion_lat": 0.0, "lon": -77.04346033333333, "is_disabled": 0, "fusion_lon": 0.0, "rental_uris": {"android": "https://dc.lft.to/lastmile_qr_scan", "ios": "https://dc.lft.to/lastmile_qr_scan"}, "type": "electric_scooter"}, {"bike_id": "ffd1e5b2214f56218651f44a0dad0c6a", "is_reserved": 0, "name": "ffd1e5b2214f56218651f44a0dad0c6a", "lat": 38.9019915, "fusion_lat": 0.0, "lon": -77.02122516666667, "is_disabled": 0, "fusion_lon": 0.0, "rental_uris": {"android": "https://dc.lft.to/lastmile_qr_scan", "ios": "https://dc.lft.to/lastmile_qr_scan"}, "type": "electric_scooter"}, {"bike_id": "33bfe2399daca36924461d364cbf7a98", "is_reserved": 0, "name": "33bfe2399daca36924461d364cbf7a98", "lat": 38.909914, "fusion_lat": 0.0, "lon": -77.04661483333334, "is_disabled": 0, "fusion_lon": 0.0, "rental_uris": {"android": "https://dc.lft.to/lastmile_qr_scan", "ios": "https://dc.lft.to/lastmile_qr_scan"}, "type": "electric_scooter"}, {"bike_id": "0f9602ebb05d3a686f244647cc330014", "is_reserved": 0, "name": "0f9602ebb05d3a686f244647cc330014", "lat": 38.89776916666667, "fusion_lat": 0.0, "lon": -76.925941, "is_disabled": 0, "fusion_lon": 0.0, "rental_uris": {"android": "https://dc.lft.to/lastmile_qr_scan", "ios": "https://dc.lft.to/lastmile_qr_scan"}, "type": "electric_scooter"}, {"bike_id": "9e1ac3673ac74a206a54425629796df5", "is_reserved": 0, "name": "9e1ac3673ac74a206a54425629796df5", "lat": 38.91821916666667, "fusion_lat": 0.0, "lon": -77.031734, "is_disabled": 0, "fusion_lon": 0.0, "rental_uris": {"android": "https://dc.lft.to/lastmile_qr_scan", "ios": "https://dc.lft.to/lastmile_qr_scan"}, "type": "electric_scooter"}, {"bike_id": "8f09df807a573e550eaabac6661315c5", "is_reserved": 0, "name": "8f09df807a573e550eaabac6661315c5", "lat": 38.992215333333334, "fusion_lat": 0.0, "lon": -77.03193583333334, "is_disabled": 0, "fusion_lon": 0.0, "rental_uris": {"android": "https://dc.lft.to/lastmile_qr_scan", "ios": "https://dc.lft.to/lastmile_qr_scan"}, "type": "electric_bike"}, {"bike_id": "09a56da5cfaf9afbe2db239a6f823dbd", "is_reserved": 0, "name": "09a56da5cfaf9afbe2db239a6f823dbd", "lat": 38.91817366666667, "fusion_lat": 0.0, "lon": -77.03205566666666, "is_disabled": 0, "fusion_lon": 0.0, "rental_uris": {"android": "https://dc.lft.to/lastmile_qr_scan", "ios": "https://dc.lft.to/lastmile_qr_scan"}, "type": "electric_scooter"}, {"bike_id": "cb88d63a498935ec50b740a7eeea3159", "is_reserved": 0, "name": "cb88d63a498935ec50b740a7eeea3159", "lat": 38.9384605, "fusion_lat": 0.0, "lon": -77.07231066666667, "is_disabled": 0, "fusion_lon": 0.0, "rental_uris": {"android": "https://dc.lft.to/lastmile_qr_scan", "ios": "https://dc.lft.to/lastmile_qr_scan"}, "type": "electric_scooter"}, {"bike_id": "b088f901b2e745304bf24853e40ca8a5", "is_reserved": 0, "name": "b088f901b2e745304bf24853e40ca8a5", "lat": 38.90234983333333, "fusion_lat": 0.0, "lon": -77.05327566666666, "is_disabled": 0, "fusion_lon": 0.0, "rental_uris": {"android": "https://dc.lft.to/lastmile_qr_scan", "ios": "https://dc.lft.to/lastmile_qr_scan"},