{"data": {"bikes": [{"lon": -77.02407783333334, "bike_id": "d3ee6857be827e10c3e67f6b0b33c34b", "lat": 38.90951733333333, "fusion_lon": 0.0, "fusion_lat": 0.0, "type": "electric_scooter", "name": "d3ee6857be827e10c3e67f6b0b33c34b", "is_disabled": 0, "rental_uris": {"ios": "https://dc.lft.to/lastmile_qr_scan", "android": "https://dc.lft.to/lastmile_qr_scan"}, "is_reserved": 0}, {"lon": -77.0199715, "bike_id": "f24473cb393ac442f9ea90894cc71a84", "lat": 38.87593283333333, "fusion_lon": 0.0, "fusion_lat": 0.0, "type": "electric_scooter", "name": "f24473cb393ac442f9ea90894cc71a84", "is_disabled": 0, "rental_uris": {"ios": "https://dc.lft.to/lastmile_qr_scan", "android": "https://dc.lft.to/lastmile_qr_scan"}, "is_reserved": 0}, {"lon": -77.00037333333333, "bike_id": "fd6837074fb8d345d1c6ff36422f9a33", "lat": 38.967855666666665, "fusion_lon": 0.0, "fusion_lat": 0.0, "type": "electric_bike", "name": "fd6837074fb8d345d1c6ff36422f9a33", "is_disabled": 0, "rental_uris": {"ios": "https://dc.lft.to/lastmile_qr_scan", "android": "https://dc.lft.to/lastmile_qr_scan"}, "is_reserved": 0}, {"lon": -77.0370105, "bike_id": "b21329900c194e4a65c92c2b6398ae68", "lat": 38.930626, "fusion_lon": 0.0, "fusion_lat": 0.0, "type": "electric_bike", "name": "b21329900c194e4a65c92c2b6398ae68", "is_disabled": 0, "rental_uris": {"ios": "https://dc.lft.to/lastmile_qr_scan", "android": "https://dc.lft.to/lastmile_qr_scan"}, "is_reserved": 0}, {"lon": -77.0347305, "bike_id": "26152a35ac507e192ba08670034fc2d1", "lat": 38.884875, "fusion_lon": 0.0, "fusion_lat": 0.0, "type": "electric_scooter", "name": "26152a35ac507e192ba08670034fc2d1", "is_disabled": 0, "rental_uris": {"ios": "https://dc.lft.to/lastmile_qr_scan", "android": "https://dc.lft.to/lastmile_qr_scan"}, "is_reserved": 0}, {"lon": -77.03358233333333, "bike_id": "d89c6fbb6cd34c4c4d0461724347a9a0", "lat": 38.902745333333336, "fusion_lon": 0.0, "fusion_lat": 0.0, "type": "electric_scooter", "name": "d89c6fbb6cd34c4c4d0461724347a9a0", "is_disabled": 0, "rental_uris": {"ios": "https://dc.lft.to/lastmile_qr_scan", "android": "https://dc.lft.to/lastmile_qr_scan"}, "is_reserved": 0}, {"lon": -76.98743183333333, "bike_id": "cc2cd4e1e730d4adf719fb913f4e088f", "lat": 38.88615216666667, "fusion_lon": 0.0, "fusion_lat": 0.0, "type": "electric_scooter", "name": "cc2cd4e1e730d4adf719fb913f4e088f", "is_disabled": 0, "rental_uris": {"ios": "https://dc.lft.to/lastmile_qr_scan", "android": "https://dc.lft.to/lastmile_qr_scan"}, "is_reserved": 0}, {"lon": -77.02171716666666, "bike_id": "4fdb5bc8c21ab84b76b24d9ed604ac39", "lat": 38.942927166666664, "fusion_lon": 0.0, "fusion_lat": 0.0, "type": "electric_scooter", "name": "4fdb5bc8c21ab84b76b24d9ed604ac39", "is_disabled": 0, "rental_uris": {"ios": "https://dc.lft.to/lastmile_qr_scan", "android": "https://dc.lft.to/lastmile_qr_scan"}, "is_reserved": 0}, {"lon": -77.02991133333333, "bike_id": "6dfd5ec344eb6adb3e2b059f7bd652a5", "lat": 38.90732466666667, "fusion_lon": 0.0, "fusion_lat": 0.0, "type": "electric_scooter", "name": "6dfd5ec344eb6adb3e2b059f7bd652a5", "is_disabled": 0, "rental_uris": {"ios": "https://dc.lft.to/lastmile_qr_scan", "android": "https://dc.lft.to/lastmile_qr_scan"}, "is_reserved": 0}, {"lon": -76.97679916666667, "bike_id": "3edb07f40471311d3dfface0466bf43e", "lat": 38.896168, "fusion_lon": 0.0, "fusion_lat": 0.0, "type": "electric_scooter", "name": "3edb07f40471311d3dfface0466bf43e", "is_disabled": 0, "rental_uris": {"ios": "https://dc.lft.to/lastmile_qr_scan", "android": "https://dc.lft.to/lastmile_qr_scan"}, "is_reserved": 0}, {"lon": -77.02978083333333, "bike_id": "d7bc9c37663fcbc48cffa0841f1abd98", "lat": 38.930656, "fusion_lon": 0.0, "fusion_lat": 0.0, "type": "electric_scooter", "name": "d7bc9c37663fcbc48cffa0841f1abd98", "is_disabled": 0, "rental_uris": {"ios": "https://dc.lft.to/lastmile_qr_scan", "android": "https://dc.lft.to/lastmile_qr_scan"}, "is_reserved": 0}, {"lon": -77.04286683333333, "bike_id": "1f428fbc7390363b07837dd0015b16ea", "lat": 38.9073595, "fusion_lon": 0.0, "fusion_lat": 0.0, "type": "electric_scooter", "name": "1f428fbc7390363b07837dd0015b16ea", "is_disabled": 0, "rental_uris": {"ios": "https://dc.lft.to/lastmile_qr_scan", "android": "https://dc.lft.to/lastmile_qr_scan"}, "is_reserved": 0}, {"lon": -77.026574, "bike_id": "21346be4ba18b9f5f86b1e3ec636dcd8", "lat": 38.929799333333335, "fusion_lon": 0.0, "fusion_lat": 0.0, "type": "electric_scooter", "name": "21346be4ba18b9f5f86b1e3ec636dcd8", "is_disabled": 0, "rental_uris": {"ios": "https://dc.lft.to/lastmile_qr_scan", "android": "https://dc.lft.to/lastmile_qr_scan"}, "is_reserved": 0}, {"lon": -77.0540655, "bike_id": "918f0abfc73cf8dd41ae254bc328b337", "lat": 38.901421666666664, "fusion_lon": 0.0, "fusion_lat": 0.0, "type": "electric_scooter", "name": "918f0abfc73cf8dd41ae254bc328b337", "is_disabled": 0, "rental_uris": {"ios": "https://dc.lft.to/lastmile_qr_scan", "android": "https://dc.lft.to/lastmile_qr_scan"}, "is_reserved": 0}, {"lon": -76.988873, "bike_id": "73ac401b7c0032612c1d107badfd5712", "lat": 38.866599, "fusion_lon": 0.0, "fusion_lat": 0.0, "type": "electric_scooter", "name": "73ac401b7c0032612c1d107badfd5712", "is_disabled": 0, "rental_uris": {"ios": "https://dc.lft.to/lastmile_qr_scan", "android": "https://dc.lft.to/lastmile_qr_scan"}, "is_reserved": 0}, {"lon": -77.03822083333333, "bike_id": "d88f701efacda97dd5f24edfe9b73caf", "lat": 38.916887333333335, "fusion_lon": 0.0, "fusion_lat": 0.0, "type": "electric_scooter", "name": "d88f701efacda97dd5f24edfe9b73caf", "is_disabled": 0, "rental_uris": {"ios": "https://dc.lft.to/lastmile_qr_scan", "android": "https://dc.lft.to/lastmile_qr_scan"}, "is_reserved": 0}, {"lon": -77.02080483333333, "bike_id": "ad85cc99e376fb1e25897ebe22d3f136", "lat": 38.93637433333333, "fusion_lon": 0.0, "fusion_lat": 0.0, "type": "electric_scooter", "name": "ad85cc99e376fb1e25897ebe22d3f136", "is_disabled": 0, "rental_uris": {"ios": "https://dc.lft.to/lastmile_qr_scan", "android": "https://dc.lft.to/lastmile_qr_scan"}, "is_reserved": 0}, {"lon": -77.02413416666667, "bike_id": "a26b7eb4fd7af790017f4b28d03b6b40", "lat": 38.916942666666664, "fusion_lon": 0.0, "fusion_lat": 0.0, "type": "electric_scooter", "name": "a26b7eb4fd7af790017f4b28d03b6b40", "is_disabled": 0, "rental_uris": {"ios": "https://dc.lft.to/lastmile_qr_scan", "android": "https://dc.lft.to/lastmile_qr_scan"}, "is_reserved": 0}, {"lon": -77.03323016666667, "bike_id": "247cd12ee2e83795654089908cdf5964", "lat": 38.91402033333333, "fusion_lon": 0.0, "fusion_lat": 0.0, "type": "electric_scooter", "name": "247cd12ee2e83795654089908cdf5964", "is_disabled": 0, "rental_uris": {"ios": "https://dc.lft.to/lastmile_qr_scan", "android": "https://dc.lft.to/lastmile_qr_scan"}, "is_reserved": 0}, {"lon": -76.976526, "bike_id": "c88f7e89e955e76e7ca6103c14c6597a", "lat": 38.8877795, "fusion_lon": 0.0, "fusion_lat": 0.0, "type": "electric_scooter", "name": "c88f7e89e955e76e7ca6103c14c6597a", "is_disabled": 0, "rental_uris": {"ios": "https://dc.lft.to/lastmile_qr_scan", "android": "https://dc.lft.to/lastmile_qr_scan"}, "is_reserved": 0}, {"lon": -77.03223166666666, "bike_id": "9ef640d9f607d60435258d0397133168", "lat": 38.896553833333336, "fusion_lon": 0.0, "fusion_lat": 0.0, "type": "electric_scooter", "name": "9ef640d9f607d60435258d0397133168", "is_disabled": 0, "rental_uris": {"ios": "https://dc.lft.to/lastmile_qr_scan", "android": "https://dc.lft.to/lastmile_qr_scan"}, "is_reserved": 0}, {"lon": -77.03836316666667, "bike_id": "04af0c3fa7c3919e77bf88534ce1cba9", "lat": 38.91095216666667, "fusion_lon": 0.0, "fusion_lat": 0.0, "type": "electric_scooter", "name": "04af0c3fa7c3919e77bf88534ce1cba9", "is_disabled": 0, "rental_uris": {"ios": "https://dc.lft.to/lastmile_qr_scan", "android": "https://dc.lft.to/lastmile_qr_scan"}, "is_reserved": 0}, {"lon": -77.04631583333334, "bike_id": "dbe68caba1c2fe153af18fba4b4feb3f", "lat": 38.919172833333334, "fusion_lon": 0.0, "fusion_lat": 0.0, "type": "electric_scooter", "name": "dbe68caba1c2fe153af18fba4b4feb3f", "is_disabled": 0, "rental_uris": {"ios": "https://dc.lft.to/lastmile_qr_scan", "android": "https://dc.lft.to/lastmile_qr_scan"}, "is_reserved": 0}, {"lon": -77.02150883333333, "bike_id": "b61da0b13fb8223386abf3cd3b4c7b9b", "lat": 38.8792565, "fusion_lon": 0.0, "fusion_lat": 0.0, "type": "electric_scooter", "name": "b61da0b13fb8223386abf3cd3b4c7b9b", "is_disabled": 0, "rental_uris": {"ios": "https://dc.lft.to/lastmile_qr_scan", "android": "https://dc.lft.to/lastmile_qr_scan"}, "is_reserved": 0}, {"lon": -77.0176575, "bike_id": "eb9c136a19056e9059c3f3599663d305", "lat": 38.8721805, "fusion_lon": 0.0, "fusion_lat": 0.0, "type": "electric_scooter", "name": "eb9c136a19056e9059c3f3599663d305", "is_disabled": 0, "rental_uris": {"ios": "https://dc.lft.to/lastmile_qr_scan", "android": "https://dc.lft.to/lastmile_qr_scan"}, "is_reserved": 0}, {"lon": -77.01046966666667, "bike_id": "007e8efcb17458d767d6dfb435a392fb", "lat": 38.96346316666666, "fusion_lon": 0.0, "fusion_lat": 0.0, "type": "electric_scooter", "name": "007e8efcb17458d767d6dfb435a392fb", "is_disabled": 0, "rental_uris": {"ios": "https://dc.lft.to/lastmile_qr_scan", "android": "https://dc.lft.to/lastmile_qr_scan"}, "is_reserved": 0}, {"lon": -77.07010683333333, "bike_id": "e566c79fe57e0398c3c509a5434263eb", "lat": 38.90596766666667, "fusion_lon": 0.0, "fusion_lat": 0.0, "type": "electric_bike", "name": "e566c79fe57e0398c3c509a5434263eb", "is_disabled": 0, "rental_uris": {"ios": "https://dc.lft.to/lastmile_qr_scan", "android": "https://dc.lft.to/lastmile_qr_scan"}, "is_reserved": 0}, {"lon": -77.024488, "bike_id": "f6d05c99b6e2269babdc75e851a837d2", "lat": 38.92052116666667, "fusion_lon": 0.0, "fusion_lat": 0.0, "type": "electric_scooter", "name": "f6d05c99b6e2269babdc75e851a837d2", "is_disabled": 0, "rental_uris": {"ios": "https://dc.lft.to/lastmile_qr_scan", "android": "https://dc.lft.to/lastmile_qr_scan"}, "is_reserved": 0}, {"lon": -77.00555183333333, "bike_id": "305b261cf516e5652bc427cb8b6764d2", "lat": 38.876901, "fusion_lon": 0.0, "fusion_lat": 0.0, "type": "electric_scooter", "name": "305b261cf516e5652bc427cb8b6764d2", "is_disabled": 0, "rental_uris": {"ios": "https://dc.lft.to/lastmile_qr_scan", "android": "https://dc.lft.to/lastmile_qr_scan"}, "is_reserved": 0}, {"lon": -77.11915916666666, "bike_id": "26cbc3ccba727928814f004782f536cd", "lat": 38.87635516666667, "fusion_lon": 0.0, "fusion_lat": 0.0, "type": "electric_bike", "name": "26cbc3ccba727928814f004782f536cd", "is_disabled": 0, "rental_uris": {"ios": "https://dc.lft.to/lastmile_qr_scan", "android": "https://dc.lft.to/lastmile_qr_scan"}, "is_reserved": 0}, {"lon": -77.03966566666666, "bike_id": "ede4eb797b53eefac333f7d3857c2c95", "lat": 38.923132833333334, "fusion_lon": 0.0, "fusion_lat": 0.0, "type": "electric_scooter", "name": "ede4eb797b53eefac333f7d3857c2c95", "is_disabled": 0, "rental_uris": {"ios": "https://dc.lft.to/lastmile_qr_scan", "android": "https://dc.lft.to/lastmile_qr_scan"}, "is_reserved": 0}, {"lon": -77.0781085, "bike_id": "7979288790325b9aa6d5bbc7e39fbba6", "lat": 38.92457316666667, "fusion_lon": 0.0, "fusion_lat": 0.0, "type": "electric_scooter", "name": "7979288790325b9aa6d5bbc7e39fbba6", "is_disabled": 0, "rental_uris": {"ios": "https://dc.lft.to/lastmile_qr_scan", "android": "https://dc.lft.to/lastmile_qr_scan"}, "is_reserved": 0}, {"lon": -77.009211, "bike_id": "e30d12e5d6e8ea5bafc3186801a15593", "lat": 38.910677666666665, "fusion_lon": 0.0, "fusion_lat": 0.0, "type": "electric_scooter", "name": "e30d12e5d6e8ea5bafc3186801a15593", "is_disabled": 0, "rental_uris": {"ios": "https://dc.lft.to/lastmile_qr_scan", "android": "https://dc.lft.to/lastmile_qr_scan"}, "is_reserved": 0}, {"lon": -77.002283, "bike_id": "e169a452a6ff0c3f57417da398055c39", "lat": 38.9024815, "fusion_lon": 0.0, "fusion_lat": 0.0, "type": "electric_scooter", "name": "e169a452a6ff0c3f57417da398055c39", "is_disabled": 0, "rental_uris": {"ios": "https://dc.lft.to/lastmile_qr_scan", "android": "https://dc.lft.to/lastmile_qr_scan"}, "is_reserved": 0}, {"lon": -77.03445483333333, "bike_id": "58655b70290e0e060ebe2e3247fb5919", "lat": 38.91713933333333, "fusion_lon": 0.0, "fusion_lat": 0.0, "type": "electric_scooter", "name": "58655b70290e0e060ebe2e3247fb5919", "is_disabled": 0, "rental_uris": {"ios": "https://dc.lft.to/lastmile_qr_scan", "android": "https://dc.lft.to/lastmile_qr_scan"}, "is_reserved": 0}, {"lon": -77.05332883333334, "bike_id": "b697600c0146fc7151c6d7aacd7b05cb", "lat": 38.89876816666667, "fusion_lon": 0.0, "fusion_lat": 0.0, "type": "electric_scooter", "name": "b697600c0146fc7151c6d7aacd7b05cb", "is_disabled": 0, "rental_uris": {"ios": "https://dc.lft.to/lastmile_qr_scan", "android": "https://dc.lft.to/lastmile_qr_scan"}, "is_reserved": 0}, {"lon": -77.06043816666667, "bike_id": "1b7e6643edaa440a10c4b9c7abbcdc7b", "lat": 38.938309833333335, "fusion_lon": 0.0, "fusion_lat": 0.0, "type": "electric_scooter", "name": "1b7e6643edaa440a10c4b9c7abbcdc7b", "is_disabled": 0, "rental_uris": {"ios": "https://dc.lft.to/lastmile_qr_scan", "android": "https://dc.lft.to/lastmile_qr_scan"}, "is_reserved": 0}, {"lon": -77.07341716666667, "bike_id": "62f1744d92c499dd397d92e79fae1a6f", "lat": 38.911029166666665, "fusion_lon": 0.0, "fusion_lat": 0.0, "type": "electric_scooter", "name": "62f1744d92c499dd397d92e79fae1a6f", "is_disabled": 0, "rental_uris": {"ios": "https://dc.lft.to/lastmile_qr_scan", "android": "https://dc.lft.to/lastmile_qr_scan"}, "is_reserved": 0}, {"lon": -77.04562533333333, "bike_id": "e9eb687aacd30a97f964e13f018b38d0", "lat": 38.918324166666665, "fusion_lon": 0.0, "fusion_lat": 0.0, "type": "electric_scooter", "name": "e9eb687aacd30a97f964e13f018b38d0", "is_disabled": 0, "rental_uris": {"ios": "https://dc.lft.to/lastmile_qr_scan", "android": "https://dc.lft.to/lastmile_qr_scan"}, "is_reserved": 0}, {"lon": -77.02957533333333, "bike_id": "c9685354e67bd62a74b98e8c29997dba", "lat": 38.904984166666665, "fusion_lon": 0.0, "fusion_lat": 0.0, "type": "electric_scooter", "name": "c9685354e67bd62a74b98e8c29997dba", "is_disabled": 0, "rental_uris": {"ios": "https://dc.lft.to/lastmile_qr_scan", "android": "https://dc.lft.to/lastmile_qr_scan"}, "is_reserved": 0}, {"lon": -77.01187083333333, "bike_id": "00f6961d3ff7b03650c7d970b838de99", "lat": 38.91553716666667, "fusion_lon": 0.0, "fusion_lat": 0.0, "type": "electric_scooter", "name": "00f6961d3ff7b03650c7d970b838de99", "is_disabled": 0, "rental_uris": {"ios": "https://dc.lft.to/lastmile_qr_scan", "android": "https://dc.lft.to/lastmile_qr_scan"}, "is_reserved": 0}, {"lon": -76.99995783333334, "bike_id": "2ef49790e7d1c50b602dbca8dd38d771", "lat": 38.875243833333336, "fusion_lon": 0.0, "fusion_lat": 0.0, "type": "electric_scooter", "name": "2ef49790e7d1c50b602dbca8dd38d771", "is_disabled": 0, "rental_uris": {"ios": "https://dc.lft.to/lastmile_qr_scan", "android": "https://dc.lft.to/lastmile_qr_scan"}, "is_reserved": 0}, {"lon": -77.041732, "bike_id": "e17b4621be31526b3cdeb57751ea0186", "lat": 38.917721666666665, "fusion_lon": 0.0, "fusion_lat": 0.0, "type": "electric_scooter", "name": "e17b4621be31526b3cdeb57751ea0186", "is_disabled": 0, "rental_uris": {"ios": "https://dc.lft.to/lastmile_qr_scan", "android": "https://dc.lft.to/lastmile_qr_scan"}, "is_reserved": 0}, {"lon": -77.01720583333334, "bike_id": "eb3943f6ea420a5d6e0a35e2ced503a6", "lat": 38.87278033333333, "fusion_lon": 0.0, "fusion_lat": 0.0, "type": "electric_scooter", "name": "eb3943f6ea420a5d6e0a35e2ced503a6", "is_disabled": 0, "rental_uris": {"ios": "https://dc.lft.to/lastmile_qr_scan", "android": "https://dc.lft.to/lastmile_qr_scan"}, "is_reserved": 0}, {"lon": -77.12223316666666, "bike_id": "f9f0ec603835575d8509470025d21f09", "lat": 38.853021, "fusion_lon": 0.0, "fusion_lat": 0.0, "type": "electric_bike", "name": "f9f0ec603835575d8509470025d21f09", "is_disabled": 0, "rental_uris": {"ios": "https://dc.lft.to/lastmile_qr_scan", "android": "https://dc.lft.to/lastmile_qr_scan"}, "is_reserved": 0}, {"lon": -77.03863966666667, "bike_id": "c2f60b826b72b89a04f74e4b3c2ebb83", "lat": 38.91561016666667, "fusion_lon": 0.0, "fusion_lat": 0.0, "type": "electric_scooter", "name": "c2f60b826b72b89a04f74e4b3c2ebb83", "is_disabled": 0, "rental_uris": {"ios": "https://dc.lft.to/lastmile_qr_scan", "android": "https://dc.lft.to/lastmile_qr_scan"}, "is_reserved": 0}, {"lon": -76.98227383333334, "bike_id": "83ff847634b3e9692c5c2aa16b48d3d0", "lat": 38.86626916666667, "fusion_lon": 0.0, "fusion_lat": 0.0, "type": "electric_scooter", "name": "83ff847634b3e9692c5c2aa16b48d3d0", "is_disabled": 0, "rental_uris": {"ios": "https://dc.lft.to/lastmile_qr_scan", "android": "https://dc.lft.to/lastmile_qr_scan"}, "is_reserved": 0}, {"lon": -76.9904865, "bike_id": "5c03c515029ddae5f1da4866bc1341ee", "lat": 38.884162333333336, "fusion_lon": 0.0, "fusion_lat": 0.0, "type": "electric_scooter", "name": "5c03c515029ddae5f1da4866bc1341ee", "is_disabled": 0, "rental_uris": {"ios": "https://dc.lft.to/lastmile_qr_scan", "android": "https://dc.lft.to/lastmile_qr_scan"}, "is_reserved": 0}, {"lon": -77.01559466666667, "bike_id": "a211dc4d115416a1f575f38653f1f57c", "lat": 38.8803295, "fusion_lon": 0.0, "fusion_lat": 0.0, "type": "electric_scooter", "name": "a211dc4d115416a1f575f38653f1f57c", "is_disabled": 0, "rental_uris": {"ios": "https://dc.lft.to/lastmile_qr_scan", "android": "https://dc.lft.to/lastmile_qr_scan"}, "is_reserved": 0}, {"lon": -77.0313415, "bike_id": "e774a73db8859f9e5a79933a13b8dd4d", "lat": 38.91555, "fusion_lon": 0.0, "fusion_lat": 0.0, "type": "electric_scooter", "name": "e774a73db8859f9e5a79933a13b8dd4d", "is_disabled": 0, "rental_uris": {"ios": "https://dc.lft.to/lastmile_qr_scan", "android": "https://dc.lft.to/lastmile_qr_scan"}, "is_reserved": 0}, {"lon": -77.02591, "bike_id": "56b63c4eee402708e102c80262b29729", "lat": 38.90516366666667, "fusion_lon": 0.0, "fusion_lat": 0.0, "type": "electric_scooter", "name": "56b63c4eee402708e102c80262b29729", "is_disabled": 0, "rental_uris": {"ios": "https://dc.lft.to/lastmile_qr_scan", "android": "https://dc.lft.to/lastmile_qr_scan"}, "is_reserved": 0}, {"lon": -76.915976, "bike_id": "b4aa8543d3fed4c0367eb702076c55b9", "lat": 38.87980966666667, "fusion_lon": 0.0, "fusion_lat": 0.0, "type": "electric_bike", "name": "b4aa8543d3fed4c0367eb702076c55b9", "is_disabled": 0, "rental_uris": {"ios": "https://dc.lft.to/lastmile_qr_scan", "android": "https://dc.lft.to/lastmile_qr_scan"}, "is_reserved": 0}, {"lon": -77.03643133333334, "bike_id": "bd6bfca723a5cb885a284127de20bbca", "lat": 38.902786666666664, "fusion_lon": 0.0, "fusion_lat": 0.0, "type": "electric_scooter", "name": "bd6bfca723a5cb885a284127de20bbca", "is_disabled": 0, "rental_uris": {"ios": "https://dc.lft.to/lastmile_qr_scan", "android": "https://dc.lft.to/lastmile_qr_scan"}, "is_reserved": 0}, {"lon": -77.03211483333334, "bike_id": "4aa58276dbcd7b28ed9802053fc846a3", "lat": 38.9147415, "fusion_lon": 0.0, "fusion_lat": 0.0, "type": "electric_scooter", "name": "4aa58276dbcd7b28ed9802053fc846a3", "is_disabled": 0, "rental_uris": {"ios": "https://dc.lft.to/lastmile_qr_scan", "android": "https://dc.lft.to/lastmile_qr_scan"}, "is_reserved": 0}, {"lon": -77.05892083333333, "bike_id": "abc74a19226b9c9fc52150de81caab5f", "lat": 38.942424, "fusion_lon": 0.0, "fusion_lat": 0.0, "type": "electric_scooter", "name": "abc74a19226b9c9fc52150de81caab5f", "is_disabled": 0, "rental_uris": {"ios": "https://dc.lft.to/lastmile_qr_scan", "android": "https://dc.lft.to/lastmile_qr_scan"}, "is_reserved": 0}, {"lon": -77.012571, "bike_id": "4eaa3864a4c7920dcb56ab2a4c8459d6", "lat": 38.908494166666664, "fusion_lon": 0.0, "fusion_lat": 0.0, "type": "electric_scooter", "name": "4eaa3864a4c7920dcb56ab2a4c8459d6", "is_disabled": 0, "rental_uris": {"ios": "https://dc.lft.to/lastmile_qr_scan", "android": "https://dc.lft.to/lastmile_qr_scan"}, "is_reserved": 0}, {"lon": -77.0306435, "bike_id": "3b55cd0aa788a2ddfd27426c4b696436", "lat": 38.90806283333333, "fusion_lon": 0.0, "fusion_lat": 0.0, "type": "electric_scooter", "name": "3b55cd0aa788a2ddfd27426c4b696436", "is_disabled": 0, "rental_uris": {"ios": "https://dc.lft.to/lastmile_qr_scan", "android": "https://dc.lft.to/lastmile_qr_scan"}, "is_reserved": 0}, {"lon": -77.04646166666667, "bike_id": "ff4ae0fb83e31278c1b0a71e187436df", "lat": 38.91578283333333, "fusion_lon": 0.0, "fusion_lat": 0.0, "type": "electric_scooter", "name": "ff4ae0fb83e31278c1b0a71e187436df", "is_disabled": 0, "rental_uris": {"ios": "https://dc.lft.to/lastmile_qr_scan", "android": "https://dc.lft.to/lastmile_qr_scan"}, "is_reserved": 0}, {"lon": -76.9850125, "bike_id": "4b84ca7d54f97f9cc1163da65e6e4ab4", "lat": 38.920084333333335, "fusion_lon": 0.0, "fusion_lat": 0.0, "type": "electric_scooter", "name": "4b84ca7d54f97f9cc1163da65e6e4ab4", "is_disabled": 0, "rental_uris": {"ios": "https://dc.lft.to/lastmile_qr_scan", "android": "https://dc.lft.to/lastmile_qr_scan"}, "is_reserved": 0}, {"lon": -76.963874, "bike_id": "efed83c8f632347931c336ab65bf7c81", "lat": 38.951730833333336, "fusion_lon": 0.0, "fusion_lat": 0.0, "type": "electric_bike", "name": "efed83c8f632347931c336ab65bf7c81", "is_disabled": 0, "rental_uris": {"ios": "https://dc.lft.to/lastmile_qr_scan", "android": "https://dc.lft.to/lastmile_qr_scan"}, "is_reserved": 0}, {"lon": -77.02538616666666, "bike_id": "8a4bfefc4ee91e7f7ca20ccc5e7413ca", "lat": 38.9274545, "fusion_lon": 0.0, "fusion_lat": 0.0, "type": "electric_scooter", "name": "8a4bfefc4ee91e7f7ca20ccc5e7413ca", "is_disabled": 0, "rental_uris": {"ios": "https://dc.lft.to/lastmile_qr_scan", "android": "https://dc.lft.to/lastmile_qr_scan"}, "is_reserved": 0}, {"lon": -77.01769283333333, "bike_id": "6dda0caf9aacb7648d470a79a493f239", "lat": 38.921092333333334, "fusion_lon": 0.0, "fusion_lat": 0.0, "type": "electric_scooter", "name": "6dda0caf9aacb7648d470a79a493f239", "is_disabled": 0, "rental_uris": {"ios": "https://dc.lft.to/lastmile_qr_scan", "android": "https://dc.lft.to/lastmile_qr_scan"}, "is_reserved": 0}, {"lon": -77.03663616666667, "bike_id": "7e26a0fd0a65101da8c49b87beacf40b", "lat": 38.91752316666667, "fusion_lon": 0.0, "fusion_lat": 0.0, "type": "electric_scooter", "name": "7e26a0fd0a65101da8c49b87beacf40b", "is_disabled": 0, "rental_uris": {"ios": "https://dc.lft.to/lastmile_qr_scan", "android": "https://dc.lft.to/lastmile_qr_scan"}, "is_reserved": 0}, {"lon": -76.93363583333333, "bike_id": "c3a761b4eaaa719266cee8670fd70976", "lat": 38.899144, "fusion_lon": 0.0, "fusion_lat": 0.0, "type": "electric_scooter", "name": "c3a761b4eaaa719266cee8670fd70976", "is_disabled": 0, "rental_uris": {"ios": "https://dc.lft.to/lastmile_qr_scan", "android": "https://dc.lft.to/lastmile_qr_scan"}, "is_reserved": 0}, {"lon": -77.00790283333333, "bike_id": "835e29a8e4f134e9966274b539b08d28", "lat": 38.89668233333333, "fusion_lon": 0.0, "fusion_lat": 0.0, "type": "electric_scooter", "name": "835e29a8e4f134e9966274b539b08d28", "is_disabled": 0, "rental_uris": {"ios": "https://dc.lft.to/lastmile_qr_scan", "android": "https://dc.lft.to/lastmile_qr_scan"}, "is_reserved": 0}, {"lon": -77.03617183333333, "bike_id": "503f07f95ea5f2724c3832e006f261de", "lat": 38.93744, "fusion_lon": 0.0, "fusion_lat": 0.0, "type": "electric_scooter", "name": "503f07f95ea5f2724c3832e006f261de", "is_disabled": 0, "rental_uris": {"ios": "https://dc.lft.to/lastmile_qr_scan", "android": "https://dc.lft.to/lastmile_qr_scan"}, "is_reserved": 0}, {"lon": -77.03287316666666, "bike_id": "293af85cca087b44f17cd33994d6845c", "lat": 38.90434, "fusion_lon": 0.0, "fusion_lat": 0.0, "type": "electric_scooter", "name": "293af85cca087b44f17cd33994d6845c", "is_disabled": 0, "rental_uris": {"ios": "https://dc.lft.to/lastmile_qr_scan", "android": "https://dc.lft.to/lastmile_qr_scan"}, "is_reserved": 0}, {"lon": -77.03077266666666, "bike_id": "e47e1b39a4f7799a595e82e46b6daa40", "lat": 38.918168666666666, "fusion_lon": 0.0, "fusion_lat": 0.0, "type": "electric_scooter", "name": "e47e1b39a4f7799a595e82e46b6daa40", "is_disabled": 0, "rental_uris": {"ios": "https://dc.lft.to/lastmile_qr_scan", "android": "https://dc.lft.to/lastmile_qr_scan"}, "is_reserved": 0}, {"lon": -77.01140133333334, "bike_id": "6d61b0e13feb4adba7e04f313751a379", "lat": 38.906469666666666, "fusion_lon": 0.0, "fusion_lat": 0.0, "type": "electric_scooter", "name": "6d61b0e13feb4adba7e04f313751a379", "is_disabled": 0, "rental_uris": {"ios": "https://dc.lft.to/lastmile_qr_scan", "android": "https://dc.lft.to/lastmile_qr_scan"}, "is_reserved": 0}, {"lon": -76.98591816666666, "bike_id": "a88573f04f331a7977879c5c6897ab26", "lat": 38.90810916666667, "fusion_lon": 0.0, "fusion_lat": 0.0, "type": "electric_scooter", "name": "a88573f04f331a7977879c5c6897ab26", "is_disabled": 0, "rental_uris": {"ios": "https://dc.lft.to/lastmile_qr_scan", "android": "https://dc.lft.to/lastmile_qr_scan"}, "is_reserved": 0}, {"lon": -77.00137866666667, "bike_id": "830b591b0d9a372efb5c6400dc9005f8", "lat": 38.92557, "fusion_lon": 0.0, "fusion_lat": 0.0, "type": "electric_bike", "name": "830b591b0d9a372efb5c6400dc9005f8", "is_disabled": 0, "rental_uris": {"ios": "https://dc.lft.to/lastmile_qr_scan", "android": "https://dc.lft.to/lastmile_qr_scan"}, "is_reserved": 0}, {"lon": -77.1008935, "bike_id": "9bf42173bc1197acccf31aa77bf4ab1c", "lat": 38.95959, "fusion_lon": 0.0, "fusion_lat": 0.0, "type": "electric_bike", "name": "9bf42173bc1197acccf31aa77bf4ab1c", "is_disabled": 0, "rental_uris": {"ios": "https://dc.lft.to/lastmile_qr_scan", "android": "https://dc.lft.to/lastmile_qr_scan"}, "is_reserved": 0}, {"lon": -76.94435083333333, "bike_id": "b7d12ded01d20700e681956c2432cfad", "lat": 38.9004515, "fusion_lon": 0.0, "fusion_lat": 0.0, "type": "electric_scooter", "name": "b7d12ded01d20700e681956c2432cfad", "is_disabled": 0, "rental_uris": {"ios": "https://dc.lft.to/lastmile_qr_scan", "android": "https://dc.lft.to/lastmile_qr_scan"}, "is_reserved": 0}, {"lon": -77.01156466666667, "bike_id": "1c058d2831dde4709509d787beb84e1e", "lat": 38.9140355, "fusion_lon": 0.0, "fusion_lat": 0.0, "type": "electric_scooter", "name": "1c058d2831dde4709509d787beb84e1e", "is_disabled": 0, "rental_uris": {"ios": "https://dc.lft.to/lastmile_qr_scan", "android": "https://dc.lft.to/lastmile_qr_scan"}, "is_reserved": 0}, {"lon": -77.027125, "bike_id": "abf46e1b9b4027e17ca20dc0972f98ab", "lat": 38.906658666666665, "fusion_lon": 0.0, "fusion_lat": 0.0, "type": "electric_scooter", "name": "abf46e1b9b4027e17ca20dc0972f98ab", "is_disabled": 0, "rental_uris": {"ios": "https://dc.lft.to/lastmile_qr_scan", "android": "https://dc.lft.to/lastmile_qr_scan"}, "is_reserved": 0}, {"lon": -76.98782416666667, "bike_id": "efec1a106c5cdf1868df13260c24dd7f", "lat": 38.906597166666664, "fusion_lon": 0.0, "fusion_lat": 0.0, "type": "electric_scooter", "name": "efec1a106c5cdf1868df13260c24dd7f", "is_disabled": 0, "rental_uris": {"ios": "https://dc.lft.to/lastmile_qr_scan", "android": "https://dc.lft.to/lastmile_qr_scan"}, "is_reserved": 0}, {"lon": -77.01182983333334, "bike_id": "df4a1c3a9820dc5abfde156eb5ac02f6", "lat": 38.872290666666665, "fusion_lon": 0.0, "fusion_lat": 0.0, "type": "electric_bike", "name": "df4a1c3a9820dc5abfde156eb5ac02f6", "is_disabled": 0, "rental_uris": {"ios": "https://dc.lft.to/lastmile_qr_scan", "android": "https://dc.lft.to/lastmile_qr_scan"}, "is_reserved": 0}, {"lon": -76.98372383333333, "bike_id": "3b3a83e5d1146f13cea06d2e48acd74c", "lat": 38.915012833333336, "fusion_lon": 0.0, "fusion_lat": 0.0, "type": "electric_scooter", "name": "3b3a83e5d1146f13cea06d2e48acd74c", "is_disabled": 0, "rental_uris": {"ios": "https://dc.lft.to/lastmile_qr_scan", "android": "https://dc.lft.to/lastmile_qr_scan"}, "is_reserved": 0}, {"lon": -76.99407966666666, "bike_id": "35c9a40ceca9cc849c31f74ee6ff3580", "lat": 38.831395, "fusion_lon": 0.0, "fusion_lat": 0.0, "type": "electric_bike", "name": "35c9a40ceca9cc849c31f74ee6ff3580", "is_disabled": 0, "rental_uris": {"ios": "https://dc.lft.to/lastmile_qr_scan", "android": "https://dc.lft.to/lastmile_qr_scan"}, "is_reserved": 0}, {"lon": -77.04610433333333, "bike_id": "0d733ceb4b7fdd6126eec229516f77c9", "lat": 38.90768283333333, "fusion_lon": 0.0, "fusion_lat": 0.0, "type": "electric_scooter", "name": "0d733ceb4b7fdd6126eec229516f77c9", "is_disabled": 0, "rental_uris": {"ios": "https://dc.lft.to/lastmile_qr_scan", "android": "https://dc.lft.to/lastmile_qr_scan"}, "is_reserved": 0}, {"lon": -76.95473933333334, "bike_id": "690666801d497e4e0feec9b22a328ab9", "lat": 38.8865815, "fusion_lon": 0.0, "fusion_lat": 0.0, "type": "electric_scooter", "name": "690666801d497e4e0feec9b22a328ab9", "is_disabled": 0, "rental_uris": {"ios": "https://dc.lft.to/lastmile_qr_scan", "android": "https://dc.lft.to/lastmile_qr_scan"}, "is_reserved": 0}, {"lon": -77.0329025, "bike_id": "bf27da747936a8b81d67e04087c36ad0", "lat": 38.934614, "fusion_lon": 0.0, "fusion_lat": 0.0, "type": "electric_scooter", "name": "bf27da747936a8b81d67e04087c36ad0", "is_disabled": 0, "rental_uris": {"ios": "https://dc.lft.to/lastmile_qr_scan", "android": "https://dc.lft.to/lastmile_qr_scan"}, "is_reserved": 0}, {"lon": -77.02497183333334, "bike_id": "80e27b409cc2595fedf3712ab46ec70a", "lat": 38.92592916666667, "fusion_lon": 0.0, "fusion_lat": 0.0, "type": "electric_scooter", "name": "80e27b409cc2595fedf3712ab46ec70a", "is_disabled": 0, "rental_uris": {"ios": "https://dc.lft.to/lastmile_qr_scan", "android": "https://dc.lft.to/lastmile_qr_scan"}, "is_reserved": 0}, {"lon": -77.04171216666667, "bike_id": "4acea478275f6dddedc926ba12ed2daf", "lat": 38.91704216666667, "fusion_lon": 0.0, "fusion_lat": 0.0, "type": "electric_scooter", "name": "4acea478275f6dddedc926ba12ed2daf", "is_disabled": 0, "rental_uris": {"ios": "https://dc.lft.to/lastmile_qr_scan", "android": "https://dc.lft.to/lastmile_qr_scan"}, "is_reserved": 0}, {"lon": -76.98659316666667, "bike_id": "1ea4eff3dda02d8a4edd102de22ff7a9", "lat": 38.8673435, "fusion_lon": 0.0, "fusion_lat": 0.0, "type": "electric_scooter", "name": "1ea4eff3dda02d8a4edd102de22ff7a9", "is_disabled": 0, "rental_uris": {"ios": "https://dc.lft.to/lastmile_qr_scan", "android": "https://dc.lft.to/lastmile_qr_scan"}, "is_reserved": 0}, {"lon": -77.02161683333334, "bike_id": "80e972862beb36fa07f342f3ca75a969", "lat": 38.909688, "fusion_lon": 0.0, "fusion_lat": 0.0, "type": "electric_scooter", "name": "80e972862beb36fa07f342f3ca75a969", "is_disabled": 0, "rental_uris": {"ios": "https://dc.lft.to/lastmile_qr_scan", "android": "https://dc.lft.to/lastmile_qr_scan"}, "is_reserved": 0}, {"lon": -77.00556416666667, "bike_id": "4b6852ed5a148beb9e2a567db5b57715", "lat": 38.87472783333333, "fusion_lon": 0.0, "fusion_lat": 0.0, "type": "electric_scooter", "name": "4b6852ed5a148beb9e2a567db5b57715", "is_disabled": 0, "rental_uris": {"ios": "https://dc.lft.to/lastmile_qr_scan", "android": "https://dc.lft.to/lastmile_qr_scan"}, "is_reserved": 0}, {"lon": -77.04253766666666, "bike_id": "68a23c5f702f3c7a0d4c81e72ade9935", "lat": 38.92066116666667, "fusion_lon": 0.0, "fusion_lat": 0.0, "type": "electric_scooter", "name": "68a23c5f702f3c7a0d4c81e72ade9935", "is_disabled": 0, "rental_uris": {"ios": "https://dc.lft.to/lastmile_qr_scan", "android": "https://dc.lft.to/lastmile_qr_scan"}, "is_reserved": 0}, {"lon": -77.04894266666666, "bike_id": "d0fba6caed7252ed28354a50ae3b9743", "lat": 38.89234866666666, "fusion_lon": 0.0, "fusion_lat": 0.0, "type": "electric_scooter", "name": "d0fba6caed7252ed28354a50ae3b9743", "is_disabled": 0, "rental_uris": {"ios": "https://dc.lft.to/lastmile_qr_scan", "android": "https://dc.lft.to/lastmile_qr_scan"}, "is_reserved": 0}, {"lon": -77.01127016666666, "bike_id": "50ff1672676a2ce15c8ab83189af05e9", "lat": 38.89583183333333, "fusion_lon": 0.0, "fusion_lat": 0.0, "type": "electric_scooter", "name": "50ff1672676a2ce15c8ab83189af05e9", "is_disabled": 0, "rental_uris": {"ios": "https://dc.lft.to/lastmile_qr_scan", "android": "https://dc.lft.to/lastmile_qr_scan"}, "is_reserved": 0}, {"lon": -77.07673816666667, "bike_id": "8030ab6ed125e8519117884033a25661", "lat": 38.94318366666667, "fusion_lon": 0.0, "fusion_lat": 0.0, "type": "electric_scooter", "name": "8030ab6ed125e8519117884033a25661", "is_disabled": 0, "rental_uris": {"ios": "https://dc.lft.to/lastmile_qr_scan", "android": "https://dc.lft.to/lastmile_qr_scan"}, "is_reserved": 0}, {"lon": -76.998535, "bike_id": "7088734bc318d7e4e05e02f518f28606", "lat": 38.907763333333335, "fusion_lon": 0.0, "fusion_lat": 0.0, "type": "electric_scooter", "name": "7088734bc318d7e4e05e02f518f28606", "is_disabled": 0, "rental_uris": {"ios": "https://dc.lft.to/lastmile_qr_scan", "android": "https://dc.lft.to/lastmile_qr_scan"}, "is_reserved": 0}, {"lon": -77.05615, "bike_id": "6dfaf99e854f250113965665b2ae3145", "lat": 38.923286833333336, "fusion_lon": 0.0, "fusion_lat": 0.0, "type": "electric_scooter", "name": "6dfaf99e854f250113965665b2ae3145", "is_disabled": 0, "rental_uris": {"ios": "https://dc.lft.to/lastmile_qr_scan", "android": "https://dc.lft.to/lastmile_qr_scan"}, "is_reserved": 0}, {"lon": -77.0234815, "bike_id": "de730212739f28627661656dff118892", "lat": 38.92249533333333, "fusion_lon": 0.0, "fusion_lat": 0.0, "type": "electric_scooter", "name": "de730212739f28627661656dff118892", "is_disabled": 0, "rental_uris": {"ios": "https://dc.lft.to/lastmile_qr_scan", "android": "https://dc.lft.to/lastmile_qr_scan"}, "is_reserved": 0}, {"lon": -77.028893, "bike_id": "936dd028a975ae8fb8664b1b87fbbeb5", "lat": 38.90317433333333, "fusion_lon": 0.0, "fusion_lat": 0.0, "type": "electric_scooter", "name": "936dd028a975ae8fb8664b1b87fbbeb5", "is_disabled": 0, "rental_uris": {"ios": "https://dc.lft.to/lastmile_qr_scan", "android": "https://dc.lft.to/lastmile_qr_scan"}, "is_reserved": 0}, {"lon": -76.96527466666667, "bike_id": "1506cf094ad122e43fb359b138d3a6dd", "lat": 38.874777333333334, "fusion_lon": 0.0, "fusion_lat": 0.0, "type": "electric_scooter", "name": "1506cf094ad122e43fb359b138d3a6dd", "is_disabled": 0, "rental_uris": {"ios": "https://dc.lft.to/lastmile_qr_scan", "android": "https://dc.lft.to/lastmile_qr_scan"}, "is_reserved": 0}, {"lon": -77.00924433333333, "bike_id": "7e132429869fe812e6362fae3d8f8c16", "lat": 38.89645816666667, "fusion_lon": 0.0, "fusion_lat": 0.0, "type": "electric_scooter", "name": "7e132429869fe812e6362fae3d8f8c16", "is_disabled": 0, "rental_uris": {"ios": "https://dc.lft.to/lastmile_qr_scan", "android": "https://dc.lft.to/lastmile_qr_scan"}, "is_reserved": 0}, {"lon": -77.04246333333333, "bike_id": "2815b04c3e90eef117add2b90c0ff387", "lat": 38.90649533333333, "fusion_lon": 0.0, "fusion_lat": 0.0, "type": "electric_scooter", "name": "2815b04c3e90eef117add2b90c0ff387", "is_disabled": 0, "rental_uris": {"ios": "https://dc.lft.to/lastmile_qr_scan", "android": "https://dc.lft.to/lastmile_qr_scan"}, "is_reserved": 0}, {"lon": -76.99201516666666, "bike_id": "97d61f23c07a18279e069740580b92d9", "lat": 38.898332833333335, "fusion_lon": 0.0, "fusion_lat": 0.0, "type": "electric_scooter", "name": "97d61f23c07a18279e069740580b92d9", "is_disabled": 0, "rental_uris": {"ios": "https://dc.lft.to/lastmile_qr_scan", "android": "https://dc.lft.to/lastmile_qr_scan"}, "is_reserved": 0}, {"lon": -77.00438933333334, "bike_id": "89d14f984b2925b138c36c91bc06cd22", "lat": 38.91194316666667, "fusion_lon": 0.0, "fusion_lat": 0.0, "type": "electric_scooter", "name": "89d14f984b2925b138c36c91bc06cd22", "is_disabled": 0, "rental_uris": {"ios": "https://dc.lft.to/lastmile_qr_scan", "android": "https://dc.lft.to/lastmile_qr_scan"}, "is_reserved": 0}, {"lon": -77.0217655, "bike_id": "0bdaf7384b6e627102e741a9c066f027", "lat": 38.942938833333336, "fusion_lon": 0.0, "fusion_lat": 0.0, "type": "electric_scooter", "name": "0bdaf7384b6e627102e741a9c066f027", "is_disabled": 0, "rental_uris": {"ios": "https://dc.lft.to/lastmile_qr_scan", "android": "https://dc.lft.to/lastmile_qr_scan"}, "is_reserved": 0}, {"lon": -77.01811016666667, "bike_id": "cd69a3bc489fe6d67a343a283b5e59f3", "lat": 38.92031383333333, "fusion_lon": 0.0, "fusion_lat": 0.0, "type": "electric_scooter", "name": "cd69a3bc489fe6d67a343a283b5e59f3", "is_disabled": 0, "rental_uris": {"ios": "https://dc.lft.to/lastmile_qr_scan", "android": "https://dc.lft.to/lastmile_qr_scan"}, "is_reserved": 0}, {"lon": -77.04554766666666, "bike_id": "e44c1780e05f8ef4a4fe0d31910665e1", "lat": 38.9192075, "fusion_lon": 0.0, "fusion_lat": 0.0, "type": "electric_scooter", "name": "e44c1780e05f8ef4a4fe0d31910665e1", "is_disabled": 0, "rental_uris": {"ios": "https://dc.lft.to/lastmile_qr_scan", "android": "https://dc.lft.to/lastmile_qr_scan"}, "is_reserved": 0}, {"lon": -76.94631483333333, "bike_id": "856a43f9715aab9d3bef308a5601af4d", "lat": 38.89830383333333, "fusion_lon": 0.0, "fusion_lat": 0.0, "type": "electric_scooter", "name": "856a43f9715aab9d3bef308a5601af4d", "is_disabled": 0, "rental_uris": {"ios": "https://dc.lft.to/lastmile_qr_scan", "android": "https://dc.lft.to/lastmile_qr_scan"}, "is_reserved": 0}, {"lon": -77.03942983333333, "bike_id": "dd25c766f7d6a848d7080fa390a7f06f", "lat": 38.919423, "fusion_lon": 0.0, "fusion_lat": 0.0, "type": "electric_scooter", "name": "dd25c766f7d6a848d7080fa390a7f06f", "is_disabled": 0, "rental_uris": {"ios": "https://dc.lft.to/lastmile_qr_scan", "android": "https://dc.lft.to/lastmile_qr_scan"}, "is_reserved": 0}, {"lon": -77.031958, "bike_id": "74b1738e57ab9cd1f764df4bc520c5b5", "lat": 38.92071383333333, "fusion_lon": 0.0, "fusion_lat": 0.0, "type": "electric_scooter", "name": "74b1738e57ab9cd1f764df4bc520c5b5", "is_disabled": 0, "rental_uris": {"ios": "https://dc.lft.to/lastmile_qr_scan", "android": "https://dc.lft.to/lastmile_qr_scan"}, "is_reserved": 0}, {"lon": -77.0297675, "bike_id": "472b60e21988f5926dfef81110bfcbe2", "lat": 38.94741483333333, "fusion_lon": 0.0, "fusion_lat": 0.0, "type": "electric_scooter", "name": "472b60e21988f5926dfef81110bfcbe2", "is_disabled": 0, "rental_uris": {"ios": "https://dc.lft.to/lastmile_qr_scan", "android": "https://dc.lft.to/lastmile_qr_scan"}, "is_reserved": 0}, {"lon": -76.98590483333334, "bike_id": "dfc6bfc70ef86ddf2a8107755aa1bbd0", "lat": 38.86061983333333, "fusion_lon": 0.0, "fusion_lat": 0.0, "type": "electric_scooter", "name": "dfc6bfc70ef86ddf2a8107755aa1bbd0", "is_disabled": 0, "rental_uris": {"ios": "https://dc.lft.to/lastmile_qr_scan", "android": "https://dc.lft.to/lastmile_qr_scan"}, "is_reserved": 0}, {"lon": -77.02457683333333, "bike_id": "c827deeb7cda3dc327c352e6b3691945", "lat": 38.90092216666667, "fusion_lon": 0.0, "fusion_lat": 0.0, "type": "electric_scooter", "name": "c827deeb7cda3dc327c352e6b3691945", "is_disabled": 0, "rental_uris": {"ios": "https://dc.lft.to/lastmile_qr_scan", "android": "https://dc.lft.to/lastmile_qr_scan"}, "is_reserved": 0}, {"lon": -77.04405866666667, "bike_id": "cfd2982d4a478352f1ec45b8398bdb28", "lat": 38.934205, "fusion_lon": 0.0, "fusion_lat": 0.0, "type": "electric_scooter", "name": "cfd2982d4a478352f1ec45b8398bdb28", "is_disabled": 0, "rental_uris": {"ios": "https://dc.lft.to/lastmile_qr_scan", "android": "https://dc.lft.to/lastmile_qr_scan"}, "is_reserved": 0}, {"lon": -76.96155333333333, "bike_id": "cdabd05168f3a565e251e63ff6d84d14", "lat": 38.88364983333334, "fusion_lon": 0.0, "fusion_lat": 0.0, "type": "electric_scooter", "name": "cdabd05168f3a565e251e63ff6d84d14", "is_disabled": 0, "rental_uris": {"ios": "https://dc.lft.to/lastmile_qr_scan", "android": "https://dc.lft.to/lastmile_qr_scan"}, "is_reserved": 0}, {"lon": -77.04246716666667, "bike_id": "25e69131dda2bcb24d9e01488c061df3", "lat": 38.92262383333333, "fusion_lon": 0.0, "fusion_lat": 0.0, "type": "electric_scooter", "name": "25e69131dda2bcb24d9e01488c061df3", "is_disabled": 0, "rental_uris": {"ios": "https://dc.lft.to/lastmile_qr_scan", "android": "https://dc.lft.to/lastmile_qr_scan"}, "is_reserved": 0}, {"lon": -77.046937, "bike_id": "e71601a9553dbc7b24f5b5ce6dccc95e", "lat": 38.921215, "fusion_lon": 0.0, "fusion_lat": 0.0, "type": "electric_scooter", "name": "e71601a9553dbc7b24f5b5ce6dccc95e", "is_disabled": 0, "rental_uris": {"ios": "https://dc.lft.to/lastmile_qr_scan", "android": "https://dc.lft.to/lastmile_qr_scan"}, "is_reserved": 0}, {"lon": -76.98536516666667, "bike_id": "801d5ad2079cdef0f48d8c01f5f24374", "lat": 38.9102505, "fusion_lon": 0.0, "fusion_lat": 0.0, "type": "electric_scooter", "name": "801d5ad2079cdef0f48d8c01f5f24374", "is_disabled": 0, "rental_uris": {"ios": "https://dc.lft.to/lastmile_qr_scan", "android": "https://dc.lft.to/lastmile_qr_scan"}, "is_reserved": 0}, {"lon": -77.02964716666666, "bike_id": "eb13e3082e4f64677f838913ef57731b", "lat": 38.931977333333336, "fusion_lon": 0.0, "fusion_lat": 0.0, "type": "electric_scooter", "name": "eb13e3082e4f64677f838913ef57731b", "is_disabled": 0, "rental_uris": {"ios": "https://dc.lft.to/lastmile_qr_scan", "android": "https://dc.lft.to/lastmile_qr_scan"}, "is_reserved": 0}, {"lon": -77.03118533333334, "bike_id": "d9492b7580cb1e493a59912a7f15fc70", "lat": 38.91702766666667, "fusion_lon": 0.0, "fusion_lat": 0.0, "type": "electric_scooter", "name": "d9492b7580cb1e493a59912a7f15fc70", "is_disabled": 0, "rental_uris": {"ios": "https://dc.lft.to/lastmile_qr_scan", "android": "https://dc.lft.to/lastmile_qr_scan"}, "is_reserved": 0}, {"lon": -76.98723733333334, "bike_id": "25d39954c1504b117d1a6737366a40c0", "lat": 38.867152833333336, "fusion_lon": 0.0, "fusion_lat": 0.0, "type": "electric_scooter", "name": "25d39954c1504b117d1a6737366a40c0", "is_disabled": 0, "rental_uris": {"ios": "https://dc.lft.to/lastmile_qr_scan", "android": "https://dc.lft.to/lastmile_qr_scan"}, "is_reserved": 0}, {"lon": -77.10599783333333, "bike_id": "74109fff8b5e7895c09acdcd6372c0a2", "lat": 38.92897716666667, "fusion_lon": 0.0, "fusion_lat": 0.0, "type": "electric_bike", "name": "74109fff8b5e7895c09acdcd6372c0a2", "is_disabled": 0, "rental_uris": {"ios": "https://dc.lft.to/lastmile_qr_scan", "android": "https://dc.lft.to/lastmile_qr_scan"}, "is_reserved": 0}, {"lon": -76.991837, "bike_id": "1196700f1b7e672e88deb547526cbb98", "lat": 38.905142, "fusion_lon": 0.0, "fusion_lat": 0.0, "type": "electric_scooter", "name": "1196700f1b7e672e88deb547526cbb98", "is_disabled": 0, "rental_uris": {"ios": "https://dc.lft.to/lastmile_qr_scan", "android": "https://dc.lft.to/lastmile_qr_scan"}, "is_reserved": 0}, {"lon": -77.04239716666666, "bike_id": "860c680a7d4e61f95c624c81729d4778", "lat": 38.921863333333334, "fusion_lon": 0.0, "fusion_lat": 0.0, "type": "electric_scooter", "name": "860c680a7d4e61f95c624c81729d4778", "is_disabled": 0, "rental_uris": {"ios": "https://dc.lft.to/lastmile_qr_scan", "android": "https://dc.lft.to/lastmile_qr_scan"}, "is_reserved": 0}, {"lon": -77.05310583333333, "bike_id": "024f77d0efde78db64e7990818b0cce9", "lat": 38.90077766666667, "fusion_lon": 0.0, "fusion_lat": 0.0, "type": "electric_scooter", "name": "024f77d0efde78db64e7990818b0cce9", "is_disabled": 0, "rental_uris": {"ios": "https://dc.lft.to/lastmile_qr_scan", "android": "https://dc.lft.to/lastmile_qr_scan"}, "is_reserved": 0}, {"lon": -76.995289, "bike_id": "a262ef6406aa99f21f0bc3b1ee975364", "lat": 38.86205966666667, "fusion_lon": 0.0, "fusion_lat": 0.0, "type": "electric_scooter", "name": "a262ef6406aa99f21f0bc3b1ee975364", "is_disabled": 0, "rental_uris": {"ios": "https://dc.lft.to/lastmile_qr_scan", "android": "https://dc.lft.to/lastmile_qr_scan"}, "is_reserved": 0}, {"lon": -77.139168, "bike_id": "ea6c34b249f4553a33d5c633ecb128eb", "lat": 38.87300716666667, "fusion_lon": 0.0, "fusion_lat": 0.0, "type": "electric_bike", "name": "ea6c34b249f4553a33d5c633ecb128eb", "is_disabled": 0, "rental_uris": {"ios": "https://dc.lft.to/lastmile_qr_scan", "android": "https://dc.lft.to/lastmile_qr_scan"}, "is_reserved": 0}, {"lon": -77.02801283333334, "bike_id": "ec46a4d2cb21742aa700ba5e9aeda0d7", "lat": 38.90671016666667, "fusion_lon": 0.0, "fusion_lat": 0.0, "type": "electric_scooter", "name": "ec46a4d2cb21742aa700ba5e9aeda0d7", "is_disabled": 0, "rental_uris": {"ios": "https://dc.lft.to/lastmile_qr_scan", "android": "https://dc.lft.to/lastmile_qr_scan"}, "is_reserved": 0}, {"lon": -77.05566666666667, "bike_id": "f4da718672524c9ad73e92c74ed3ec4f", "lat": 38.8973305, "fusion_lon": 0.0, "fusion_lat": 0.0, "type": "electric_scooter", "name": "f4da718672524c9ad73e92c74ed3ec4f", "is_disabled": 0, "rental_uris": {"ios": "https://dc.lft.to/lastmile_qr_scan", "android": "https://dc.lft.to/lastmile_qr_scan"}, "is_reserved": 0}, {"lon": -76.9822505, "bike_id": "3846de9835ed1ed0eaeb36df6bd86d08", "lat": 38.8647455, "fusion_lon": 0.0, "fusion_lat": 0.0, "type": "electric_scooter", "name": "3846de9835ed1ed0eaeb36df6bd86d08", "is_disabled": 0, "rental_uris": {"ios": "https://dc.lft.to/lastmile_qr_scan", "android": "https://dc.lft.to/lastmile_qr_scan"}, "is_reserved": 0}, {"lon": -76.94650683333333, "bike_id": "5e2220ae7e232312bc1e86e75bea8b6c", "lat": 38.898270833333335, "fusion_lon": 0.0, "fusion_lat": 0.0, "type": "electric_scooter", "name": "5e2220ae7e232312bc1e86e75bea8b6c", "is_disabled": 0, "rental_uris": {"ios": "https://dc.lft.to/lastmile_qr_scan", "android": "https://dc.lft.to/lastmile_qr_scan"}, "is_reserved": 0}, {"lon": -77.01764433333334, "bike_id": "6f01def669644aba3a57a8ef758498c2", "lat": 38.90033916666667, "fusion_lon": 0.0, "fusion_lat": 0.0, "type": "electric_scooter", "name": "6f01def669644aba3a57a8ef758498c2", "is_disabled": 0, "rental_uris": {"ios": "https://dc.lft.to/lastmile_qr_scan", "android": "https://dc.lft.to/lastmile_qr_scan"}, "is_reserved": 0}, {"lon": -77.03428, "bike_id": "75f36868f695e15287401ffe2248c375", "lat": 38.965414, "fusion_lon": 0.0, "fusion_lat": 0.0, "type": "electric_bike", "name": "75f36868f695e15287401ffe2248c375", "is_disabled": 0, "rental_uris": {"ios": "https://dc.lft.to/lastmile_qr_scan", "android": "https://dc.lft.to/lastmile_qr_scan"}, "is_reserved": 0}, {"lon": -76.99028833333334, "bike_id": "f3573f69553dc4efb3cb6691c8519570", "lat": 38.89599716666667, "fusion_lon": 0.0, "fusion_lat": 0.0, "type": "electric_scooter", "name": "f3573f69553dc4efb3cb6691c8519570", "is_disabled": 0, "rental_uris": {"ios": "https://dc.lft.to/lastmile_qr_scan", "android": "https://dc.lft.to/lastmile_qr_scan"}, "is_reserved": 0}, {"lon": -77.0216065, "bike_id": "8984e40b6333f602a1e931b06c378b6d", "lat": 38.926163333333335, "fusion_lon": 0.0, "fusion_lat": 0.0, "type": "electric_scooter", "name": "8984e40b6333f602a1e931b06c378b6d", "is_disabled": 0, "rental_uris": {"ios": "https://dc.lft.to/lastmile_qr_scan", "android": "https://dc.lft.to/lastmile_qr_scan"}, "is_reserved": 0}, {"lon": -76.972058, "bike_id": "c39aaf084e8272535a8a0b5ce4799a4a", "lat": 38.89291866666667, "fusion_lon": 0.0, "fusion_lat": 0.0, "type": "electric_bike", "name": "c39aaf084e8272535a8a0b5ce4799a4a", "is_disabled": 0, "rental_uris": {"ios": "https://dc.lft.to/lastmile_qr_scan", "android": "https://dc.lft.to/lastmile_qr_scan"}, "is_reserved": 0}, {"lon": -77.04905166666667, "bike_id": "646bc7bdb7da391f180321c58c80b480", "lat": 38.91599983333333, "fusion_lon": 0.0, "fusion_lat": 0.0, "type": "electric_scooter", "name": "646bc7bdb7da391f180321c58c80b480", "is_disabled": 0, "rental_uris": {"ios": "https://dc.lft.to/lastmile_qr_scan", "android": "https://dc.lft.to/lastmile_qr_scan"}, "is_reserved": 0}, {"lon": -77.023676, "bike_id": "1b9a7d3425eaaf93f7180f9fa4595782", "lat": 38.92055033333333, "fusion_lon": 0.0, "fusion_lat": 0.0, "type": "electric_scooter", "name": "1b9a7d3425eaaf93f7180f9fa4595782", "is_disabled": 0, "rental_uris": {"ios": "https://dc.lft.to/lastmile_qr_scan", "android": "https://dc.lft.to/lastmile_qr_scan"}, "is_reserved": 0}, {"lon": -77.06409083333334, "bike_id": "fc9e4b412b49687038cf7ee54d6e53a5", "lat": 38.84057883333333, "fusion_lon": 0.0, "fusion_lat": 0.0, "type": "electric_bike", "name": "fc9e4b412b49687038cf7ee54d6e53a5", "is_disabled": 0, "rental_uris": {"ios": "https://dc.lft.to/lastmile_qr_scan", "android": "https://dc.lft.to/lastmile_qr_scan"}, "is_reserved": 0}, {"lon": -76.97856816666666, "bike_id": "ade145e7873cfe66f2d2363c52e370e7", "lat": 38.870743833333336, "fusion_lon": 0.0, "fusion_lat": 0.0, "type": "electric_scooter", "name": "ade145e7873cfe66f2d2363c52e370e7", "is_disabled": 0, "rental_uris": {"ios": "https://dc.lft.to/lastmile_qr_scan", "android": "https://dc.lft.to/lastmile_qr_scan"}, "is_reserved": 0}, {"lon": -77.0294935, "bike_id": "36759872bae55fd5c0c13c7b98c2ec16", "lat": 38.921741833333336, "fusion_lon": 0.0, "fusion_lat": 0.0, "type": "electric_scooter", "name": "36759872bae55fd5c0c13c7b98c2ec16", "is_disabled": 0, "rental_uris": {"ios": "https://dc.lft.to/lastmile_qr_scan", "android": "https://dc.lft.to/lastmile_qr_scan"}, "is_reserved": 0}, {"lon": -77.02173433333333, "bike_id": "199d7a28395675c8d0915cf40c6a9df1", "lat": 38.88754866666667, "fusion_lon": 0.0, "fusion_lat": 0.0, "type": "electric_scooter", "name": "199d7a28395675c8d0915cf40c6a9df1", "is_disabled": 0, "rental_uris": {"ios": "https://dc.lft.to/lastmile_qr_scan", "android": "https://dc.lft.to/lastmile_qr_scan"}, "is_reserved": 0}, {"lon": -77.03253233333334, "bike_id": "54930547379c3e78e2152ae18ad88690", "lat": 38.90451433333333, "fusion_lon": 0.0, "fusion_lat": 0.0, "type": "electric_scooter", "name": "54930547379c3e78e2152ae18ad88690", "is_disabled": 0, "rental_uris": {"ios": "https://dc.lft.to/lastmile_qr_scan", "android": "https://dc.lft.to/lastmile_qr_scan"}, "is_reserved": 0}, {"lon": -77.0178365, "bike_id": "9e1c8c2a2685bde73fdbd2b600877f17", "lat": 38.901323, "fusion_lon": 0.0, "fusion_lat": 0.0, "type": "electric_scooter", "name": "9e1c8c2a2685bde73fdbd2b600877f17", "is_disabled": 0, "rental_uris": {"ios": "https://dc.lft.to/lastmile_qr_scan", "android": "https://dc.lft.to/lastmile_qr_scan"}, "is_reserved": 0}, {"lon": -77.02660666666667, "bike_id": "cc2e605698f478972963e8189f97c08d", "lat": 38.930995, "fusion_lon": 0.0, "fusion_lat": 0.0, "type": "electric_scooter", "name": "cc2e605698f478972963e8189f97c08d", "is_disabled": 0, "rental_uris": {"ios": "https://dc.lft.to/lastmile_qr_scan", "android": "https://dc.lft.to/lastmile_qr_scan"}, "is_reserved": 0}, {"lon": -77.00191733333334, "bike_id": "a76fdf3cc026db77654175e38343aa1f", "lat": 38.9147985, "fusion_lon": 0.0, "fusion_lat": 0.0, "type": "electric_scooter", "name": "a76fdf3cc026db77654175e38343aa1f", "is_disabled": 0, "rental_uris": {"ios": "https://dc.lft.to/lastmile_qr_scan", "android": "https://dc.lft.to/lastmile_qr_scan"}, "is_reserved": 0}, {"lon": -77.00587116666667, "bike_id": "28a319710c617b45b3c658ecf0d0819c", "lat": 38.905558166666665, "fusion_lon": 0.0, "fusion_lat": 0.0, "type": "electric_scooter", "name": "28a319710c617b45b3c658ecf0d0819c", "is_disabled": 0, "rental_uris": {"ios": "https://dc.lft.to/lastmile_qr_scan", "android": "https://dc.lft.to/lastmile_qr_scan"}, "is_reserved": 0}, {"lon": -77.023844, "bike_id": "d9458f4054335881ae26df474360a50f", "lat": 38.9009725, "fusion_lon": 0.0, "fusion_lat": 0.0, "type": "electric_scooter", "name": "d9458f4054335881ae26df474360a50f", "is_disabled": 0, "rental_uris": {"ios": "https://dc.lft.to/lastmile_qr_scan", "android": "https://dc.lft.to/lastmile_qr_scan"}, "is_reserved": 0}, {"lon": -77.03903316666667, "bike_id": "da09f5b0bf9c1a77eeff1bce11040e1f", "lat": 38.9222505, "fusion_lon": 0.0, "fusion_lat": 0.0, "type": "electric_scooter", "name": "da09f5b0bf9c1a77eeff1bce11040e1f", "is_disabled": 0, "rental_uris": {"ios": "https://dc.lft.to/lastmile_qr_scan", "android": "https://dc.lft.to/lastmile_qr_scan"}, "is_reserved": 0}, {"lon": -77.02454966666667, "bike_id": "f210a5077560418af77cf8e4916244aa", "lat": 38.89971083333333, "fusion_lon": 0.0, "fusion_lat": 0.0, "type": "electric_scooter", "name": "f210a5077560418af77cf8e4916244aa", "is_disabled": 0, "rental_uris": {"ios": "https://dc.lft.to/lastmile_qr_scan", "android": "https://dc.lft.to/lastmile_qr_scan"}, "is_reserved": 0}, {"lon": -77.03653433333334, "bike_id": "f9fa937f8e06e7040747c7707ece4203", "lat": 38.9361745, "fusion_lon": 0.0, "fusion_lat": 0.0, "type": "electric_scooter", "name": "f9fa937f8e06e7040747c7707ece4203", "is_disabled": 0, "rental_uris": {"ios": "https://dc.lft.to/lastmile_qr_scan", "android": "https://dc.lft.to/lastmile_qr_scan"}, "is_reserved": 0}, {"lon": -77.03640016666667, "bike_id": "0d840c9f23e3d58617cf28e941fa355a", "lat": 38.92353166666667, "fusion_lon": 0.0, "fusion_lat": 0.0, "type": "electric_scooter", "name": "0d840c9f23e3d58617cf28e941fa355a", "is_disabled": 0, "rental_uris": {"ios": "https://dc.lft.to/lastmile_qr_scan", "android": "https://dc.lft.to/lastmile_qr_scan"}, "is_reserved": 0}, {"lon": -77.032592, "bike_id": "2c054e0d8ff2e7c2de5a8541c6b8cbf4", "lat": 38.9356375, "fusion_lon": 0.0, "fusion_lat": 0.0, "type": "electric_scooter", "name": "2c054e0d8ff2e7c2de5a8541c6b8cbf4", "is_disabled": 0, "rental_uris": {"ios": "https://dc.lft.to/lastmile_qr_scan", "android": "https://dc.lft.to/lastmile_qr_scan"}, "is_reserved": 0}, {"lon": -77.01434416666666, "bike_id": "87691df2e83e54e4f6f85ce0d2c348f2", "lat": 38.91465683333333, "fusion_lon": 0.0, "fusion_lat": 0.0, "type": "electric_scooter", "name": "87691df2e83e54e4f6f85ce0d2c348f2", "is_disabled": 0, "rental_uris": {"ios": "https://dc.lft.to/lastmile_qr_scan", "android": "https://dc.lft.to/lastmile_qr_scan"}, "is_reserved": 0}, {"lon": -76.98711316666666, "bike_id": "cf0b741a44d414f0b444e19152726295", "lat": 38.86630316666667, "fusion_lon": 0.0, "fusion_lat": 0.0, "type": "electric_scooter", "name": "cf0b741a44d414f0b444e19152726295", "is_disabled": 0, "rental_uris": {"ios": "https://dc.lft.to/lastmile_qr_scan", "android": "https://dc.lft.to/lastmile_qr_scan"}, "is_reserved": 0}, {"lon": -76.949968, "bike_id": "7b9ff93faf1dff89fccc42b70a2ac277", "lat": 38.89385, "fusion_lon": 0.0, "fusion_lat": 0.0, "type": "electric_scooter", "name": "7b9ff93faf1dff89fccc42b70a2ac277", "is_disabled": 0, "rental_uris": {"ios": "https://dc.lft.to/lastmile_qr_scan", "android": "https://dc.lft.to/lastmile_qr_scan"}, "is_reserved": 0}, {"lon": -77.07434916666666, "bike_id": "e3608a4895e38e8de5c17483964815fa", "lat": 38.99948783333333, "fusion_lon": 0.0, "fusion_lat": 0.0, "type": "electric_bike", "name": "e3608a4895e38e8de5c17483964815fa", "is_disabled": 0, "rental_uris": {"ios": "https://dc.lft.to/lastmile_qr_scan", "android": "https://dc.lft.to/lastmile_qr_scan"}, "is_reserved": 0}, {"lon": -77.05862333333333, "bike_id": "8cfd4595171970e91d54344f4c010bf0", "lat": 38.9360935, "fusion_lon": 0.0, "fusion_lat": 0.0, "type": "electric_scooter", "name": "8cfd4595171970e91d54344f4c010bf0", "is_disabled": 0, "rental_uris": {"ios": "https://dc.lft.to/lastmile_qr_scan", "android": "https://dc.lft.to/lastmile_qr_scan"}, "is_reserved": 0}, {"lon": -77.024273, "bike_id": "690c496cdcf7d0065eeba48ebbe2fd96", "lat": 38.914064, "fusion_lon": 0.0, "fusion_lat": 0.0, "type": "electric_scooter", "name": "690c496cdcf7d0065eeba48ebbe2fd96", "is_disabled": 0, "rental_uris": {"ios": "https://dc.lft.to/lastmile_qr_scan", "android": "https://dc.lft.to/lastmile_qr_scan"}, "is_reserved": 0}, {"lon": -77.00738183333333, "bike_id": "7fd26d5ece0b53bd289c8f8918507485", "lat": 38.9162555, "fusion_lon": 0.0, "fusion_lat": 0.0, "type": "electric_scooter", "name": "7fd26d5ece0b53bd289c8f8918507485", "is_disabled": 0, "rental_uris": {"ios": "https://dc.lft.to/lastmile_qr_scan", "android": "https://dc.lft.to/lastmile_qr_scan"}, "is_reserved": 0}, {"lon": -76.98016666666666, "bike_id": "493669357a94864fa19be458045b1152", "lat": 38.898921333333334, "fusion_lon": 0.0, "fusion_lat": 0.0, "type": "electric_scooter", "name": "493669357a94864fa19be458045b1152", "is_disabled": 0, "rental_uris": {"ios": "https://dc.lft.to/lastmile_qr_scan", "android": "https://dc.lft.to/lastmile_qr_scan"}, "is_reserved": 0}, {"lon": -77.035395, "bike_id": "f2de5c3ee6dcea2570940575f0f9de9b", "lat": 38.924104166666666, "fusion_lon": 0.0, "fusion_lat": 0.0, "type": "electric_scooter", "name": "f2de5c3ee6dcea2570940575f0f9de9b", "is_disabled": 0, "rental_uris": {"ios": "https://dc.lft.to/lastmile_qr_scan", "android": "https://dc.lft.to/lastmile_qr_scan"}, "is_reserved": 0}, {"lon": -77.00374666666667, "bike_id": "6045e01d5a35b5ca0bcbc2745a0315fb", "lat": 38.87943883333333, "fusion_lon": 0.0, "fusion_lat": 0.0, "type": "electric_scooter", "name": "6045e01d5a35b5ca0bcbc2745a0315fb", "is_disabled": 0, "rental_uris": {"ios": "https://dc.lft.to/lastmile_qr_scan", "android": "https://dc.lft.to/lastmile_qr_scan"}, "is_reserved": 0}, {"lon": -77.041666, "bike_id": "b6d8c1195f7969d1b678296351f6ec04", "lat": 38.9099935, "fusion_lon": 0.0, "fusion_lat": 0.0, "type": "electric_scooter", "name": "b6d8c1195f7969d1b678296351f6ec04", "is_disabled": 0, "rental_uris": {"ios": "https://dc.lft.to/lastmile_qr_scan", "android": "https://dc.lft.to/lastmile_qr_scan"}, "is_reserved": 0}, {"lon": -77.1310095, "bike_id": "f9b1dabddb940c3cd313aa791bd07ea2", "lat": 39.024365833333334, "fusion_lon": 0.0, "fusion_lat": 0.0, "type": "electric_bike", "name": "f9b1dabddb940c3cd313aa791bd07ea2", "is_disabled": 0, "rental_uris": {"ios": "https://dc.lft.to/lastmile_qr_scan", "android": "https://dc.lft.to/lastmile_qr_scan"}, "is_reserved": 0}, {"lon": -77.0393335, "bike_id": "a3f33ae8b8cb18e660225bcb19c884d8", "lat": 38.921056, "fusion_lon": 0.0, "fusion_lat": 0.0, "type": "electric_scooter", "name": "a3f33ae8b8cb18e660225bcb19c884d8", "is_disabled": 0, "rental_uris": {"ios": "https://dc.lft.to/lastmile_qr_scan", "android": "https://dc.lft.to/lastmile_qr_scan"}, "is_reserved": 0}, {"lon": -77.09595816666666, "bike_id": "8b2db28225d48b5b2cafa32ca747dea9", "lat": 39.02891, "fusion_lon": 0.0, "fusion_lat": 0.0, "type": "electric_bike", "name": "8b2db28225d48b5b2cafa32ca747dea9", "is_disabled": 0, "rental_uris": {"ios": "https://dc.lft.to/lastmile_qr_scan", "android": "https://dc.lft.to/lastmile_qr_scan"}, "is_reserved": 0}, {"lon": -77.02164833333333, "bike_id": "21def1f911f324191998d16275b05a99", "lat": 38.9001745, "fusion_lon": 0.0, "fusion_lat": 0.0, "type": "electric_scooter", "name": "21def1f911f324191998d16275b05a99", "is_disabled": 0, "rental_uris": {"ios": "https://dc.lft.to/lastmile_qr_scan", "android": "https://dc.lft.to/lastmile_qr_scan"}, "is_reserved": 0}, {"lon": -77.0111785, "bike_id": "86d000cab0f691ab7bc0f90581142cb8", "lat": 38.885530333333335, "fusion_lon": 0.0, "fusion_lat": 0.0, "type": "electric_scooter", "name": "86d000cab0f691ab7bc0f90581142cb8", "is_disabled": 0, "rental_uris": {"ios": "https://dc.lft.to/lastmile_qr_scan", "android": "https://dc.lft.to/lastmile_qr_scan"}, "is_reserved": 0}, {"lon": -77.02947366666666, "bike_id": "2a10180f2b977117d37841a845aed4fa", "lat": 38.90519783333333, "fusion_lon": 0.0, "fusion_lat": 0.0, "type": "electric_scooter", "name": "2a10180f2b977117d37841a845aed4fa", "is_disabled": 0, "rental_uris": {"ios": "https://dc.lft.to/lastmile_qr_scan", "android": "https://dc.lft.to/lastmile_qr_scan"}, "is_reserved": 0}, {"lon": -77.05623516666667, "bike_id": "e35fe1f3e97391376e9510ad96afcda3", "lat": 38.96073616666666, "fusion_lon": 0.0, "fusion_lat": 0.0, "type": "electric_scooter", "name": "e35fe1f3e97391376e9510ad96afcda3", "is_disabled": 0, "rental_uris": {"ios": "https://dc.lft.to/lastmile_qr_scan", "android": "https://dc.lft.to/lastmile_qr_scan"}, "is_reserved": 0}, {"lon": -77.0347665, "bike_id": "6260cdee7c230fd8b6d94529c0931799", "lat": 38.907363333333336, "fusion_lon": 0.0, "fusion_lat": 0.0, "type": "electric_scooter", "name": "6260cdee7c230fd8b6d94529c0931799", "is_disabled": 0, "rental_uris": {"ios": "https://dc.lft.to/lastmile_qr_scan", "android": "https://dc.lft.to/lastmile_qr_scan"}, "is_reserved": 0}, {"lon": -77.00296083333333, "bike_id": "c8542aa2daaeb4ea7f0fc421351dcf6d", "lat": 38.9059525, "fusion_lon": 0.0, "fusion_lat": 0.0, "type": "electric_scooter", "name": "c8542aa2daaeb4ea7f0fc421351dcf6d", "is_disabled": 0, "rental_uris": {"ios": "https://dc.lft.to/lastmile_qr_scan", "android": "https://dc.lft.to/lastmile_qr_scan"}, "is_reserved": 0}, {"lon": -77.0280425, "bike_id": "756153f2acc2f0b58f36527dd81b18fe", "lat": 38.90980233333333, "fusion_lon": 0.0, "fusion_lat": 0.0, "type": "electric_scooter", "name": "756153f2acc2f0b58f36527dd81b18fe", "is_disabled": 0, "rental_uris": {"ios": "https://dc.lft.to/lastmile_qr_scan", "android": "https://dc.lft.to/lastmile_qr_scan"}, "is_reserved": 0}, {"lon": -77.04646633333333, "bike_id": "a2f6bf14ade38cc14b4f5dff4a9ad03b", "lat": 38.90311833333333, "fusion_lon": 0.0, "fusion_lat": 0.0, "type": "electric_scooter", "name": "a2f6bf14ade38cc14b4f5dff4a9ad03b", "is_disabled": 0, "rental_uris": {"ios": "https://dc.lft.to/lastmile_qr_scan", "android": "https://dc.lft.to/lastmile_qr_scan"}, "is_reserved": 0}, {"lon": -77.0481735, "bike_id": "42a2698f6729c9a026a9f039ff5f1247", "lat": 38.91329616666667, "fusion_lon": 0.0, "fusion_lat": 0.0, "type": "electric_scooter", "name": "42a2698f6729c9a026a9f039ff5f1247", "is_disabled": 0, "rental_uris": {"ios": "https://dc.lft.to/lastmile_qr_scan", "android": "https://dc.lft.to/lastmile_qr_scan"}, "is_reserved": 0}, {"lon": -77.02424983333333, "bike_id": "b55780bdd247e7684a54c469a29162bc", "lat": 38.914062333333334, "fusion_lon": 0.0, "fusion_lat": 0.0, "type": "electric_scooter", "name": "b55780bdd247e7684a54c469a29162bc", "is_disabled": 0, "rental_uris": {"ios": "https://dc.lft.to/lastmile_qr_scan", "android": "https://dc.lft.to/lastmile_qr_scan"}, "is_reserved": 0}, {"lon": -76.9859595, "bike_id": "a2a87313da65f248ff9010b5b777b7a3", "lat": 38.906237, "fusion_lon": 0.0, "fusion_lat": 0.0, "type": "electric_bike", "name": "a2a87313da65f248ff9010b5b777b7a3", "is_disabled": 0, "rental_uris": {"ios": "https://dc.lft.to/lastmile_qr_scan", "android": "https://dc.lft.to/lastmile_qr_scan"}, "is_reserved": 0}, {"lon": -77.0492675, "bike_id": "d5bc2a1dec219a3eb2cf52504a2c7323", "lat": 39.0293615, "fusion_lon": 0.0, "fusion_lat": 0.0, "type": "electric_bike", "name": "d5bc2a1dec219a3eb2cf52504a2c7323", "is_disabled": 0, "rental_uris": {"ios": "https://dc.lft.to/lastmile_qr_scan", "android": "https://dc.lft.to/lastmile_qr_scan"}, "is_reserved": 0}, {"lon": -77.03437433333333, "bike_id": "26ed02be6c5ba7e7d50c70738544099a", "lat": 38.92873383333333, "fusion_lon": 0.0, "fusion_lat": 0.0, "type": "electric_scooter", "name": "26ed02be6c5ba7e7d50c70738544099a", "is_disabled": 0, "rental_uris": {"ios": "https://dc.lft.to/lastmile_qr_scan", "android": "https://dc.lft.to/lastmile_qr_scan"}, "is_reserved": 0}, {"lon": -77.033902, "bike_id": "b9171419f23ab26ff4f385f4f2e3d73c", "lat": 38.93845316666667, "fusion_lon": 0.0, "fusion_lat": 0.0, "type": "electric_scooter", "name": "b9171419f23ab26ff4f385f4f2e3d73c", "is_disabled": 0, "rental_uris": {"ios": "https://dc.lft.to/lastmile_qr_scan", "android": "https://dc.lft.to/lastmile_qr_scan"}, "is_reserved": 0}, {"lon": -77.02168616666667, "bike_id": "d37cbedd4791c239cde2ea1d8b993e66", "lat": 38.8874625, "fusion_lon": 0.0, "fusion_lat": 0.0, "type": "electric_scooter", "name": "d37cbedd4791c239cde2ea1d8b993e66", "is_disabled": 0, "rental_uris": {"ios": "https://dc.lft.to/lastmile_qr_scan", "android": "https://dc.lft.to/lastmile_qr_scan"}, "is_reserved": 0}, {"lon": -76.98880716666666, "bike_id": "76c0b8a16cad23c786e43943fe58e138", "lat": 38.86658966666667, "fusion_lon": 0.0, "fusion_lat": 0.0, "type": "electric_scooter", "name": "76c0b8a16cad23c786e43943fe58e138", "is_disabled": 0, "rental_uris": {"ios": "https://dc.lft.to/lastmile_qr_scan", "android": "https://dc.lft.to/lastmile_qr_scan"}, "is_reserved": 0}, {"lon": -77.02067216666667, "bike_id": "8838e9be60bf4d2c9895d16b63b0f01f", "lat": 38.935337, "fusion_lon": 0.0, "fusion_lat": 0.0, "type": "electric_scooter", "name": "8838e9be60bf4d2c9895d16b63b0f01f", "is_disabled": 0, "rental_uris": {"ios": "https://dc.lft.to/lastmile_qr_scan", "android": "https://dc.lft.to/lastmile_qr_scan"}, "is_reserved": 0}, {"lon": -77.0406655, "bike_id": "dd78337cec999d282cde4a875e4ca9c0", "lat": 38.923935, "fusion_lon": 0.0, "fusion_lat": 0.0, "type": "electric_scooter", "name": "dd78337cec999d282cde4a875e4ca9c0", "is_disabled": 0, "rental_uris": {"ios": "https://dc.lft.to/lastmile_qr_scan", "android": "https://dc.lft.to/lastmile_qr_scan"}, "is_reserved": 0}, {"lon": -77.02386833333334, "bike_id": "fcc0e40acf26c351bbfbe35af53beaa9", "lat": 38.919933666666665, "fusion_lon": 0.0, "fusion_lat": 0.0, "type": "electric_scooter", "name": "fcc0e40acf26c351bbfbe35af53beaa9", "is_disabled": 0, "rental_uris": {"ios": "https://dc.lft.to/lastmile_qr_scan", "android": "https://dc.lft.to/lastmile_qr_scan"}, "is_reserved": 0}, {"lon": -77.02157933333334, "bike_id": "baf387b00b2536d6750f4c0992013bba", "lat": 38.89218533333333, "fusion_lon": 0.0, "fusion_lat": 0.0, "type": "electric_scooter", "name": "baf387b00b2536d6750f4c0992013bba", "is_disabled": 0, "rental_uris": {"ios": "https://dc.lft.to/lastmile_qr_scan", "android": "https://dc.lft.to/lastmile_qr_scan"}, "is_reserved": 0}, {"lon": -77.039901, "bike_id": "5ee2c087905e301e29ef98f442863077", "lat": 38.92462366666667, "fusion_lon": 0.0, "fusion_lat": 0.0, "type": "electric_scooter", "name": "5ee2c087905e301e29ef98f442863077", "is_disabled": 0, "rental_uris": {"ios": "https://dc.lft.to/lastmile_qr_scan", "android": "https://dc.lft.to/lastmile_qr_scan"}, "is_reserved": 0}, {"lon": -77.01222166666666, "bike_id": "0454f0089342a69a6130da4d288426ed", "lat": 38.890307666666665, "fusion_lon": 0.0, "fusion_lat": 0.0, "type": "electric_scooter", "name": "0454f0089342a69a6130da4d288426ed", "is_disabled": 0, "rental_uris": {"ios": "https://dc.lft.to/lastmile_qr_scan", "android": "https://dc.lft.to/lastmile_qr_scan"}, "is_reserved": 0}, {"lon": -77.02600433333333, "bike_id": "d583ac1945a94a7f3c54d4c3f3479535", "lat": 38.92659283333333, "fusion_lon": 0.0, "fusion_lat": 0.0, "type": "electric_scooter", "name": "d583ac1945a94a7f3c54d4c3f3479535", "is_disabled": 0, "rental_uris": {"ios": "https://dc.lft.to/lastmile_qr_scan", "android": "https://dc.lft.to/lastmile_qr_scan"}, "is_reserved": 0}, {"lon": -77.02260583333333, "bike_id": "a71e8bcb00076495286d313f5aed38fa", "lat": 38.8938145, "fusion_lon": 0.0, "fusion_lat": 0.0, "type": "electric_scooter", "name": "a71e8bcb00076495286d313f5aed38fa", "is_disabled": 0, "rental_uris": {"ios": "https://dc.lft.to/lastmile_qr_scan", "android": "https://dc.lft.to/lastmile_qr_scan"}, "is_reserved": 0}, {"lon": -77.03356533333333, "bike_id": "90c90b686965229e382de35086a14f47", "lat": 38.922407, "fusion_lon": 0.0, "fusion_lat": 0.0, "type": "electric_scooter", "name": "90c90b686965229e382de35086a14f47", "is_disabled": 0, "rental_uris": {"ios": "https://dc.lft.to/lastmile_qr_scan", "android": "https://dc.lft.to/lastmile_qr_scan"}, "is_reserved": 0}, {"lon": -77.03347816666667, "bike_id": "f941fad33f7bd730f3e79df18eac3ce3", "lat": 38.907077666666666, "fusion_lon": 0.0, "fusion_lat": 0.0, "type": "electric_scooter", "name": "f941fad33f7bd730f3e79df18eac3ce3", "is_disabled": 0, "rental_uris": {"ios": "https://dc.lft.to/lastmile_qr_scan", "android": "https://dc.lft.to/lastmile_qr_scan"}, "is_reserved": 0}, {"lon": -77.0543535, "bike_id": "83d3e5575a483ff8c287975470a39046", "lat": 38.92866566666667, "fusion_lon": 0.0, "fusion_lat": 0.0, "type": "electric_scooter", "name": "83d3e5575a483ff8c287975470a39046", "is_disabled": 0, "rental_uris": {"ios": "https://dc.lft.to/lastmile_qr_scan", "android": "https://dc.lft.to/lastmile_qr_scan"}, "is_reserved": 0}, {"lon": -76.96061683333333, "bike_id": "7cc1150a540eb9782e1872e03eb140a2", "lat": 38.8841015, "fusion_lon": 0.0, "fusion_lat": 0.0, "type": "electric_bike", "name": "7cc1150a540eb9782e1872e03eb140a2", "is_disabled": 0, "rental_uris": {"ios": "https://dc.lft.to/lastmile_qr_scan", "android": "https://dc.lft.to/lastmile_qr_scan"}, "is_reserved": 0}, {"lon": -76.91803583333333, "bike_id": "2440b6fdc453b0f617c19fa249d6ed74", "lat": 39.000007833333335, "fusion_lon": 0.0, "fusion_lat": 0.0, "type": "electric_bike", "name": "2440b6fdc453b0f617c19fa249d6ed74", "is_disabled": 0, "rental_uris": {"ios": "https://dc.lft.to/lastmile_qr_scan", "android": "https://dc.lft.to/lastmile_qr_scan"}, "is_reserved": 0}, {"lon": -77.01432716666666, "bike_id": "9e7c892a5e09d848a214ab822d623fd1", "lat": 38.8775355, "fusion_lon": 0.0, "fusion_lat": 0.0, "type": "electric_scooter", "name": "9e7c892a5e09d848a214ab822d623fd1", "is_disabled": 0, "rental_uris": {"ios": "https://dc.lft.to/lastmile_qr_scan", "android": "https://dc.lft.to/lastmile_qr_scan"}, "is_reserved": 0}, {"lon": -77.02184916666667, "bike_id": "5e655c77b72f37398402bd0a36a748a4", "lat": 38.914797, "fusion_lon": 0.0, "fusion_lat": 0.0, "type": "electric_scooter", "name": "5e655c77b72f37398402bd0a36a748a4", "is_disabled": 0, "rental_uris": {"ios": "https://dc.lft.to/lastmile_qr_scan", "android": "https://dc.lft.to/lastmile_qr_scan"}, "is_reserved": 0}, {"lon": -76.9540445, "bike_id": "8202b9330d8a713cf0e908a820e52e0f", "lat": 38.88466733333333, "fusion_lon": 0.0, "fusion_lat": 0.0, "type": "electric_scooter", "name": "8202b9330d8a713cf0e908a820e52e0f", "is_disabled": 0, "rental_uris": {"ios": "https://dc.lft.to/lastmile_qr_scan", "android": "https://dc.lft.to/lastmile_qr_scan"}, "is_reserved": 0}, {"lon": -76.98711333333333, "bike_id": "661722d2f3901e3e3292cc7c8ee0ba0e", "lat": 38.866291, "fusion_lon": 0.0, "fusion_lat": 0.0, "type": "electric_scooter", "name": "661722d2f3901e3e3292cc7c8ee0ba0e", "is_disabled": 0, "rental_uris": {"ios": "https://dc.lft.to/lastmile_qr_scan", "android": "https://dc.lft.to/lastmile_qr_scan"}, "is_reserved": 0}, {"lon": -77.02258216666667, "bike_id": "3c814541ac76c62f7541531d915dec26", "lat": 38.925272666666665, "fusion_lon": 0.0, "fusion_lat": 0.0, "type": "electric_scooter", "name": "3c814541ac76c62f7541531d915dec26", "is_disabled": 0, "rental_uris": {"ios": "https://dc.lft.to/lastmile_qr_scan", "android": "https://dc.lft.to/lastmile_qr_scan"}, "is_reserved": 0}, {"lon": -77.0340355, "bike_id": "c290b0316da052fd1214f9d641d1c0c4", "lat": 38.905697833333335, "fusion_lon": 0.0, "fusion_lat": 0.0, "type": "electric_scooter", "name": "c290b0316da052fd1214f9d641d1c0c4", "is_disabled": 0, "rental_uris": {"ios": "https://dc.lft.to/lastmile_qr_scan", "android": "https://dc.lft.to/lastmile_qr_scan"}, "is_reserved": 0}, {"lon": -76.94987633333334, "bike_id": "3568266001dcf140d89fa90cd6b4dd6c", "lat": 38.8938415, "fusion_lon": 0.0, "fusion_lat": 0.0, "type": "electric_scooter", "name": "3568266001dcf140d89fa90cd6b4dd6c", "is_disabled": 0, "rental_uris": {"ios": "https://dc.lft.to/lastmile_qr_scan", "android": "https://dc.lft.to/lastmile_qr_scan"}, "is_reserved": 0}, {"lon": -77.0200335, "bike_id": "fecb807575ce543b0428a31be04b12d4", "lat": 38.89735783333333, "fusion_lon": 0.0, "fusion_lat": 0.0, "type": "electric_scooter", "name": "fecb807575ce543b0428a31be04b12d4", "is_disabled": 0, "rental_uris": {"ios": "https://dc.lft.to/lastmile_qr_scan", "android": "https://dc.lft.to/lastmile_qr_scan"}, "is_reserved": 0}, {"lon": -77.0408635, "bike_id": "bb8f320e590ff9f1424335791918ea5f", "lat": 38.90589716666667, "fusion_lon": 0.0, "fusion_lat": 0.0, "type": "electric_scooter", "name": "bb8f320e590ff9f1424335791918ea5f", "is_disabled": 0, "rental_uris": {"ios": "https://dc.lft.to/lastmile_qr_scan", "android": "https://dc.lft.to/lastmile_qr_scan"}, "is_reserved": 0}, {"lon": -77.13238866666667, "bike_id": "7cc0ecdab217a396c609c160a337c734", "lat": 38.8057995, "fusion_lon": 0.0, "fusion_lat": 0.0, "type": "electric_bike", "name": "7cc0ecdab217a396c609c160a337c734", "is_disabled": 0, "rental_uris": {"ios": "https://dc.lft.to/lastmile_qr_scan", "android": "https://dc.lft.to/lastmile_qr_scan"}, "is_reserved": 0}, {"lon": -77.02763083333333, "bike_id": "082219daf3a499e99d545f3d43453df8", "lat": 38.954246, "fusion_lon": 0.0, "fusion_lat": 0.0, "type": "electric_scooter", "name": "082219daf3a499e99d545f3d43453df8", "is_disabled": 0, "rental_uris": {"ios": "https://dc.lft.to/lastmile_qr_scan", "android": "https://dc.lft.to/lastmile_qr_scan"}, "is_reserved": 0}, {"lon": -77.01667466666666, "bike_id": "864b49a4cad95b29b3fcde42faa35cef", "lat": 38.881253666666666, "fusion_lon": 0.0, "fusion_lat": 0.0, "type": "electric_scooter", "name": "864b49a4cad95b29b3fcde42faa35cef", "is_disabled": 0, "rental_uris": {"ios": "https://dc.lft.to/lastmile_qr_scan", "android": "https://dc.lft.to/lastmile_qr_scan"}, "is_reserved": 0}, {"lon": -77.02911466666667, "bike_id": "575cf22cd057d2a7983f3da469d8d8de", "lat": 38.920563, "fusion_lon": 0.0, "fusion_lat": 0.0, "type": "electric_scooter", "name": "575cf22cd057d2a7983f3da469d8d8de", "is_disabled": 0, "rental_uris": {"ios": "https://dc.lft.to/lastmile_qr_scan", "android": "https://dc.lft.to/lastmile_qr_scan"}, "is_reserved": 0}, {"lon": -77.00748816666666, "bike_id": "94c4bf3d6f0409ab8805dd5bc8007403", "lat": 38.898426, "fusion_lon": 0.0, "fusion_lat": 0.0, "type": "electric_scooter", "name": "94c4bf3d6f0409ab8805dd5bc8007403", "is_disabled": 0, "rental_uris": {"ios": "https://dc.lft.to/lastmile_qr_scan", "android": "https://dc.lft.to/lastmile_qr_scan"}, "is_reserved": 0}, {"lon": -77.0375605, "bike_id": "5d3b877f1d53fa391f252bb35667a39f", "lat": 38.91194516666667, "fusion_lon": 0.0, "fusion_lat": 0.0, "type": "electric_scooter", "name": "5d3b877f1d53fa391f252bb35667a39f", "is_disabled": 0, "rental_uris": {"ios": "https://dc.lft.to/lastmile_qr_scan", "android": "https://dc.lft.to/lastmile_qr_scan"}, "is_reserved": 0}, {"lon": -77.0327165, "bike_id": "890105d12fe368647ccb539933e80d93", "lat": 38.9070835, "fusion_lon": 0.0, "fusion_lat": 0.0, "type": "electric_scooter", "name": "890105d12fe368647ccb539933e80d93", "is_disabled": 0, "rental_uris": {"ios": "https://dc.lft.to/lastmile_qr_scan", "android": "https://dc.lft.to/lastmile_qr_scan"}, "is_reserved": 0}, {"lon": -77.02094633333333, "bike_id": "8d43b0f1dd272913a3f4c5105afe47b4", "lat": 38.93266216666667, "fusion_lon": 0.0, "fusion_lat": 0.0, "type": "electric_scooter", "name": "8d43b0f1dd272913a3f4c5105afe47b4", "is_disabled": 0, "rental_uris": {"ios": "https://dc.lft.to/lastmile_qr_scan", "android": "https://dc.lft.to/lastmile_qr_scan"}, "is_reserved": 0}, {"lon": -77.05021266666667, "bike_id": "54350f12a648826ff104a60fc566ab67", "lat": 38.9238955, "fusion_lon": 0.0, "fusion_lat": 0.0, "type": "electric_scooter", "name": "54350f12a648826ff104a60fc566ab67", "is_disabled": 0, "rental_uris": {"ios": "https://dc.lft.to/lastmile_qr_scan", "android": "https://dc.lft.to/lastmile_qr_scan"}, "is_reserved": 0}, {"lon": -77.027929, "bike_id": "5e95065f1c486a53e49d58a5f6373082", "lat": 38.935404166666665, "fusion_lon": 0.0, "fusion_lat": 0.0, "type": "electric_scooter", "name": "5e95065f1c486a53e49d58a5f6373082", "is_disabled": 0, "rental_uris": {"ios": "https://dc.lft.to/lastmile_qr_scan", "android": "https://dc.lft.to/lastmile_qr_scan"}, "is_reserved": 0}, {"lon": -77.03052666666666, "bike_id": "c8de748da6d7cf17a1c369afc7e8b0c2", "lat": 38.91266733333333, "fusion_lon": 0.0, "fusion_lat": 0.0, "type": "electric_scooter", "name": "c8de748da6d7cf17a1c369afc7e8b0c2", "is_disabled": 0, "rental_uris": {"ios": "https://dc.lft.to/lastmile_qr_scan", "android": "https://dc.lft.to/lastmile_qr_scan"}, "is_reserved": 0}, {"lon": -76.9906395, "bike_id": "25b8288932c48939b9eb77a1c722aaf4", "lat": 38.86363733333334, "fusion_lon": 0.0, "fusion_lat": 0.0, "type": "electric_scooter", "name": "25b8288932c48939b9eb77a1c722aaf4", "is_disabled": 0, "rental_uris": {"ios": "https://dc.lft.to/lastmile_qr_scan", "android": "https://dc.lft.to/lastmile_qr_scan"}, "is_reserved": 0}, {"lon": -77.03440116666667, "bike_id": "a760889144864482c05c00e6a922f835", "lat": 38.905683333333336, "fusion_lon": 0.0, "fusion_lat": 0.0, "type": "electric_scooter", "name": "a760889144864482c05c00e6a922f835", "is_disabled": 0, "rental_uris": {"ios": "https://dc.lft.to/lastmile_qr_scan", "android": "https://dc.lft.to/lastmile_qr_scan"}, "is_reserved": 0}, {"lon": -77.03202883333333, "bike_id": "d57e8e5af05ea0aa2aeb8f45099a699d", "lat": 38.93969516666667, "fusion_lon": 0.0, "fusion_lat": 0.0, "type": "electric_scooter", "name": "d57e8e5af05ea0aa2aeb8f45099a699d", "is_disabled": 0, "rental_uris": {"ios": "https://dc.lft.to/lastmile_qr_scan", "android": "https://dc.lft.to/lastmile_qr_scan"}, "is_reserved": 0}, {"lon": -77.0443225, "bike_id": "143750e20336d96218abb27351c8a65c", "lat": 38.921221, "fusion_lon": 0.0, "fusion_lat": 0.0, "type": "electric_scooter", "name": "143750e20336d96218abb27351c8a65c", "is_disabled": 0, "rental_uris": {"ios": "https://dc.lft.to/lastmile_qr_scan", "android": "https://dc.lft.to/lastmile_qr_scan"}, "is_reserved": 0}, {"lon": -77.02913816666667, "bike_id": "a15c50d81739286588eca98abcfda2d1", "lat": 38.9236975, "fusion_lon": 0.0, "fusion_lat": 0.0, "type": "electric_scooter", "name": "a15c50d81739286588eca98abcfda2d1", "is_disabled": 0, "rental_uris": {"ios": "https://dc.lft.to/lastmile_qr_scan", "android": "https://dc.lft.to/lastmile_qr_scan"}, "is_reserved": 0}, {"lon": -77.01400133333334, "bike_id": "5355792deda16745a68d04263ba10f5d", "lat": 38.92849966666667, "fusion_lon": 0.0, "fusion_lat": 0.0, "type": "electric_scooter", "name": "5355792deda16745a68d04263ba10f5d", "is_disabled": 0, "rental_uris": {"ios": "https://dc.lft.to/lastmile_qr_scan", "android": "https://dc.lft.to/lastmile_qr_scan"}, "is_reserved": 0}, {"lon": -77.03300766666666, "bike_id": "b4aa79bcc10a262638e6b4bb07499641", "lat": 38.9255635, "fusion_lon": 0.0, "fusion_lat": 0.0, "type": "electric_scooter", "name": "b4aa79bcc10a262638e6b4bb07499641", "is_disabled": 0, "rental_uris": {"ios": "https://dc.lft.to/lastmile_qr_scan", "android": "https://dc.lft.to/lastmile_qr_scan"}, "is_reserved": 0}, {"lon": -76.97735333333333, "bike_id": "36d49f7421547a5998b3ffea30ada29c", "lat": 38.8729145, "fusion_lon": 0.0, "fusion_lat": 0.0, "type": "electric_scooter", "name": "36d49f7421547a5998b3ffea30ada29c", "is_disabled": 0, "rental_uris": {"ios": "https://dc.lft.to/lastmile_qr_scan", "android": "https://dc.lft.to/lastmile_qr_scan"}, "is_reserved": 0}, {"lon": -77.04432633333333, "bike_id": "5dda3e3dd9c5464620776d41ff034b8c", "lat": 38.921684666666664, "fusion_lon": 0.0, "fusion_lat": 0.0, "type": "electric_scooter", "name": "5dda3e3dd9c5464620776d41ff034b8c", "is_disabled": 0, "rental_uris": {"ios": "https://dc.lft.to/lastmile_qr_scan", "android": "https://dc.lft.to/lastmile_qr_scan"}, "is_reserved": 0}, {"lon": -77.06288766666667, "bike_id": "ca894816d3e9799c87eac8aa8357af5b", "lat": 38.905555666666665, "fusion_lon": 0.0, "fusion_lat": 0.0, "type": "electric_scooter", "name": "ca894816d3e9799c87eac8aa8357af5b", "is_disabled": 0, "rental_uris": {"ios": "https://dc.lft.to/lastmile_qr_scan", "android": "https://dc.lft.to/lastmile_qr_scan"}, "is_reserved": 0}, {"lon": -76.9882325, "bike_id": "b1f1631c97d41309cc4ef45dfdb81bab", "lat": 38.8907785, "fusion_lon": 0.0, "fusion_lat": 0.0, "type": "electric_scooter", "name": "b1f1631c97d41309cc4ef45dfdb81bab", "is_disabled": 0, "rental_uris": {"ios": "https://dc.lft.to/lastmile_qr_scan", "android": "https://dc.lft.to/lastmile_qr_scan"}, "is_reserved": 0}, {"lon": -76.95649633333333, "bike_id": "21d40e704aa0f37500b8e8f61a743b6e", "lat": 38.896167, "fusion_lon": 0.0, "fusion_lat": 0.0, "type": "electric_scooter", "name": "21d40e704aa0f37500b8e8f61a743b6e", "is_disabled": 0, "rental_uris": {"ios": "https://dc.lft.to/lastmile_qr_scan", "android": "https://dc.lft.to/lastmile_qr_scan"}, "is_reserved": 0}, {"lon": -77.00471966666667, "bike_id": "e7b28e5bd7c843fe4c551186cb7d84ac", "lat": 38.89584583333333, "fusion_lon": 0.0, "fusion_lat": 0.0, "type": "electric_scooter", "name": "e7b28e5bd7c843fe4c551186cb7d84ac", "is_disabled": 0, "rental_uris": {"ios": "https://dc.lft.to/lastmile_qr_scan", "android": "https://dc.lft.to/lastmile_qr_scan"}, "is_reserved": 0}, {"lon": -76.96128083333333, "bike_id": "b19d988ac9e5ccb43f63dd4f7004f630", "lat": 38.94214766666666, "fusion_lon": 0.0, "fusion_lat": 0.0, "type": "electric_bike", "name": "b19d988ac9e5ccb43f63dd4f7004f630", "is_disabled": 0, "rental_uris": {"ios": "https://dc.lft.to/lastmile_qr_scan", "android": "https://dc.lft.to/lastmile_qr_scan"}, "is_reserved": 0}, {"lon": -77.04648566666667, "bike_id": "9d36b94722b50e839923a0d321b35f5f", "lat": 39.055005, "fusion_lon": 0.0, "fusion_lat": 0.0, "type": "electric_bike", "name": "9d36b94722b50e839923a0d321b35f5f", "is_disabled": 0, "rental_uris": {"ios": "https://dc.lft.to/lastmile_qr_scan", "android": "https://dc.lft.to/lastmile_qr_scan"}, "is_reserved": 0}, {"lon": -77.00959283333333, "bike_id": "b338b9b21db87c1ffac4ea1bf1d5a859", "lat": 38.9170355, "fusion_lon": 0.0, "fusion_lat": 0.0, "type": "electric_scooter", "name": "b338b9b21db87c1ffac4ea1bf1d5a859", "is_disabled": 0, "rental_uris": {"ios": "https://dc.lft.to/lastmile_qr_scan", "android": "https://dc.lft.to/lastmile_qr_scan"}, "is_reserved": 0}, {"lon": -77.02751283333333, "bike_id": "8a33e4382b4d5b0a65a74d18400ae290", "lat": 38.9657355, "fusion_lon": 0.0, "fusion_lat": 0.0, "type": "electric_bike", "name": "8a33e4382b4d5b0a65a74d18400ae290", "is_disabled": 0, "rental_uris": {"ios": "https://dc.lft.to/lastmile_qr_scan", "android": "https://dc.lft.to/lastmile_qr_scan"}, "is_reserved": 0}, {"lon": -77.01808166666666, "bike_id": "743404a3a55d75978e7ab1c271cf045b", "lat": 38.964836166666664, "fusion_lon": 0.0, "fusion_lat": 0.0, "type": "electric_scooter", "name": "743404a3a55d75978e7ab1c271cf045b", "is_disabled": 0, "rental_uris": {"ios": "https://dc.lft.to/lastmile_qr_scan", "android": "https://dc.lft.to/lastmile_qr_scan"}, "is_reserved": 0}, {"lon": -77.02719866666666, "bike_id": "d04afad314cb7c02e49f39631a7c8a7c", "lat": 38.916971333333336, "fusion_lon": 0.0, "fusion_lat": 0.0, "type": "electric_scooter", "name": "d04afad314cb7c02e49f39631a7c8a7c", "is_disabled": 0, "rental_uris": {"ios": "https://dc.lft.to/lastmile_qr_scan", "android": "https://dc.lft.to/lastmile_qr_scan"}, "is_reserved": 0}, {"lon": -77.12730966666666, "bike_id": "cb1c7a28dc43466c675f2907f82ef0f4", "lat": 38.89561116666667, "fusion_lon": 0.0, "fusion_lat": 0.0, "type": "electric_bike", "name": "cb1c7a28dc43466c675f2907f82ef0f4", "is_disabled": 0, "rental_uris": {"ios": "https://dc.lft.to/lastmile_qr_scan", "android": "https://dc.lft.to/lastmile_qr_scan"}, "is_reserved": 0}, {"lon": -77.05745083333333, "bike_id": "a612d8b7efbf71409cb76f809babb465", "lat": 38.933942, "fusion_lon": 0.0, "fusion_lat": 0.0, "type": "electric_scooter", "name": "a612d8b7efbf71409cb76f809babb465", "is_disabled": 0, "rental_uris": {"ios": "https://dc.lft.to/lastmile_qr_scan", "android": "https://dc.lft.to/lastmile_qr_scan"}, "is_reserved": 0}, {"lon": -77.04821016666666, "bike_id": "54df5545ac4126da7562e93bc12c9663", "lat": 38.903863333333334, "fusion_lon": 0.0, "fusion_lat": 0.0, "type": "electric_scooter", "name": "54df5545ac4126da7562e93bc12c9663", "is_disabled": 0, "rental_uris": {"ios": "https://dc.lft.to/lastmile_qr_scan", "android": "https://dc.lft.to/lastmile_qr_scan"}, "is_reserved": 0}, {"lon": -77.055877, "bike_id": "9b30eff7114942b40a3982002abbe47b", "lat": 38.9314765, "fusion_lon": 0.0, "fusion_lat": 0.0, "type": "electric_scooter", "name": "9b30eff7114942b40a3982002abbe47b", "is_disabled": 0, "rental_uris": {"ios": "https://dc.lft.to/lastmile_qr_scan", "android": "https://dc.lft.to/lastmile_qr_scan"}, "is_reserved": 0}, {"lon": -76.884007, "bike_id": "5781893043aa18a65e55ca0468a1c6c4", "lat": 38.93170666666666, "fusion_lon": 0.0, "fusion_lat": 0.0, "type": "electric_bike", "name": "5781893043aa18a65e55ca0468a1c6c4", "is_disabled": 0, "rental_uris": {"ios": "https://dc.lft.to/lastmile_qr_scan", "android": "https://dc.lft.to/lastmile_qr_scan"}, "is_reserved": 0}, {"lon": -77.036625, "bike_id": "0f865f437fee3f198cbd48b7a9e8d172", "lat": 38.913171166666665, "fusion_lon": 0.0, "fusion_lat": 0.0, "type": "electric_scooter", "name": "0f865f437fee3f198cbd48b7a9e8d172", "is_disabled": 0, "rental_uris": {"ios": "https://dc.lft.to/lastmile_qr_scan", "android": "https://dc.lft.to/lastmile_qr_scan"}, "is_reserved": 0}, {"lon": -77.01781766666667, "bike_id": "954b59ab187bf048402f30b301b6b76c", "lat": 38.90131866666667, "fusion_lon": 0.0, "fusion_lat": 0.0, "type": "electric_scooter", "name": "954b59ab187bf048402f30b301b6b76c", "is_disabled": 0, "rental_uris": {"ios": "https://dc.lft.to/lastmile_qr_scan", "android": "https://dc.lft.to/lastmile_qr_scan"}, "is_reserved": 0}, {"lon": -77.038801, "bike_id": "f15fa826395e82cabe050af19b227189", "lat": 38.948744833333336, "fusion_lon": 0.0, "fusion_lat": 0.0, "type": "electric_scooter", "name": "f15fa826395e82cabe050af19b227189", "is_disabled": 0, "rental_uris": {"ios": "https://dc.lft.to/lastmile_qr_scan", "android": "https://dc.lft.to/lastmile_qr_scan"}, "is_reserved": 0}, {"lon": -76.99890866666667, "bike_id": "3f89d0c5e2c4fd7bb2d3fb26fb80e494", "lat": 38.909523166666666, "fusion_lon": 0.0, "fusion_lat": 0.0, "type": "electric_scooter", "name": "3f89d0c5e2c4fd7bb2d3fb26fb80e494", "is_disabled": 0, "rental_uris": {"ios": "https://dc.lft.to/lastmile_qr_scan", "android": "https://dc.lft.to/lastmile_qr_scan"}, "is_reserved": 0}, {"lon": -77.05217866666666, "bike_id": "25fb46b603e031ecaa7ad8466a0025c5", "lat": 38.90017116666667, "fusion_lon": 0.0, "fusion_lat": 0.0, "type": "electric_scooter", "name": "25fb46b603e031ecaa7ad8466a0025c5", "is_disabled": 0, "rental_uris": {"ios": "https://dc.lft.to/lastmile_qr_scan", "android": "https://dc.lft.to/lastmile_qr_scan"}, "is_reserved": 0}, {"lon": -76.97616766666667, "bike_id": "a4fcd348a9ff9ea49f5b6e1098a3503b", "lat": 38.90383333333333, "fusion_lon": 0.0, "fusion_lat": 0.0, "type": "electric_scooter", "name": "a4fcd348a9ff9ea49f5b6e1098a3503b", "is_disabled": 0, "rental_uris": {"ios": "https://dc.lft.to/lastmile_qr_scan", "android": "https://dc.lft.to/lastmile_qr_scan"}, "is_reserved": 0}, {"lon": -77.02400466666667, "bike_id": "13a0ede61e1ae424cfc424a40d5ad6a0", "lat": 38.917622, "fusion_lon": 0.0, "fusion_lat": 0.0, "type": "electric_scooter", "name": "13a0ede61e1ae424cfc424a40d5ad6a0", "is_disabled": 0, "rental_uris": {"ios": "https://dc.lft.to/lastmile_qr_scan", "android": "https://dc.lft.to/lastmile_qr_scan"}, "is_reserved": 0}, {"lon": -76.93607983333334, "bike_id": "93fb26c3897bb545a6908fa087004ced", "lat": 38.896863333333336, "fusion_lon": 0.0, "fusion_lat": 0.0, "type": "electric_scooter", "name": "93fb26c3897bb545a6908fa087004ced", "is_disabled": 0, "rental_uris": {"ios": "https://dc.lft.to/lastmile_qr_scan", "android": "https://dc.lft.to/lastmile_qr_scan"}, "is_reserved": 0}, {"lon": -77.02890316666667, "bike_id": "bcb9ee9e9f045fcde40856c89675b20a", "lat": 38.9039715, "fusion_lon": 0.0, "fusion_lat": 0.0, "type": "electric_scooter", "name": "bcb9ee9e9f045fcde40856c89675b20a", "is_disabled": 0, "rental_uris": {"ios": "https://dc.lft.to/lastmile_qr_scan", "android": "https://dc.lft.to/lastmile_qr_scan"}, "is_reserved": 0}, {"lon": -76.98666116666666, "bike_id": "f471d8f673b013de36e917a03832a94c", "lat": 38.90256883333333, "fusion_lon": 0.0, "fusion_lat": 0.0, "type": "electric_scooter", "name": "f471d8f673b013de36e917a03832a94c", "is_disabled": 0, "rental_uris": {"ios": "https://dc.lft.to/lastmile_qr_scan", "android": "https://dc.lft.to/lastmile_qr_scan"}, "is_reserved": 0}, {"lon": -77.0472225, "bike_id": "bec63f915a4f4c8c8da4cf385401bc1b", "lat": 38.92236716666667, "fusion_lon": 0.0, "fusion_lat": 0.0, "type": "electric_scooter", "name": "bec63f915a4f4c8c8da4cf385401bc1b", "is_disabled": 0, "rental_uris": {"ios": "https://dc.lft.to/lastmile_qr_scan", "android": "https://dc.lft.to/lastmile_qr_scan"}, "is_reserved": 0}, {"lon": -77.04264433333333, "bike_id": "0daa8f40928cf6ecc144618a4da5d833", "lat": 38.91783733333333, "fusion_lon": 0.0, "fusion_lat": 0.0, "type": "electric_scooter", "name": "0daa8f40928cf6ecc144618a4da5d833", "is_disabled": 0, "rental_uris": {"ios": "https://dc.lft.to/lastmile_qr_scan", "android": "https://dc.lft.to/lastmile_qr_scan"}, "is_reserved": 0}, {"lon": -77.02732466666667, "bike_id": "79b5a147ad579cf00c40707ea3732433", "lat": 38.92840133333333, "fusion_lon": 0.0, "fusion_lat": 0.0, "type": "electric_scooter", "name": "79b5a147ad579cf00c40707ea3732433", "is_disabled": 0, "rental_uris": {"ios": "https://dc.lft.to/lastmile_qr_scan", "android": "https://dc.lft.to/lastmile_qr_scan"}, "is_reserved": 0}, {"lon": -77.00065683333334, "bike_id": "9fc766f8f3392bb403d9f87a193e159d", "lat": 38.92435016666667, "fusion_lon": 0.0, "fusion_lat": 0.0, "type": "electric_scooter", "name": "9fc766f8f3392bb403d9f87a193e159d", "is_disabled": 0, "rental_uris": {"ios": "https://dc.lft.to/lastmile_qr_scan", "android": "https://dc.lft.to/lastmile_qr_scan"}, "is_reserved": 0}, {"lon": -77.02790266666666, "bike_id": "f279a65ae95cf3582e9fb68825ae8781", "lat": 38.897147, "fusion_lon": 0.0, "fusion_lat": 0.0, "type": "electric_scooter", "name": "f279a65ae95cf3582e9fb68825ae8781", "is_disabled": 0, "rental_uris": {"ios": "https://dc.lft.to/lastmile_qr_scan", "android": "https://dc.lft.to/lastmile_qr_scan"}, "is_reserved": 0}, {"lon": -77.04851066666667, "bike_id": "0acd77956f1d2e8b4006d6dfb06e8958", "lat": 38.90427316666667, "fusion_lon": 0.0, "fusion_lat": 0.0, "type": "electric_scooter", "name": "0acd77956f1d2e8b4006d6dfb06e8958", "is_disabled": 0, "rental_uris": {"ios": "https://dc.lft.to/lastmile_qr_scan", "android": "https://dc.lft.to/lastmile_qr_scan"}, "is_reserved": 0}, {"lon": -76.98705383333333, "bike_id": "660410decd1a16ad3d1a974c4dc1ec8c", "lat": 38.8653835, "fusion_lon": 0.0, "fusion_lat": 0.0, "type": "electric_scooter", "name": "660410decd1a16ad3d1a974c4dc1ec8c", "is_disabled": 0, "rental_uris": {"ios": "https://dc.lft.to/lastmile_qr_scan", "android": "https://dc.lft.to/lastmile_qr_scan"}, "is_reserved": 0}, {"lon": -77.04245633333333, "bike_id": "0491817873e445f7dc91b9d76ff81087", "lat": 38.91053466666666, "fusion_lon": 0.0, "fusion_lat": 0.0, "type": "electric_scooter", "name": "0491817873e445f7dc91b9d76ff81087", "is_disabled": 0, "rental_uris": {"ios": "https://dc.lft.to/lastmile_qr_scan", "android": "https://dc.lft.to/lastmile_qr_scan"}, "is_reserved": 0}, {"lon": -77.0492775, "bike_id": "e319723ce28947e2a760948bc328c493", "lat": 38.918265, "fusion_lon": 0.0, "fusion_lat": 0.0, "type": "electric_scooter", "name": "e319723ce28947e2a760948bc328c493", "is_disabled": 0, "rental_uris": {"ios": "https://dc.lft.to/lastmile_qr_scan", "android": "https://dc.lft.to/lastmile_qr_scan"}, "is_reserved": 0}, {"lon": -76.9605415, "bike_id": "361f4b9ed6878d10a5c496bac5b31efa", "lat": 38.884052833333335, "fusion_lon": 0.0, "fusion_lat": 0.0, "type": "electric_bike", "name": "361f4b9ed6878d10a5c496bac5b31efa", "is_disabled": 0, "rental_uris": {"ios": "https://dc.lft.to/lastmile_qr_scan", "android": "https://dc.lft.to/lastmile_qr_scan"}, "is_reserved": 0}, {"lon": -77.02266533333334, "bike_id": "8e08070981ff8840ff42afd845a63a73", "lat": 38.926687, "fusion_lon": 0.0, "fusion_lat": 0.0, "type": "electric_scooter", "name": "8e08070981ff8840ff42afd845a63a73", "is_disabled": 0, "rental_uris": {"ios": "https://dc.lft.to/lastmile_qr_scan", "android": "https://dc.lft.to/lastmile_qr_scan"}, "is_reserved": 0}, {"lon": -76.9727955, "bike_id": "b83df779b3347e9c5b65a4540bacc6d0", "lat": 38.914557333333335, "fusion_lon": 0.0, "fusion_lat": 0.0, "type": "electric_bike", "name": "b83df779b3347e9c5b65a4540bacc6d0", "is_disabled": 0, "rental_uris": {"ios": "https://dc.lft.to/lastmile_qr_scan", "android": "https://dc.lft.to/lastmile_qr_scan"}, "is_reserved": 0}, {"lon": -76.99606483333334, "bike_id": "5eb6a0a69f110ce71ef43bab057d8cab", "lat": 38.909642166666664, "fusion_lon": 0.0, "fusion_lat": 0.0, "type": "electric_scooter", "name": "5eb6a0a69f110ce71ef43bab057d8cab", "is_disabled": 0, "rental_uris": {"ios": "https://dc.lft.to/lastmile_qr_scan", "android": "https://dc.lft.to/lastmile_qr_scan"}, "is_reserved": 0}, {"lon": -77.03839833333333, "bike_id": "20f0d6fde272994fba25f902f16f3ab7", "lat": 38.9072935, "fusion_lon": 0.0, "fusion_lat": 0.0, "type": "electric_scooter", "name": "20f0d6fde272994fba25f902f16f3ab7", "is_disabled": 0, "rental_uris": {"ios": "https://dc.lft.to/lastmile_qr_scan", "android": "https://dc.lft.to/lastmile_qr_scan"}, "is_reserved": 0}, {"lon": -76.99332916666667, "bike_id": "3d4db64eba6f13858bf84e840f4f7e78", "lat": 38.87143433333333, "fusion_lon": 0.0, "fusion_lat": 0.0, "type": "electric_scooter", "name": "3d4db64eba6f13858bf84e840f4f7e78", "is_disabled": 0, "rental_uris": {"ios": "https://dc.lft.to/lastmile_qr_scan", "android": "https://dc.lft.to/lastmile_qr_scan"}, "is_reserved": 0}, {"lon": -76.9886585, "bike_id": "bd4167251d7e47212d85c3673acc28ef", "lat": 38.954825, "fusion_lon": 0.0, "fusion_lat": 0.0, "type": "electric_bike", "name": "bd4167251d7e47212d85c3673acc28ef", "is_disabled": 0, "rental_uris": {"ios": "https://dc.lft.to/lastmile_qr_scan", "android": "https://dc.lft.to/lastmile_qr_scan"}, "is_reserved": 0}, {"lon": -76.98724866666667, "bike_id": "2579936f04556ac0eda220f5a11ea2f7", "lat": 38.867136333333335, "fusion_lon": 0.0, "fusion_lat": 0.0, "type": "electric_scooter", "name": "2579936f04556ac0eda220f5a11ea2f7", "is_disabled": 0, "rental_uris": {"ios": "https://dc.lft.to/lastmile_qr_scan", "android": "https://dc.lft.to/lastmile_qr_scan"}, "is_reserved": 0}, {"lon": -77.07347533333333, "bike_id": "c2690e7ae1693f95bade425058b76a75", "lat": 38.9305675, "fusion_lon": 0.0, "fusion_lat": 0.0, "type": "electric_bike", "name": "c2690e7ae1693f95bade425058b76a75", "is_disabled": 0, "rental_uris": {"ios": "https://dc.lft.to/lastmile_qr_scan", "android": "https://dc.lft.to/lastmile_qr_scan"}, "is_reserved": 0}, {"lon": -77.033367, "bike_id": "b805681786f97eecb909b697f4fde478", "lat": 38.9364265, "fusion_lon": 0.0, "fusion_lat": 0.0, "type": "electric_scooter", "name": "b805681786f97eecb909b697f4fde478", "is_disabled": 0, "rental_uris": {"ios": "https://dc.lft.to/lastmile_qr_scan", "android": "https://dc.lft.to/lastmile_qr_scan"}, "is_reserved": 0}, {"lon": -76.9488705, "bike_id": "529cb4c7abaf253dac5fa3953fcf5a07", "lat": 38.8951465, "fusion_lon": 0.0, "fusion_lat": 0.0, "type": "electric_scooter", "name": "529cb4c7abaf253dac5fa3953fcf5a07", "is_disabled": 0, "rental_uris": {"ios": "https://dc.lft.to/lastmile_qr_scan", "android": "https://dc.lft.to/lastmile_qr_scan"}, "is_reserved": 0}, {"lon": -77.01645233333333, "bike_id": "df6676952863f93bbcaed5bf453ac5a5", "lat": 38.905758666666664, "fusion_lon": 0.0, "fusion_lat": 0.0, "type": "electric_scooter", "name": "df6676952863f93bbcaed5bf453ac5a5", "is_disabled": 0, "rental_uris": {"ios": "https://dc.lft.to/lastmile_qr_scan", "android": "https://dc.lft.to/lastmile_qr_scan"}, "is_reserved": 0}, {"lon": -77.02087583333333, "bike_id": "7d4cf51c9f6c8f45c4486f812fc84cc0", "lat": 38.9575085, "fusion_lon": 0.0, "fusion_lat": 0.0, "type": "electric_scooter", "name": "7d4cf51c9f6c8f45c4486f812fc84cc0", "is_disabled": 0, "rental_uris": {"ios": "https://dc.lft.to/lastmile_qr_scan", "android": "https://dc.lft.to/lastmile_qr_scan"}, "is_reserved": 0}, {"lon": -77.03208633333334, "bike_id": "b60d8834d65b720dcca7f8e7d19c6af2", "lat": 38.901489833333336, "fusion_lon": 0.0, "fusion_lat": 0.0, "type": "electric_scooter", "name": "b60d8834d65b720dcca7f8e7d19c6af2", "is_disabled": 0, "rental_uris": {"ios": "https://dc.lft.to/lastmile_qr_scan", "android": "https://dc.lft.to/lastmile_qr_scan"}, "is_reserved": 0}, {"lon": -77.00241983333333, "bike_id": "8a75233faf7f7069544f98d1b965f5d1", "lat": 38.9024395, "fusion_lon": 0.0, "fusion_lat": 0.0, "type": "electric_scooter", "name": "8a75233faf7f7069544f98d1b965f5d1", "is_disabled": 0, "rental_uris": {"ios": "https://dc.lft.to/lastmile_qr_scan", "android": "https://dc.lft.to/lastmile_qr_scan"}, "is_reserved": 0}, {"lon": -77.0462865, "bike_id": "dee434e949942736ee4663c6626c9d8f", "lat": 38.91910683333333, "fusion_lon": 0.0, "fusion_lat": 0.0, "type": "electric_scooter", "name": "dee434e949942736ee4663c6626c9d8f", "is_disabled": 0, "rental_uris": {"ios": "https://dc.lft.to/lastmile_qr_scan", "android": "https://dc.lft.to/lastmile_qr_scan"}, "is_reserved": 0}, {"lon": -77.02926, "bike_id": "b9b5d6f66859ec1b236bc59ab1fa022e", "lat": 38.934656833333335, "fusion_lon": 0.0, "fusion_lat": 0.0, "type": "electric_scooter", "name": "b9b5d6f66859ec1b236bc59ab1fa022e", "is_disabled": 0, "rental_uris": {"ios": "https://dc.lft.to/lastmile_qr_scan", "android": "https://dc.lft.to/lastmile_qr_scan"}, "is_reserved": 0}, {"lon": -76.974208, "bike_id": "e9f3e288ee9ea78d3bd1379f62633a62", "lat": 38.93237083333333, "fusion_lon": 0.0, "fusion_lat": 0.0, "type": "electric_bike", "name": "e9f3e288ee9ea78d3bd1379f62633a62", "is_disabled": 0, "rental_uris": {"ios": "https://dc.lft.to/lastmile_qr_scan", "android": "https://dc.lft.to/lastmile_qr_scan"}, "is_reserved": 0}, {"lon": -77.026115, "bike_id": "bb725ab06e7ce06499cb833cb824675d", "lat": 38.90558333333333, "fusion_lon": 0.0, "fusion_lat": 0.0, "type": "electric_scooter", "name": "bb725ab06e7ce06499cb833cb824675d", "is_disabled": 0, "rental_uris": {"ios": "https://dc.lft.to/lastmile_qr_scan", "android": "https://dc.lft.to/lastmile_qr_scan"}, "is_reserved": 0}, {"lon": -76.99018066666666, "bike_id": "5c367b41e45bde129c5c6fbba948e5cc", "lat": 38.8941635, "fusion_lon": 0.0, "fusion_lat": 0.0, "type": "electric_scooter", "name": "5c367b41e45bde129c5c6fbba948e5cc", "is_disabled": 0, "rental_uris": {"ios": "https://dc.lft.to/lastmile_qr_scan", "android": "https://dc.lft.to/lastmile_qr_scan"}, "is_reserved": 0}, {"lon": -76.99947416666667, "bike_id": "be9ce56642addb1e252bae18ca35ac51", "lat": 38.90378233333333, "fusion_lon": 0.0, "fusion_lat": 0.0, "type": "electric_scooter", "name": "be9ce56642addb1e252bae18ca35ac51", "is_disabled": 0, "rental_uris": {"ios": "https://dc.lft.to/lastmile_qr_scan", "android": "https://dc.lft.to/lastmile_qr_scan"}, "is_reserved": 0}, {"lon": -76.98782833333334, "bike_id": "5fde0a34a120c8876e4930de98692071", "lat": 38.87848816666666, "fusion_lon": 0.0, "fusion_lat": 0.0, "type": "electric_scooter", "name": "5fde0a34a120c8876e4930de98692071", "is_disabled": 0, "rental_uris": {"ios": "https://dc.lft.to/lastmile_qr_scan", "android": "https://dc.lft.to/lastmile_qr_scan"}, "is_reserved": 0}, {"lon": -77.03620083333334, "bike_id": "388c9af3d4589df4c5e4f4aec72ac454", "lat": 38.91266683333333, "fusion_lon": 0.0, "fusion_lat": 0.0, "type": "electric_scooter", "name": "388c9af3d4589df4c5e4f4aec72ac454", "is_disabled": 0, "rental_uris": {"ios": "https://dc.lft.to/lastmile_qr_scan", "android": "https://dc.lft.to/lastmile_qr_scan"}, "is_reserved": 0}, {"lon": -77.067141, "bike_id": "142d9b5c8a6122ae6425ecaa879f913a", "lat": 38.903522, "fusion_lon": 0.0, "fusion_lat": 0.0, "type": "electric_scooter", "name": "142d9b5c8a6122ae6425ecaa879f913a", "is_disabled": 0, "rental_uris": {"ios": "https://dc.lft.to/lastmile_qr_scan", "android": "https://dc.lft.to/lastmile_qr_scan"}, "is_reserved": 0}, {"lon": -77.0272955, "bike_id": "bd7402de8c55e9f6bdf94f549d1ed288", "lat": 38.90560216666667, "fusion_lon": 0.0, "fusion_lat": 0.0, "type": "electric_scooter", "name": "bd7402de8c55e9f6bdf94f549d1ed288", "is_disabled": 0, "rental_uris": {"ios": "https://dc.lft.to/lastmile_qr_scan", "android": "https://dc.lft.to/lastmile_qr_scan"}, "is_reserved": 0}, {"lon": -77.01761716666667, "bike_id": "8b4820796ba4d744cccace5bc201982f", "lat": 38.8858715, "fusion_lon": 0.0, "fusion_lat": 0.0, "type": "electric_scooter", "name": "8b4820796ba4d744cccace5bc201982f", "is_disabled": 0, "rental_uris": {"ios": "https://dc.lft.to/lastmile_qr_scan", "android": "https://dc.lft.to/lastmile_qr_scan"}, "is_reserved": 0}, {"lon": -77.04032716666667, "bike_id": "9db295902a54f98e46313cd480a10b80", "lat": 38.918074833333336, "fusion_lon": 0.0, "fusion_lat": 0.0, "type": "electric_scooter", "name": "9db295902a54f98e46313cd480a10b80", "is_disabled": 0, "rental_uris": {"ios": "https://dc.lft.to/lastmile_qr_scan", "android": "https://dc.lft.to/lastmile_qr_scan"}, "is_reserved": 0},