{"data": {"bikes": [{"is_disabled": 0, "type": "electric_bike", "fusion_lon": 0.0, "is_reserved": 0, "fusion_lat": 0.0, "lon": -76.99368633333333, "rental_uris": {"ios": "https://dc.lft.to/lastmile_qr_scan", "android": "https://dc.lft.to/lastmile_qr_scan"}, "bike_id": "89f39c74e274c011420de7d0bc680055", "lat": 38.99099983333333, "name": "89f39c74e274c011420de7d0bc680055"}, {"is_disabled": 0, "type": "electric_scooter", "fusion_lon": 0.0, "is_reserved": 0, "fusion_lat": 0.0, "lon": -77.05024533333334, "rental_uris": {"ios": "https://dc.lft.to/lastmile_qr_scan", "android": "https://dc.lft.to/lastmile_qr_scan"}, "bike_id": "abfe5a1f492e7131d97efe879c03cdd3", "lat": 38.892433, "name": "abfe5a1f492e7131d97efe879c03cdd3"}, {"is_disabled": 0, "type": "electric_scooter", "fusion_lon": 0.0, "is_reserved": 0, "fusion_lat": 0.0, "lon": -76.93629766666666, "rental_uris": {"ios": "https://dc.lft.to/lastmile_qr_scan", "android": "https://dc.lft.to/lastmile_qr_scan"}, "bike_id": "1e5b21b69dd441ad8dcfb40ee5b84b1c", "lat": 38.883478, "name": "1e5b21b69dd441ad8dcfb40ee5b84b1c"}, {"is_disabled": 0, "type": "electric_scooter", "fusion_lon": 0.0, "is_reserved": 0, "fusion_lat": 0.0, "lon": -77.031836, "rental_uris": {"ios": "https://dc.lft.to/lastmile_qr_scan", "android": "https://dc.lft.to/lastmile_qr_scan"}, "bike_id": "8a605d20f4509ffb2da692d163c95a5b", "lat": 38.89842266666667, "name": "8a605d20f4509ffb2da692d163c95a5b"}, {"is_disabled": 0, "type": "electric_scooter", "fusion_lon": 0.0, "is_reserved": 0, "fusion_lat": 0.0, "lon": -76.9463615, "rental_uris": {"ios": "https://dc.lft.to/lastmile_qr_scan", "android": "https://dc.lft.to/lastmile_qr_scan"}, "bike_id": "98b104ee60707e0c5136c1714fa1553d", "lat": 38.89842633333333, "name": "98b104ee60707e0c5136c1714fa1553d"}, {"is_disabled": 0, "type": "electric_scooter", "fusion_lon": 0.0, "is_reserved": 0, "fusion_lat": 0.0, "lon": -77.02580833333333, "rental_uris": {"ios": "https://dc.lft.to/lastmile_qr_scan", "android": "https://dc.lft.to/lastmile_qr_scan"}, "bike_id": "40dc7ac83144cc1c64ae4c6b83785753", "lat": 38.898681833333335, "name": "40dc7ac83144cc1c64ae4c6b83785753"}, {"is_disabled": 0, "type": "electric_scooter", "fusion_lon": 0.0, "is_reserved": 0, "fusion_lat": 0.0, "lon": -77.03512133333334, "rental_uris": {"ios": "https://dc.lft.to/lastmile_qr_scan", "android": "https://dc.lft.to/lastmile_qr_scan"}, "bike_id": "b07ab8866b6a7017c94e64e5deb8d1af", "lat": 38.921474833333335, "name": "b07ab8866b6a7017c94e64e5deb8d1af"}, {"is_disabled": 0, "type": "electric_scooter", "fusion_lon": 0.0, "is_reserved": 0, "fusion_lat": 0.0, "lon": -77.03871016666666, "rental_uris": {"ios": "https://dc.lft.to/lastmile_qr_scan", "android": "https://dc.lft.to/lastmile_qr_scan"}, "bike_id": "6f53e57264ee94071951f5fb4e516e2e", "lat": 38.912565, "name": "6f53e57264ee94071951f5fb4e516e2e"}, {"is_disabled": 0, "type": "electric_scooter", "fusion_lon": 0.0, "is_reserved": 0, "fusion_lat": 0.0, "lon": -77.01679716666666, "rental_uris": {"ios": "https://dc.lft.to/lastmile_qr_scan", "android": "https://dc.lft.to/lastmile_qr_scan"}, "bike_id": "2c08120d704a8b8f1d1f835374daee27", "lat": 38.9204455, "name": "2c08120d704a8b8f1d1f835374daee27"}, {"is_disabled": 0, "type": "electric_scooter", "fusion_lon": 0.0, "is_reserved": 0, "fusion_lat": 0.0, "lon": -77.04113316666667, "rental_uris": {"ios": "https://dc.lft.to/lastmile_qr_scan", "android": "https://dc.lft.to/lastmile_qr_scan"}, "bike_id": "cfa0186ae82a25c175e592995f3f183b", "lat": 38.89228166666667, "name": "cfa0186ae82a25c175e592995f3f183b"}, {"is_disabled": 0, "type": "electric_scooter", "fusion_lon": 0.0, "is_reserved": 0, "fusion_lat": 0.0, "lon": -77.02463683333333, "rental_uris": {"ios": "https://dc.lft.to/lastmile_qr_scan", "android": "https://dc.lft.to/lastmile_qr_scan"}, "bike_id": "b10337e103f3f33d460cf5e59b8172cc", "lat": 38.919211833333335, "name": "b10337e103f3f33d460cf5e59b8172cc"}, {"is_disabled": 0, "type": "electric_scooter", "fusion_lon": 0.0, "is_reserved": 0, "fusion_lat": 0.0, "lon": -77.04001333333333, "rental_uris": {"ios": "https://dc.lft.to/lastmile_qr_scan", "android": "https://dc.lft.to/lastmile_qr_scan"}, "bike_id": "8f466c7fe8b361668f1bf7eff7cdd092", "lat": 38.93429233333333, "name": "8f466c7fe8b361668f1bf7eff7cdd092"}, {"is_disabled": 0, "type": "electric_scooter", "fusion_lon": 0.0, "is_reserved": 0, "fusion_lat": 0.0, "lon": -77.078386, "rental_uris": {"ios": "https://dc.lft.to/lastmile_qr_scan", "android": "https://dc.lft.to/lastmile_qr_scan"}, "bike_id": "bef0fd29da8509387d821aaf10e9c501", "lat": 38.9267805, "name": "bef0fd29da8509387d821aaf10e9c501"}, {"is_disabled": 0, "type": "electric_bike", "fusion_lon": 0.0, "is_reserved": 0, "fusion_lat": 0.0, "lon": -76.972223, "rental_uris": {"ios": "https://dc.lft.to/lastmile_qr_scan", "android": "https://dc.lft.to/lastmile_qr_scan"}, "bike_id": "73839498cf9bbc6b019a65ffe5ab6631", "lat": 38.9003325, "name": "73839498cf9bbc6b019a65ffe5ab6631"}, {"is_disabled": 0, "type": "electric_bike", "fusion_lon": 0.0, "is_reserved": 0, "fusion_lat": 0.0, "lon": -76.90748216666667, "rental_uris": {"ios": "https://dc.lft.to/lastmile_qr_scan", "android": "https://dc.lft.to/lastmile_qr_scan"}, "bike_id": "2391e4ee7968331393e58dcc037f7830", "lat": 38.896178666666664, "name": "2391e4ee7968331393e58dcc037f7830"}, {"is_disabled": 0, "type": "electric_scooter", "fusion_lon": 0.0, "is_reserved": 0, "fusion_lat": 0.0, "lon": -77.03187266666667, "rental_uris": {"ios": "https://dc.lft.to/lastmile_qr_scan", "android": "https://dc.lft.to/lastmile_qr_scan"}, "bike_id": "43ea61fa70bca11e811931639d2e9ec9", "lat": 38.915723, "name": "43ea61fa70bca11e811931639d2e9ec9"}, {"is_disabled": 0, "type": "electric_scooter", "fusion_lon": 0.0, "is_reserved": 0, "fusion_lat": 0.0, "lon": -77.040278, "rental_uris": {"ios": "https://dc.lft.to/lastmile_qr_scan", "android": "https://dc.lft.to/lastmile_qr_scan"}, "bike_id": "357a8f5c7da9a510a3a02bb156ead7b7", "lat": 38.92165283333333, "name": "357a8f5c7da9a510a3a02bb156ead7b7"}, {"is_disabled": 0, "type": "electric_scooter", "fusion_lon": 0.0, "is_reserved": 0, "fusion_lat": 0.0, "lon": -77.0560895, "rental_uris": {"ios": "https://dc.lft.to/lastmile_qr_scan", "android": "https://dc.lft.to/lastmile_qr_scan"}, "bike_id": "2f021e73f60d05c6d50ab4acbde28a4d", "lat": 38.9311015, "name": "2f021e73f60d05c6d50ab4acbde28a4d"}, {"is_disabled": 0, "type": "electric_scooter", "fusion_lon": 0.0, "is_reserved": 0, "fusion_lat": 0.0, "lon": -77.01281383333334, "rental_uris": {"ios": "https://dc.lft.to/lastmile_qr_scan", "android": "https://dc.lft.to/lastmile_qr_scan"}, "bike_id": "f78cccef628cbf0b1f5cc3a0c668b5b3", "lat": 38.897103666666666, "name": "f78cccef628cbf0b1f5cc3a0c668b5b3"}, {"is_disabled": 0, "type": "electric_scooter", "fusion_lon": 0.0, "is_reserved": 0, "fusion_lat": 0.0, "lon": -77.03157833333333, "rental_uris": {"ios": "https://dc.lft.to/lastmile_qr_scan", "android": "https://dc.lft.to/lastmile_qr_scan"}, "bike_id": "1a99136634587467dd0945cece2b5521", "lat": 38.89821366666666, "name": "1a99136634587467dd0945cece2b5521"}, {"is_disabled": 0, "type": "electric_scooter", "fusion_lon": 0.0, "is_reserved": 0, "fusion_lat": 0.0, "lon": -77.008828, "rental_uris": {"ios": "https://dc.lft.to/lastmile_qr_scan", "android": "https://dc.lft.to/lastmile_qr_scan"}, "bike_id": "9a4c013f7b74e362375b743cd02bccce", "lat": 38.879156, "name": "9a4c013f7b74e362375b743cd02bccce"}, {"is_disabled": 0, "type": "electric_scooter", "fusion_lon": 0.0, "is_reserved": 0, "fusion_lat": 0.0, "lon": -76.92440666666667, "rental_uris": {"ios": "https://dc.lft.to/lastmile_qr_scan", "android": "https://dc.lft.to/lastmile_qr_scan"}, "bike_id": "70d29b005e1bf05004dbbfba9012d520", "lat": 38.88511833333333, "name": "70d29b005e1bf05004dbbfba9012d520"}, {"is_disabled": 0, "type": "electric_scooter", "fusion_lon": 0.0, "is_reserved": 0, "fusion_lat": 0.0, "lon": -77.04403933333333, "rental_uris": {"ios": "https://dc.lft.to/lastmile_qr_scan", "android": "https://dc.lft.to/lastmile_qr_scan"}, "bike_id": "0baaabb262c7e58d664fd9db110c14c1", "lat": 38.89599416666667, "name": "0baaabb262c7e58d664fd9db110c14c1"}, {"is_disabled": 0, "type": "electric_scooter", "fusion_lon": 0.0, "is_reserved": 0, "fusion_lat": 0.0, "lon": -77.032598, "rental_uris": {"ios": "https://dc.lft.to/lastmile_qr_scan", "android": "https://dc.lft.to/lastmile_qr_scan"}, "bike_id": "66a32d0563e133801f78000b2420d543", "lat": 38.90962016666667, "name": "66a32d0563e133801f78000b2420d543"}, {"is_disabled": 0, "type": "electric_scooter", "fusion_lon": 0.0, "is_reserved": 0, "fusion_lat": 0.0, "lon": -77.00606416666666, "rental_uris": {"ios": "https://dc.lft.to/lastmile_qr_scan", "android": "https://dc.lft.to/lastmile_qr_scan"}, "bike_id": "ec655d8713f8303cb755d21ec090263e", "lat": 38.911201, "name": "ec655d8713f8303cb755d21ec090263e"}, {"is_disabled": 0, "type": "electric_scooter", "fusion_lon": 0.0, "is_reserved": 0, "fusion_lat": 0.0, "lon": -77.023206, "rental_uris": {"ios": "https://dc.lft.to/lastmile_qr_scan", "android": "https://dc.lft.to/lastmile_qr_scan"}, "bike_id": "7d374c9d85b706c57b4dfb0cb4ca5604", "lat": 38.92092533333334, "name": "7d374c9d85b706c57b4dfb0cb4ca5604"}, {"is_disabled": 0, "type": "electric_scooter", "fusion_lon": 0.0, "is_reserved": 0, "fusion_lat": 0.0, "lon": -77.03172383333333, "rental_uris": {"ios": "https://dc.lft.to/lastmile_qr_scan", "android": "https://dc.lft.to/lastmile_qr_scan"}, "bike_id": "e5fac6f0fdc8fba82f635679e6ebcc49", "lat": 38.8922355, "name": "e5fac6f0fdc8fba82f635679e6ebcc49"}, {"is_disabled": 0, "type": "electric_scooter", "fusion_lon": 0.0, "is_reserved": 0, "fusion_lat": 0.0, "lon": -77.02467, "rental_uris": {"ios": "https://dc.lft.to/lastmile_qr_scan", "android": "https://dc.lft.to/lastmile_qr_scan"}, "bike_id": "70fea16303308df12afcd7557dc29286", "lat": 38.93802616666667, "name": "70fea16303308df12afcd7557dc29286"}, {"is_disabled": 0, "type": "electric_scooter", "fusion_lon": 0.0, "is_reserved": 0, "fusion_lat": 0.0, "lon": -76.95771433333333, "rental_uris": {"ios": "https://dc.lft.to/lastmile_qr_scan", "android": "https://dc.lft.to/lastmile_qr_scan"}, "bike_id": "d0bf951d6bebf76a6c573b321b0fa997", "lat": 38.8835595, "name": "d0bf951d6bebf76a6c573b321b0fa997"}, {"is_disabled": 0, "type": "electric_scooter", "fusion_lon": 0.0, "is_reserved": 0, "fusion_lat": 0.0, "lon": -76.93180883333333, "rental_uris": {"ios": "https://dc.lft.to/lastmile_qr_scan", "android": "https://dc.lft.to/lastmile_qr_scan"}, "bike_id": "fca1427788e43b9ce8e0424d35e8ca35", "lat": 38.898752, "name": "fca1427788e43b9ce8e0424d35e8ca35"}, {"is_disabled": 0, "type": "electric_scooter", "fusion_lon": 0.0, "is_reserved": 0, "fusion_lat": 0.0, "lon": -77.05470666666666, "rental_uris": {"ios": "https://dc.lft.to/lastmile_qr_scan", "android": "https://dc.lft.to/lastmile_qr_scan"}, "bike_id": "5b093e1cb40f7284ff41600821e33318", "lat": 38.92337216666667, "name": "5b093e1cb40f7284ff41600821e33318"}, {"is_disabled": 0, "type": "electric_scooter", "fusion_lon": 0.0, "is_reserved": 0, "fusion_lat": 0.0, "lon": -77.03010966666666, "rental_uris": {"ios": "https://dc.lft.to/lastmile_qr_scan", "android": "https://dc.lft.to/lastmile_qr_scan"}, "bike_id": "e55a8a3ff8f7a5ac3226b3a1e972a14a", "lat": 38.89553733333333, "name": "e55a8a3ff8f7a5ac3226b3a1e972a14a"}, {"is_disabled": 0, "type": "electric_scooter", "fusion_lon": 0.0, "is_reserved": 0, "fusion_lat": 0.0, "lon": -77.0215855, "rental_uris": {"ios": "https://dc.lft.to/lastmile_qr_scan", "android": "https://dc.lft.to/lastmile_qr_scan"}, "bike_id": "1ecc101bb4d28f57e78796a4fd759bb4", "lat": 38.89221883333333, "name": "1ecc101bb4d28f57e78796a4fd759bb4"}, {"is_disabled": 0, "type": "electric_bike", "fusion_lon": 0.0, "is_reserved": 0, "fusion_lat": 0.0, "lon": -77.01049516666667, "rental_uris": {"ios": "https://dc.lft.to/lastmile_qr_scan", "android": "https://dc.lft.to/lastmile_qr_scan"}, "bike_id": "2adeece9f7e8d0bc4d77ee0943879f4c", "lat": 38.877649, "name": "2adeece9f7e8d0bc4d77ee0943879f4c"}, {"is_disabled": 0, "type": "electric_scooter", "fusion_lon": 0.0, "is_reserved": 0, "fusion_lat": 0.0, "lon": -77.0346735, "rental_uris": {"ios": "https://dc.lft.to/lastmile_qr_scan", "android": "https://dc.lft.to/lastmile_qr_scan"}, "bike_id": "d9a37fef28f03e2be3a9209a0a45323e", "lat": 38.90579916666667, "name": "d9a37fef28f03e2be3a9209a0a45323e"}, {"is_disabled": 0, "type": "electric_scooter", "fusion_lon": 0.0, "is_reserved": 0, "fusion_lat": 0.0, "lon": -77.01499566666666, "rental_uris": {"ios": "https://dc.lft.to/lastmile_qr_scan", "android": "https://dc.lft.to/lastmile_qr_scan"}, "bike_id": "3abc0c0b16ddd7fe537c58704f4115ef", "lat": 38.89674866666667, "name": "3abc0c0b16ddd7fe537c58704f4115ef"}, {"is_disabled": 0, "type": "electric_scooter", "fusion_lon": 0.0, "is_reserved": 0, "fusion_lat": 0.0, "lon": -77.02596366666667, "rental_uris": {"ios": "https://dc.lft.to/lastmile_qr_scan", "android": "https://dc.lft.to/lastmile_qr_scan"}, "bike_id": "734556fe640adfe8a4d2e3a89e12f2e9", "lat": 38.90011766666667, "name": "734556fe640adfe8a4d2e3a89e12f2e9"}, {"is_disabled": 0, "type": "electric_scooter", "fusion_lon": 0.0, "is_reserved": 0, "fusion_lat": 0.0, "lon": -77.03956533333333, "rental_uris": {"ios": "https://dc.lft.to/lastmile_qr_scan", "android": "https://dc.lft.to/lastmile_qr_scan"}, "bike_id": "83184a64fc33c5c5795511746120f747", "lat": 38.89242266666667, "name": "83184a64fc33c5c5795511746120f747"}, {"is_disabled": 0, "type": "electric_bike", "fusion_lon": 0.0, "is_reserved": 0, "fusion_lat": 0.0, "lon": -76.99656733333333, "rental_uris": {"ios": "https://dc.lft.to/lastmile_qr_scan", "android": "https://dc.lft.to/lastmile_qr_scan"}, "bike_id": "da01581d4c351b734cea7f803d092c38", "lat": 38.96776233333333, "name": "da01581d4c351b734cea7f803d092c38"}, {"is_disabled": 0, "type": "electric_scooter", "fusion_lon": 0.0, "is_reserved": 0, "fusion_lat": 0.0, "lon": -77.03906633333334, "rental_uris": {"ios": "https://dc.lft.to/lastmile_qr_scan", "android": "https://dc.lft.to/lastmile_qr_scan"}, "bike_id": "fff3b5ad14683c0000e8ca23678d89cb", "lat": 38.92237133333333, "name": "fff3b5ad14683c0000e8ca23678d89cb"}, {"is_disabled": 0, "type": "electric_scooter", "fusion_lon": 0.0, "is_reserved": 0, "fusion_lat": 0.0, "lon": -77.03453966666666, "rental_uris": {"ios": "https://dc.lft.to/lastmile_qr_scan", "android": "https://dc.lft.to/lastmile_qr_scan"}, "bike_id": "a7dff7beb41b0df97c7def6ce84c45f7", "lat": 38.902704, "name": "a7dff7beb41b0df97c7def6ce84c45f7"}, {"is_disabled": 0, "type": "electric_bike", "fusion_lon": 0.0, "is_reserved": 0, "fusion_lat": 0.0, "lon": -76.96856666666666, "rental_uris": {"ios": "https://dc.lft.to/lastmile_qr_scan", "android": "https://dc.lft.to/lastmile_qr_scan"}, "bike_id": "48c60e6dc306082fbf1f215c17014102", "lat": 38.955397, "name": "48c60e6dc306082fbf1f215c17014102"}, {"is_disabled": 0, "type": "electric_scooter", "fusion_lon": 0.0, "is_reserved": 0, "fusion_lat": 0.0, "lon": -77.05072566666666, "rental_uris": {"ios": "https://dc.lft.to/lastmile_qr_scan", "android": "https://dc.lft.to/lastmile_qr_scan"}, "bike_id": "e17f1191e2f7f512ea6187bf550a6351", "lat": 38.90189083333333, "name": "e17f1191e2f7f512ea6187bf550a6351"}, {"is_disabled": 0, "type": "electric_scooter", "fusion_lon": 0.0, "is_reserved": 0, "fusion_lat": 0.0, "lon": -77.02238183333333, "rental_uris": {"ios": "https://dc.lft.to/lastmile_qr_scan", "android": "https://dc.lft.to/lastmile_qr_scan"}, "bike_id": "d9f70b5a40a1e2b44b2d20862452ecd5", "lat": 38.9243155, "name": "d9f70b5a40a1e2b44b2d20862452ecd5"}, {"is_disabled": 0, "type": "electric_bike", "fusion_lon": 0.0, "is_reserved": 0, "fusion_lat": 0.0, "lon": -76.99706166666667, "rental_uris": {"ios": "https://dc.lft.to/lastmile_qr_scan", "android": "https://dc.lft.to/lastmile_qr_scan"}, "bike_id": "ba109c3d8b8fa8d8776afdb654e7a8ce", "lat": 38.83864766666667, "name": "ba109c3d8b8fa8d8776afdb654e7a8ce"}, {"is_disabled": 0, "type": "electric_scooter", "fusion_lon": 0.0, "is_reserved": 0, "fusion_lat": 0.0, "lon": -77.021754, "rental_uris": {"ios": "https://dc.lft.to/lastmile_qr_scan", "android": "https://dc.lft.to/lastmile_qr_scan"}, "bike_id": "480821aa65ebf5e0549083193a8fb571", "lat": 38.92491583333333, "name": "480821aa65ebf5e0549083193a8fb571"}, {"is_disabled": 0, "type": "electric_scooter", "fusion_lon": 0.0, "is_reserved": 0, "fusion_lat": 0.0, "lon": -77.04135233333334, "rental_uris": {"ios": "https://dc.lft.to/lastmile_qr_scan", "android": "https://dc.lft.to/lastmile_qr_scan"}, "bike_id": "c556d816ec4acac4a69f8cdf61a894c6", "lat": 38.934006333333336, "name": "c556d816ec4acac4a69f8cdf61a894c6"}, {"is_disabled": 0, "type": "electric_scooter", "fusion_lon": 0.0, "is_reserved": 0, "fusion_lat": 0.0, "lon": -77.04235516666667, "rental_uris": {"ios": "https://dc.lft.to/lastmile_qr_scan", "android": "https://dc.lft.to/lastmile_qr_scan"}, "bike_id": "91c1cfeaa6bb5115e275aac44b008324", "lat": 38.92158716666667, "name": "91c1cfeaa6bb5115e275aac44b008324"}, {"is_disabled": 0, "type": "electric_scooter", "fusion_lon": 0.0, "is_reserved": 0, "fusion_lat": 0.0, "lon": -77.022993, "rental_uris": {"ios": "https://dc.lft.to/lastmile_qr_scan", "android": "https://dc.lft.to/lastmile_qr_scan"}, "bike_id": "7ea40f2d2e43e2c4f5709d1db507845b", "lat": 38.9407975, "name": "7ea40f2d2e43e2c4f5709d1db507845b"}, {"is_disabled": 0, "type": "electric_bike", "fusion_lon": 0.0, "is_reserved": 0, "fusion_lat": 0.0, "lon": -77.04076366666666, "rental_uris": {"ios": "https://dc.lft.to/lastmile_qr_scan", "android": "https://dc.lft.to/lastmile_qr_scan"}, "bike_id": "95991ae84a2c6b28ff7c2eab85155450", "lat": 38.830630666666664, "name": "95991ae84a2c6b28ff7c2eab85155450"}, {"is_disabled": 0, "type": "electric_scooter", "fusion_lon": 0.0, "is_reserved": 0, "fusion_lat": 0.0, "lon": -77.05205666666667, "rental_uris": {"ios": "https://dc.lft.to/lastmile_qr_scan", "android": "https://dc.lft.to/lastmile_qr_scan"}, "bike_id": "8dafa7e1c03852b878306e9467cbf59e", "lat": 38.924389166666664, "name": "8dafa7e1c03852b878306e9467cbf59e"}, {"is_disabled": 0, "type": "electric_scooter", "fusion_lon": 0.0, "is_reserved": 0, "fusion_lat": 0.0, "lon": -77.03667, "rental_uris": {"ios": "https://dc.lft.to/lastmile_qr_scan", "android": "https://dc.lft.to/lastmile_qr_scan"}, "bike_id": "e5f3a347db5def417b300300eaef375f", "lat": 38.90299016666667, "name": "e5f3a347db5def417b300300eaef375f"}, {"is_disabled": 0, "type": "electric_scooter", "fusion_lon": 0.0, "is_reserved": 0, "fusion_lat": 0.0, "lon": -77.00585583333333, "rental_uris": {"ios": "https://dc.lft.to/lastmile_qr_scan", "android": "https://dc.lft.to/lastmile_qr_scan"}, "bike_id": "b773f441009ccadd2ee7ba1bb28497b3", "lat": 38.87521483333333, "name": "b773f441009ccadd2ee7ba1bb28497b3"}, {"is_disabled": 0, "type": "electric_scooter", "fusion_lon": 0.0, "is_reserved": 0, "fusion_lat": 0.0, "lon": -77.04688283333333, "rental_uris": {"ios": "https://dc.lft.to/lastmile_qr_scan", "android": "https://dc.lft.to/lastmile_qr_scan"}, "bike_id": "6b78881af1f196944d04a4d82b7cebae", "lat": 38.8922565, "name": "6b78881af1f196944d04a4d82b7cebae"}, {"is_disabled": 0, "type": "electric_scooter", "fusion_lon": 0.0, "is_reserved": 0, "fusion_lat": 0.0, "lon": -77.02733083333334, "rental_uris": {"ios": "https://dc.lft.to/lastmile_qr_scan", "android": "https://dc.lft.to/lastmile_qr_scan"}, "bike_id": "44acb35dceec7fd17bd8edeebecf359a", "lat": 38.94004566666667, "name": "44acb35dceec7fd17bd8edeebecf359a"}, {"is_disabled": 0, "type": "electric_scooter", "fusion_lon": 0.0, "is_reserved": 0, "fusion_lat": 0.0, "lon": -76.974802, "rental_uris": {"ios": "https://dc.lft.to/lastmile_qr_scan", "android": "https://dc.lft.to/lastmile_qr_scan"}, "bike_id": "55b4970e4e3a6523935662b55e883a84", "lat": 38.871540333333336, "name": "55b4970e4e3a6523935662b55e883a84"}, {"is_disabled": 0, "type": "electric_scooter", "fusion_lon": 0.0, "is_reserved": 0, "fusion_lat": 0.0, "lon": -77.03095433333333, "rental_uris": {"ios": "https://dc.lft.to/lastmile_qr_scan", "android": "https://dc.lft.to/lastmile_qr_scan"}, "bike_id": "a7ed3534b9ee31dafd6094e7ec5dd90e", "lat": 38.9035795, "name": "a7ed3534b9ee31dafd6094e7ec5dd90e"}, {"is_disabled": 0, "type": "electric_scooter", "fusion_lon": 0.0, "is_reserved": 0, "fusion_lat": 0.0, "lon": -77.05136266666666, "rental_uris": {"ios": "https://dc.lft.to/lastmile_qr_scan", "android": "https://dc.lft.to/lastmile_qr_scan"}, "bike_id": "b4d06c1498e65bc4f1e02dc305a80c5c", "lat": 38.906025, "name": "b4d06c1498e65bc4f1e02dc305a80c5c"}, {"is_disabled": 0, "type": "electric_scooter", "fusion_lon": 0.0, "is_reserved": 0, "fusion_lat": 0.0, "lon": -77.04326416666666, "rental_uris": {"ios": "https://dc.lft.to/lastmile_qr_scan", "android": "https://dc.lft.to/lastmile_qr_scan"}, "bike_id": "490876d90982bbf65362f4db9f9e612c", "lat": 38.90682916666667, "name": "490876d90982bbf65362f4db9f9e612c"}, {"is_disabled": 0, "type": "electric_scooter", "fusion_lon": 0.0, "is_reserved": 0, "fusion_lat": 0.0, "lon": -77.012524, "rental_uris": {"ios": "https://dc.lft.to/lastmile_qr_scan", "android": "https://dc.lft.to/lastmile_qr_scan"}, "bike_id": "5a23cc703b94a222cf4bcb8d259ebaf8", "lat": 38.90848066666667, "name": "5a23cc703b94a222cf4bcb8d259ebaf8"}, {"is_disabled": 0, "type": "electric_scooter", "fusion_lon": 0.0, "is_reserved": 0, "fusion_lat": 0.0, "lon": -76.98858366666667, "rental_uris": {"ios": "https://dc.lft.to/lastmile_qr_scan", "android": "https://dc.lft.to/lastmile_qr_scan"}, "bike_id": "edaaa9eb857add6202a8284eafb10d21", "lat": 38.900334666666666, "name": "edaaa9eb857add6202a8284eafb10d21"}, {"is_disabled": 0, "type": "electric_scooter", "fusion_lon": 0.0, "is_reserved": 0, "fusion_lat": 0.0, "lon": -77.00330183333334, "rental_uris": {"ios": "https://dc.lft.to/lastmile_qr_scan", "android": "https://dc.lft.to/lastmile_qr_scan"}, "bike_id": "239de482d5157ca6a896c67bab994026", "lat": 38.893665, "name": "239de482d5157ca6a896c67bab994026"}, {"is_disabled": 0, "type": "electric_scooter", "fusion_lon": 0.0, "is_reserved": 0, "fusion_lat": 0.0, "lon": -77.02176766666666, "rental_uris": {"ios": "https://dc.lft.to/lastmile_qr_scan", "android": "https://dc.lft.to/lastmile_qr_scan"}, "bike_id": "43055ce4c1e3825af8bcd8ea13f33155", "lat": 38.92494933333333, "name": "43055ce4c1e3825af8bcd8ea13f33155"}, {"is_disabled": 0, "type": "electric_scooter", "fusion_lon": 0.0, "is_reserved": 0, "fusion_lat": 0.0, "lon": -77.00182466666666, "rental_uris": {"ios": "https://dc.lft.to/lastmile_qr_scan", "android": "https://dc.lft.to/lastmile_qr_scan"}, "bike_id": "0bf93308eba6a9d7bb097fff3986c3f5", "lat": 38.87383583333333, "name": "0bf93308eba6a9d7bb097fff3986c3f5"}, {"is_disabled": 0, "type": "electric_scooter", "fusion_lon": 0.0, "is_reserved": 0, "fusion_lat": 0.0, "lon": -77.07280366666667, "rental_uris": {"ios": "https://dc.lft.to/lastmile_qr_scan", "android": "https://dc.lft.to/lastmile_qr_scan"}, "bike_id": "dd76d64445267339103fafda354b337f", "lat": 38.93226583333333, "name": "dd76d64445267339103fafda354b337f"}, {"is_disabled": 0, "type": "electric_scooter", "fusion_lon": 0.0, "is_reserved": 0, "fusion_lat": 0.0, "lon": -77.0120955, "rental_uris": {"ios": "https://dc.lft.to/lastmile_qr_scan", "android": "https://dc.lft.to/lastmile_qr_scan"}, "bike_id": "f0690231c4c8c29b7021b6c292d08805", "lat": 38.89813433333333, "name": "f0690231c4c8c29b7021b6c292d08805"}, {"is_disabled": 0, "type": "electric_scooter", "fusion_lon": 0.0, "is_reserved": 0, "fusion_lat": 0.0, "lon": -77.01891666666667, "rental_uris": {"ios": "https://dc.lft.to/lastmile_qr_scan", "android": "https://dc.lft.to/lastmile_qr_scan"}, "bike_id": "02ccaaa0410c343475a78b7a4ebc6b85", "lat": 38.89741166666667, "name": "02ccaaa0410c343475a78b7a4ebc6b85"}, {"is_disabled": 0, "type": "electric_scooter", "fusion_lon": 0.0, "is_reserved": 0, "fusion_lat": 0.0, "lon": -77.03185516666667, "rental_uris": {"ios": "https://dc.lft.to/lastmile_qr_scan", "android": "https://dc.lft.to/lastmile_qr_scan"}, "bike_id": "0a355345372f5b29c368b0e1941cbecb", "lat": 38.915729666666664, "name": "0a355345372f5b29c368b0e1941cbecb"}, {"is_disabled": 0, "type": "electric_scooter", "fusion_lon": 0.0, "is_reserved": 0, "fusion_lat": 0.0, "lon": -77.02493383333334, "rental_uris": {"ios": "https://dc.lft.to/lastmile_qr_scan", "android": "https://dc.lft.to/lastmile_qr_scan"}, "bike_id": "3b7183a8576b27a6d33c6f001bb3c047", "lat": 38.93757933333333, "name": "3b7183a8576b27a6d33c6f001bb3c047"}, {"is_disabled": 0, "type": "electric_scooter", "fusion_lon": 0.0, "is_reserved": 0, "fusion_lat": 0.0, "lon": -77.04907316666667, "rental_uris": {"ios": "https://dc.lft.to/lastmile_qr_scan", "android": "https://dc.lft.to/lastmile_qr_scan"}, "bike_id": "90da76dd15669de9aded967730ab0c1a", "lat": 38.9159975, "name": "90da76dd15669de9aded967730ab0c1a"}, {"is_disabled": 0, "type": "electric_scooter", "fusion_lon": 0.0, "is_reserved": 0, "fusion_lat": 0.0, "lon": -77.01535566666666, "rental_uris": {"ios": "https://dc.lft.to/lastmile_qr_scan", "android": "https://dc.lft.to/lastmile_qr_scan"}, "bike_id": "e17c16ae00b75296f22b71c4a05c8b3e", "lat": 38.920610333333336, "name": "e17c16ae00b75296f22b71c4a05c8b3e"}, {"is_disabled": 0, "type": "electric_scooter", "fusion_lon": 0.0, "is_reserved": 0, "fusion_lat": 0.0, "lon": -77.03281783333334, "rental_uris": {"ios": "https://dc.lft.to/lastmile_qr_scan", "android": "https://dc.lft.to/lastmile_qr_scan"}, "bike_id": "9177088b3b9d123aeead541445b69cf5", "lat": 38.9367135, "name": "9177088b3b9d123aeead541445b69cf5"}, {"is_disabled": 0, "type": "electric_scooter", "fusion_lon": 0.0, "is_reserved": 0, "fusion_lat": 0.0, "lon": -77.04003016666667, "rental_uris": {"ios": "https://dc.lft.to/lastmile_qr_scan", "android": "https://dc.lft.to/lastmile_qr_scan"}, "bike_id": "d1acbe8f5c6c0c712f8ccf435e98e284", "lat": 38.93425383333334, "name": "d1acbe8f5c6c0c712f8ccf435e98e284"}, {"is_disabled": 0, "type": "electric_scooter", "fusion_lon": 0.0, "is_reserved": 0, "fusion_lat": 0.0, "lon": -77.04295616666667, "rental_uris": {"ios": "https://dc.lft.to/lastmile_qr_scan", "android": "https://dc.lft.to/lastmile_qr_scan"}, "bike_id": "57bfbace146c3b1843663490a77a1293", "lat": 38.901085, "name": "57bfbace146c3b1843663490a77a1293"}, {"is_disabled": 0, "type": "electric_scooter", "fusion_lon": 0.0, "is_reserved": 0, "fusion_lat": 0.0, "lon": -77.00917666666666, "rental_uris": {"ios": "https://dc.lft.to/lastmile_qr_scan", "android": "https://dc.lft.to/lastmile_qr_scan"}, "bike_id": "553419818e7a5c7e02b78b1ec1ed8f59", "lat": 38.918788666666664, "name": "553419818e7a5c7e02b78b1ec1ed8f59"}, {"is_disabled": 0, "type": "electric_scooter", "fusion_lon": 0.0, "is_reserved": 0, "fusion_lat": 0.0, "lon": -76.93734566666667, "rental_uris": {"ios": "https://dc.lft.to/lastmile_qr_scan", "android": "https://dc.lft.to/lastmile_qr_scan"}, "bike_id": "b5dad24f81c35eb6810d1df0e4c0cc2b", "lat": 38.89016616666667, "name": "b5dad24f81c35eb6810d1df0e4c0cc2b"}, {"is_disabled": 0, "type": "electric_scooter", "fusion_lon": 0.0, "is_reserved": 0, "fusion_lat": 0.0, "lon": -77.05005566666667, "rental_uris": {"ios": "https://dc.lft.to/lastmile_qr_scan", "android": "https://dc.lft.to/lastmile_qr_scan"}, "bike_id": "97ebca2b03e86f3197d81336d3c188f5", "lat": 38.892286, "name": "97ebca2b03e86f3197d81336d3c188f5"}, {"is_disabled": 0, "type": "electric_bike", "fusion_lon": 0.0, "is_reserved": 0, "fusion_lat": 0.0, "lon": -76.9535295, "rental_uris": {"ios": "https://dc.lft.to/lastmile_qr_scan", "android": "https://dc.lft.to/lastmile_qr_scan"}, "bike_id": "6c0f7c7402647a6f809a35f9c0d8ed38", "lat": 38.94172566666667, "name": "6c0f7c7402647a6f809a35f9c0d8ed38"}, {"is_disabled": 0, "type": "electric_bike", "fusion_lon": 0.0, "is_reserved": 0, "fusion_lat": 0.0, "lon": -77.0961755, "rental_uris": {"ios": "https://dc.lft.to/lastmile_qr_scan", "android": "https://dc.lft.to/lastmile_qr_scan"}, "bike_id": "42a9ddab62b84f2a7bfa73d6d801b0e3", "lat": 38.974404666666665, "name": "42a9ddab62b84f2a7bfa73d6d801b0e3"}, {"is_disabled": 0, "type": "electric_scooter", "fusion_lon": 0.0, "is_reserved": 0, "fusion_lat": 0.0, "lon": -77.027057, "rental_uris": {"ios": "https://dc.lft.to/lastmile_qr_scan", "android": "https://dc.lft.to/lastmile_qr_scan"}, "bike_id": "387f23a20acbd520c61eef0ccdb2525b", "lat": 38.91766166666667, "name": "387f23a20acbd520c61eef0ccdb2525b"}, {"is_disabled": 0, "type": "electric_scooter", "fusion_lon": 0.0, "is_reserved": 0, "fusion_lat": 0.0, "lon": -77.019717, "rental_uris": {"ios": "https://dc.lft.to/lastmile_qr_scan", "android": "https://dc.lft.to/lastmile_qr_scan"}, "bike_id": "0466173c75a3e7362a5d67ffbe38ed3b", "lat": 38.92255933333333, "name": "0466173c75a3e7362a5d67ffbe38ed3b"}, {"is_disabled": 0, "type": "electric_scooter", "fusion_lon": 0.0, "is_reserved": 0, "fusion_lat": 0.0, "lon": -77.028097, "rental_uris": {"ios": "https://dc.lft.to/lastmile_qr_scan", "android": "https://dc.lft.to/lastmile_qr_scan"}, "bike_id": "8326a5d9d977ee20e456ab956c76dc9f", "lat": 38.914284, "name": "8326a5d9d977ee20e456ab956c76dc9f"}, {"is_disabled": 0, "type": "electric_scooter", "fusion_lon": 0.0, "is_reserved": 0, "fusion_lat": 0.0, "lon": -77.018206, "rental_uris": {"ios": "https://dc.lft.to/lastmile_qr_scan", "android": "https://dc.lft.to/lastmile_qr_scan"}, "bike_id": "59e5bf217853447c843e21fae87f489d", "lat": 38.973928666666666, "name": "59e5bf217853447c843e21fae87f489d"}, {"is_disabled": 0, "type": "electric_scooter", "fusion_lon": 0.0, "is_reserved": 0, "fusion_lat": 0.0, "lon": -77.02672633333333, "rental_uris": {"ios": "https://dc.lft.to/lastmile_qr_scan", "android": "https://dc.lft.to/lastmile_qr_scan"}, "bike_id": "ac05100d34464d3f0e65db41488d052a", "lat": 38.89727416666667, "name": "ac05100d34464d3f0e65db41488d052a"}, {"is_disabled": 0, "type": "electric_scooter", "fusion_lon": 0.0, "is_reserved": 0, "fusion_lat": 0.0, "lon": -77.0431225, "rental_uris": {"ios": "https://dc.lft.to/lastmile_qr_scan", "android": "https://dc.lft.to/lastmile_qr_scan"}, "bike_id": "cf5a3908bd123e479bb73d13d6db70d9", "lat": 38.918839, "name": "cf5a3908bd123e479bb73d13d6db70d9"}, {"is_disabled": 0, "type": "electric_scooter", "fusion_lon": 0.0, "is_reserved": 0, "fusion_lat": 0.0, "lon": -77.04161833333333, "rental_uris": {"ios": "https://dc.lft.to/lastmile_qr_scan", "android": "https://dc.lft.to/lastmile_qr_scan"}, "bike_id": "d457f3f35801f845f9c5e85b6db075e0", "lat": 38.898487833333334, "name": "d457f3f35801f845f9c5e85b6db075e0"}, {"is_disabled": 0, "type": "electric_scooter", "fusion_lon": 0.0, "is_reserved": 0, "fusion_lat": 0.0, "lon": -77.025923, "rental_uris": {"ios": "https://dc.lft.to/lastmile_qr_scan", "android": "https://dc.lft.to/lastmile_qr_scan"}, "bike_id": "e4175cfa5e8e1392b76a105b9db5fad8", "lat": 38.920232666666664, "name": "e4175cfa5e8e1392b76a105b9db5fad8"}, {"is_disabled": 0, "type": "electric_scooter", "fusion_lon": 0.0, "is_reserved": 0, "fusion_lat": 0.0, "lon": -77.01769433333334, "rental_uris": {"ios": "https://dc.lft.to/lastmile_qr_scan", "android": "https://dc.lft.to/lastmile_qr_scan"}, "bike_id": "f85f14532e4db0ec1d1e64f4cd1d618b", "lat": 38.88317516666667, "name": "f85f14532e4db0ec1d1e64f4cd1d618b"}, {"is_disabled": 0, "type": "electric_scooter", "fusion_lon": 0.0, "is_reserved": 0, "fusion_lat": 0.0, "lon": -77.00884866666667, "rental_uris": {"ios": "https://dc.lft.to/lastmile_qr_scan", "android": "https://dc.lft.to/lastmile_qr_scan"}, "bike_id": "07a618365ffe17f4380e2b776c56cd2e", "lat": 38.90972883333333, "name": "07a618365ffe17f4380e2b776c56cd2e"}, {"is_disabled": 0, "type": "electric_scooter", "fusion_lon": 0.0, "is_reserved": 0, "fusion_lat": 0.0, "lon": -77.02676616666666, "rental_uris": {"ios": "https://dc.lft.to/lastmile_qr_scan", "android": "https://dc.lft.to/lastmile_qr_scan"}, "bike_id": "ac4f9c57f920d50d25fe4cf094bbb39a", "lat": 38.927702, "name": "ac4f9c57f920d50d25fe4cf094bbb39a"}, {"is_disabled": 0, "type": "electric_scooter", "fusion_lon": 0.0, "is_reserved": 0, "fusion_lat": 0.0, "lon": -77.076975, "rental_uris": {"ios": "https://dc.lft.to/lastmile_qr_scan", "android": "https://dc.lft.to/lastmile_qr_scan"}, "bike_id": "5f46b50693cd0abe788e6412c80f0ca3", "lat": 38.92245, "name": "5f46b50693cd0abe788e6412c80f0ca3"}, {"is_disabled": 0, "type": "electric_scooter", "fusion_lon": 0.0, "is_reserved": 0, "fusion_lat": 0.0, "lon": -77.0012395, "rental_uris": {"ios": "https://dc.lft.to/lastmile_qr_scan", "android": "https://dc.lft.to/lastmile_qr_scan"}, "bike_id": "026b02ec9c9ff2ddd34aea001bfee973", "lat": 38.905608666666666, "name": "026b02ec9c9ff2ddd34aea001bfee973"}, {"is_disabled": 0, "type": "electric_scooter", "fusion_lon": 0.0, "is_reserved": 0, "fusion_lat": 0.0, "lon": -77.04096233333334, "rental_uris": {"ios": "https://dc.lft.to/lastmile_qr_scan", "android": "https://dc.lft.to/lastmile_qr_scan"}, "bike_id": "696f13add3f6d4479af527fcd0a09bf5", "lat": 38.901243666666666, "name": "696f13add3f6d4479af527fcd0a09bf5"}, {"is_disabled": 0, "type": "electric_scooter", "fusion_lon": 0.0, "is_reserved": 0, "fusion_lat": 0.0, "lon": -77.00333266666667, "rental_uris": {"ios": "https://dc.lft.to/lastmile_qr_scan", "android": "https://dc.lft.to/lastmile_qr_scan"}, "bike_id": "08cb460a71a141ede637fac714938934", "lat": 38.893600166666666, "name": "08cb460a71a141ede637fac714938934"}, {"is_disabled": 0, "type": "electric_bike", "fusion_lon": 0.0, "is_reserved": 0, "fusion_lat": 0.0, "lon": -77.2341225, "rental_uris": {"ios": "https://dc.lft.to/lastmile_qr_scan", "android": "https://dc.lft.to/lastmile_qr_scan"}, "bike_id": "07eb46eae7a9b43d6baeb157c58f6267", "lat": 38.875769, "name": "07eb46eae7a9b43d6baeb157c58f6267"}, {"is_disabled": 0, "type": "electric_scooter", "fusion_lon": 0.0, "is_reserved": 0, "fusion_lat": 0.0, "lon": -77.02974433333333, "rental_uris": {"ios": "https://dc.lft.to/lastmile_qr_scan", "android": "https://dc.lft.to/lastmile_qr_scan"}, "bike_id": "b4232280df6ef8feb60ac11750893c7c", "lat": 38.934479833333334, "name": "b4232280df6ef8feb60ac11750893c7c"}, {"is_disabled": 0, "type": "electric_scooter", "fusion_lon": 0.0, "is_reserved": 0, "fusion_lat": 0.0, "lon": -76.97905683333333, "rental_uris": {"ios": "https://dc.lft.to/lastmile_qr_scan", "android": "https://dc.lft.to/lastmile_qr_scan"}, "bike_id": "ccb481775527fa2bf1b44b7f6f11e860", "lat": 38.88860866666667, "name": "ccb481775527fa2bf1b44b7f6f11e860"}, {"is_disabled": 0, "type": "electric_scooter", "fusion_lon": 0.0, "is_reserved": 0, "fusion_lat": 0.0, "lon": -76.948912, "rental_uris": {"ios": "https://dc.lft.to/lastmile_qr_scan", "android": "https://dc.lft.to/lastmile_qr_scan"}, "bike_id": "90543815aeb82e4a0d53a67613a4eb14", "lat": 38.8953415, "name": "90543815aeb82e4a0d53a67613a4eb14"}, {"is_disabled": 0, "type": "electric_scooter", "fusion_lon": 0.0, "is_reserved": 0, "fusion_lat": 0.0, "lon": -76.96812683333333, "rental_uris": {"ios": "https://dc.lft.to/lastmile_qr_scan", "android": "https://dc.lft.to/lastmile_qr_scan"}, "bike_id": "a3d0b68e73c3c258dc77ca7fce8a74ed", "lat": 38.847157333333335, "name": "a3d0b68e73c3c258dc77ca7fce8a74ed"}, {"is_disabled": 0, "type": "electric_scooter", "fusion_lon": 0.0, "is_reserved": 0, "fusion_lat": 0.0, "lon": -77.04083416666667, "rental_uris": {"ios": "https://dc.lft.to/lastmile_qr_scan", "android": "https://dc.lft.to/lastmile_qr_scan"}, "bike_id": "efd7488332c772e982120edd1c774237", "lat": 38.90391416666667, "name": "efd7488332c772e982120edd1c774237"}, {"is_disabled": 0, "type": "electric_scooter", "fusion_lon": 0.0, "is_reserved": 0, "fusion_lat": 0.0, "lon": -77.007118, "rental_uris": {"ios": "https://dc.lft.to/lastmile_qr_scan", "android": "https://dc.lft.to/lastmile_qr_scan"}, "bike_id": "e4213a5bd6ccf4333931c33b1efba4aa", "lat": 38.884923666666666, "name": "e4213a5bd6ccf4333931c33b1efba4aa"}, {"is_disabled": 0, "type": "electric_scooter", "fusion_lon": 0.0, "is_reserved": 0, "fusion_lat": 0.0, "lon": -77.000573, "rental_uris": {"ios": "https://dc.lft.to/lastmile_qr_scan", "android": "https://dc.lft.to/lastmile_qr_scan"}, "bike_id": "f8667ec9cd457effe61b03b69d366d34", "lat": 38.878843, "name": "f8667ec9cd457effe61b03b69d366d34"}, {"is_disabled": 0, "type": "electric_scooter", "fusion_lon": 0.0, "is_reserved": 0, "fusion_lat": 0.0, "lon": -76.98979483333333, "rental_uris": {"ios": "https://dc.lft.to/lastmile_qr_scan", "android": "https://dc.lft.to/lastmile_qr_scan"}, "bike_id": "fb466acd316caabd3d1c8caa20515f4f", "lat": 38.890488500000004, "name": "fb466acd316caabd3d1c8caa20515f4f"}, {"is_disabled": 0, "type": "electric_scooter", "fusion_lon": 0.0, "is_reserved": 0, "fusion_lat": 0.0, "lon": -77.02066033333334, "rental_uris": {"ios": "https://dc.lft.to/lastmile_qr_scan", "android": "https://dc.lft.to/lastmile_qr_scan"}, "bike_id": "5d65e61120cc22ae5021986a6e5b965d", "lat": 38.92101733333333, "name": "5d65e61120cc22ae5021986a6e5b965d"}, {"is_disabled": 0, "type": "electric_scooter", "fusion_lon": 0.0, "is_reserved": 0, "fusion_lat": 0.0, "lon": -77.02443083333333, "rental_uris": {"ios": "https://dc.lft.to/lastmile_qr_scan", "android": "https://dc.lft.to/lastmile_qr_scan"}, "bike_id": "dad05005e19ec19c3206799086369d05", "lat": 38.89412316666667, "name": "dad05005e19ec19c3206799086369d05"}, {"is_disabled": 0, "type": "electric_scooter", "fusion_lon": 0.0, "is_reserved": 0, "fusion_lat": 0.0, "lon": -77.02636566666666, "rental_uris": {"ios": "https://dc.lft.to/lastmile_qr_scan", "android": "https://dc.lft.to/lastmile_qr_scan"}, "bike_id": "c259f7020a6cec17e9663406bb578bf7", "lat": 38.95185266666667, "name": "c259f7020a6cec17e9663406bb578bf7"}, {"is_disabled": 0, "type": "electric_bike", "fusion_lon": 0.0, "is_reserved": 0, "fusion_lat": 0.0, "lon": -77.02103333333334, "rental_uris": {"ios": "https://dc.lft.to/lastmile_qr_scan", "android": "https://dc.lft.to/lastmile_qr_scan"}, "bike_id": "9490a428e518b1e86d68f8b02effe1dd", "lat": 39.022976166666666, "name": "9490a428e518b1e86d68f8b02effe1dd"}, {"is_disabled": 0, "type": "electric_bike", "fusion_lon": 0.0, "is_reserved": 0, "fusion_lat": 0.0, "lon": -77.03454233333333, "rental_uris": {"ios": "https://dc.lft.to/lastmile_qr_scan", "android": "https://dc.lft.to/lastmile_qr_scan"}, "bike_id": "4ef292103cd010cd640f0d9e5e63bd20", "lat": 38.90432283333333, "name": "4ef292103cd010cd640f0d9e5e63bd20"}, {"is_disabled": 0, "type": "electric_scooter", "fusion_lon": 0.0, "is_reserved": 0, "fusion_lat": 0.0, "lon": -77.02917, "rental_uris": {"ios": "https://dc.lft.to/lastmile_qr_scan", "android": "https://dc.lft.to/lastmile_qr_scan"}, "bike_id": "8c6a14f45a470671c00484afb76fb103", "lat": 38.89535433333333, "name": "8c6a14f45a470671c00484afb76fb103"}, {"is_disabled": 0, "type": "electric_bike", "fusion_lon": 0.0, "is_reserved": 0, "fusion_lat": 0.0, "lon": -76.986864, "rental_uris": {"ios": "https://dc.lft.to/lastmile_qr_scan", "android": "https://dc.lft.to/lastmile_qr_scan"}, "bike_id": "e09ddf02a6ec86b5f0d921c54fd851bf", "lat": 38.9447205, "name": "e09ddf02a6ec86b5f0d921c54fd851bf"}, {"is_disabled": 0, "type": "electric_bike", "fusion_lon": 0.0, "is_reserved": 0, "fusion_lat": 0.0, "lon": -77.0582755, "rental_uris": {"ios": "https://dc.lft.to/lastmile_qr_scan", "android": "https://dc.lft.to/lastmile_qr_scan"}, "bike_id": "dec5a042a45f8cfcc8fc381e0babb33e", "lat": 38.935371333333336, "name": "dec5a042a45f8cfcc8fc381e0babb33e"}, {"is_disabled": 0, "type": "electric_scooter", "fusion_lon": 0.0, "is_reserved": 0, "fusion_lat": 0.0, "lon": -77.00712033333333, "rental_uris": {"ios": "https://dc.lft.to/lastmile_qr_scan", "android": "https://dc.lft.to/lastmile_qr_scan"}, "bike_id": "0bf9dec8e670ef6261ca4a9e410cb102", "lat": 38.88494083333333, "name": "0bf9dec8e670ef6261ca4a9e410cb102"}, {"is_disabled": 0, "type": "electric_scooter", "fusion_lon": 0.0, "is_reserved": 0, "fusion_lat": 0.0, "lon": -77.0363445, "rental_uris": {"ios": "https://dc.lft.to/lastmile_qr_scan", "android": "https://dc.lft.to/lastmile_qr_scan"}, "bike_id": "fc66c3d7a521fd4a41b2bfacb4c3f1d4", "lat": 38.9181575, "name": "fc66c3d7a521fd4a41b2bfacb4c3f1d4"}, {"is_disabled": 0, "type": "electric_scooter", "fusion_lon": 0.0, "is_reserved": 0, "fusion_lat": 0.0, "lon": -77.0416035, "rental_uris": {"ios": "https://dc.lft.to/lastmile_qr_scan", "android": "https://dc.lft.to/lastmile_qr_scan"}, "bike_id": "95e8e94c7d9a44b378e383421fa4e8fd", "lat": 38.93411483333333, "name": "95e8e94c7d9a44b378e383421fa4e8fd"}, {"is_disabled": 0, "type": "electric_scooter", "fusion_lon": 0.0, "is_reserved": 0, "fusion_lat": 0.0, "lon": -77.01509666666666, "rental_uris": {"ios": "https://dc.lft.to/lastmile_qr_scan", "android": "https://dc.lft.to/lastmile_qr_scan"}, "bike_id": "458f78b9abc53e6ff0e4bb2d7fe31994", "lat": 38.89959533333333, "name": "458f78b9abc53e6ff0e4bb2d7fe31994"}, {"is_disabled": 0, "type": "electric_scooter", "fusion_lon": 0.0, "is_reserved": 0, "fusion_lat": 0.0, "lon": -77.0210145, "rental_uris": {"ios": "https://dc.lft.to/lastmile_qr_scan", "android": "https://dc.lft.to/lastmile_qr_scan"}, "bike_id": "e4ef55f0c9d7376f3dc16edf7775a691", "lat": 38.921718, "name": "e4ef55f0c9d7376f3dc16edf7775a691"}, {"is_disabled": 0, "type": "electric_scooter", "fusion_lon": 0.0, "is_reserved": 0, "fusion_lat": 0.0, "lon": -77.02175166666666, "rental_uris": {"ios": "https://dc.lft.to/lastmile_qr_scan", "android": "https://dc.lft.to/lastmile_qr_scan"}, "bike_id": "4e3e0ee5aad9902e43beb9473ad2a526", "lat": 38.897808166666664, "name": "4e3e0ee5aad9902e43beb9473ad2a526"}, {"is_disabled": 0, "type": "electric_scooter", "fusion_lon": 0.0, "is_reserved": 0, "fusion_lat": 0.0, "lon": -77.041263, "rental_uris": {"ios": "https://dc.lft.to/lastmile_qr_scan", "android": "https://dc.lft.to/lastmile_qr_scan"}, "bike_id": "492406782afb9daad8dd598387dfedf2", "lat": 38.9320875, "name": "492406782afb9daad8dd598387dfedf2"}, {"is_disabled": 0, "type": "electric_scooter", "fusion_lon": 0.0, "is_reserved": 0, "fusion_lat": 0.0, "lon": -77.05130683333333, "rental_uris": {"ios": "https://dc.lft.to/lastmile_qr_scan", "android": "https://dc.lft.to/lastmile_qr_scan"}, "bike_id": "264bd78b132cb66ec1941df693152df3", "lat": 38.92362216666667, "name": "264bd78b132cb66ec1941df693152df3"}, {"is_disabled": 0, "type": "electric_scooter", "fusion_lon": 0.0, "is_reserved": 0, "fusion_lat": 0.0, "lon": -76.98372883333333, "rental_uris": {"ios": "https://dc.lft.to/lastmile_qr_scan", "android": "https://dc.lft.to/lastmile_qr_scan"}, "bike_id": "2928d3b50008a49671a56646a1d54c57", "lat": 38.887241833333334, "name": "2928d3b50008a49671a56646a1d54c57"}, {"is_disabled": 0, "type": "electric_scooter", "fusion_lon": 0.0, "is_reserved": 0, "fusion_lat": 0.0, "lon": -77.02811966666667, "rental_uris": {"ios": "https://dc.lft.to/lastmile_qr_scan", "android": "https://dc.lft.to/lastmile_qr_scan"}, "bike_id": "0f7cb49b036b5d707e4a936defac128e", "lat": 38.9143105, "name": "0f7cb49b036b5d707e4a936defac128e"}, {"is_disabled": 0, "type": "electric_scooter", "fusion_lon": 0.0, "is_reserved": 0, "fusion_lat": 0.0, "lon": -77.056837, "rental_uris": {"ios": "https://dc.lft.to/lastmile_qr_scan", "android": "https://dc.lft.to/lastmile_qr_scan"}, "bike_id": "ceea8964cb2cba424be6d6545d70207b", "lat": 38.92334266666667, "name": "ceea8964cb2cba424be6d6545d70207b"}, {"is_disabled": 0, "type": "electric_scooter", "fusion_lon": 0.0, "is_reserved": 0, "fusion_lat": 0.0, "lon": -77.01221616666666, "rental_uris": {"ios": "https://dc.lft.to/lastmile_qr_scan", "android": "https://dc.lft.to/lastmile_qr_scan"}, "bike_id": "6e04dc7c5b052924dbe0ebfed0579dfc", "lat": 38.9059045, "name": "6e04dc7c5b052924dbe0ebfed0579dfc"}, {"is_disabled": 0, "type": "electric_scooter", "fusion_lon": 0.0, "is_reserved": 0, "fusion_lat": 0.0, "lon": -76.9914605, "rental_uris": {"ios": "https://dc.lft.to/lastmile_qr_scan", "android": "https://dc.lft.to/lastmile_qr_scan"}, "bike_id": "8751e0fd5019e2e4d451a722f179e386", "lat": 38.90039783333334, "name": "8751e0fd5019e2e4d451a722f179e386"}, {"is_disabled": 0, "type": "electric_scooter", "fusion_lon": 0.0, "is_reserved": 0, "fusion_lat": 0.0, "lon": -77.05316433333333, "rental_uris": {"ios": "https://dc.lft.to/lastmile_qr_scan", "android": "https://dc.lft.to/lastmile_qr_scan"}, "bike_id": "9e53c6d947776edf5e650afdbe1be2b3", "lat": 38.9043185, "name": "9e53c6d947776edf5e650afdbe1be2b3"}, {"is_disabled": 0, "type": "electric_scooter", "fusion_lon": 0.0, "is_reserved": 0, "fusion_lat": 0.0, "lon": -77.02229, "rental_uris": {"ios": "https://dc.lft.to/lastmile_qr_scan", "android": "https://dc.lft.to/lastmile_qr_scan"}, "bike_id": "ec456dc471cb4a0ba39614d5791fd248", "lat": 38.9126955, "name": "ec456dc471cb4a0ba39614d5791fd248"}, {"is_disabled": 0, "type": "electric_scooter", "fusion_lon": 0.0, "is_reserved": 0, "fusion_lat": 0.0, "lon": -77.04661283333333, "rental_uris": {"ios": "https://dc.lft.to/lastmile_qr_scan", "android": "https://dc.lft.to/lastmile_qr_scan"}, "bike_id": "c607e583408dece1fd34408471294a18", "lat": 38.909862333333336, "name": "c607e583408dece1fd34408471294a18"}, {"is_disabled": 0, "type": "electric_scooter", "fusion_lon": 0.0, "is_reserved": 0, "fusion_lat": 0.0, "lon": -77.02114133333333, "rental_uris": {"ios": "https://dc.lft.to/lastmile_qr_scan", "android": "https://dc.lft.to/lastmile_qr_scan"}, "bike_id": "2e9f1ae00a07b466f0eb911c3f46a073", "lat": 38.917404166666664, "name": "2e9f1ae00a07b466f0eb911c3f46a073"}, {"is_disabled": 0, "type": "electric_scooter", "fusion_lon": 0.0, "is_reserved": 0, "fusion_lat": 0.0, "lon": -77.01586666666667, "rental_uris": {"ios": "https://dc.lft.to/lastmile_qr_scan", "android": "https://dc.lft.to/lastmile_qr_scan"}, "bike_id": "61464db53999d790211d9f998cd9f2c5", "lat": 38.88513716666667, "name": "61464db53999d790211d9f998cd9f2c5"}, {"is_disabled": 0, "type": "electric_scooter", "fusion_lon": 0.0, "is_reserved": 0, "fusion_lat": 0.0, "lon": -76.99150433333334, "rental_uris": {"ios": "https://dc.lft.to/lastmile_qr_scan", "android": "https://dc.lft.to/lastmile_qr_scan"}, "bike_id": "f299860605e4acdde205aa6d5e617234", "lat": 38.891584333333334, "name": "f299860605e4acdde205aa6d5e617234"}, {"is_disabled": 0, "type": "electric_scooter", "fusion_lon": 0.0, "is_reserved": 0, "fusion_lat": 0.0, "lon": -77.01388333333334, "rental_uris": {"ios": "https://dc.lft.to/lastmile_qr_scan", "android": "https://dc.lft.to/lastmile_qr_scan"}, "bike_id": "89ea87bde1ea0a869e27562e63f4b091", "lat": 38.87893066666667, "name": "89ea87bde1ea0a869e27562e63f4b091"}, {"is_disabled": 0, "type": "electric_scooter", "fusion_lon": 0.0, "is_reserved": 0, "fusion_lat": 0.0, "lon": -77.02606833333333, "rental_uris": {"ios": "https://dc.lft.to/lastmile_qr_scan", "android": "https://dc.lft.to/lastmile_qr_scan"}, "bike_id": "45f2fa64a7ea6a08c32d8a942063289c", "lat": 38.902501, "name": "45f2fa64a7ea6a08c32d8a942063289c"}, {"is_disabled": 0, "type": "electric_scooter", "fusion_lon": 0.0, "is_reserved": 0, "fusion_lat": 0.0, "lon": -77.04007616666667, "rental_uris": {"ios": "https://dc.lft.to/lastmile_qr_scan", "android": "https://dc.lft.to/lastmile_qr_scan"}, "bike_id": "c900e9bdd341b3482284d6112c946895", "lat": 38.91003083333333, "name": "c900e9bdd341b3482284d6112c946895"}, {"is_disabled": 0, "type": "electric_scooter", "fusion_lon": 0.0, "is_reserved": 0, "fusion_lat": 0.0, "lon": -77.00137266666667, "rental_uris": {"ios": "https://dc.lft.to/lastmile_qr_scan", "android": "https://dc.lft.to/lastmile_qr_scan"}, "bike_id": "b616ed9b8ebd291431cb52b2a61b0289", "lat": 38.88429, "name": "b616ed9b8ebd291431cb52b2a61b0289"}, {"is_disabled": 0, "type": "electric_bike", "fusion_lon": 0.0, "is_reserved": 0, "fusion_lat": 0.0, "lon": -76.97739133333333, "rental_uris": {"ios": "https://dc.lft.to/lastmile_qr_scan", "android": "https://dc.lft.to/lastmile_qr_scan"}, "bike_id": "68d63c649377deae4f95e51e48bdce85", "lat": 38.8648625, "name": "68d63c649377deae4f95e51e48bdce85"}, {"is_disabled": 0, "type": "electric_scooter", "fusion_lon": 0.0, "is_reserved": 0, "fusion_lat": 0.0, "lon": -77.05512533333334, "rental_uris": {"ios": "https://dc.lft.to/lastmile_qr_scan", "android": "https://dc.lft.to/lastmile_qr_scan"}, "bike_id": "1cb6be3c23b1a8a954d4167582811442", "lat": 38.9296145, "name": "1cb6be3c23b1a8a954d4167582811442"}, {"is_disabled": 0, "type": "electric_scooter", "fusion_lon": 0.0, "is_reserved": 0, "fusion_lat": 0.0, "lon": -77.03190083333334, "rental_uris": {"ios": "https://dc.lft.to/lastmile_qr_scan", "android": "https://dc.lft.to/lastmile_qr_scan"}, "bike_id": "9d681c4bb0333ad4a0ede90ab033d93c", "lat": 38.89235583333333, "name": "9d681c4bb0333ad4a0ede90ab033d93c"}, {"is_disabled": 0, "type": "electric_scooter", "fusion_lon": 0.0, "is_reserved": 0, "fusion_lat": 0.0, "lon": -77.03668416666666, "rental_uris": {"ios": "https://dc.lft.to/lastmile_qr_scan", "android": "https://dc.lft.to/lastmile_qr_scan"}, "bike_id": "782fd6679f321e2d53895bb36260f859", "lat": 38.90298533333333, "name": "782fd6679f321e2d53895bb36260f859"}, {"is_disabled": 0, "type": "electric_scooter", "fusion_lon": 0.0, "is_reserved": 0, "fusion_lat": 0.0, "lon": -76.997354, "rental_uris": {"ios": "https://dc.lft.to/lastmile_qr_scan", "android": "https://dc.lft.to/lastmile_qr_scan"}, "bike_id": "9a406c4fa52f83cbaa29d3e63a93c457", "lat": 38.910571833333336, "name": "9a406c4fa52f83cbaa29d3e63a93c457"}, {"is_disabled": 0, "type": "electric_scooter", "fusion_lon": 0.0, "is_reserved": 0, "fusion_lat": 0.0, "lon": -77.00676233333333, "rental_uris": {"ios": "https://dc.lft.to/lastmile_qr_scan", "android": "https://dc.lft.to/lastmile_qr_scan"}, "bike_id": "dc9b9f08c0045d5cd4f92b62d1fcc239", "lat": 38.876903666666664, "name": "dc9b9f08c0045d5cd4f92b62d1fcc239"}, {"is_disabled": 0, "type": "electric_scooter", "fusion_lon": 0.0, "is_reserved": 0, "fusion_lat": 0.0, "lon": -77.01967033333334, "rental_uris": {"ios": "https://dc.lft.to/lastmile_qr_scan", "android": "https://dc.lft.to/lastmile_qr_scan"}, "bike_id": "dc14ec28af64de35ec6330c39c1fa170", "lat": 38.892769666666666, "name": "dc14ec28af64de35ec6330c39c1fa170"}, {"is_disabled": 0, "type": "electric_scooter", "fusion_lon": 0.0, "is_reserved": 0, "fusion_lat": 0.0, "lon": -77.04209733333333, "rental_uris": {"ios": "https://dc.lft.to/lastmile_qr_scan", "android": "https://dc.lft.to/lastmile_qr_scan"}, "bike_id": "e1e9542cc3c7e65852977730d3c78058", "lat": 38.906970333333334, "name": "e1e9542cc3c7e65852977730d3c78058"}, {"is_disabled": 0, "type": "electric_scooter", "fusion_lon": 0.0, "is_reserved": 0, "fusion_lat": 0.0, "lon": -77.00699716666666, "rental_uris": {"ios": "https://dc.lft.to/lastmile_qr_scan", "android": "https://dc.lft.to/lastmile_qr_scan"}, "bike_id": "192aa8cfe94446be8aa24f612eee3861", "lat": 38.9072885, "name": "192aa8cfe94446be8aa24f612eee3861"}, {"is_disabled": 0, "type": "electric_scooter", "fusion_lon": 0.0, "is_reserved": 0, "fusion_lat": 0.0, "lon": -77.02874983333334, "rental_uris": {"ios": "https://dc.lft.to/lastmile_qr_scan", "android": "https://dc.lft.to/lastmile_qr_scan"}, "bike_id": "5dd8ec50082fab395718f9873a7f0b4e", "lat": 38.904180333333336, "name": "5dd8ec50082fab395718f9873a7f0b4e"}, {"is_disabled": 0, "type": "electric_scooter", "fusion_lon": 0.0, "is_reserved": 0, "fusion_lat": 0.0, "lon": -77.02545766666667, "rental_uris": {"ios": "https://dc.lft.to/lastmile_qr_scan", "android": "https://dc.lft.to/lastmile_qr_scan"}, "bike_id": "b8cb59a80c180ffe06fcc014495b8d7c", "lat": 38.92058083333333, "name": "b8cb59a80c180ffe06fcc014495b8d7c"}, {"is_disabled": 0, "type": "electric_scooter", "fusion_lon": 0.0, "is_reserved": 0, "fusion_lat": 0.0, "lon": -77.03111366666667, "rental_uris": {"ios": "https://dc.lft.to/lastmile_qr_scan", "android": "https://dc.lft.to/lastmile_qr_scan"}, "bike_id": "cd2b9f377412bcdf31aec305189ec6fa", "lat": 38.88600266666667, "name": "cd2b9f377412bcdf31aec305189ec6fa"}, {"is_disabled": 0, "type": "electric_scooter", "fusion_lon": 0.0, "is_reserved": 0, "fusion_lat": 0.0, "lon": -76.97342816666666, "rental_uris": {"ios": "https://dc.lft.to/lastmile_qr_scan", "android": "https://dc.lft.to/lastmile_qr_scan"}, "bike_id": "bf3d451dd996180a8bb7e558eb15cfc7", "lat": 38.86510766666667, "name": "bf3d451dd996180a8bb7e558eb15cfc7"}, {"is_disabled": 0, "type": "electric_scooter", "fusion_lon": 0.0, "is_reserved": 0, "fusion_lat": 0.0, "lon": -77.03330916666667, "rental_uris": {"ios": "https://dc.lft.to/lastmile_qr_scan", "android": "https://dc.lft.to/lastmile_qr_scan"}, "bike_id": "ba77090ffc2d96ed8eae85b2d59df4af", "lat": 38.938963666666666, "name": "ba77090ffc2d96ed8eae85b2d59df4af"}, {"is_disabled": 0, "type": "electric_scooter", "fusion_lon": 0.0, "is_reserved": 0, "fusion_lat": 0.0, "lon": -77.013666, "rental_uris": {"ios": "https://dc.lft.to/lastmile_qr_scan", "android": "https://dc.lft.to/lastmile_qr_scan"}, "bike_id": "f4b4cf650fefc47c5d89fffd1536d371", "lat": 38.928810166666665, "name": "f4b4cf650fefc47c5d89fffd1536d371"}, {"is_disabled": 0, "type": "electric_scooter", "fusion_lon": 0.0, "is_reserved": 0, "fusion_lat": 0.0, "lon": -77.04241916666666, "rental_uris": {"ios": "https://dc.lft.to/lastmile_qr_scan", "android": "https://dc.lft.to/lastmile_qr_scan"}, "bike_id": "6128302b924e476b97f5e8a3443d54f1", "lat": 38.89856233333333, "name": "6128302b924e476b97f5e8a3443d54f1"}, {"is_disabled": 0, "type": "electric_scooter", "fusion_lon": 0.0, "is_reserved": 0, "fusion_lat": 0.0, "lon": -77.04347983333334, "rental_uris": {"ios": "https://dc.lft.to/lastmile_qr_scan", "android": "https://dc.lft.to/lastmile_qr_scan"}, "bike_id": "b926a3ed2f19ad08411edf6af51b7971", "lat": 38.8996125, "name": "b926a3ed2f19ad08411edf6af51b7971"}, {"is_disabled": 0, "type": "electric_scooter", "fusion_lon": 0.0, "is_reserved": 0, "fusion_lat": 0.0, "lon": -77.0071085, "rental_uris": {"ios": "https://dc.lft.to/lastmile_qr_scan", "android": "https://dc.lft.to/lastmile_qr_scan"}, "bike_id": "22bea6f8ff3f1f4abd79977d0c6b34e8", "lat": 38.917089, "name": "22bea6f8ff3f1f4abd79977d0c6b34e8"}, {"is_disabled": 0, "type": "electric_scooter", "fusion_lon": 0.0, "is_reserved": 0, "fusion_lat": 0.0, "lon": -77.011163, "rental_uris": {"ios": "https://dc.lft.to/lastmile_qr_scan", "android": "https://dc.lft.to/lastmile_qr_scan"}, "bike_id": "1fddee4bce7ac5f50bdf3b080fb885d0", "lat": 38.89475566666667, "name": "1fddee4bce7ac5f50bdf3b080fb885d0"}, {"is_disabled": 0, "type": "electric_scooter", "fusion_lon": 0.0, "is_reserved": 0, "fusion_lat": 0.0, "lon": -77.03441, "rental_uris": {"ios": "https://dc.lft.to/lastmile_qr_scan", "android": "https://dc.lft.to/lastmile_qr_scan"}, "bike_id": "0411bc9b314788d34ccb3f145a94ddfc", "lat": 38.92049866666667, "name": "0411bc9b314788d34ccb3f145a94ddfc"}, {"is_disabled": 0, "type": "electric_scooter", "fusion_lon": 0.0, "is_reserved": 0, "fusion_lat": 0.0, "lon": -77.0488115, "rental_uris": {"ios": "https://dc.lft.to/lastmile_qr_scan", "android": "https://dc.lft.to/lastmile_qr_scan"}, "bike_id": "a41fea2a511b1591f88bdcf7bb57a5c5", "lat": 38.899468, "name": "a41fea2a511b1591f88bdcf7bb57a5c5"}, {"is_disabled": 0, "type": "electric_bike", "fusion_lon": 0.0, "is_reserved": 0, "fusion_lat": 0.0, "lon": -77.0626925, "rental_uris": {"ios": "https://dc.lft.to/lastmile_qr_scan", "android": "https://dc.lft.to/lastmile_qr_scan"}, "bike_id": "7324f7d5dc8b1c900f654b7171ef4882", "lat": 38.903786, "name": "7324f7d5dc8b1c900f654b7171ef4882"}, {"is_disabled": 0, "type": "electric_scooter", "fusion_lon": 0.0, "is_reserved": 0, "fusion_lat": 0.0, "lon": -77.02151116666667, "rental_uris": {"ios": "https://dc.lft.to/lastmile_qr_scan", "android": "https://dc.lft.to/lastmile_qr_scan"}, "bike_id": "1242569ba982df875e2de717fdadb4be", "lat": 38.92457533333334, "name": "1242569ba982df875e2de717fdadb4be"}, {"is_disabled": 0, "type": "electric_scooter", "fusion_lon": 0.0, "is_reserved": 0, "fusion_lat": 0.0, "lon": -77.03219766666666, "rental_uris": {"ios": "https://dc.lft.to/lastmile_qr_scan", "android": "https://dc.lft.to/lastmile_qr_scan"}, "bike_id": "0959db12dcba6164bead67d91e89735e", "lat": 38.911936833333336, "name": "0959db12dcba6164bead67d91e89735e"}, {"is_disabled": 0, "type": "electric_scooter", "fusion_lon": 0.0, "is_reserved": 0, "fusion_lat": 0.0, "lon": -77.01232133333333, "rental_uris": {"ios": "https://dc.lft.to/lastmile_qr_scan", "android": "https://dc.lft.to/lastmile_qr_scan"}, "bike_id": "f836a8e25bfd6f31c7fd849f7d5647a1", "lat": 38.93019966666667, "name": "f836a8e25bfd6f31c7fd849f7d5647a1"}, {"is_disabled": 0, "type": "electric_scooter", "fusion_lon": 0.0, "is_reserved": 0, "fusion_lat": 0.0, "lon": -77.05127783333333, "rental_uris": {"ios": "https://dc.lft.to/lastmile_qr_scan", "android": "https://dc.lft.to/lastmile_qr_scan"}, "bike_id": "c075120b39fffb4bc2a393a283133d0d", "lat": 38.906491333333335, "name": "c075120b39fffb4bc2a393a283133d0d"}, {"is_disabled": 0, "type": "electric_scooter", "fusion_lon": 0.0, "is_reserved": 0, "fusion_lat": 0.0, "lon": -77.050786, "rental_uris": {"ios": "https://dc.lft.to/lastmile_qr_scan", "android": "https://dc.lft.to/lastmile_qr_scan"}, "bike_id": "38a197c676eff1ac64f90fafd101f8c6", "lat": 38.90158516666666, "name": "38a197c676eff1ac64f90fafd101f8c6"}, {"is_disabled": 0, "type": "electric_scooter", "fusion_lon": 0.0, "is_reserved": 0, "fusion_lat": 0.0, "lon": -77.04685633333334, "rental_uris": {"ios": "https://dc.lft.to/lastmile_qr_scan", "android": "https://dc.lft.to/lastmile_qr_scan"}, "bike_id": "a3109f691d5787547b80ca36681fcb13", "lat": 38.892232166666666, "name": "a3109f691d5787547b80ca36681fcb13"}, {"is_disabled": 0, "type": "electric_scooter", "fusion_lon": 0.0, "is_reserved": 0, "fusion_lat": 0.0, "lon": -77.00369983333333, "rental_uris": {"ios": "https://dc.lft.to/lastmile_qr_scan", "android": "https://dc.lft.to/lastmile_qr_scan"}, "bike_id": "3e88b0306739d0024bbb5518defcc1e0", "lat": 38.876555333333336, "name": "3e88b0306739d0024bbb5518defcc1e0"}, {"is_disabled": 0, "type": "electric_bike", "fusion_lon": 0.0, "is_reserved": 0, "fusion_lat": 0.0, "lon": -77.22581616666666, "rental_uris": {"ios": "https://dc.lft.to/lastmile_qr_scan", "android": "https://dc.lft.to/lastmile_qr_scan"}, "bike_id": "7b6d7d54d0949946a97d93bb79c98125", "lat": 38.92953516666667, "name": "7b6d7d54d0949946a97d93bb79c98125"}, {"is_disabled": 0, "type": "electric_scooter", "fusion_lon": 0.0, "is_reserved": 0, "fusion_lat": 0.0, "lon": -76.92944866666667, "rental_uris": {"ios": "https://dc.lft.to/lastmile_qr_scan", "android": "https://dc.lft.to/lastmile_qr_scan"}, "bike_id": "7175ba23bac031f0f6c2bfebc0784981", "lat": 38.90179033333333, "name": "7175ba23bac031f0f6c2bfebc0784981"}, {"is_disabled": 0, "type": "electric_scooter", "fusion_lon": 0.0, "is_reserved": 0, "fusion_lat": 0.0, "lon": -77.00900533333333, "rental_uris": {"ios": "https://dc.lft.to/lastmile_qr_scan", "android": "https://dc.lft.to/lastmile_qr_scan"}, "bike_id": "7f4739be13ce9facfbe3e6403a491c94", "lat": 38.90971666666667, "name": "7f4739be13ce9facfbe3e6403a491c94"}, {"is_disabled": 0, "type": "electric_scooter", "fusion_lon": 0.0, "is_reserved": 0, "fusion_lat": 0.0, "lon": -77.017556, "rental_uris": {"ios": "https://dc.lft.to/lastmile_qr_scan", "android": "https://dc.lft.to/lastmile_qr_scan"}, "bike_id": "94e79851912592dfc8100793bb2b36f4", "lat": 38.89470433333334, "name": "94e79851912592dfc8100793bb2b36f4"}, {"is_disabled": 0, "type": "electric_scooter", "fusion_lon": 0.0, "is_reserved": 0, "fusion_lat": 0.0, "lon": -77.04384433333334, "rental_uris": {"ios": "https://dc.lft.to/lastmile_qr_scan", "android": "https://dc.lft.to/lastmile_qr_scan"}, "bike_id": "77d75b868272084993c9c4419ccbb354", "lat": 38.92069983333333, "name": "77d75b868272084993c9c4419ccbb354"}, {"is_disabled": 0, "type": "electric_scooter", "fusion_lon": 0.0, "is_reserved": 0, "fusion_lat": 0.0, "lon": -77.03424583333333, "rental_uris": {"ios": "https://dc.lft.to/lastmile_qr_scan", "android": "https://dc.lft.to/lastmile_qr_scan"}, "bike_id": "ab24878f3283798022a59e3a3fa646dc", "lat": 38.91927, "name": "ab24878f3283798022a59e3a3fa646dc"}, {"is_disabled": 0, "type": "electric_scooter", "fusion_lon": 0.0, "is_reserved": 0, "fusion_lat": 0.0, "lon": -77.072473, "rental_uris": {"ios": "https://dc.lft.to/lastmile_qr_scan", "android": "https://dc.lft.to/lastmile_qr_scan"}, "bike_id": "5f069b2e9ad51d93836696147bf2676b", "lat": 38.90779283333333, "name": "5f069b2e9ad51d93836696147bf2676b"}, {"is_disabled": 0, "type": "electric_scooter", "fusion_lon": 0.0, "is_reserved": 0, "fusion_lat": 0.0, "lon": -77.03203166666667, "rental_uris": {"ios": "https://dc.lft.to/lastmile_qr_scan", "android": "https://dc.lft.to/lastmile_qr_scan"}, "bike_id": "8543d606c4a3d6dc35168207cd31c26d", "lat": 38.899539, "name": "8543d606c4a3d6dc35168207cd31c26d"}, {"is_disabled": 0, "type": "electric_scooter", "fusion_lon": 0.0, "is_reserved": 0, "fusion_lat": 0.0, "lon": -77.02859533333333, "rental_uris": {"ios": "https://dc.lft.to/lastmile_qr_scan", "android": "https://dc.lft.to/lastmile_qr_scan"}, "bike_id": "79d1586af9030f172e8ff7d9bbe443c8", "lat": 38.88752916666667, "name": "79d1586af9030f172e8ff7d9bbe443c8"}, {"is_disabled": 0, "type": "electric_scooter", "fusion_lon": 0.0, "is_reserved": 0, "fusion_lat": 0.0, "lon": -77.02529333333334, "rental_uris": {"ios": "https://dc.lft.to/lastmile_qr_scan", "android": "https://dc.lft.to/lastmile_qr_scan"}, "bike_id": "427754311f3392cff450a5fc3a128dce", "lat": 38.9209135, "name": "427754311f3392cff450a5fc3a128dce"}, {"is_disabled": 0, "type": "electric_scooter", "fusion_lon": 0.0, "is_reserved": 0, "fusion_lat": 0.0, "lon": -77.04009366666666, "rental_uris": {"ios": "https://dc.lft.to/lastmile_qr_scan", "android": "https://dc.lft.to/lastmile_qr_scan"}, "bike_id": "e7d3c59964b1e4dfd359a56a04fa1254", "lat": 38.908361166666666, "name": "e7d3c59964b1e4dfd359a56a04fa1254"}, {"is_disabled": 0, "type": "electric_scooter", "fusion_lon": 0.0, "is_reserved": 0, "fusion_lat": 0.0, "lon": -77.02536233333333, "rental_uris": {"ios": "https://dc.lft.to/lastmile_qr_scan", "android": "https://dc.lft.to/lastmile_qr_scan"}, "bike_id": "bc3d4559c6d24512bedecf7a2875143e", "lat": 38.892192666666666, "name": "bc3d4559c6d24512bedecf7a2875143e"}, {"is_disabled": 0, "type": "electric_scooter", "fusion_lon": 0.0, "is_reserved": 0, "fusion_lat": 0.0, "lon": -77.02676183333334, "rental_uris": {"ios": "https://dc.lft.to/lastmile_qr_scan", "android": "https://dc.lft.to/lastmile_qr_scan"}, "bike_id": "cd3d0fee8544ce0c3c048dcca4529012", "lat": 38.9217065, "name": "cd3d0fee8544ce0c3c048dcca4529012"}, {"is_disabled": 0, "type": "electric_scooter", "fusion_lon": 0.0, "is_reserved": 0, "fusion_lat": 0.0, "lon": -77.02843816666666, "rental_uris": {"ios": "https://dc.lft.to/lastmile_qr_scan", "android": "https://dc.lft.to/lastmile_qr_scan"}, "bike_id": "58d4c50dbff1986799be271bb173f7b1", "lat": 38.944985833333334, "name": "58d4c50dbff1986799be271bb173f7b1"}, {"is_disabled": 0, "type": "electric_scooter", "fusion_lon": 0.0, "is_reserved": 0, "fusion_lat": 0.0, "lon": -77.020553, "rental_uris": {"ios": "https://dc.lft.to/lastmile_qr_scan", "android": "https://dc.lft.to/lastmile_qr_scan"}, "bike_id": "81f62638274bb0aee8ddca3740507f1b", "lat": 38.923586666666665, "name": "81f62638274bb0aee8ddca3740507f1b"}, {"is_disabled": 0, "type": "electric_scooter", "fusion_lon": 0.0, "is_reserved": 0, "fusion_lat": 0.0, "lon": -77.03332533333334, "rental_uris": {"ios": "https://dc.lft.to/lastmile_qr_scan", "android": "https://dc.lft.to/lastmile_qr_scan"}, "bike_id": "36bb7e494e7ff31a1d60353018eb9a36", "lat": 38.9026085, "name": "36bb7e494e7ff31a1d60353018eb9a36"}, {"is_disabled": 0, "type": "electric_scooter", "fusion_lon": 0.0, "is_reserved": 0, "fusion_lat": 0.0, "lon": -76.98867416666667, "rental_uris": {"ios": "https://dc.lft.to/lastmile_qr_scan", "android": "https://dc.lft.to/lastmile_qr_scan"}, "bike_id": "68ce76a53b7091b13cf42d6299ed444e", "lat": 38.9346955, "name": "68ce76a53b7091b13cf42d6299ed444e"}, {"is_disabled": 0, "type": "electric_scooter", "fusion_lon": 0.0, "is_reserved": 0, "fusion_lat": 0.0, "lon": -77.0365785, "rental_uris": {"ios": "https://dc.lft.to/lastmile_qr_scan", "android": "https://dc.lft.to/lastmile_qr_scan"}, "bike_id": "a99012194bf1226c9886192bd3091463", "lat": 38.92240416666667, "name": "a99012194bf1226c9886192bd3091463"}, {"is_disabled": 0, "type": "electric_scooter", "fusion_lon": 0.0, "is_reserved": 0, "fusion_lat": 0.0, "lon": -77.02260533333333, "rental_uris": {"ios": "https://dc.lft.to/lastmile_qr_scan", "android": "https://dc.lft.to/lastmile_qr_scan"}, "bike_id": "fe615875ca5ec110b44de2d986ccfed2", "lat": 38.896105166666665, "name": "fe615875ca5ec110b44de2d986ccfed2"}, {"is_disabled": 0, "type": "electric_scooter", "fusion_lon": 0.0, "is_reserved": 0, "fusion_lat": 0.0, "lon": -77.0392655, "rental_uris": {"ios": "https://dc.lft.to/lastmile_qr_scan", "android": "https://dc.lft.to/lastmile_qr_scan"}, "bike_id": "0a58e20e30ae85c146a54a3074d343f0", "lat": 38.898983, "name": "0a58e20e30ae85c146a54a3074d343f0"}, {"is_disabled": 0, "type": "electric_scooter", "fusion_lon": 0.0, "is_reserved": 0, "fusion_lat": 0.0, "lon": -77.02572916666666, "rental_uris": {"ios": "https://dc.lft.to/lastmile_qr_scan", "android": "https://dc.lft.to/lastmile_qr_scan"}, "bike_id": "99a01e09a2396564805d206edecd1012", "lat": 38.90419766666667, "name": "99a01e09a2396564805d206edecd1012"}, {"is_disabled": 0, "type": "electric_scooter", "fusion_lon": 0.0, "is_reserved": 0, "fusion_lat": 0.0, "lon": -77.02277066666667, "rental_uris": {"ios": "https://dc.lft.to/lastmile_qr_scan", "android": "https://dc.lft.to/lastmile_qr_scan"}, "bike_id": "36f4048782ed33a1d8f92224b68c5e8e", "lat": 38.901402, "name": "36f4048782ed33a1d8f92224b68c5e8e"}, {"is_disabled": 0, "type": "electric_scooter", "fusion_lon": 0.0, "is_reserved": 0, "fusion_lat": 0.0, "lon": -77.03577033333333, "rental_uris": {"ios": "https://dc.lft.to/lastmile_qr_scan", "android": "https://dc.lft.to/lastmile_qr_scan"}, "bike_id": "03fba8f1c02e81bb23154f5c62312a8f", "lat": 38.92688183333333, "name": "03fba8f1c02e81bb23154f5c62312a8f"}, {"is_disabled": 0, "type": "electric_scooter", "fusion_lon": 0.0, "is_reserved": 0, "fusion_lat": 0.0, "lon": -77.02346216666666, "rental_uris": {"ios": "https://dc.lft.to/lastmile_qr_scan", "android": "https://dc.lft.to/lastmile_qr_scan"}, "bike_id": "2810748941505c2b05f097e13928ef7d", "lat": 38.935355666666666, "name": "2810748941505c2b05f097e13928ef7d"}, {"is_disabled": 0, "type": "electric_scooter", "fusion_lon": 0.0, "is_reserved": 0, "fusion_lat": 0.0, "lon": -77.05703383333334, "rental_uris": {"ios": "https://dc.lft.to/lastmile_qr_scan", "android": "https://dc.lft.to/lastmile_qr_scan"}, "bike_id": "3d15a85312d96cf4390aad85f2311e29", "lat": 38.926084833333334, "name": "3d15a85312d96cf4390aad85f2311e29"}, {"is_disabled": 0, "type": "electric_scooter", "fusion_lon": 0.0, "is_reserved": 0, "fusion_lat": 0.0, "lon": -77.03137133333334, "rental_uris": {"ios": "https://dc.lft.to/lastmile_qr_scan", "android": "https://dc.lft.to/lastmile_qr_scan"}, "bike_id": "ee7add42814b97cdfed006288246a33f", "lat": 38.920238499999996, "name": "ee7add42814b97cdfed006288246a33f"}, {"is_disabled": 0, "type": "electric_scooter", "fusion_lon": 0.0, "is_reserved": 0, "fusion_lat": 0.0, "lon": -77.0185835, "rental_uris": {"ios": "https://dc.lft.to/lastmile_qr_scan", "android": "https://dc.lft.to/lastmile_qr_scan"}, "bike_id": "d9decff55a6ddb06ae3ffab39988b3e8", "lat": 38.914912666666666, "name": "d9decff55a6ddb06ae3ffab39988b3e8"}, {"is_disabled": 0, "type": "electric_scooter", "fusion_lon": 0.0, "is_reserved": 0, "fusion_lat": 0.0, "lon": -77.0306165, "rental_uris": {"ios": "https://dc.lft.to/lastmile_qr_scan", "android": "https://dc.lft.to/lastmile_qr_scan"}, "bike_id": "5eb0c6999641b80c7c9b8277a9a84bbe", "lat": 38.94608216666666, "name": "5eb0c6999641b80c7c9b8277a9a84bbe"}, {"is_disabled": 0, "type": "electric_scooter", "fusion_lon": 0.0, "is_reserved": 0, "fusion_lat": 0.0, "lon": -77.01769283333333, "rental_uris": {"ios": "https://dc.lft.to/lastmile_qr_scan", "android": "https://dc.lft.to/lastmile_qr_scan"}, "bike_id": "f5db3b17ca2299eced46f4bbfe4c8182", "lat": 38.87703916666667, "name": "f5db3b17ca2299eced46f4bbfe4c8182"}, {"is_disabled": 0, "type": "electric_scooter", "fusion_lon": 0.0, "is_reserved": 0, "fusion_lat": 0.0, "lon": -77.01792183333333, "rental_uris": {"ios": "https://dc.lft.to/lastmile_qr_scan", "android": "https://dc.lft.to/lastmile_qr_scan"}, "bike_id": "b46dbb1b3fc8aa2212f0bc7bef0a1fc9", "lat": 38.919913666666666, "name": "b46dbb1b3fc8aa2212f0bc7bef0a1fc9"}, {"is_disabled": 0, "type": "electric_bike", "fusion_lon": 0.0, "is_reserved": 0, "fusion_lat": 0.0, "lon": -77.003331, "rental_uris": {"ios": "https://dc.lft.to/lastmile_qr_scan", "android": "https://dc.lft.to/lastmile_qr_scan"}, "bike_id": "e24873006905cdd79e2340241d08fbd8", "lat": 38.92020016666667, "name": "e24873006905cdd79e2340241d08fbd8"}, {"is_disabled": 0, "type": "electric_scooter", "fusion_lon": 0.0, "is_reserved": 0, "fusion_lat": 0.0, "lon": -77.0575895, "rental_uris": {"ios": "https://dc.lft.to/lastmile_qr_scan", "android": "https://dc.lft.to/lastmile_qr_scan"}, "bike_id": "261fb55c4cc1c5884636070db1f58bbb", "lat": 38.92486566666667, "name": "261fb55c4cc1c5884636070db1f58bbb"}, {"is_disabled": 0, "type": "electric_scooter", "fusion_lon": 0.0, "is_reserved": 0, "fusion_lat": 0.0, "lon": -77.04061733333333, "rental_uris": {"ios": "https://dc.lft.to/lastmile_qr_scan", "android": "https://dc.lft.to/lastmile_qr_scan"}, "bike_id": "331e7b0420276964ce3af651491f8d6f", "lat": 38.91768883333334, "name": "331e7b0420276964ce3af651491f8d6f"}, {"is_disabled": 0, "type": "electric_scooter", "fusion_lon": 0.0, "is_reserved": 0, "fusion_lat": 0.0, "lon": -77.044716, "rental_uris": {"ios": "https://dc.lft.to/lastmile_qr_scan", "android": "https://dc.lft.to/lastmile_qr_scan"}, "bike_id": "5cb45ce609db03a8f8c64f61118b6c20", "lat": 38.91536633333333, "name": "5cb45ce609db03a8f8c64f61118b6c20"}, {"is_disabled": 0, "type": "electric_bike", "fusion_lon": 0.0, "is_reserved": 0, "fusion_lat": 0.0, "lon": -77.02440083333333, "rental_uris": {"ios": "https://dc.lft.to/lastmile_qr_scan", "android": "https://dc.lft.to/lastmile_qr_scan"}, "bike_id": "24d4f81334fb9265edec9cf06bfb861d", "lat": 38.92601333333333, "name": "24d4f81334fb9265edec9cf06bfb861d"}, {"is_disabled": 0, "type": "electric_scooter", "fusion_lon": 0.0, "is_reserved": 0, "fusion_lat": 0.0, "lon": -77.05003816666667, "rental_uris": {"ios": "https://dc.lft.to/lastmile_qr_scan", "android": "https://dc.lft.to/lastmile_qr_scan"}, "bike_id": "c605328bfa5b68e6d2366ddcb3b93e8a", "lat": 38.89230333333333, "name": "c605328bfa5b68e6d2366ddcb3b93e8a"}, {"is_disabled": 0, "type": "electric_scooter", "fusion_lon": 0.0, "is_reserved": 0, "fusion_lat": 0.0, "lon": -76.99957316666666, "rental_uris": {"ios": "https://dc.lft.to/lastmile_qr_scan", "android": "https://dc.lft.to/lastmile_qr_scan"}, "bike_id": "6bc42001436a3adbb8948d1315d5f065", "lat": 38.9069935, "name": "6bc42001436a3adbb8948d1315d5f065"}, {"is_disabled": 0, "type": "electric_scooter", "fusion_lon": 0.0, "is_reserved": 0, "fusion_lat": 0.0, "lon": -77.03985516666667, "rental_uris": {"ios": "https://dc.lft.to/lastmile_qr_scan", "android": "https://dc.lft.to/lastmile_qr_scan"}, "bike_id": "321a8d65b86bf3ab8559c04a637b2494", "lat": 38.906036, "name": "321a8d65b86bf3ab8559c04a637b2494"}, {"is_disabled": 0, "type": "electric_scooter", "fusion_lon": 0.0, "is_reserved": 0, "fusion_lat": 0.0, "lon": -77.04231433333334, "rental_uris": {"ios": "https://dc.lft.to/lastmile_qr_scan", "android": "https://dc.lft.to/lastmile_qr_scan"}, "bike_id": "529d744b75a199d6deb136670922aaa6", "lat": 38.921598333333336, "name": "529d744b75a199d6deb136670922aaa6"}, {"is_disabled": 0, "type": "electric_bike", "fusion_lon": 0.0, "is_reserved": 0, "fusion_lat": 0.0, "lon": -77.10330666666667, "rental_uris": {"ios": "https://dc.lft.to/lastmile_qr_scan", "android": "https://dc.lft.to/lastmile_qr_scan"}, "bike_id": "c31fec2e436ac0fdaba01ff5494acdba", "lat": 38.83694466666667, "name": "c31fec2e436ac0fdaba01ff5494acdba"}, {"is_disabled": 0, "type": "electric_scooter", "fusion_lon": 0.0, "is_reserved": 0, "fusion_lat": 0.0, "lon": -77.0222, "rental_uris": {"ios": "https://dc.lft.to/lastmile_qr_scan", "android": "https://dc.lft.to/lastmile_qr_scan"}, "bike_id": "e6bc39678836c37e5bac1ed8a40bea8a", "lat": 38.924699, "name": "e6bc39678836c37e5bac1ed8a40bea8a"}, {"is_disabled": 0, "type": "electric_scooter", "fusion_lon": 0.0, "is_reserved": 0, "fusion_lat": 0.0, "lon": -77.00581666666666, "rental_uris": {"ios": "https://dc.lft.to/lastmile_qr_scan", "android": "https://dc.lft.to/lastmile_qr_scan"}, "bike_id": "67ae6cfd499d953a71d276242e65b007", "lat": 38.87523066666667, "name": "67ae6cfd499d953a71d276242e65b007"}, {"is_disabled": 0, "type": "electric_scooter", "fusion_lon": 0.0, "is_reserved": 0, "fusion_lat": 0.0, "lon": -77.019697, "rental_uris": {"ios": "https://dc.lft.to/lastmile_qr_scan", "android": "https://dc.lft.to/lastmile_qr_scan"}, "bike_id": "e13eb357acb0af294b22ce2a9c102b2b", "lat": 38.922498166666664, "name": "e13eb357acb0af294b22ce2a9c102b2b"}, {"is_disabled": 0, "type": "electric_scooter", "fusion_lon": 0.0, "is_reserved": 0, "fusion_lat": 0.0, "lon": -77.0092865, "rental_uris": {"ios": "https://dc.lft.to/lastmile_qr_scan", "android": "https://dc.lft.to/lastmile_qr_scan"}, "bike_id": "fc6a5f0721bea5fb4f7e7d0fc5fc0614", "lat": 38.896277833333336, "name": "fc6a5f0721bea5fb4f7e7d0fc5fc0614"}, {"is_disabled": 0, "type": "electric_scooter", "fusion_lon": 0.0, "is_reserved": 0, "fusion_lat": 0.0, "lon": -76.9916615, "rental_uris": {"ios": "https://dc.lft.to/lastmile_qr_scan", "android": "https://dc.lft.to/lastmile_qr_scan"}, "bike_id": "45fdeccf44031bf7ea2b045401513e26", "lat": 38.873367, "name": "45fdeccf44031bf7ea2b045401513e26"}, {"is_disabled": 0, "type": "electric_scooter", "fusion_lon": 0.0, "is_reserved": 0, "fusion_lat": 0.0, "lon": -77.00296866666666, "rental_uris": {"ios": "https://dc.lft.to/lastmile_qr_scan", "android": "https://dc.lft.to/lastmile_qr_scan"}, "bike_id": "0a507718aa84e3509dcae731399956e0", "lat": 38.8766805, "name": "0a507718aa84e3509dcae731399956e0"}, {"is_disabled": 0, "type": "electric_scooter", "fusion_lon": 0.0, "is_reserved": 0, "fusion_lat": 0.0, "lon": -77.01592866666667, "rental_uris": {"ios": "https://dc.lft.to/lastmile_qr_scan", "android": "https://dc.lft.to/lastmile_qr_scan"}, "bike_id": "edbe83f9c333441141ab66a3c46a0bb2", "lat": 38.87467483333333, "name": "edbe83f9c333441141ab66a3c46a0bb2"}, {"is_disabled": 0, "type": "electric_scooter", "fusion_lon": 0.0, "is_reserved": 0, "fusion_lat": 0.0, "lon": -77.01498283333333, "rental_uris": {"ios": "https://dc.lft.to/lastmile_qr_scan", "android": "https://dc.lft.to/lastmile_qr_scan"}, "bike_id": "809416ba579a3ba8e0de327976234097", "lat": 38.89319116666667, "name": "809416ba579a3ba8e0de327976234097"}, {"is_disabled": 0, "type": "electric_scooter", "fusion_lon": 0.0, "is_reserved": 0, "fusion_lat": 0.0, "lon": -77.062972, "rental_uris": {"ios": "https://dc.lft.to/lastmile_qr_scan", "android": "https://dc.lft.to/lastmile_qr_scan"}, "bike_id": "5b33c9c2f854cfe5a08f502393139d36", "lat": 38.903956666666666, "name": "5b33c9c2f854cfe5a08f502393139d36"}, {"is_disabled": 0, "type": "electric_scooter", "fusion_lon": 0.0, "is_reserved": 0, "fusion_lat": 0.0, "lon": -77.03196616666666, "rental_uris": {"ios": "https://dc.lft.to/lastmile_qr_scan", "android": "https://dc.lft.to/lastmile_qr_scan"}, "bike_id": "4245a55a7866cc29c829b9ded44d17a1", "lat": 38.9156685, "name": "4245a55a7866cc29c829b9ded44d17a1"}, {"is_disabled": 0, "type": "electric_scooter", "fusion_lon": 0.0, "is_reserved": 0, "fusion_lat": 0.0, "lon": -77.01767616666666, "rental_uris": {"ios": "https://dc.lft.to/lastmile_qr_scan", "android": "https://dc.lft.to/lastmile_qr_scan"}, "bike_id": "41365556f4da59b9309d7804ee3192dc", "lat": 38.8873995, "name": "41365556f4da59b9309d7804ee3192dc"}, {"is_disabled": 0, "type": "electric_scooter", "fusion_lon": 0.0, "is_reserved": 0, "fusion_lat": 0.0, "lon": -76.99303166666667, "rental_uris": {"ios": "https://dc.lft.to/lastmile_qr_scan", "android": "https://dc.lft.to/lastmile_qr_scan"}, "bike_id": "6026d441718b1ba1c7e968627aefb4d6", "lat": 38.90766033333333, "name": "6026d441718b1ba1c7e968627aefb4d6"}, {"is_disabled": 0, "type": "electric_bike", "fusion_lon": 0.0, "is_reserved": 0, "fusion_lat": 0.0, "lon": -76.95562283333334, "rental_uris": {"ios": "https://dc.lft.to/lastmile_qr_scan", "android": "https://dc.lft.to/lastmile_qr_scan"}, "bike_id": "28a9059d544ae28ea8f9387855870dfe", "lat": 38.98500033333333, "name": "28a9059d544ae28ea8f9387855870dfe"}, {"is_disabled": 0, "type": "electric_scooter", "fusion_lon": 0.0, "is_reserved": 0, "fusion_lat": 0.0, "lon": -77.0260985, "rental_uris": {"ios": "https://dc.lft.to/lastmile_qr_scan", "android": "https://dc.lft.to/lastmile_qr_scan"}, "bike_id": "aed07d4e9fd950926045499e936b2190", "lat": 38.929768, "name": "aed07d4e9fd950926045499e936b2190"}, {"is_disabled": 0, "type": "electric_scooter", "fusion_lon": 0.0, "is_reserved": 0, "fusion_lat": 0.0, "lon": -77.02424766666667, "rental_uris": {"ios": "https://dc.lft.to/lastmile_qr_scan", "android": "https://dc.lft.to/lastmile_qr_scan"}, "bike_id": "43faf5af997bb7fa6acf9d1713f56df0", "lat": 38.922691, "name": "43faf5af997bb7fa6acf9d1713f56df0"}, {"is_disabled": 0, "type": "electric_scooter", "fusion_lon": 0.0, "is_reserved": 0, "fusion_lat": 0.0, "lon": -77.04462816666667, "rental_uris": {"ios": "https://dc.lft.to/lastmile_qr_scan", "android": "https://dc.lft.to/lastmile_qr_scan"}, "bike_id": "3ad2880b750ebf332bd9294422af0fb2", "lat": 38.924710166666664, "name": "3ad2880b750ebf332bd9294422af0fb2"}, {"is_disabled": 0, "type": "electric_scooter", "fusion_lon": 0.0, "is_reserved": 0, "fusion_lat": 0.0, "lon": -77.023008, "rental_uris": {"ios": "https://dc.lft.to/lastmile_qr_scan", "android": "https://dc.lft.to/lastmile_qr_scan"}, "bike_id": "996aba1785ec52401bd94b70e442f1b3", "lat": 38.917874, "name": "996aba1785ec52401bd94b70e442f1b3"}, {"is_disabled": 0, "type": "electric_scooter", "fusion_lon": 0.0, "is_reserved": 0, "fusion_lat": 0.0, "lon": -77.01800383333334, "rental_uris": {"ios": "https://dc.lft.to/lastmile_qr_scan", "android": "https://dc.lft.to/lastmile_qr_scan"}, "bike_id": "abe56d8c628d0c296cb3b151b1a64dd6", "lat": 38.921372, "name": "abe56d8c628d0c296cb3b151b1a64dd6"}, {"is_disabled": 0, "type": "electric_scooter", "fusion_lon": 0.0, "is_reserved": 0, "fusion_lat": 0.0, "lon": -77.02986616666666, "rental_uris": {"ios": "https://dc.lft.to/lastmile_qr_scan", "android": "https://dc.lft.to/lastmile_qr_scan"}, "bike_id": "6bf5f00b4759652affdee81b6ad11a49", "lat": 38.942615333333336, "name": "6bf5f00b4759652affdee81b6ad11a49"}, {"is_disabled": 0, "type": "electric_scooter", "fusion_lon": 0.0, "is_reserved": 0, "fusion_lat": 0.0, "lon": -77.07313933333333, "rental_uris": {"ios": "https://dc.lft.to/lastmile_qr_scan", "android": "https://dc.lft.to/lastmile_qr_scan"}, "bike_id": "fb4363f9d3145bc76764f77dcf8ffcab", "lat": 38.92167333333333, "name": "fb4363f9d3145bc76764f77dcf8ffcab"}, {"is_disabled": 0, "type": "electric_scooter", "fusion_lon": 0.0, "is_reserved": 0, "fusion_lat": 0.0, "lon": -77.0215755, "rental_uris": {"ios": "https://dc.lft.to/lastmile_qr_scan", "android": "https://dc.lft.to/lastmile_qr_scan"}, "bike_id": "311771597ce93c23af8a7b6a8d5ff3cf", "lat": 38.92601666666667, "name": "311771597ce93c23af8a7b6a8d5ff3cf"}, {"is_disabled": 0, "type": "electric_scooter", "fusion_lon": 0.0, "is_reserved": 0, "fusion_lat": 0.0, "lon": -77.06003666666666, "rental_uris": {"ios": "https://dc.lft.to/lastmile_qr_scan", "android": "https://dc.lft.to/lastmile_qr_scan"}, "bike_id": "479087918f36f09ca4a78958805104c1", "lat": 38.927147833333336, "name": "479087918f36f09ca4a78958805104c1"}, {"is_disabled": 0, "type": "electric_scooter", "fusion_lon": 0.0, "is_reserved": 0, "fusion_lat": 0.0, "lon": -77.02408516666667, "rental_uris": {"ios": "https://dc.lft.to/lastmile_qr_scan", "android": "https://dc.lft.to/lastmile_qr_scan"}, "bike_id": "776c8f240d2f9c7ea96f8491fc114089", "lat": 38.921526666666665, "name": "776c8f240d2f9c7ea96f8491fc114089"}, {"is_disabled": 0, "type": "electric_scooter", "fusion_lon": 0.0, "is_reserved": 0, "fusion_lat": 0.0, "lon": -77.02322516666666, "rental_uris": {"ios": "https://dc.lft.to/lastmile_qr_scan", "android": "https://dc.lft.to/lastmile_qr_scan"}, "bike_id": "dea5fd0d6deb89fd887d70a2d911e31e", "lat": 38.9209135, "name": "dea5fd0d6deb89fd887d70a2d911e31e"}, {"is_disabled": 0, "type": "electric_scooter", "fusion_lon": 0.0, "is_reserved": 0, "fusion_lat": 0.0, "lon": -77.02600416666667, "rental_uris": {"ios": "https://dc.lft.to/lastmile_qr_scan", "android": "https://dc.lft.to/lastmile_qr_scan"}, "bike_id": "2567cdf506f4e4025145785d174d1e10", "lat": 38.900085833333335, "name": "2567cdf506f4e4025145785d174d1e10"}, {"is_disabled": 0, "type": "electric_scooter", "fusion_lon": 0.0, "is_reserved": 0, "fusion_lat": 0.0, "lon": -77.02655133333333, "rental_uris": {"ios": "https://dc.lft.to/lastmile_qr_scan", "android": "https://dc.lft.to/lastmile_qr_scan"}, "bike_id": "63f5aa699653cee93c033cade727ea46", "lat": 38.89590183333333, "name": "63f5aa699653cee93c033cade727ea46"}, {"is_disabled": 0, "type": "electric_scooter", "fusion_lon": 0.0, "is_reserved": 0, "fusion_lat": 0.0, "lon": -77.03173966666667, "rental_uris": {"ios": "https://dc.lft.to/lastmile_qr_scan", "android": "https://dc.lft.to/lastmile_qr_scan"}, "bike_id": "df8e873553aa4629bf03ddb1b132a02f", "lat": 38.899033833333334, "name": "df8e873553aa4629bf03ddb1b132a02f"}, {"is_disabled": 0, "type": "electric_scooter", "fusion_lon": 0.0, "is_reserved": 0, "fusion_lat": 0.0, "lon": -76.98237216666666, "rental_uris": {"ios": "https://dc.lft.to/lastmile_qr_scan", "android": "https://dc.lft.to/lastmile_qr_scan"}, "bike_id": "7f41ea9cea2790296f812ce334438336", "lat": 38.9089295, "name": "7f41ea9cea2790296f812ce334438336"}, {"is_disabled": 0, "type": "electric_scooter", "fusion_lon": 0.0, "is_reserved": 0, "fusion_lat": 0.0, "lon": -77.02096166666666, "rental_uris": {"ios": "https://dc.lft.to/lastmile_qr_scan", "android": "https://dc.lft.to/lastmile_qr_scan"}, "bike_id": "e0eecd187d0fa35dbd868ff6af62c42f", "lat": 38.921162333333335, "name": "e0eecd187d0fa35dbd868ff6af62c42f"}, {"is_disabled": 0, "type": "electric_scooter", "fusion_lon": 0.0, "is_reserved": 0, "fusion_lat": 0.0, "lon": -76.932197, "rental_uris": {"ios": "https://dc.lft.to/lastmile_qr_scan", "android": "https://dc.lft.to/lastmile_qr_scan"}, "bike_id": "7b0e31f52e4333f902f2b1f2b3d6d5cc", "lat": 38.88062033333333, "name": "7b0e31f52e4333f902f2b1f2b3d6d5cc"}, {"is_disabled": 0, "type": "electric_scooter", "fusion_lon": 0.0, "is_reserved": 0, "fusion_lat": 0.0, "lon": -77.04361783333333, "rental_uris": {"ios": "https://dc.lft.to/lastmile_qr_scan", "android": "https://dc.lft.to/lastmile_qr_scan"}, "bike_id": "e782f58f1858d3a11d6b1e163e1dd1c7", "lat": 38.904354833333336, "name": "e782f58f1858d3a11d6b1e163e1dd1c7"}, {"is_disabled": 0, "type": "electric_bike", "fusion_lon": 0.0, "is_reserved": 0, "fusion_lat": 0.0, "lon": -77.09524633333334, "rental_uris": {"ios": "https://dc.lft.to/lastmile_qr_scan", "android": "https://dc.lft.to/lastmile_qr_scan"}, "bike_id": "929577bd0795cd85fe07e6b1e1e433c1", "lat": 38.838090333333334, "name": "929577bd0795cd85fe07e6b1e1e433c1"}, {"is_disabled": 0, "type": "electric_scooter", "fusion_lon": 0.0, "is_reserved": 0, "fusion_lat": 0.0, "lon": -77.00566283333333, "rental_uris": {"ios": "https://dc.lft.to/lastmile_qr_scan", "android": "https://dc.lft.to/lastmile_qr_scan"}, "bike_id": "5793b74a3b77b5cc914e626185c87958", "lat": 38.8850385, "name": "5793b74a3b77b5cc914e626185c87958"}, {"is_disabled": 0, "type": "electric_scooter", "fusion_lon": 0.0, "is_reserved": 0, "fusion_lat": 0.0, "lon": -77.04873483333333, "rental_uris": {"ios": "https://dc.lft.to/lastmile_qr_scan", "android": "https://dc.lft.to/lastmile_qr_scan"}, "bike_id": "ab92bf93c425d98b916d3db1f551152c", "lat": 38.892745, "name": "ab92bf93c425d98b916d3db1f551152c"}, {"is_disabled": 0, "type": "electric_scooter", "fusion_lon": 0.0, "is_reserved": 0, "fusion_lat": 0.0, "lon": -77.08318766666666, "rental_uris": {"ios": "https://dc.lft.to/lastmile_qr_scan", "android": "https://dc.lft.to/lastmile_qr_scan"}, "bike_id": "242b27a0c4295fe2d6c85e02f0a5e897", "lat": 38.936043833333336, "name": "242b27a0c4295fe2d6c85e02f0a5e897"}, {"is_disabled": 0, "type": "electric_scooter", "fusion_lon": 0.0, "is_reserved": 0, "fusion_lat": 0.0, "lon": -76.981112, "rental_uris": {"ios": "https://dc.lft.to/lastmile_qr_scan", "android": "https://dc.lft.to/lastmile_qr_scan"}, "bike_id": "0eff77952b378013dc0222a15b37c84e", "lat": 38.914705, "name": "0eff77952b378013dc0222a15b37c84e"}, {"is_disabled": 0, "type": "electric_scooter", "fusion_lon": 0.0, "is_reserved": 0, "fusion_lat": 0.0, "lon": -76.9438105, "rental_uris": {"ios": "https://dc.lft.to/lastmile_qr_scan", "android": "https://dc.lft.to/lastmile_qr_scan"}, "bike_id": "873e692e26f11d577a19b5cc3648eb6d", "lat": 38.8911225, "name": "873e692e26f11d577a19b5cc3648eb6d"}, {"is_disabled": 0, "type": "electric_scooter", "fusion_lon": 0.0, "is_reserved": 0, "fusion_lat": 0.0, "lon": -77.03926816666667, "rental_uris": {"ios": "https://dc.lft.to/lastmile_qr_scan", "android": "https://dc.lft.to/lastmile_qr_scan"}, "bike_id": "34fcd58549bfae4d7f111e6ccf6ffd59", "lat": 38.89904333333333, "name": "34fcd58549bfae4d7f111e6ccf6ffd59"}, {"is_disabled": 0, "type": "electric_scooter", "fusion_lon": 0.0, "is_reserved": 0, "fusion_lat": 0.0, "lon": -77.0058975, "rental_uris": {"ios": "https://dc.lft.to/lastmile_qr_scan", "android": "https://dc.lft.to/lastmile_qr_scan"}, "bike_id": "08f56e79c21ab4c77f695c54e095e1f1", "lat": 38.87216433333333, "name": "08f56e79c21ab4c77f695c54e095e1f1"}, {"is_disabled": 0, "type": "electric_scooter", "fusion_lon": 0.0, "is_reserved": 0, "fusion_lat": 0.0, "lon": -77.02002383333334, "rental_uris": {"ios": "https://dc.lft.to/lastmile_qr_scan", "android": "https://dc.lft.to/lastmile_qr_scan"}, "bike_id": "73c03c45745e47b22a0e581db09f7efb", "lat": 38.89873983333333, "name": "73c03c45745e47b22a0e581db09f7efb"}, {"is_disabled": 0, "type": "electric_scooter", "fusion_lon": 0.0, "is_reserved": 0, "fusion_lat": 0.0, "lon": -76.9861485, "rental_uris": {"ios": "https://dc.lft.to/lastmile_qr_scan", "android": "https://dc.lft.to/lastmile_qr_scan"}, "bike_id": "5aaae6ce50557a6b3cc10f7d3f6a8d78", "lat": 38.9034745, "name": "5aaae6ce50557a6b3cc10f7d3f6a8d78"}, {"is_disabled": 0, "type": "electric_scooter", "fusion_lon": 0.0, "is_reserved": 0, "fusion_lat": 0.0, "lon": -76.97717566666667, "rental_uris": {"ios": "https://dc.lft.to/lastmile_qr_scan", "android": "https://dc.lft.to/lastmile_qr_scan"}, "bike_id": "cb95bc6e96dc3527387b1f6cb1c582aa", "lat": 38.8882315, "name": "cb95bc6e96dc3527387b1f6cb1c582aa"}, {"is_disabled": 0, "type": "electric_scooter", "fusion_lon": 0.0, "is_reserved": 0, "fusion_lat": 0.0, "lon": -77.02066066666667, "rental_uris": {"ios": "https://dc.lft.to/lastmile_qr_scan", "android": "https://dc.lft.to/lastmile_qr_scan"}, "bike_id": "208e636ba071e64814cb826df61edec4", "lat": 38.92285783333333, "name": "208e636ba071e64814cb826df61edec4"}, {"is_disabled": 0, "type": "electric_scooter", "fusion_lon": 0.0, "is_reserved": 0, "fusion_lat": 0.0, "lon": -77.03792433333334, "rental_uris": {"ios": "https://dc.lft.to/lastmile_qr_scan", "android": "https://dc.lft.to/lastmile_qr_scan"}, "bike_id": "0b639f359a8249b89517c53162398915", "lat": 38.919839, "name": "0b639f359a8249b89517c53162398915"}, {"is_disabled": 0, "type": "electric_bike", "fusion_lon": 0.0, "is_reserved": 0, "fusion_lat": 0.0, "lon": -76.983495, "rental_uris": {"ios": "https://dc.lft.to/lastmile_qr_scan", "android": "https://dc.lft.to/lastmile_qr_scan"}, "bike_id": "4982da1b6b324bc1fb8ad8ea0da7d3a8", "lat": 38.862610333333336, "name": "4982da1b6b324bc1fb8ad8ea0da7d3a8"}, {"is_disabled": 0, "type": "electric_scooter", "fusion_lon": 0.0, "is_reserved": 0, "fusion_lat": 0.0, "lon": -77.02213783333333, "rental_uris": {"ios": "https://dc.lft.to/lastmile_qr_scan", "android": "https://dc.lft.to/lastmile_qr_scan"}, "bike_id": "afb96556b09b4b5f56e347ead2e6cf3a", "lat": 38.92467166666667, "name": "afb96556b09b4b5f56e347ead2e6cf3a"}, {"is_disabled": 0, "type": "electric_scooter", "fusion_lon": 0.0, "is_reserved": 0, "fusion_lat": 0.0, "lon": -76.93976, "rental_uris": {"ios": "https://dc.lft.to/lastmile_qr_scan", "android": "https://dc.lft.to/lastmile_qr_scan"}, "bike_id": "a9d413f012c846e4089958bb337198a7", "lat": 38.8997135, "name": "a9d413f012c846e4089958bb337198a7"}, {"is_disabled": 0, "type": "electric_scooter", "fusion_lon": 0.0, "is_reserved": 0, "fusion_lat": 0.0, "lon": -77.0241715, "rental_uris": {"ios": "https://dc.lft.to/lastmile_qr_scan", "android": "https://dc.lft.to/lastmile_qr_scan"}, "bike_id": "823ba58a3cc9e68254a061f43cffc8ef", "lat": 38.89220666666667, "name": "823ba58a3cc9e68254a061f43cffc8ef"}, {"is_disabled": 0, "type": "electric_scooter", "fusion_lon": 0.0, "is_reserved": 0, "fusion_lat": 0.0, "lon": -77.05001283333333, "rental_uris": {"ios": "https://dc.lft.to/lastmile_qr_scan", "android": "https://dc.lft.to/lastmile_qr_scan"}, "bike_id": "4d7c54afb4b3b7027b09152cc1f97e7c", "lat": 38.89230033333333, "name": "4d7c54afb4b3b7027b09152cc1f97e7c"}, {"is_disabled": 0, "type": "electric_scooter", "fusion_lon": 0.0, "is_reserved": 0, "fusion_lat": 0.0, "lon": -77.02434266666667, "rental_uris": {"ios": "https://dc.lft.to/lastmile_qr_scan", "android": "https://dc.lft.to/lastmile_qr_scan"}, "bike_id": "25e364bfb68585584583dc6f37fb36af", "lat": 38.918035, "name": "25e364bfb68585584583dc6f37fb36af"}, {"is_disabled": 0, "type": "electric_scooter", "fusion_lon": 0.0, "is_reserved": 0, "fusion_lat": 0.0, "lon": -77.0149445, "rental_uris": {"ios": "https://dc.lft.to/lastmile_qr_scan", "android": "https://dc.lft.to/lastmile_qr_scan"}, "bike_id": "c61550ee2abf5e9187b03fb71dc58e64", "lat": 38.92679616666667, "name": "c61550ee2abf5e9187b03fb71dc58e64"}, {"is_disabled": 0, "type": "electric_bike", "fusion_lon": 0.0, "is_reserved": 0, "fusion_lat": 0.0, "lon": -77.12937633333334, "rental_uris": {"ios": "https://dc.lft.to/lastmile_qr_scan", "android": "https://dc.lft.to/lastmile_qr_scan"}, "bike_id": "8e4b0ea0e50433d2231496b98dcc55b3", "lat": 38.86590433333333, "name": "8e4b0ea0e50433d2231496b98dcc55b3"}, {"is_disabled": 0, "type": "electric_scooter", "fusion_lon": 0.0, "is_reserved": 0, "fusion_lat": 0.0, "lon": -77.01886033333334, "rental_uris": {"ios": "https://dc.lft.to/lastmile_qr_scan", "android": "https://dc.lft.to/lastmile_qr_scan"}, "bike_id": "b8aef13ce83062f1aaaeea3d29fd6266", "lat": 38.909726, "name": "b8aef13ce83062f1aaaeea3d29fd6266"}, {"is_disabled": 0, "type": "electric_scooter", "fusion_lon": 0.0, "is_reserved": 0, "fusion_lat": 0.0, "lon": -77.00331966666667, "rental_uris": {"ios": "https://dc.lft.to/lastmile_qr_scan", "android": "https://dc.lft.to/lastmile_qr_scan"}, "bike_id": "91f5d0b1ecdd10ae6ffaa557d23175af", "lat": 38.893631666666664, "name": "91f5d0b1ecdd10ae6ffaa557d23175af"}, {"is_disabled": 0, "type": "electric_bike", "fusion_lon": 0.0, "is_reserved": 0, "fusion_lat": 0.0, "lon": -77.03572683333333, "rental_uris": {"ios": "https://dc.lft.to/lastmile_qr_scan", "android": "https://dc.lft.to/lastmile_qr_scan"}, "bike_id": "439d5c99e5c020cdb8486520a881a88f", "lat": 38.964695666666664, "name": "439d5c99e5c020cdb8486520a881a88f"}, {"is_disabled": 0, "type": "electric_scooter", "fusion_lon": 0.0, "is_reserved": 0, "fusion_lat": 0.0, "lon": -77.025156, "rental_uris": {"ios": "https://dc.lft.to/lastmile_qr_scan", "android": "https://dc.lft.to/lastmile_qr_scan"}, "bike_id": "d857269cae20321507c6ebc24bd1015b", "lat": 38.920846833333336, "name": "d857269cae20321507c6ebc24bd1015b"}, {"is_disabled": 0, "type": "electric_bike", "fusion_lon": 0.0, "is_reserved": 0, "fusion_lat": 0.0, "lon": -77.00760216666667, "rental_uris": {"ios": "https://dc.lft.to/lastmile_qr_scan", "android": "https://dc.lft.to/lastmile_qr_scan"}, "bike_id": "392a88c779f77baba368c0b41cf8685c", "lat": 38.9978375, "name": "392a88c779f77baba368c0b41cf8685c"}, {"is_disabled": 0, "type": "electric_bike", "fusion_lon": 0.0, "is_reserved": 0, "fusion_lat": 0.0, "lon": -77.09623733333333, "rental_uris": {"ios": "https://dc.lft.to/lastmile_qr_scan", "android": "https://dc.lft.to/lastmile_qr_scan"}, "bike_id": "32ce99a2361dc878df6ea9be59b12ae3", "lat": 38.952446, "name": "32ce99a2361dc878df6ea9be59b12ae3"}, {"is_disabled": 0, "type": "electric_bike", "fusion_lon": 0.0, "is_reserved": 0, "fusion_lat": 0.0, "lon": -77.01008216666666, "rental_uris": {"ios": "https://dc.lft.to/lastmile_qr_scan", "android": "https://dc.lft.to/lastmile_qr_scan"}, "bike_id": "0e6e761e29cc79b305bd366467ae1b0b", "lat": 38.879660333333334, "name": "0e6e761e29cc79b305bd366467ae1b0b"}, {"is_disabled": 0, "type": "electric_scooter", "fusion_lon": 0.0, "is_reserved": 0, "fusion_lat": 0.0, "lon": -77.02264633333333, "rental_uris": {"ios": "https://dc.lft.to/lastmile_qr_scan", "android": "https://dc.lft.to/lastmile_qr_scan"}, "bike_id": "3b46479945ff4072e3f6829ed2b5d2f1", "lat": 38.92463433333333, "name": "3b46479945ff4072e3f6829ed2b5d2f1"}, {"is_disabled": 0, "type": "electric_bike", "fusion_lon": 0.0, "is_reserved": 0, "fusion_lat": 0.0, "lon": -77.00223483333333, "rental_uris": {"ios": "https://dc.lft.to/lastmile_qr_scan", "android": "https://dc.lft.to/lastmile_qr_scan"}, "bike_id": "d0b458f0597f45298fcdcbf26a71a77e", "lat": 38.936053666666666, "name": "d0b458f0597f45298fcdcbf26a71a77e"}, {"is_disabled": 0, "type": "electric_scooter", "fusion_lon": 0.0, "is_reserved": 0, "fusion_lat": 0.0, "lon": -77.039185, "rental_uris": {"ios": "https://dc.lft.to/lastmile_qr_scan", "android": "https://dc.lft.to/lastmile_qr_scan"}, "bike_id": "fbf9e0533aa874b19de569c99eb7a1bb", "lat": 38.92476816666667, "name": "fbf9e0533aa874b19de569c99eb7a1bb"}, {"is_disabled": 0, "type": "electric_scooter", "fusion_lon": 0.0, "is_reserved": 0, "fusion_lat": 0.0, "lon": -77.0420775, "rental_uris": {"ios": "https://dc.lft.to/lastmile_qr_scan", "android": "https://dc.lft.to/lastmile_qr_scan"}, "bike_id": "378a36d7967a3e6d16a2b93005b737c3", "lat": 38.90771983333333, "name": "378a36d7967a3e6d16a2b93005b737c3"}, {"is_disabled": 0, "type": "electric_scooter", "fusion_lon": 0.0, "is_reserved": 0, "fusion_lat": 0.0, "lon": -77.06083466666666, "rental_uris": {"ios": "https://dc.lft.to/lastmile_qr_scan", "android": "https://dc.lft.to/lastmile_qr_scan"}, "bike_id": "18e99ba7958003f1f1e3ccabcd6c8916", "lat": 38.911883333333336, "name": "18e99ba7958003f1f1e3ccabcd6c8916"}, {"is_disabled": 0, "type": "electric_scooter", "fusion_lon": 0.0, "is_reserved": 0, "fusion_lat": 0.0, "lon": -77.04049866666666, "rental_uris": {"ios": "https://dc.lft.to/lastmile_qr_scan", "android": "https://dc.lft.to/lastmile_qr_scan"}, "bike_id": "762967330612c13a11594f0a3363ea58", "lat": 38.90609166666667, "name": "762967330612c13a11594f0a3363ea58"}, {"is_disabled": 0, "type": "electric_scooter", "fusion_lon": 0.0, "is_reserved": 0, "fusion_lat": 0.0, "lon": -77.03251416666667, "rental_uris": {"ios": "https://dc.lft.to/lastmile_qr_scan", "android": "https://dc.lft.to/lastmile_qr_scan"}, "bike_id": "ab47f1cc3872ff29a81dce9907639d96", "lat": 38.914064833333335, "name": "ab47f1cc3872ff29a81dce9907639d96"}, {"is_disabled": 0, "type": "electric_scooter", "fusion_lon": 0.0, "is_reserved": 0, "fusion_lat": 0.0, "lon": -77.0243825, "rental_uris": {"ios": "https://dc.lft.to/lastmile_qr_scan", "android": "https://dc.lft.to/lastmile_qr_scan"}, "bike_id": "d88773051c5b20a56297d91be9d3a892", "lat": 38.9374855, "name": "d88773051c5b20a56297d91be9d3a892"}, {"is_disabled": 0, "type": "electric_scooter", "fusion_lon": 0.0, "is_reserved": 0, "fusion_lat": 0.0, "lon": -77.02851583333333, "rental_uris": {"ios": "https://dc.lft.to/lastmile_qr_scan", "android": "https://dc.lft.to/lastmile_qr_scan"}, "bike_id": "085e5385b59c9763ca31f8f7d2daf4f5", "lat": 38.898428833333334, "name": "085e5385b59c9763ca31f8f7d2daf4f5"}, {"is_disabled": 0, "type": "electric_scooter", "fusion_lon": 0.0, "is_reserved": 0, "fusion_lat": 0.0, "lon": -77.01925283333334, "rental_uris": {"ios": "https://dc.lft.to/lastmile_qr_scan", "android": "https://dc.lft.to/lastmile_qr_scan"}, "bike_id": "e4677197f7278241d3ad54ab9dea7035", "lat": 38.9203315, "name": "e4677197f7278241d3ad54ab9dea7035"}, {"is_disabled": 0, "type": "electric_scooter", "fusion_lon": 0.0, "is_reserved": 0, "fusion_lat": 0.0, "lon": -77.05149133333333, "rental_uris": {"ios": "https://dc.lft.to/lastmile_qr_scan", "android": "https://dc.lft.to/lastmile_qr_scan"}, "bike_id": "ff5cb2c9c3275f86c5c7a2b6b40660c6", "lat": 38.9062965, "name": "ff5cb2c9c3275f86c5c7a2b6b40660c6"}, {"is_disabled": 0, "type": "electric_scooter", "fusion_lon": 0.0, "is_reserved": 0, "fusion_lat": 0.0, "lon": -76.98560633333334, "rental_uris": {"ios": "https://dc.lft.to/lastmile_qr_scan", "android": "https://dc.lft.to/lastmile_qr_scan"}, "bike_id": "b46ba05ed14da3608a29f91a631f35de", "lat": 38.89619866666666, "name": "b46ba05ed14da3608a29f91a631f35de"}, {"is_disabled": 0, "type": "electric_scooter", "fusion_lon": 0.0, "is_reserved": 0, "fusion_lat": 0.0, "lon": -77.05682616666667, "rental_uris": {"ios": "https://dc.lft.to/lastmile_qr_scan", "android": "https://dc.lft.to/lastmile_qr_scan"}, "bike_id": "c73edcf671b4bd66ae59fb246e17fc0a", "lat": 38.923312, "name": "c73edcf671b4bd66ae59fb246e17fc0a"}, {"is_disabled": 0, "type": "electric_scooter", "fusion_lon": 0.0, "is_reserved": 0, "fusion_lat": 0.0, "lon": -77.03180566666667, "rental_uris": {"ios": "https://dc.lft.to/lastmile_qr_scan", "android": "https://dc.lft.to/lastmile_qr_scan"}, "bike_id": "ef5325ae9b142d105355db6e87dad46e", "lat": 38.89449533333333, "name": "ef5325ae9b142d105355db6e87dad46e"}, {"is_disabled": 0, "type": "electric_scooter", "fusion_lon": 0.0, "is_reserved": 0, "fusion_lat": 0.0, "lon": -77.010164, "rental_uris": {"ios": "https://dc.lft.to/lastmile_qr_scan", "android": "https://dc.lft.to/lastmile_qr_scan"}, "bike_id": "1cc4e023c73256fa99ed4ad2a4b3cbb7", "lat": 38.914088166666666, "name": "1cc4e023c73256fa99ed4ad2a4b3cbb7"}, {"is_disabled": 0, "type": "electric_bike", "fusion_lon": 0.0, "is_reserved": 0, "fusion_lat": 0.0, "lon": -77.04301216666667, "rental_uris": {"ios": "https://dc.lft.to/lastmile_qr_scan", "android": "https://dc.lft.to/lastmile_qr_scan"}, "bike_id": "3a0b2e6e54f7378c9ef47cf49f802fa3", "lat": 38.9003545, "name": "3a0b2e6e54f7378c9ef47cf49f802fa3"}, {"is_disabled": 0, "type": "electric_scooter", "fusion_lon": 0.0, "is_reserved": 0, "fusion_lat": 0.0, "lon": -77.05257416666667, "rental_uris": {"ios": "https://dc.lft.to/lastmile_qr_scan", "android": "https://dc.lft.to/lastmile_qr_scan"}, "bike_id": "dda41fe15ad9b22ccdd7cd469cde1826", "lat": 38.9237595, "name": "dda41fe15ad9b22ccdd7cd469cde1826"}, {"is_disabled": 0, "type": "electric_scooter", "fusion_lon": 0.0, "is_reserved": 0, "fusion_lat": 0.0, "lon": -77.07091466666667, "rental_uris": {"ios": "https://dc.lft.to/lastmile_qr_scan", "android": "https://dc.lft.to/lastmile_qr_scan"}, "bike_id": "1e3370fb10b375132c0e11dedcccdb2e", "lat": 38.908648166666666, "name": "1e3370fb10b375132c0e11dedcccdb2e"}, {"is_disabled": 0, "type": "electric_bike", "fusion_lon": 0.0, "is_reserved": 0, "fusion_lat": 0.0, "lon": -77.04967333333333, "rental_uris": {"ios": "https://dc.lft.to/lastmile_qr_scan", "android": "https://dc.lft.to/lastmile_qr_scan"}, "bike_id": "4627e7f30f6809b2ca00023ad9df7e7c", "lat": 38.852889166666664, "name": "4627e7f30f6809b2ca00023ad9df7e7c"}, {"is_disabled": 0, "type": "electric_scooter", "fusion_lon": 0.0, "is_reserved": 0, "fusion_lat": 0.0, "lon": -76.93389716666667, "rental_uris": {"ios": "https://dc.lft.to/lastmile_qr_scan", "android": "https://dc.lft.to/lastmile_qr_scan"}, "bike_id": "f091f7f0cf07e53bab82baebcd6ee7c5", "lat": 38.8990925, "name": "f091f7f0cf07e53bab82baebcd6ee7c5"},