{"data": {"bikes": [{"lon": -76.98334566666666, "bike_id": "1a751f2dc600fdc119e700231749fdf6", "lat": 38.89546883333333, "fusion_lon": 0.0, "fusion_lat": 0.0, "type": "electric_scooter", "name": "1a751f2dc600fdc119e700231749fdf6", "is_disabled": 0, "rental_uris": {"ios": "https://dc.lft.to/lastmile_qr_scan", "android": "https://dc.lft.to/lastmile_qr_scan"}, "is_reserved": 0}, {"lon": -76.97887483333334, "bike_id": "c74247f856730448900af5dbfc890723", "lat": 38.88539516666667, "fusion_lon": 0.0, "fusion_lat": 0.0, "type": "electric_scooter", "name": "c74247f856730448900af5dbfc890723", "is_disabled": 0, "rental_uris": {"ios": "https://dc.lft.to/lastmile_qr_scan", "android": "https://dc.lft.to/lastmile_qr_scan"}, "is_reserved": 0}, {"lon": -77.07606983333334, "bike_id": "593d880e03bdef9db1583e0df69db1ff", "lat": 38.920596333333336, "fusion_lon": 0.0, "fusion_lat": 0.0, "type": "electric_scooter", "name": "593d880e03bdef9db1583e0df69db1ff", "is_disabled": 0, "rental_uris": {"ios": "https://dc.lft.to/lastmile_qr_scan", "android": "https://dc.lft.to/lastmile_qr_scan"}, "is_reserved": 0}, {"lon": -77.03157133333333, "bike_id": "eb5f7f5d68f92bfdc4332cecb58d51e5", "lat": 38.89226466666667, "fusion_lon": 0.0, "fusion_lat": 0.0, "type": "electric_scooter", "name": "eb5f7f5d68f92bfdc4332cecb58d51e5", "is_disabled": 0, "rental_uris": {"ios": "https://dc.lft.to/lastmile_qr_scan", "android": "https://dc.lft.to/lastmile_qr_scan"}, "is_reserved": 0}, {"lon": -77.03249683333334, "bike_id": "d2f4e11ae5e577b236c8b3a92979e834", "lat": 38.927724833333336, "fusion_lon": 0.0, "fusion_lat": 0.0, "type": "electric_scooter", "name": "d2f4e11ae5e577b236c8b3a92979e834", "is_disabled": 0, "rental_uris": {"ios": "https://dc.lft.to/lastmile_qr_scan", "android": "https://dc.lft.to/lastmile_qr_scan"}, "is_reserved": 0}, {"lon": -76.976009, "bike_id": "724ff5f31d978779b2d2f2c334593330", "lat": 38.897513333333336, "fusion_lon": 0.0, "fusion_lat": 0.0, "type": "electric_scooter", "name": "724ff5f31d978779b2d2f2c334593330", "is_disabled": 0, "rental_uris": {"ios": "https://dc.lft.to/lastmile_qr_scan", "android": "https://dc.lft.to/lastmile_qr_scan"}, "is_reserved": 0}, {"lon": -77.11797766666666, "bike_id": "60d8affa52fcb4b68b42ec52fd66c521", "lat": 38.87376066666667, "fusion_lon": 0.0, "fusion_lat": 0.0, "type": "electric_bike", "name": "60d8affa52fcb4b68b42ec52fd66c521", "is_disabled": 0, "rental_uris": {"ios": "https://dc.lft.to/lastmile_qr_scan", "android": "https://dc.lft.to/lastmile_qr_scan"}, "is_reserved": 0}, {"lon": -76.99505016666667, "bike_id": "0baa1c7c5a1064287fdb6cedb7df2c0a", "lat": 38.89766916666667, "fusion_lon": 0.0, "fusion_lat": 0.0, "type": "electric_scooter", "name": "0baa1c7c5a1064287fdb6cedb7df2c0a", "is_disabled": 0, "rental_uris": {"ios": "https://dc.lft.to/lastmile_qr_scan", "android": "https://dc.lft.to/lastmile_qr_scan"}, "is_reserved": 0}, {"lon": -77.04177183333333, "bike_id": "d8c3786e36b68bf9c056dd123341c989", "lat": 38.901282333333334, "fusion_lon": 0.0, "fusion_lat": 0.0, "type": "electric_scooter", "name": "d8c3786e36b68bf9c056dd123341c989", "is_disabled": 0, "rental_uris": {"ios": "https://dc.lft.to/lastmile_qr_scan", "android": "https://dc.lft.to/lastmile_qr_scan"}, "is_reserved": 0}, {"lon": -77.0175645, "bike_id": "e1971c1d7347d1901bfdaf986c1a48cf", "lat": 38.882081, "fusion_lon": 0.0, "fusion_lat": 0.0, "type": "electric_scooter", "name": "e1971c1d7347d1901bfdaf986c1a48cf", "is_disabled": 0, "rental_uris": {"ios": "https://dc.lft.to/lastmile_qr_scan", "android": "https://dc.lft.to/lastmile_qr_scan"}, "is_reserved": 0}, {"lon": -77.02516133333333, "bike_id": "7ab99d9fdacf554b5464961d2f730ce2", "lat": 38.942100833333335, "fusion_lon": 0.0, "fusion_lat": 0.0, "type": "electric_scooter", "name": "7ab99d9fdacf554b5464961d2f730ce2", "is_disabled": 0, "rental_uris": {"ios": "https://dc.lft.to/lastmile_qr_scan", "android": "https://dc.lft.to/lastmile_qr_scan"}, "is_reserved": 0}, {"lon": -77.01114333333334, "bike_id": "f56c1f91558084eadca32bfc5e54f3a3", "lat": 38.8960385, "fusion_lon": 0.0, "fusion_lat": 0.0, "type": "electric_scooter", "name": "f56c1f91558084eadca32bfc5e54f3a3", "is_disabled": 0, "rental_uris": {"ios": "https://dc.lft.to/lastmile_qr_scan", "android": "https://dc.lft.to/lastmile_qr_scan"}, "is_reserved": 0}, {"lon": -77.00536283333334, "bike_id": "b3e9cd065e0682c78012c29e2298f938", "lat": 38.875449, "fusion_lon": 0.0, "fusion_lat": 0.0, "type": "electric_scooter", "name": "b3e9cd065e0682c78012c29e2298f938", "is_disabled": 0, "rental_uris": {"ios": "https://dc.lft.to/lastmile_qr_scan", "android": "https://dc.lft.to/lastmile_qr_scan"}, "is_reserved": 0}, {"lon": -76.99703816666667, "bike_id": "8582338f8478504be27baf07f6c0c104", "lat": 38.84434066666667, "fusion_lon": 0.0, "fusion_lat": 0.0, "type": "electric_scooter", "name": "8582338f8478504be27baf07f6c0c104", "is_disabled": 0, "rental_uris": {"ios": "https://dc.lft.to/lastmile_qr_scan", "android": "https://dc.lft.to/lastmile_qr_scan"}, "is_reserved": 0}, {"lon": -77.036607, "bike_id": "81ea7874c48532e03fe67c0504c3486f", "lat": 38.917342166666664, "fusion_lon": 0.0, "fusion_lat": 0.0, "type": "electric_scooter", "name": "81ea7874c48532e03fe67c0504c3486f", "is_disabled": 0, "rental_uris": {"ios": "https://dc.lft.to/lastmile_qr_scan", "android": "https://dc.lft.to/lastmile_qr_scan"}, "is_reserved": 0}, {"lon": -76.92526033333333, "bike_id": "cc14505af2ecbd5d357873429ceaae6f", "lat": 38.88342466666667, "fusion_lon": 0.0, "fusion_lat": 0.0, "type": "electric_bike", "name": "cc14505af2ecbd5d357873429ceaae6f", "is_disabled": 0, "rental_uris": {"ios": "https://dc.lft.to/lastmile_qr_scan", "android": "https://dc.lft.to/lastmile_qr_scan"}, "is_reserved": 0}, {"lon": -76.9354405, "bike_id": "a304e885b787488a27750d734a8c7114", "lat": 38.9556335, "fusion_lon": 0.0, "fusion_lat": 0.0, "type": "electric_bike", "name": "a304e885b787488a27750d734a8c7114", "is_disabled": 0, "rental_uris": {"ios": "https://dc.lft.to/lastmile_qr_scan", "android": "https://dc.lft.to/lastmile_qr_scan"}, "is_reserved": 0}, {"lon": -76.985571, "bike_id": "b9f7c681840e684d275abdaa8beb9a75", "lat": 38.910375, "fusion_lon": 0.0, "fusion_lat": 0.0, "type": "electric_scooter", "name": "b9f7c681840e684d275abdaa8beb9a75", "is_disabled": 0, "rental_uris": {"ios": "https://dc.lft.to/lastmile_qr_scan", "android": "https://dc.lft.to/lastmile_qr_scan"}, "is_reserved": 0}, {"lon": -77.03807033333334, "bike_id": "7b923e3c0c61ff9c09ecf0d546280681", "lat": 38.92067433333333, "fusion_lon": 0.0, "fusion_lat": 0.0, "type": "electric_scooter", "name": "7b923e3c0c61ff9c09ecf0d546280681", "is_disabled": 0, "rental_uris": {"ios": "https://dc.lft.to/lastmile_qr_scan", "android": "https://dc.lft.to/lastmile_qr_scan"}, "is_reserved": 0}, {"lon": -77.044497, "bike_id": "df342cfa64ce201c777cab7e07a6ac05", "lat": 38.914623666666664, "fusion_lon": 0.0, "fusion_lat": 0.0, "type": "electric_scooter", "name": "df342cfa64ce201c777cab7e07a6ac05", "is_disabled": 0, "rental_uris": {"ios": "https://dc.lft.to/lastmile_qr_scan", "android": "https://dc.lft.to/lastmile_qr_scan"}, "is_reserved": 0}, {"lon": -77.08050983333334, "bike_id": "127eb3d09bd460a7e21c49ed41389794", "lat": 38.92062466666667, "fusion_lon": 0.0, "fusion_lat": 0.0, "type": "electric_bike", "name": "127eb3d09bd460a7e21c49ed41389794", "is_disabled": 0, "rental_uris": {"ios": "https://dc.lft.to/lastmile_qr_scan", "android": "https://dc.lft.to/lastmile_qr_scan"}, "is_reserved": 0}, {"lon": -77.05037833333333, "bike_id": "b2d0037d1bed87036570766b96f7a593", "lat": 38.92387866666667, "fusion_lon": 0.0, "fusion_lat": 0.0, "type": "electric_scooter", "name": "b2d0037d1bed87036570766b96f7a593", "is_disabled": 0, "rental_uris": {"ios": "https://dc.lft.to/lastmile_qr_scan", "android": "https://dc.lft.to/lastmile_qr_scan"}, "is_reserved": 0}, {"lon": -77.04119183333333, "bike_id": "671f911ba6d77b53cf693c0b1a8fda60", "lat": 38.944080666666665, "fusion_lon": 0.0, "fusion_lat": 0.0, "type": "electric_bike", "name": "671f911ba6d77b53cf693c0b1a8fda60", "is_disabled": 0, "rental_uris": {"ios": "https://dc.lft.to/lastmile_qr_scan", "android": "https://dc.lft.to/lastmile_qr_scan"}, "is_reserved": 0}, {"lon": -77.05213633333334, "bike_id": "954b1b4a4c626af5b813db3bf78c598c", "lat": 38.9247935, "fusion_lon": 0.0, "fusion_lat": 0.0, "type": "electric_scooter", "name": "954b1b4a4c626af5b813db3bf78c598c", "is_disabled": 0, "rental_uris": {"ios": "https://dc.lft.to/lastmile_qr_scan", "android": "https://dc.lft.to/lastmile_qr_scan"}, "is_reserved": 0}, {"lon": -77.02785766666666, "bike_id": "0290907403bcc1c5658b7ed5c765fd62", "lat": 38.927822, "fusion_lon": 0.0, "fusion_lat": 0.0, "type": "electric_scooter", "name": "0290907403bcc1c5658b7ed5c765fd62", "is_disabled": 0, "rental_uris": {"ios": "https://dc.lft.to/lastmile_qr_scan", "android": "https://dc.lft.to/lastmile_qr_scan"}, "is_reserved": 0}, {"lon": -77.02509916666666, "bike_id": "132937cae21a6e0adbb43610d7341bb7", "lat": 38.93411783333333, "fusion_lon": 0.0, "fusion_lat": 0.0, "type": "electric_bike", "name": "132937cae21a6e0adbb43610d7341bb7", "is_disabled": 0, "rental_uris": {"ios": "https://dc.lft.to/lastmile_qr_scan", "android": "https://dc.lft.to/lastmile_qr_scan"}, "is_reserved": 0}, {"lon": -76.98507833333333, "bike_id": "72dd8dfb6c0f805e31f0a7988020b223", "lat": 38.86643683333333, "fusion_lon": 0.0, "fusion_lat": 0.0, "type": "electric_scooter", "name": "72dd8dfb6c0f805e31f0a7988020b223", "is_disabled": 0, "rental_uris": {"ios": "https://dc.lft.to/lastmile_qr_scan", "android": "https://dc.lft.to/lastmile_qr_scan"}, "is_reserved": 0}, {"lon": -76.976014, "bike_id": "e0d01806a18e904674262065726a4079", "lat": 38.9057045, "fusion_lon": 0.0, "fusion_lat": 0.0, "type": "electric_scooter", "name": "e0d01806a18e904674262065726a4079", "is_disabled": 0, "rental_uris": {"ios": "https://dc.lft.to/lastmile_qr_scan", "android": "https://dc.lft.to/lastmile_qr_scan"}, "is_reserved": 0}, {"lon": -77.02464333333333, "bike_id": "f6a44039687f866fa0e688f2e1bbae25", "lat": 38.93881433333333, "fusion_lon": 0.0, "fusion_lat": 0.0, "type": "electric_scooter", "name": "f6a44039687f866fa0e688f2e1bbae25", "is_disabled": 0, "rental_uris": {"ios": "https://dc.lft.to/lastmile_qr_scan", "android": "https://dc.lft.to/lastmile_qr_scan"}, "is_reserved": 0}, {"lon": -76.937295, "bike_id": "de774892af0bba5394a247c0ddb1f98a", "lat": 38.890115, "fusion_lon": 0.0, "fusion_lat": 0.0, "type": "electric_scooter", "name": "de774892af0bba5394a247c0ddb1f98a", "is_disabled": 0, "rental_uris": {"ios": "https://dc.lft.to/lastmile_qr_scan", "android": "https://dc.lft.to/lastmile_qr_scan"}, "is_reserved": 0}, {"lon": -77.00529716666667, "bike_id": "016d1c0e7dfc9ea93ef847da2da1c0a4", "lat": 38.92977716666667, "fusion_lon": 0.0, "fusion_lat": 0.0, "type": "electric_scooter", "name": "016d1c0e7dfc9ea93ef847da2da1c0a4", "is_disabled": 0, "rental_uris": {"ios": "https://dc.lft.to/lastmile_qr_scan", "android": "https://dc.lft.to/lastmile_qr_scan"}, "is_reserved": 0}, {"lon": -77.04653083333334, "bike_id": "531aae87137bd20f1135a48327b96b73", "lat": 38.90973616666667, "fusion_lon": 0.0, "fusion_lat": 0.0, "type": "electric_scooter", "name": "531aae87137bd20f1135a48327b96b73", "is_disabled": 0, "rental_uris": {"ios": "https://dc.lft.to/lastmile_qr_scan", "android": "https://dc.lft.to/lastmile_qr_scan"}, "is_reserved": 0}, {"lon": -77.00208016666667, "bike_id": "03aebf86719a95317db5d89bffeed653", "lat": 38.895387666666664, "fusion_lon": 0.0, "fusion_lat": 0.0, "type": "electric_scooter", "name": "03aebf86719a95317db5d89bffeed653", "is_disabled": 0, "rental_uris": {"ios": "https://dc.lft.to/lastmile_qr_scan", "android": "https://dc.lft.to/lastmile_qr_scan"}, "is_reserved": 0}, {"lon": -77.06727783333334, "bike_id": "3983816bd33ed9c92d55e6ceb13f2235", "lat": 38.903619166666665, "fusion_lon": 0.0, "fusion_lat": 0.0, "type": "electric_bike", "name": "3983816bd33ed9c92d55e6ceb13f2235", "is_disabled": 0, "rental_uris": {"ios": "https://dc.lft.to/lastmile_qr_scan", "android": "https://dc.lft.to/lastmile_qr_scan"}, "is_reserved": 0}, {"lon": -77.02207733333333, "bike_id": "f47af8f94af02b802693f5f54539cf89", "lat": 38.9130165, "fusion_lon": 0.0, "fusion_lat": 0.0, "type": "electric_scooter", "name": "f47af8f94af02b802693f5f54539cf89", "is_disabled": 0, "rental_uris": {"ios": "https://dc.lft.to/lastmile_qr_scan", "android": "https://dc.lft.to/lastmile_qr_scan"}, "is_reserved": 0}, {"lon": -76.994763, "bike_id": "e90761c8e154919af56b9fb40a1c2da8", "lat": 38.922649166666666, "fusion_lon": 0.0, "fusion_lat": 0.0, "type": "electric_scooter", "name": "e90761c8e154919af56b9fb40a1c2da8", "is_disabled": 0, "rental_uris": {"ios": "https://dc.lft.to/lastmile_qr_scan", "android": "https://dc.lft.to/lastmile_qr_scan"}, "is_reserved": 0}, {"lon": -77.0590545, "bike_id": "da4dd06b10671a20c9b5a46f58755708", "lat": 38.901586, "fusion_lon": 0.0, "fusion_lat": 0.0, "type": "electric_scooter", "name": "da4dd06b10671a20c9b5a46f58755708", "is_disabled": 0, "rental_uris": {"ios": "https://dc.lft.to/lastmile_qr_scan", "android": "https://dc.lft.to/lastmile_qr_scan"}, "is_reserved": 0}, {"lon": -77.0010835, "bike_id": "f7521e01752ad1500daa1983cf84904b", "lat": 38.900064, "fusion_lon": 0.0, "fusion_lat": 0.0, "type": "electric_scooter", "name": "f7521e01752ad1500daa1983cf84904b", "is_disabled": 0, "rental_uris": {"ios": "https://dc.lft.to/lastmile_qr_scan", "android": "https://dc.lft.to/lastmile_qr_scan"}, "is_reserved": 0}, {"lon": -76.986975, "bike_id": "0fa2f52004875701e3984f1a830358d1", "lat": 38.862529, "fusion_lon": 0.0, "fusion_lat": 0.0, "type": "electric_scooter", "name": "0fa2f52004875701e3984f1a830358d1", "is_disabled": 0, "rental_uris": {"ios": "https://dc.lft.to/lastmile_qr_scan", "android": "https://dc.lft.to/lastmile_qr_scan"}, "is_reserved": 0}, {"lon": -77.06470816666666, "bike_id": "d6a35e3256ebc4ad077fbe203e867d6a", "lat": 38.94650133333333, "fusion_lon": 0.0, "fusion_lat": 0.0, "type": "electric_scooter", "name": "d6a35e3256ebc4ad077fbe203e867d6a", "is_disabled": 0, "rental_uris": {"ios": "https://dc.lft.to/lastmile_qr_scan", "android": "https://dc.lft.to/lastmile_qr_scan"}, "is_reserved": 0}, {"lon": -77.007489, "bike_id": "3f1fdbfbcd6d08067f35cb3ca8db2be3", "lat": 38.89729533333333, "fusion_lon": 0.0, "fusion_lat": 0.0, "type": "electric_scooter", "name": "3f1fdbfbcd6d08067f35cb3ca8db2be3", "is_disabled": 0, "rental_uris": {"ios": "https://dc.lft.to/lastmile_qr_scan", "android": "https://dc.lft.to/lastmile_qr_scan"}, "is_reserved": 0}, {"lon": -77.02830766666666, "bike_id": "cb5b91084b6f355c056ac4cfbf2eef20", "lat": 38.887368333333335, "fusion_lon": 0.0, "fusion_lat": 0.0, "type": "electric_scooter", "name": "cb5b91084b6f355c056ac4cfbf2eef20", "is_disabled": 0, "rental_uris": {"ios": "https://dc.lft.to/lastmile_qr_scan", "android": "https://dc.lft.to/lastmile_qr_scan"}, "is_reserved": 0}, {"lon": -77.04177016666667, "bike_id": "e90d4ad7dc951ec099e606f82cbb0324", "lat": 38.90674383333333, "fusion_lon": 0.0, "fusion_lat": 0.0, "type": "electric_scooter", "name": "e90d4ad7dc951ec099e606f82cbb0324", "is_disabled": 0, "rental_uris": {"ios": "https://dc.lft.to/lastmile_qr_scan", "android": "https://dc.lft.to/lastmile_qr_scan"}, "is_reserved": 0}, {"lon": -77.05336383333334, "bike_id": "aae4357e0a92dcc261c3b986c6a4c8df", "lat": 38.90714116666667, "fusion_lon": 0.0, "fusion_lat": 0.0, "type": "electric_scooter", "name": "aae4357e0a92dcc261c3b986c6a4c8df", "is_disabled": 0, "rental_uris": {"ios": "https://dc.lft.to/lastmile_qr_scan", "android": "https://dc.lft.to/lastmile_qr_scan"}, "is_reserved": 0}, {"lon": -77.05592866666667, "bike_id": "493a0691114eafbcc06cc8f48ec6a439", "lat": 38.91618616666667, "fusion_lon": 0.0, "fusion_lat": 0.0, "type": "electric_scooter", "name": "493a0691114eafbcc06cc8f48ec6a439", "is_disabled": 0, "rental_uris": {"ios": "https://dc.lft.to/lastmile_qr_scan", "android": "https://dc.lft.to/lastmile_qr_scan"}, "is_reserved": 0}, {"lon": -77.0440665, "bike_id": "f45be56a1c4ecd4ecc7e87a42c84f062", "lat": 38.91771883333333, "fusion_lon": 0.0, "fusion_lat": 0.0, "type": "electric_scooter", "name": "f45be56a1c4ecd4ecc7e87a42c84f062", "is_disabled": 0, "rental_uris": {"ios": "https://dc.lft.to/lastmile_qr_scan", "android": "https://dc.lft.to/lastmile_qr_scan"}, "is_reserved": 0}, {"lon": -77.0383775, "bike_id": "b931fbe111c913f415efa9b05eb6f271", "lat": 38.9109495, "fusion_lon": 0.0, "fusion_lat": 0.0, "type": "electric_scooter", "name": "b931fbe111c913f415efa9b05eb6f271", "is_disabled": 0, "rental_uris": {"ios": "https://dc.lft.to/lastmile_qr_scan", "android": "https://dc.lft.to/lastmile_qr_scan"}, "is_reserved": 0}, {"lon": -77.0215825, "bike_id": "59e60c34b3bff543a2b3a3c23439b6cf", "lat": 38.892191, "fusion_lon": 0.0, "fusion_lat": 0.0, "type": "electric_scooter", "name": "59e60c34b3bff543a2b3a3c23439b6cf", "is_disabled": 0, "rental_uris": {"ios": "https://dc.lft.to/lastmile_qr_scan", "android": "https://dc.lft.to/lastmile_qr_scan"}, "is_reserved": 0}, {"lon": -77.0273175, "bike_id": "d059f25fd581fc33937b16d43c3fc3da", "lat": 38.94089733333333, "fusion_lon": 0.0, "fusion_lat": 0.0, "type": "electric_scooter", "name": "d059f25fd581fc33937b16d43c3fc3da", "is_disabled": 0, "rental_uris": {"ios": "https://dc.lft.to/lastmile_qr_scan", "android": "https://dc.lft.to/lastmile_qr_scan"}, "is_reserved": 0}, {"lon": -77.01977233333334, "bike_id": "594bb7939ede8cb4a801f4ad7000c249", "lat": 38.9149595, "fusion_lon": 0.0, "fusion_lat": 0.0, "type": "electric_scooter", "name": "594bb7939ede8cb4a801f4ad7000c249", "is_disabled": 0, "rental_uris": {"ios": "https://dc.lft.to/lastmile_qr_scan", "android": "https://dc.lft.to/lastmile_qr_scan"}, "is_reserved": 0}, {"lon": -77.06138183333333, "bike_id": "5ec9dc83b8a423857cd39bdc179a86d2", "lat": 38.905279666666665, "fusion_lon": 0.0, "fusion_lat": 0.0, "type": "electric_scooter", "name": "5ec9dc83b8a423857cd39bdc179a86d2", "is_disabled": 0, "rental_uris": {"ios": "https://dc.lft.to/lastmile_qr_scan", "android": "https://dc.lft.to/lastmile_qr_scan"}, "is_reserved": 0}, {"lon": -77.07477516666667, "bike_id": "39afe6efbab65bf9caa5fa4b5dcb813d", "lat": 38.963133, "fusion_lon": 0.0, "fusion_lat": 0.0, "type": "electric_scooter", "name": "39afe6efbab65bf9caa5fa4b5dcb813d", "is_disabled": 0, "rental_uris": {"ios": "https://dc.lft.to/lastmile_qr_scan", "android": "https://dc.lft.to/lastmile_qr_scan"}, "is_reserved": 0}, {"lon": -77.0092275, "bike_id": "41c7e053036cc87eac03492d2507cffe", "lat": 38.896067, "fusion_lon": 0.0, "fusion_lat": 0.0, "type": "electric_scooter", "name": "41c7e053036cc87eac03492d2507cffe", "is_disabled": 0, "rental_uris": {"ios": "https://dc.lft.to/lastmile_qr_scan", "android": "https://dc.lft.to/lastmile_qr_scan"}, "is_reserved": 0}, {"lon": -77.02453733333333, "bike_id": "31e23509956157956f0f8721e1479108", "lat": 38.93097933333333, "fusion_lon": 0.0, "fusion_lat": 0.0, "type": "electric_scooter", "name": "31e23509956157956f0f8721e1479108", "is_disabled": 0, "rental_uris": {"ios": "https://dc.lft.to/lastmile_qr_scan", "android": "https://dc.lft.to/lastmile_qr_scan"}, "is_reserved": 0}, {"lon": -77.0354535, "bike_id": "a289294f175d01274527e02b06221853", "lat": 38.918394166666666, "fusion_lon": 0.0, "fusion_lat": 0.0, "type": "electric_scooter", "name": "a289294f175d01274527e02b06221853", "is_disabled": 0, "rental_uris": {"ios": "https://dc.lft.to/lastmile_qr_scan", "android": "https://dc.lft.to/lastmile_qr_scan"}, "is_reserved": 0}, {"lon": -77.01882483333333, "bike_id": "cd36998088167354e6dc84997c5cfd7e", "lat": 38.90036583333333, "fusion_lon": 0.0, "fusion_lat": 0.0, "type": "electric_scooter", "name": "cd36998088167354e6dc84997c5cfd7e", "is_disabled": 0, "rental_uris": {"ios": "https://dc.lft.to/lastmile_qr_scan", "android": "https://dc.lft.to/lastmile_qr_scan"}, "is_reserved": 0}, {"lon": -77.0401045, "bike_id": "f576da28a139d6ca2fd7d49f9148ad95", "lat": 38.90996033333333, "fusion_lon": 0.0, "fusion_lat": 0.0, "type": "electric_scooter", "name": "f576da28a139d6ca2fd7d49f9148ad95", "is_disabled": 0, "rental_uris": {"ios": "https://dc.lft.to/lastmile_qr_scan", "android": "https://dc.lft.to/lastmile_qr_scan"}, "is_reserved": 0}, {"lon": -77.02837233333334, "bike_id": "c244d89fc4aee111b4c6d8ffb5170fb6", "lat": 38.8876935, "fusion_lon": 0.0, "fusion_lat": 0.0, "type": "electric_scooter", "name": "c244d89fc4aee111b4c6d8ffb5170fb6", "is_disabled": 0, "rental_uris": {"ios": "https://dc.lft.to/lastmile_qr_scan", "android": "https://dc.lft.to/lastmile_qr_scan"}, "is_reserved": 0}, {"lon": -76.978124, "bike_id": "2725c9b0d63de3a1c8eafefa9c61387f", "lat": 38.90672933333333, "fusion_lon": 0.0, "fusion_lat": 0.0, "type": "electric_scooter", "name": "2725c9b0d63de3a1c8eafefa9c61387f", "is_disabled": 0, "rental_uris": {"ios": "https://dc.lft.to/lastmile_qr_scan", "android": "https://dc.lft.to/lastmile_qr_scan"}, "is_reserved": 0}, {"lon": -77.00216466666667, "bike_id": "bd0259e36ee85d4f82412bba5d749a16", "lat": 38.91449683333333, "fusion_lon": 0.0, "fusion_lat": 0.0, "type": "electric_scooter", "name": "bd0259e36ee85d4f82412bba5d749a16", "is_disabled": 0, "rental_uris": {"ios": "https://dc.lft.to/lastmile_qr_scan", "android": "https://dc.lft.to/lastmile_qr_scan"}, "is_reserved": 0}, {"lon": -77.00111483333333, "bike_id": "d91998b9d299f992f1e7d2fca900c966", "lat": 38.91709933333333, "fusion_lon": 0.0, "fusion_lat": 0.0, "type": "electric_scooter", "name": "d91998b9d299f992f1e7d2fca900c966", "is_disabled": 0, "rental_uris": {"ios": "https://dc.lft.to/lastmile_qr_scan", "android": "https://dc.lft.to/lastmile_qr_scan"}, "is_reserved": 0}, {"lon": -76.89538483333334, "bike_id": "22fca315f27dc5e62d0b1cc9b72178c1", "lat": 38.94552216666666, "fusion_lon": 0.0, "fusion_lat": 0.0, "type": "electric_bike", "name": "22fca315f27dc5e62d0b1cc9b72178c1", "is_disabled": 0, "rental_uris": {"ios": "https://dc.lft.to/lastmile_qr_scan", "android": "https://dc.lft.to/lastmile_qr_scan"}, "is_reserved": 0}, {"lon": -77.09471133333334, "bike_id": "8a50c015b6d5ce7d9179cedcb7a0c0fb", "lat": 38.80759533333333, "fusion_lon": 0.0, "fusion_lat": 0.0, "type": "electric_bike", "name": "8a50c015b6d5ce7d9179cedcb7a0c0fb", "is_disabled": 0, "rental_uris": {"ios": "https://dc.lft.to/lastmile_qr_scan", "android": "https://dc.lft.to/lastmile_qr_scan"}, "is_reserved": 0}, {"lon": -77.02795533333334, "bike_id": "2d02e3171742ed88d8c8b9644ea1ec73", "lat": 38.93424866666667, "fusion_lon": 0.0, "fusion_lat": 0.0, "type": "electric_scooter", "name": "2d02e3171742ed88d8c8b9644ea1ec73", "is_disabled": 0, "rental_uris": {"ios": "https://dc.lft.to/lastmile_qr_scan", "android": "https://dc.lft.to/lastmile_qr_scan"}, "is_reserved": 0}, {"lon": -77.01217666666666, "bike_id": "64c0b1079428bff59a1d5ac6d9a43e64", "lat": 38.871892333333335, "fusion_lon": 0.0, "fusion_lat": 0.0, "type": "electric_scooter", "name": "64c0b1079428bff59a1d5ac6d9a43e64", "is_disabled": 0, "rental_uris": {"ios": "https://dc.lft.to/lastmile_qr_scan", "android": "https://dc.lft.to/lastmile_qr_scan"}, "is_reserved": 0}, {"lon": -77.03376666666666, "bike_id": "cc9ec51a7e90b7d3d847ddfb333076b7", "lat": 38.90276333333333, "fusion_lon": 0.0, "fusion_lat": 0.0, "type": "electric_scooter", "name": "cc9ec51a7e90b7d3d847ddfb333076b7", "is_disabled": 0, "rental_uris": {"ios": "https://dc.lft.to/lastmile_qr_scan", "android": "https://dc.lft.to/lastmile_qr_scan"}, "is_reserved": 0}, {"lon": -77.019291, "bike_id": "9159b14f0b25788ca0a5f1cb29347c85", "lat": 38.934662833333334, "fusion_lon": 0.0, "fusion_lat": 0.0, "type": "electric_scooter", "name": "9159b14f0b25788ca0a5f1cb29347c85", "is_disabled": 0, "rental_uris": {"ios": "https://dc.lft.to/lastmile_qr_scan", "android": "https://dc.lft.to/lastmile_qr_scan"}, "is_reserved": 0}, {"lon": -77.052571, "bike_id": "f13bcdb9e59642e545eec05b9f7ff5bd", "lat": 38.92736633333333, "fusion_lon": 0.0, "fusion_lat": 0.0, "type": "electric_scooter", "name": "f13bcdb9e59642e545eec05b9f7ff5bd", "is_disabled": 0, "rental_uris": {"ios": "https://dc.lft.to/lastmile_qr_scan", "android": "https://dc.lft.to/lastmile_qr_scan"}, "is_reserved": 0}, {"lon": -77.02391716666666, "bike_id": "806c1e502fb7a270a38e711e3e0dd1c4", "lat": 38.9165665, "fusion_lon": 0.0, "fusion_lat": 0.0, "type": "electric_scooter", "name": "806c1e502fb7a270a38e711e3e0dd1c4", "is_disabled": 0, "rental_uris": {"ios": "https://dc.lft.to/lastmile_qr_scan", "android": "https://dc.lft.to/lastmile_qr_scan"}, "is_reserved": 0}, {"lon": -76.98225766666667, "bike_id": "52781934b12885efd1297a4f58f57353", "lat": 38.8865005, "fusion_lon": 0.0, "fusion_lat": 0.0, "type": "electric_scooter", "name": "52781934b12885efd1297a4f58f57353", "is_disabled": 0, "rental_uris": {"ios": "https://dc.lft.to/lastmile_qr_scan", "android": "https://dc.lft.to/lastmile_qr_scan"}, "is_reserved": 0}, {"lon": -77.02948183333334, "bike_id": "5a9fd17f2bfd9ccf2bc4df04859c95cd", "lat": 38.90794616666667, "fusion_lon": 0.0, "fusion_lat": 0.0, "type": "electric_scooter", "name": "5a9fd17f2bfd9ccf2bc4df04859c95cd", "is_disabled": 0, "rental_uris": {"ios": "https://dc.lft.to/lastmile_qr_scan", "android": "https://dc.lft.to/lastmile_qr_scan"}, "is_reserved": 0}, {"lon": -77.111525, "bike_id": "11484c52798e69da45df75ef8616c32e", "lat": 38.855073833333336, "fusion_lon": 0.0, "fusion_lat": 0.0, "type": "electric_bike", "name": "11484c52798e69da45df75ef8616c32e", "is_disabled": 0, "rental_uris": {"ios": "https://dc.lft.to/lastmile_qr_scan", "android": "https://dc.lft.to/lastmile_qr_scan"}, "is_reserved": 0}, {"lon": -77.1662605, "bike_id": "7f18d9902f5328dad34cdcfaf18e8f0a", "lat": 38.888402166666665, "fusion_lon": 0.0, "fusion_lat": 0.0, "type": "electric_bike", "name": "7f18d9902f5328dad34cdcfaf18e8f0a", "is_disabled": 0, "rental_uris": {"ios": "https://dc.lft.to/lastmile_qr_scan", "android": "https://dc.lft.to/lastmile_qr_scan"}, "is_reserved": 0}, {"lon": -77.1048935, "bike_id": "cbef8089f09cf3a8e2304258a9a7c199", "lat": 38.85599833333333, "fusion_lon": 0.0, "fusion_lat": 0.0, "type": "electric_bike", "name": "cbef8089f09cf3a8e2304258a9a7c199", "is_disabled": 0, "rental_uris": {"ios": "https://dc.lft.to/lastmile_qr_scan", "android": "https://dc.lft.to/lastmile_qr_scan"}, "is_reserved": 0}, {"lon": -77.05725566666666, "bike_id": "a1bafa252c1c5ba3056c3ec1e947e51a", "lat": 38.9337035, "fusion_lon": 0.0, "fusion_lat": 0.0, "type": "electric_scooter", "name": "a1bafa252c1c5ba3056c3ec1e947e51a", "is_disabled": 0, "rental_uris": {"ios": "https://dc.lft.to/lastmile_qr_scan", "android": "https://dc.lft.to/lastmile_qr_scan"}, "is_reserved": 0}, {"lon": -77.072933, "bike_id": "ee6ecc609b828d402d9ff0f663ff561f", "lat": 38.924678166666666, "fusion_lon": 0.0, "fusion_lat": 0.0, "type": "electric_scooter", "name": "ee6ecc609b828d402d9ff0f663ff561f", "is_disabled": 0, "rental_uris": {"ios": "https://dc.lft.to/lastmile_qr_scan", "android": "https://dc.lft.to/lastmile_qr_scan"}, "is_reserved": 0}, {"lon": -76.97325083333334, "bike_id": "5b4b8963439c91f46995ab5809fd8c17", "lat": 38.865623, "fusion_lon": 0.0, "fusion_lat": 0.0, "type": "electric_scooter", "name": "5b4b8963439c91f46995ab5809fd8c17", "is_disabled": 0, "rental_uris": {"ios": "https://dc.lft.to/lastmile_qr_scan", "android": "https://dc.lft.to/lastmile_qr_scan"}, "is_reserved": 0}, {"lon": -77.0469075, "bike_id": "7856d82c9e2646f0a65c0a83cd7727bb", "lat": 39.02395333333333, "fusion_lon": 0.0, "fusion_lat": 0.0, "type": "electric_bike", "name": "7856d82c9e2646f0a65c0a83cd7727bb", "is_disabled": 0, "rental_uris": {"ios": "https://dc.lft.to/lastmile_qr_scan", "android": "https://dc.lft.to/lastmile_qr_scan"}, "is_reserved": 0}, {"lon": -77.02381733333333, "bike_id": "9f47cf53b42bcf09b8a9340bea53055b", "lat": 38.902017, "fusion_lon": 0.0, "fusion_lat": 0.0, "type": "electric_scooter", "name": "9f47cf53b42bcf09b8a9340bea53055b", "is_disabled": 0, "rental_uris": {"ios": "https://dc.lft.to/lastmile_qr_scan", "android": "https://dc.lft.to/lastmile_qr_scan"}, "is_reserved": 0}, {"lon": -77.01586366666666, "bike_id": "458947f01027727aabdb6ed176814b89", "lat": 38.886176166666665, "fusion_lon": 0.0, "fusion_lat": 0.0, "type": "electric_scooter", "name": "458947f01027727aabdb6ed176814b89", "is_disabled": 0, "rental_uris": {"ios": "https://dc.lft.to/lastmile_qr_scan", "android": "https://dc.lft.to/lastmile_qr_scan"}, "is_reserved": 0}, {"lon": -77.04470816666667, "bike_id": "c2a0ad5cafba85d20f9f291a2f9e783a", "lat": 38.915864666666664, "fusion_lon": 0.0, "fusion_lat": 0.0, "type": "electric_scooter", "name": "c2a0ad5cafba85d20f9f291a2f9e783a", "is_disabled": 0, "rental_uris": {"ios": "https://dc.lft.to/lastmile_qr_scan", "android": "https://dc.lft.to/lastmile_qr_scan"}, "is_reserved": 0}, {"lon": -77.02865633333333, "bike_id": "b169aa985fc3eb4b3a8b03ddd00fe6b0", "lat": 38.887429, "fusion_lon": 0.0, "fusion_lat": 0.0, "type": "electric_scooter", "name": "b169aa985fc3eb4b3a8b03ddd00fe6b0", "is_disabled": 0, "rental_uris": {"ios": "https://dc.lft.to/lastmile_qr_scan", "android": "https://dc.lft.to/lastmile_qr_scan"}, "is_reserved": 0}, {"lon": -77.02210816666667, "bike_id": "c1f8b5e34cce206349aef2c4945451c3", "lat": 38.91416683333333, "fusion_lon": 0.0, "fusion_lat": 0.0, "type": "electric_scooter", "name": "c1f8b5e34cce206349aef2c4945451c3", "is_disabled": 0, "rental_uris": {"ios": "https://dc.lft.to/lastmile_qr_scan", "android": "https://dc.lft.to/lastmile_qr_scan"}, "is_reserved": 0}, {"lon": -77.00046, "bike_id": "8f13b58b3de5771899ea6b0d772fc608", "lat": 38.87657983333333, "fusion_lon": 0.0, "fusion_lat": 0.0, "type": "electric_scooter", "name": "8f13b58b3de5771899ea6b0d772fc608", "is_disabled": 0, "rental_uris": {"ios": "https://dc.lft.to/lastmile_qr_scan", "android": "https://dc.lft.to/lastmile_qr_scan"}, "is_reserved": 0}, {"lon": -76.99909483333333, "bike_id": "c8ebe2401111c8a68cd88903d2f2b915", "lat": 38.924605, "fusion_lon": 0.0, "fusion_lat": 0.0, "type": "electric_scooter", "name": "c8ebe2401111c8a68cd88903d2f2b915", "is_disabled": 0, "rental_uris": {"ios": "https://dc.lft.to/lastmile_qr_scan", "android": "https://dc.lft.to/lastmile_qr_scan"}, "is_reserved": 0}, {"lon": -77.02783066666667, "bike_id": "2d5774c3bf5a150489b33b650f3afe0b", "lat": 38.94190916666667, "fusion_lon": 0.0, "fusion_lat": 0.0, "type": "electric_scooter", "name": "2d5774c3bf5a150489b33b650f3afe0b", "is_disabled": 0, "rental_uris": {"ios": "https://dc.lft.to/lastmile_qr_scan", "android": "https://dc.lft.to/lastmile_qr_scan"}, "is_reserved": 0}, {"lon": -77.0560065, "bike_id": "f81c88241284e6980cd82c84deb905af", "lat": 38.93702233333333, "fusion_lon": 0.0, "fusion_lat": 0.0, "type": "electric_scooter", "name": "f81c88241284e6980cd82c84deb905af", "is_disabled": 0, "rental_uris": {"ios": "https://dc.lft.to/lastmile_qr_scan", "android": "https://dc.lft.to/lastmile_qr_scan"}, "is_reserved": 0}, {"lon": -77.03660616666667, "bike_id": "ef5065f83a8cba1372b63de8f9d7f5c8", "lat": 38.936304666666665, "fusion_lon": 0.0, "fusion_lat": 0.0, "type": "electric_scooter", "name": "ef5065f83a8cba1372b63de8f9d7f5c8", "is_disabled": 0, "rental_uris": {"ios": "https://dc.lft.to/lastmile_qr_scan", "android": "https://dc.lft.to/lastmile_qr_scan"}, "is_reserved": 0}, {"lon": -77.02923633333333, "bike_id": "2ef632bf35ecfb0405dd36a7624741eb", "lat": 38.8984655, "fusion_lon": 0.0, "fusion_lat": 0.0, "type": "electric_scooter", "name": "2ef632bf35ecfb0405dd36a7624741eb", "is_disabled": 0, "rental_uris": {"ios": "https://dc.lft.to/lastmile_qr_scan", "android": "https://dc.lft.to/lastmile_qr_scan"}, "is_reserved": 0}, {"lon": -76.9959655, "bike_id": "f6f98142226b3c40e8d359418b348991", "lat": 38.856965333333335, "fusion_lon": 0.0, "fusion_lat": 0.0, "type": "electric_scooter", "name": "f6f98142226b3c40e8d359418b348991", "is_disabled": 0, "rental_uris": {"ios": "https://dc.lft.to/lastmile_qr_scan", "android": "https://dc.lft.to/lastmile_qr_scan"}, "is_reserved": 0}, {"lon": -77.01364966666667, "bike_id": "c24815433795568f4d505bf08c52cd7a", "lat": 38.887070333333334, "fusion_lon": 0.0, "fusion_lat": 0.0, "type": "electric_scooter", "name": "c24815433795568f4d505bf08c52cd7a", "is_disabled": 0, "rental_uris": {"ios": "https://dc.lft.to/lastmile_qr_scan", "android": "https://dc.lft.to/lastmile_qr_scan"}, "is_reserved": 0}, {"lon": -77.025786, "bike_id": "4e0821b0f94eb8be961a4cad4370f05c", "lat": 38.92735233333333, "fusion_lon": 0.0, "fusion_lat": 0.0, "type": "electric_scooter", "name": "4e0821b0f94eb8be961a4cad4370f05c", "is_disabled": 0, "rental_uris": {"ios": "https://dc.lft.to/lastmile_qr_scan", "android": "https://dc.lft.to/lastmile_qr_scan"}, "is_reserved": 0}, {"lon": -77.03044033333333, "bike_id": "6fad998b0a58075d749052d0058f35b6", "lat": 38.898358333333334, "fusion_lon": 0.0, "fusion_lat": 0.0, "type": "electric_scooter", "name": "6fad998b0a58075d749052d0058f35b6", "is_disabled": 0, "rental_uris": {"ios": "https://dc.lft.to/lastmile_qr_scan", "android": "https://dc.lft.to/lastmile_qr_scan"}, "is_reserved": 0}, {"lon": -77.046023, "bike_id": "f13ae24334de9269acfcec45e14de1a3", "lat": 38.916132166666664, "fusion_lon": 0.0, "fusion_lat": 0.0, "type": "electric_scooter", "name": "f13ae24334de9269acfcec45e14de1a3", "is_disabled": 0, "rental_uris": {"ios": "https://dc.lft.to/lastmile_qr_scan", "android": "https://dc.lft.to/lastmile_qr_scan"}, "is_reserved": 0}, {"lon": -76.98822866666667, "bike_id": "953c53290672539e654d2fd9d9df6a20", "lat": 38.890791666666665, "fusion_lon": 0.0, "fusion_lat": 0.0, "type": "electric_scooter", "name": "953c53290672539e654d2fd9d9df6a20", "is_disabled": 0, "rental_uris": {"ios": "https://dc.lft.to/lastmile_qr_scan", "android": "https://dc.lft.to/lastmile_qr_scan"}, "is_reserved": 0}, {"lon": -77.053638, "bike_id": "0b2bf424320df520769aff9eabe4164b", "lat": 38.92723983333333, "fusion_lon": 0.0, "fusion_lat": 0.0, "type": "electric_scooter", "name": "0b2bf424320df520769aff9eabe4164b", "is_disabled": 0, "rental_uris": {"ios": "https://dc.lft.to/lastmile_qr_scan", "android": "https://dc.lft.to/lastmile_qr_scan"}, "is_reserved": 0}, {"lon": -77.00750683333334, "bike_id": "ac43c87fa3f334eaec09069e01828783", "lat": 38.87645116666667, "fusion_lon": 0.0, "fusion_lat": 0.0, "type": "electric_scooter", "name": "ac43c87fa3f334eaec09069e01828783", "is_disabled": 0, "rental_uris": {"ios": "https://dc.lft.to/lastmile_qr_scan", "android": "https://dc.lft.to/lastmile_qr_scan"}, "is_reserved": 0}, {"lon": -77.00550883333334, "bike_id": "265aed15cf1ceaf630980498ba36f35a", "lat": 38.874734, "fusion_lon": 0.0, "fusion_lat": 0.0, "type": "electric_scooter", "name": "265aed15cf1ceaf630980498ba36f35a", "is_disabled": 0, "rental_uris": {"ios": "https://dc.lft.to/lastmile_qr_scan", "android": "https://dc.lft.to/lastmile_qr_scan"}, "is_reserved": 0}, {"lon": -77.023898, "bike_id": "765d672379a8c00da3cc95f7c6c0ec57", "lat": 38.919913, "fusion_lon": 0.0, "fusion_lat": 0.0, "type": "electric_scooter", "name": "765d672379a8c00da3cc95f7c6c0ec57", "is_disabled": 0, "rental_uris": {"ios": "https://dc.lft.to/lastmile_qr_scan", "android": "https://dc.lft.to/lastmile_qr_scan"}, "is_reserved": 0}, {"lon": -77.02201, "bike_id": "fae67d812e563580c730e363933f3894", "lat": 38.910525166666666, "fusion_lon": 0.0, "fusion_lat": 0.0, "type": "electric_scooter", "name": "fae67d812e563580c730e363933f3894", "is_disabled": 0, "rental_uris": {"ios": "https://dc.lft.to/lastmile_qr_scan", "android": "https://dc.lft.to/lastmile_qr_scan"}, "is_reserved": 0}, {"lon": -77.01243133333334, "bike_id": "d193f87fe7746d8a81ce50c3737cc695", "lat": 38.915697, "fusion_lon": 0.0, "fusion_lat": 0.0, "type": "electric_scooter", "name": "d193f87fe7746d8a81ce50c3737cc695", "is_disabled": 0, "rental_uris": {"ios": "https://dc.lft.to/lastmile_qr_scan", "android": "https://dc.lft.to/lastmile_qr_scan"}, "is_reserved": 0}, {"lon": -77.0271655, "bike_id": "4391d41ab9de73eebd8789d36945067f", "lat": 38.9015225, "fusion_lon": 0.0, "fusion_lat": 0.0, "type": "electric_scooter", "name": "4391d41ab9de73eebd8789d36945067f", "is_disabled": 0, "rental_uris": {"ios": "https://dc.lft.to/lastmile_qr_scan", "android": "https://dc.lft.to/lastmile_qr_scan"}, "is_reserved": 0}, {"lon": -76.919713, "bike_id": "df892c7a67fc81c3f38f3667cb3b7709", "lat": 38.9002845, "fusion_lon": 0.0, "fusion_lat": 0.0, "type": "electric_scooter", "name": "df892c7a67fc81c3f38f3667cb3b7709", "is_disabled": 0, "rental_uris": {"ios": "https://dc.lft.to/lastmile_qr_scan", "android": "https://dc.lft.to/lastmile_qr_scan"}, "is_reserved": 0}, {"lon": -77.01701083333333, "bike_id": "6664b64cc2a111c654784a1be7429b27", "lat": 38.9138635, "fusion_lon": 0.0, "fusion_lat": 0.0, "type": "electric_scooter", "name": "6664b64cc2a111c654784a1be7429b27", "is_disabled": 0, "rental_uris": {"ios": "https://dc.lft.to/lastmile_qr_scan", "android": "https://dc.lft.to/lastmile_qr_scan"}, "is_reserved": 0}, {"lon": -77.011731, "bike_id": "5bc0511aa4f5b7006006e2f141656427", "lat": 38.90039316666667, "fusion_lon": 0.0, "fusion_lat": 0.0, "type": "electric_scooter", "name": "5bc0511aa4f5b7006006e2f141656427", "is_disabled": 0, "rental_uris": {"ios": "https://dc.lft.to/lastmile_qr_scan", "android": "https://dc.lft.to/lastmile_qr_scan"}, "is_reserved": 0}, {"lon": -77.034693, "bike_id": "6f80c15dacaefe071b1f81a2b8a9f35f", "lat": 38.90568866666667, "fusion_lon": 0.0, "fusion_lat": 0.0, "type": "electric_scooter", "name": "6f80c15dacaefe071b1f81a2b8a9f35f", "is_disabled": 0, "rental_uris": {"ios": "https://dc.lft.to/lastmile_qr_scan", "android": "https://dc.lft.to/lastmile_qr_scan"}, "is_reserved": 0}, {"lon": -77.03850883333334, "bike_id": "76fd51c2efd08b02b6d39844592fa3e8", "lat": 38.917527166666666, "fusion_lon": 0.0, "fusion_lat": 0.0, "type": "electric_scooter", "name": "76fd51c2efd08b02b6d39844592fa3e8", "is_disabled": 0, "rental_uris": {"ios": "https://dc.lft.to/lastmile_qr_scan", "android": "https://dc.lft.to/lastmile_qr_scan"}, "is_reserved": 0}, {"lon": -77.034467, "bike_id": "a346a94b399ce29c83ef1370b64cb19a", "lat": 38.909523666666665, "fusion_lon": 0.0, "fusion_lat": 0.0, "type": "electric_scooter", "name": "a346a94b399ce29c83ef1370b64cb19a", "is_disabled": 0, "rental_uris": {"ios": "https://dc.lft.to/lastmile_qr_scan", "android": "https://dc.lft.to/lastmile_qr_scan"}, "is_reserved": 0}, {"lon": -77.03453916666666, "bike_id": "b0dc4a37f7b21938635e1fa9397a214c", "lat": 38.93438116666667, "fusion_lon": 0.0, "fusion_lat": 0.0, "type": "electric_scooter", "name": "b0dc4a37f7b21938635e1fa9397a214c", "is_disabled": 0, "rental_uris": {"ios": "https://dc.lft.to/lastmile_qr_scan", "android": "https://dc.lft.to/lastmile_qr_scan"}, "is_reserved": 0}, {"lon": -77.02972266666667, "bike_id": "d5d8545a74c06b2b564d3564fe0e4d1a", "lat": 38.92194883333333, "fusion_lon": 0.0, "fusion_lat": 0.0, "type": "electric_scooter", "name": "d5d8545a74c06b2b564d3564fe0e4d1a", "is_disabled": 0, "rental_uris": {"ios": "https://dc.lft.to/lastmile_qr_scan", "android": "https://dc.lft.to/lastmile_qr_scan"}, "is_reserved": 0}, {"lon": -76.99684616666667, "bike_id": "4810d1d4a44e52d1dc831e66b3e6bde5", "lat": 38.881257166666664, "fusion_lon": 0.0, "fusion_lat": 0.0, "type": "electric_scooter", "name": "4810d1d4a44e52d1dc831e66b3e6bde5", "is_disabled": 0, "rental_uris": {"ios": "https://dc.lft.to/lastmile_qr_scan", "android": "https://dc.lft.to/lastmile_qr_scan"}, "is_reserved": 0}, {"lon": -77.075814, "bike_id": "c48e4abbe685ea874b92a03b63eae4ef", "lat": 38.912691, "fusion_lon": 0.0, "fusion_lat": 0.0, "type": "electric_scooter", "name": "c48e4abbe685ea874b92a03b63eae4ef", "is_disabled": 0, "rental_uris": {"ios": "https://dc.lft.to/lastmile_qr_scan", "android": "https://dc.lft.to/lastmile_qr_scan"}, "is_reserved": 0}, {"lon": -77.04818533333334, "bike_id": "41032e3f1939861cc5d686d02951432b", "lat": 38.9074055, "fusion_lon": 0.0, "fusion_lat": 0.0, "type": "electric_scooter", "name": "41032e3f1939861cc5d686d02951432b", "is_disabled": 0, "rental_uris": {"ios": "https://dc.lft.to/lastmile_qr_scan", "android": "https://dc.lft.to/lastmile_qr_scan"}, "is_reserved": 0}, {"lon": -77.02238233333334, "bike_id": "b8f200a254baddcd3174f2dcdbb9582f", "lat": 38.897459166666664, "fusion_lon": 0.0, "fusion_lat": 0.0, "type": "electric_scooter", "name": "b8f200a254baddcd3174f2dcdbb9582f", "is_disabled": 0, "rental_uris": {"ios": "https://dc.lft.to/lastmile_qr_scan", "android": "https://dc.lft.to/lastmile_qr_scan"}, "is_reserved": 0}, {"lon": -77.11709416666666, "bike_id": "193f1c9017fb14cff9003db0d5c4a849", "lat": 38.867467, "fusion_lon": 0.0, "fusion_lat": 0.0, "type": "electric_bike", "name": "193f1c9017fb14cff9003db0d5c4a849", "is_disabled": 0, "rental_uris": {"ios": "https://dc.lft.to/lastmile_qr_scan", "android": "https://dc.lft.to/lastmile_qr_scan"}, "is_reserved": 0}, {"lon": -77.02979966666666, "bike_id": "dc0e35efeb5f2a87ea69dfc4d1f867e7", "lat": 38.90726766666667, "fusion_lon": 0.0, "fusion_lat": 0.0, "type": "electric_scooter", "name": "dc0e35efeb5f2a87ea69dfc4d1f867e7", "is_disabled": 0, "rental_uris": {"ios": "https://dc.lft.to/lastmile_qr_scan", "android": "https://dc.lft.to/lastmile_qr_scan"}, "is_reserved": 0}, {"lon": -77.0134395, "bike_id": "74f18cb4c862009e82ee7107f650ab6b", "lat": 38.87816616666667, "fusion_lon": 0.0, "fusion_lat": 0.0, "type": "electric_scooter", "name": "74f18cb4c862009e82ee7107f650ab6b", "is_disabled": 0, "rental_uris": {"ios": "https://dc.lft.to/lastmile_qr_scan", "android": "https://dc.lft.to/lastmile_qr_scan"}, "is_reserved": 0}, {"lon": -77.02696683333333, "bike_id": "b0c5309e7775a26ac3db7f46392097b5", "lat": 38.9065965, "fusion_lon": 0.0, "fusion_lat": 0.0, "type": "electric_scooter", "name": "b0c5309e7775a26ac3db7f46392097b5", "is_disabled": 0, "rental_uris": {"ios": "https://dc.lft.to/lastmile_qr_scan", "android": "https://dc.lft.to/lastmile_qr_scan"}, "is_reserved": 0}, {"lon": -77.05046466666667, "bike_id": "b83d41c882192faeea7f0351e91c3241", "lat": 38.923624833333335, "fusion_lon": 0.0, "fusion_lat": 0.0, "type": "electric_scooter", "name": "b83d41c882192faeea7f0351e91c3241", "is_disabled": 0, "rental_uris": {"ios": "https://dc.lft.to/lastmile_qr_scan", "android": "https://dc.lft.to/lastmile_qr_scan"}, "is_reserved": 0}, {"lon": -76.99144766666667, "bike_id": "765c4addab74c2e6941b06f9df778695", "lat": 38.8822585, "fusion_lon": 0.0, "fusion_lat": 0.0, "type": "electric_scooter", "name": "765c4addab74c2e6941b06f9df778695", "is_disabled": 0, "rental_uris": {"ios": "https://dc.lft.to/lastmile_qr_scan", "android": "https://dc.lft.to/lastmile_qr_scan"}, "is_reserved": 0}, {"lon": -77.02977433333334, "bike_id": "51412d8505bb9950cc27b0840529de36", "lat": 38.8970765, "fusion_lon": 0.0, "fusion_lat": 0.0, "type": "electric_scooter", "name": "51412d8505bb9950cc27b0840529de36", "is_disabled": 0, "rental_uris": {"ios": "https://dc.lft.to/lastmile_qr_scan", "android": "https://dc.lft.to/lastmile_qr_scan"}, "is_reserved": 0}, {"lon": -77.01996533333333, "bike_id": "c53363c6d41f75650c1d83126281ab8a", "lat": 38.931134166666666, "fusion_lon": 0.0, "fusion_lat": 0.0, "type": "electric_scooter", "name": "c53363c6d41f75650c1d83126281ab8a", "is_disabled": 0, "rental_uris": {"ios": "https://dc.lft.to/lastmile_qr_scan", "android": "https://dc.lft.to/lastmile_qr_scan"}, "is_reserved": 0}, {"lon": -77.032822, "bike_id": "fa492ee065e1d4d6859f49f6cfa2bcce", "lat": 38.92839683333333, "fusion_lon": 0.0, "fusion_lat": 0.0, "type": "electric_scooter", "name": "fa492ee065e1d4d6859f49f6cfa2bcce", "is_disabled": 0, "rental_uris": {"ios": "https://dc.lft.to/lastmile_qr_scan", "android": "https://dc.lft.to/lastmile_qr_scan"}, "is_reserved": 0}, {"lon": -77.04276966666667, "bike_id": "a75d5d68a635a5297d8cb9e846669b3e", "lat": 38.9224195, "fusion_lon": 0.0, "fusion_lat": 0.0, "type": "electric_scooter", "name": "a75d5d68a635a5297d8cb9e846669b3e", "is_disabled": 0, "rental_uris": {"ios": "https://dc.lft.to/lastmile_qr_scan", "android": "https://dc.lft.to/lastmile_qr_scan"}, "is_reserved": 0}, {"lon": -77.01522616666666, "bike_id": "71ad48a0c37d59a568723a214650318f", "lat": 38.917652833333335, "fusion_lon": 0.0, "fusion_lat": 0.0, "type": "electric_scooter", "name": "71ad48a0c37d59a568723a214650318f", "is_disabled": 0, "rental_uris": {"ios": "https://dc.lft.to/lastmile_qr_scan", "android": "https://dc.lft.to/lastmile_qr_scan"}, "is_reserved": 0}, {"lon": -77.08981566666667, "bike_id": "b61df53ee1a2d2f2f27a3557747a77ce", "lat": 38.874803, "fusion_lon": 0.0, "fusion_lat": 0.0, "type": "electric_bike", "name": "b61df53ee1a2d2f2f27a3557747a77ce", "is_disabled": 0, "rental_uris": {"ios": "https://dc.lft.to/lastmile_qr_scan", "android": "https://dc.lft.to/lastmile_qr_scan"}, "is_reserved": 0}, {"lon": -76.98528633333333, "bike_id": "bf5bfe87fe0cec52ef332d4f4900bf17", "lat": 38.9046145, "fusion_lon": 0.0, "fusion_lat": 0.0, "type": "electric_scooter", "name": "bf5bfe87fe0cec52ef332d4f4900bf17", "is_disabled": 0, "rental_uris": {"ios": "https://dc.lft.to/lastmile_qr_scan", "android": "https://dc.lft.to/lastmile_qr_scan"}, "is_reserved": 0}, {"lon": -77.02172333333333, "bike_id": "0593cd6f6ff047edf77f53e0bb6c8983", "lat": 38.91985366666667, "fusion_lon": 0.0, "fusion_lat": 0.0, "type": "electric_scooter", "name": "0593cd6f6ff047edf77f53e0bb6c8983", "is_disabled": 0, "rental_uris": {"ios": "https://dc.lft.to/lastmile_qr_scan", "android": "https://dc.lft.to/lastmile_qr_scan"}, "is_reserved": 0}, {"lon": -77.01795683333333, "bike_id": "dc2625656ba884554aca82c871b579b3", "lat": 38.92127933333333, "fusion_lon": 0.0, "fusion_lat": 0.0, "type": "electric_scooter", "name": "dc2625656ba884554aca82c871b579b3", "is_disabled": 0, "rental_uris": {"ios": "https://dc.lft.to/lastmile_qr_scan", "android": "https://dc.lft.to/lastmile_qr_scan"}, "is_reserved": 0}, {"lon": -77.04741583333333, "bike_id": "23eb5632d48fd6aac33881849e36e91b", "lat": 38.917685166666665, "fusion_lon": 0.0, "fusion_lat": 0.0, "type": "electric_scooter", "name": "23eb5632d48fd6aac33881849e36e91b", "is_disabled": 0, "rental_uris": {"ios": "https://dc.lft.to/lastmile_qr_scan", "android": "https://dc.lft.to/lastmile_qr_scan"}, "is_reserved": 0}, {"lon": -77.07433516666667, "bike_id": "22ecfaa15da03be38876952c2b0bf1b8", "lat": 38.99945733333333, "fusion_lon": 0.0, "fusion_lat": 0.0, "type": "electric_bike", "name": "22ecfaa15da03be38876952c2b0bf1b8", "is_disabled": 0, "rental_uris": {"ios": "https://dc.lft.to/lastmile_qr_scan", "android": "https://dc.lft.to/lastmile_qr_scan"}, "is_reserved": 0}, {"lon": -76.9498925, "bike_id": "3f6a116bc544e6fd2e5e222a38c6e2ac", "lat": 38.893861, "fusion_lon": 0.0, "fusion_lat": 0.0, "type": "electric_scooter", "name": "3f6a116bc544e6fd2e5e222a38c6e2ac", "is_disabled": 0, "rental_uris": {"ios": "https://dc.lft.to/lastmile_qr_scan", "android": "https://dc.lft.to/lastmile_qr_scan"}, "is_reserved": 0}, {"lon": -77.02429283333333, "bike_id": "54fa0afe3b4e588e59d1e9689df07d10", "lat": 38.91402583333333, "fusion_lon": 0.0, "fusion_lat": 0.0, "type": "electric_scooter", "name": "54fa0afe3b4e588e59d1e9689df07d10", "is_disabled": 0, "rental_uris": {"ios": "https://dc.lft.to/lastmile_qr_scan", "android": "https://dc.lft.to/lastmile_qr_scan"}, "is_reserved": 0}, {"lon": -77.007353, "bike_id": "76f18e7a56e50b9fec242e1bfea80298", "lat": 38.91625416666667, "fusion_lon": 0.0, "fusion_lat": 0.0, "type": "electric_scooter", "name": "76f18e7a56e50b9fec242e1bfea80298", "is_disabled": 0, "rental_uris": {"ios": "https://dc.lft.to/lastmile_qr_scan", "android": "https://dc.lft.to/lastmile_qr_scan"}, "is_reserved": 0}, {"lon": -77.03258033333333, "bike_id": "781c41be29e7c25da631bcf2d1a6b194", "lat": 38.93563266666666, "fusion_lon": 0.0, "fusion_lat": 0.0, "type": "electric_scooter", "name": "781c41be29e7c25da631bcf2d1a6b194", "is_disabled": 0, "rental_uris": {"ios": "https://dc.lft.to/lastmile_qr_scan", "android": "https://dc.lft.to/lastmile_qr_scan"}, "is_reserved": 0}, {"lon": -77.01429483333334, "bike_id": "ddaac3ab20dbd5132fe877012f3cd0c4", "lat": 38.914629833333336, "fusion_lon": 0.0, "fusion_lat": 0.0, "type": "electric_scooter", "name": "ddaac3ab20dbd5132fe877012f3cd0c4", "is_disabled": 0, "rental_uris": {"ios": "https://dc.lft.to/lastmile_qr_scan", "android": "https://dc.lft.to/lastmile_qr_scan"}, "is_reserved": 0}, {"lon": -76.99614433333333, "bike_id": "194e9239a2bc12f17c3e8aade8ad51a6", "lat": 38.90001483333333, "fusion_lon": 0.0, "fusion_lat": 0.0, "type": "electric_scooter", "name": "194e9239a2bc12f17c3e8aade8ad51a6", "is_disabled": 0, "rental_uris": {"ios": "https://dc.lft.to/lastmile_qr_scan", "android": "https://dc.lft.to/lastmile_qr_scan"}, "is_reserved": 0}, {"lon": -76.98712966666666, "bike_id": "d386dac3e82191a3211f4c2966a96153", "lat": 38.86628116666667, "fusion_lon": 0.0, "fusion_lat": 0.0, "type": "electric_scooter", "name": "d386dac3e82191a3211f4c2966a96153", "is_disabled": 0, "rental_uris": {"ios": "https://dc.lft.to/lastmile_qr_scan", "android": "https://dc.lft.to/lastmile_qr_scan"}, "is_reserved": 0}, {"lon": -77.0222445, "bike_id": "c6ca08129323fe0c74e6e0d5872de71d", "lat": 38.926225, "fusion_lon": 0.0, "fusion_lat": 0.0, "type": "electric_scooter", "name": "c6ca08129323fe0c74e6e0d5872de71d", "is_disabled": 0, "rental_uris": {"ios": "https://dc.lft.to/lastmile_qr_scan", "android": "https://dc.lft.to/lastmile_qr_scan"}, "is_reserved": 0}, {"lon": -77.02484983333333, "bike_id": "13e005c9927684ee83bd52a518347942", "lat": 38.94825683333333, "fusion_lon": 0.0, "fusion_lat": 0.0, "type": "electric_scooter", "name": "13e005c9927684ee83bd52a518347942", "is_disabled": 0, "rental_uris": {"ios": "https://dc.lft.to/lastmile_qr_scan", "android": "https://dc.lft.to/lastmile_qr_scan"}, "is_reserved": 0}, {"lon": -77.02182, "bike_id": "f33864264954ec8290cc9a6b23e6de7d", "lat": 38.9395065, "fusion_lon": 0.0, "fusion_lat": 0.0, "type": "electric_scooter", "name": "f33864264954ec8290cc9a6b23e6de7d", "is_disabled": 0, "rental_uris": {"ios": "https://dc.lft.to/lastmile_qr_scan", "android": "https://dc.lft.to/lastmile_qr_scan"}, "is_reserved": 0}, {"lon": -77.079205, "bike_id": "06b7a6c9b199d408816a48704ef0b062", "lat": 38.948129, "fusion_lon": 0.0, "fusion_lat": 0.0, "type": "electric_scooter", "name": "06b7a6c9b199d408816a48704ef0b062", "is_disabled": 0, "rental_uris": {"ios": "https://dc.lft.to/lastmile_qr_scan", "android": "https://dc.lft.to/lastmile_qr_scan"}, "is_reserved": 0}, {"lon": -77.01266883333334, "bike_id": "6da8fbf76c0ed0cfee4f110c0b3975f7", "lat": 38.91543566666667, "fusion_lon": 0.0, "fusion_lat": 0.0, "type": "electric_scooter", "name": "6da8fbf76c0ed0cfee4f110c0b3975f7", "is_disabled": 0, "rental_uris": {"ios": "https://dc.lft.to/lastmile_qr_scan", "android": "https://dc.lft.to/lastmile_qr_scan"}, "is_reserved": 0}, {"lon": -76.97971483333333, "bike_id": "8e6ef4498d3eafbaebb67f92565c2cd5", "lat": 38.953709333333336, "fusion_lon": 0.0, "fusion_lat": 0.0, "type": "electric_bike", "name": "8e6ef4498d3eafbaebb67f92565c2cd5", "is_disabled": 0, "rental_uris": {"ios": "https://dc.lft.to/lastmile_qr_scan", "android": "https://dc.lft.to/lastmile_qr_scan"}, "is_reserved": 0}, {"lon": -77.04391733333334, "bike_id": "d27b95d6357f0cd649f48d60de377a48", "lat": 39.047178, "fusion_lon": 0.0, "fusion_lat": 0.0, "type": "electric_bike", "name": "d27b95d6357f0cd649f48d60de377a48", "is_disabled": 0, "rental_uris": {"ios": "https://dc.lft.to/lastmile_qr_scan", "android": "https://dc.lft.to/lastmile_qr_scan"}, "is_reserved": 0}, {"lon": -77.02107266666667, "bike_id": "56c8a3fe63a3160c5c68f2fc928e730a", "lat": 38.906077, "fusion_lon": 0.0, "fusion_lat": 0.0, "type": "electric_scooter", "name": "56c8a3fe63a3160c5c68f2fc928e730a", "is_disabled": 0, "rental_uris": {"ios": "https://dc.lft.to/lastmile_qr_scan", "android": "https://dc.lft.to/lastmile_qr_scan"}, "is_reserved": 0}, {"lon": -77.0439945, "bike_id": "bd55848175cc32347e3050bd34dae4e9", "lat": 38.924490166666665, "fusion_lon": 0.0, "fusion_lat": 0.0, "type": "electric_scooter", "name": "bd55848175cc32347e3050bd34dae4e9", "is_disabled": 0, "rental_uris": {"ios": "https://dc.lft.to/lastmile_qr_scan", "android": "https://dc.lft.to/lastmile_qr_scan"}, "is_reserved": 0}, {"lon": -77.04888683333333, "bike_id": "388a83ec10b2098598324e01b419d1ca", "lat": 38.892334, "fusion_lon": 0.0, "fusion_lat": 0.0, "type": "electric_scooter", "name": "388a83ec10b2098598324e01b419d1ca", "is_disabled": 0, "rental_uris": {"ios": "https://dc.lft.to/lastmile_qr_scan", "android": "https://dc.lft.to/lastmile_qr_scan"}, "is_reserved": 0}, {"lon": -77.05584516666667, "bike_id": "62f3a833f193039113fd4bb1076bc7df", "lat": 38.923267833333334, "fusion_lon": 0.0, "fusion_lat": 0.0, "type": "electric_scooter", "name": "62f3a833f193039113fd4bb1076bc7df", "is_disabled": 0, "rental_uris": {"ios": "https://dc.lft.to/lastmile_qr_scan", "android": "https://dc.lft.to/lastmile_qr_scan"}, "is_reserved": 0}, {"lon": -77.046655, "bike_id": "0b612679d6e44b10cfafaa0fe28229a6", "lat": 38.9061485, "fusion_lon": 0.0, "fusion_lat": 0.0, "type": "electric_scooter", "name": "0b612679d6e44b10cfafaa0fe28229a6", "is_disabled": 0, "rental_uris": {"ios": "https://dc.lft.to/lastmile_qr_scan", "android": "https://dc.lft.to/lastmile_qr_scan"}, "is_reserved": 0}, {"lon": -76.9892055, "bike_id": "e35e7bdf2fec6063bb8c1b751b4c9100", "lat": 38.85809183333333, "fusion_lon": 0.0, "fusion_lat": 0.0, "type": "electric_scooter", "name": "e35e7bdf2fec6063bb8c1b751b4c9100", "is_disabled": 0, "rental_uris": {"ios": "https://dc.lft.to/lastmile_qr_scan", "android": "https://dc.lft.to/lastmile_qr_scan"}, "is_reserved": 0}, {"lon": -77.05805133333334, "bike_id": "2db73f17e93488d4069119a918b418fb", "lat": 38.935323833333335, "fusion_lon": 0.0, "fusion_lat": 0.0, "type": "electric_bike", "name": "2db73f17e93488d4069119a918b418fb", "is_disabled": 0, "rental_uris": {"ios": "https://dc.lft.to/lastmile_qr_scan", "android": "https://dc.lft.to/lastmile_qr_scan"}, "is_reserved": 0}, {"lon": -77.02306066666667, "bike_id": "41a6a3a9beecabb0a2c199768c3bf288", "lat": 38.91708833333333, "fusion_lon": 0.0, "fusion_lat": 0.0, "type": "electric_scooter", "name": "41a6a3a9beecabb0a2c199768c3bf288", "is_disabled": 0, "rental_uris": {"ios": "https://dc.lft.to/lastmile_qr_scan", "android": "https://dc.lft.to/lastmile_qr_scan"}, "is_reserved": 0}, {"lon": -77.0220825, "bike_id": "c6834c56818cfd36a58192127bfddd8c", "lat": 38.9141495, "fusion_lon": 0.0, "fusion_lat": 0.0, "type": "electric_scooter", "name": "c6834c56818cfd36a58192127bfddd8c", "is_disabled": 0, "rental_uris": {"ios": "https://dc.lft.to/lastmile_qr_scan", "android": "https://dc.lft.to/lastmile_qr_scan"}, "is_reserved": 0}, {"lon": -77.02605466666667, "bike_id": "590c0b03cec7dba34f0533a13d76628e", "lat": 38.982861666666665, "fusion_lon": 0.0, "fusion_lat": 0.0, "type": "electric_bike", "name": "590c0b03cec7dba34f0533a13d76628e", "is_disabled": 0, "rental_uris": {"ios": "https://dc.lft.to/lastmile_qr_scan", "android": "https://dc.lft.to/lastmile_qr_scan"}, "is_reserved": 0}, {"lon": -77.03544183333334, "bike_id": "e9fb80c573029bd3ab2bbf112b69712b", "lat": 38.91841566666667, "fusion_lon": 0.0, "fusion_lat": 0.0, "type": "electric_scooter", "name": "e9fb80c573029bd3ab2bbf112b69712b", "is_disabled": 0, "rental_uris": {"ios": "https://dc.lft.to/lastmile_qr_scan", "android": "https://dc.lft.to/lastmile_qr_scan"}, "is_reserved": 0}, {"lon": -76.99013833333333, "bike_id": "4c72e913223a8ef800a8a2d6cedf9d80", "lat": 38.94598966666667, "fusion_lon": 0.0, "fusion_lat": 0.0, "type": "electric_scooter", "name": "4c72e913223a8ef800a8a2d6cedf9d80", "is_disabled": 0, "rental_uris": {"ios": "https://dc.lft.to/lastmile_qr_scan", "android": "https://dc.lft.to/lastmile_qr_scan"}, "is_reserved": 0}, {"lon": -77.0498065, "bike_id": "904a8bb8f2f0eea8daf4510bf7bdeed6", "lat": 39.06293566666667, "fusion_lon": 0.0, "fusion_lat": 0.0, "type": "electric_bike", "name": "904a8bb8f2f0eea8daf4510bf7bdeed6", "is_disabled": 0, "rental_uris": {"ios": "https://dc.lft.to/lastmile_qr_scan", "android": "https://dc.lft.to/lastmile_qr_scan"}, "is_reserved": 0}, {"lon": -77.04594833333333, "bike_id": "b3d5b710651746a30a845c591d29b2e3", "lat": 38.896102, "fusion_lon": 0.0, "fusion_lat": 0.0, "type": "electric_scooter", "name": "b3d5b710651746a30a845c591d29b2e3", "is_disabled": 0, "rental_uris": {"ios": "https://dc.lft.to/lastmile_qr_scan", "android": "https://dc.lft.to/lastmile_qr_scan"}, "is_reserved": 0}, {"lon": -77.03291566666667, "bike_id": "28176484be5f15e523f671d3dc433992", "lat": 38.9565285, "fusion_lon": 0.0, "fusion_lat": 0.0, "type": "electric_scooter", "name": "28176484be5f15e523f671d3dc433992", "is_disabled": 0, "rental_uris": {"ios": "https://dc.lft.to/lastmile_qr_scan", "android": "https://dc.lft.to/lastmile_qr_scan"}, "is_reserved": 0}, {"lon": -77.051517, "bike_id": "673cfc72d3f714d7cb980ad291ec866d", "lat": 38.89851566666667, "fusion_lon": 0.0, "fusion_lat": 0.0, "type": "electric_scooter", "name": "673cfc72d3f714d7cb980ad291ec866d", "is_disabled": 0, "rental_uris": {"ios": "https://dc.lft.to/lastmile_qr_scan", "android": "https://dc.lft.to/lastmile_qr_scan"}, "is_reserved": 0}, {"lon": -77.00126733333333, "bike_id": "862a971a9c35122b72ac9fa5c3b1d220", "lat": 38.90505016666667, "fusion_lon": 0.0, "fusion_lat": 0.0, "type": "electric_scooter", "name": "862a971a9c35122b72ac9fa5c3b1d220", "is_disabled": 0, "rental_uris": {"ios": "https://dc.lft.to/lastmile_qr_scan", "android": "https://dc.lft.to/lastmile_qr_scan"}, "is_reserved": 0}, {"lon": -76.9377325, "bike_id": "4068232a94322443baa0364c8b3f21d6", "lat": 38.899721166666666, "fusion_lon": 0.0, "fusion_lat": 0.0, "type": "electric_scooter", "name": "4068232a94322443baa0364c8b3f21d6", "is_disabled": 0, "rental_uris": {"ios": "https://dc.lft.to/lastmile_qr_scan", "android": "https://dc.lft.to/lastmile_qr_scan"}, "is_reserved": 0}, {"lon": -76.9376115, "bike_id": "2d6e7b11379bf207b76c897124b5899b", "lat": 38.87862283333333, "fusion_lon": 0.0, "fusion_lat": 0.0, "type": "electric_scooter", "name": "2d6e7b11379bf207b76c897124b5899b", "is_disabled": 0, "rental_uris": {"ios": "https://dc.lft.to/lastmile_qr_scan", "android": "https://dc.lft.to/lastmile_qr_scan"}, "is_reserved": 0}, {"lon": -77.0230885, "bike_id": "48164ffe09198dc5a802fab8650c762a", "lat": 38.90890533333334, "fusion_lon": 0.0, "fusion_lat": 0.0, "type": "electric_scooter", "name": "48164ffe09198dc5a802fab8650c762a", "is_disabled": 0, "rental_uris": {"ios": "https://dc.lft.to/lastmile_qr_scan", "android": "https://dc.lft.to/lastmile_qr_scan"}, "is_reserved": 0}, {"lon": -77.03528616666667, "bike_id": "fe1a80b599294727205adebec93fbf9f", "lat": 38.92336516666667, "fusion_lon": 0.0, "fusion_lat": 0.0, "type": "electric_scooter", "name": "fe1a80b599294727205adebec93fbf9f", "is_disabled": 0, "rental_uris": {"ios": "https://dc.lft.to/lastmile_qr_scan", "android": "https://dc.lft.to/lastmile_qr_scan"}, "is_reserved": 0}, {"lon": -76.94504416666666, "bike_id": "7268fdba8150dcf6ac9f6be711f61670", "lat": 38.86487666666667, "fusion_lon": 0.0, "fusion_lat": 0.0, "type": "electric_bike", "name": "7268fdba8150dcf6ac9f6be711f61670", "is_disabled": 0, "rental_uris": {"ios": "https://dc.lft.to/lastmile_qr_scan", "android": "https://dc.lft.to/lastmile_qr_scan"}, "is_reserved": 0}, {"lon": -76.99858316666666, "bike_id": "21e179aa8d04e5c86fcc917582755cd4", "lat": 38.89414933333333, "fusion_lon": 0.0, "fusion_lat": 0.0, "type": "electric_scooter", "name": "21e179aa8d04e5c86fcc917582755cd4", "is_disabled": 0, "rental_uris": {"ios": "https://dc.lft.to/lastmile_qr_scan", "android": "https://dc.lft.to/lastmile_qr_scan"}, "is_reserved": 0}, {"lon": -77.03539716666667, "bike_id": "8561640a6ddca080c76e376317c06445", "lat": 38.91837966666667, "fusion_lon": 0.0, "fusion_lat": 0.0, "type": "electric_scooter", "name": "8561640a6ddca080c76e376317c06445", "is_disabled": 0, "rental_uris": {"ios": "https://dc.lft.to/lastmile_qr_scan", "android": "https://dc.lft.to/lastmile_qr_scan"}, "is_reserved": 0}, {"lon": -77.0424095, "bike_id": "1b414b27ae0bb21230b1da50ef4b27d5", "lat": 38.92426916666667, "fusion_lon": 0.0, "fusion_lat": 0.0, "type": "electric_scooter", "name": "1b414b27ae0bb21230b1da50ef4b27d5", "is_disabled": 0, "rental_uris": {"ios": "https://dc.lft.to/lastmile_qr_scan", "android": "https://dc.lft.to/lastmile_qr_scan"}, "is_reserved": 0}, {"lon": -77.038633, "bike_id": "da75fa2776a09036acba5e607ee58c95", "lat": 38.912559333333334, "fusion_lon": 0.0, "fusion_lat": 0.0, "type": "electric_scooter", "name": "da75fa2776a09036acba5e607ee58c95", "is_disabled": 0, "rental_uris": {"ios": "https://dc.lft.to/lastmile_qr_scan", "android": "https://dc.lft.to/lastmile_qr_scan"}, "is_reserved": 0}, {"lon": -77.04465533333334, "bike_id": "2080327c54d6052af996610d9cd6647f", "lat": 38.918989833333335, "fusion_lon": 0.0, "fusion_lat": 0.0, "type": "electric_scooter", "name": "2080327c54d6052af996610d9cd6647f", "is_disabled": 0, "rental_uris": {"ios": "https://dc.lft.to/lastmile_qr_scan", "android": "https://dc.lft.to/lastmile_qr_scan"}, "is_reserved": 0}, {"lon": -77.033285, "bike_id": "1e293e0dbebd2c5c2d541f10c6a17ef1", "lat": 38.93903383333333, "fusion_lon": 0.0, "fusion_lat": 0.0, "type": "electric_scooter", "name": "1e293e0dbebd2c5c2d541f10c6a17ef1", "is_disabled": 0, "rental_uris": {"ios": "https://dc.lft.to/lastmile_qr_scan", "android": "https://dc.lft.to/lastmile_qr_scan"}, "is_reserved": 0}, {"lon": -77.03862716666667, "bike_id": "c00a2f7edf2bc0d4071535eb70bdfbca", "lat": 38.9155725, "fusion_lon": 0.0, "fusion_lat": 0.0, "type": "electric_scooter", "name": "c00a2f7edf2bc0d4071535eb70bdfbca", "is_disabled": 0, "rental_uris": {"ios": "https://dc.lft.to/lastmile_qr_scan", "android": "https://dc.lft.to/lastmile_qr_scan"}, "is_reserved": 0}, {"lon": -77.04544166666666, "bike_id": "6450f8e5568a22c6a8591e1469654fb6", "lat": 38.93414633333333, "fusion_lon": 0.0, "fusion_lat": 0.0, "type": "electric_scooter", "name": "6450f8e5568a22c6a8591e1469654fb6", "is_disabled": 0, "rental_uris": {"ios": "https://dc.lft.to/lastmile_qr_scan", "android": "https://dc.lft.to/lastmile_qr_scan"}, "is_reserved": 0}, {"lon": -77.02344366666667, "bike_id": "ffa0a14a12d3e937f925e70de4012cb6", "lat": 38.91773966666667, "fusion_lon": 0.0, "fusion_lat": 0.0, "type": "electric_scooter", "name": "ffa0a14a12d3e937f925e70de4012cb6", "is_disabled": 0, "rental_uris": {"ios": "https://dc.lft.to/lastmile_qr_scan", "android": "https://dc.lft.to/lastmile_qr_scan"}, "is_reserved": 0}, {"lon": -77.0228215, "bike_id": "f10dafae86641954acf3b439536295ac", "lat": 38.926921166666666, "fusion_lon": 0.0, "fusion_lat": 0.0, "type": "electric_scooter", "name": "f10dafae86641954acf3b439536295ac", "is_disabled": 0, "rental_uris": {"ios": "https://dc.lft.to/lastmile_qr_scan", "android": "https://dc.lft.to/lastmile_qr_scan"}, "is_reserved": 0}, {"lon": -77.01739583333334, "bike_id": "1e04d510c58d20ad29596b34cc14e7a1", "lat": 38.903936, "fusion_lon": 0.0, "fusion_lat": 0.0, "type": "electric_scooter", "name": "1e04d510c58d20ad29596b34cc14e7a1", "is_disabled": 0, "rental_uris": {"ios": "https://dc.lft.to/lastmile_qr_scan", "android": "https://dc.lft.to/lastmile_qr_scan"}, "is_reserved": 0}, {"lon": -77.03360783333333, "bike_id": "d42493c6a5e073e359d5c86e4091d975", "lat": 38.93527383333333, "fusion_lon": 0.0, "fusion_lat": 0.0, "type": "electric_scooter", "name": "d42493c6a5e073e359d5c86e4091d975", "is_disabled": 0, "rental_uris": {"ios": "https://dc.lft.to/lastmile_qr_scan", "android": "https://dc.lft.to/lastmile_qr_scan"}, "is_reserved": 0}, {"lon": -76.962148, "bike_id": "04e886dca50e0ca074ea96ac2bf8e1a7", "lat": 38.87781783333333, "fusion_lon": 0.0, "fusion_lat": 0.0, "type": "electric_scooter", "name": "04e886dca50e0ca074ea96ac2bf8e1a7", "is_disabled": 0, "rental_uris": {"ios": "https://dc.lft.to/lastmile_qr_scan", "android": "https://dc.lft.to/lastmile_qr_scan"}, "is_reserved": 0}, {"lon": -77.07325833333333, "bike_id": "f93f01e763e72b4af9603c0e68d293ae", "lat": 38.91401183333333, "fusion_lon": 0.0, "fusion_lat": 0.0, "type": "electric_scooter", "name": "f93f01e763e72b4af9603c0e68d293ae", "is_disabled": 0, "rental_uris": {"ios": "https://dc.lft.to/lastmile_qr_scan", "android": "https://dc.lft.to/lastmile_qr_scan"}, "is_reserved": 0}, {"lon": -77.02438633333334, "bike_id": "ae578cad35415981e32f3761ac662f9d", "lat": 38.92064166666667, "fusion_lon": 0.0, "fusion_lat": 0.0, "type": "electric_scooter", "name": "ae578cad35415981e32f3761ac662f9d", "is_disabled": 0, "rental_uris": {"ios": "https://dc.lft.to/lastmile_qr_scan", "android": "https://dc.lft.to/lastmile_qr_scan"}, "is_reserved": 0}, {"lon": -77.119167, "bike_id": "b0a8768d788ec32bc5427a26d59a087b", "lat": 38.87635983333333, "fusion_lon": 0.0, "fusion_lat": 0.0, "type": "electric_bike", "name": "b0a8768d788ec32bc5427a26d59a087b", "is_disabled": 0, "rental_uris": {"ios": "https://dc.lft.to/lastmile_qr_scan", "android": "https://dc.lft.to/lastmile_qr_scan"}, "is_reserved": 0}, {"lon": -77.00562916666667, "bike_id": "e031d9046844cef03011b263fc13ebe7", "lat": 38.87685283333333, "fusion_lon": 0.0, "fusion_lat": 0.0, "type": "electric_scooter", "name": "e031d9046844cef03011b263fc13ebe7", "is_disabled": 0, "rental_uris": {"ios": "https://dc.lft.to/lastmile_qr_scan", "android": "https://dc.lft.to/lastmile_qr_scan"}, "is_reserved": 0}, {"lon": -77.07807466666667, "bike_id": "5ba7fdc032d7213fffd1f84488ec5ccb", "lat": 38.9246165, "fusion_lon": 0.0, "fusion_lat": 0.0, "type": "electric_scooter", "name": "5ba7fdc032d7213fffd1f84488ec5ccb", "is_disabled": 0, "rental_uris": {"ios": "https://dc.lft.to/lastmile_qr_scan", "android": "https://dc.lft.to/lastmile_qr_scan"}, "is_reserved": 0}, {"lon": -77.03966016666666, "bike_id": "e20d1e5d22ad9e555c994d9faecdf628", "lat": 38.923181166666666, "fusion_lon": 0.0, "fusion_lat": 0.0, "type": "electric_scooter", "name": "e20d1e5d22ad9e555c994d9faecdf628", "is_disabled": 0, "rental_uris": {"ios": "https://dc.lft.to/lastmile_qr_scan", "android": "https://dc.lft.to/lastmile_qr_scan"}, "is_reserved": 0}, {"lon": -77.00922366666667, "bike_id": "ea0f4be2a742827cfba17937bdb7e141", "lat": 38.910708, "fusion_lon": 0.0, "fusion_lat": 0.0, "type": "electric_scooter", "name": "ea0f4be2a742827cfba17937bdb7e141", "is_disabled": 0, "rental_uris": {"ios": "https://dc.lft.to/lastmile_qr_scan", "android": "https://dc.lft.to/lastmile_qr_scan"}, "is_reserved": 0}, {"lon": -77.002238, "bike_id": "72cb5ed11f276ade9464da4f0e9a21f6", "lat": 38.90246466666667, "fusion_lon": 0.0, "fusion_lat": 0.0, "type": "electric_scooter", "name": "72cb5ed11f276ade9464da4f0e9a21f6", "is_disabled": 0, "rental_uris": {"ios": "https://dc.lft.to/lastmile_qr_scan", "android": "https://dc.lft.to/lastmile_qr_scan"}, "is_reserved": 0}, {"lon": -77.03438266666667, "bike_id": "b5d4ea43c737434d8d627710d5994eae", "lat": 38.91714, "fusion_lon": 0.0, "fusion_lat": 0.0, "type": "electric_scooter", "name": "b5d4ea43c737434d8d627710d5994eae", "is_disabled": 0, "rental_uris": {"ios": "https://dc.lft.to/lastmile_qr_scan", "android": "https://dc.lft.to/lastmile_qr_scan"}, "is_reserved": 0}, {"lon": -77.0533255, "bike_id": "62bf9c5581e68cebf8a60fe776883060", "lat": 38.898770666666664, "fusion_lon": 0.0, "fusion_lat": 0.0, "type": "electric_scooter", "name": "62bf9c5581e68cebf8a60fe776883060", "is_disabled": 0, "rental_uris": {"ios": "https://dc.lft.to/lastmile_qr_scan", "android": "https://dc.lft.to/lastmile_qr_scan"}, "is_reserved": 0}, {"lon": -77.0176195, "bike_id": "23c1b63ca68f43ec89801de35aefc17d", "lat": 38.872134333333335, "fusion_lon": 0.0, "fusion_lat": 0.0, "type": "electric_scooter", "name": "23c1b63ca68f43ec89801de35aefc17d", "is_disabled": 0, "rental_uris": {"ios": "https://dc.lft.to/lastmile_qr_scan", "android": "https://dc.lft.to/lastmile_qr_scan"}, "is_reserved": 0}, {"lon": -77.07008066666667, "bike_id": "d224ab119030afdfc844f4617657afb6", "lat": 38.905955, "fusion_lon": 0.0, "fusion_lat": 0.0, "type": "electric_bike", "name": "d224ab119030afdfc844f4617657afb6", "is_disabled": 0, "rental_uris": {"ios": "https://dc.lft.to/lastmile_qr_scan", "android": "https://dc.lft.to/lastmile_qr_scan"}, "is_reserved": 0}, {"lon": -77.010585, "bike_id": "d5c95d256d899821b114c295a23ad5a7", "lat": 38.963514333333336, "fusion_lon": 0.0, "fusion_lat": 0.0, "type": "electric_scooter", "name": "d5c95d256d899821b114c295a23ad5a7", "is_disabled": 0, "rental_uris": {"ios": "https://dc.lft.to/lastmile_qr_scan", "android": "https://dc.lft.to/lastmile_qr_scan"}, "is_reserved": 0}, {"lon": -77.02292883333334, "bike_id": "0b139b1f9077aa34b56bb8d04b9c4603", "lat": 38.92228166666666, "fusion_lon": 0.0, "fusion_lat": 0.0, "type": "electric_scooter", "name": "0b139b1f9077aa34b56bb8d04b9c4603", "is_disabled": 0, "rental_uris": {"ios": "https://dc.lft.to/lastmile_qr_scan", "android": "https://dc.lft.to/lastmile_qr_scan"}, "is_reserved": 0}, {"lon": -77.02769633333334, "bike_id": "892697ab8bd1f8a442b7d8d9b259a03f", "lat": 38.9543385, "fusion_lon": 0.0, "fusion_lat": 0.0, "type": "electric_scooter", "name": "892697ab8bd1f8a442b7d8d9b259a03f", "is_disabled": 0, "rental_uris": {"ios": "https://dc.lft.to/lastmile_qr_scan", "android": "https://dc.lft.to/lastmile_qr_scan"}, "is_reserved": 0}, {"lon": -77.04014966666666, "bike_id": "2d50c2e646dc659031a93894ee0d8fd8", "lat": 38.90586233333333, "fusion_lon": 0.0, "fusion_lat": 0.0, "type": "electric_scooter", "name": "2d50c2e646dc659031a93894ee0d8fd8", "is_disabled": 0, "rental_uris": {"ios": "https://dc.lft.to/lastmile_qr_scan", "android": "https://dc.lft.to/lastmile_qr_scan"}, "is_reserved": 0}, {"lon": -77.0445945, "bike_id": "79196640fbf7b5865002774694d5f6fc", "lat": 38.918495166666666, "fusion_lon": 0.0, "fusion_lat": 0.0, "type": "electric_scooter", "name": "79196640fbf7b5865002774694d5f6fc", "is_disabled": 0, "rental_uris": {"ios": "https://dc.lft.to/lastmile_qr_scan", "android": "https://dc.lft.to/lastmile_qr_scan"}, "is_reserved": 0}, {"lon": -77.03661833333334, "bike_id": "66808f0f447ad1401f56431c691164e2", "lat": 38.917357, "fusion_lon": 0.0, "fusion_lat": 0.0, "type": "electric_scooter", "name": "66808f0f447ad1401f56431c691164e2", "is_disabled": 0, "rental_uris": {"ios": "https://dc.lft.to/lastmile_qr_scan", "android": "https://dc.lft.to/lastmile_qr_scan"}, "is_reserved": 0}, {"lon": -77.008193, "bike_id": "f5f043f5bed7ec49f931a9c7a27c2977", "lat": 38.87640533333333, "fusion_lon": 0.0, "fusion_lat": 0.0, "type": "electric_scooter", "name": "f5f043f5bed7ec49f931a9c7a27c2977", "is_disabled": 0, "rental_uris": {"ios": "https://dc.lft.to/lastmile_qr_scan", "android": "https://dc.lft.to/lastmile_qr_scan"}, "is_reserved": 0}, {"lon": -77.03266616666667, "bike_id": "57d5bba8f7054cc88d5652b9bac4921c", "lat": 38.9199935, "fusion_lon": 0.0, "fusion_lat": 0.0, "type": "electric_scooter", "name": "57d5bba8f7054cc88d5652b9bac4921c", "is_disabled": 0, "rental_uris": {"ios": "https://dc.lft.to/lastmile_qr_scan", "android": "https://dc.lft.to/lastmile_qr_scan"}, "is_reserved": 0}, {"lon": -77.03455116666666, "bike_id": "833f4e5427393dc54ae1be6007b13e47", "lat": 38.934424666666665, "fusion_lon": 0.0, "fusion_lat": 0.0, "type": "electric_scooter", "name": "833f4e5427393dc54ae1be6007b13e47", "is_disabled": 0, "rental_uris": {"ios": "https://dc.lft.to/lastmile_qr_scan", "android": "https://dc.lft.to/lastmile_qr_scan"}, "is_reserved": 0}, {"lon": -77.04003883333333, "bike_id": "600dcade588d57bc70575ac1ef7a1000", "lat": 38.921753833333334, "fusion_lon": 0.0, "fusion_lat": 0.0, "type": "electric_scooter", "name": "600dcade588d57bc70575ac1ef7a1000", "is_disabled": 0, "rental_uris": {"ios": "https://dc.lft.to/lastmile_qr_scan", "android": "https://dc.lft.to/lastmile_qr_scan"}, "is_reserved": 0}, {"lon": -76.96602183333333, "bike_id": "c40754b734549eb408cda0c9fe71b7e8", "lat": 38.871122166666666, "fusion_lon": 0.0, "fusion_lat": 0.0, "type": "electric_scooter", "name": "c40754b734549eb408cda0c9fe71b7e8", "is_disabled": 0, "rental_uris": {"ios": "https://dc.lft.to/lastmile_qr_scan", "android": "https://dc.lft.to/lastmile_qr_scan"}, "is_reserved": 0}, {"lon": -77.0431655, "bike_id": "7e74ba0c4188d877defab8d86a4a8306", "lat": 38.923633833333334, "fusion_lon": 0.0, "fusion_lat": 0.0, "type": "electric_scooter", "name": "7e74ba0c4188d877defab8d86a4a8306", "is_disabled": 0, "rental_uris": {"ios": "https://dc.lft.to/lastmile_qr_scan", "android": "https://dc.lft.to/lastmile_qr_scan"}, "is_reserved": 0}, {"lon": -76.98877566666667, "bike_id": "f314cf22092a0a974b6cde8d349eb860", "lat": 38.86659933333333, "fusion_lon": 0.0, "fusion_lat": 0.0, "type": "electric_scooter", "name": "f314cf22092a0a974b6cde8d349eb860", "is_disabled": 0, "rental_uris": {"ios": "https://dc.lft.to/lastmile_qr_scan", "android": "https://dc.lft.to/lastmile_qr_scan"}, "is_reserved": 0}, {"lon": -77.05213983333333, "bike_id": "836994053d681542b4908a59c4dad2d3", "lat": 38.92482733333333, "fusion_lon": 0.0, "fusion_lat": 0.0, "type": "electric_scooter", "name": "836994053d681542b4908a59c4dad2d3", "is_disabled": 0, "rental_uris": {"ios": "https://dc.lft.to/lastmile_qr_scan", "android": "https://dc.lft.to/lastmile_qr_scan"}, "is_reserved": 0}, {"lon": -77.00887016666667, "bike_id": "96f6ad69d3d5c77de11126617e0bcf42", "lat": 38.92279416666667, "fusion_lon": 0.0, "fusion_lat": 0.0, "type": "electric_scooter", "name": "96f6ad69d3d5c77de11126617e0bcf42", "is_disabled": 0, "rental_uris": {"ios": "https://dc.lft.to/lastmile_qr_scan", "android": "https://dc.lft.to/lastmile_qr_scan"}, "is_reserved": 0}, {"lon": -77.23331283333333, "bike_id": "ac89f1acee06253139b3a838a14c8e59", "lat": 38.87279516666667, "fusion_lon": 0.0, "fusion_lat": 0.0, "type": "electric_bike", "name": "ac89f1acee06253139b3a838a14c8e59", "is_disabled": 0, "rental_uris": {"ios": "https://dc.lft.to/lastmile_qr_scan", "android": "https://dc.lft.to/lastmile_qr_scan"}, "is_reserved": 0}, {"lon": -77.0340215, "bike_id": "5a036ad89642d02fa39feb01d60a4895", "lat": 38.92641016666666, "fusion_lon": 0.0, "fusion_lat": 0.0, "type": "electric_scooter", "name": "5a036ad89642d02fa39feb01d60a4895", "is_disabled": 0, "rental_uris": {"ios": "https://dc.lft.to/lastmile_qr_scan", "android": "https://dc.lft.to/lastmile_qr_scan"}, "is_reserved": 0}, {"lon": -77.028854, "bike_id": "07c8309bd70a8487f39d367aab155bc0", "lat": 38.90441216666667, "fusion_lon": 0.0, "fusion_lat": 0.0, "type": "electric_scooter", "name": "07c8309bd70a8487f39d367aab155bc0", "is_disabled": 0, "rental_uris": {"ios": "https://dc.lft.to/lastmile_qr_scan", "android": "https://dc.lft.to/lastmile_qr_scan"}, "is_reserved": 0}, {"lon": -77.0190475, "bike_id": "f45805304d94e478e3c80ef75e9e49ab", "lat": 38.90317, "fusion_lon": 0.0, "fusion_lat": 0.0, "type": "electric_bike", "name": "f45805304d94e478e3c80ef75e9e49ab", "is_disabled": 0, "rental_uris": {"ios": "https://dc.lft.to/lastmile_qr_scan", "android": "https://dc.lft.to/lastmile_qr_scan"}, "is_reserved": 0}, {"lon": -77.011914, "bike_id": "60b41c191285d1068472e3ea5389f28a", "lat": 38.9154285, "fusion_lon": 0.0, "fusion_lat": 0.0, "type": "electric_scooter", "name": "60b41c191285d1068472e3ea5389f28a", "is_disabled": 0, "rental_uris": {"ios": "https://dc.lft.to/lastmile_qr_scan", "android": "https://dc.lft.to/lastmile_qr_scan"}, "is_reserved": 0}, {"lon": -76.96555316666667, "bike_id": "de27308a9247895766aef66ae2b774ef", "lat": 38.918559333333334, "fusion_lon": 0.0, "fusion_lat": 0.0, "type": "electric_scooter", "name": "de27308a9247895766aef66ae2b774ef", "is_disabled": 0, "rental_uris": {"ios": "https://dc.lft.to/lastmile_qr_scan", "android": "https://dc.lft.to/lastmile_qr_scan"}, "is_reserved": 0}, {"lon": -76.97298433333333, "bike_id": "95eb4a80df3f3a48a4289fe1e10c70db", "lat": 38.916493833333334, "fusion_lon": 0.0, "fusion_lat": 0.0, "type": "electric_bike", "name": "95eb4a80df3f3a48a4289fe1e10c70db", "is_disabled": 0, "rental_uris": {"ios": "https://dc.lft.to/lastmile_qr_scan", "android": "https://dc.lft.to/lastmile_qr_scan"}, "is_reserved": 0}, {"lon": -77.027067, "bike_id": "f7f9fd412a82388708557a605e747d5c", "lat": 38.92782116666667, "fusion_lon": 0.0, "fusion_lat": 0.0, "type": "electric_scooter", "name": "f7f9fd412a82388708557a605e747d5c", "is_disabled": 0, "rental_uris": {"ios": "https://dc.lft.to/lastmile_qr_scan", "android": "https://dc.lft.to/lastmile_qr_scan"}, "is_reserved": 0}, {"lon": -77.02389566666666, "bike_id": "7bbeb928c30f8c0613bf89c2a9b1aa6a", "lat": 38.917406166666666, "fusion_lon": 0.0, "fusion_lat": 0.0, "type": "electric_scooter", "name": "7bbeb928c30f8c0613bf89c2a9b1aa6a", "is_disabled": 0, "rental_uris": {"ios": "https://dc.lft.to/lastmile_qr_scan", "android": "https://dc.lft.to/lastmile_qr_scan"}, "is_reserved": 0}, {"lon": -77.2331885, "bike_id": "79c9eb48d08e7b9322a70305be1685ef", "lat": 38.87281683333333, "fusion_lon": 0.0, "fusion_lat": 0.0, "type": "electric_bike", "name": "79c9eb48d08e7b9322a70305be1685ef", "is_disabled": 0, "rental_uris": {"ios": "https://dc.lft.to/lastmile_qr_scan", "android": "https://dc.lft.to/lastmile_qr_scan"}, "is_reserved": 0}, {"lon": -77.031555, "bike_id": "4bd7ee64eb2898ef0d4ad892d4d9733c", "lat": 38.916973666666664, "fusion_lon": 0.0, "fusion_lat": 0.0, "type": "electric_scooter", "name": "4bd7ee64eb2898ef0d4ad892d4d9733c", "is_disabled": 0, "rental_uris": {"ios": "https://dc.lft.to/lastmile_qr_scan", "android": "https://dc.lft.to/lastmile_qr_scan"}, "is_reserved": 0}, {"lon": -77.03275616666667, "bike_id": "953e8ba43ea0c73eb90c32fc890b6b9a", "lat": 38.90370266666667, "fusion_lon": 0.0, "fusion_lat": 0.0, "type": "electric_scooter", "name": "953e8ba43ea0c73eb90c32fc890b6b9a", "is_disabled": 0, "rental_uris": {"ios": "https://dc.lft.to/lastmile_qr_scan", "android": "https://dc.lft.to/lastmile_qr_scan"}, "is_reserved": 0}, {"lon": -77.01857916666667, "bike_id": "b0057bef3d65f923d74254564491405d", "lat": 38.9202435, "fusion_lon": 0.0, "fusion_lat": 0.0, "type": "electric_scooter", "name": "b0057bef3d65f923d74254564491405d", "is_disabled": 0, "rental_uris": {"ios": "https://dc.lft.to/lastmile_qr_scan", "android": "https://dc.lft.to/lastmile_qr_scan"}, "is_reserved": 0}, {"lon": -77.028346, "bike_id": "133d098f2a361daf207fa1c435070fc4", "lat": 38.88769716666667, "fusion_lon": 0.0, "fusion_lat": 0.0, "type": "electric_scooter", "name": "133d098f2a361daf207fa1c435070fc4", "is_disabled": 0, "rental_uris": {"ios": "https://dc.lft.to/lastmile_qr_scan", "android": "https://dc.lft.to/lastmile_qr_scan"}, "is_reserved": 0}, {"lon": -76.94997916666667, "bike_id": "4eb2a14b48682d1b1cc45ef4a07f3ef1", "lat": 38.893830333333334, "fusion_lon": 0.0, "fusion_lat": 0.0, "type": "electric_scooter", "name": "4eb2a14b48682d1b1cc45ef4a07f3ef1", "is_disabled": 0, "rental_uris": {"ios": "https://dc.lft.to/lastmile_qr_scan", "android": "https://dc.lft.to/lastmile_qr_scan"}, "is_reserved": 0}, {"lon": -76.984935, "bike_id": "a29de6872a71e9879d694c0fd41b16cb", "lat": 38.893529, "fusion_lon": 0.0, "fusion_lat": 0.0, "type": "electric_scooter", "name": "a29de6872a71e9879d694c0fd41b16cb", "is_disabled": 0, "rental_uris": {"ios": "https://dc.lft.to/lastmile_qr_scan", "android": "https://dc.lft.to/lastmile_qr_scan"}, "is_reserved": 0}, {"lon": -77.02895083333334, "bike_id": "f03189d258f078b84d92bbdc49dd9fd6", "lat": 38.91707866666667, "fusion_lon": 0.0, "fusion_lat": 0.0, "type": "electric_scooter", "name": "f03189d258f078b84d92bbdc49dd9fd6", "is_disabled": 0, "rental_uris": {"ios": "https://dc.lft.to/lastmile_qr_scan", "android": "https://dc.lft.to/lastmile_qr_scan"}, "is_reserved": 0}, {"lon": -76.997906, "bike_id": "9428ee895316a8254297add8fce281d0", "lat": 38.9564535, "fusion_lon": 0.0, "fusion_lat": 0.0, "type": "electric_bike", "name": "9428ee895316a8254297add8fce281d0", "is_disabled": 0, "rental_uris": {"ios": "https://dc.lft.to/lastmile_qr_scan", "android": "https://dc.lft.to/lastmile_qr_scan"}, "is_reserved": 0}, {"lon": -77.03468883333333, "bike_id": "08cff8d2634d35afd6ed2579fbd9bb5a", "lat": 38.918741833333335, "fusion_lon": 0.0, "fusion_lat": 0.0, "type": "electric_scooter", "name": "08cff8d2634d35afd6ed2579fbd9bb5a", "is_disabled": 0, "rental_uris": {"ios": "https://dc.lft.to/lastmile_qr_scan", "android": "https://dc.lft.to/lastmile_qr_scan"}, "is_reserved": 0}, {"lon": -77.04320933333334, "bike_id": "dfc2dbe808d1371b8bffe1eb9aafe9cc", "lat": 38.892258, "fusion_lon": 0.0, "fusion_lat": 0.0, "type": "electric_scooter", "name": "dfc2dbe808d1371b8bffe1eb9aafe9cc", "is_disabled": 0, "rental_uris": {"ios": "https://dc.lft.to/lastmile_qr_scan", "android": "https://dc.lft.to/lastmile_qr_scan"}, "is_reserved": 0}, {"lon": -77.05727033333334, "bike_id": "cb0a4393b4bc60db814d954ca706104f", "lat": 38.93362716666667, "fusion_lon": 0.0, "fusion_lat": 0.0, "type": "electric_scooter", "name": "cb0a4393b4bc60db814d954ca706104f", "is_disabled": 0, "rental_uris": {"ios": "https://dc.lft.to/lastmile_qr_scan", "android": "https://dc.lft.to/lastmile_qr_scan"}, "is_reserved": 0}, {"lon": -77.00604666666666, "bike_id": "6859f2461557c64830421e32d6135a47", "lat": 38.909274, "fusion_lon": 0.0, "fusion_lat": 0.0, "type": "electric_scooter", "name": "6859f2461557c64830421e32d6135a47", "is_disabled": 0, "rental_uris": {"ios": "https://dc.lft.to/lastmile_qr_scan", "android": "https://dc.lft.to/lastmile_qr_scan"}, "is_reserved": 0}, {"lon": -77.00694183333333, "bike_id": "ee13e32585ae600396ba30e69cc757ae", "lat": 38.917450333333335, "fusion_lon": 0.0, "fusion_lat": 0.0, "type": "electric_scooter", "name": "ee13e32585ae600396ba30e69cc757ae", "is_disabled": 0, "rental_uris": {"ios": "https://dc.lft.to/lastmile_qr_scan", "android": "https://dc.lft.to/lastmile_qr_scan"}, "is_reserved": 0}, {"lon": -76.97905233333333, "bike_id": "4e39625d22472b2208cdc5fb4680904f", "lat": 38.92461316666667, "fusion_lon": 0.0, "fusion_lat": 0.0, "type": "electric_bike", "name": "4e39625d22472b2208cdc5fb4680904f", "is_disabled": 0, "rental_uris": {"ios": "https://dc.lft.to/lastmile_qr_scan", "android": "https://dc.lft.to/lastmile_qr_scan"}, "is_reserved": 0}, {"lon": -77.00480133333333, "bike_id": "0ced20ce3b943fda1adf427410236f9b", "lat": 38.87479233333333, "fusion_lon": 0.0, "fusion_lat": 0.0, "type": "electric_scooter", "name": "0ced20ce3b943fda1adf427410236f9b", "is_disabled": 0, "rental_uris": {"ios": "https://dc.lft.to/lastmile_qr_scan", "android": "https://dc.lft.to/lastmile_qr_scan"}, "is_reserved": 0}, {"lon": -76.99525733333333, "bike_id": "8575f3d67771e65f99b362ffe88ebb1b", "lat": 38.894789833333334, "fusion_lon": 0.0, "fusion_lat": 0.0, "type": "electric_scooter", "name": "8575f3d67771e65f99b362ffe88ebb1b", "is_disabled": 0, "rental_uris": {"ios": "https://dc.lft.to/lastmile_qr_scan", "android": "https://dc.lft.to/lastmile_qr_scan"}, "is_reserved": 0}, {"lon": -76.95520583333334, "bike_id": "82a4920786988102daa960d37534251e", "lat": 38.887677833333335, "fusion_lon": 0.0, "fusion_lat": 0.0, "type": "electric_scooter", "name": "82a4920786988102daa960d37534251e", "is_disabled": 0, "rental_uris": {"ios": "https://dc.lft.to/lastmile_qr_scan", "android": "https://dc.lft.to/lastmile_qr_scan"}, "is_reserved": 0}, {"lon": -76.97323266666666, "bike_id": "af0d98ad8447c56af3ff7f771becbabf", "lat": 38.904765833333336, "fusion_lon": 0.0, "fusion_lat": 0.0, "type": "electric_bike", "name": "af0d98ad8447c56af3ff7f771becbabf", "is_disabled": 0, "rental_uris": {"ios": "https://dc.lft.to/lastmile_qr_scan", "android": "https://dc.lft.to/lastmile_qr_scan"}, "is_reserved": 0}, {"lon": -77.00782416666667, "bike_id": "05883b8cfec85fd459ce779c9ca3d7d8", "lat": 38.905704666666665, "fusion_lon": 0.0, "fusion_lat": 0.0, "type": "electric_scooter", "name": "05883b8cfec85fd459ce779c9ca3d7d8", "is_disabled": 0, "rental_uris": {"ios": "https://dc.lft.to/lastmile_qr_scan", "android": "https://dc.lft.to/lastmile_qr_scan"}, "is_reserved": 0}, {"lon": -77.04561733333334, "bike_id": "d4de875eb3af6f89adb7e046f60aa698", "lat": 38.914713666666664, "fusion_lon": 0.0, "fusion_lat": 0.0, "type": "electric_scooter", "name": "d4de875eb3af6f89adb7e046f60aa698", "is_disabled": 0, "rental_uris": {"ios": "https://dc.lft.to/lastmile_qr_scan", "android": "https://dc.lft.to/lastmile_qr_scan"}, "is_reserved": 0}, {"lon": -77.00333816666667, "bike_id": "7c3cad48c77e10c8fc32fb2fc0fdf36f", "lat": 38.895180333333336, "fusion_lon": 0.0, "fusion_lat": 0.0, "type": "electric_scooter", "name": "7c3cad48c77e10c8fc32fb2fc0fdf36f", "is_disabled": 0, "rental_uris": {"ios": "https://dc.lft.to/lastmile_qr_scan", "android": "https://dc.lft.to/lastmile_qr_scan"}, "is_reserved": 0}, {"lon": -76.99936, "bike_id": "6c7b8b7249b2f3db9283c58d4385b1f2", "lat": 38.84303033333333, "fusion_lon": 0.0, "fusion_lat": 0.0, "type": "electric_scooter", "name": "6c7b8b7249b2f3db9283c58d4385b1f2", "is_disabled": 0, "rental_uris": {"ios": "https://dc.lft.to/lastmile_qr_scan", "android": "https://dc.lft.to/lastmile_qr_scan"}, "is_reserved": 0}, {"lon": -77.07008633333334, "bike_id": "ec6120dd52e969d053df7c840d20c6c2", "lat": 38.95857433333333, "fusion_lon": 0.0, "fusion_lat": 0.0, "type": "electric_scooter", "name": "ec6120dd52e969d053df7c840d20c6c2", "is_disabled": 0, "rental_uris": {"ios": "https://dc.lft.to/lastmile_qr_scan", "android": "https://dc.lft.to/lastmile_qr_scan"}, "is_reserved": 0}, {"lon": -76.94873, "bike_id": "0f8b3322415627e4df0c2174cd2dae64", "lat": 38.895471, "fusion_lon": 0.0, "fusion_lat": 0.0, "type": "electric_scooter", "name": "0f8b3322415627e4df0c2174cd2dae64", "is_disabled": 0, "rental_uris": {"ios": "https://dc.lft.to/lastmile_qr_scan", "android": "https://dc.lft.to/lastmile_qr_scan"}, "is_reserved": 0}, {"lon": -77.08070433333333, "bike_id": "d92776ed4dc6cc4e8359469819b2db55", "lat": 38.963187, "fusion_lon": 0.0, "fusion_lat": 0.0, "type": "electric_bike", "name": "d92776ed4dc6cc4e8359469819b2db55", "is_disabled": 0, "rental_uris": {"ios": "https://dc.lft.to/lastmile_qr_scan", "android": "https://dc.lft.to/lastmile_qr_scan"}, "is_reserved": 0}, {"lon": -77.03158366666666, "bike_id": "c0d07ce6a2c286af7ba14feebd97398f", "lat": 38.93607216666667, "fusion_lon": 0.0, "fusion_lat": 0.0, "type": "electric_scooter", "name": "c0d07ce6a2c286af7ba14feebd97398f", "is_disabled": 0, "rental_uris": {"ios": "https://dc.lft.to/lastmile_qr_scan", "android": "https://dc.lft.to/lastmile_qr_scan"}, "is_reserved": 0}, {"lon": -77.02715233333333, "bike_id": "99f6c07bc097fb9b8f75e5f2c343da75", "lat": 38.972324, "fusion_lon": 0.0, "fusion_lat": 0.0, "type": "electric_scooter", "name": "99f6c07bc097fb9b8f75e5f2c343da75", "is_disabled": 0, "rental_uris": {"ios": "https://dc.lft.to/lastmile_qr_scan", "android": "https://dc.lft.to/lastmile_qr_scan"}, "is_reserved": 0}, {"lon": -77.03107833333334, "bike_id": "76713b9672ab980413975f0898355ac3", "lat": 38.916996833333336, "fusion_lon": 0.0, "fusion_lat": 0.0, "type": "electric_scooter", "name": "76713b9672ab980413975f0898355ac3", "is_disabled": 0, "rental_uris": {"ios": "https://dc.lft.to/lastmile_qr_scan", "android": "https://dc.lft.to/lastmile_qr_scan"}, "is_reserved": 0}, {"lon": -77.020947, "bike_id": "eb7e865e3be7984e7978c587ecb6d3a9", "lat": 38.94527866666667, "fusion_lon": 0.0, "fusion_lat": 0.0, "type": "electric_scooter", "name": "eb7e865e3be7984e7978c587ecb6d3a9", "is_disabled": 0, "rental_uris": {"ios": "https://dc.lft.to/lastmile_qr_scan", "android": "https://dc.lft.to/lastmile_qr_scan"}, "is_reserved": 0}, {"lon": -77.05252416666667, "bike_id": "4d8426fad96e379de61c3d3b1d1afb27", "lat": 38.92381816666666, "fusion_lon": 0.0, "fusion_lat": 0.0, "type": "electric_scooter", "name": "4d8426fad96e379de61c3d3b1d1afb27", "is_disabled": 0, "rental_uris": {"ios": "https://dc.lft.to/lastmile_qr_scan", "android": "https://dc.lft.to/lastmile_qr_scan"}, "is_reserved": 0}, {"lon": -77.024363, "bike_id": "f5171930cb7d17c7d7b0b3c095c6385a", "lat": 38.9169545, "fusion_lon": 0.0, "fusion_lat": 0.0, "type": "electric_scooter", "name": "f5171930cb7d17c7d7b0b3c095c6385a", "is_disabled": 0, "rental_uris": {"ios": "https://dc.lft.to/lastmile_qr_scan", "android": "https://dc.lft.to/lastmile_qr_scan"}, "is_reserved": 0}, {"lon": -76.92371216666666, "bike_id": "038ae92d0b45cff4b1354abb2b8618d0", "lat": 38.8837595, "fusion_lon": 0.0, "fusion_lat": 0.0, "type": "electric_bike", "name": "038ae92d0b45cff4b1354abb2b8618d0", "is_disabled": 0, "rental_uris": {"ios": "https://dc.lft.to/lastmile_qr_scan", "android": "https://dc.lft.to/lastmile_qr_scan"}, "is_reserved": 0}, {"lon": -76.993767, "bike_id": "85c8d76a195bac874eca5914680ee057", "lat": 38.9718815, "fusion_lon": 0.0, "fusion_lat": 0.0, "type": "electric_bike", "name": "85c8d76a195bac874eca5914680ee057", "is_disabled": 0, "rental_uris": {"ios": "https://dc.lft.to/lastmile_qr_scan", "android": "https://dc.lft.to/lastmile_qr_scan"}, "is_reserved": 0}, {"lon": -77.0141145, "bike_id": "ab065d6b82a8127601297aa288ecbb86", "lat": 38.9065555, "fusion_lon": 0.0, "fusion_lat": 0.0, "type": "electric_scooter", "name": "ab065d6b82a8127601297aa288ecbb86", "is_disabled": 0, "rental_uris": {"ios": "https://dc.lft.to/lastmile_qr_scan", "android": "https://dc.lft.to/lastmile_qr_scan"}, "is_reserved": 0}, {"lon": -77.01753783333334, "bike_id": "0747813dc408461abf24f29837cf5830", "lat": 38.90374383333333, "fusion_lon": 0.0, "fusion_lat": 0.0, "type": "electric_scooter", "name": "0747813dc408461abf24f29837cf5830", "is_disabled": 0, "rental_uris": {"ios": "https://dc.lft.to/lastmile_qr_scan", "android": "https://dc.lft.to/lastmile_qr_scan"}, "is_reserved": 0}, {"lon": -77.03756266666667, "bike_id": "df213161c552620b11e0c3c9ad677944", "lat": 38.902759, "fusion_lon": 0.0, "fusion_lat": 0.0, "type": "electric_scooter", "name": "df213161c552620b11e0c3c9ad677944", "is_disabled": 0, "rental_uris": {"ios": "https://dc.lft.to/lastmile_qr_scan", "android": "https://dc.lft.to/lastmile_qr_scan"}, "is_reserved": 0}, {"lon": -77.04506183333334, "bike_id": "b2e92a042edf0fcda36628fe17bf236d", "lat": 38.919305333333334, "fusion_lon": 0.0, "fusion_lat": 0.0, "type": "electric_scooter", "name": "b2e92a042edf0fcda36628fe17bf236d", "is_disabled": 0, "rental_uris": {"ios": "https://dc.lft.to/lastmile_qr_scan", "android": "https://dc.lft.to/lastmile_qr_scan"}, "is_reserved": 0}, {"lon": -77.05136566666667, "bike_id": "e6366c9cd7a63fb3e6fe2ca3a570bc22", "lat": 38.89859116666667, "fusion_lon": 0.0, "fusion_lat": 0.0, "type": "electric_scooter", "name": "e6366c9cd7a63fb3e6fe2ca3a570bc22", "is_disabled": 0, "rental_uris": {"ios": "https://dc.lft.to/lastmile_qr_scan", "android": "https://dc.lft.to/lastmile_qr_scan"}, "is_reserved": 0}, {"lon": -77.02594616666667, "bike_id": "5bdd23aceee21681da6af5a38dfb8fa3", "lat": 38.905101, "fusion_lon": 0.0, "fusion_lat": 0.0, "type": "electric_scooter", "name": "5bdd23aceee21681da6af5a38dfb8fa3", "is_disabled": 0, "rental_uris": {"ios": "https://dc.lft.to/lastmile_qr_scan", "android": "https://dc.lft.to/lastmile_qr_scan"}, "is_reserved": 0}, {"lon": -77.03667383333334, "bike_id": "ec758d0c5ab7b38a591aedbbaf2f8a6b", "lat": 38.918675666666665, "fusion_lon": 0.0, "fusion_lat": 0.0, "type": "electric_scooter", "name": "ec758d0c5ab7b38a591aedbbaf2f8a6b", "is_disabled": 0, "rental_uris": {"ios": "https://dc.lft.to/lastmile_qr_scan", "android": "https://dc.lft.to/lastmile_qr_scan"}, "is_reserved": 0}, {"lon": -77.02147366666667, "bike_id": "4b50fd55a835d76f3ee83ee3fc13d72a", "lat": 38.894086333333334, "fusion_lon": 0.0, "fusion_lat": 0.0, "type": "electric_scooter", "name": "4b50fd55a835d76f3ee83ee3fc13d72a", "is_disabled": 0, "rental_uris": {"ios": "https://dc.lft.to/lastmile_qr_scan", "android": "https://dc.lft.to/lastmile_qr_scan"}, "is_reserved": 0}, {"lon": -76.98933283333334, "bike_id": "ec324f1b32b62acc9971531512d6cdb5", "lat": 38.91838466666667, "fusion_lon": 0.0, "fusion_lat": 0.0, "type": "electric_scooter", "name": "ec324f1b32b62acc9971531512d6cdb5", "is_disabled": 0, "rental_uris": {"ios": "https://dc.lft.to/lastmile_qr_scan", "android": "https://dc.lft.to/lastmile_qr_scan"}, "is_reserved": 0}, {"lon": -77.01286866666666, "bike_id": "8d782ef10084f21930fbf5957d36ee5b", "lat": 38.9103555, "fusion_lon": 0.0, "fusion_lat": 0.0, "type": "electric_scooter", "name": "8d782ef10084f21930fbf5957d36ee5b", "is_disabled": 0, "rental_uris": {"ios": "https://dc.lft.to/lastmile_qr_scan", "android": "https://dc.lft.to/lastmile_qr_scan"}, "is_reserved": 0}, {"lon": -77.04996683333333, "bike_id": "ea5cf1f4feda489458b678a5b5d4241a", "lat": 38.894604333333334, "fusion_lon": 0.0, "fusion_lat": 0.0, "type": "electric_scooter", "name": "ea5cf1f4feda489458b678a5b5d4241a", "is_disabled": 0, "rental_uris": {"ios": "https://dc.lft.to/lastmile_qr_scan", "android": "https://dc.lft.to/lastmile_qr_scan"}, "is_reserved": 0}, {"lon": -77.036269, "bike_id": "c497456254de32eebfd1a53bf9e1a3e9", "lat": 38.93745783333333, "fusion_lon": 0.0, "fusion_lat": 0.0, "type": "electric_scooter", "name": "c497456254de32eebfd1a53bf9e1a3e9", "is_disabled": 0, "rental_uris": {"ios": "https://dc.lft.to/lastmile_qr_scan", "android": "https://dc.lft.to/lastmile_qr_scan"}, "is_reserved": 0}, {"lon": -77.03073666666667, "bike_id": "eb6eb26ae7dddc5a3d67bd4a942531de", "lat": 38.918131333333335, "fusion_lon": 0.0, "fusion_lat": 0.0, "type": "electric_scooter", "name": "eb6eb26ae7dddc5a3d67bd4a942531de", "is_disabled": 0, "rental_uris": {"ios": "https://dc.lft.to/lastmile_qr_scan", "android": "https://dc.lft.to/lastmile_qr_scan"}, "is_reserved": 0}, {"lon": -77.011398, "bike_id": "fe8a3486801de2c26c39c6a7f7d99f14", "lat": 38.90641016666667, "fusion_lon": 0.0, "fusion_lat": 0.0, "type": "electric_scooter", "name": "fe8a3486801de2c26c39c6a7f7d99f14", "is_disabled": 0, "rental_uris": {"ios": "https://dc.lft.to/lastmile_qr_scan", "android": "https://dc.lft.to/lastmile_qr_scan"}, "is_reserved": 0}, {"lon": -76.985907, "bike_id": "1fa9b2cc3ca3cc7be192e25396f6f5f5", "lat": 38.9081285, "fusion_lon": 0.0, "fusion_lat": 0.0, "type": "electric_scooter", "name": "1fa9b2cc3ca3cc7be192e25396f6f5f5", "is_disabled": 0, "rental_uris": {"ios": "https://dc.lft.to/lastmile_qr_scan", "android": "https://dc.lft.to/lastmile_qr_scan"}, "is_reserved": 0}, {"lon": -77.001318, "bike_id": "116acfc73d6d333fad736f9d1b72a484", "lat": 38.925522666666666, "fusion_lon": 0.0, "fusion_lat": 0.0, "type": "electric_bike", "name": "116acfc73d6d333fad736f9d1b72a484", "is_disabled": 0, "rental_uris": {"ios": "https://dc.lft.to/lastmile_qr_scan", "android": "https://dc.lft.to/lastmile_qr_scan"}, "is_reserved": 0}, {"lon": -77.10088566666667, "bike_id": "9970473a6fd5fa17d93dc4431a8864cd", "lat": 38.95959466666667, "fusion_lon": 0.0, "fusion_lat": 0.0, "type": "electric_bike", "name": "9970473a6fd5fa17d93dc4431a8864cd", "is_disabled": 0, "rental_uris": {"ios": "https://dc.lft.to/lastmile_qr_scan", "android": "https://dc.lft.to/lastmile_qr_scan"}, "is_reserved": 0}, {"lon": -76.94436983333334, "bike_id": "a43502e6a66db3c4b4392bc99da8d4c6", "lat": 38.90045816666667, "fusion_lon": 0.0, "fusion_lat": 0.0, "type": "electric_scooter", "name": "a43502e6a66db3c4b4392bc99da8d4c6", "is_disabled": 0, "rental_uris": {"ios": "https://dc.lft.to/lastmile_qr_scan", "android": "https://dc.lft.to/lastmile_qr_scan"}, "is_reserved": 0}, {"lon": -77.01155666666666, "bike_id": "9b71b2941a02bd569bee3bedb665c1fb", "lat": 38.91411433333333, "fusion_lon": 0.0, "fusion_lat": 0.0, "type": "electric_scooter", "name": "9b71b2941a02bd569bee3bedb665c1fb", "is_disabled": 0, "rental_uris": {"ios": "https://dc.lft.to/lastmile_qr_scan", "android": "https://dc.lft.to/lastmile_qr_scan"}, "is_reserved": 0}, {"lon": -77.01158733333334, "bike_id": "47206f9a0175a6556c5d7f7dca2038a9", "lat": 38.87232233333334, "fusion_lon": 0.0, "fusion_lat": 0.0, "type": "electric_bike", "name": "47206f9a0175a6556c5d7f7dca2038a9", "is_disabled": 0, "rental_uris": {"ios": "https://dc.lft.to/lastmile_qr_scan", "android": "https://dc.lft.to/lastmile_qr_scan"}, "is_reserved": 0}, {"lon": -77.027084, "bike_id": "5fc0ef464232fe914e489ebb21b9f9ef", "lat": 38.90665383333334, "fusion_lon": 0.0, "fusion_lat": 0.0, "type": "electric_scooter", "name": "5fc0ef464232fe914e489ebb21b9f9ef", "is_disabled": 0, "rental_uris": {"ios": "https://dc.lft.to/lastmile_qr_scan", "android": "https://dc.lft.to/lastmile_qr_scan"}, "is_reserved": 0}, {"lon": -76.98783383333334, "bike_id": "5add295d603e09d3ef22661717fee092", "lat": 38.9066255, "fusion_lon": 0.0, "fusion_lat": 0.0, "type": "electric_scooter", "name": "5add295d603e09d3ef22661717fee092", "is_disabled": 0, "rental_uris": {"ios": "https://dc.lft.to/lastmile_qr_scan", "android": "https://dc.lft.to/lastmile_qr_scan"}, "is_reserved": 0}, {"lon": -76.98377283333333, "bike_id": "23a7d5084e7a4f79402234509207814f", "lat": 38.915007333333335, "fusion_lon": 0.0, "fusion_lat": 0.0, "type": "electric_scooter", "name": "23a7d5084e7a4f79402234509207814f", "is_disabled": 0, "rental_uris": {"ios": "https://dc.lft.to/lastmile_qr_scan", "android": "https://dc.lft.to/lastmile_qr_scan"}, "is_reserved": 0}, {"lon": -76.99406516666667, "bike_id": "b7ebbefa76839103aec0ed18e726d8f0", "lat": 38.8313785, "fusion_lon": 0.0, "fusion_lat": 0.0, "type": "electric_bike", "name": "b7ebbefa76839103aec0ed18e726d8f0", "is_disabled": 0, "rental_uris": {"ios": "https://dc.lft.to/lastmile_qr_scan", "android": "https://dc.lft.to/lastmile_qr_scan"}, "is_reserved": 0}, {"lon": -77.01254616666667, "bike_id": "d08de176ba393c6cd3bdde9dced707a4", "lat": 38.90845083333333, "fusion_lon": 0.0, "fusion_lat": 0.0, "type": "electric_scooter", "name": "d08de176ba393c6cd3bdde9dced707a4", "is_disabled": 0, "rental_uris": {"ios": "https://dc.lft.to/lastmile_qr_scan", "android": "https://dc.lft.to/lastmile_qr_scan"}, "is_reserved": 0}, {"lon": -77.03063716666666, "bike_id": "e27030851e9cd0f88c3dfa28f41110f6", "lat": 38.90804266666667, "fusion_lon": 0.0, "fusion_lat": 0.0, "type": "electric_scooter", "name": "e27030851e9cd0f88c3dfa28f41110f6", "is_disabled": 0, "rental_uris": {"ios": "https://dc.lft.to/lastmile_qr_scan", "android": "https://dc.lft.to/lastmile_qr_scan"}, "is_reserved": 0}, {"lon": -77.0464765, "bike_id": "6421b341e86d8f863fb9d53afca72a19", "lat": 38.915754666666665, "fusion_lon": 0.0, "fusion_lat": 0.0, "type": "electric_scooter", "name": "6421b341e86d8f863fb9d53afca72a19", "is_disabled": 0, "rental_uris": {"ios": "https://dc.lft.to/lastmile_qr_scan", "android": "https://dc.lft.to/lastmile_qr_scan"}, "is_reserved": 0}, {"lon": -77.0253365, "bike_id": "d523b3445eb0f134ab2145e54442b451", "lat": 38.9274255, "fusion_lon": 0.0, "fusion_lat": 0.0, "type": "electric_scooter", "name": "d523b3445eb0f134ab2145e54442b451", "is_disabled": 0, "rental_uris": {"ios": "https://dc.lft.to/lastmile_qr_scan", "android": "https://dc.lft.to/lastmile_qr_scan"}, "is_reserved": 0}, {"lon": -76.96392533333334, "bike_id": "124ec3d29c88de2a88d6950bbb26688c", "lat": 38.95174766666667, "fusion_lon": 0.0, "fusion_lat": 0.0, "type": "electric_bike", "name": "124ec3d29c88de2a88d6950bbb26688c", "is_disabled": 0, "rental_uris": {"ios": "https://dc.lft.to/lastmile_qr_scan", "android": "https://dc.lft.to/lastmile_qr_scan"}, "is_reserved": 0}, {"lon": -76.984984, "bike_id": "8030b0c2f0afe9395d7b0c158cbb27e5", "lat": 38.92005866666667, "fusion_lon": 0.0, "fusion_lat": 0.0, "type": "electric_scooter", "name": "8030b0c2f0afe9395d7b0c158cbb27e5", "is_disabled": 0, "rental_uris": {"ios": "https://dc.lft.to/lastmile_qr_scan", "android": "https://dc.lft.to/lastmile_qr_scan"}, "is_reserved": 0}, {"lon": -77.017676, "bike_id": "5c13ca4d912105c362e4d4b1dbf5d38b", "lat": 38.92115716666667, "fusion_lon": 0.0, "fusion_lat": 0.0, "type": "electric_scooter", "name": "5c13ca4d912105c362e4d4b1dbf5d38b", "is_disabled": 0, "rental_uris": {"ios": "https://dc.lft.to/lastmile_qr_scan", "android": "https://dc.lft.to/lastmile_qr_scan"}, "is_reserved": 0}, {"lon": -76.9335945, "bike_id": "50712f9190b42d7893de2f5ed5eba67d", "lat": 38.899172166666666, "fusion_lon": 0.0, "fusion_lat": 0.0, "type": "electric_scooter", "name": "50712f9190b42d7893de2f5ed5eba67d", "is_disabled": 0, "rental_uris": {"ios": "https://dc.lft.to/lastmile_qr_scan", "android": "https://dc.lft.to/lastmile_qr_scan"}, "is_reserved": 0},