{"data": {"bikes": [{"lon": -76.9397695, "fusion_lon": 0.0, "bike_id": "f1681b045799390a27f4239532e7fc09", "type": "electric_scooter", "name": "f1681b045799390a27f4239532e7fc09", "rental_uris": {"android": "https://dc.lft.to/lastmile_qr_scan", "ios": "https://dc.lft.to/lastmile_qr_scan"}, "is_disabled": 0, "fusion_lat": 0.0, "lat": 38.89319716666667, "is_reserved": 0}, {"lon": -77.03042216666667, "fusion_lon": 0.0, "bike_id": "670f3e706dbdf7e16b3eeefb71d2c147", "type": "electric_scooter", "name": "670f3e706dbdf7e16b3eeefb71d2c147", "rental_uris": {"android": "https://dc.lft.to/lastmile_qr_scan", "ios": "https://dc.lft.to/lastmile_qr_scan"}, "is_disabled": 0, "fusion_lat": 0.0, "lat": 38.91709, "is_reserved": 0}, {"lon": -77.0092365, "fusion_lon": 0.0, "bike_id": "6132f5df6b2fc4a8ba901efb61215354", "type": "electric_scooter", "name": "6132f5df6b2fc4a8ba901efb61215354", "rental_uris": {"android": "https://dc.lft.to/lastmile_qr_scan", "ios": "https://dc.lft.to/lastmile_qr_scan"}, "is_disabled": 0, "fusion_lat": 0.0, "lat": 38.8961305, "is_reserved": 0}, {"lon": -77.0148405, "fusion_lon": 0.0, "bike_id": "9f5a66c3c542ce6fd2a0cbad2d86983e", "type": "electric_scooter", "name": "9f5a66c3c542ce6fd2a0cbad2d86983e", "rental_uris": {"android": "https://dc.lft.to/lastmile_qr_scan", "ios": "https://dc.lft.to/lastmile_qr_scan"}, "is_disabled": 0, "fusion_lat": 0.0, "lat": 38.9175825, "is_reserved": 0}, {"lon": -76.99492616666667, "fusion_lon": 0.0, "bike_id": "d0bad2f653698ffe2cae4b4418b2caf9", "type": "electric_scooter", "name": "d0bad2f653698ffe2cae4b4418b2caf9", "rental_uris": {"android": "https://dc.lft.to/lastmile_qr_scan", "ios": "https://dc.lft.to/lastmile_qr_scan"}, "is_disabled": 0, "fusion_lat": 0.0, "lat": 38.862450333333335, "is_reserved": 0}, {"lon": -76.93736066666666, "fusion_lon": 0.0, "bike_id": "79c17fe0f2635a60d6a8374ef5a38a5b", "type": "electric_scooter", "name": "79c17fe0f2635a60d6a8374ef5a38a5b", "rental_uris": {"android": "https://dc.lft.to/lastmile_qr_scan", "ios": "https://dc.lft.to/lastmile_qr_scan"}, "is_disabled": 0, "fusion_lat": 0.0, "lat": 38.890142833333336, "is_reserved": 0}, {"lon": -77.02816266666666, "fusion_lon": 0.0, "bike_id": "4b3e7506a0fc43d963f5e2813cd8712d", "type": "electric_scooter", "name": "4b3e7506a0fc43d963f5e2813cd8712d", "rental_uris": {"android": "https://dc.lft.to/lastmile_qr_scan", "ios": "https://dc.lft.to/lastmile_qr_scan"}, "is_disabled": 0, "fusion_lat": 0.0, "lat": 38.89911683333333, "is_reserved": 0}, {"lon": -77.0252595, "fusion_lon": 0.0, "bike_id": "4c548877e9b80f608ad88a616c503b0c", "type": "electric_scooter", "name": "4c548877e9b80f608ad88a616c503b0c", "rental_uris": {"android": "https://dc.lft.to/lastmile_qr_scan", "ios": "https://dc.lft.to/lastmile_qr_scan"}, "is_disabled": 0, "fusion_lat": 0.0, "lat": 38.918413666666666, "is_reserved": 0}, {"lon": -76.96111516666667, "fusion_lon": 0.0, "bike_id": "4972ca3ade20875d65cc6312f33497f5", "type": "electric_scooter", "name": "4972ca3ade20875d65cc6312f33497f5", "rental_uris": {"android": "https://dc.lft.to/lastmile_qr_scan", "ios": "https://dc.lft.to/lastmile_qr_scan"}, "is_disabled": 0, "fusion_lat": 0.0, "lat": 38.88424333333333, "is_reserved": 0}, {"lon": -77.048727, "fusion_lon": 0.0, "bike_id": "ec46e2b7752cbfbf4471c060b16ae738", "type": "electric_scooter", "name": "ec46e2b7752cbfbf4471c060b16ae738", "rental_uris": {"android": "https://dc.lft.to/lastmile_qr_scan", "ios": "https://dc.lft.to/lastmile_qr_scan"}, "is_disabled": 0, "fusion_lat": 0.0, "lat": 38.9097375, "is_reserved": 0}, {"lon": -77.0308725, "fusion_lon": 0.0, "bike_id": "5e87e90d6fef2c64e7a3bac6d66e1373", "type": "electric_scooter", "name": "5e87e90d6fef2c64e7a3bac6d66e1373", "rental_uris": {"android": "https://dc.lft.to/lastmile_qr_scan", "ios": "https://dc.lft.to/lastmile_qr_scan"}, "is_disabled": 0, "fusion_lat": 0.0, "lat": 38.928700666666664, "is_reserved": 0}, {"lon": -77.01793233333333, "fusion_lon": 0.0, "bike_id": "bd4627c3c7c0dc3213d4d0db5fdbe374", "type": "electric_scooter", "name": "bd4627c3c7c0dc3213d4d0db5fdbe374", "rental_uris": {"android": "https://dc.lft.to/lastmile_qr_scan", "ios": "https://dc.lft.to/lastmile_qr_scan"}, "is_disabled": 0, "fusion_lat": 0.0, "lat": 38.9203375, "is_reserved": 0}, {"lon": -77.0359045, "fusion_lon": 0.0, "bike_id": "38a3483b0b88d79a94c03eaeb876b25c", "type": "electric_scooter", "name": "38a3483b0b88d79a94c03eaeb876b25c", "rental_uris": {"android": "https://dc.lft.to/lastmile_qr_scan", "ios": "https://dc.lft.to/lastmile_qr_scan"}, "is_disabled": 0, "fusion_lat": 0.0, "lat": 38.93150083333333, "is_reserved": 0}, {"lon": -77.04186633333333, "fusion_lon": 0.0, "bike_id": "44423f1a402145d6d2310b160a3648ce", "type": "electric_scooter", "name": "44423f1a402145d6d2310b160a3648ce", "rental_uris": {"android": "https://dc.lft.to/lastmile_qr_scan", "ios": "https://dc.lft.to/lastmile_qr_scan"}, "is_disabled": 0, "fusion_lat": 0.0, "lat": 38.926304333333334, "is_reserved": 0}, {"lon": -77.03406616666666, "fusion_lon": 0.0, "bike_id": "a7049575aa8b1b7fa51566a9b169524c", "type": "electric_scooter", "name": "a7049575aa8b1b7fa51566a9b169524c", "rental_uris": {"android": "https://dc.lft.to/lastmile_qr_scan", "ios": "https://dc.lft.to/lastmile_qr_scan"}, "is_disabled": 0, "fusion_lat": 0.0, "lat": 38.923200666666666, "is_reserved": 0}, {"lon": -77.03425466666667, "fusion_lon": 0.0, "bike_id": "38ef5568c2afd4883edf39aee997e23c", "type": "electric_scooter", "name": "38ef5568c2afd4883edf39aee997e23c", "rental_uris": {"android": "https://dc.lft.to/lastmile_qr_scan", "ios": "https://dc.lft.to/lastmile_qr_scan"}, "is_disabled": 0, "fusion_lat": 0.0, "lat": 38.9273545, "is_reserved": 0}, {"lon": -77.0082165, "fusion_lon": 0.0, "bike_id": "d58384d3f524f94acbd2450fa431dc0b", "type": "electric_scooter", "name": "d58384d3f524f94acbd2450fa431dc0b", "rental_uris": {"android": "https://dc.lft.to/lastmile_qr_scan", "ios": "https://dc.lft.to/lastmile_qr_scan"}, "is_disabled": 0, "fusion_lat": 0.0, "lat": 38.83167133333333, "is_reserved": 0}, {"lon": -77.03439166666666, "fusion_lon": 0.0, "bike_id": "7edbcb196fff71a51d8ceeabaa27f896", "type": "electric_scooter", "name": "7edbcb196fff71a51d8ceeabaa27f896", "rental_uris": {"android": "https://dc.lft.to/lastmile_qr_scan", "ios": "https://dc.lft.to/lastmile_qr_scan"}, "is_disabled": 0, "fusion_lat": 0.0, "lat": 38.91799116666667, "is_reserved": 0}, {"lon": -76.90417416666666, "fusion_lon": 0.0, "bike_id": "4b0f95191250a6e082ee2a75952cf22c", "type": "electric_bike", "name": "4b0f95191250a6e082ee2a75952cf22c", "rental_uris": {"android": "https://dc.lft.to/lastmile_qr_scan", "ios": "https://dc.lft.to/lastmile_qr_scan"}, "is_disabled": 0, "fusion_lat": 0.0, "lat": 38.9406175, "is_reserved": 0}, {"lon": -77.03223283333334, "fusion_lon": 0.0, "bike_id": "c34ed0b6ae0b5b180e8a872205f5794f", "type": "electric_scooter", "name": "c34ed0b6ae0b5b180e8a872205f5794f", "rental_uris": {"android": "https://dc.lft.to/lastmile_qr_scan", "ios": "https://dc.lft.to/lastmile_qr_scan"}, "is_disabled": 0, "fusion_lat": 0.0, "lat": 38.914058, "is_reserved": 0}, {"lon": -77.03520716666667, "fusion_lon": 0.0, "bike_id": "83ce79a7ed00ccfe35f212f4f4947f91", "type": "electric_scooter", "name": "83ce79a7ed00ccfe35f212f4f4947f91", "rental_uris": {"android": "https://dc.lft.to/lastmile_qr_scan", "ios": "https://dc.lft.to/lastmile_qr_scan"}, "is_disabled": 0, "fusion_lat": 0.0, "lat": 38.91859316666667, "is_reserved": 0}, {"lon": -77.05252366666667, "fusion_lon": 0.0, "bike_id": "d936ad29418aec79a98211290cb3d72d", "type": "electric_scooter", "name": "d936ad29418aec79a98211290cb3d72d", "rental_uris": {"android": "https://dc.lft.to/lastmile_qr_scan", "ios": "https://dc.lft.to/lastmile_qr_scan"}, "is_disabled": 0, "fusion_lat": 0.0, "lat": 38.92378766666667, "is_reserved": 0}, {"lon": -77.04529733333334, "fusion_lon": 0.0, "bike_id": "4700956eedd36aff5cb3953aa64373c2", "type": "electric_scooter", "name": "4700956eedd36aff5cb3953aa64373c2", "rental_uris": {"android": "https://dc.lft.to/lastmile_qr_scan", "ios": "https://dc.lft.to/lastmile_qr_scan"}, "is_disabled": 0, "fusion_lat": 0.0, "lat": 38.894766, "is_reserved": 0}, {"lon": -77.03847466666667, "fusion_lon": 0.0, "bike_id": "d98f7fff03f8c3ed959e4de76b107862", "type": "electric_scooter", "name": "d98f7fff03f8c3ed959e4de76b107862", "rental_uris": {"android": "https://dc.lft.to/lastmile_qr_scan", "ios": "https://dc.lft.to/lastmile_qr_scan"}, "is_disabled": 0, "fusion_lat": 0.0, "lat": 38.903303333333334, "is_reserved": 0}, {"lon": -77.00383783333334, "fusion_lon": 0.0, "bike_id": "4cc371a824f209a69ed601ce325ec14e", "type": "electric_scooter", "name": "4cc371a824f209a69ed601ce325ec14e", "rental_uris": {"android": "https://dc.lft.to/lastmile_qr_scan", "ios": "https://dc.lft.to/lastmile_qr_scan"}, "is_disabled": 0, "fusion_lat": 0.0, "lat": 38.84855016666667, "is_reserved": 0}, {"lon": -77.03146333333333, "fusion_lon": 0.0, "bike_id": "541e650161eae19e778288eb7bc4950c", "type": "electric_scooter", "name": "541e650161eae19e778288eb7bc4950c", "rental_uris": {"android": "https://dc.lft.to/lastmile_qr_scan", "ios": "https://dc.lft.to/lastmile_qr_scan"}, "is_disabled": 0, "fusion_lat": 0.0, "lat": 38.912629833333334, "is_reserved": 0}, {"lon": -77.0324745, "fusion_lon": 0.0, "bike_id": "49d9f656fbd347eae07f359f666e32f2", "type": "electric_scooter", "name": "49d9f656fbd347eae07f359f666e32f2", "rental_uris": {"android": "https://dc.lft.to/lastmile_qr_scan", "ios": "https://dc.lft.to/lastmile_qr_scan"}, "is_disabled": 0, "fusion_lat": 0.0, "lat": 38.897311, "is_reserved": 0}, {"lon": -77.02295233333334, "fusion_lon": 0.0, "bike_id": "f6d234b43f9a7ff559350428ee62c166", "type": "electric_scooter", "name": "f6d234b43f9a7ff559350428ee62c166", "rental_uris": {"android": "https://dc.lft.to/lastmile_qr_scan", "ios": "https://dc.lft.to/lastmile_qr_scan"}, "is_disabled": 0, "fusion_lat": 0.0, "lat": 38.91687366666667, "is_reserved": 0}, {"lon": -77.0271815, "fusion_lon": 0.0, "bike_id": "783d6bbc3293e308c2a7e85c043a793b", "type": "electric_scooter", "name": "783d6bbc3293e308c2a7e85c043a793b", "rental_uris": {"android": "https://dc.lft.to/lastmile_qr_scan", "ios": "https://dc.lft.to/lastmile_qr_scan"}, "is_disabled": 0, "fusion_lat": 0.0, "lat": 38.90788416666667, "is_reserved": 0}, {"lon": -77.02708683333333, "fusion_lon": 0.0, "bike_id": "1fbd30424bfe539fa49ba4f877d539f6", "type": "electric_scooter", "name": "1fbd30424bfe539fa49ba4f877d539f6", "rental_uris": {"android": "https://dc.lft.to/lastmile_qr_scan", "ios": "https://dc.lft.to/lastmile_qr_scan"}, "is_disabled": 0, "fusion_lat": 0.0, "lat": 38.917243166666665, "is_reserved": 0}, {"lon": -76.96017916666666, "fusion_lon": 0.0, "bike_id": "95791bae7757483ff1617cec6100ba1e", "type": "electric_scooter", "name": "95791bae7757483ff1617cec6100ba1e", "rental_uris": {"android": "https://dc.lft.to/lastmile_qr_scan", "ios": "https://dc.lft.to/lastmile_qr_scan"}, "is_disabled": 0, "fusion_lat": 0.0, "lat": 38.869346666666665, "is_reserved": 0}, {"lon": -76.93733133333333, "fusion_lon": 0.0, "bike_id": "942e4a75fc88df5621c757894e8290fd", "type": "electric_scooter", "name": "942e4a75fc88df5621c757894e8290fd", "rental_uris": {"android": "https://dc.lft.to/lastmile_qr_scan", "ios": "https://dc.lft.to/lastmile_qr_scan"}, "is_disabled": 0, "fusion_lat": 0.0, "lat": 38.89015833333333, "is_reserved": 0}, {"lon": -76.9835555, "fusion_lon": 0.0, "bike_id": "df95c3e4d5f2f149c18fdc5d1ce4b227", "type": "electric_bike", "name": "df95c3e4d5f2f149c18fdc5d1ce4b227", "rental_uris": {"android": "https://dc.lft.to/lastmile_qr_scan", "ios": "https://dc.lft.to/lastmile_qr_scan"}, "is_disabled": 0, "fusion_lat": 0.0, "lat": 38.862623166666665, "is_reserved": 0}, {"lon": -77.0388125, "fusion_lon": 0.0, "bike_id": "ed5b2685842bb4535c9fcab3827afa2e", "type": "electric_scooter", "name": "ed5b2685842bb4535c9fcab3827afa2e", "rental_uris": {"android": "https://dc.lft.to/lastmile_qr_scan", "ios": "https://dc.lft.to/lastmile_qr_scan"}, "is_disabled": 0, "fusion_lat": 0.0, "lat": 38.917113, "is_reserved": 0}, {"lon": -77.03842583333333, "fusion_lon": 0.0, "bike_id": "362370b00ef66ad9ba64c04a359a13bc", "type": "electric_scooter", "name": "362370b00ef66ad9ba64c04a359a13bc", "rental_uris": {"android": "https://dc.lft.to/lastmile_qr_scan", "ios": "https://dc.lft.to/lastmile_qr_scan"}, "is_disabled": 0, "fusion_lat": 0.0, "lat": 38.902967333333336, "is_reserved": 0}, {"lon": -76.94637316666666, "fusion_lon": 0.0, "bike_id": "cfaea1eea6f55e055dc5cdd8e3fec93d", "type": "electric_scooter", "name": "cfaea1eea6f55e055dc5cdd8e3fec93d", "rental_uris": {"android": "https://dc.lft.to/lastmile_qr_scan", "ios": "https://dc.lft.to/lastmile_qr_scan"}, "is_disabled": 0, "fusion_lat": 0.0, "lat": 38.89860783333334, "is_reserved": 0}, {"lon": -77.04040983333333, "fusion_lon": 0.0, "bike_id": "10b1ea0a4cff21bf94ad0820a100f2c4", "type": "electric_scooter", "name": "10b1ea0a4cff21bf94ad0820a100f2c4", "rental_uris": {"android": "https://dc.lft.to/lastmile_qr_scan", "ios": "https://dc.lft.to/lastmile_qr_scan"}, "is_disabled": 0, "fusion_lat": 0.0, "lat": 38.92169783333333, "is_reserved": 0}, {"lon": -77.02946433333334, "fusion_lon": 0.0, "bike_id": "7ec55718e68642c2925ee28c9e710e4c", "type": "electric_scooter", "name": "7ec55718e68642c2925ee28c9e710e4c", "rental_uris": {"android": "https://dc.lft.to/lastmile_qr_scan", "ios": "https://dc.lft.to/lastmile_qr_scan"}, "is_disabled": 0, "fusion_lat": 0.0, "lat": 38.905088666666664, "is_reserved": 0}, {"lon": -77.05420416666666, "fusion_lon": 0.0, "bike_id": "925a87f10cc1ad039e67895cc701195b", "type": "electric_bike", "name": "925a87f10cc1ad039e67895cc701195b", "rental_uris": {"android": "https://dc.lft.to/lastmile_qr_scan", "ios": "https://dc.lft.to/lastmile_qr_scan"}, "is_disabled": 0, "fusion_lat": 0.0, "lat": 38.9351805, "is_reserved": 0}, {"lon": -76.96528516666666, "fusion_lon": 0.0, "bike_id": "75165a56cf3863658d63daffe9190e78", "type": "electric_scooter", "name": "75165a56cf3863658d63daffe9190e78", "rental_uris": {"android": "https://dc.lft.to/lastmile_qr_scan", "ios": "https://dc.lft.to/lastmile_qr_scan"}, "is_disabled": 0, "fusion_lat": 0.0, "lat": 38.87629416666667, "is_reserved": 0}, {"lon": -76.97548166666667, "fusion_lon": 0.0, "bike_id": "87710663bcfab2ec589f5629d438f930", "type": "electric_scooter", "name": "87710663bcfab2ec589f5629d438f930", "rental_uris": {"android": "https://dc.lft.to/lastmile_qr_scan", "ios": "https://dc.lft.to/lastmile_qr_scan"}, "is_disabled": 0, "fusion_lat": 0.0, "lat": 38.9032235, "is_reserved": 0}, {"lon": -76.98768783333334, "fusion_lon": 0.0, "bike_id": "5998d9b8fa55f42744c6eb6c575ca3d1", "type": "electric_scooter", "name": "5998d9b8fa55f42744c6eb6c575ca3d1", "rental_uris": {"android": "https://dc.lft.to/lastmile_qr_scan", "ios": "https://dc.lft.to/lastmile_qr_scan"}, "is_disabled": 0, "fusion_lat": 0.0, "lat": 38.900338166666664, "is_reserved": 0}, {"lon": -76.985675, "fusion_lon": 0.0, "bike_id": "f594bf4fdd76d4188b9d5a91779ea43e", "type": "electric_scooter", "name": "f594bf4fdd76d4188b9d5a91779ea43e", "rental_uris": {"android": "https://dc.lft.to/lastmile_qr_scan", "ios": "https://dc.lft.to/lastmile_qr_scan"}, "is_disabled": 0, "fusion_lat": 0.0, "lat": 38.866816, "is_reserved": 0}, {"lon": -77.03058966666667, "fusion_lon": 0.0, "bike_id": "f35de2590537b10f7037f7f013191d7b", "type": "electric_scooter", "name": "f35de2590537b10f7037f7f013191d7b", "rental_uris": {"android": "https://dc.lft.to/lastmile_qr_scan", "ios": "https://dc.lft.to/lastmile_qr_scan"}, "is_disabled": 0, "fusion_lat": 0.0, "lat": 38.916899, "is_reserved": 0}, {"lon": -76.9861205, "fusion_lon": 0.0, "bike_id": "3ebf365cdcfeeefa2ca0eacc923fa040", "type": "electric_scooter", "name": "3ebf365cdcfeeefa2ca0eacc923fa040", "rental_uris": {"android": "https://dc.lft.to/lastmile_qr_scan", "ios": "https://dc.lft.to/lastmile_qr_scan"}, "is_disabled": 0, "fusion_lat": 0.0, "lat": 38.88280116666667, "is_reserved": 0}, {"lon": -77.02090016666666, "fusion_lon": 0.0, "bike_id": "5d7e6926de73b8c22b64790edee2cf8d", "type": "electric_scooter", "name": "5d7e6926de73b8c22b64790edee2cf8d", "rental_uris": {"android": "https://dc.lft.to/lastmile_qr_scan", "ios": "https://dc.lft.to/lastmile_qr_scan"}, "is_disabled": 0, "fusion_lat": 0.0, "lat": 38.8818145, "is_reserved": 0}, {"lon": -76.9860455, "fusion_lon": 0.0, "bike_id": "8e3eafbbd4f252c6b0850536fcb786d2", "type": "electric_scooter", "name": "8e3eafbbd4f252c6b0850536fcb786d2", "rental_uris": {"android": "https://dc.lft.to/lastmile_qr_scan", "ios": "https://dc.lft.to/lastmile_qr_scan"}, "is_disabled": 0, "fusion_lat": 0.0, "lat": 38.900169, "is_reserved": 0}, {"lon": -77.03173383333333, "fusion_lon": 0.0, "bike_id": "4c96a8fc22de0bfb1047fa0c09ab4ef1", "type": "electric_scooter", "name": "4c96a8fc22de0bfb1047fa0c09ab4ef1", "rental_uris": {"android": "https://dc.lft.to/lastmile_qr_scan", "ios": "https://dc.lft.to/lastmile_qr_scan"}, "is_disabled": 0, "fusion_lat": 0.0, "lat": 38.89610833333333, "is_reserved": 0}, {"lon": -77.0270665, "fusion_lon": 0.0, "bike_id": "1744ff1dbc17c08302dad3cb73b12443", "type": "electric_scooter", "name": "1744ff1dbc17c08302dad3cb73b12443", "rental_uris": {"android": "https://dc.lft.to/lastmile_qr_scan", "ios": "https://dc.lft.to/lastmile_qr_scan"}, "is_disabled": 0, "fusion_lat": 0.0, "lat": 38.90681766666667, "is_reserved": 0}, {"lon": -77.0139165, "fusion_lon": 0.0, "bike_id": "31b2b77998d583cc3edfbe9a5c0ac421", "type": "electric_scooter", "name": "31b2b77998d583cc3edfbe9a5c0ac421", "rental_uris": {"android": "https://dc.lft.to/lastmile_qr_scan", "ios": "https://dc.lft.to/lastmile_qr_scan"}, "is_disabled": 0, "fusion_lat": 0.0, "lat": 38.94231166666667, "is_reserved": 0}, {"lon": -77.04221383333334, "fusion_lon": 0.0, "bike_id": "3302687cf1a7e48e2313aba4107ed1a1", "type": "electric_scooter", "name": "3302687cf1a7e48e2313aba4107ed1a1", "rental_uris": {"android": "https://dc.lft.to/lastmile_qr_scan", "ios": "https://dc.lft.to/lastmile_qr_scan"}, "is_disabled": 0, "fusion_lat": 0.0, "lat": 38.923109, "is_reserved": 0}, {"lon": -77.0282715, "fusion_lon": 0.0, "bike_id": "6dc9fbf152b75e0d66dc6f6f2126ef94", "type": "electric_scooter", "name": "6dc9fbf152b75e0d66dc6f6f2126ef94", "rental_uris": {"android": "https://dc.lft.to/lastmile_qr_scan", "ios": "https://dc.lft.to/lastmile_qr_scan"}, "is_disabled": 0, "fusion_lat": 0.0, "lat": 38.92229666666667, "is_reserved": 0}, {"lon": -76.95412166666667, "fusion_lon": 0.0, "bike_id": "1b2ff8c2ba723ad92e8ae22cf4a89a6a", "type": "electric_scooter", "name": "1b2ff8c2ba723ad92e8ae22cf4a89a6a", "rental_uris": {"android": "https://dc.lft.to/lastmile_qr_scan", "ios": "https://dc.lft.to/lastmile_qr_scan"}, "is_disabled": 0, "fusion_lat": 0.0, "lat": 38.88998616666667, "is_reserved": 0}, {"lon": -77.02277316666667, "fusion_lon": 0.0, "bike_id": "b0ea2763030ffc088b88d11899fa9b5b", "type": "electric_scooter", "name": "b0ea2763030ffc088b88d11899fa9b5b", "rental_uris": {"android": "https://dc.lft.to/lastmile_qr_scan", "ios": "https://dc.lft.to/lastmile_qr_scan"}, "is_disabled": 0, "fusion_lat": 0.0, "lat": 38.915656, "is_reserved": 0}, {"lon": -77.02363383333334, "fusion_lon": 0.0, "bike_id": "9589165732549aef5711a94ce4ee690d", "type": "electric_scooter", "name": "9589165732549aef5711a94ce4ee690d", "rental_uris": {"android": "https://dc.lft.to/lastmile_qr_scan", "ios": "https://dc.lft.to/lastmile_qr_scan"}, "is_disabled": 0, "fusion_lat": 0.0, "lat": 38.930507, "is_reserved": 0}, {"lon": -77.03436933333333, "fusion_lon": 0.0, "bike_id": "82572b5638108e0e0d2495bd9775e54f", "type": "electric_scooter", "name": "82572b5638108e0e0d2495bd9775e54f", "rental_uris": {"android": "https://dc.lft.to/lastmile_qr_scan", "ios": "https://dc.lft.to/lastmile_qr_scan"}, "is_disabled": 0, "fusion_lat": 0.0, "lat": 38.91798283333333, "is_reserved": 0}, {"lon": -77.037991, "fusion_lon": 0.0, "bike_id": "cdfbaefcb1dc383c193e786f17a65d69", "type": "electric_bike", "name": "cdfbaefcb1dc383c193e786f17a65d69", "rental_uris": {"android": "https://dc.lft.to/lastmile_qr_scan", "ios": "https://dc.lft.to/lastmile_qr_scan"}, "is_disabled": 0, "fusion_lat": 0.0, "lat": 38.996817166666666, "is_reserved": 0}, {"lon": -77.04505816666666, "fusion_lon": 0.0, "bike_id": "44fe5d6a3fb4ae58a8962a81abd18a7e", "type": "electric_scooter", "name": "44fe5d6a3fb4ae58a8962a81abd18a7e", "rental_uris": {"android": "https://dc.lft.to/lastmile_qr_scan", "ios": "https://dc.lft.to/lastmile_qr_scan"}, "is_disabled": 0, "fusion_lat": 0.0, "lat": 38.90872433333333, "is_reserved": 0}, {"lon": -77.02958416666667, "fusion_lon": 0.0, "bike_id": "5a2ceb0dbaecfcd0714eccecea8ab753", "type": "electric_scooter", "name": "5a2ceb0dbaecfcd0714eccecea8ab753", "rental_uris": {"android": "https://dc.lft.to/lastmile_qr_scan", "ios": "https://dc.lft.to/lastmile_qr_scan"}, "is_disabled": 0, "fusion_lat": 0.0, "lat": 38.905155, "is_reserved": 0}, {"lon": -77.02696633333333, "fusion_lon": 0.0, "bike_id": "60d470d85d0c7a9228b85e1a34660a63", "type": "electric_scooter", "name": "60d470d85d0c7a9228b85e1a34660a63", "rental_uris": {"android": "https://dc.lft.to/lastmile_qr_scan", "ios": "https://dc.lft.to/lastmile_qr_scan"}, "is_disabled": 0, "fusion_lat": 0.0, "lat": 38.9227335, "is_reserved": 0}, {"lon": -77.023322, "fusion_lon": 0.0, "bike_id": "5ab313c8e87697eedbb3ed37d4f79116", "type": "electric_scooter", "name": "5ab313c8e87697eedbb3ed37d4f79116", "rental_uris": {"android": "https://dc.lft.to/lastmile_qr_scan", "ios": "https://dc.lft.to/lastmile_qr_scan"}, "is_disabled": 0, "fusion_lat": 0.0, "lat": 38.92232283333333, "is_reserved": 0}, {"lon": -77.03301666666667, "fusion_lon": 0.0, "bike_id": "918cc2c6d9860e3094317dce0e96490a", "type": "electric_scooter", "name": "918cc2c6d9860e3094317dce0e96490a", "rental_uris": {"android": "https://dc.lft.to/lastmile_qr_scan", "ios": "https://dc.lft.to/lastmile_qr_scan"}, "is_disabled": 0, "fusion_lat": 0.0, "lat": 38.92463033333333, "is_reserved": 0}, {"lon": -77.0317485, "fusion_lon": 0.0, "bike_id": "013b27d536e6959580529c145eba375e", "type": "electric_scooter", "name": "013b27d536e6959580529c145eba375e", "rental_uris": {"android": "https://dc.lft.to/lastmile_qr_scan", "ios": "https://dc.lft.to/lastmile_qr_scan"}, "is_disabled": 0, "fusion_lat": 0.0, "lat": 38.920405, "is_reserved": 0}, {"lon": -77.048401, "fusion_lon": 0.0, "bike_id": "519dde94f4a5f5df89a41495291fb6ee", "type": "electric_scooter", "name": "519dde94f4a5f5df89a41495291fb6ee", "rental_uris": {"android": "https://dc.lft.to/lastmile_qr_scan", "ios": "https://dc.lft.to/lastmile_qr_scan"}, "is_disabled": 0, "fusion_lat": 0.0, "lat": 38.918545333333334, "is_reserved": 0}, {"lon": -76.9637835, "fusion_lon": 0.0, "bike_id": "c5dc7e3d52077327564637e61f0f6e1d", "type": "electric_bike", "name": "c5dc7e3d52077327564637e61f0f6e1d", "rental_uris": {"android": "https://dc.lft.to/lastmile_qr_scan", "ios": "https://dc.lft.to/lastmile_qr_scan"}, "is_disabled": 0, "fusion_lat": 0.0, "lat": 38.94897683333333, "is_reserved": 0}, {"lon": -77.04444966666667, "fusion_lon": 0.0, "bike_id": "8e924887688c26440b57faa49afad7c7", "type": "electric_scooter", "name": "8e924887688c26440b57faa49afad7c7", "rental_uris": {"android": "https://dc.lft.to/lastmile_qr_scan", "ios": "https://dc.lft.to/lastmile_qr_scan"}, "is_disabled": 0, "fusion_lat": 0.0, "lat": 38.89615283333333, "is_reserved": 0}, {"lon": -77.03352016666666, "fusion_lon": 0.0, "bike_id": "f1fab629b23d9139e85c7ab481d587d2", "type": "electric_scooter", "name": "f1fab629b23d9139e85c7ab481d587d2", "rental_uris": {"android": "https://dc.lft.to/lastmile_qr_scan", "ios": "https://dc.lft.to/lastmile_qr_scan"}, "is_disabled": 0, "fusion_lat": 0.0, "lat": 38.9206965, "is_reserved": 0}, {"lon": -77.024627, "fusion_lon": 0.0, "bike_id": "452dd2466f357947268667424098afdb", "type": "electric_scooter", "name": "452dd2466f357947268667424098afdb", "rental_uris": {"android": "https://dc.lft.to/lastmile_qr_scan", "ios": "https://dc.lft.to/lastmile_qr_scan"}, "is_disabled": 0, "fusion_lat": 0.0, "lat": 38.91700866666667, "is_reserved": 0}, {"lon": -76.9825135, "fusion_lon": 0.0, "bike_id": "3d259c9644d859e6fc614363d01081eb", "type": "electric_scooter", "name": "3d259c9644d859e6fc614363d01081eb", "rental_uris": {"android": "https://dc.lft.to/lastmile_qr_scan", "ios": "https://dc.lft.to/lastmile_qr_scan"}, "is_disabled": 0, "fusion_lat": 0.0, "lat": 38.89545183333333, "is_reserved": 0}, {"lon": -77.00195533333333, "fusion_lon": 0.0, "bike_id": "c0fcc6f9e28572fc8a9889f433a3d3aa", "type": "electric_scooter", "name": "c0fcc6f9e28572fc8a9889f433a3d3aa", "rental_uris": {"android": "https://dc.lft.to/lastmile_qr_scan", "ios": "https://dc.lft.to/lastmile_qr_scan"}, "is_disabled": 0, "fusion_lat": 0.0, "lat": 38.90030433333333, "is_reserved": 0}, {"lon": -77.0215235, "fusion_lon": 0.0, "bike_id": "2dbd687f612f7c19ce5bdb2e7c6be97f", "type": "electric_scooter", "name": "2dbd687f612f7c19ce5bdb2e7c6be97f", "rental_uris": {"android": "https://dc.lft.to/lastmile_qr_scan", "ios": "https://dc.lft.to/lastmile_qr_scan"}, "is_disabled": 0, "fusion_lat": 0.0, "lat": 38.95801016666667, "is_reserved": 0}, {"lon": -77.01905216666667, "fusion_lon": 0.0, "bike_id": "acce5dbfc63d13ebf0ae3da605f0cc22", "type": "electric_scooter", "name": "acce5dbfc63d13ebf0ae3da605f0cc22", "rental_uris": {"android": "https://dc.lft.to/lastmile_qr_scan", "ios": "https://dc.lft.to/lastmile_qr_scan"}, "is_disabled": 0, "fusion_lat": 0.0, "lat": 38.92375083333334, "is_reserved": 0}, {"lon": -77.02694666666666, "fusion_lon": 0.0, "bike_id": "b19b0c95b93ef8e82e0efea24e2625bd", "type": "electric_scooter", "name": "b19b0c95b93ef8e82e0efea24e2625bd", "rental_uris": {"android": "https://dc.lft.to/lastmile_qr_scan", "ios": "https://dc.lft.to/lastmile_qr_scan"}, "is_disabled": 0, "fusion_lat": 0.0, "lat": 38.908455000000004, "is_reserved": 0}, {"lon": -77.01857266666667, "fusion_lon": 0.0, "bike_id": "0e382b94f5d126abb4565c88e00d68fd", "type": "electric_scooter", "name": "0e382b94f5d126abb4565c88e00d68fd", "rental_uris": {"android": "https://dc.lft.to/lastmile_qr_scan", "ios": "https://dc.lft.to/lastmile_qr_scan"}, "is_disabled": 0, "fusion_lat": 0.0, "lat": 38.97367083333334, "is_reserved": 0}, {"lon": -77.03828083333333, "fusion_lon": 0.0, "bike_id": "a9a2ccd6f40cc38102fad473f183b914", "type": "electric_scooter", "name": "a9a2ccd6f40cc38102fad473f183b914", "rental_uris": {"android": "https://dc.lft.to/lastmile_qr_scan", "ios": "https://dc.lft.to/lastmile_qr_scan"}, "is_disabled": 0, "fusion_lat": 0.0, "lat": 38.91270016666667, "is_reserved": 0}, {"lon": -76.99862816666666, "fusion_lon": 0.0, "bike_id": "40f9d2301a1d54bf22117ec6c42d5258", "type": "electric_scooter", "name": "40f9d2301a1d54bf22117ec6c42d5258", "rental_uris": {"android": "https://dc.lft.to/lastmile_qr_scan", "ios": "https://dc.lft.to/lastmile_qr_scan"}, "is_disabled": 0, "fusion_lat": 0.0, "lat": 38.9004235, "is_reserved": 0}, {"lon": -76.92659333333333, "fusion_lon": 0.0, "bike_id": "676055d3ba6c2a03e83b6ae061624569", "type": "electric_scooter", "name": "676055d3ba6c2a03e83b6ae061624569", "rental_uris": {"android": "https://dc.lft.to/lastmile_qr_scan", "ios": "https://dc.lft.to/lastmile_qr_scan"}, "is_disabled": 0, "fusion_lat": 0.0, "lat": 38.9017125, "is_reserved": 0}, {"lon": -77.01233266666667, "fusion_lon": 0.0, "bike_id": "4e4263a16986c3f5f45d47d2f912a997", "type": "electric_scooter", "name": "4e4263a16986c3f5f45d47d2f912a997", "rental_uris": {"android": "https://dc.lft.to/lastmile_qr_scan", "ios": "https://dc.lft.to/lastmile_qr_scan"}, "is_disabled": 0, "fusion_lat": 0.0, "lat": 38.9168175, "is_reserved": 0}, {"lon": -77.010239, "fusion_lon": 0.0, "bike_id": "e47e0c03e682505a446a70d8150c8be5", "type": "electric_scooter", "name": "e47e0c03e682505a446a70d8150c8be5", "rental_uris": {"android": "https://dc.lft.to/lastmile_qr_scan", "ios": "https://dc.lft.to/lastmile_qr_scan"}, "is_disabled": 0, "fusion_lat": 0.0, "lat": 38.92031216666667, "is_reserved": 0}, {"lon": -77.02942616666667, "fusion_lon": 0.0, "bike_id": "95936f776429435961fb9f48ed290e9b", "type": "electric_scooter", "name": "95936f776429435961fb9f48ed290e9b", "rental_uris": {"android": "https://dc.lft.to/lastmile_qr_scan", "ios": "https://dc.lft.to/lastmile_qr_scan"}, "is_disabled": 0, "fusion_lat": 0.0, "lat": 38.8982735, "is_reserved": 0}, {"lon": -76.98890816666666, "fusion_lon": 0.0, "bike_id": "b831391f81d43c830d0e46c8eed17e10", "type": "electric_scooter", "name": "b831391f81d43c830d0e46c8eed17e10", "rental_uris": {"android": "https://dc.lft.to/lastmile_qr_scan", "ios": "https://dc.lft.to/lastmile_qr_scan"}, "is_disabled": 0, "fusion_lat": 0.0, "lat": 38.866627333333334, "is_reserved": 0}, {"lon": -77.0176825, "fusion_lon": 0.0, "bike_id": "a9cc52cf1d0eda4a8a937d3976790e3c", "type": "electric_scooter", "name": "a9cc52cf1d0eda4a8a937d3976790e3c", "rental_uris": {"android": "https://dc.lft.to/lastmile_qr_scan", "ios": "https://dc.lft.to/lastmile_qr_scan"}, "is_disabled": 0, "fusion_lat": 0.0, "lat": 38.883078833333336, "is_reserved": 0}, {"lon": -77.02814666666667, "fusion_lon": 0.0, "bike_id": "954bf7dca4e94fc2106e6fa3bcff254e", "type": "electric_scooter", "name": "954bf7dca4e94fc2106e6fa3bcff254e", "rental_uris": {"android": "https://dc.lft.to/lastmile_qr_scan", "ios": "https://dc.lft.to/lastmile_qr_scan"}, "is_disabled": 0, "fusion_lat": 0.0, "lat": 38.89930366666667, "is_reserved": 0}, {"lon": -77.01209133333333, "fusion_lon": 0.0, "bike_id": "e236cc0be7630bc6ec162440881f89d2", "type": "electric_scooter", "name": "e236cc0be7630bc6ec162440881f89d2", "rental_uris": {"android": "https://dc.lft.to/lastmile_qr_scan", "ios": "https://dc.lft.to/lastmile_qr_scan"}, "is_disabled": 0, "fusion_lat": 0.0, "lat": 38.874736166666665, "is_reserved": 0}, {"lon": -77.063317, "fusion_lon": 0.0, "bike_id": "709198c75e334bcd246df0ab09d93ea9", "type": "electric_scooter", "name": "709198c75e334bcd246df0ab09d93ea9", "rental_uris": {"android": "https://dc.lft.to/lastmile_qr_scan", "ios": "https://dc.lft.to/lastmile_qr_scan"}, "is_disabled": 0, "fusion_lat": 0.0, "lat": 38.921084, "is_reserved": 0}, {"lon": -77.04269316666667, "fusion_lon": 0.0, "bike_id": "b2fe58baefb77bfc7f466885a3961295", "type": "electric_scooter", "name": "b2fe58baefb77bfc7f466885a3961295", "rental_uris": {"android": "https://dc.lft.to/lastmile_qr_scan", "ios": "https://dc.lft.to/lastmile_qr_scan"}, "is_disabled": 0, "fusion_lat": 0.0, "lat": 38.92543716666667, "is_reserved": 0}, {"lon": -77.00917483333333, "fusion_lon": 0.0, "bike_id": "fdbe32fcc28d0b4eed6f432d34d847bb", "type": "electric_scooter", "name": "fdbe32fcc28d0b4eed6f432d34d847bb", "rental_uris": {"android": "https://dc.lft.to/lastmile_qr_scan", "ios": "https://dc.lft.to/lastmile_qr_scan"}, "is_disabled": 0, "fusion_lat": 0.0, "lat": 38.92276783333333, "is_reserved": 0}, {"lon": -77.02273616666666, "fusion_lon": 0.0, "bike_id": "c6b86b373f0de5239c995100893e0360", "type": "electric_scooter", "name": "c6b86b373f0de5239c995100893e0360", "rental_uris": {"android": "https://dc.lft.to/lastmile_qr_scan", "ios": "https://dc.lft.to/lastmile_qr_scan"}, "is_disabled": 0, "fusion_lat": 0.0, "lat": 38.927266, "is_reserved": 0}, {"lon": -77.033574, "fusion_lon": 0.0, "bike_id": "5cc193ab5767d309dc0eeafd69b8f252", "type": "electric_scooter", "name": "5cc193ab5767d309dc0eeafd69b8f252", "rental_uris": {"android": "https://dc.lft.to/lastmile_qr_scan", "ios": "https://dc.lft.to/lastmile_qr_scan"}, "is_disabled": 0, "fusion_lat": 0.0, "lat": 38.93845233333333, "is_reserved": 0}, {"lon": -76.96528383333333, "fusion_lon": 0.0, "bike_id": "989c21db98a58f25704bd5c86697328e", "type": "electric_scooter", "name": "989c21db98a58f25704bd5c86697328e", "rental_uris": {"android": "https://dc.lft.to/lastmile_qr_scan", "ios": "https://dc.lft.to/lastmile_qr_scan"}, "is_disabled": 0, "fusion_lat": 0.0, "lat": 38.87628133333333, "is_reserved": 0}, {"lon": -77.0220305, "fusion_lon": 0.0, "bike_id": "b09abe746ca145d0074a0395262d45f7", "type": "electric_scooter", "name": "b09abe746ca145d0074a0395262d45f7", "rental_uris": {"android": "https://dc.lft.to/lastmile_qr_scan", "ios": "https://dc.lft.to/lastmile_qr_scan"}, "is_disabled": 0, "fusion_lat": 0.0, "lat": 38.895354166666664, "is_reserved": 0}, {"lon": -77.04699, "fusion_lon": 0.0, "bike_id": "8e9aae868f9eb04a515d71c4e15f8527", "type": "electric_scooter", "name": "8e9aae868f9eb04a515d71c4e15f8527", "rental_uris": {"android": "https://dc.lft.to/lastmile_qr_scan", "ios": "https://dc.lft.to/lastmile_qr_scan"}, "is_disabled": 0, "fusion_lat": 0.0, "lat": 38.921855, "is_reserved": 0}, {"lon": -77.03316616666666, "fusion_lon": 0.0, "bike_id": "c7b3645866fe376c25dc0d0c4d992d4e", "type": "electric_scooter", "name": "c7b3645866fe376c25dc0d0c4d992d4e", "rental_uris": {"android": "https://dc.lft.to/lastmile_qr_scan", "ios": "https://dc.lft.to/lastmile_qr_scan"}, "is_disabled": 0, "fusion_lat": 0.0, "lat": 38.911129, "is_reserved": 0}, {"lon": -77.041502, "fusion_lon": 0.0, "bike_id": "e61ec821d6682a2f6b8f458320764eb4", "type": "electric_scooter", "name": "e61ec821d6682a2f6b8f458320764eb4", "rental_uris": {"android": "https://dc.lft.to/lastmile_qr_scan", "ios": "https://dc.lft.to/lastmile_qr_scan"}, "is_disabled": 0, "fusion_lat": 0.0, "lat": 38.934187666666666, "is_reserved": 0}, {"lon": -76.99738716666667, "fusion_lon": 0.0, "bike_id": "bf51810c3d6b0f8aad2353d3ce9e088b", "type": "electric_scooter", "name": "bf51810c3d6b0f8aad2353d3ce9e088b", "rental_uris": {"android": "https://dc.lft.to/lastmile_qr_scan", "ios": "https://dc.lft.to/lastmile_qr_scan"}, "is_disabled": 0, "fusion_lat": 0.0, "lat": 38.90031666666667, "is_reserved": 0}, {"lon": -77.00339016666666, "fusion_lon": 0.0, "bike_id": "953d8d3f72f2c21c2065ae2c72f19016", "type": "electric_scooter", "name": "953d8d3f72f2c21c2065ae2c72f19016", "rental_uris": {"android": "https://dc.lft.to/lastmile_qr_scan", "ios": "https://dc.lft.to/lastmile_qr_scan"}, "is_disabled": 0, "fusion_lat": 0.0, "lat": 38.89466683333333, "is_reserved": 0}, {"lon": -77.02494716666666, "fusion_lon": 0.0, "bike_id": "024ec878064c8cfeeb64c1ebccd794fc", "type": "electric_scooter", "name": "024ec878064c8cfeeb64c1ebccd794fc", "rental_uris": {"android": "https://dc.lft.to/lastmile_qr_scan", "ios": "https://dc.lft.to/lastmile_qr_scan"}, "is_disabled": 0, "fusion_lat": 0.0, "lat": 38.9181145, "is_reserved": 0}, {"lon": -77.05660866666666, "fusion_lon": 0.0, "bike_id": "aa7297593cc1645ecbbdac1a35ac796f", "type": "electric_scooter", "name": "aa7297593cc1645ecbbdac1a35ac796f", "rental_uris": {"android": "https://dc.lft.to/lastmile_qr_scan", "ios": "https://dc.lft.to/lastmile_qr_scan"}, "is_disabled": 0, "fusion_lat": 0.0, "lat": 38.906117333333334, "is_reserved": 0}, {"lon": -76.99520816666667, "fusion_lon": 0.0, "bike_id": "3b5ea5682c70312b537144bb49b9ea20", "type": "electric_scooter", "name": "3b5ea5682c70312b537144bb49b9ea20", "rental_uris": {"android": "https://dc.lft.to/lastmile_qr_scan", "ios": "https://dc.lft.to/lastmile_qr_scan"}, "is_disabled": 0, "fusion_lat": 0.0, "lat": 38.879235666666666, "is_reserved": 0}, {"lon": -76.9670565, "fusion_lon": 0.0, "bike_id": "2d9af10e23f2510b2e1fbe6d4ce3c4e8", "type": "electric_scooter", "name": "2d9af10e23f2510b2e1fbe6d4ce3c4e8", "rental_uris": {"android": "https://dc.lft.to/lastmile_qr_scan", "ios": "https://dc.lft.to/lastmile_qr_scan"}, "is_disabled": 0, "fusion_lat": 0.0, "lat": 38.860393, "is_reserved": 0}, {"lon": -77.02554166666667, "fusion_lon": 0.0, "bike_id": "bb5cd024a053da985e8c71f6070a555f", "type": "electric_scooter", "name": "bb5cd024a053da985e8c71f6070a555f", "rental_uris": {"android": "https://dc.lft.to/lastmile_qr_scan", "ios": "https://dc.lft.to/lastmile_qr_scan"}, "is_disabled": 0, "fusion_lat": 0.0, "lat": 38.909621333333334, "is_reserved": 0}, {"lon": -77.05726383333334, "fusion_lon": 0.0, "bike_id": "ccff1f56799e4323be087c38ad97c639", "type": "electric_scooter", "name": "ccff1f56799e4323be087c38ad97c639", "rental_uris": {"android": "https://dc.lft.to/lastmile_qr_scan", "ios": "https://dc.lft.to/lastmile_qr_scan"}, "is_disabled": 0, "fusion_lat": 0.0, "lat": 38.9336705, "is_reserved": 0}, {"lon": -77.02289783333333, "fusion_lon": 0.0, "bike_id": "c8e331f4996ac99a463b75c4c98aae4d", "type": "electric_scooter", "name": "c8e331f4996ac99a463b75c4c98aae4d", "rental_uris": {"android": "https://dc.lft.to/lastmile_qr_scan", "ios": "https://dc.lft.to/lastmile_qr_scan"}, "is_disabled": 0, "fusion_lat": 0.0, "lat": 38.897082833333336, "is_reserved": 0}, {"lon": -76.98843483333333, "fusion_lon": 0.0, "bike_id": "fe68a8cfa58671818afe8fb1dc296a74", "type": "electric_bike", "name": "fe68a8cfa58671818afe8fb1dc296a74", "rental_uris": {"android": "https://dc.lft.to/lastmile_qr_scan", "ios": "https://dc.lft.to/lastmile_qr_scan"}, "is_disabled": 0, "fusion_lat": 0.0, "lat": 38.842768666666665, "is_reserved": 0}, {"lon": -77.07861666666666, "fusion_lon": 0.0, "bike_id": "88dd59cf7b9fd5ecda3811d8ec71f23e", "type": "electric_bike", "name": "88dd59cf7b9fd5ecda3811d8ec71f23e", "rental_uris": {"android": "https://dc.lft.to/lastmile_qr_scan", "ios": "https://dc.lft.to/lastmile_qr_scan"}, "is_disabled": 0, "fusion_lat": 0.0, "lat": 38.893975166666664, "is_reserved": 0}, {"lon": -77.0363435, "fusion_lon": 0.0, "bike_id": "4afb07854c74f71356ecd6947fcf7571", "type": "electric_scooter", "name": "4afb07854c74f71356ecd6947fcf7571", "rental_uris": {"android": "https://dc.lft.to/lastmile_qr_scan", "ios": "https://dc.lft.to/lastmile_qr_scan"}, "is_disabled": 0, "fusion_lat": 0.0, "lat": 38.9182845, "is_reserved": 0}, {"lon": -76.97853033333334, "fusion_lon": 0.0, "bike_id": "7d1000f5894188edc10b901f38d6fd0c", "type": "electric_bike", "name": "7d1000f5894188edc10b901f38d6fd0c", "rental_uris": {"android": "https://dc.lft.to/lastmile_qr_scan", "ios": "https://dc.lft.to/lastmile_qr_scan"}, "is_disabled": 0, "fusion_lat": 0.0, "lat": 38.8447165, "is_reserved": 0}, {"lon": -77.0334195, "fusion_lon": 0.0, "bike_id": "c99029803029c6090ca1905bfa0f07a9", "type": "electric_scooter", "name": "c99029803029c6090ca1905bfa0f07a9", "rental_uris": {"android": "https://dc.lft.to/lastmile_qr_scan", "ios": "https://dc.lft.to/lastmile_qr_scan"}, "is_disabled": 0, "fusion_lat": 0.0, "lat": 38.90279833333334, "is_reserved": 0}, {"lon": -77.03174866666667, "fusion_lon": 0.0, "bike_id": "031eb6da95ae16d4bf6f84caeb4f13d6", "type": "electric_scooter", "name": "031eb6da95ae16d4bf6f84caeb4f13d6", "rental_uris": {"android": "https://dc.lft.to/lastmile_qr_scan", "ios": "https://dc.lft.to/lastmile_qr_scan"}, "is_disabled": 0, "fusion_lat": 0.0, "lat": 38.91931316666667, "is_reserved": 0}, {"lon": -77.005809, "fusion_lon": 0.0, "bike_id": "12bf2589db0499b34a2b017c8521a12b", "type": "electric_scooter", "name": "12bf2589db0499b34a2b017c8521a12b", "rental_uris": {"android": "https://dc.lft.to/lastmile_qr_scan", "ios": "https://dc.lft.to/lastmile_qr_scan"}, "is_disabled": 0, "fusion_lat": 0.0, "lat": 38.87674966666667, "is_reserved": 0}, {"lon": -76.996334, "fusion_lon": 0.0, "bike_id": "7948b2a154fe7ce1ce7d707eb64f0124", "type": "electric_scooter", "name": "7948b2a154fe7ce1ce7d707eb64f0124", "rental_uris": {"android": "https://dc.lft.to/lastmile_qr_scan", "ios": "https://dc.lft.to/lastmile_qr_scan"}, "is_disabled": 0, "fusion_lat": 0.0, "lat": 38.90065633333333, "is_reserved": 0}, {"lon": -77.03991683333334, "fusion_lon": 0.0, "bike_id": "9c0f4ac4772d9946eb3bfe684413f76f", "type": "electric_scooter", "name": "9c0f4ac4772d9946eb3bfe684413f76f", "rental_uris": {"android": "https://dc.lft.to/lastmile_qr_scan", "ios": "https://dc.lft.to/lastmile_qr_scan"}, "is_disabled": 0, "fusion_lat": 0.0, "lat": 38.92462233333333, "is_reserved": 0}, {"lon": -76.97342433333333, "fusion_lon": 0.0, "bike_id": "c7b9c887c70dc390f1107f5de659f80d", "type": "electric_scooter", "name": "c7b9c887c70dc390f1107f5de659f80d", "rental_uris": {"android": "https://dc.lft.to/lastmile_qr_scan", "ios": "https://dc.lft.to/lastmile_qr_scan"}, "is_disabled": 0, "fusion_lat": 0.0, "lat": 38.8651505, "is_reserved": 0}, {"lon": -77.03211983333334, "fusion_lon": 0.0, "bike_id": "d3782325bd13c3ceca165e4b7a09a9fc", "type": "electric_scooter", "name": "d3782325bd13c3ceca165e4b7a09a9fc", "rental_uris": {"android": "https://dc.lft.to/lastmile_qr_scan", "ios": "https://dc.lft.to/lastmile_qr_scan"}, "is_disabled": 0, "fusion_lat": 0.0, "lat": 38.914228333333334, "is_reserved": 0}, {"lon": -76.99736666666666, "fusion_lon": 0.0, "bike_id": "84803a471f86e629581bdc8b0acd87e1", "type": "electric_bike", "name": "84803a471f86e629581bdc8b0acd87e1", "rental_uris": {"android": "https://dc.lft.to/lastmile_qr_scan", "ios": "https://dc.lft.to/lastmile_qr_scan"}, "is_disabled": 0, "fusion_lat": 0.0, "lat": 39.04234183333333, "is_reserved": 0}, {"lon": -77.04393383333333, "fusion_lon": 0.0, "bike_id": "7a03ef01444c66c95e5ec00a35489314", "type": "electric_scooter", "name": "7a03ef01444c66c95e5ec00a35489314", "rental_uris": {"android": "https://dc.lft.to/lastmile_qr_scan", "ios": "https://dc.lft.to/lastmile_qr_scan"}, "is_disabled": 0, "fusion_lat": 0.0, "lat": 38.91922, "is_reserved": 0}, {"lon": -77.022851, "fusion_lon": 0.0, "bike_id": "a7bc9b9456d82e119203e0c47eb9f5b4", "type": "electric_scooter", "name": "a7bc9b9456d82e119203e0c47eb9f5b4", "rental_uris": {"android": "https://dc.lft.to/lastmile_qr_scan", "ios": "https://dc.lft.to/lastmile_qr_scan"}, "is_disabled": 0, "fusion_lat": 0.0, "lat": 38.916075, "is_reserved": 0}, {"lon": -77.02495083333334, "fusion_lon": 0.0, "bike_id": "14114c3030c9fcd8ee1fe8ca30886e01", "type": "electric_scooter", "name": "14114c3030c9fcd8ee1fe8ca30886e01", "rental_uris": {"android": "https://dc.lft.to/lastmile_qr_scan", "ios": "https://dc.lft.to/lastmile_qr_scan"}, "is_disabled": 0, "fusion_lat": 0.0, "lat": 38.91810316666667, "is_reserved": 0}, {"lon": -76.98465516666667, "fusion_lon": 0.0, "bike_id": "94838cecc994a976b5887d53492b6c5d", "type": "electric_scooter", "name": "94838cecc994a976b5887d53492b6c5d", "rental_uris": {"android": "https://dc.lft.to/lastmile_qr_scan", "ios": "https://dc.lft.to/lastmile_qr_scan"}, "is_disabled": 0, "fusion_lat": 0.0, "lat": 38.903965666666664, "is_reserved": 0}, {"lon": -77.01366566666667, "fusion_lon": 0.0, "bike_id": "6e6c973d87b2752847c0c74647ac3233", "type": "electric_scooter", "name": "6e6c973d87b2752847c0c74647ac3233", "rental_uris": {"android": "https://dc.lft.to/lastmile_qr_scan", "ios": "https://dc.lft.to/lastmile_qr_scan"}, "is_disabled": 0, "fusion_lat": 0.0, "lat": 38.919191, "is_reserved": 0}, {"lon": -77.03636016666667, "fusion_lon": 0.0, "bike_id": "9d8ef6a2add242fce17fa5a9f6709efe", "type": "electric_scooter", "name": "9d8ef6a2add242fce17fa5a9f6709efe", "rental_uris": {"android": "https://dc.lft.to/lastmile_qr_scan", "ios": "https://dc.lft.to/lastmile_qr_scan"}, "is_disabled": 0, "fusion_lat": 0.0, "lat": 38.918287166666666, "is_reserved": 0}, {"lon": -77.011623, "fusion_lon": 0.0, "bike_id": "b05e97628424674e501d76d5dd916848", "type": "electric_scooter", "name": "b05e97628424674e501d76d5dd916848", "rental_uris": {"android": "https://dc.lft.to/lastmile_qr_scan", "ios": "https://dc.lft.to/lastmile_qr_scan"}, "is_disabled": 0, "fusion_lat": 0.0, "lat": 38.9125625, "is_reserved": 0}, {"lon": -77.01353083333333, "fusion_lon": 0.0, "bike_id": "c920acdf6884444bdff5fae4f46fdea9", "type": "electric_scooter", "name": "c920acdf6884444bdff5fae4f46fdea9", "rental_uris": {"android": "https://dc.lft.to/lastmile_qr_scan", "ios": "https://dc.lft.to/lastmile_qr_scan"}, "is_disabled": 0, "fusion_lat": 0.0, "lat": 38.87161366666667, "is_reserved": 0}, {"lon": -77.02820083333333, "fusion_lon": 0.0, "bike_id": "642de1c352609889b8ecbeb953f45e53", "type": "electric_scooter", "name": "642de1c352609889b8ecbeb953f45e53", "rental_uris": {"android": "https://dc.lft.to/lastmile_qr_scan", "ios": "https://dc.lft.to/lastmile_qr_scan"}, "is_disabled": 0, "fusion_lat": 0.0, "lat": 38.904699666666666, "is_reserved": 0}, {"lon": -77.02970933333333, "fusion_lon": 0.0, "bike_id": "3172d287f98ea73707783dd7c4fd49bd", "type": "electric_scooter", "name": "3172d287f98ea73707783dd7c4fd49bd", "rental_uris": {"android": "https://dc.lft.to/lastmile_qr_scan", "ios": "https://dc.lft.to/lastmile_qr_scan"}, "is_disabled": 0, "fusion_lat": 0.0, "lat": 38.912975333333335, "is_reserved": 0}, {"lon": -77.0066525, "fusion_lon": 0.0, "bike_id": "f444342a9e510a2e08bf669179eb5bf0", "type": "electric_scooter", "name": "f444342a9e510a2e08bf669179eb5bf0", "rental_uris": {"android": "https://dc.lft.to/lastmile_qr_scan", "ios": "https://dc.lft.to/lastmile_qr_scan"}, "is_disabled": 0, "fusion_lat": 0.0, "lat": 38.899994666666665, "is_reserved": 0}, {"lon": -76.97999366666667, "fusion_lon": 0.0, "bike_id": "b4475a00a2438b7aa2c5f7fb850100d2", "type": "electric_scooter", "name": "b4475a00a2438b7aa2c5f7fb850100d2", "rental_uris": {"android": "https://dc.lft.to/lastmile_qr_scan", "ios": "https://dc.lft.to/lastmile_qr_scan"}, "is_disabled": 0, "fusion_lat": 0.0, "lat": 38.86433666666667, "is_reserved": 0}, {"lon": -77.03187033333333, "fusion_lon": 0.0, "bike_id": "16973e016b6b6e5aaa23429b2ef4bbbe", "type": "electric_scooter", "name": "16973e016b6b6e5aaa23429b2ef4bbbe", "rental_uris": {"android": "https://dc.lft.to/lastmile_qr_scan", "ios": "https://dc.lft.to/lastmile_qr_scan"}, "is_disabled": 0, "fusion_lat": 0.0, "lat": 38.924862, "is_reserved": 0}, {"lon": -77.04014516666666, "fusion_lon": 0.0, "bike_id": "277ab68b9a0d5fc3848d52a49069ac64", "type": "electric_scooter", "name": "277ab68b9a0d5fc3848d52a49069ac64", "rental_uris": {"android": "https://dc.lft.to/lastmile_qr_scan", "ios": "https://dc.lft.to/lastmile_qr_scan"}, "is_disabled": 0, "fusion_lat": 0.0, "lat": 38.89634083333333, "is_reserved": 0}, {"lon": -77.0013115, "fusion_lon": 0.0, "bike_id": "f8aa306965265fc28dd41f7b6a10c802", "type": "electric_scooter", "name": "f8aa306965265fc28dd41f7b6a10c802", "rental_uris": {"android": "https://dc.lft.to/lastmile_qr_scan", "ios": "https://dc.lft.to/lastmile_qr_scan"}, "is_disabled": 0, "fusion_lat": 0.0, "lat": 38.892738, "is_reserved": 0}, {"lon": -77.03845116666666, "fusion_lon": 0.0, "bike_id": "6651bd786e7762e616ab08151ca0f5ed", "type": "electric_scooter", "name": "6651bd786e7762e616ab08151ca0f5ed", "rental_uris": {"android": "https://dc.lft.to/lastmile_qr_scan", "ios": "https://dc.lft.to/lastmile_qr_scan"}, "is_disabled": 0, "fusion_lat": 0.0, "lat": 38.902855833333334, "is_reserved": 0}, {"lon": -77.01627283333333, "fusion_lon": 0.0, "bike_id": "4a23ac0e7f57052d7a9c99f6a4e2b93b", "type": "electric_scooter", "name": "4a23ac0e7f57052d7a9c99f6a4e2b93b", "rental_uris": {"android": "https://dc.lft.to/lastmile_qr_scan", "ios": "https://dc.lft.to/lastmile_qr_scan"}, "is_disabled": 0, "fusion_lat": 0.0, "lat": 38.901992666666665, "is_reserved": 0}, {"lon": -77.00002416666666, "fusion_lon": 0.0, "bike_id": "04bdaa7aeb640a99aae48d6598404d9f", "type": "electric_scooter", "name": "04bdaa7aeb640a99aae48d6598404d9f", "rental_uris": {"android": "https://dc.lft.to/lastmile_qr_scan", "ios": "https://dc.lft.to/lastmile_qr_scan"}, "is_disabled": 0, "fusion_lat": 0.0, "lat": 38.8747545, "is_reserved": 0}, {"lon": -77.02557433333334, "fusion_lon": 0.0, "bike_id": "8922e71e49e83cd32f8517c17c55e28d", "type": "electric_scooter", "name": "8922e71e49e83cd32f8517c17c55e28d", "rental_uris": {"android": "https://dc.lft.to/lastmile_qr_scan", "ios": "https://dc.lft.to/lastmile_qr_scan"}, "is_disabled": 0, "fusion_lat": 0.0, "lat": 38.9417425, "is_reserved": 0}, {"lon": -77.023025, "fusion_lon": 0.0, "bike_id": "3d352f00a997c9b2a668dcbdd4861d0e", "type": "electric_scooter", "name": "3d352f00a997c9b2a668dcbdd4861d0e", "rental_uris": {"android": "https://dc.lft.to/lastmile_qr_scan", "ios": "https://dc.lft.to/lastmile_qr_scan"}, "is_disabled": 0, "fusion_lat": 0.0, "lat": 38.91717333333333, "is_reserved": 0}, {"lon": -77.000439, "fusion_lon": 0.0, "bike_id": "05af5d8b13c796f9871d8abd47cadb14", "type": "electric_scooter", "name": "05af5d8b13c796f9871d8abd47cadb14", "rental_uris": {"android": "https://dc.lft.to/lastmile_qr_scan", "ios": "https://dc.lft.to/lastmile_qr_scan"}, "is_disabled": 0, "fusion_lat": 0.0, "lat": 38.92363533333334, "is_reserved": 0}, {"lon": -76.99039366666666, "fusion_lon": 0.0, "bike_id": "f2dccc526195b1526685202a6f53cc1c", "type": "electric_scooter", "name": "f2dccc526195b1526685202a6f53cc1c", "rental_uris": {"android": "https://dc.lft.to/lastmile_qr_scan", "ios": "https://dc.lft.to/lastmile_qr_scan"}, "is_disabled": 0, "fusion_lat": 0.0, "lat": 38.86391316666667, "is_reserved": 0}, {"lon": -77.03577983333334, "fusion_lon": 0.0, "bike_id": "f8d073a815857f6560b1846c7e356c78", "type": "electric_scooter", "name": "f8d073a815857f6560b1846c7e356c78", "rental_uris": {"android": "https://dc.lft.to/lastmile_qr_scan", "ios": "https://dc.lft.to/lastmile_qr_scan"}, "is_disabled": 0, "fusion_lat": 0.0, "lat": 38.9111715, "is_reserved": 0}, {"lon": -76.94640383333333, "fusion_lon": 0.0, "bike_id": "8a9346a74f0bf08bb88370a9c8dd030f", "type": "electric_scooter", "name": "8a9346a74f0bf08bb88370a9c8dd030f", "rental_uris": {"android": "https://dc.lft.to/lastmile_qr_scan", "ios": "https://dc.lft.to/lastmile_qr_scan"}, "is_disabled": 0, "fusion_lat": 0.0, "lat": 38.8986815, "is_reserved": 0}, {"lon": -77.02567733333333, "fusion_lon": 0.0, "bike_id": "4571b4a259c1782a9a8cb7efe4a565c8", "type": "electric_scooter", "name": "4571b4a259c1782a9a8cb7efe4a565c8", "rental_uris": {"android": "https://dc.lft.to/lastmile_qr_scan", "ios": "https://dc.lft.to/lastmile_qr_scan"}, "is_disabled": 0, "fusion_lat": 0.0, "lat": 38.88746366666667, "is_reserved": 0}, {"lon": -77.038245, "fusion_lon": 0.0, "bike_id": "3448090d480ffdfb1d5f9f3d272d21ca", "type": "electric_scooter", "name": "3448090d480ffdfb1d5f9f3d272d21ca", "rental_uris": {"android": "https://dc.lft.to/lastmile_qr_scan", "ios": "https://dc.lft.to/lastmile_qr_scan"}, "is_disabled": 0, "fusion_lat": 0.0, "lat": 38.90851166666667, "is_reserved": 0}, {"lon": -77.030852, "fusion_lon": 0.0, "bike_id": "bf6390e1b2934d50333bcf963ec13c38", "type": "electric_scooter", "name": "bf6390e1b2934d50333bcf963ec13c38", "rental_uris": {"android": "https://dc.lft.to/lastmile_qr_scan", "ios": "https://dc.lft.to/lastmile_qr_scan"}, "is_disabled": 0, "fusion_lat": 0.0, "lat": 38.92251266666667, "is_reserved": 0}, {"lon": -77.0372935, "fusion_lon": 0.0, "bike_id": "f936b473dede3f0953c3ac6e4f2a62d7", "type": "electric_scooter", "name": "f936b473dede3f0953c3ac6e4f2a62d7", "rental_uris": {"android": "https://dc.lft.to/lastmile_qr_scan", "ios": "https://dc.lft.to/lastmile_qr_scan"}, "is_disabled": 0, "fusion_lat": 0.0, "lat": 38.9266045, "is_reserved": 0}, {"lon": -77.0215485, "fusion_lon": 0.0, "bike_id": "b2820cabdc696c3d399fd1b3dfbf248c", "type": "electric_scooter", "name": "b2820cabdc696c3d399fd1b3dfbf248c", "rental_uris": {"android": "https://dc.lft.to/lastmile_qr_scan", "ios": "https://dc.lft.to/lastmile_qr_scan"}, "is_disabled": 0, "fusion_lat": 0.0, "lat": 38.92458, "is_reserved": 0}, {"lon": -77.05862583333334, "fusion_lon": 0.0, "bike_id": "bce84677c540c498e45f7529ede406d2", "type": "electric_scooter", "name": "bce84677c540c498e45f7529ede406d2", "rental_uris": {"android": "https://dc.lft.to/lastmile_qr_scan", "ios": "https://dc.lft.to/lastmile_qr_scan"}, "is_disabled": 0, "fusion_lat": 0.0, "lat": 38.936132, "is_reserved": 0}, {"lon": -77.04122383333333, "fusion_lon": 0.0, "bike_id": "83e5ebe6a37261c45d4e2e69a9597c2c", "type": "electric_scooter", "name": "83e5ebe6a37261c45d4e2e69a9597c2c", "rental_uris": {"android": "https://dc.lft.to/lastmile_qr_scan", "ios": "https://dc.lft.to/lastmile_qr_scan"}, "is_disabled": 0, "fusion_lat": 0.0, "lat": 38.92123016666667, "is_reserved": 0}, {"lon": -77.024829, "fusion_lon": 0.0, "bike_id": "4db3fb92315a238c9287e0805df37e67", "type": "electric_scooter", "name": "4db3fb92315a238c9287e0805df37e67", "rental_uris": {"android": "https://dc.lft.to/lastmile_qr_scan", "ios": "https://dc.lft.to/lastmile_qr_scan"}, "is_disabled": 0, "fusion_lat": 0.0, "lat": 38.95792516666667, "is_reserved": 0}, {"lon": -77.03806066666667, "fusion_lon": 0.0, "bike_id": "6872a48c0183b5f785f5a4c8f4d0c970", "type": "electric_scooter", "name": "6872a48c0183b5f785f5a4c8f4d0c970", "rental_uris": {"android": "https://dc.lft.to/lastmile_qr_scan", "ios": "https://dc.lft.to/lastmile_qr_scan"}, "is_disabled": 0, "fusion_lat": 0.0, "lat": 38.92071033333333, "is_reserved": 0}, {"lon": -76.9858025, "fusion_lon": 0.0, "bike_id": "971e800f5f409215b3bd1ec46a9b40e6", "type": "electric_scooter", "name": "971e800f5f409215b3bd1ec46a9b40e6", "rental_uris": {"android": "https://dc.lft.to/lastmile_qr_scan", "ios": "https://dc.lft.to/lastmile_qr_scan"}, "is_disabled": 0, "fusion_lat": 0.0, "lat": 38.8595435, "is_reserved": 0}, {"lon": -77.02721583333333, "fusion_lon": 0.0, "bike_id": "f070e73144e410ba41923e924aee63ea", "type": "electric_scooter", "name": "f070e73144e410ba41923e924aee63ea", "rental_uris": {"android": "https://dc.lft.to/lastmile_qr_scan", "ios": "https://dc.lft.to/lastmile_qr_scan"}, "is_disabled": 0, "fusion_lat": 0.0, "lat": 38.92793016666667, "is_reserved": 0}, {"lon": -77.0309685, "fusion_lon": 0.0, "bike_id": "9f3de38ec87372e12e4d468bcb575a27", "type": "electric_scooter", "name": "9f3de38ec87372e12e4d468bcb575a27", "rental_uris": {"android": "https://dc.lft.to/lastmile_qr_scan", "ios": "https://dc.lft.to/lastmile_qr_scan"}, "is_disabled": 0, "fusion_lat": 0.0, "lat": 38.919284, "is_reserved": 0}, {"lon": -77.03736816666667, "fusion_lon": 0.0, "bike_id": "b972869c487ecc90de275212c65e2619", "type": "electric_scooter", "name": "b972869c487ecc90de275212c65e2619", "rental_uris": {"android": "https://dc.lft.to/lastmile_qr_scan", "ios": "https://dc.lft.to/lastmile_qr_scan"}, "is_disabled": 0, "fusion_lat": 0.0, "lat": 38.911157, "is_reserved": 0}, {"lon": -77.02427583333333, "fusion_lon": 0.0, "bike_id": "89e9d2bd9fe869a174baa255c58a5102", "type": "electric_scooter", "name": "89e9d2bd9fe869a174baa255c58a5102", "rental_uris": {"android": "https://dc.lft.to/lastmile_qr_scan", "ios": "https://dc.lft.to/lastmile_qr_scan"}, "is_disabled": 0, "fusion_lat": 0.0, "lat": 38.92651583333333, "is_reserved": 0}, {"lon": -77.05232433333333, "fusion_lon": 0.0, "bike_id": "9e9d7c17886ba8cb2381fbf0fec3ab95", "type": "electric_scooter", "name": "9e9d7c17886ba8cb2381fbf0fec3ab95", "rental_uris": {"android": "https://dc.lft.to/lastmile_qr_scan", "ios": "https://dc.lft.to/lastmile_qr_scan"}, "is_disabled": 0, "fusion_lat": 0.0, "lat": 38.925144, "is_reserved": 0}, {"lon": -77.0251095, "fusion_lon": 0.0, "bike_id": "2529d02115ddea086175a5b37dee8947", "type": "electric_scooter", "name": "2529d02115ddea086175a5b37dee8947", "rental_uris": {"android": "https://dc.lft.to/lastmile_qr_scan", "ios": "https://dc.lft.to/lastmile_qr_scan"}, "is_disabled": 0, "fusion_lat": 0.0, "lat": 38.919245, "is_reserved": 0}, {"lon": -77.05399816666667, "fusion_lon": 0.0, "bike_id": "f60940c2792633a7930302443b4cb2b2", "type": "electric_scooter", "name": "f60940c2792633a7930302443b4cb2b2", "rental_uris": {"android": "https://dc.lft.to/lastmile_qr_scan", "ios": "https://dc.lft.to/lastmile_qr_scan"}, "is_disabled": 0, "fusion_lat": 0.0, "lat": 38.90130816666667, "is_reserved": 0}, {"lon": -76.959691, "fusion_lon": 0.0, "bike_id": "b1a54f4b8df324d6a0dac4973036e40e", "type": "electric_bike", "name": "b1a54f4b8df324d6a0dac4973036e40e", "rental_uris": {"android": "https://dc.lft.to/lastmile_qr_scan", "ios": "https://dc.lft.to/lastmile_qr_scan"}, "is_disabled": 0, "fusion_lat": 0.0, "lat": 38.94808033333333, "is_reserved": 0}, {"lon": -77.03750633333334, "fusion_lon": 0.0, "bike_id": "a0d7fd7e7e322e23e970e2c50f1727fb", "type": "electric_scooter", "name": "a0d7fd7e7e322e23e970e2c50f1727fb", "rental_uris": {"android": "https://dc.lft.to/lastmile_qr_scan", "ios": "https://dc.lft.to/lastmile_qr_scan"}, "is_disabled": 0, "fusion_lat": 0.0, "lat": 38.93086916666667, "is_reserved": 0}, {"lon": -77.00131383333333, "fusion_lon": 0.0, "bike_id": "f4a04457e2ab6afb6d8a84eeab1f4203", "type": "electric_scooter", "name": "f4a04457e2ab6afb6d8a84eeab1f4203", "rental_uris": {"android": "https://dc.lft.to/lastmile_qr_scan", "ios": "https://dc.lft.to/lastmile_qr_scan"}, "is_disabled": 0, "fusion_lat": 0.0, "lat": 38.878807, "is_reserved": 0}, {"lon": -76.9333955, "fusion_lon": 0.0, "bike_id": "c9877a2f0dd52cafda373b0132dda424", "type": "electric_scooter", "name": "c9877a2f0dd52cafda373b0132dda424", "rental_uris": {"android": "https://dc.lft.to/lastmile_qr_scan", "ios": "https://dc.lft.to/lastmile_qr_scan"}, "is_disabled": 0, "fusion_lat": 0.0, "lat": 38.90866583333333, "is_reserved": 0}, {"lon": -77.02174633333334, "fusion_lon": 0.0, "bike_id": "8ecdd34b0153e2d453b67674a995f963", "type": "electric_scooter", "name": "8ecdd34b0153e2d453b67674a995f963", "rental_uris": {"android": "https://dc.lft.to/lastmile_qr_scan", "ios": "https://dc.lft.to/lastmile_qr_scan"}, "is_disabled": 0, "fusion_lat": 0.0, "lat": 38.905693166666666, "is_reserved": 0}, {"lon": -77.0331155, "fusion_lon": 0.0, "bike_id": "7f5f243639a7ccd697f683b4f482caec", "type": "electric_scooter", "name": "7f5f243639a7ccd697f683b4f482caec", "rental_uris": {"android": "https://dc.lft.to/lastmile_qr_scan", "ios": "https://dc.lft.to/lastmile_qr_scan"}, "is_disabled": 0, "fusion_lat": 0.0, "lat": 38.91041666666667, "is_reserved": 0}, {"lon": -77.01780833333333, "fusion_lon": 0.0, "bike_id": "0b88b832ae05980c5691fd5c97f3be08", "type": "electric_scooter", "name": "0b88b832ae05980c5691fd5c97f3be08", "rental_uris": {"android": "https://dc.lft.to/lastmile_qr_scan", "ios": "https://dc.lft.to/lastmile_qr_scan"}, "is_disabled": 0, "fusion_lat": 0.0, "lat": 38.877588833333334, "is_reserved": 0}, {"lon": -77.01946683333334, "fusion_lon": 0.0, "bike_id": "d611225b471b33950ea293020e5e2f1c", "type": "electric_scooter", "name": "d611225b471b33950ea293020e5e2f1c", "rental_uris": {"android": "https://dc.lft.to/lastmile_qr_scan", "ios": "https://dc.lft.to/lastmile_qr_scan"}, "is_disabled": 0, "fusion_lat": 0.0, "lat": 38.9233005, "is_reserved": 0}, {"lon": -77.02527466666666, "fusion_lon": 0.0, "bike_id": "37f3cc5e260c2f2737eafbe050c2bde7", "type": "electric_scooter", "name": "37f3cc5e260c2f2737eafbe050c2bde7", "rental_uris": {"android": "https://dc.lft.to/lastmile_qr_scan", "ios": "https://dc.lft.to/lastmile_qr_scan"}, "is_disabled": 0, "fusion_lat": 0.0, "lat": 38.9455835, "is_reserved": 0}, {"lon": -77.04908683333333, "fusion_lon": 0.0, "bike_id": "d5c789d68916c2daa35f25738e5c0372", "type": "electric_scooter", "name": "d5c789d68916c2daa35f25738e5c0372", "rental_uris": {"android": "https://dc.lft.to/lastmile_qr_scan", "ios": "https://dc.lft.to/lastmile_qr_scan"}, "is_disabled": 0, "fusion_lat": 0.0, "lat": 38.9160195, "is_reserved": 0}, {"lon": -77.03683883333333, "fusion_lon": 0.0, "bike_id": "09aeb957f41e42edcef4141616b252f3", "type": "electric_scooter", "name": "09aeb957f41e42edcef4141616b252f3", "rental_uris": {"android": "https://dc.lft.to/lastmile_qr_scan", "ios": "https://dc.lft.to/lastmile_qr_scan"}, "is_disabled": 0, "fusion_lat": 0.0, "lat": 38.936416, "is_reserved": 0}, {"lon": -77.00679116666667, "fusion_lon": 0.0, "bike_id": "fa249a6c61c87e5386ee09ce86a4a9bb", "type": "electric_scooter", "name": "fa249a6c61c87e5386ee09ce86a4a9bb", "rental_uris": {"android": "https://dc.lft.to/lastmile_qr_scan", "ios": "https://dc.lft.to/lastmile_qr_scan"}, "is_disabled": 0, "fusion_lat": 0.0, "lat": 38.8716945, "is_reserved": 0}, {"lon": -77.03794433333333, "fusion_lon": 0.0, "bike_id": "969776bc3d49ba0ca9b488de699446c8", "type": "electric_scooter", "name": "969776bc3d49ba0ca9b488de699446c8", "rental_uris": {"android": "https://dc.lft.to/lastmile_qr_scan", "ios": "https://dc.lft.to/lastmile_qr_scan"}, "is_disabled": 0, "fusion_lat": 0.0, "lat": 38.92190266666667, "is_reserved": 0}, {"lon": -77.11078966666666, "fusion_lon": 0.0, "bike_id": "2fc9b16cba06b71cb513784a1e00ed69", "type": "electric_bike", "name": "2fc9b16cba06b71cb513784a1e00ed69", "rental_uris": {"android": "https://dc.lft.to/lastmile_qr_scan", "ios": "https://dc.lft.to/lastmile_qr_scan"}, "is_disabled": 0, "fusion_lat": 0.0, "lat": 39.012260833333336, "is_reserved": 0}, {"lon": -76.97955383333333, "fusion_lon": 0.0, "bike_id": "b1fb809b37f9b21bdaa540757295e2d6", "type": "electric_scooter", "name": "b1fb809b37f9b21bdaa540757295e2d6", "rental_uris": {"android": "https://dc.lft.to/lastmile_qr_scan", "ios": "https://dc.lft.to/lastmile_qr_scan"}, "is_disabled": 0, "fusion_lat": 0.0, "lat": 38.905017, "is_reserved": 0}, {"lon": -77.02421983333333, "fusion_lon": 0.0, "bike_id": "d6147f5f1b822858f536b725f7bbdc7b", "type": "electric_scooter", "name": "d6147f5f1b822858f536b725f7bbdc7b", "rental_uris": {"android": "https://dc.lft.to/lastmile_qr_scan", "ios": "https://dc.lft.to/lastmile_qr_scan"}, "is_disabled": 0, "fusion_lat": 0.0, "lat": 38.920762, "is_reserved": 0}, {"lon": -77.06011933333333, "fusion_lon": 0.0, "bike_id": "66c4c6973fff46b93ff6faba443288a7", "type": "electric_scooter", "name": "66c4c6973fff46b93ff6faba443288a7", "rental_uris": {"android": "https://dc.lft.to/lastmile_qr_scan", "ios": "https://dc.lft.to/lastmile_qr_scan"}, "is_disabled": 0, "fusion_lat": 0.0, "lat": 38.93640466666667, "is_reserved": 0}, {"lon": -77.01784916666666, "fusion_lon": 0.0, "bike_id": "efaa2be1489d5deb2d12db5b4978d2ce", "type": "electric_scooter", "name": "efaa2be1489d5deb2d12db5b4978d2ce", "rental_uris": {"android": "https://dc.lft.to/lastmile_qr_scan", "ios": "https://dc.lft.to/lastmile_qr_scan"}, "is_disabled": 0, "fusion_lat": 0.0, "lat": 38.903934, "is_reserved": 0}, {"lon": -77.0426315, "fusion_lon": 0.0, "bike_id": "76863015667872ee428f193ef670e558", "type": "electric_scooter", "name": "76863015667872ee428f193ef670e558", "rental_uris": {"android": "https://dc.lft.to/lastmile_qr_scan", "ios": "https://dc.lft.to/lastmile_qr_scan"}, "is_disabled": 0, "fusion_lat": 0.0, "lat": 38.9085965, "is_reserved": 0}, {"lon": -77.03338716666667, "fusion_lon": 0.0, "bike_id": "629136e2fd73709b2c4efcf1b8855387", "type": "electric_scooter", "name": "629136e2fd73709b2c4efcf1b8855387", "rental_uris": {"android": "https://dc.lft.to/lastmile_qr_scan", "ios": "https://dc.lft.to/lastmile_qr_scan"}, "is_disabled": 0, "fusion_lat": 0.0, "lat": 38.89250533333333, "is_reserved": 0}, {"lon": -76.9865555, "fusion_lon": 0.0, "bike_id": "5eefe520d6a5c952915c7a812e8f75b5", "type": "electric_scooter", "name": "5eefe520d6a5c952915c7a812e8f75b5", "rental_uris": {"android": "https://dc.lft.to/lastmile_qr_scan", "ios": "https://dc.lft.to/lastmile_qr_scan"}, "is_disabled": 0, "fusion_lat": 0.0, "lat": 38.8580445, "is_reserved": 0}, {"lon": -76.98568683333333, "fusion_lon": 0.0, "bike_id": "49390b6736ac48e15cac537a24e31b2b", "type": "electric_scooter", "name": "49390b6736ac48e15cac537a24e31b2b", "rental_uris": {"android": "https://dc.lft.to/lastmile_qr_scan", "ios": "https://dc.lft.to/lastmile_qr_scan"}, "is_disabled": 0, "fusion_lat": 0.0, "lat": 38.866835, "is_reserved": 0}, {"lon": -77.027172, "fusion_lon": 0.0, "bike_id": "ec454d64889cf79918d1ad198742409a", "type": "electric_scooter", "name": "ec454d64889cf79918d1ad198742409a", "rental_uris": {"android": "https://dc.lft.to/lastmile_qr_scan", "ios": "https://dc.lft.to/lastmile_qr_scan"}, "is_disabled": 0, "fusion_lat": 0.0, "lat": 38.9279725, "is_reserved": 0}, {"lon": -77.03187916666667, "fusion_lon": 0.0, "bike_id": "378bfd8fe86f3e68777bc9405a86fe6f", "type": "electric_scooter", "name": "378bfd8fe86f3e68777bc9405a86fe6f", "rental_uris": {"android": "https://dc.lft.to/lastmile_qr_scan", "ios": "https://dc.lft.to/lastmile_qr_scan"}, "is_disabled": 0, "fusion_lat": 0.0, "lat": 38.91328683333333, "is_reserved": 0}, {"lon": -77.0238905, "fusion_lon": 0.0, "bike_id": "3dc6e467759059f631c171d3583d2252", "type": "electric_scooter", "name": "3dc6e467759059f631c171d3583d2252", "rental_uris": {"android": "https://dc.lft.to/lastmile_qr_scan", "ios": "https://dc.lft.to/lastmile_qr_scan"}, "is_disabled": 0, "fusion_lat": 0.0, "lat": 38.90680916666667, "is_reserved": 0}, {"lon": -77.00673916666666, "fusion_lon": 0.0, "bike_id": "67100605e1680f46f08e74d98c5f96c5", "type": "electric_scooter", "name": "67100605e1680f46f08e74d98c5f96c5", "rental_uris": {"android": "https://dc.lft.to/lastmile_qr_scan", "ios": "https://dc.lft.to/lastmile_qr_scan"}, "is_disabled": 0, "fusion_lat": 0.0, "lat": 38.900131333333334, "is_reserved": 0}, {"lon": -76.98717533333334, "fusion_lon": 0.0, "bike_id": "03b61d148e73af32d0cad4a61791e2fc", "type": "electric_scooter", "name": "03b61d148e73af32d0cad4a61791e2fc", "rental_uris": {"android": "https://dc.lft.to/lastmile_qr_scan", "ios": "https://dc.lft.to/lastmile_qr_scan"}, "is_disabled": 0, "fusion_lat": 0.0, "lat": 38.86629633333333, "is_reserved": 0}, {"lon": -77.0269725, "fusion_lon": 0.0, "bike_id": "bfecc2e121f14f7b70f4152c41e66efb", "type": "electric_scooter", "name": "bfecc2e121f14f7b70f4152c41e66efb", "rental_uris": {"android": "https://dc.lft.to/lastmile_qr_scan", "ios": "https://dc.lft.to/lastmile_qr_scan"}, "is_disabled": 0, "fusion_lat": 0.0, "lat": 38.91864266666666, "is_reserved": 0}, {"lon": -77.02198966666667, "fusion_lon": 0.0, "bike_id": "b6f26739891f15d88cce955d93bfcad9", "type": "electric_scooter", "name": "b6f26739891f15d88cce955d93bfcad9", "rental_uris": {"android": "https://dc.lft.to/lastmile_qr_scan", "ios": "https://dc.lft.to/lastmile_qr_scan"}, "is_disabled": 0, "fusion_lat": 0.0, "lat": 38.91128583333333, "is_reserved": 0}, {"lon": -77.00762416666667, "fusion_lon": 0.0, "bike_id": "171396cbd5248e8defe3fd9ae7d5d303", "type": "electric_scooter", "name": "171396cbd5248e8defe3fd9ae7d5d303", "rental_uris": {"android": "https://dc.lft.to/lastmile_qr_scan", "ios": "https://dc.lft.to/lastmile_qr_scan"}, "is_disabled": 0, "fusion_lat": 0.0, "lat": 38.8958865, "is_reserved": 0}, {"lon": -76.98764, "fusion_lon": 0.0, "bike_id": "2e5d1c5a6e45661fea8e8982960df1d5", "type": "electric_scooter", "name": "2e5d1c5a6e45661fea8e8982960df1d5", "rental_uris": {"android": "https://dc.lft.to/lastmile_qr_scan", "ios": "https://dc.lft.to/lastmile_qr_scan"}, "is_disabled": 0, "fusion_lat": 0.0, "lat": 38.9003145, "is_reserved": 0}, {"lon": -76.97262316666666, "fusion_lon": 0.0, "bike_id": "6de7b4c66dfb966b9686e61cce919e1c", "type": "electric_scooter", "name": "6de7b4c66dfb966b9686e61cce919e1c", "rental_uris": {"android": "https://dc.lft.to/lastmile_qr_scan", "ios": "https://dc.lft.to/lastmile_qr_scan"}, "is_disabled": 0, "fusion_lat": 0.0, "lat": 38.914511166666664, "is_reserved": 0}, {"lon": -77.02712016666666, "fusion_lon": 0.0, "bike_id": "d28bccaa302753ff4e4c685f16cce9ab", "type": "electric_scooter", "name": "d28bccaa302753ff4e4c685f16cce9ab", "rental_uris": {"android": "https://dc.lft.to/lastmile_qr_scan", "ios": "https://dc.lft.to/lastmile_qr_scan"}, "is_disabled": 0, "fusion_lat": 0.0, "lat": 38.90787016666667, "is_reserved": 0}, {"lon": -77.0549085, "fusion_lon": 0.0, "bike_id": "4e2a07cdb4d4c9c51fc5c0ebe567b9aa", "type": "electric_scooter", "name": "4e2a07cdb4d4c9c51fc5c0ebe567b9aa", "rental_uris": {"android": "https://dc.lft.to/lastmile_qr_scan", "ios": "https://dc.lft.to/lastmile_qr_scan"}, "is_disabled": 0, "fusion_lat": 0.0, "lat": 38.90855233333333, "is_reserved": 0}, {"lon": -76.94261966666667, "fusion_lon": 0.0, "bike_id": "eadafbfc866d08f2b4513be8435b2573", "type": "electric_bike", "name": "eadafbfc866d08f2b4513be8435b2573", "rental_uris": {"android": "https://dc.lft.to/lastmile_qr_scan", "ios": "https://dc.lft.to/lastmile_qr_scan"}, "is_disabled": 0, "fusion_lat": 0.0, "lat": 38.897321, "is_reserved": 0}, {"lon": -77.03995633333334, "fusion_lon": 0.0, "bike_id": "9a57adf512f20d22249dc15983f0db87", "type": "electric_scooter", "name": "9a57adf512f20d22249dc15983f0db87", "rental_uris": {"android": "https://dc.lft.to/lastmile_qr_scan", "ios": "https://dc.lft.to/lastmile_qr_scan"}, "is_disabled": 0, "fusion_lat": 0.0, "lat": 38.92457516666666, "is_reserved": 0}, {"lon": -77.02627116666666, "fusion_lon": 0.0, "bike_id": "ff710acb14915d5073f18391fe5e2457", "type": "electric_scooter", "name": "ff710acb14915d5073f18391fe5e2457", "rental_uris": {"android": "https://dc.lft.to/lastmile_qr_scan", "ios": "https://dc.lft.to/lastmile_qr_scan"}, "is_disabled": 0, "fusion_lat": 0.0, "lat": 38.88772766666666, "is_reserved": 0}, {"lon": -77.0504595, "fusion_lon": 0.0, "bike_id": "725128740170c323b033ce77cf5ebb4c", "type": "electric_scooter", "name": "725128740170c323b033ce77cf5ebb4c", "rental_uris": {"android": "https://dc.lft.to/lastmile_qr_scan", "ios": "https://dc.lft.to/lastmile_qr_scan"}, "is_disabled": 0, "fusion_lat": 0.0, "lat": 38.923586, "is_reserved": 0}, {"lon": -76.987162, "fusion_lon": 0.0, "bike_id": "ee9b7a5c570028eec8c0ba69df0a3de5", "type": "electric_scooter", "name": "ee9b7a5c570028eec8c0ba69df0a3de5", "rental_uris": {"android": "https://dc.lft.to/lastmile_qr_scan", "ios": "https://dc.lft.to/lastmile_qr_scan"}, "is_disabled": 0, "fusion_lat": 0.0, "lat": 38.866314, "is_reserved": 0}, {"lon": -77.01374033333333, "fusion_lon": 0.0, "bike_id": "90cfcccccc9f24f970a8d90566d16301", "type": "electric_scooter", "name": "90cfcccccc9f24f970a8d90566d16301", "rental_uris": {"android": "https://dc.lft.to/lastmile_qr_scan", "ios": "https://dc.lft.to/lastmile_qr_scan"}, "is_disabled": 0, "fusion_lat": 0.0, "lat": 38.8863745, "is_reserved": 0}, {"lon": -76.98195366666667, "fusion_lon": 0.0, "bike_id": "84b305dea76a3ce75e6ea4379b819c5a", "type": "electric_scooter", "name": "84b305dea76a3ce75e6ea4379b819c5a", "rental_uris": {"android": "https://dc.lft.to/lastmile_qr_scan", "ios": "https://dc.lft.to/lastmile_qr_scan"}, "is_disabled": 0, "fusion_lat": 0.0, "lat": 38.920628666666666, "is_reserved": 0}, {"lon": -77.02501, "fusion_lon": 0.0, "bike_id": "206cae39606b0256263c5888ab578f9e", "type": "electric_scooter", "name": "206cae39606b0256263c5888ab578f9e", "rental_uris": {"android": "https://dc.lft.to/lastmile_qr_scan", "ios": "https://dc.lft.to/lastmile_qr_scan"}, "is_disabled": 0, "fusion_lat": 0.0, "lat": 38.919338333333336, "is_reserved": 0}, {"lon": -77.000483, "fusion_lon": 0.0, "bike_id": "6e2b5ff296a38b036dbc0be4013603a9", "type": "electric_scooter", "name": "6e2b5ff296a38b036dbc0be4013603a9", "rental_uris": {"android": "https://dc.lft.to/lastmile_qr_scan", "ios": "https://dc.lft.to/lastmile_qr_scan"}, "is_disabled": 0, "fusion_lat": 0.0, "lat": 38.89438216666667, "is_reserved": 0}, {"lon": -77.02099016666666, "fusion_lon": 0.0, "bike_id": "04d0578a431d60bb87ed605f6923bf06", "type": "electric_scooter", "name": "04d0578a431d60bb87ed605f6923bf06", "rental_uris": {"android": "https://dc.lft.to/lastmile_qr_scan", "ios": "https://dc.lft.to/lastmile_qr_scan"}, "is_disabled": 0, "fusion_lat": 0.0, "lat": 38.91179666666667, "is_reserved": 0}, {"lon": -76.97168866666667, "fusion_lon": 0.0, "bike_id": "3b481916958363197cb21b07b77ec8dd", "type": "electric_scooter", "name": "3b481916958363197cb21b07b77ec8dd", "rental_uris": {"android": "https://dc.lft.to/lastmile_qr_scan", "ios": "https://dc.lft.to/lastmile_qr_scan"}, "is_disabled": 0, "fusion_lat": 0.0, "lat": 38.878189, "is_reserved": 0}, {"lon": -77.02807016666667, "fusion_lon": 0.0, "bike_id": "3e459d64942a73ff7c687a5e2c982938", "type": "electric_scooter", "name": "3e459d64942a73ff7c687a5e2c982938", "rental_uris": {"android": "https://dc.lft.to/lastmile_qr_scan", "ios": "https://dc.lft.to/lastmile_qr_scan"}, "is_disabled": 0, "fusion_lat": 0.0, "lat": 38.930812333333336, "is_reserved": 0}, {"lon": -77.0318385, "fusion_lon": 0.0, "bike_id": "c5e2ec8f8cee49371ed9617803c316bc", "type": "electric_scooter", "name": "c5e2ec8f8cee49371ed9617803c316bc", "rental_uris": {"android": "https://dc.lft.to/lastmile_qr_scan", "ios": "https://dc.lft.to/lastmile_qr_scan"}, "is_disabled": 0, "fusion_lat": 0.0, "lat": 38.901116333333334, "is_reserved": 0}, {"lon": -77.0206105, "fusion_lon": 0.0, "bike_id": "d1dd91092a120192bdbdbde611c0ae79", "type": "electric_bike", "name": "d1dd91092a120192bdbdbde611c0ae79", "rental_uris": {"android": "https://dc.lft.to/lastmile_qr_scan", "ios": "https://dc.lft.to/lastmile_qr_scan"}, "is_disabled": 0, "fusion_lat": 0.0, "lat": 38.93296616666667, "is_reserved": 0}, {"lon": -76.93732333333334, "fusion_lon": 0.0, "bike_id": "99e1c647188b4d145ac4d65b6b64a187", "type": "electric_scooter", "name": "99e1c647188b4d145ac4d65b6b64a187", "rental_uris": {"android": "https://dc.lft.to/lastmile_qr_scan", "ios": "https://dc.lft.to/lastmile_qr_scan"}, "is_disabled": 0, "fusion_lat": 0.0, "lat": 38.89015766666667, "is_reserved": 0}, {"lon": -76.9937655, "fusion_lon": 0.0, "bike_id": "4193424bea26eac3ad82e03b2f38f4d8", "type": "electric_bike", "name": "4193424bea26eac3ad82e03b2f38f4d8", "rental_uris": {"android": "https://dc.lft.to/lastmile_qr_scan", "ios": "https://dc.lft.to/lastmile_qr_scan"}, "is_disabled": 0, "fusion_lat": 0.0, "lat": 38.9909725, "is_reserved": 0}, {"lon": -77.03322866666667, "fusion_lon": 0.0, "bike_id": "4a8d405bf8b4161af190b128b03a17b1", "type": "electric_scooter", "name": "4a8d405bf8b4161af190b128b03a17b1", "rental_uris": {"android": "https://dc.lft.to/lastmile_qr_scan", "ios": "https://dc.lft.to/lastmile_qr_scan"}, "is_disabled": 0, "fusion_lat": 0.0, "lat": 38.8981925, "is_reserved": 0}, {"lon": -76.9856465, "fusion_lon": 0.0, "bike_id": "1b6fdcf8a6ee99b6cedd39d67407d9fb", "type": "electric_scooter", "name": "1b6fdcf8a6ee99b6cedd39d67407d9fb", "rental_uris": {"android": "https://dc.lft.to/lastmile_qr_scan", "ios": "https://dc.lft.to/lastmile_qr_scan"}, "is_disabled": 0, "fusion_lat": 0.0, "lat": 38.866820833333335, "is_reserved": 0}, {"lon": -77.03715016666666, "fusion_lon": 0.0, "bike_id": "f546ab9334684bbe3be87df16c1f3320", "type": "electric_scooter", "name": "f546ab9334684bbe3be87df16c1f3320", "rental_uris": {"android": "https://dc.lft.to/lastmile_qr_scan", "ios": "https://dc.lft.to/lastmile_qr_scan"}, "is_disabled": 0, "fusion_lat": 0.0, "lat": 38.9037195, "is_reserved": 0}, {"lon": -76.9985715, "fusion_lon": 0.0, "bike_id": "b26f0259b77ead796a9b633af9215bb6", "type": "electric_scooter", "name": "b26f0259b77ead796a9b633af9215bb6", "rental_uris": {"android": "https://dc.lft.to/lastmile_qr_scan", "ios": "https://dc.lft.to/lastmile_qr_scan"}, "is_disabled": 0, "fusion_lat": 0.0, "lat": 38.89189, "is_reserved": 0}, {"lon": -77.0382625, "fusion_lon": 0.0, "bike_id": "abb82dc6ca0d650527446ad11678894d", "type": "electric_scooter", "name": "abb82dc6ca0d650527446ad11678894d", "rental_uris": {"android": "https://dc.lft.to/lastmile_qr_scan", "ios": "https://dc.lft.to/lastmile_qr_scan"}, "is_disabled": 0, "fusion_lat": 0.0, "lat": 38.907925666666664, "is_reserved": 0}, {"lon": -77.036565, "fusion_lon": 0.0, "bike_id": "71be901046bbcfd9acbe3ee7467c9bc3", "type": "electric_scooter", "name": "71be901046bbcfd9acbe3ee7467c9bc3", "rental_uris": {"android": "https://dc.lft.to/lastmile_qr_scan", "ios": "https://dc.lft.to/lastmile_qr_scan"}, "is_disabled": 0, "fusion_lat": 0.0, "lat": 38.92214583333333, "is_reserved": 0}, {"lon": -77.04288816666667, "fusion_lon": 0.0, "bike_id": "949b3d8d3d39b97f35b9914a79c1cdff", "type": "electric_scooter", "name": "949b3d8d3d39b97f35b9914a79c1cdff", "rental_uris": {"android": "https://dc.lft.to/lastmile_qr_scan", "ios": "https://dc.lft.to/lastmile_qr_scan"}, "is_disabled": 0, "fusion_lat": 0.0, "lat": 38.90654283333333, "is_reserved": 0}, {"lon": -77.0084755, "fusion_lon": 0.0, "bike_id": "81aa16b76bde004acbc9738212e34df0", "type": "electric_scooter", "name": "81aa16b76bde004acbc9738212e34df0", "rental_uris": {"android": "https://dc.lft.to/lastmile_qr_scan", "ios": "https://dc.lft.to/lastmile_qr_scan"}, "is_disabled": 0, "fusion_lat": 0.0, "lat": 38.91047433333333, "is_reserved": 0}, {"lon": -77.00623116666667, "fusion_lon": 0.0, "bike_id": "9a7ace7b67a816c3d53574f4d1013a12", "type": "electric_scooter", "name": "9a7ace7b67a816c3d53574f4d1013a12", "rental_uris": {"android": "https://dc.lft.to/lastmile_qr_scan", "ios": "https://dc.lft.to/lastmile_qr_scan"}, "is_disabled": 0, "fusion_lat": 0.0, "lat": 38.87173883333333, "is_reserved": 0}, {"lon": -77.04360016666666, "fusion_lon": 0.0, "bike_id": "5b3c9a17f922b7a0ed58d84841f2fdd7", "type": "electric_scooter", "name": "5b3c9a17f922b7a0ed58d84841f2fdd7", "rental_uris": {"android": "https://dc.lft.to/lastmile_qr_scan", "ios": "https://dc.lft.to/lastmile_qr_scan"}, "is_disabled": 0, "fusion_lat": 0.0, "lat": 38.897388, "is_reserved": 0}, {"lon": -77.027602, "fusion_lon": 0.0, "bike_id": "23c3cf05c399bf33f299bcb62b7230a5", "type": "electric_scooter", "name": "23c3cf05c399bf33f299bcb62b7230a5", "rental_uris": {"android": "https://dc.lft.to/lastmile_qr_scan", "ios": "https://dc.lft.to/lastmile_qr_scan"}, "is_disabled": 0, "fusion_lat": 0.0, "lat": 38.91692583333333, "is_reserved": 0}, {"lon": -77.0238115, "fusion_lon": 0.0, "bike_id": "1c4e3477191468e824f1746be1bf16ff", "type": "electric_scooter", "name": "1c4e3477191468e824f1746be1bf16ff", "rental_uris": {"android": "https://dc.lft.to/lastmile_qr_scan", "ios": "https://dc.lft.to/lastmile_qr_scan"}, "is_disabled": 0, "fusion_lat": 0.0, "lat": 38.8973975, "is_reserved": 0}, {"lon": -77.07455866666666, "fusion_lon": 0.0, "bike_id": "753def200bda189204db0d035c2796c7", "type": "electric_scooter", "name": "753def200bda189204db0d035c2796c7", "rental_uris": {"android": "https://dc.lft.to/lastmile_qr_scan", "ios": "https://dc.lft.to/lastmile_qr_scan"}, "is_disabled": 0, "fusion_lat": 0.0, "lat": 38.93558916666667, "is_reserved": 0}, {"lon": -77.02647183333333, "fusion_lon": 0.0, "bike_id": "de3a96fb54f702e4a19badd43c495a96", "type": "electric_scooter", "name": "de3a96fb54f702e4a19badd43c495a96", "rental_uris": {"android": "https://dc.lft.to/lastmile_qr_scan", "ios": "https://dc.lft.to/lastmile_qr_scan"}, "is_disabled": 0, "fusion_lat": 0.0, "lat": 38.938595666666664, "is_reserved": 0}, {"lon": -77.0265615, "fusion_lon": 0.0, "bike_id": "5ceea7c59d29540877b0909f38d7d66d", "type": "electric_scooter", "name": "5ceea7c59d29540877b0909f38d7d66d", "rental_uris": {"android": "https://dc.lft.to/lastmile_qr_scan", "ios": "https://dc.lft.to/lastmile_qr_scan"}, "is_disabled": 0, "fusion_lat": 0.0, "lat": 38.9170625, "is_reserved": 0}, {"lon": -77.00063416666667, "fusion_lon": 0.0, "bike_id": "aa31902aee4e4dd354fccb29c084f20f", "type": "electric_scooter", "name": "aa31902aee4e4dd354fccb29c084f20f", "rental_uris": {"android": "https://dc.lft.to/lastmile_qr_scan", "ios": "https://dc.lft.to/lastmile_qr_scan"}, "is_disabled": 0, "fusion_lat": 0.0, "lat": 38.87685883333333, "is_reserved": 0}, {"lon": -77.00696233333333, "fusion_lon": 0.0, "bike_id": "d2f77070778b3cab6b87980f097ac5f7", "type": "electric_scooter", "name": "d2f77070778b3cab6b87980f097ac5f7", "rental_uris": {"android": "https://dc.lft.to/lastmile_qr_scan", "ios": "https://dc.lft.to/lastmile_qr_scan"}, "is_disabled": 0, "fusion_lat": 0.0, "lat": 38.8774595, "is_reserved": 0}, {"lon": -77.02810466666666, "fusion_lon": 0.0, "bike_id": "69f2a9c45ca92b1951cd31192e287798", "type": "electric_scooter", "name": "69f2a9c45ca92b1951cd31192e287798", "rental_uris": {"android": "https://dc.lft.to/lastmile_qr_scan", "ios": "https://dc.lft.to/lastmile_qr_scan"}, "is_disabled": 0, "fusion_lat": 0.0, "lat": 38.916382666666664, "is_reserved": 0}, {"lon": -77.0337125, "fusion_lon": 0.0, "bike_id": "95cd3b1973acfb39b4facbc5be1ceb80", "type": "electric_scooter", "name": "95cd3b1973acfb39b4facbc5be1ceb80", "rental_uris": {"android": "https://dc.lft.to/lastmile_qr_scan", "ios": "https://dc.lft.to/lastmile_qr_scan"}, "is_disabled": 0, "fusion_lat": 0.0, "lat": 38.92154, "is_reserved": 0}, {"lon": -77.0400325, "fusion_lon": 0.0, "bike_id": "a0ba8300d1e21cb6562aabf9e87424b1", "type": "electric_bike", "name": "a0ba8300d1e21cb6562aabf9e87424b1", "rental_uris": {"android": "https://dc.lft.to/lastmile_qr_scan", "ios": "https://dc.lft.to/lastmile_qr_scan"}, "is_disabled": 0, "fusion_lat": 0.0, "lat": 38.996390166666664, "is_reserved": 0}, {"lon": -76.97614616666667, "fusion_lon": 0.0, "bike_id": "26a155c5c56606f6516cdeaf34d2ef1e", "type": "electric_scooter", "name": "26a155c5c56606f6516cdeaf34d2ef1e", "rental_uris": {"android": "https://dc.lft.to/lastmile_qr_scan", "ios": "https://dc.lft.to/lastmile_qr_scan"}, "is_disabled": 0, "fusion_lat": 0.0, "lat": 38.892806, "is_reserved": 0}, {"lon": -77.0531835, "fusion_lon": 0.0, "bike_id": "73af5015952e3f12a6446dcf921e28da", "type": "electric_scooter", "name": "73af5015952e3f12a6446dcf921e28da", "rental_uris": {"android": "https://dc.lft.to/lastmile_qr_scan", "ios": "https://dc.lft.to/lastmile_qr_scan"}, "is_disabled": 0, "fusion_lat": 0.0, "lat": 38.90643033333333, "is_reserved": 0}, {"lon": -76.95183516666667, "fusion_lon": 0.0, "bike_id": "2d20fbc4817ce4e9128201829bbb2496", "type": "electric_scooter", "name": "2d20fbc4817ce4e9128201829bbb2496", "rental_uris": {"android": "https://dc.lft.to/lastmile_qr_scan", "ios": "https://dc.lft.to/lastmile_qr_scan"}, "is_disabled": 0, "fusion_lat": 0.0, "lat": 38.8913485, "is_reserved": 0}, {"lon": -77.04030983333334, "fusion_lon": 0.0, "bike_id": "c9705c990699392a293e50b7da4f9e23", "type": "electric_scooter", "name": "c9705c990699392a293e50b7da4f9e23", "rental_uris": {"android": "https://dc.lft.to/lastmile_qr_scan", "ios": "https://dc.lft.to/lastmile_qr_scan"}, "is_disabled": 0, "fusion_lat": 0.0, "lat": 38.905984333333336, "is_reserved": 0}, {"lon": -77.10686183333334, "fusion_lon": 0.0, "bike_id": "4d795da29a57799bf83e6f79b328864b", "type": "electric_bike", "name": "4d795da29a57799bf83e6f79b328864b", "rental_uris": {"android": "https://dc.lft.to/lastmile_qr_scan", "ios": "https://dc.lft.to/lastmile_qr_scan"}, "is_disabled": 0, "fusion_lat": 0.0, "lat": 38.86449533333333, "is_reserved": 0}, {"lon": -77.03178033333333, "fusion_lon": 0.0, "bike_id": "0a8b651ec927a0665d865c7f3eab164d", "type": "electric_scooter", "name": "0a8b651ec927a0665d865c7f3eab164d", "rental_uris": {"android": "https://dc.lft.to/lastmile_qr_scan", "ios": "https://dc.lft.to/lastmile_qr_scan"}, "is_disabled": 0, "fusion_lat": 0.0, "lat": 38.90431516666666, "is_reserved": 0}, {"lon": -77.02620166666667, "fusion_lon": 0.0, "bike_id": "8ee5b31bf80687f34322dc7bffd2726c", "type": "electric_scooter", "name": "8ee5b31bf80687f34322dc7bffd2726c", "rental_uris": {"android": "https://dc.lft.to/lastmile_qr_scan", "ios": "https://dc.lft.to/lastmile_qr_scan"}, "is_disabled": 0, "fusion_lat": 0.0, "lat": 38.8983905, "is_reserved": 0}, {"lon": -77.0514805, "fusion_lon": 0.0, "bike_id": "94fc4d9ce1258498a4606c504f93f207", "type": "electric_scooter", "name": "94fc4d9ce1258498a4606c504f93f207", "rental_uris": {"android": "https://dc.lft.to/lastmile_qr_scan", "ios": "https://dc.lft.to/lastmile_qr_scan"}, "is_disabled": 0, "fusion_lat": 0.0, "lat": 38.923773, "is_reserved": 0}, {"lon": -77.05726216666666, "fusion_lon": 0.0, "bike_id": "6759e4d1845e40da18eba5de86ffd372", "type": "electric_scooter", "name": "6759e4d1845e40da18eba5de86ffd372", "rental_uris": {"android": "https://dc.lft.to/lastmile_qr_scan", "ios": "https://dc.lft.to/lastmile_qr_scan"}, "is_disabled": 0, "fusion_lat": 0.0, "lat": 38.9337135, "is_reserved": 0}, {"lon": -77.0089215, "fusion_lon": 0.0, "bike_id": "9bababb139a9ab4f418d0ccb0e5c454b", "type": "electric_scooter", "name": "9bababb139a9ab4f418d0ccb0e5c454b", "rental_uris": {"android": "https://dc.lft.to/lastmile_qr_scan", "ios": "https://dc.lft.to/lastmile_qr_scan"}, "is_disabled": 0, "fusion_lat": 0.0, "lat": 38.885014, "is_reserved": 0}, {"lon": -77.05294116666667, "fusion_lon": 0.0, "bike_id": "a12212f058b5992d3c6a93c7053ee979", "type": "electric_scooter", "name": "a12212f058b5992d3c6a93c7053ee979", "rental_uris": {"android": "https://dc.lft.to/lastmile_qr_scan", "ios": "https://dc.lft.to/lastmile_qr_scan"}, "is_disabled": 0, "fusion_lat": 0.0, "lat": 38.90338883333333, "is_reserved": 0}, {"lon": -77.05587683333333, "fusion_lon": 0.0, "bike_id": "db8e94afe04c3a7d635d1b88a01672b9", "type": "electric_scooter", "name": "db8e94afe04c3a7d635d1b88a01672b9", "rental_uris": {"android": "https://dc.lft.to/lastmile_qr_scan", "ios": "https://dc.lft.to/lastmile_qr_scan"}, "is_disabled": 0, "fusion_lat": 0.0, "lat": 38.934318, "is_reserved": 0}, {"lon": -77.0279465, "fusion_lon": 0.0, "bike_id": "e6dced12c5b25379419506bf17adbf5a", "type": "electric_scooter", "name": "e6dced12c5b25379419506bf17adbf5a", "rental_uris": {"android": "https://dc.lft.to/lastmile_qr_scan", "ios": "https://dc.lft.to/lastmile_qr_scan"}, "is_disabled": 0, "fusion_lat": 0.0, "lat": 38.9392895, "is_reserved": 0}, {"lon": -76.99219183333334, "fusion_lon": 0.0, "bike_id": "1997ab6ca0981081b7b49d7c153a984a", "type": "electric_bike", "name": "1997ab6ca0981081b7b49d7c153a984a", "rental_uris": {"android": "https://dc.lft.to/lastmile_qr_scan", "ios": "https://dc.lft.to/lastmile_qr_scan"}, "is_disabled": 0, "fusion_lat": 0.0, "lat": 38.940227166666666, "is_reserved": 0}, {"lon": -76.98208483333333, "fusion_lon": 0.0, "bike_id": "8180b02d93a1a1d1b3c0a780747bd5bc", "type": "electric_scooter", "name": "8180b02d93a1a1d1b3c0a780747bd5bc", "rental_uris": {"android": "https://dc.lft.to/lastmile_qr_scan", "ios": "https://dc.lft.to/lastmile_qr_scan"}, "is_disabled": 0, "fusion_lat": 0.0, "lat": 38.901966, "is_reserved": 0}, {"lon": -77.0034485, "fusion_lon": 0.0, "bike_id": "bc26e3fcf4fd81469da8e04580bea82d", "type": "electric_scooter", "name": "bc26e3fcf4fd81469da8e04580bea82d", "rental_uris": {"android": "https://dc.lft.to/lastmile_qr_scan", "ios": "https://dc.lft.to/lastmile_qr_scan"}, "is_disabled": 0, "fusion_lat": 0.0, "lat": 38.8951895, "is_reserved": 0}, {"lon": -77.02803416666667, "fusion_lon": 0.0, "bike_id": "9b2372ecb2474251fe301e47902faa97", "type": "electric_scooter", "name": "9b2372ecb2474251fe301e47902faa97", "rental_uris": {"android": "https://dc.lft.to/lastmile_qr_scan", "ios": "https://dc.lft.to/lastmile_qr_scan"}, "is_disabled": 0, "fusion_lat": 0.0, "lat": 38.91697166666667, "is_reserved": 0}, {"lon": -77.04222466666667, "fusion_lon": 0.0, "bike_id": "584cb42aa1400993b7e3722c2d43cd3c", "type": "electric_scooter", "name": "584cb42aa1400993b7e3722c2d43cd3c", "rental_uris": {"android": "https://dc.lft.to/lastmile_qr_scan", "ios": "https://dc.lft.to/lastmile_qr_scan"}, "is_disabled": 0, "fusion_lat": 0.0, "lat": 38.92631016666667, "is_reserved": 0}, {"lon": -76.99695583333333, "fusion_lon": 0.0, "bike_id": "a6909f91019b164a638f2eaf709a66fb", "type": "electric_scooter", "name": "a6909f91019b164a638f2eaf709a66fb", "rental_uris": {"android": "https://dc.lft.to/lastmile_qr_scan", "ios": "https://dc.lft.to/lastmile_qr_scan"}, "is_disabled": 0, "fusion_lat": 0.0, "lat": 38.8842375, "is_reserved": 0}, {"lon": -77.03219483333334, "fusion_lon": 0.0, "bike_id": "a9ae8b905e68cbf9b74b3ca6c0dc86c4", "type": "electric_scooter", "name": "a9ae8b905e68cbf9b74b3ca6c0dc86c4", "rental_uris": {"android": "https://dc.lft.to/lastmile_qr_scan", "ios": "https://dc.lft.to/lastmile_qr_scan"}, "is_disabled": 0, "fusion_lat": 0.0, "lat": 38.91406166666667, "is_reserved": 0}, {"lon": -77.0326845, "fusion_lon": 0.0, "bike_id": "f548fd21eb1fe8e1c02b7569c43b9239", "type": "electric_scooter", "name": "f548fd21eb1fe8e1c02b7569c43b9239", "rental_uris": {"android": "https://dc.lft.to/lastmile_qr_scan", "ios": "https://dc.lft.to/lastmile_qr_scan"}, "is_disabled": 0, "fusion_lat": 0.0, "lat": 38.90121416666667, "is_reserved": 0}, {"lon": -77.02713116666666, "fusion_lon": 0.0, "bike_id": "54749dcfe697a81db1342ab3c8ba307b", "type": "electric_scooter", "name": "54749dcfe697a81db1342ab3c8ba307b", "rental_uris": {"android": "https://dc.lft.to/lastmile_qr_scan", "ios": "https://dc.lft.to/lastmile_qr_scan"}, "is_disabled": 0, "fusion_lat": 0.0, "lat": 38.924636, "is_reserved": 0}, {"lon": -77.03279466666666, "fusion_lon": 0.0, "bike_id": "0cbf00ea2c0311159e867fcc870d63b5", "type": "electric_scooter", "name": "0cbf00ea2c0311159e867fcc870d63b5", "rental_uris": {"android": "https://dc.lft.to/lastmile_qr_scan", "ios": "https://dc.lft.to/lastmile_qr_scan"}, "is_disabled": 0, "fusion_lat": 0.0, "lat": 38.937807166666666, "is_reserved": 0}, {"lon": -76.98879883333333, "fusion_lon": 0.0, "bike_id": "6a22d21ecea95a3928cca11937e3babd", "type": "electric_scooter", "name": "6a22d21ecea95a3928cca11937e3babd", "rental_uris": {"android": "https://dc.lft.to/lastmile_qr_scan", "ios": "https://dc.lft.to/lastmile_qr_scan"}, "is_disabled": 0, "fusion_lat": 0.0, "lat": 38.866576, "is_reserved": 0}, {"lon": -76.97827716666667, "fusion_lon": 0.0, "bike_id": "b510cefa53ff2f71550ef6524b29c45d", "type": "electric_scooter", "name": "b510cefa53ff2f71550ef6524b29c45d", "rental_uris": {"android": "https://dc.lft.to/lastmile_qr_scan", "ios": "https://dc.lft.to/lastmile_qr_scan"}, "is_disabled": 0, "fusion_lat": 0.0, "lat": 38.898437666666666, "is_reserved": 0}, {"lon": -76.99698983333333, "fusion_lon": 0.0, "bike_id": "6205c6cc16b5d3da8de364f8325f9088", "type": "electric_scooter", "name": "6205c6cc16b5d3da8de364f8325f9088", "rental_uris": {"android": "https://dc.lft.to/lastmile_qr_scan", "ios": "https://dc.lft.to/lastmile_qr_scan"}, "is_disabled": 0, "fusion_lat": 0.0, "lat": 38.922012, "is_reserved": 0}, {"lon": -77.02967216666667, "fusion_lon": 0.0, "bike_id": "383e9f633e2a21f9e78f6b002673a1b4", "type": "electric_scooter", "name": "383e9f633e2a21f9e78f6b002673a1b4", "rental_uris": {"android": "https://dc.lft.to/lastmile_qr_scan", "ios": "https://dc.lft.to/lastmile_qr_scan"}, "is_disabled": 0, "fusion_lat": 0.0, "lat": 38.923427, "is_reserved": 0}, {"lon": -77.03382316666666, "fusion_lon": 0.0, "bike_id": "9767a21d67301a384a04b6a199890060", "type": "electric_scooter", "name": "9767a21d67301a384a04b6a199890060", "rental_uris": {"android": "https://dc.lft.to/lastmile_qr_scan", "ios": "https://dc.lft.to/lastmile_qr_scan"}, "is_disabled": 0, "fusion_lat": 0.0, "lat": 38.9235785, "is_reserved": 0}, {"lon": -77.023308, "fusion_lon": 0.0, "bike_id": "7f7b46ef7b2aefbd0706d42f3cc55ff8", "type": "electric_scooter", "name": "7f7b46ef7b2aefbd0706d42f3cc55ff8", "rental_uris": {"android": "https://dc.lft.to/lastmile_qr_scan", "ios": "https://dc.lft.to/lastmile_qr_scan"}, "is_disabled": 0, "fusion_lat": 0.0, "lat": 38.908592666666664, "is_reserved": 0}, {"lon": -77.033346, "fusion_lon": 0.0, "bike_id": "f1166a16ea625b2e691773283fdcc895", "type": "electric_scooter", "name": "f1166a16ea625b2e691773283fdcc895", "rental_uris": {"android": "https://dc.lft.to/lastmile_qr_scan", "ios": "https://dc.lft.to/lastmile_qr_scan"}, "is_disabled": 0, "fusion_lat": 0.0, "lat": 38.93893033333333, "is_reserved": 0}, {"lon": -77.030436, "fusion_lon": 0.0, "bike_id": "0871d7512f655b8949f186222a495e93", "type": "electric_scooter", "name": "0871d7512f655b8949f186222a495e93", "rental_uris": {"android": "https://dc.lft.to/lastmile_qr_scan", "ios": "https://dc.lft.to/lastmile_qr_scan"}, "is_disabled": 0, "fusion_lat": 0.0, "lat": 38.923792666666664, "is_reserved": 0}, {"lon": -77.0242055, "fusion_lon": 0.0, "bike_id": "234b39d9eac6f1a0887e032717d8c3fe", "type": "electric_scooter", "name": "234b39d9eac6f1a0887e032717d8c3fe", "rental_uris": {"android": "https://dc.lft.to/lastmile_qr_scan", "ios": "https://dc.lft.to/lastmile_qr_scan"}, "is_disabled": 0, "fusion_lat": 0.0, "lat": 38.920779, "is_reserved": 0}, {"lon": -77.0071485, "fusion_lon": 0.0, "bike_id": "dbfe3c6c2fcbc3396d5f308577ea9f48", "type": "electric_scooter", "name": "dbfe3c6c2fcbc3396d5f308577ea9f48", "rental_uris": {"android": "https://dc.lft.to/lastmile_qr_scan", "ios": "https://dc.lft.to/lastmile_qr_scan"}, "is_disabled": 0, "fusion_lat": 0.0, "lat": 38.88496633333333, "is_reserved": 0}, {"lon": -77.04410716666666, "fusion_lon": 0.0, "bike_id": "a092a84008af19b17e18c11b98f6b201", "type": "electric_scooter", "name": "a092a84008af19b17e18c11b98f6b201", "rental_uris": {"android": "https://dc.lft.to/lastmile_qr_scan", "ios": "https://dc.lft.to/lastmile_qr_scan"}, "is_disabled": 0, "fusion_lat": 0.0, "lat": 38.93424366666667, "is_reserved": 0}, {"lon": -77.01977316666667, "fusion_lon": 0.0, "bike_id": "c9dc1c7ede224f8ec77ee78040d7bca1", "type": "electric_scooter", "name": "c9dc1c7ede224f8ec77ee78040d7bca1", "rental_uris": {"android": "https://dc.lft.to/lastmile_qr_scan", "ios": "https://dc.lft.to/lastmile_qr_scan"}, "is_disabled": 0, "fusion_lat": 0.0, "lat": 38.90508483333333, "is_reserved": 0}, {"lon": -77.03325333333333, "fusion_lon": 0.0, "bike_id": "54664f325313c66df5e95e5daf3a5b48", "type": "electric_scooter", "name": "54664f325313c66df5e95e5daf3a5b48", "rental_uris": {"android": "https://dc.lft.to/lastmile_qr_scan", "ios": "https://dc.lft.to/lastmile_qr_scan"}, "is_disabled": 0, "fusion_lat": 0.0, "lat": 38.89823233333333, "is_reserved": 0}, {"lon": -77.01156833333333, "fusion_lon": 0.0, "bike_id": "309709d6d3fc10e27f0288208cc1979a", "type": "electric_scooter", "name": "309709d6d3fc10e27f0288208cc1979a", "rental_uris": {"android": "https://dc.lft.to/lastmile_qr_scan", "ios": "https://dc.lft.to/lastmile_qr_scan"}, "is_disabled": 0, "fusion_lat": 0.0, "lat": 38.8963805, "is_reserved": 0}, {"lon": -77.22890583333333, "fusion_lon": 0.0, "bike_id": "0e10938820aa5620c680d248dea89109", "type": "electric_bike", "name": "0e10938820aa5620c680d248dea89109", "rental_uris": {"android": "https://dc.lft.to/lastmile_qr_scan", "ios": "https://dc.lft.to/lastmile_qr_scan"}, "is_disabled": 0, "fusion_lat": 0.0, "lat": 38.90960466666667, "is_reserved": 0}, {"lon": -76.99659566666666, "fusion_lon": 0.0, "bike_id": "4206f7008a362005a9275ee5d195852b", "type": "electric_scooter", "name": "4206f7008a362005a9275ee5d195852b", "rental_uris": {"android": "https://dc.lft.to/lastmile_qr_scan", "ios": "https://dc.lft.to/lastmile_qr_scan"}, "is_disabled": 0, "fusion_lat": 0.0, "lat": 38.86009116666666, "is_reserved": 0}, {"lon": -77.029573, "fusion_lon": 0.0, "bike_id": "e88891d656b2c2595d2683d819a4347b", "type": "electric_scooter", "name": "e88891d656b2c2595d2683d819a4347b", "rental_uris": {"android": "https://dc.lft.to/lastmile_qr_scan", "ios": "https://dc.lft.to/lastmile_qr_scan"}, "is_disabled": 0, "fusion_lat": 0.0, "lat": 38.92334116666667, "is_reserved": 0}, {"lon": -77.02278833333334, "fusion_lon": 0.0, "bike_id": "4b63d240204437956d6425b264319fcf", "type": "electric_scooter", "name": "4b63d240204437956d6425b264319fcf", "rental_uris": {"android": "https://dc.lft.to/lastmile_qr_scan", "ios": "https://dc.lft.to/lastmile_qr_scan"}, "is_disabled": 0, "fusion_lat": 0.0, "lat": 38.908541, "is_reserved": 0}, {"lon": -77.026921, "fusion_lon": 0.0, "bike_id": "4d8a43741536d588bf47ea2a7b7d7d95", "type": "electric_scooter", "name": "4d8a43741536d588bf47ea2a7b7d7d95", "rental_uris": {"android": "https://dc.lft.to/lastmile_qr_scan", "ios": "https://dc.lft.to/lastmile_qr_scan"}, "is_disabled": 0, "fusion_lat": 0.0, "lat": 38.90841366666667, "is_reserved": 0}, {"lon": -77.0260595, "fusion_lon": 0.0, "bike_id": "a7384a0cf4641ccda06bf7530fe3b7d9", "type": "electric_scooter", "name": "a7384a0cf4641ccda06bf7530fe3b7d9", "rental_uris": {"android": "https://dc.lft.to/lastmile_qr_scan", "ios": "https://dc.lft.to/lastmile_qr_scan"}, "is_disabled": 0, "fusion_lat": 0.0, "lat": 38.928481833333336, "is_reserved": 0}, {"lon": -76.985909, "fusion_lon": 0.0, "bike_id": "1c81f4a7d9dfb0802645f5f34a637cc7", "type": "electric_scooter", "name": "1c81f4a7d9dfb0802645f5f34a637cc7", "rental_uris": {"android": "https://dc.lft.to/lastmile_qr_scan", "ios": "https://dc.lft.to/lastmile_qr_scan"}, "is_disabled": 0, "fusion_lat": 0.0, "lat": 38.88409, "is_reserved": 0}, {"lon": -76.93339, "fusion_lon": 0.0, "bike_id": "c857dd6bb0f41ee942f5e017161319c0", "type": "electric_scooter", "name": "c857dd6bb0f41ee942f5e017161319c0", "rental_uris": {"android": "https://dc.lft.to/lastmile_qr_scan", "ios": "https://dc.lft.to/lastmile_qr_scan"}, "is_disabled": 0, "fusion_lat": 0.0, "lat": 38.908672833333334, "is_reserved": 0}, {"lon": -77.002187, "fusion_lon": 0.0, "bike_id": "027e985a989311772fe2a4c500218451", "type": "electric_scooter", "name": "027e985a989311772fe2a4c500218451", "rental_uris": {"android": "https://dc.lft.to/lastmile_qr_scan", "ios": "https://dc.lft.to/lastmile_qr_scan"}, "is_disabled": 0, "fusion_lat": 0.0, "lat": 38.9077895, "is_reserved": 0}, {"lon": -77.00088733333334, "fusion_lon": 0.0, "bike_id": "d2dbc3f0987646bcb411dd0df765ddd9", "type": "electric_scooter", "name": "d2dbc3f0987646bcb411dd0df765ddd9", "rental_uris": {"android": "https://dc.lft.to/lastmile_qr_scan", "ios": "https://dc.lft.to/lastmile_qr_scan"}, "is_disabled": 0, "fusion_lat": 0.0, "lat": 38.8753905, "is_reserved": 0}, {"lon": -77.05043833333333, "fusion_lon": 0.0, "bike_id": "c73060dd4af203cdb389ad9ac7a46d34", "type": "electric_scooter", "name": "c73060dd4af203cdb389ad9ac7a46d34", "rental_uris": {"android": "https://dc.lft.to/lastmile_qr_scan", "ios": "https://dc.lft.to/lastmile_qr_scan"}, "is_disabled": 0, "fusion_lat": 0.0, "lat": 38.92366833333333, "is_reserved": 0}, {"lon": -77.00572633333333, "fusion_lon": 0.0, "bike_id": "b5e73b5e84e91282fde1438474615af7", "type": "electric_scooter", "name": "b5e73b5e84e91282fde1438474615af7", "rental_uris": {"android": "https://dc.lft.to/lastmile_qr_scan", "ios": "https://dc.lft.to/lastmile_qr_scan"}, "is_disabled": 0, "fusion_lat": 0.0, "lat": 38.905773833333335, "is_reserved": 0}, {"lon": -77.00785233333333, "fusion_lon": 0.0, "bike_id": "a5543c66fe445f5ec7acf679191f6ba2", "type": "electric_scooter", "name": "a5543c66fe445f5ec7acf679191f6ba2", "rental_uris": {"android": "https://dc.lft.to/lastmile_qr_scan", "ios": "https://dc.lft.to/lastmile_qr_scan"}, "is_disabled": 0, "fusion_lat": 0.0, "lat": 38.905741, "is_reserved": 0}, {"lon": -77.00463483333333, "fusion_lon": 0.0, "bike_id": "5861d7bfbed605305a3b2b7b0ed5c4b1", "type": "electric_scooter", "name": "5861d7bfbed605305a3b2b7b0ed5c4b1", "rental_uris": {"android": "https://dc.lft.to/lastmile_qr_scan", "ios": "https://dc.lft.to/lastmile_qr_scan"}, "is_disabled": 0, "fusion_lat": 0.0, "lat": 38.87662733333333, "is_reserved": 0}, {"lon": -77.0365075, "fusion_lon": 0.0, "bike_id": "1613c6c0105abd3953aed63f33f0d2c7", "type": "electric_scooter", "name": "1613c6c0105abd3953aed63f33f0d2c7", "rental_uris": {"android": "https://dc.lft.to/lastmile_qr_scan", "ios": "https://dc.lft.to/lastmile_qr_scan"}, "is_disabled": 0, "fusion_lat": 0.0, "lat": 38.9083655, "is_reserved": 0}, {"lon": -76.9355975, "fusion_lon": 0.0, "bike_id": "123616b28fe12595cfc84f15d9b013c1", "type": "electric_scooter", "name": "123616b28fe12595cfc84f15d9b013c1", "rental_uris": {"android": "https://dc.lft.to/lastmile_qr_scan", "ios": "https://dc.lft.to/lastmile_qr_scan"}, "is_disabled": 0, "fusion_lat": 0.0, "lat": 38.88258733333333, "is_reserved": 0}, {"lon": -77.072808, "fusion_lon": 0.0, "bike_id": "310907519e78ddf00097ab022b43496e", "type": "electric_scooter", "name": "310907519e78ddf00097ab022b43496e", "rental_uris": {"android": "https://dc.lft.to/lastmile_qr_scan", "ios": "https://dc.lft.to/lastmile_qr_scan"}, "is_disabled": 0, "fusion_lat": 0.0, "lat": 38.934721833333334, "is_reserved": 0}, {"lon": -77.032931, "fusion_lon": 0.0, "bike_id": "2a5fbe15a9d2481167c371d4712287e8", "type": "electric_scooter", "name": "2a5fbe15a9d2481167c371d4712287e8", "rental_uris": {"android": "https://dc.lft.to/lastmile_qr_scan", "ios": "https://dc.lft.to/lastmile_qr_scan"}, "is_disabled": 0, "fusion_lat": 0.0, "lat": 38.898714166666664, "is_reserved": 0}, {"lon": -77.04780616666666, "fusion_lon": 0.0, "bike_id": "a0deac6b9ab9a290cbfe0d070e11233c", "type": "electric_scooter", "name": "a0deac6b9ab9a290cbfe0d070e11233c", "rental_uris": {"android": "https://dc.lft.to/lastmile_qr_scan", "ios": "https://dc.lft.to/lastmile_qr_scan"}, "is_disabled": 0, "fusion_lat": 0.0, "lat": 38.89722616666667, "is_reserved": 0}, {"lon": -77.02414183333333, "fusion_lon": 0.0, "bike_id": "e79af9bccf29f7d6a43d4718dbe1917d", "type": "electric_scooter", "name": "e79af9bccf29f7d6a43d4718dbe1917d", "rental_uris": {"android": "https://dc.lft.to/lastmile_qr_scan", "ios": "https://dc.lft.to/lastmile_qr_scan"},