{"data": {"bikes": [{"bike_id": "abee73d6cd68b8ef9b1ecf2a0441d269", "lat": 38.9285, "is_disabled": 0, "lon": -77.03723616666667, "fusion_lon": 0.0, "is_reserved": 0, "fusion_lat": 0.0, "rental_uris": {"android": "https://dc.lft.to/lastmile_qr_scan", "ios": "https://dc.lft.to/lastmile_qr_scan"}, "type": "electric_scooter", "name": "abee73d6cd68b8ef9b1ecf2a0441d269"}, {"bike_id": "3efde0d930f191f7b9822662f1c29704", "lat": 38.907206, "is_disabled": 0, "lon": -77.0317415, "fusion_lon": 0.0, "is_reserved": 0, "fusion_lat": 0.0, "rental_uris": {"android": "https://dc.lft.to/lastmile_qr_scan", "ios": "https://dc.lft.to/lastmile_qr_scan"}, "type": "electric_scooter", "name": "3efde0d930f191f7b9822662f1c29704"}, {"bike_id": "926865da6063275db5305c830144fb5e", "lat": 38.9040715, "is_disabled": 0, "lon": -76.97332333333334, "fusion_lon": 0.0, "is_reserved": 0, "fusion_lat": 0.0, "rental_uris": {"android": "https://dc.lft.to/lastmile_qr_scan", "ios": "https://dc.lft.to/lastmile_qr_scan"}, "type": "electric_scooter", "name": "926865da6063275db5305c830144fb5e"}, {"bike_id": "cf4aa6ec76e7cbdde84dcea5998c6461", "lat": 38.894191166666666, "is_disabled": 0, "lon": -77.02212866666666, "fusion_lon": 0.0, "is_reserved": 0, "fusion_lat": 0.0, "rental_uris": {"android": "https://dc.lft.to/lastmile_qr_scan", "ios": "https://dc.lft.to/lastmile_qr_scan"}, "type": "electric_scooter", "name": "cf4aa6ec76e7cbdde84dcea5998c6461"}, {"bike_id": "a1b7903ba7ea7db730a16fba5759f537", "lat": 38.90498183333333, "is_disabled": 0, "lon": -77.06107716666666, "fusion_lon": 0.0, "is_reserved": 0, "fusion_lat": 0.0, "rental_uris": {"android": "https://dc.lft.to/lastmile_qr_scan", "ios": "https://dc.lft.to/lastmile_qr_scan"}, "type": "electric_scooter", "name": "a1b7903ba7ea7db730a16fba5759f537"}, {"bike_id": "e2bb6fee06bb6daf53ad73f8aa9ef727", "lat": 38.83776233333333, "is_disabled": 0, "lon": -76.9983115, "fusion_lon": 0.0, "is_reserved": 0, "fusion_lat": 0.0, "rental_uris": {"android": "https://dc.lft.to/lastmile_qr_scan", "ios": "https://dc.lft.to/lastmile_qr_scan"}, "type": "electric_scooter", "name": "e2bb6fee06bb6daf53ad73f8aa9ef727"}, {"bike_id": "c683e4e6f0b198f5528ca2ee85fbe6f8", "lat": 38.9262515, "is_disabled": 0, "lon": -77.04190783333334, "fusion_lon": 0.0, "is_reserved": 0, "fusion_lat": 0.0, "rental_uris": {"android": "https://dc.lft.to/lastmile_qr_scan", "ios": "https://dc.lft.to/lastmile_qr_scan"}, "type": "electric_scooter", "name": "c683e4e6f0b198f5528ca2ee85fbe6f8"}, {"bike_id": "30039230355d10811af6641786e5ffd8", "lat": 38.90246233333333, "is_disabled": 0, "lon": -77.03436383333333, "fusion_lon": 0.0, "is_reserved": 0, "fusion_lat": 0.0, "rental_uris": {"android": "https://dc.lft.to/lastmile_qr_scan", "ios": "https://dc.lft.to/lastmile_qr_scan"}, "type": "electric_scooter", "name": "30039230355d10811af6641786e5ffd8"}, {"bike_id": "b861437fa756ce38aeacfb7eb247daea", "lat": 38.899861, "is_disabled": 0, "lon": -76.994782, "fusion_lon": 0.0, "is_reserved": 0, "fusion_lat": 0.0, "rental_uris": {"android": "https://dc.lft.to/lastmile_qr_scan", "ios": "https://dc.lft.to/lastmile_qr_scan"}, "type": "electric_scooter", "name": "b861437fa756ce38aeacfb7eb247daea"}, {"bike_id": "1b7e91b795715405496bec600ca9539d", "lat": 38.88488433333333, "is_disabled": 0, "lon": -77.02157516666666, "fusion_lon": 0.0, "is_reserved": 0, "fusion_lat": 0.0, "rental_uris": {"android": "https://dc.lft.to/lastmile_qr_scan", "ios": "https://dc.lft.to/lastmile_qr_scan"}, "type": "electric_scooter", "name": "1b7e91b795715405496bec600ca9539d"}, {"bike_id": "f807f609f97ae27e8d3460052c862b0b", "lat": 38.909771666666664, "is_disabled": 0, "lon": -77.00681483333334, "fusion_lon": 0.0, "is_reserved": 0, "fusion_lat": 0.0, "rental_uris": {"android": "https://dc.lft.to/lastmile_qr_scan", "ios": "https://dc.lft.to/lastmile_qr_scan"}, "type": "electric_scooter", "name": "f807f609f97ae27e8d3460052c862b0b"}, {"bike_id": "aa05b1b39084f3a9d10a8932ea6fa05a", "lat": 38.87384466666666, "is_disabled": 0, "lon": -77.0014125, "fusion_lon": 0.0, "is_reserved": 0, "fusion_lat": 0.0, "rental_uris": {"android": "https://dc.lft.to/lastmile_qr_scan", "ios": "https://dc.lft.to/lastmile_qr_scan"}, "type": "electric_scooter", "name": "aa05b1b39084f3a9d10a8932ea6fa05a"}, {"bike_id": "1c9c06986ad44cf9e0fae660f21eee0b", "lat": 38.910443666666666, "is_disabled": 0, "lon": -77.04399883333333, "fusion_lon": 0.0, "is_reserved": 0, "fusion_lat": 0.0, "rental_uris": {"android": "https://dc.lft.to/lastmile_qr_scan", "ios": "https://dc.lft.to/lastmile_qr_scan"}, "type": "electric_scooter", "name": "1c9c06986ad44cf9e0fae660f21eee0b"}, {"bike_id": "d9d4a42caa77cff5c28c71ddb911d24b", "lat": 38.90467066666667, "is_disabled": 0, "lon": -77.04842166666667, "fusion_lon": 0.0, "is_reserved": 0, "fusion_lat": 0.0, "rental_uris": {"android": "https://dc.lft.to/lastmile_qr_scan", "ios": "https://dc.lft.to/lastmile_qr_scan"}, "type": "electric_scooter", "name": "d9d4a42caa77cff5c28c71ddb911d24b"}, {"bike_id": "a1479460bb8f313521374bb5563c6a5e", "lat": 38.892179, "is_disabled": 0, "lon": -77.02622316666667, "fusion_lon": 0.0, "is_reserved": 0, "fusion_lat": 0.0, "rental_uris": {"android": "https://dc.lft.to/lastmile_qr_scan", "ios": "https://dc.lft.to/lastmile_qr_scan"}, "type": "electric_scooter", "name": "a1479460bb8f313521374bb5563c6a5e"}, {"bike_id": "3068872586882481c3c13f849b29c7c8", "lat": 38.93394166666667, "is_disabled": 0, "lon": -77.05739433333333, "fusion_lon": 0.0, "is_reserved": 0, "fusion_lat": 0.0, "rental_uris": {"android": "https://dc.lft.to/lastmile_qr_scan", "ios": "https://dc.lft.to/lastmile_qr_scan"}, "type": "electric_scooter", "name": "3068872586882481c3c13f849b29c7c8"}, {"bike_id": "fba2b57c52061d64ab09cafacd4d708a", "lat": 38.89803716666667, "is_disabled": 0, "lon": -76.97949816666667, "fusion_lon": 0.0, "is_reserved": 0, "fusion_lat": 0.0, "rental_uris": {"android": "https://dc.lft.to/lastmile_qr_scan", "ios": "https://dc.lft.to/lastmile_qr_scan"}, "type": "electric_scooter", "name": "fba2b57c52061d64ab09cafacd4d708a"}, {"bike_id": "891f8025b2d92c9546695148a5084226", "lat": 38.899567166666664, "is_disabled": 0, "lon": -77.02094233333334, "fusion_lon": 0.0, "is_reserved": 0, "fusion_lat": 0.0, "rental_uris": {"android": "https://dc.lft.to/lastmile_qr_scan", "ios": "https://dc.lft.to/lastmile_qr_scan"}, "type": "electric_scooter", "name": "891f8025b2d92c9546695148a5084226"}, {"bike_id": "9c5885642a64c7882f26f76f239c575d", "lat": 38.87389433333333, "is_disabled": 0, "lon": -77.00140316666666, "fusion_lon": 0.0, "is_reserved": 0, "fusion_lat": 0.0, "rental_uris": {"android": "https://dc.lft.to/lastmile_qr_scan", "ios": "https://dc.lft.to/lastmile_qr_scan"}, "type": "electric_scooter", "name": "9c5885642a64c7882f26f76f239c575d"}, {"bike_id": "0eb07b6ec31f9ab4e22ac4ffdca98623", "lat": 38.88368583333333, "is_disabled": 0, "lon": -76.95708566666667, "fusion_lon": 0.0, "is_reserved": 0, "fusion_lat": 0.0, "rental_uris": {"android": "https://dc.lft.to/lastmile_qr_scan", "ios": "https://dc.lft.to/lastmile_qr_scan"}, "type": "electric_scooter", "name": "0eb07b6ec31f9ab4e22ac4ffdca98623"}, {"bike_id": "ce19a95e5b72955bdd84bc68abe1fa01", "lat": 38.909523666666665, "is_disabled": 0, "lon": -77.00733333333334, "fusion_lon": 0.0, "is_reserved": 0, "fusion_lat": 0.0, "rental_uris": {"android": "https://dc.lft.to/lastmile_qr_scan", "ios": "https://dc.lft.to/lastmile_qr_scan"}, "type": "electric_scooter", "name": "ce19a95e5b72955bdd84bc68abe1fa01"}, {"bike_id": "25366733fbcab54ff4e9889b5c3fd165", "lat": 38.9100285, "is_disabled": 0, "lon": -77.04001216666667, "fusion_lon": 0.0, "is_reserved": 0, "fusion_lat": 0.0, "rental_uris": {"android": "https://dc.lft.to/lastmile_qr_scan", "ios": "https://dc.lft.to/lastmile_qr_scan"}, "type": "electric_scooter", "name": "25366733fbcab54ff4e9889b5c3fd165"}, {"bike_id": "f04503f15108d8da44f36b64b31b7d90", "lat": 38.904070833333336, "is_disabled": 0, "lon": -77.029311, "fusion_lon": 0.0, "is_reserved": 0, "fusion_lat": 0.0, "rental_uris": {"android": "https://dc.lft.to/lastmile_qr_scan", "ios": "https://dc.lft.to/lastmile_qr_scan"}, "type": "electric_scooter", "name": "f04503f15108d8da44f36b64b31b7d90"}, {"bike_id": "a407ba5904afb493a0368402c8659657", "lat": 38.8765955, "is_disabled": 0, "lon": -77.00938283333333, "fusion_lon": 0.0, "is_reserved": 0, "fusion_lat": 0.0, "rental_uris": {"android": "https://dc.lft.to/lastmile_qr_scan", "ios": "https://dc.lft.to/lastmile_qr_scan"}, "type": "electric_scooter", "name": "a407ba5904afb493a0368402c8659657"}, {"bike_id": "deafee6cc1958085016f4d5a855a1a19", "lat": 38.892235666666664, "is_disabled": 0, "lon": -77.04504166666666, "fusion_lon": 0.0, "is_reserved": 0, "fusion_lat": 0.0, "rental_uris": {"android": "https://dc.lft.to/lastmile_qr_scan", "ios": "https://dc.lft.to/lastmile_qr_scan"}, "type": "electric_scooter", "name": "deafee6cc1958085016f4d5a855a1a19"}, {"bike_id": "1b2ad7b8ea0c57e676fdee8b0b973d59", "lat": 38.876439166666664, "is_disabled": 0, "lon": -76.96501433333333, "fusion_lon": 0.0, "is_reserved": 0, "fusion_lat": 0.0, "rental_uris": {"android": "https://dc.lft.to/lastmile_qr_scan", "ios": "https://dc.lft.to/lastmile_qr_scan"}, "type": "electric_scooter", "name": "1b2ad7b8ea0c57e676fdee8b0b973d59"}, {"bike_id": "57a00099278978a6d39d6730e00b1115", "lat": 38.898877666666664, "is_disabled": 0, "lon": -77.04872, "fusion_lon": 0.0, "is_reserved": 0, "fusion_lat": 0.0, "rental_uris": {"android": "https://dc.lft.to/lastmile_qr_scan", "ios": "https://dc.lft.to/lastmile_qr_scan"}, "type": "electric_scooter", "name": "57a00099278978a6d39d6730e00b1115"}, {"bike_id": "289b74fe2fd9b9d79ed9561adf4d2f0b", "lat": 38.929492833333335, "is_disabled": 0, "lon": -77.043982, "fusion_lon": 0.0, "is_reserved": 0, "fusion_lat": 0.0, "rental_uris": {"android": "https://dc.lft.to/lastmile_qr_scan", "ios": "https://dc.lft.to/lastmile_qr_scan"}, "type": "electric_scooter", "name": "289b74fe2fd9b9d79ed9561adf4d2f0b"}, {"bike_id": "4ccf779d76f8385b05edd160fb3a0773", "lat": 38.938906833333334, "is_disabled": 0, "lon": -77.017648, "fusion_lon": 0.0, "is_reserved": 0, "fusion_lat": 0.0, "rental_uris": {"android": "https://dc.lft.to/lastmile_qr_scan", "ios": "https://dc.lft.to/lastmile_qr_scan"}, "type": "electric_scooter", "name": "4ccf779d76f8385b05edd160fb3a0773"}, {"bike_id": "fea0762d2f73f2ed6747749f84c8c1c9", "lat": 38.957043166666665, "is_disabled": 0, "lon": -77.02397633333334, "fusion_lon": 0.0, "is_reserved": 0, "fusion_lat": 0.0, "rental_uris": {"android": "https://dc.lft.to/lastmile_qr_scan", "ios": "https://dc.lft.to/lastmile_qr_scan"}, "type": "electric_scooter", "name": "fea0762d2f73f2ed6747749f84c8c1c9"}, {"bike_id": "b42e7f5e7e820b07bc4f3ce1d2a60aaa", "lat": 38.873785166666664, "is_disabled": 0, "lon": -76.9698285, "fusion_lon": 0.0, "is_reserved": 0, "fusion_lat": 0.0, "rental_uris": {"android": "https://dc.lft.to/lastmile_qr_scan", "ios": "https://dc.lft.to/lastmile_qr_scan"}, "type": "electric_scooter", "name": "b42e7f5e7e820b07bc4f3ce1d2a60aaa"}, {"bike_id": "700dc279f573f9b45dc0f91789ba987b", "lat": 38.923293, "is_disabled": 0, "lon": -77.036193, "fusion_lon": 0.0, "is_reserved": 0, "fusion_lat": 0.0, "rental_uris": {"android": "https://dc.lft.to/lastmile_qr_scan", "ios": "https://dc.lft.to/lastmile_qr_scan"}, "type": "electric_scooter", "name": "700dc279f573f9b45dc0f91789ba987b"}, {"bike_id": "1fbaa63effe859b2776ee4418c093b9c", "lat": 38.84108916666667, "is_disabled": 0, "lon": -77.07014016666666, "fusion_lon": 0.0, "is_reserved": 0, "fusion_lat": 0.0, "rental_uris": {"android": "https://dc.lft.to/lastmile_qr_scan", "ios": "https://dc.lft.to/lastmile_qr_scan"}, "type": "electric_bike", "name": "1fbaa63effe859b2776ee4418c093b9c"}, {"bike_id": "ece81c365bf688bbe8ffb0b1d8b375dd", "lat": 38.915608, "is_disabled": 0, "lon": -77.01996183333333, "fusion_lon": 0.0, "is_reserved": 0, "fusion_lat": 0.0, "rental_uris": {"android": "https://dc.lft.to/lastmile_qr_scan", "ios": "https://dc.lft.to/lastmile_qr_scan"}, "type": "electric_scooter", "name": "ece81c365bf688bbe8ffb0b1d8b375dd"}, {"bike_id": "861ac8a309cbeb53b9f9f11106ff0fcb", "lat": 38.92156166666667, "is_disabled": 0, "lon": -77.03394333333334, "fusion_lon": 0.0, "is_reserved": 0, "fusion_lat": 0.0, "rental_uris": {"android": "https://dc.lft.to/lastmile_qr_scan", "ios": "https://dc.lft.to/lastmile_qr_scan"}, "type": "electric_scooter", "name": "861ac8a309cbeb53b9f9f11106ff0fcb"}, {"bike_id": "6fe4355ccadadc2acd2023a51be4a1ca", "lat": 38.88706533333333, "is_disabled": 0, "lon": -77.028192, "fusion_lon": 0.0, "is_reserved": 0, "fusion_lat": 0.0, "rental_uris": {"android": "https://dc.lft.to/lastmile_qr_scan", "ios": "https://dc.lft.to/lastmile_qr_scan"}, "type": "electric_scooter", "name": "6fe4355ccadadc2acd2023a51be4a1ca"}, {"bike_id": "e14d22b20c65e6acb62f5beef2307f79", "lat": 38.892203333333335, "is_disabled": 0, "lon": -77.043336, "fusion_lon": 0.0, "is_reserved": 0, "fusion_lat": 0.0, "rental_uris": {"android": "https://dc.lft.to/lastmile_qr_scan", "ios": "https://dc.lft.to/lastmile_qr_scan"}, "type": "electric_scooter", "name": "e14d22b20c65e6acb62f5beef2307f79"}, {"bike_id": "355fbc6c2ba98ddeef647d2887b71de1", "lat": 38.89619366666667, "is_disabled": 0, "lon": -76.90740033333333, "fusion_lon": 0.0, "is_reserved": 0, "fusion_lat": 0.0, "rental_uris": {"android": "https://dc.lft.to/lastmile_qr_scan", "ios": "https://dc.lft.to/lastmile_qr_scan"}, "type": "electric_bike", "name": "355fbc6c2ba98ddeef647d2887b71de1"}, {"bike_id": "604dfbfd009b64735b339b400364c1a5", "lat": 38.92065, "is_disabled": 0, "lon": -77.03252166666667, "fusion_lon": 0.0, "is_reserved": 0, "fusion_lat": 0.0, "rental_uris": {"android": "https://dc.lft.to/lastmile_qr_scan", "ios": "https://dc.lft.to/lastmile_qr_scan"}, "type": "electric_scooter", "name": "604dfbfd009b64735b339b400364c1a5"}, {"bike_id": "df813c6446eaf8e2889155acc0a4f35e", "lat": 38.916897166666665, "is_disabled": 0, "lon": -77.02895783333334, "fusion_lon": 0.0, "is_reserved": 0, "fusion_lat": 0.0, "rental_uris": {"android": "https://dc.lft.to/lastmile_qr_scan", "ios": "https://dc.lft.to/lastmile_qr_scan"}, "type": "electric_scooter", "name": "df813c6446eaf8e2889155acc0a4f35e"}, {"bike_id": "25e4ce6c696b1f86ab23039a96c629af", "lat": 38.902551, "is_disabled": 0, "lon": -77.017557, "fusion_lon": 0.0, "is_reserved": 0, "fusion_lat": 0.0, "rental_uris": {"android": "https://dc.lft.to/lastmile_qr_scan", "ios": "https://dc.lft.to/lastmile_qr_scan"}, "type": "electric_scooter", "name": "25e4ce6c696b1f86ab23039a96c629af"}, {"bike_id": "43354dcfa4e81a39ef286b53335fdb3c", "lat": 38.92057766666667, "is_disabled": 0, "lon": -77.03156366666667, "fusion_lon": 0.0, "is_reserved": 0, "fusion_lat": 0.0, "rental_uris": {"android": "https://dc.lft.to/lastmile_qr_scan", "ios": "https://dc.lft.to/lastmile_qr_scan"}, "type": "electric_scooter", "name": "43354dcfa4e81a39ef286b53335fdb3c"}, {"bike_id": "c7c300146207be9f1fc7674393107a44", "lat": 38.925045, "is_disabled": 0, "lon": -77.03876533333333, "fusion_lon": 0.0, "is_reserved": 0, "fusion_lat": 0.0, "rental_uris": {"android": "https://dc.lft.to/lastmile_qr_scan", "ios": "https://dc.lft.to/lastmile_qr_scan"}, "type": "electric_scooter", "name": "c7c300146207be9f1fc7674393107a44"}, {"bike_id": "c43cfce9df2f1c6b6ba6d37cdb0543b0", "lat": 38.898995666666664, "is_disabled": 0, "lon": -77.03283566666667, "fusion_lon": 0.0, "is_reserved": 0, "fusion_lat": 0.0, "rental_uris": {"android": "https://dc.lft.to/lastmile_qr_scan", "ios": "https://dc.lft.to/lastmile_qr_scan"}, "type": "electric_scooter", "name": "c43cfce9df2f1c6b6ba6d37cdb0543b0"}, {"bike_id": "18a0d584416f6d708c322d63f7047d9c", "lat": 38.89589983333333, "is_disabled": 0, "lon": -77.02974883333333, "fusion_lon": 0.0, "is_reserved": 0, "fusion_lat": 0.0, "rental_uris": {"android": "https://dc.lft.to/lastmile_qr_scan", "ios": "https://dc.lft.to/lastmile_qr_scan"}, "type": "electric_scooter", "name": "18a0d584416f6d708c322d63f7047d9c"}, {"bike_id": "28ad28123bd101eda8711d26e70a0281", "lat": 38.91278366666667, "is_disabled": 0, "lon": -77.0384125, "fusion_lon": 0.0, "is_reserved": 0, "fusion_lat": 0.0, "rental_uris": {"android": "https://dc.lft.to/lastmile_qr_scan", "ios": "https://dc.lft.to/lastmile_qr_scan"}, "type": "electric_scooter", "name": "28ad28123bd101eda8711d26e70a0281"}, {"bike_id": "d511583ab0385146dcbc974d35a4b677", "lat": 38.8993645, "is_disabled": 0, "lon": -76.99731183333333, "fusion_lon": 0.0, "is_reserved": 0, "fusion_lat": 0.0, "rental_uris": {"android": "https://dc.lft.to/lastmile_qr_scan", "ios": "https://dc.lft.to/lastmile_qr_scan"}, "type": "electric_scooter", "name": "d511583ab0385146dcbc974d35a4b677"}, {"bike_id": "69b8c7be604b674a07998dd37aa4df9b", "lat": 38.926754833333334, "is_disabled": 0, "lon": -77.02783066666667, "fusion_lon": 0.0, "is_reserved": 0, "fusion_lat": 0.0, "rental_uris": {"android": "https://dc.lft.to/lastmile_qr_scan", "ios": "https://dc.lft.to/lastmile_qr_scan"}, "type": "electric_scooter", "name": "69b8c7be604b674a07998dd37aa4df9b"}, {"bike_id": "56e261c350c135f168f27500ec1bcb5d", "lat": 38.9068485, "is_disabled": 0, "lon": -77.0344155, "fusion_lon": 0.0, "is_reserved": 0, "fusion_lat": 0.0, "rental_uris": {"android": "https://dc.lft.to/lastmile_qr_scan", "ios": "https://dc.lft.to/lastmile_qr_scan"}, "type": "electric_scooter", "name": "56e261c350c135f168f27500ec1bcb5d"}, {"bike_id": "ad0fd3bf0ffab4bdf095ece0abbddb7c", "lat": 38.94469566666667, "is_disabled": 0, "lon": -76.986909, "fusion_lon": 0.0, "is_reserved": 0, "fusion_lat": 0.0, "rental_uris": {"android": "https://dc.lft.to/lastmile_qr_scan", "ios": "https://dc.lft.to/lastmile_qr_scan"}, "type": "electric_bike", "name": "ad0fd3bf0ffab4bdf095ece0abbddb7c"}, {"bike_id": "c0f003ce929260967bf7a1abf8204923", "lat": 38.905773833333335, "is_disabled": 0, "lon": -77.04206016666667, "fusion_lon": 0.0, "is_reserved": 0, "fusion_lat": 0.0, "rental_uris": {"android": "https://dc.lft.to/lastmile_qr_scan", "ios": "https://dc.lft.to/lastmile_qr_scan"}, "type": "electric_scooter", "name": "c0f003ce929260967bf7a1abf8204923"}, {"bike_id": "328b27d23d15cd1845134bf921d78bc0", "lat": 38.967838, "is_disabled": 0, "lon": -76.96264233333333, "fusion_lon": 0.0, "is_reserved": 0, "fusion_lat": 0.0, "rental_uris": {"android": "https://dc.lft.to/lastmile_qr_scan", "ios": "https://dc.lft.to/lastmile_qr_scan"}, "type": "electric_bike", "name": "328b27d23d15cd1845134bf921d78bc0"}, {"bike_id": "babe3a6a11ee1844a51978d431792f72", "lat": 38.8602465, "is_disabled": 0, "lon": -76.969964, "fusion_lon": 0.0, "is_reserved": 0, "fusion_lat": 0.0, "rental_uris": {"android": "https://dc.lft.to/lastmile_qr_scan", "ios": "https://dc.lft.to/lastmile_qr_scan"}, "type": "electric_scooter", "name": "babe3a6a11ee1844a51978d431792f72"}, {"bike_id": "b7e7b2774bc804fcdce1f05793505116", "lat": 38.891031, "is_disabled": 0, "lon": -76.93477316666667, "fusion_lon": 0.0, "is_reserved": 0, "fusion_lat": 0.0, "rental_uris": {"android": "https://dc.lft.to/lastmile_qr_scan", "ios": "https://dc.lft.to/lastmile_qr_scan"}, "type": "electric_bike", "name": "b7e7b2774bc804fcdce1f05793505116"}, {"bike_id": "a6cd20e654218abf9edb52700267a799", "lat": 38.897557666666664, "is_disabled": 0, "lon": -77.02704816666666, "fusion_lon": 0.0, "is_reserved": 0, "fusion_lat": 0.0, "rental_uris": {"android": "https://dc.lft.to/lastmile_qr_scan", "ios": "https://dc.lft.to/lastmile_qr_scan"}, "type": "electric_scooter", "name": "a6cd20e654218abf9edb52700267a799"}, {"bike_id": "6b8810036a4c392c20d862a90067d3b9", "lat": 38.90950616666667, "is_disabled": 0, "lon": -77.01635166666667, "fusion_lon": 0.0, "is_reserved": 0, "fusion_lat": 0.0, "rental_uris": {"android": "https://dc.lft.to/lastmile_qr_scan", "ios": "https://dc.lft.to/lastmile_qr_scan"}, "type": "electric_bike", "name": "6b8810036a4c392c20d862a90067d3b9"}, {"bike_id": "718df17fa6ecb043094907d8295b3055", "lat": 38.93463216666667, "is_disabled": 0, "lon": -77.0413205, "fusion_lon": 0.0, "is_reserved": 0, "fusion_lat": 0.0, "rental_uris": {"android": "https://dc.lft.to/lastmile_qr_scan", "ios": "https://dc.lft.to/lastmile_qr_scan"}, "type": "electric_scooter", "name": "718df17fa6ecb043094907d8295b3055"}, {"bike_id": "554065a8f64ffd90a1eeb31c51c2df30", "lat": 38.8989055, "is_disabled": 0, "lon": -77.0216705, "fusion_lon": 0.0, "is_reserved": 0, "fusion_lat": 0.0, "rental_uris": {"android": "https://dc.lft.to/lastmile_qr_scan", "ios": "https://dc.lft.to/lastmile_qr_scan"}, "type": "electric_scooter", "name": "554065a8f64ffd90a1eeb31c51c2df30"}, {"bike_id": "68ebffce34f3ae9e5f814653aa44026c", "lat": 38.906687, "is_disabled": 0, "lon": -77.00584166666667, "fusion_lon": 0.0, "is_reserved": 0, "fusion_lat": 0.0, "rental_uris": {"android": "https://dc.lft.to/lastmile_qr_scan", "ios": "https://dc.lft.to/lastmile_qr_scan"}, "type": "electric_scooter", "name": "68ebffce34f3ae9e5f814653aa44026c"}, {"bike_id": "07d6c7fcef36aa87dde646ad45611de1", "lat": 38.90559783333333, "is_disabled": 0, "lon": -77.0396315, "fusion_lon": 0.0, "is_reserved": 0, "fusion_lat": 0.0, "rental_uris": {"android": "https://dc.lft.to/lastmile_qr_scan", "ios": "https://dc.lft.to/lastmile_qr_scan"}, "type": "electric_scooter", "name": "07d6c7fcef36aa87dde646ad45611de1"}, {"bike_id": "cba7ec08a24c4fc0d70291f3570ebae9", "lat": 38.900955833333335, "is_disabled": 0, "lon": -77.04980133333333, "fusion_lon": 0.0, "is_reserved": 0, "fusion_lat": 0.0, "rental_uris": {"android": "https://dc.lft.to/lastmile_qr_scan", "ios": "https://dc.lft.to/lastmile_qr_scan"}, "type": "electric_scooter", "name": "cba7ec08a24c4fc0d70291f3570ebae9"}, {"bike_id": "c5f0caf41c55da577a11bdfd3efd3109", "lat": 38.90955866666667, "is_disabled": 0, "lon": -77.04452533333334, "fusion_lon": 0.0, "is_reserved": 0, "fusion_lat": 0.0, "rental_uris": {"android": "https://dc.lft.to/lastmile_qr_scan", "ios": "https://dc.lft.to/lastmile_qr_scan"}, "type": "electric_scooter", "name": "c5f0caf41c55da577a11bdfd3efd3109"}, {"bike_id": "de3b984d926aab8d54ae2ebc79737165", "lat": 38.938322, "is_disabled": 0, "lon": -77.02970916666666, "fusion_lon": 0.0, "is_reserved": 0, "fusion_lat": 0.0, "rental_uris": {"android": "https://dc.lft.to/lastmile_qr_scan", "ios": "https://dc.lft.to/lastmile_qr_scan"}, "type": "electric_scooter", "name": "de3b984d926aab8d54ae2ebc79737165"}, {"bike_id": "d3d5890751c022577966b4429a2ecf43", "lat": 38.917997, "is_disabled": 0, "lon": -77.03426266666666, "fusion_lon": 0.0, "is_reserved": 0, "fusion_lat": 0.0, "rental_uris": {"android": "https://dc.lft.to/lastmile_qr_scan", "ios": "https://dc.lft.to/lastmile_qr_scan"}, "type": "electric_scooter", "name": "d3d5890751c022577966b4429a2ecf43"}, {"bike_id": "620fbcd681b3324df6ad1ba1a4fd8989", "lat": 38.903076, "is_disabled": 0, "lon": -76.97798233333333, "fusion_lon": 0.0, "is_reserved": 0, "fusion_lat": 0.0, "rental_uris": {"android": "https://dc.lft.to/lastmile_qr_scan", "ios": "https://dc.lft.to/lastmile_qr_scan"}, "type": "electric_scooter", "name": "620fbcd681b3324df6ad1ba1a4fd8989"}, {"bike_id": "c5376e4225994654f43502ea929fe3a2", "lat": 38.892192333333334, "is_disabled": 0, "lon": -77.04468316666667, "fusion_lon": 0.0, "is_reserved": 0, "fusion_lat": 0.0, "rental_uris": {"android": "https://dc.lft.to/lastmile_qr_scan", "ios": "https://dc.lft.to/lastmile_qr_scan"}, "type": "electric_scooter", "name": "c5376e4225994654f43502ea929fe3a2"}, {"bike_id": "d8110dee689522347b2cf832e5c6607c", "lat": 38.933564, "is_disabled": 0, "lon": -77.0722915, "fusion_lon": 0.0, "is_reserved": 0, "fusion_lat": 0.0, "rental_uris": {"android": "https://dc.lft.to/lastmile_qr_scan", "ios": "https://dc.lft.to/lastmile_qr_scan"}, "type": "electric_scooter", "name": "d8110dee689522347b2cf832e5c6607c"}, {"bike_id": "07adf9230a9307f163a1764662d7c7a7", "lat": 38.9233065, "is_disabled": 0, "lon": -77.02041466666667, "fusion_lon": 0.0, "is_reserved": 0, "fusion_lat": 0.0, "rental_uris": {"android": "https://dc.lft.to/lastmile_qr_scan", "ios": "https://dc.lft.to/lastmile_qr_scan"}, "type": "electric_scooter", "name": "07adf9230a9307f163a1764662d7c7a7"}, {"bike_id": "31c1639c83320e462936d9875c460d1c", "lat": 38.92472, "is_disabled": 0, "lon": -77.03909916666667, "fusion_lon": 0.0, "is_reserved": 0, "fusion_lat": 0.0, "rental_uris": {"android": "https://dc.lft.to/lastmile_qr_scan", "ios": "https://dc.lft.to/lastmile_qr_scan"}, "type": "electric_scooter", "name": "31c1639c83320e462936d9875c460d1c"}, {"bike_id": "74df235cf862cb1d629fb125615feb6a", "lat": 38.89846716666667, "is_disabled": 0, "lon": -76.97792233333334, "fusion_lon": 0.0, "is_reserved": 0, "fusion_lat": 0.0, "rental_uris": {"android": "https://dc.lft.to/lastmile_qr_scan", "ios": "https://dc.lft.to/lastmile_qr_scan"}, "type": "electric_scooter", "name": "74df235cf862cb1d629fb125615feb6a"}, {"bike_id": "c7847deca8d2ed6d0b2f66872a8cfaaa", "lat": 38.92025433333333, "is_disabled": 0, "lon": -77.04072566666666, "fusion_lon": 0.0, "is_reserved": 0, "fusion_lat": 0.0, "rental_uris": {"android": "https://dc.lft.to/lastmile_qr_scan", "ios": "https://dc.lft.to/lastmile_qr_scan"}, "type": "electric_scooter", "name": "c7847deca8d2ed6d0b2f66872a8cfaaa"}, {"bike_id": "6be0322c25a11e9350e97e050369efba", "lat": 38.901165666666664, "is_disabled": 0, "lon": -77.06026266666667, "fusion_lon": 0.0, "is_reserved": 0, "fusion_lat": 0.0, "rental_uris": {"android": "https://dc.lft.to/lastmile_qr_scan", "ios": "https://dc.lft.to/lastmile_qr_scan"}, "type": "electric_scooter", "name": "6be0322c25a11e9350e97e050369efba"}, {"bike_id": "0b187ccf2a9893c575e2ce46384e395a", "lat": 38.85763933333333, "is_disabled": 0, "lon": -76.98750033333333, "fusion_lon": 0.0, "is_reserved": 0, "fusion_lat": 0.0, "rental_uris": {"android": "https://dc.lft.to/lastmile_qr_scan", "ios": "https://dc.lft.to/lastmile_qr_scan"}, "type": "electric_bike", "name": "0b187ccf2a9893c575e2ce46384e395a"}, {"bike_id": "ac982a89ddb1c1dd14ea2ac37516dc42", "lat": 38.8995905, "is_disabled": 0, "lon": -77.01615833333334, "fusion_lon": 0.0, "is_reserved": 0, "fusion_lat": 0.0, "rental_uris": {"android": "https://dc.lft.to/lastmile_qr_scan", "ios": "https://dc.lft.to/lastmile_qr_scan"}, "type": "electric_scooter", "name": "ac982a89ddb1c1dd14ea2ac37516dc42"}, {"bike_id": "7e67d9976224963629e8cafeb0120c21", "lat": 38.88739066666667, "is_disabled": 0, "lon": -77.02206683333333, "fusion_lon": 0.0, "is_reserved": 0, "fusion_lat": 0.0, "rental_uris": {"android": "https://dc.lft.to/lastmile_qr_scan", "ios": "https://dc.lft.to/lastmile_qr_scan"}, "type": "electric_scooter", "name": "7e67d9976224963629e8cafeb0120c21"}, {"bike_id": "36252d26d6b80e9dfe4026548cf54170", "lat": 38.89217983333333, "is_disabled": 0, "lon": -77.02774083333334, "fusion_lon": 0.0, "is_reserved": 0, "fusion_lat": 0.0, "rental_uris": {"android": "https://dc.lft.to/lastmile_qr_scan", "ios": "https://dc.lft.to/lastmile_qr_scan"}, "type": "electric_scooter", "name": "36252d26d6b80e9dfe4026548cf54170"}, {"bike_id": "2dba8bc790f37c1814733a6bacb904b7", "lat": 38.922849, "is_disabled": 0, "lon": -77.0318755, "fusion_lon": 0.0, "is_reserved": 0, "fusion_lat": 0.0, "rental_uris": {"android": "https://dc.lft.to/lastmile_qr_scan", "ios": "https://dc.lft.to/lastmile_qr_scan"}, "type": "electric_scooter", "name": "2dba8bc790f37c1814733a6bacb904b7"}, {"bike_id": "b75e5e7907777198596a9b3c73b4e6b6", "lat": 38.87685616666667, "is_disabled": 0, "lon": -77.00696766666667, "fusion_lon": 0.0, "is_reserved": 0, "fusion_lat": 0.0, "rental_uris": {"android": "https://dc.lft.to/lastmile_qr_scan", "ios": "https://dc.lft.to/lastmile_qr_scan"}, "type": "electric_scooter", "name": "b75e5e7907777198596a9b3c73b4e6b6"}, {"bike_id": "35b09a61c57a0e0600baedf08662f883", "lat": 38.9248555, "is_disabled": 0, "lon": -77.039297, "fusion_lon": 0.0, "is_reserved": 0, "fusion_lat": 0.0, "rental_uris": {"android": "https://dc.lft.to/lastmile_qr_scan", "ios": "https://dc.lft.to/lastmile_qr_scan"}, "type": "electric_scooter", "name": "35b09a61c57a0e0600baedf08662f883"}, {"bike_id": "72167722b085bd26e95c4a9ae0b18514", "lat": 38.90595616666667, "is_disabled": 0, "lon": -77.03314916666666, "fusion_lon": 0.0, "is_reserved": 0, "fusion_lat": 0.0, "rental_uris": {"android": "https://dc.lft.to/lastmile_qr_scan", "ios": "https://dc.lft.to/lastmile_qr_scan"}, "type": "electric_scooter", "name": "72167722b085bd26e95c4a9ae0b18514"}, {"bike_id": "0f76998a4425dcabb23f9b28272986a4", "lat": 38.902286333333336, "is_disabled": 0, "lon": -77.03765866666667, "fusion_lon": 0.0, "is_reserved": 0, "fusion_lat": 0.0, "rental_uris": {"android": "https://dc.lft.to/lastmile_qr_scan", "ios": "https://dc.lft.to/lastmile_qr_scan"}, "type": "electric_scooter", "name": "0f76998a4425dcabb23f9b28272986a4"}, {"bike_id": "bf2909b6fec7806bb8954319194657ed", "lat": 38.89843883333333, "is_disabled": 0, "lon": -77.02380533333333, "fusion_lon": 0.0, "is_reserved": 0, "fusion_lat": 0.0, "rental_uris": {"android": "https://dc.lft.to/lastmile_qr_scan", "ios": "https://dc.lft.to/lastmile_qr_scan"}, "type": "electric_scooter", "name": "bf2909b6fec7806bb8954319194657ed"}, {"bike_id": "5c72318ebf64fd394e3b69e65f7848e2", "lat": 38.90260583333333, "is_disabled": 0, "lon": -77.04344166666667, "fusion_lon": 0.0, "is_reserved": 0, "fusion_lat": 0.0, "rental_uris": {"android": "https://dc.lft.to/lastmile_qr_scan", "ios": "https://dc.lft.to/lastmile_qr_scan"}, "type": "electric_scooter", "name": "5c72318ebf64fd394e3b69e65f7848e2"}, {"bike_id": "6f0361a61b98324756fd9137f882ac94", "lat": 38.8922395, "is_disabled": 0, "lon": -77.04510616666667, "fusion_lon": 0.0, "is_reserved": 0, "fusion_lat": 0.0, "rental_uris": {"android": "https://dc.lft.to/lastmile_qr_scan", "ios": "https://dc.lft.to/lastmile_qr_scan"}, "type": "electric_scooter", "name": "6f0361a61b98324756fd9137f882ac94"}, {"bike_id": "a4760cb8b1ae3577d16d9bbb824c024d", "lat": 38.931444166666665, "is_disabled": 0, "lon": -77.07715283333333, "fusion_lon": 0.0, "is_reserved": 0, "fusion_lat": 0.0, "rental_uris": {"android": "https://dc.lft.to/lastmile_qr_scan", "ios": "https://dc.lft.to/lastmile_qr_scan"}, "type": "electric_scooter", "name": "a4760cb8b1ae3577d16d9bbb824c024d"}, {"bike_id": "c89b2b4548cf3faa0bf0e35a26ce2190", "lat": 38.93060366666667, "is_disabled": 0, "lon": -77.032157, "fusion_lon": 0.0, "is_reserved": 0, "fusion_lat": 0.0, "rental_uris": {"android": "https://dc.lft.to/lastmile_qr_scan", "ios": "https://dc.lft.to/lastmile_qr_scan"}, "type": "electric_scooter", "name": "c89b2b4548cf3faa0bf0e35a26ce2190"}, {"bike_id": "e70c1075a3441fed18818c47aecf748a", "lat": 38.887693166666665, "is_disabled": 0, "lon": -77.028441, "fusion_lon": 0.0, "is_reserved": 0, "fusion_lat": 0.0, "rental_uris": {"android": "https://dc.lft.to/lastmile_qr_scan", "ios": "https://dc.lft.to/lastmile_qr_scan"}, "type": "electric_scooter", "name": "e70c1075a3441fed18818c47aecf748a"}, {"bike_id": "6820d7b7ed9650485c8913cbd196574c", "lat": 38.842808833333336, "is_disabled": 0, "lon": -77.07517683333333, "fusion_lon": 0.0, "is_reserved": 0, "fusion_lat": 0.0, "rental_uris": {"android": "https://dc.lft.to/lastmile_qr_scan", "ios": "https://dc.lft.to/lastmile_qr_scan"}, "type": "electric_bike", "name": "6820d7b7ed9650485c8913cbd196574c"}, {"bike_id": "dd9418234aa69ef81f6611d28452b806", "lat": 38.919344333333335, "is_disabled": 0, "lon": -77.0454715, "fusion_lon": 0.0, "is_reserved": 0, "fusion_lat": 0.0, "rental_uris": {"android": "https://dc.lft.to/lastmile_qr_scan", "ios": "https://dc.lft.to/lastmile_qr_scan"}, "type": "electric_scooter", "name": "dd9418234aa69ef81f6611d28452b806"}, {"bike_id": "3360194dd730cf2df5d434596cf7c2d5", "lat": 38.90570483333333, "is_disabled": 0, "lon": -77.01423433333333, "fusion_lon": 0.0, "is_reserved": 0, "fusion_lat": 0.0, "rental_uris": {"android": "https://dc.lft.to/lastmile_qr_scan", "ios": "https://dc.lft.to/lastmile_qr_scan"}, "type": "electric_bike", "name": "3360194dd730cf2df5d434596cf7c2d5"}, {"bike_id": "5cc0db23da967d80a7649f9a8fdf4cdc", "lat": 38.93276316666667, "is_disabled": 0, "lon": -77.03697966666667, "fusion_lon": 0.0, "is_reserved": 0, "fusion_lat": 0.0, "rental_uris": {"android": "https://dc.lft.to/lastmile_qr_scan", "ios": "https://dc.lft.to/lastmile_qr_scan"}, "type": "electric_scooter", "name": "5cc0db23da967d80a7649f9a8fdf4cdc"}, {"bike_id": "31ff537a64ff490bff55ca00ca53521f", "lat": 38.89745033333333, "is_disabled": 0, "lon": -77.04334783333333, "fusion_lon": 0.0, "is_reserved": 0, "fusion_lat": 0.0, "rental_uris": {"android": "https://dc.lft.to/lastmile_qr_scan", "ios": "https://dc.lft.to/lastmile_qr_scan"}, "type": "electric_scooter", "name": "31ff537a64ff490bff55ca00ca53521f"}, {"bike_id": "617507615a4c4a6387d70aff7e7d905f", "lat": 38.892152, "is_disabled": 0, "lon": -77.02371083333334, "fusion_lon": 0.0, "is_reserved": 0, "fusion_lat": 0.0, "rental_uris": {"android": "https://dc.lft.to/lastmile_qr_scan", "ios": "https://dc.lft.to/lastmile_qr_scan"}, "type": "electric_scooter", "name": "617507615a4c4a6387d70aff7e7d905f"}, {"bike_id": "d3a75d624d4421403f5927bf618e119b", "lat": 38.902795166666664, "is_disabled": 0, "lon": -77.03849833333334, "fusion_lon": 0.0, "is_reserved": 0, "fusion_lat": 0.0, "rental_uris": {"android": "https://dc.lft.to/lastmile_qr_scan", "ios": "https://dc.lft.to/lastmile_qr_scan"}, "type": "electric_scooter", "name": "d3a75d624d4421403f5927bf618e119b"}, {"bike_id": "d2f8ced3f2e3c96f217f4e142397dee9", "lat": 38.995839833333335, "is_disabled": 0, "lon": -77.00764883333333, "fusion_lon": 0.0, "is_reserved": 0, "fusion_lat": 0.0, "rental_uris": {"android": "https://dc.lft.to/lastmile_qr_scan", "ios": "https://dc.lft.to/lastmile_qr_scan"}, "type": "electric_bike", "name": "d2f8ced3f2e3c96f217f4e142397dee9"}, {"bike_id": "6faf589177db854515f9db3267275b7c", "lat": 38.887277833333336, "is_disabled": 0, "lon": -77.0138555, "fusion_lon": 0.0, "is_reserved": 0, "fusion_lat": 0.0, "rental_uris": {"android": "https://dc.lft.to/lastmile_qr_scan", "ios": "https://dc.lft.to/lastmile_qr_scan"}, "type": "electric_scooter", "name": "6faf589177db854515f9db3267275b7c"}, {"bike_id": "f6b7b286df4041914e7e27eb1abdc722", "lat": 38.923344, "is_disabled": 0, "lon": -77.0201125, "fusion_lon": 0.0, "is_reserved": 0, "fusion_lat": 0.0, "rental_uris": {"android": "https://dc.lft.to/lastmile_qr_scan", "ios": "https://dc.lft.to/lastmile_qr_scan"}, "type": "electric_scooter", "name": "f6b7b286df4041914e7e27eb1abdc722"}, {"bike_id": "49841612133429869f772d9fd06d348e", "lat": 38.910888166666666, "is_disabled": 0, "lon": -77.038468, "fusion_lon": 0.0, "is_reserved": 0, "fusion_lat": 0.0, "rental_uris": {"android": "https://dc.lft.to/lastmile_qr_scan", "ios": "https://dc.lft.to/lastmile_qr_scan"}, "type": "electric_scooter", "name": "49841612133429869f772d9fd06d348e"}, {"bike_id": "a720b9a1bd9801ab2f4c730033a4622d", "lat": 38.91765816666667, "is_disabled": 0, "lon": -77.02210916666667, "fusion_lon": 0.0, "is_reserved": 0, "fusion_lat": 0.0, "rental_uris": {"android": "https://dc.lft.to/lastmile_qr_scan", "ios": "https://dc.lft.to/lastmile_qr_scan"}, "type": "electric_scooter", "name": "a720b9a1bd9801ab2f4c730033a4622d"}, {"bike_id": "9f53a1195081b9812a6ca54f3dc551f7", "lat": 38.901581, "is_disabled": 0, "lon": -77.039315, "fusion_lon": 0.0, "is_reserved": 0, "fusion_lat": 0.0, "rental_uris": {"android": "https://dc.lft.to/lastmile_qr_scan", "ios": "https://dc.lft.to/lastmile_qr_scan"}, "type": "electric_scooter", "name": "9f53a1195081b9812a6ca54f3dc551f7"}, {"bike_id": "c585221819dd0ed7546018fc1dbff86d", "lat": 38.892173166666666, "is_disabled": 0, "lon": -77.0221575, "fusion_lon": 0.0, "is_reserved": 0, "fusion_lat": 0.0, "rental_uris": {"android": "https://dc.lft.to/lastmile_qr_scan", "ios": "https://dc.lft.to/lastmile_qr_scan"}, "type": "electric_scooter", "name": "c585221819dd0ed7546018fc1dbff86d"}, {"bike_id": "4ec6894187fa6647c41a4699ac8f2e3d", "lat": 38.91750866666667, "is_disabled": 0, "lon": -77.02383233333333, "fusion_lon": 0.0, "is_reserved": 0, "fusion_lat": 0.0, "rental_uris": {"android": "https://dc.lft.to/lastmile_qr_scan", "ios": "https://dc.lft.to/lastmile_qr_scan"}, "type": "electric_scooter", "name": "4ec6894187fa6647c41a4699ac8f2e3d"}, {"bike_id": "f1b960ad050e5a6b439d25792f34e226", "lat": 38.918213333333334, "is_disabled": 0, "lon": -77.031825, "fusion_lon": 0.0, "is_reserved": 0, "fusion_lat": 0.0, "rental_uris": {"android": "https://dc.lft.to/lastmile_qr_scan", "ios": "https://dc.lft.to/lastmile_qr_scan"}, "type": "electric_scooter", "name": "f1b960ad050e5a6b439d25792f34e226"}, {"bike_id": "67bac88979986b1c34a89d6f1ccf5b88", "lat": 38.91799066666667, "is_disabled": 0, "lon": -77.03426866666666, "fusion_lon": 0.0, "is_reserved": 0, "fusion_lat": 0.0, "rental_uris": {"android": "https://dc.lft.to/lastmile_qr_scan", "ios": "https://dc.lft.to/lastmile_qr_scan"}, "type": "electric_scooter", "name": "67bac88979986b1c34a89d6f1ccf5b88"}, {"bike_id": "85fb5724ba9e8d4e7c64c68b25be3d3e", "lat": 38.8998925, "is_disabled": 0, "lon": -77.0320895, "fusion_lon": 0.0, "is_reserved": 0, "fusion_lat": 0.0, "rental_uris": {"android": "https://dc.lft.to/lastmile_qr_scan", "ios": "https://dc.lft.to/lastmile_qr_scan"}, "type": "electric_scooter", "name": "85fb5724ba9e8d4e7c64c68b25be3d3e"}, {"bike_id": "6ebc5459429359bd7c369093fc4e2011", "lat": 38.886424833333336, "is_disabled": 0, "lon": -76.9821025, "fusion_lon": 0.0, "is_reserved": 0, "fusion_lat": 0.0, "rental_uris": {"android": "https://dc.lft.to/lastmile_qr_scan", "ios": "https://dc.lft.to/lastmile_qr_scan"}, "type": "electric_scooter", "name": "6ebc5459429359bd7c369093fc4e2011"}, {"bike_id": "c257929753590e7570d53dfec6e58ff1", "lat": 38.88715633333333, "is_disabled": 0, "lon": -77.02200416666666, "fusion_lon": 0.0, "is_reserved": 0, "fusion_lat": 0.0, "rental_uris": {"android": "https://dc.lft.to/lastmile_qr_scan", "ios": "https://dc.lft.to/lastmile_qr_scan"}, "type": "electric_scooter", "name": "c257929753590e7570d53dfec6e58ff1"}, {"bike_id": "1de370a3ba9ab76788b70db8bcabe7a6", "lat": 38.92251983333333, "is_disabled": 0, "lon": -77.0194825, "fusion_lon": 0.0, "is_reserved": 0, "fusion_lat": 0.0, "rental_uris": {"android": "https://dc.lft.to/lastmile_qr_scan", "ios": "https://dc.lft.to/lastmile_qr_scan"}, "type": "electric_scooter", "name": "1de370a3ba9ab76788b70db8bcabe7a6"}, {"bike_id": "8151ce98f04ca354858c265cd0595b66", "lat": 38.92053516666667, "is_disabled": 0, "lon": -77.04187533333334, "fusion_lon": 0.0, "is_reserved": 0, "fusion_lat": 0.0, "rental_uris": {"android": "https://dc.lft.to/lastmile_qr_scan", "ios": "https://dc.lft.to/lastmile_qr_scan"}, "type": "electric_scooter", "name": "8151ce98f04ca354858c265cd0595b66"}, {"bike_id": "9b43b59bf3ccd17ac4ec101d2483eb9e", "lat": 38.8649875, "is_disabled": 0, "lon": -76.98984783333333, "fusion_lon": 0.0, "is_reserved": 0, "fusion_lat": 0.0, "rental_uris": {"android": "https://dc.lft.to/lastmile_qr_scan", "ios": "https://dc.lft.to/lastmile_qr_scan"}, "type": "electric_scooter", "name": "9b43b59bf3ccd17ac4ec101d2483eb9e"}, {"bike_id": "d4477f2b3476ce34b75776df96d9aee7", "lat": 38.920506333333336, "is_disabled": 0, "lon": -77.04187583333334, "fusion_lon": 0.0, "is_reserved": 0, "fusion_lat": 0.0, "rental_uris": {"android": "https://dc.lft.to/lastmile_qr_scan", "ios": "https://dc.lft.to/lastmile_qr_scan"}, "type": "electric_scooter", "name": "d4477f2b3476ce34b75776df96d9aee7"}, {"bike_id": "3793839fe7282dc237952ee52a879376", "lat": 38.95561983333333, "is_disabled": 0, "lon": -77.07453216666667, "fusion_lon": 0.0, "is_reserved": 0, "fusion_lat": 0.0, "rental_uris": {"android": "https://dc.lft.to/lastmile_qr_scan", "ios": "https://dc.lft.to/lastmile_qr_scan"}, "type": "electric_scooter", "name": "3793839fe7282dc237952ee52a879376"}, {"bike_id": "49a6afe509ebd92d85f3a6bcdaaecbd3", "lat": 38.8953505, "is_disabled": 0, "lon": -76.94924383333333, "fusion_lon": 0.0, "is_reserved": 0, "fusion_lat": 0.0, "rental_uris": {"android": "https://dc.lft.to/lastmile_qr_scan", "ios": "https://dc.lft.to/lastmile_qr_scan"}, "type": "electric_scooter", "name": "49a6afe509ebd92d85f3a6bcdaaecbd3"}, {"bike_id": "a9320eb46c3c7387f8e63a72b389d472", "lat": 38.900010333333334, "is_disabled": 0, "lon": -77.01180733333334, "fusion_lon": 0.0, "is_reserved": 0, "fusion_lat": 0.0, "rental_uris": {"android": "https://dc.lft.to/lastmile_qr_scan", "ios": "https://dc.lft.to/lastmile_qr_scan"}, "type": "electric_scooter", "name": "a9320eb46c3c7387f8e63a72b389d472"}, {"bike_id": "d17c38dd41695aa5f20c8e463275029d", "lat": 38.9323535, "is_disabled": 0, "lon": -77.03853566666666, "fusion_lon": 0.0, "is_reserved": 0, "fusion_lat": 0.0, "rental_uris": {"android": "https://dc.lft.to/lastmile_qr_scan", "ios": "https://dc.lft.to/lastmile_qr_scan"}, "type": "electric_scooter", "name": "d17c38dd41695aa5f20c8e463275029d"}, {"bike_id": "eb6c883825ac28fe5d444dbf6bf98f97", "lat": 38.90682116666667, "is_disabled": 0, "lon": -77.0381705, "fusion_lon": 0.0, "is_reserved": 0, "fusion_lat": 0.0, "rental_uris": {"android": "https://dc.lft.to/lastmile_qr_scan", "ios": "https://dc.lft.to/lastmile_qr_scan"}, "type": "electric_scooter", "name": "eb6c883825ac28fe5d444dbf6bf98f97"}, {"bike_id": "41b36d0e8f3a6b34b0467a36da890ff4", "lat": 38.89993716666667, "is_disabled": 0, "lon": -77.05226633333334, "fusion_lon": 0.0, "is_reserved": 0, "fusion_lat": 0.0, "rental_uris": {"android": "https://dc.lft.to/lastmile_qr_scan", "ios": "https://dc.lft.to/lastmile_qr_scan"}, "type": "electric_scooter", "name": "41b36d0e8f3a6b34b0467a36da890ff4"}, {"bike_id": "f21925759c96e03dfb15b4ae6baf56eb", "lat": 38.89527783333333, "is_disabled": 0, "lon": -77.043395, "fusion_lon": 0.0, "is_reserved": 0, "fusion_lat": 0.0, "rental_uris": {"android": "https://dc.lft.to/lastmile_qr_scan", "ios": "https://dc.lft.to/lastmile_qr_scan"}, "type": "electric_scooter", "name": "f21925759c96e03dfb15b4ae6baf56eb"}, {"bike_id": "d29511eb05b9060d68b6961e72bc6bed", "lat": 38.87720183333333, "is_disabled": 0, "lon": -77.01761333333333, "fusion_lon": 0.0, "is_reserved": 0, "fusion_lat": 0.0, "rental_uris": {"android": "https://dc.lft.to/lastmile_qr_scan", "ios": "https://dc.lft.to/lastmile_qr_scan"}, "type": "electric_scooter", "name": "d29511eb05b9060d68b6961e72bc6bed"}, {"bike_id": "6d5ef8bf12f3dcd9f3dfb42cd7b3e84a", "lat": 38.90434716666667, "is_disabled": 0, "lon": -77.05130883333334, "fusion_lon": 0.0, "is_reserved": 0, "fusion_lat": 0.0, "rental_uris": {"android": "https://dc.lft.to/lastmile_qr_scan", "ios": "https://dc.lft.to/lastmile_qr_scan"}, "type": "electric_scooter", "name": "6d5ef8bf12f3dcd9f3dfb42cd7b3e84a"}, {"bike_id": "0f186a0413389cbb10310be962c42d8d", "lat": 38.890141666666665, "is_disabled": 0, "lon": -76.94163266666666, "fusion_lon": 0.0, "is_reserved": 0, "fusion_lat": 0.0, "rental_uris": {"android": "https://dc.lft.to/lastmile_qr_scan", "ios": "https://dc.lft.to/lastmile_qr_scan"}, "type": "electric_bike", "name": "0f186a0413389cbb10310be962c42d8d"}, {"bike_id": "e745b01e824bc41948c2d0f8a8d1de7e", "lat": 38.86358083333333, "is_disabled": 0, "lon": -76.99040133333334, "fusion_lon": 0.0, "is_reserved": 0, "fusion_lat": 0.0, "rental_uris": {"android": "https://dc.lft.to/lastmile_qr_scan", "ios": "https://dc.lft.to/lastmile_qr_scan"}, "type": "electric_scooter", "name": "e745b01e824bc41948c2d0f8a8d1de7e"}, {"bike_id": "f454561f82e021beab5620bf2c0f6afc", "lat": 38.895547, "is_disabled": 0, "lon": -77.04674816666666, "fusion_lon": 0.0, "is_reserved": 0, "fusion_lat": 0.0, "rental_uris": {"android": "https://dc.lft.to/lastmile_qr_scan", "ios": "https://dc.lft.to/lastmile_qr_scan"}, "type": "electric_scooter", "name": "f454561f82e021beab5620bf2c0f6afc"}, {"bike_id": "bb3b3ee149faa4747559c8128beb13f6", "lat": 38.907328, "is_disabled": 0, "lon": -77.04265633333333, "fusion_lon": 0.0, "is_reserved": 0, "fusion_lat": 0.0, "rental_uris": {"android": "https://dc.lft.to/lastmile_qr_scan", "ios": "https://dc.lft.to/lastmile_qr_scan"}, "type": "electric_scooter", "name": "bb3b3ee149faa4747559c8128beb13f6"}, {"bike_id": "fb6e8ccebe6ac53f42b283f21ec12dac", "lat": 38.924111333333336, "is_disabled": 0, "lon": -77.02735216666666, "fusion_lon": 0.0, "is_reserved": 0, "fusion_lat": 0.0, "rental_uris": {"android": "https://dc.lft.to/lastmile_qr_scan", "ios": "https://dc.lft.to/lastmile_qr_scan"}, "type": "electric_scooter", "name": "fb6e8ccebe6ac53f42b283f21ec12dac"}, {"bike_id": "971eadfa9d8ebc4b94527a151b5dcff3", "lat": 38.908909333333334, "is_disabled": 0, "lon": -77.04400966666667, "fusion_lon": 0.0, "is_reserved": 0, "fusion_lat": 0.0, "rental_uris": {"android": "https://dc.lft.to/lastmile_qr_scan", "ios": "https://dc.lft.to/lastmile_qr_scan"}, "type": "electric_scooter", "name": "971eadfa9d8ebc4b94527a151b5dcff3"}, {"bike_id": "741a8a505f219eb59bd2d50d0a645e1f", "lat": 38.900179333333334, "is_disabled": 0, "lon": -77.01182333333334, "fusion_lon": 0.0, "is_reserved": 0, "fusion_lat": 0.0, "rental_uris": {"android": "https://dc.lft.to/lastmile_qr_scan", "ios": "https://dc.lft.to/lastmile_qr_scan"}, "type": "electric_scooter", "name": "741a8a505f219eb59bd2d50d0a645e1f"}, {"bike_id": "b51e8ed2e62442fb853b81bd8d018234", "lat": 38.91991816666667, "is_disabled": 0, "lon": -76.97309233333333, "fusion_lon": 0.0, "is_reserved": 0, "fusion_lat": 0.0, "rental_uris": {"android": "https://dc.lft.to/lastmile_qr_scan", "ios": "https://dc.lft.to/lastmile_qr_scan"}, "type": "electric_scooter", "name": "b51e8ed2e62442fb853b81bd8d018234"}, {"bike_id": "afc28748d64a03e127f4a7fc23e5509f", "lat": 38.90468883333333, "is_disabled": 0, "lon": -77.04597433333333, "fusion_lon": 0.0, "is_reserved": 0, "fusion_lat": 0.0, "rental_uris": {"android": "https://dc.lft.to/lastmile_qr_scan", "ios": "https://dc.lft.to/lastmile_qr_scan"}, "type": "electric_scooter", "name": "afc28748d64a03e127f4a7fc23e5509f"}, {"bike_id": "bfabdc3aad08cec55043fb96d10af78e", "lat": 38.9040465, "is_disabled": 0, "lon": -77.068123, "fusion_lon": 0.0, "is_reserved": 0, "fusion_lat": 0.0, "rental_uris": {"android": "https://dc.lft.to/lastmile_qr_scan", "ios": "https://dc.lft.to/lastmile_qr_scan"}, "type": "electric_scooter", "name": "bfabdc3aad08cec55043fb96d10af78e"}, {"bike_id": "bd2b3061964f47df52f493e14409abee", "lat": 38.92085566666667, "is_disabled": 0, "lon": -77.041971, "fusion_lon": 0.0, "is_reserved": 0, "fusion_lat": 0.0, "rental_uris": {"android": "https://dc.lft.to/lastmile_qr_scan", "ios": "https://dc.lft.to/lastmile_qr_scan"}, "type": "electric_scooter", "name": "bd2b3061964f47df52f493e14409abee"}, {"bike_id": "ac9017561a4567074987187fd8501f88", "lat": 38.909424333333334, "is_disabled": 0, "lon": -77.04652083333333, "fusion_lon": 0.0, "is_reserved": 0, "fusion_lat": 0.0, "rental_uris": {"android": "https://dc.lft.to/lastmile_qr_scan", "ios": "https://dc.lft.to/lastmile_qr_scan"}, "type": "electric_scooter", "name": "ac9017561a4567074987187fd8501f88"}, {"bike_id": "5c7b93381a718b97039112ed9c4cb13b", "lat": 38.900066, "is_disabled": 0, "lon": -77.00575083333334, "fusion_lon": 0.0, "is_reserved": 0, "fusion_lat": 0.0, "rental_uris": {"android": "https://dc.lft.to/lastmile_qr_scan", "ios": "https://dc.lft.to/lastmile_qr_scan"}, "type": "electric_scooter", "name": "5c7b93381a718b97039112ed9c4cb13b"}, {"bike_id": "f8818908a3ac6fa1914808adb7b3c2cd", "lat": 38.937158333333336, "is_disabled": 0, "lon": -77.01907116666666, "fusion_lon": 0.0, "is_reserved": 0, "fusion_lat": 0.0, "rental_uris": {"android": "https://dc.lft.to/lastmile_qr_scan", "ios": "https://dc.lft.to/lastmile_qr_scan"}, "type": "electric_scooter", "name": "f8818908a3ac6fa1914808adb7b3c2cd"}, {"bike_id": "549fa95924ede16fd59d7deb801151ff", "lat": 38.893464333333334, "is_disabled": 0, "lon": -76.93426133333334, "fusion_lon": 0.0, "is_reserved": 0, "fusion_lat": 0.0, "rental_uris": {"android": "https://dc.lft.to/lastmile_qr_scan", "ios": "https://dc.lft.to/lastmile_qr_scan"}, "type": "electric_scooter", "name": "549fa95924ede16fd59d7deb801151ff"}, {"bike_id": "aba65722e296af2c61ebefecd4150048", "lat": 38.892221166666666, "is_disabled": 0, "lon": -77.04687066666666, "fusion_lon": 0.0, "is_reserved": 0, "fusion_lat": 0.0, "rental_uris": {"android": "https://dc.lft.to/lastmile_qr_scan", "ios": "https://dc.lft.to/lastmile_qr_scan"}, "type": "electric_scooter", "name": "aba65722e296af2c61ebefecd4150048"}, {"bike_id": "93ce0206a5db01b5428da5d42992a997", "lat": 38.94792433333333, "is_disabled": 0, "lon": -77.02154466666667, "fusion_lon": 0.0, "is_reserved": 0, "fusion_lat": 0.0, "rental_uris": {"android": "https://dc.lft.to/lastmile_qr_scan", "ios": "https://dc.lft.to/lastmile_qr_scan"}, "type": "electric_scooter", "name": "93ce0206a5db01b5428da5d42992a997"}, {"bike_id": "2397f1992ab6f033dff36f362f7fa90b", "lat": 38.89189616666667, "is_disabled": 0, "lon": -76.95269316666666, "fusion_lon": 0.0, "is_reserved": 0, "fusion_lat": 0.0, "rental_uris": {"android": "https://dc.lft.to/lastmile_qr_scan", "ios": "https://dc.lft.to/lastmile_qr_scan"}, "type": "electric_scooter", "name": "2397f1992ab6f033dff36f362f7fa90b"}, {"bike_id": "9bae65b253c99ea7f12b6718345147a2", "lat": 38.91696966666667, "is_disabled": 0, "lon": -77.05705716666667, "fusion_lon": 0.0, "is_reserved": 0, "fusion_lat": 0.0, "rental_uris": {"android": "https://dc.lft.to/lastmile_qr_scan", "ios": "https://dc.lft.to/lastmile_qr_scan"}, "type": "electric_scooter", "name": "9bae65b253c99ea7f12b6718345147a2"}, {"bike_id": "4f77096a40850c71facc58ec07bac740", "lat": 38.897108333333335, "is_disabled": 0, "lon": -77.00790216666667, "fusion_lon": 0.0, "is_reserved": 0, "fusion_lat": 0.0, "rental_uris": {"android": "https://dc.lft.to/lastmile_qr_scan", "ios": "https://dc.lft.to/lastmile_qr_scan"}, "type": "electric_scooter", "name": "4f77096a40850c71facc58ec07bac740"}, {"bike_id": "72f0c9a4f1373bda321f50e67210e168", "lat": 38.90527983333333, "is_disabled": 0, "lon": -77.051384, "fusion_lon": 0.0, "is_reserved": 0, "fusion_lat": 0.0, "rental_uris": {"android": "https://dc.lft.to/lastmile_qr_scan", "ios": "https://dc.lft.to/lastmile_qr_scan"}, "type": "electric_scooter", "name": "72f0c9a4f1373bda321f50e67210e168"}, {"bike_id": "d55ce5d284af53c51659f69baf70997a", "lat": 38.9228475, "is_disabled": 0, "lon": -77.01988866666667, "fusion_lon": 0.0, "is_reserved": 0, "fusion_lat": 0.0, "rental_uris": {"android": "https://dc.lft.to/lastmile_qr_scan", "ios": "https://dc.lft.to/lastmile_qr_scan"}, "type": "electric_scooter", "name": "d55ce5d284af53c51659f69baf70997a"}, {"bike_id": "9ad23fbbc22660fa61c89b62cdb61c70", "lat": 38.89219883333333, "is_disabled": 0, "lon": -77.03337783333333, "fusion_lon": 0.0, "is_reserved": 0, "fusion_lat": 0.0, "rental_uris": {"android": "https://dc.lft.to/lastmile_qr_scan", "ios": "https://dc.lft.to/lastmile_qr_scan"}, "type": "electric_scooter", "name": "9ad23fbbc22660fa61c89b62cdb61c70"}, {"bike_id": "45e7d91ae865aa4eae7210ccf91ef386", "lat": 38.83837583333333, "is_disabled": 0, "lon": -76.99657766666667, "fusion_lon": 0.0, "is_reserved": 0, "fusion_lat": 0.0, "rental_uris": {"android": "https://dc.lft.to/lastmile_qr_scan", "ios": "https://dc.lft.to/lastmile_qr_scan"}, "type": "electric_bike", "name": "45e7d91ae865aa4eae7210ccf91ef386"}, {"bike_id": "b41ef1a1db2d3e65e9d49f8f442a5f9d", "lat": 38.95074866666667, "is_disabled": 0, "lon": -77.0121745, "fusion_lon": 0.0, "is_reserved": 0, "fusion_lat": 0.0, "rental_uris": {"android": "https://dc.lft.to/lastmile_qr_scan", "ios": "https://dc.lft.to/lastmile_qr_scan"}, "type": "electric_bike", "name": "b41ef1a1db2d3e65e9d49f8f442a5f9d"}, {"bike_id": "698e3149735f0999c7f99b661e9cc4d8", "lat": 38.92140466666667, "is_disabled": 0, "lon": -77.01799833333334, "fusion_lon": 0.0, "is_reserved": 0, "fusion_lat": 0.0, "rental_uris": {"android": "https://dc.lft.to/lastmile_qr_scan", "ios": "https://dc.lft.to/lastmile_qr_scan"}, "type": "electric_scooter", "name": "698e3149735f0999c7f99b661e9cc4d8"}, {"bike_id": "05fea293283c16a8a2b00e9b7f0bce61", "lat": 38.90591666666667, "is_disabled": 0, "lon": -77.04021133333333, "fusion_lon": 0.0, "is_reserved": 0, "fusion_lat": 0.0, "rental_uris": {"android": "https://dc.lft.to/lastmile_qr_scan", "ios": "https://dc.lft.to/lastmile_qr_scan"}, "type": "electric_scooter", "name": "05fea293283c16a8a2b00e9b7f0bce61"}, {"bike_id": "0c94781e9ca0db6be48b3d7408edeb81", "lat": 38.926552, "is_disabled": 0, "lon": -77.024318, "fusion_lon": 0.0, "is_reserved": 0, "fusion_lat": 0.0, "rental_uris": {"android": "https://dc.lft.to/lastmile_qr_scan", "ios": "https://dc.lft.to/lastmile_qr_scan"}, "type": "electric_scooter", "name": "0c94781e9ca0db6be48b3d7408edeb81"}, {"bike_id": "78b4f2ec840fea2ffc79b772aa463449", "lat": 38.881832333333335, "is_disabled": 0, "lon": -77.020849, "fusion_lon": 0.0, "is_reserved": 0, "fusion_lat": 0.0, "rental_uris": {"android": "https://dc.lft.to/lastmile_qr_scan", "ios": "https://dc.lft.to/lastmile_qr_scan"}, "type": "electric_scooter", "name": "78b4f2ec840fea2ffc79b772aa463449"}, {"bike_id": "ea87730b420a46117f59ab75f85d1d7d", "lat": 38.919536, "is_disabled": 0, "lon": -77.02603266666667, "fusion_lon": 0.0, "is_reserved": 0, "fusion_lat": 0.0, "rental_uris": {"android": "https://dc.lft.to/lastmile_qr_scan", "ios": "https://dc.lft.to/lastmile_qr_scan"}, "type": "electric_scooter", "name": "ea87730b420a46117f59ab75f85d1d7d"}, {"bike_id": "0f7ce1d1ff8ee2ed4e1d4ea2eef01082", "lat": 38.89237033333333, "is_disabled": 0, "lon": -77.032134, "fusion_lon": 0.0, "is_reserved": 0, "fusion_lat": 0.0, "rental_uris": {"android": "https://dc.lft.to/lastmile_qr_scan", "ios": "https://dc.lft.to/lastmile_qr_scan"}, "type": "electric_scooter", "name": "0f7ce1d1ff8ee2ed4e1d4ea2eef01082"}, {"bike_id": "8c0c55fd7e0bbbeedf06b31e887d32b3", "lat": 38.9089465, "is_disabled": 0, "lon": -77.04477766666666, "fusion_lon": 0.0, "is_reserved": 0, "fusion_lat": 0.0, "rental_uris": {"android": "https://dc.lft.to/lastmile_qr_scan", "ios": "https://dc.lft.to/lastmile_qr_scan"}, "type": "electric_scooter", "name": "8c0c55fd7e0bbbeedf06b31e887d32b3"}, {"bike_id": "177ac1bcd6de89de9cb30ba753befcb9", "lat": 38.8865925, "is_disabled": 0, "lon": -77.02828916666667, "fusion_lon": 0.0, "is_reserved": 0, "fusion_lat": 0.0, "rental_uris": {"android": "https://dc.lft.to/lastmile_qr_scan", "ios": "https://dc.lft.to/lastmile_qr_scan"}, "type": "electric_scooter", "name": "177ac1bcd6de89de9cb30ba753befcb9"}, {"bike_id": "d1489274dd14b554406d2b33ad42b334", "lat": 38.8359205, "is_disabled": 0, "lon": -77.00125816666667, "fusion_lon": 0.0, "is_reserved": 0, "fusion_lat": 0.0, "rental_uris": {"android": "https://dc.lft.to/lastmile_qr_scan", "ios": "https://dc.lft.to/lastmile_qr_scan"}, "type": "electric_bike", "name": "d1489274dd14b554406d2b33ad42b334"}, {"bike_id": "a47b2bd36bc19872fa9bfff1cab9daf6", "lat": 38.911342833333336, "is_disabled": 0, "lon": -77.0465995, "fusion_lon": 0.0, "is_reserved": 0, "fusion_lat": 0.0, "rental_uris": {"android": "https://dc.lft.to/lastmile_qr_scan", "ios": "https://dc.lft.to/lastmile_qr_scan"}, "type": "electric_scooter", "name": "a47b2bd36bc19872fa9bfff1cab9daf6"}, {"bike_id": "1ce9c1aec324ad9b04896fbf1e340da4", "lat": 38.892155, "is_disabled": 0, "lon": -77.02774683333334, "fusion_lon": 0.0, "is_reserved": 0, "fusion_lat": 0.0, "rental_uris": {"android": "https://dc.lft.to/lastmile_qr_scan", "ios": "https://dc.lft.to/lastmile_qr_scan"}, "type": "electric_scooter", "name": "1ce9c1aec324ad9b04896fbf1e340da4"}, {"bike_id": "d67c3bb262a31529ef0d0842df3580dd", "lat": 38.91729516666667, "is_disabled": 0, "lon": -77.00686683333333, "fusion_lon": 0.0, "is_reserved": 0, "fusion_lat": 0.0, "rental_uris": {"android": "https://dc.lft.to/lastmile_qr_scan", "ios": "https://dc.lft.to/lastmile_qr_scan"}, "type": "electric_scooter", "name": "d67c3bb262a31529ef0d0842df3580dd"}, {"bike_id": "2192cb73168e7302516e7107c5244916", "lat": 38.90578466666667, "is_disabled": 0, "lon": -77.03363216666666, "fusion_lon": 0.0, "is_reserved": 0, "fusion_lat": 0.0, "rental_uris": {"android": "https://dc.lft.to/lastmile_qr_scan", "ios": "https://dc.lft.to/lastmile_qr_scan"}, "type": "electric_scooter", "name": "2192cb73168e7302516e7107c5244916"}, {"bike_id": "b7ec2917d0a194b7ea2f38d4c63d9b53", "lat": 38.887601333333336, "is_disabled": 0, "lon": -77.03319866666666, "fusion_lon": 0.0, "is_reserved": 0, "fusion_lat": 0.0, "rental_uris": {"android": "https://dc.lft.to/lastmile_qr_scan", "ios": "https://dc.lft.to/lastmile_qr_scan"}, "type": "electric_scooter", "name": "b7ec2917d0a194b7ea2f38d4c63d9b53"}, {"bike_id": "235c2f6aea23cecde4b3d8c8c0da1012", "lat": 38.91005833333333, "is_disabled": 0, "lon": -77.040064, "fusion_lon": 0.0, "is_reserved": 0, "fusion_lat": 0.0, "rental_uris": {"android": "https://dc.lft.to/lastmile_qr_scan", "ios": "https://dc.lft.to/lastmile_qr_scan"}, "type": "electric_scooter", "name": "235c2f6aea23cecde4b3d8c8c0da1012"}, {"bike_id": "6e10db5921f56f8e0d60503f51422e83", "lat": 38.93324333333333, "is_disabled": 0, "lon": -77.03261566666667, "fusion_lon": 0.0, "is_reserved": 0, "fusion_lat": 0.0, "rental_uris": {"android": "https://dc.lft.to/lastmile_qr_scan", "ios": "https://dc.lft.to/lastmile_qr_scan"}, "type": "electric_scooter", "name": "6e10db5921f56f8e0d60503f51422e83"}, {"bike_id": "733ab0087d69faa1efef8157ab283355", "lat": 38.888112, "is_disabled": 0, "lon": -77.03831383333333, "fusion_lon": 0.0, "is_reserved": 0, "fusion_lat": 0.0, "rental_uris": {"android": "https://dc.lft.to/lastmile_qr_scan", "ios": "https://dc.lft.to/lastmile_qr_scan"}, "type": "electric_bike", "name": "733ab0087d69faa1efef8157ab283355"}, {"bike_id": "02524b216e0dcd5feb18ad72e077bbe9", "lat": 38.8925205, "is_disabled": 0, "lon": -77.04504016666667, "fusion_lon": 0.0, "is_reserved": 0, "fusion_lat": 0.0, "rental_uris": {"android": "https://dc.lft.to/lastmile_qr_scan", "ios": "https://dc.lft.to/lastmile_qr_scan"}, "type": "electric_scooter", "name": "02524b216e0dcd5feb18ad72e077bbe9"}, {"bike_id": "0b0e0718878686fcfbf3a76b96e85e9c", "lat": 38.937129666666664, "is_disabled": 0, "lon": -77.05927283333334, "fusion_lon": 0.0, "is_reserved": 0, "fusion_lat": 0.0, "rental_uris": {"android": "https://dc.lft.to/lastmile_qr_scan", "ios": "https://dc.lft.to/lastmile_qr_scan"}, "type": "electric_scooter", "name": "0b0e0718878686fcfbf3a76b96e85e9c"}, {"bike_id": "d53916a6dd14c5b9cb39d23b661af50a", "lat": 38.889860666666664, "is_disabled": 0, "lon": -77.00326416666667, "fusion_lon": 0.0, "is_reserved": 0, "fusion_lat": 0.0, "rental_uris": {"android": "https://dc.lft.to/lastmile_qr_scan", "ios": "https://dc.lft.to/lastmile_qr_scan"}, "type": "electric_scooter", "name": "d53916a6dd14c5b9cb39d23b661af50a"}, {"bike_id": "478c0a2e6a6eed73d4d32af62b64cf85", "lat": 38.910498, "is_disabled": 0, "lon": -77.02205983333333, "fusion_lon": 0.0, "is_reserved": 0, "fusion_lat": 0.0, "rental_uris": {"android": "https://dc.lft.to/lastmile_qr_scan", "ios": "https://dc.lft.to/lastmile_qr_scan"}, "type": "electric_scooter", "name": "478c0a2e6a6eed73d4d32af62b64cf85"}, {"bike_id": "d12ba324e104d218fb4193540929347c", "lat": 38.93697866666667, "is_disabled": 0, "lon": -77.05597466666667, "fusion_lon": 0.0, "is_reserved": 0, "fusion_lat": 0.0, "rental_uris": {"android": "https://dc.lft.to/lastmile_qr_scan", "ios": "https://dc.lft.to/lastmile_qr_scan"}, "type": "electric_scooter", "name": "d12ba324e104d218fb4193540929347c"}, {"bike_id": "00b8a7f0c1a7a3eeb8b45a8ab8baae58", "lat": 38.898384, "is_disabled": 0, "lon": -77.03194616666667, "fusion_lon": 0.0, "is_reserved": 0, "fusion_lat": 0.0, "rental_uris": {"android": "https://dc.lft.to/lastmile_qr_scan", "ios": "https://dc.lft.to/lastmile_qr_scan"}, "type": "electric_scooter", "name": "00b8a7f0c1a7a3eeb8b45a8ab8baae58"}, {"bike_id": "22d76052de5c805da69aa7e3bc401cc2", "lat": 38.904208833333335, "is_disabled": 0, "lon": -77.03406416666667, "fusion_lon": 0.0, "is_reserved": 0, "fusion_lat": 0.0, "rental_uris": {"android": "https://dc.lft.to/lastmile_qr_scan", "ios": "https://dc.lft.to/lastmile_qr_scan"}, "type": "electric_scooter", "name": "22d76052de5c805da69aa7e3bc401cc2"}, {"bike_id": "c5e10072c9ed6cede54316badf2950db", "lat": 38.89989816666667, "is_disabled": 0, "lon": -77.0245235, "fusion_lon": 0.0, "is_reserved": 0, "fusion_lat": 0.0, "rental_uris": {"android": "https://dc.lft.to/lastmile_qr_scan", "ios": "https://dc.lft.to/lastmile_qr_scan"}, "type": "electric_scooter", "name": "c5e10072c9ed6cede54316badf2950db"}, {"bike_id": "993952db6be9345143dc121aaa229071", "lat": 38.883441833333336, "is_disabled": 0, "lon": -76.934998, "fusion_lon": 0.0, "is_reserved": 0, "fusion_lat": 0.0, "rental_uris": {"android": "https://dc.lft.to/lastmile_qr_scan", "ios": "https://dc.lft.to/lastmile_qr_scan"}, "type": "electric_scooter", "name": "993952db6be9345143dc121aaa229071"}, {"bike_id": "0f1dd46222a79f2992a71a7497c2ef15", "lat": 38.90139833333333, "is_disabled": 0, "lon": -77.044114, "fusion_lon": 0.0, "is_reserved": 0, "fusion_lat": 0.0, "rental_uris": {"android": "https://dc.lft.to/lastmile_qr_scan", "ios": "https://dc.lft.to/lastmile_qr_scan"}, "type": "electric_scooter", "name": "0f1dd46222a79f2992a71a7497c2ef15"}, {"bike_id": "4c3caaad74fc4147c117d36858b2223e", "lat": 38.92044466666667, "is_disabled": 0, "lon": -77.01670366666667, "fusion_lon": 0.0, "is_reserved": 0, "fusion_lat": 0.0, "rental_uris": {"android": "https://dc.lft.to/lastmile_qr_scan", "ios": "https://dc.lft.to/lastmile_qr_scan"}, "type": "electric_scooter", "name": "4c3caaad74fc4147c117d36858b2223e"}, {"bike_id": "1da242a4c0fe53f2f0b76cbb846e2557", "lat": 38.90315966666667, "is_disabled": 0, "lon": -77.038254, "fusion_lon": 0.0, "is_reserved": 0, "fusion_lat": 0.0, "rental_uris": {"android": "https://dc.lft.to/lastmile_qr_scan", "ios": "https://dc.lft.to/lastmile_qr_scan"}, "type": "electric_scooter", "name": "1da242a4c0fe53f2f0b76cbb846e2557"}, {"bike_id": "8beb5262f2e56b21f28873e4937c85a3", "lat": 38.9190395, "is_disabled": 0, "lon": -77.03823883333334, "fusion_lon": 0.0, "is_reserved": 0, "fusion_lat": 0.0, "rental_uris": {"android": "https://dc.lft.to/lastmile_qr_scan", "ios": "https://dc.lft.to/lastmile_qr_scan"}, "type": "electric_scooter", "name": "8beb5262f2e56b21f28873e4937c85a3"}, {"bike_id": "e4fe980d438476faa6115acb7f6415ca", "lat": 38.909142333333335, "is_disabled": 0, "lon": -77.0727065, "fusion_lon": 0.0, "is_reserved": 0, "fusion_lat": 0.0, "rental_uris": {"android": "https://dc.lft.to/lastmile_qr_scan", "ios": "https://dc.lft.to/lastmile_qr_scan"}, "type": "electric_scooter", "name": "e4fe980d438476faa6115acb7f6415ca"}, {"bike_id": "77785fe69997c2d2862ad7d14ee509a9", "lat": 38.92745133333333, "is_disabled": 0, "lon": -77.02530633333333, "fusion_lon": 0.0, "is_reserved": 0, "fusion_lat": 0.0, "rental_uris": {"android": "https://dc.lft.to/lastmile_qr_scan", "ios": "https://dc.lft.to/lastmile_qr_scan"}, "type": "electric_scooter", "name": "77785fe69997c2d2862ad7d14ee509a9"}, {"bike_id": "5855bd6edd810d70f35456a2d28a1223", "lat": 38.9041195, "is_disabled": 0, "lon": -76.97329833333333, "fusion_lon": 0.0, "is_reserved": 0, "fusion_lat": 0.0, "rental_uris": {"android": "https://dc.lft.to/lastmile_qr_scan", "ios": "https://dc.lft.to/lastmile_qr_scan"}, "type": "electric_scooter", "name": "5855bd6edd810d70f35456a2d28a1223"}, {"bike_id": "55b58e7173671e99ba2933d3afb8300c", "lat": 38.9180685, "is_disabled": 0, "lon": -77.0392045, "fusion_lon": 0.0, "is_reserved": 0, "fusion_lat": 0.0, "rental_uris": {"android": "https://dc.lft.to/lastmile_qr_scan", "ios": "https://dc.lft.to/lastmile_qr_scan"}, "type": "electric_scooter", "name": "55b58e7173671e99ba2933d3afb8300c"}, {"bike_id": "928b312547ad8b6abdfd112205e82dbc", "lat": 38.85723083333333, "is_disabled": 0, "lon": -76.97776316666666, "fusion_lon": 0.0, "is_reserved": 0, "fusion_lat": 0.0, "rental_uris": {"android": "https://dc.lft.to/lastmile_qr_scan", "ios": "https://dc.lft.to/lastmile_qr_scan"}, "type": "electric_bike", "name": "928b312547ad8b6abdfd112205e82dbc"}, {"bike_id": "8afd2c83e23f78eeace683c9ccb41855", "lat": 38.91814933333333, "is_disabled": 0, "lon": -77.027002, "fusion_lon": 0.0, "is_reserved": 0, "fusion_lat": 0.0, "rental_uris": {"android": "https://dc.lft.to/lastmile_qr_scan", "ios": "https://dc.lft.to/lastmile_qr_scan"}, "type": "electric_scooter", "name": "8afd2c83e23f78eeace683c9ccb41855"}, {"bike_id": "6841e669c784213369409609ab4559a0", "lat": 38.8867745, "is_disabled": 0, "lon": -77.0137545, "fusion_lon": 0.0, "is_reserved": 0, "fusion_lat": 0.0, "rental_uris": {"android": "https://dc.lft.to/lastmile_qr_scan", "ios": "https://dc.lft.to/lastmile_qr_scan"}, "type": "electric_scooter", "name": "6841e669c784213369409609ab4559a0"}, {"bike_id": "e273d6f5628fa19a06b29de999500166", "lat": 38.91176166666666, "is_disabled": 0, "lon": -77.042292, "fusion_lon": 0.0, "is_reserved": 0, "fusion_lat": 0.0, "rental_uris": {"android": "https://dc.lft.to/lastmile_qr_scan", "ios": "https://dc.lft.to/lastmile_qr_scan"}, "type": "electric_scooter", "name": "e273d6f5628fa19a06b29de999500166"}, {"bike_id": "29e0e8d2096c5d621497ea358b27715b", "lat": 38.92487233333333, "is_disabled": 0, "lon": -77.02189516666667, "fusion_lon": 0.0, "is_reserved": 0, "fusion_lat": 0.0, "rental_uris": {"android": "https://dc.lft.to/lastmile_qr_scan", "ios": "https://dc.lft.to/lastmile_qr_scan"}, "type": "electric_scooter", "name": "29e0e8d2096c5d621497ea358b27715b"}, {"bike_id": "b7a0ec7031f579fa83e919689e5011fd", "lat": 38.90729916666667, "is_disabled": 0, "lon": -77.00313133333333, "fusion_lon": 0.0, "is_reserved": 0, "fusion_lat": 0.0, "rental_uris": {"android": "https://dc.lft.to/lastmile_qr_scan", "ios": "https://dc.lft.to/lastmile_qr_scan"}, "type": "electric_scooter", "name": "b7a0ec7031f579fa83e919689e5011fd"}, {"bike_id": "361df4a0782acfc92622b1f38784c143", "lat": 38.897131, "is_disabled": 0, "lon": -77.02691233333333, "fusion_lon": 0.0, "is_reserved": 0, "fusion_lat": 0.0, "rental_uris": {"android": "https://dc.lft.to/lastmile_qr_scan", "ios": "https://dc.lft.to/lastmile_qr_scan"}, "type": "electric_scooter", "name": "361df4a0782acfc92622b1f38784c143"}, {"bike_id": "62fcd4e64ce83b9d1d060a806fe1a95c", "lat": 38.912626833333334, "is_disabled": 0, "lon": -77.0225205, "fusion_lon": 0.0, "is_reserved": 0, "fusion_lat": 0.0, "rental_uris": {"android": "https://dc.lft.to/lastmile_qr_scan", "ios": "https://dc.lft.to/lastmile_qr_scan"}, "type": "electric_scooter", "name": "62fcd4e64ce83b9d1d060a806fe1a95c"}, {"bike_id": "ff288bb18ee30d5fc46e7556350973d0", "lat": 38.91729466666666, "is_disabled": 0, "lon": -77.069409, "fusion_lon": 0.0, "is_reserved": 0, "fusion_lat": 0.0, "rental_uris": {"android": "https://dc.lft.to/lastmile_qr_scan", "ios": "https://dc.lft.to/lastmile_qr_scan"}, "type": "electric_scooter", "name": "ff288bb18ee30d5fc46e7556350973d0"}, {"bike_id": "2033e92ab3063b7caf117a7e612a7131", "lat": 38.9004765, "is_disabled": 0, "lon": -76.998396, "fusion_lon": 0.0, "is_reserved": 0, "fusion_lat": 0.0, "rental_uris": {"android": "https://dc.lft.to/lastmile_qr_scan", "ios": "https://dc.lft.to/lastmile_qr_scan"}, "type": "electric_scooter", "name": "2033e92ab3063b7caf117a7e612a7131"}, {"bike_id": "04db02f60fb4a12e321955bdff64c787", "lat": 38.922583833333334, "is_disabled": 0, "lon": -77.01823916666666, "fusion_lon": 0.0, "is_reserved": 0, "fusion_lat": 0.0, "rental_uris": {"android": "https://dc.lft.to/lastmile_qr_scan", "ios": "https://dc.lft.to/lastmile_qr_scan"}, "type": "electric_scooter", "name": "04db02f60fb4a12e321955bdff64c787"}, {"bike_id": "8430e423ee47d9e98a898c15d6f46543", "lat": 38.88398683333333, "is_disabled": 0, "lon": -77.02950016666666, "fusion_lon": 0.0, "is_reserved": 0, "fusion_lat": 0.0, "rental_uris": {"android": "https://dc.lft.to/lastmile_qr_scan", "ios": "https://dc.lft.to/lastmile_qr_scan"}, "type": "electric_scooter", "name": "8430e423ee47d9e98a898c15d6f46543"}, {"bike_id": "8c919b1cb9145fd9c57bcec98655fdfa", "lat": 38.885399166666666, "is_disabled": 0, "lon": -77.01103266666667, "fusion_lon": 0.0, "is_reserved": 0, "fusion_lat": 0.0, "rental_uris": {"android": "https://dc.lft.to/lastmile_qr_scan", "ios": "https://dc.lft.to/lastmile_qr_scan"}, "type": "electric_scooter", "name": "8c919b1cb9145fd9c57bcec98655fdfa"}, {"bike_id": "a5db3077dac4b2e2a770ef978469f3a5", "lat": 38.902339, "is_disabled": 0, "lon": -77.047353, "fusion_lon": 0.0, "is_reserved": 0, "fusion_lat": 0.0, "rental_uris": {"android": "https://dc.lft.to/lastmile_qr_scan", "ios": "https://dc.lft.to/lastmile_qr_scan"}, "type": "electric_bike", "name": "a5db3077dac4b2e2a770ef978469f3a5"}, {"bike_id": "8a9ca468bb7ae9092b88e7161958e193", "lat": 38.9056515, "is_disabled": 0, "lon": -77.00661466666666, "fusion_lon": 0.0, "is_reserved": 0, "fusion_lat": 0.0, "rental_uris": {"android": "https://dc.lft.to/lastmile_qr_scan", "ios": "https://dc.lft.to/lastmile_qr_scan"}, "type": "electric_scooter", "name": "8a9ca468bb7ae9092b88e7161958e193"}, {"bike_id": "d5b6b00da7e2da8c3b6b74a1289438eb", "lat": 38.887303333333335, "is_disabled": 0, "lon": -77.0317475, "fusion_lon": 0.0, "is_reserved": 0, "fusion_lat": 0.0, "rental_uris": {"android": "https://dc.lft.to/lastmile_qr_scan", "ios": "https://dc.lft.to/lastmile_qr_scan"}, "type": "electric_scooter", "name": "d5b6b00da7e2da8c3b6b74a1289438eb"}, {"bike_id": "334063c23c3b61714a236541c0661eea", "lat": 38.92701183333333, "is_disabled": 0, "lon": -77.037559, "fusion_lon": 0.0, "is_reserved": 0, "fusion_lat": 0.0, "rental_uris": {"android": "https://dc.lft.to/lastmile_qr_scan", "ios": "https://dc.lft.to/lastmile_qr_scan"}, "type": "electric_scooter", "name": "334063c23c3b61714a236541c0661eea"}, {"bike_id": "6b6fb9e2bdb8e57ce3099cb8501c305a", "lat": 38.93327883333333, "is_disabled": 0, "lon": -77.0326295, "fusion_lon": 0.0, "is_reserved": 0, "fusion_lat": 0.0, "rental_uris": {"android": "https://dc.lft.to/lastmile_qr_scan", "ios": "https://dc.lft.to/lastmile_qr_scan"}, "type": "electric_scooter", "name": "6b6fb9e2bdb8e57ce3099cb8501c305a"}, {"bike_id": "976d6d638b7c476ba699682d7eb3b0d4", "lat": 38.92223233333333, "is_disabled": 0, "lon": -77.0469515, "fusion_lon": 0.0, "is_reserved": 0, "fusion_lat": 0.0, "rental_uris": {"android": "https://dc.lft.to/lastmile_qr_scan", "ios": "https://dc.lft.to/lastmile_qr_scan"}, "type": "electric_scooter", "name": "976d6d638b7c476ba699682d7eb3b0d4"}, {"bike_id": "f49fbab77019f562a42ff3045ffe1861", "lat": 38.9041285, "is_disabled": 0, "lon": -76.97328966666667, "fusion_lon": 0.0, "is_reserved": 0, "fusion_lat": 0.0, "rental_uris": {"android": "https://dc.lft.to/lastmile_qr_scan", "ios": "https://dc.lft.to/lastmile_qr_scan"}, "type": "electric_scooter", "name": "f49fbab77019f562a42ff3045ffe1861"}, {"bike_id": "3b151a53843d2bc1938d35553a623020", "lat": 38.98806016666666, "is_disabled": 0, "lon": -76.93962266666666, "fusion_lon": 0.0, "is_reserved": 0, "fusion_lat": 0.0, "rental_uris": {"android": "https://dc.lft.to/lastmile_qr_scan", "ios": "https://dc.lft.to/lastmile_qr_scan"}, "type": "electric_bike", "name": "3b151a53843d2bc1938d35553a623020"}, {"bike_id": "59adb0f243fa6fd73a9b0fd5152a8d66", "lat": 38.899835333333336, "is_disabled": 0, "lon": -77.00191483333333, "fusion_lon": 0.0, "is_reserved": 0, "fusion_lat": 0.0, "rental_uris": {"android": "https://dc.lft.to/lastmile_qr_scan", "ios": "https://dc.lft.to/lastmile_qr_scan"}, "type": "electric_scooter", "name": "59adb0f243fa6fd73a9b0fd5152a8d66"}, {"bike_id": "ba15b1f57787b3a6d196b7c673a33c43", "lat": 38.99378466666667, "is_disabled": 0, "lon": -77.040709, "fusion_lon": 0.0, "is_reserved": 0, "fusion_lat": 0.0, "rental_uris": {"android": "https://dc.lft.to/lastmile_qr_scan", "ios": "https://dc.lft.to/lastmile_qr_scan"}, "type": "electric_bike", "name": "ba15b1f57787b3a6d196b7c673a33c43"}, {"bike_id": "61fea3f6580923d318717afd2954cd80", "lat": 38.92483766666667, "is_disabled": 0, "lon": -77.02150883333333, "fusion_lon": 0.0, "is_reserved": 0, "fusion_lat": 0.0, "rental_uris": {"android": "https://dc.lft.to/lastmile_qr_scan", "ios": "https://dc.lft.to/lastmile_qr_scan"}, "type": "electric_scooter", "name": "61fea3f6580923d318717afd2954cd80"}, {"bike_id": "35fa071055deb4c91501092e6b98abef", "lat": 38.85897816666667, "is_disabled": 0, "lon": -77.05122566666667, "fusion_lon": 0.0, "is_reserved": 0, "fusion_lat": 0.0, "rental_uris": {"android": "https://dc.lft.to/lastmile_qr_scan", "ios": "https://dc.lft.to/lastmile_qr_scan"}, "type": "electric_bike", "name": "35fa071055deb4c91501092e6b98abef"}, {"bike_id": "f5b5e9019973bfe9baf13ef69ac46ee9", "lat": 38.8846495, "is_disabled": 0, "lon": -76.95241683333333, "fusion_lon": 0.0, "is_reserved": 0, "fusion_lat": 0.0, "rental_uris": {"android": "https://dc.lft.to/lastmile_qr_scan", "ios": "https://dc.lft.to/lastmile_qr_scan"}, "type": "electric_bike", "name": "f5b5e9019973bfe9baf13ef69ac46ee9"}, {"bike_id": "55501ee170f1a7e09492215b315d9bcc", "lat": 38.949417333333336, "is_disabled": 0, "lon": -77.01611766666667, "fusion_lon": 0.0, "is_reserved": 0, "fusion_lat": 0.0, "rental_uris": {"android": "https://dc.lft.to/lastmile_qr_scan", "ios": "https://dc.lft.to/lastmile_qr_scan"}, "type": "electric_scooter", "name": "55501ee170f1a7e09492215b315d9bcc"}, {"bike_id": "9235a1fc6fe20ca29264c7b6cd969a2e", "lat": 38.934671333333334, "is_disabled": 0, "lon": -77.0413365, "fusion_lon": 0.0, "is_reserved": 0, "fusion_lat": 0.0, "rental_uris": {"android": "https://dc.lft.to/lastmile_qr_scan", "ios": "https://dc.lft.to/lastmile_qr_scan"}, "type": "electric_scooter", "name": "9235a1fc6fe20ca29264c7b6cd969a2e"}, {"bike_id": "8082b7185eb4c7e89a5ec2e2a7139407", "lat": 38.939512666666666, "is_disabled": 0, "lon": -77.07249766666666, "fusion_lon": 0.0, "is_reserved": 0, "fusion_lat": 0.0, "rental_uris": {"android": "https://dc.lft.to/lastmile_qr_scan", "ios": "https://dc.lft.to/lastmile_qr_scan"}, "type": "electric_scooter", "name": "8082b7185eb4c7e89a5ec2e2a7139407"}, {"bike_id": "5c99dac8c40a16692ce8df07f5c2c9b6", "lat": 38.9176915, "is_disabled": 0, "lon": -77.047659, "fusion_lon": 0.0, "is_reserved": 0, "fusion_lat": 0.0, "rental_uris": {"android": "https://dc.lft.to/lastmile_qr_scan", "ios": "https://dc.lft.to/lastmile_qr_scan"}, "type": "electric_scooter", "name": "5c99dac8c40a16692ce8df07f5c2c9b6"}, {"bike_id": "017c1360310dfe6f6025230cb3c265ce", "lat": 38.9080435, "is_disabled": 0, "lon": -77.08404133333333, "fusion_lon": 0.0, "is_reserved": 0, "fusion_lat": 0.0, "rental_uris": {"android": "https://dc.lft.to/lastmile_qr_scan", "ios": "https://dc.lft.to/lastmile_qr_scan"}, "type": "electric_scooter", "name": "017c1360310dfe6f6025230cb3c265ce"}, {"bike_id": "1eb14844e5aadf06dd7678769a8aed31", "lat": 38.89868533333333, "is_disabled": 0, "lon": -76.94663683333333, "fusion_lon": 0.0, "is_reserved": 0, "fusion_lat": 0.0, "rental_uris": {"android": "https://dc.lft.to/lastmile_qr_scan", "ios": "https://dc.lft.to/lastmile_qr_scan"}, "type": "electric_scooter", "name": "1eb14844e5aadf06dd7678769a8aed31"}, {"bike_id": "e50ba28cb25d4419abf4254d3d2a0e50", "lat": 38.934935, "is_disabled": 0, "lon": -77.043667, "fusion_lon": 0.0, "is_reserved": 0, "fusion_lat": 0.0, "rental_uris": {"android": "https://dc.lft.to/lastmile_qr_scan", "ios": "https://dc.lft.to/lastmile_qr_scan"}, "type": "electric_scooter", "name": "e50ba28cb25d4419abf4254d3d2a0e50"}, {"bike_id": "22a134f3c1257fafbce91fa8d327b870", "lat": 38.909190333333335, "is_disabled": 0, "lon": -76.99956733333333, "fusion_lon": 0.0, "is_reserved": 0, "fusion_lat": 0.0, "rental_uris": {"android": "https://dc.lft.to/lastmile_qr_scan", "ios": "https://dc.lft.to/lastmile_qr_scan"}, "type": "electric_scooter", "name": "22a134f3c1257fafbce91fa8d327b870"}, {"bike_id": "6435f97aa0d5e99b9fd1acb7ae108641", "lat": 38.90019066666667, "is_disabled": 0, "lon": -76.99348766666667, "fusion_lon": 0.0, "is_reserved": 0, "fusion_lat": 0.0, "rental_uris": {"android": "https://dc.lft.to/lastmile_qr_scan", "ios": "https://dc.lft.to/lastmile_qr_scan"}, "type": "electric_bike", "name": "6435f97aa0d5e99b9fd1acb7ae108641"}, {"bike_id": "8ddf59214f3ce69785db4b67c3434cfb", "lat": 38.892364, "is_disabled": 0, "lon": -77.03206233333333, "fusion_lon": 0.0, "is_reserved": 0, "fusion_lat": 0.0, "rental_uris": {"android": "https://dc.lft.to/lastmile_qr_scan", "ios": "https://dc.lft.to/lastmile_qr_scan"}, "type": "electric_scooter", "name": "8ddf59214f3ce69785db4b67c3434cfb"}, {"bike_id": "e5420a01bcae237a084b7962e2f0d678", "lat": 38.89224133333333, "is_disabled": 0, "lon": -77.04637483333333, "fusion_lon": 0.0, "is_reserved": 0, "fusion_lat": 0.0, "rental_uris": {"android": "https://dc.lft.to/lastmile_qr_scan", "ios": "https://dc.lft.to/lastmile_qr_scan"}, "type": "electric_scooter", "name": "e5420a01bcae237a084b7962e2f0d678"}, {"bike_id": "82f925a3cc22183380309d6317b208a8", "lat": 38.899142166666664, "is_disabled": 0, "lon": -77.04166233333333, "fusion_lon": 0.0, "is_reserved": 0, "fusion_lat": 0.0, "rental_uris": {"android": "https://dc.lft.to/lastmile_qr_scan", "ios": "https://dc.lft.to/lastmile_qr_scan"}, "type": "electric_scooter", "name": "82f925a3cc22183380309d6317b208a8"}, {"bike_id": "8505cdb8386518c5c61d611da9a6657f", "lat": 38.904159666666665, "is_disabled": 0, "lon": -77.01728366666667, "fusion_lon": 0.0, "is_reserved": 0, "fusion_lat": 0.0, "rental_uris": {"android": "https://dc.lft.to/lastmile_qr_scan", "ios": "https://dc.lft.to/lastmile_qr_scan"}, "type": "electric_scooter", "name": "8505cdb8386518c5c61d611da9a6657f"}, {"bike_id": "a6bc11c7bc7e87ba5d581eeacd9e635f", "lat": 38.9332065, "is_disabled": 0, "lon": -77.03820516666667, "fusion_lon": 0.0, "is_reserved": 0, "fusion_lat": 0.0, "rental_uris": {"android": "https://dc.lft.to/lastmile_qr_scan", "ios": "https://dc.lft.to/lastmile_qr_scan"}, "type": "electric_scooter", "name": "a6bc11c7bc7e87ba5d581eeacd9e635f"}, {"bike_id": "57a4670feb9bbf7a6e0a4f148b13c2c3", "lat": 38.9489825, "is_disabled": 0, "lon": -77.02381616666666, "fusion_lon": 0.0, "is_reserved": 0, "fusion_lat": 0.0, "rental_uris": {"android": "https://dc.lft.to/lastmile_qr_scan", "ios": "https://dc.lft.to/lastmile_qr_scan"}, "type": "electric_scooter", "name": "57a4670feb9bbf7a6e0a4f148b13c2c3"}, {"bike_id": "c1defb428831587a78978bea8e70ec2f", "lat": 38.923437, "is_disabled": 0, "lon": -77.03637283333333, "fusion_lon": 0.0, "is_reserved": 0, "fusion_lat": 0.0, "rental_uris": {"android": "https://dc.lft.to/lastmile_qr_scan", "ios": "https://dc.lft.to/lastmile_qr_scan"}, "type": "electric_scooter", "name": "c1defb428831587a78978bea8e70ec2f"}, {"bike_id": "3e7e8278e89065c07b0e430e2ddce6f9", "lat": 38.927878, "is_disabled": 0, "lon": -77.05407816666667, "fusion_lon": 0.0, "is_reserved": 0, "fusion_lat": 0.0, "rental_uris": {"android": "https://dc.lft.to/lastmile_qr_scan", "ios": "https://dc.lft.to/lastmile_qr_scan"}, "type": "electric_scooter", "name": "3e7e8278e89065c07b0e430e2ddce6f9"}, {"bike_id": "746f70a9d2bb414b6447ddbf1b317d2e", "lat": 38.913615, "is_disabled": 0, "lon": -77.04651516666667, "fusion_lon": 0.0, "is_reserved": 0, "fusion_lat": 0.0, "rental_uris": {"android": "https://dc.lft.to/lastmile_qr_scan", "ios": "https://dc.lft.to/lastmile_qr_scan"}, "type": "electric_scooter", "name": "746f70a9d2bb414b6447ddbf1b317d2e"}, {"bike_id": "2b4634cde75b99d2b251d676ea15aa6d", "lat": 38.86354733333334, "is_disabled": 0, "lon": -76.99035566666667, "fusion_lon": 0.0, "is_reserved": 0, "fusion_lat": 0.0, "rental_uris": {"android": "https://dc.lft.to/lastmile_qr_scan", "ios": "https://dc.lft.to/lastmile_qr_scan"}, "type": "electric_scooter", "name": "2b4634cde75b99d2b251d676ea15aa6d"}, {"bike_id": "c783f48f60be4864cfffe6e2dda0eb59", "lat": 38.923252166666664, "is_disabled": 0, "lon": -77.0361725, "fusion_lon": 0.0, "is_reserved": 0, "fusion_lat": 0.0, "rental_uris": {"android": "https://dc.lft.to/lastmile_qr_scan", "ios": "https://dc.lft.to/lastmile_qr_scan"}, "type": "electric_scooter", "name": "c783f48f60be4864cfffe6e2dda0eb59"}, {"bike_id": "0b638cd40a4918198d90700176ac2fd9", "lat": 38.910135333333336, "is_disabled": 0, "lon": -77.0445425, "fusion_lon": 0.0, "is_reserved": 0, "fusion_lat": 0.0, "rental_uris": {"android": "https://dc.lft.to/lastmile_qr_scan", "ios": "https://dc.lft.to/lastmile_qr_scan"}, "type": "electric_scooter", "name": "0b638cd40a4918198d90700176ac2fd9"}, {"bike_id": "fbb98dc8ce9814d0c0536e195a729191", "lat": 38.892251, "is_disabled": 0, "lon": -77.03055666666667, "fusion_lon": 0.0, "is_reserved": 0, "fusion_lat": 0.0, "rental_uris": {"android": "https://dc.lft.to/lastmile_qr_scan", "ios": "https://dc.lft.to/lastmile_qr_scan"}, "type": "electric_scooter", "name": "fbb98dc8ce9814d0c0536e195a729191"}, {"bike_id": "efdca9f70a6ae91ed4e0b7102dcbde60", "lat": 38.9172275, "is_disabled": 0, "lon": -77.06839566666666, "fusion_lon": 0.0, "is_reserved": 0, "fusion_lat": 0.0, "rental_uris": {"android": "https://dc.lft.to/lastmile_qr_scan", "ios": "https://dc.lft.to/lastmile_qr_scan"}, "type": "electric_scooter", "name": "efdca9f70a6ae91ed4e0b7102dcbde60"}, {"bike_id": "4cec3ba093e7c593cf9f47e35589177c", "lat": 38.92061783333333, "is_disabled": 0, "lon": -77.01697933333334, "fusion_lon": 0.0, "is_reserved": 0, "fusion_lat": 0.0, "rental_uris": {"android": "https://dc.lft.to/lastmile_qr_scan", "ios": "https://dc.lft.to/lastmile_qr_scan"}, "type": "electric_scooter", "name": "4cec3ba093e7c593cf9f47e35589177c"}, {"bike_id": "e7b8d768733973796dac40eebf847534", "lat": 38.89902516666667, "is_disabled": 0, "lon": -77.0328165, "fusion_lon": 0.0, "is_reserved": 0, "fusion_lat": 0.0, "rental_uris": {"android": "https://dc.lft.to/lastmile_qr_scan", "ios": "https://dc.lft.to/lastmile_qr_scan"}, "type": "electric_scooter", "name": "e7b8d768733973796dac40eebf847534"}, {"bike_id": "3281c20d24ab58fba2d6ec098104fda2", "lat": 38.91590383333333, "is_disabled": 0, "lon": -77.01216616666666, "fusion_lon": 0.0, "is_reserved": 0, "fusion_lat": 0.0, "rental_uris": {"android": "https://dc.lft.to/lastmile_qr_scan", "ios": "https://dc.lft.to/lastmile_qr_scan"}, "type": "electric_scooter", "name": "3281c20d24ab58fba2d6ec098104fda2"}, {"bike_id": "d0d59e31bf1f309b0df66d9bfecc839a", "lat": 38.9072505, "is_disabled": 0, "lon": -77.04771733333334, "fusion_lon": 0.0, "is_reserved": 0, "fusion_lat": 0.0, "rental_uris": {"android": "https://dc.lft.to/lastmile_qr_scan", "ios": "https://dc.lft.to/lastmile_qr_scan"}, "type": "electric_scooter", "name": "d0d59e31bf1f309b0df66d9bfecc839a"}, {"bike_id": "95705fbfaecc840d039d04828388b548", "lat": 38.88717966666667, "is_disabled": 0, "lon": -77.01963683333334, "fusion_lon": 0.0, "is_reserved": 0, "fusion_lat": 0.0, "rental_uris": {"android": "https://dc.lft.to/lastmile_qr_scan", "ios": "https://dc.lft.to/lastmile_qr_scan"}, "type": "electric_scooter", "name": "95705fbfaecc840d039d04828388b548"}, {"bike_id": "e77dc8e9c1b7359f5178ad8f2ebc5f6e", "lat": 38.936024833333335, "is_disabled": 0, "lon": -77.05705783333333, "fusion_lon": 0.0, "is_reserved": 0, "fusion_lat": 0.0, "rental_uris": {"android": "https://dc.lft.to/lastmile_qr_scan", "ios": "https://dc.lft.to/lastmile_qr_scan"}, "type": "electric_scooter", "name": "e77dc8e9c1b7359f5178ad8f2ebc5f6e"}, {"bike_id": "b6abb68400abaf834cfa211c1faac512", "lat": 38.91801866666667, "is_disabled": 0, "lon": -77.03445666666667, "fusion_lon": 0.0, "is_reserved": 0, "fusion_lat": 0.0, "rental_uris": {"android": "https://dc.lft.to/lastmile_qr_scan", "ios": "https://dc.lft.to/lastmile_qr_scan"}, "type": "electric_scooter", "name": "b6abb68400abaf834cfa211c1faac512"}, {"bike_id": "b0037280838b9497ecad8d3e939b5735", "lat": 38.89949433333334, "is_disabled": 0, "lon": -77.01392116666666, "fusion_lon": 0.0, "is_reserved": 0, "fusion_lat": 0.0, "rental_uris": {"android": "https://dc.lft.to/lastmile_qr_scan", "ios": "https://dc.lft.to/lastmile_qr_scan"}, "type": "electric_scooter", "name": "b0037280838b9497ecad8d3e939b5735"}, {"bike_id": "52bbce2d44ba63c5fbe2a837e8ab2bf9", "lat": 38.90651166666667, "is_disabled": 0, "lon": -77.02473783333333, "fusion_lon": 0.0, "is_reserved": 0, "fusion_lat": 0.0, "rental_uris": {"android": "https://dc.lft.to/lastmile_qr_scan", "ios": "https://dc.lft.to/lastmile_qr_scan"}, "type": "electric_scooter", "name": "52bbce2d44ba63c5fbe2a837e8ab2bf9"}, {"bike_id": "75188b7d84bf5a3d1307984ca224bb85", "lat": 38.89746066666667, "is_disabled": 0, "lon": -77.02182083333334, "fusion_lon": 0.0, "is_reserved": 0, "fusion_lat": 0.0, "rental_uris": {"android": "https://dc.lft.to/lastmile_qr_scan", "ios": "https://dc.lft.to/lastmile_qr_scan"}, "type": "electric_scooter", "name": "75188b7d84bf5a3d1307984ca224bb85"}, {"bike_id": "8be90e6a1940ba98f1b1f735a2c27968", "lat": 38.917064, "is_disabled": 0, "lon": -77.022989, "fusion_lon": 0.0, "is_reserved": 0, "fusion_lat": 0.0, "rental_uris": {"android": "https://dc.lft.to/lastmile_qr_scan", "ios": "https://dc.lft.to/lastmile_qr_scan"}, "type": "electric_scooter", "name": "8be90e6a1940ba98f1b1f735a2c27968"}, {"bike_id": "dfeebc6eef2fe03c0c0d19fb48eb33f0", "lat": 38.91908933333333, "is_disabled": 0, "lon": -77.036267, "fusion_lon": 0.0, "is_reserved": 0, "fusion_lat": 0.0, "rental_uris": {"android": "https://dc.lft.to/lastmile_qr_scan", "ios": "https://dc.lft.to/lastmile_qr_scan"}, "type": "electric_scooter", "name": "dfeebc6eef2fe03c0c0d19fb48eb33f0"}, {"bike_id": "5021e855547c59f6a71e1b04e1b2aa3f", "lat": 38.899922333333336, "is_disabled": 0, "lon": -77.052324, "fusion_lon": 0.0, "is_reserved": 0, "fusion_lat": 0.0, "rental_uris": {"android": "https://dc.lft.to/lastmile_qr_scan", "ios": "https://dc.lft.to/lastmile_qr_scan"}, "type": "electric_scooter", "name": "5021e855547c59f6a71e1b04e1b2aa3f"}, {"bike_id": "41f8fe4982e5216e9714028d80b71875", "lat": 38.900064, "is_disabled": 0, "lon": -77.0066645, "fusion_lon": 0.0, "is_reserved": 0, "fusion_lat": 0.0, "rental_uris": {"android": "https://dc.lft.to/lastmile_qr_scan", "ios": "https://dc.lft.to/lastmile_qr_scan"}, "type": "electric_scooter", "name": "41f8fe4982e5216e9714028d80b71875"}, {"bike_id": "a41802091c0b69834f95dd2feda4974a", "lat": 38.92716683333333, "is_disabled": 0, "lon": -77.0231315, "fusion_lon": 0.0, "is_reserved": 0, "fusion_lat": 0.0, "rental_uris": {"android": "https://dc.lft.to/lastmile_qr_scan", "ios": "https://dc.lft.to/lastmile_qr_scan"}, "type": "electric_scooter", "name": "a41802091c0b69834f95dd2feda4974a"}, {"bike_id": "32cf47b95b5a1430409995d6108a8841", "lat": 38.871301, "is_disabled": 0, "lon": -76.93724233333333, "fusion_lon": 0.0, "is_reserved": 0, "fusion_lat": 0.0, "rental_uris": {"android": "https://dc.lft.to/lastmile_qr_scan", "ios": "https://dc.lft.to/lastmile_qr_scan"}, "type": "electric_bike", "name": "32cf47b95b5a1430409995d6108a8841"}, {"bike_id": "32a0c15f00b98f06ac31b944abc7bcec", "lat": 38.890565, "is_disabled": 0, "lon": -76.93757783333334, "fusion_lon": 0.0, "is_reserved": 0, "fusion_lat": 0.0, "rental_uris": {"android": "https://dc.lft.to/lastmile_qr_scan", "ios": "https://dc.lft.to/lastmile_qr_scan"}, "type": "electric_scooter", "name": "32a0c15f00b98f06ac31b944abc7bcec"}, {"bike_id": "80c1e7c1a178366ec909e328e691f32a", "lat": 38.92363066666667, "is_disabled": 0, "lon": -77.00341266666666, "fusion_lon": 0.0, "is_reserved": 0, "fusion_lat": 0.0, "rental_uris": {"android": "https://dc.lft.to/lastmile_qr_scan", "ios": "https://dc.lft.to/lastmile_qr_scan"}, "type": "electric_scooter", "name": "80c1e7c1a178366ec909e328e691f32a"}, {"bike_id": "8e029185fc13560962801a386a45bb54", "lat": 38.904239833333335, "is_disabled": 0, "lon": -77.0326, "fusion_lon": 0.0, "is_reserved": 0, "fusion_lat": 0.0, "rental_uris": {"android": "https://dc.lft.to/lastmile_qr_scan", "ios": "https://dc.lft.to/lastmile_qr_scan"}, "type": "electric_scooter", "name": "8e029185fc13560962801a386a45bb54"}, {"bike_id": "624140b08d360bf3a802ed340021c2bb", "lat": 38.91890016666667, "is_disabled": 0, "lon": -77.03829866666666, "fusion_lon": 0.0, "is_reserved": 0, "fusion_lat": 0.0, "rental_uris": {"android": "https://dc.lft.to/lastmile_qr_scan", "ios": "https://dc.lft.to/lastmile_qr_scan"}, "type": "electric_scooter", "name": "624140b08d360bf3a802ed340021c2bb"}, {"bike_id": "1271ce8e2130d829cdc7f9ffb6265f6c", "lat": 38.904407166666665, "is_disabled": 0, "lon": -77.04263616666667, "fusion_lon": 0.0, "is_reserved": 0, "fusion_lat": 0.0, "rental_uris": {"android": "https://dc.lft.to/lastmile_qr_scan", "ios": "https://dc.lft.to/lastmile_qr_scan"}, "type": "electric_scooter", "name": "1271ce8e2130d829cdc7f9ffb6265f6c"}, {"bike_id": "83f03f4b4206c15f72e35acef25e1c32", "lat": 38.937854333333334, "is_disabled": 0, "lon": -77.02304433333333, "fusion_lon": 0.0, "is_reserved": 0, "fusion_lat": 0.0, "rental_uris": {"android": "https://dc.lft.to/lastmile_qr_scan", "ios": "https://dc.lft.to/lastmile_qr_scan"}, "type": "electric_scooter", "name": "83f03f4b4206c15f72e35acef25e1c32"}, {"bike_id": "5751f056c7d0b4bdaf0929b1d943af5c", "lat": 38.89235766666667, "is_disabled": 0, "lon": -77.04674, "fusion_lon": 0.0, "is_reserved": 0, "fusion_lat": 0.0, "rental_uris": {"android": "https://dc.lft.to/lastmile_qr_scan", "ios": "https://dc.lft.to/lastmile_qr_scan"}, "type": "electric_scooter", "name": "5751f056c7d0b4bdaf0929b1d943af5c"}, {"bike_id": "796abe5ae4a102027e3575b2f79c8f83", "lat": 38.92610783333333, "is_disabled": 0, "lon": -77.02154016666667, "fusion_lon": 0.0, "is_reserved": 0, "fusion_lat": 0.0, "rental_uris": {"android": "https://dc.lft.to/lastmile_qr_scan", "ios": "https://dc.lft.to/lastmile_qr_scan"}, "type": "electric_scooter", "name": "796abe5ae4a102027e3575b2f79c8f83"}, {"bike_id": "8a7293284aff950c3cb91f044a39dee9", "lat": 38.921292, "is_disabled": 0, "lon": -77.02502, "fusion_lon": 0.0, "is_reserved": 0, "fusion_lat": 0.0, "rental_uris": {"android": "https://dc.lft.to/lastmile_qr_scan", "ios": "https://dc.lft.to/lastmile_qr_scan"}, "type": "electric_scooter", "name": "8a7293284aff950c3cb91f044a39dee9"}, {"bike_id": "aff470c49923a12c4a3fb6a2bde5cd35", "lat": 38.919064666666664, "is_disabled": 0, "lon": -77.02489716666666, "fusion_lon": 0.0, "is_reserved": 0, "fusion_lat": 0.0, "rental_uris": {"android": "https://dc.lft.to/lastmile_qr_scan", "ios": "https://dc.lft.to/lastmile_qr_scan"}, "type": "electric_scooter", "name": "aff470c49923a12c4a3fb6a2bde5cd35"}, {"bike_id": "9b823b8d007d8c45570e964a0c516ec6", "lat": 38.897937, "is_disabled": 0, "lon": -77.04179016666667, "fusion_lon": 0.0, "is_reserved": 0, "fusion_lat": 0.0, "rental_uris": {"android": "https://dc.lft.to/lastmile_qr_scan", "ios": "https://dc.lft.to/lastmile_qr_scan"}, "type": "electric_scooter", "name": "9b823b8d007d8c45570e964a0c516ec6"}, {"bike_id": "c1d153b709c55ef7e45388449cedb0b1", "lat": 38.89014933333333, "is_disabled": 0, "lon": -76.93742633333333, "fusion_lon": 0.0, "is_reserved": 0, "fusion_lat": 0.0, "rental_uris": {"android": "https://dc.lft.to/lastmile_qr_scan", "ios": "https://dc.lft.to/lastmile_qr_scan"}, "type": "electric_scooter", "name": "c1d153b709c55ef7e45388449cedb0b1"}, {"bike_id": "3cfc61db3b5481160bae35a95982c77d", "lat": 38.933015833333336, "is_disabled": 0, "lon": -77.03258866666667, "fusion_lon": 0.0, "is_reserved": 0, "fusion_lat": 0.0, "rental_uris": {"android": "https://dc.lft.to/lastmile_qr_scan", "ios": "https://dc.lft.to/lastmile_qr_scan"}, "type": "electric_scooter", "name": "3cfc61db3b5481160bae35a95982c77d"}, {"bike_id": "136d77da006be090679261a568f7dfd4", "lat": 38.90519366666667, "is_disabled": 0, "lon": -77.04951816666667, "fusion_lon": 0.0, "is_reserved": 0, "fusion_lat": 0.0, "rental_uris": {"android": "https://dc.lft.to/lastmile_qr_scan", "ios": "https://dc.lft.to/lastmile_qr_scan"}, "type": "electric_scooter", "name": "136d77da006be090679261a568f7dfd4"}, {"bike_id": "cb0b0d023b3e7efbd6780dfa8e6ebad1", "lat": 38.91054283333333, "is_disabled": 0, "lon": -77.05022933333333, "fusion_lon": 0.0, "is_reserved": 0, "fusion_lat": 0.0, "rental_uris": {"android": "https://dc.lft.to/lastmile_qr_scan", "ios": "https://dc.lft.to/lastmile_qr_scan"}, "type": "electric_scooter", "name": "cb0b0d023b3e7efbd6780dfa8e6ebad1"}, {"bike_id": "3060206085d5356dffb8677faf9d1f3b", "lat": 38.875677333333336, "is_disabled": 0, "lon": -77.005768, "fusion_lon": 0.0, "is_reserved": 0, "fusion_lat": 0.0, "rental_uris": {"android": "https://dc.lft.to/lastmile_qr_scan", "ios": "https://dc.lft.to/lastmile_qr_scan"}, "type": "electric_scooter", "name": "3060206085d5356dffb8677faf9d1f3b"}, {"bike_id": "748bd3387f344ece9dd2f588938f45ef", "lat": 38.910350666666666, "is_disabled": 0, "lon": -76.98566483333333, "fusion_lon": 0.0, "is_reserved": 0, "fusion_lat": 0.0, "rental_uris": {"android": "https://dc.lft.to/lastmile_qr_scan", "ios": "https://dc.lft.to/lastmile_qr_scan"}, "type": "electric_scooter", "name": "748bd3387f344ece9dd2f588938f45ef"}, {"bike_id": "b6cf288b32ab8c4f369b2c4176faf0b0", "lat": 38.93429666666667, "is_disabled": 0, "lon": -77.03991516666666, "fusion_lon": 0.0, "is_reserved": 0, "fusion_lat": 0.0, "rental_uris": {"android": "https://dc.lft.to/lastmile_qr_scan", "ios": "https://dc.lft.to/lastmile_qr_scan"}, "type": "electric_scooter", "name": "b6cf288b32ab8c4f369b2c4176faf0b0"}, {"bike_id": "df3ede3faaf6126e026f69462abf9d07", "lat": 38.91280916666667, "is_disabled": 0, "lon": -77.0450945, "fusion_lon": 0.0, "is_reserved": 0, "fusion_lat": 0.0, "rental_uris": {"android": "https://dc.lft.to/lastmile_qr_scan", "ios": "https://dc.lft.to/lastmile_qr_scan"}, "type": "electric_scooter", "name": "df3ede3faaf6126e026f69462abf9d07"}, {"bike_id": "2f55b42b18f0d020239c4e1e2245f648", "lat": 38.86498433333333, "is_disabled": 0, "lon": -76.98985666666667, "fusion_lon": 0.0, "is_reserved": 0, "fusion_lat": 0.0, "rental_uris": {"android": "https://dc.lft.to/lastmile_qr_scan", "ios": "https://dc.lft.to/lastmile_qr_scan"}, "type": "electric_scooter", "name": "2f55b42b18f0d020239c4e1e2245f648"}, {"bike_id": "bc54027199887330f83438861557f128", "lat": 38.90095133333333, "is_disabled": 0, "lon": -77.02518383333333, "fusion_lon": 0.0, "is_reserved": 0, "fusion_lat": 0.0, "rental_uris": {"android": "https://dc.lft.to/lastmile_qr_scan", "ios": "https://dc.lft.to/lastmile_qr_scan"}, "type": "electric_scooter", "name": "bc54027199887330f83438861557f128"}, {"bike_id": "64068a41ed0248d07d5a1dd0936ee9af", "lat": 38.92033133333334, "is_disabled": 0, "lon": -77.01213433333334, "fusion_lon": 0.0, "is_reserved": 0, "fusion_lat": 0.0, "rental_uris": {"android": "https://dc.lft.to/lastmile_qr_scan", "ios": "https://dc.lft.to/lastmile_qr_scan"}, "type": "electric_scooter", "name": "64068a41ed0248d07d5a1dd0936ee9af"}, {"bike_id": "0e4b330961660f4ef7225ef7b7442bcf", "lat": 38.892232, "is_disabled": 0, "lon": -77.04859816666666, "fusion_lon": 0.0, "is_reserved": 0, "fusion_lat": 0.0, "rental_uris": {"android": "https://dc.lft.to/lastmile_qr_scan", "ios": "https://dc.lft.to/lastmile_qr_scan"}, "type": "electric_scooter", "name": "0e4b330961660f4ef7225ef7b7442bcf"}, {"bike_id": "a8102c7d235b0fe80b131d9286f3db83", "lat": 38.936875, "is_disabled": 0, "lon": -77.03621866666667, "fusion_lon": 0.0, "is_reserved": 0, "fusion_lat": 0.0, "rental_uris": {"android": "https://dc.lft.to/lastmile_qr_scan", "ios": "https://dc.lft.to/lastmile_qr_scan"}, "type": "electric_scooter", "name": "a8102c7d235b0fe80b131d9286f3db83"}, {"bike_id": "22bb47224432ef09f00a0c1ffcd5bb08", "lat": 38.90382683333333, "is_disabled": 0, "lon": -77.04759, "fusion_lon": 0.0, "is_reserved": 0, "fusion_lat": 0.0, "rental_uris": {"android": "https://dc.lft.to/lastmile_qr_scan", "ios": "https://dc.lft.to/lastmile_qr_scan"}, "type": "electric_scooter", "name": "22bb47224432ef09f00a0c1ffcd5bb08"}, {"bike_id": "24c553194f2cc2ae43c76ba92a9d0404", "lat": 38.919017833333335, "is_disabled": 0, "lon": -77.02099066666666, "fusion_lon": 0.0, "is_reserved": 0, "fusion_lat": 0.0, "rental_uris": {"android": "https://dc.lft.to/lastmile_qr_scan", "ios": "https://dc.lft.to/lastmile_qr_scan"}, "type": "electric_scooter", "name": "24c553194f2cc2ae43c76ba92a9d0404"}, {"bike_id": "321887a0cb0b19e21167a9911caab8af", "lat": 38.911945333333335, "is_disabled": 0, "lon": -76.98717483333333, "fusion_lon": 0.0, "is_reserved": 0, "fusion_lat": 0.0, "rental_uris": {"android": "https://dc.lft.to/lastmile_qr_scan", "ios": "https://dc.lft.to/lastmile_qr_scan"}, "type": "electric_scooter", "name": "321887a0cb0b19e21167a9911caab8af"}, {"bike_id": "e1d8bfac2d2138b91a60d472988cc2a3", "lat": 38.799838333333334, "is_disabled": 0, "lon": -77.12975733333333, "fusion_lon": 0.0, "is_reserved": 0, "fusion_lat": 0.0, "rental_uris": {"android": "https://dc.lft.to/lastmile_qr_scan", "ios": "https://dc.lft.to/lastmile_qr_scan"}, "type": "electric_bike", "name": "e1d8bfac2d2138b91a60d472988cc2a3"}, {"bike_id": "a74689a4ce45c2bd338a4e029c73744d", "lat": 38.89671366666666, "is_disabled": 0, "lon": -76.9330535, "fusion_lon": 0.0, "is_reserved": 0, "fusion_lat": 0.0, "rental_uris": {"android": "https://dc.lft.to/lastmile_qr_scan", "ios": "https://dc.lft.to/lastmile_qr_scan"}, "type": "electric_scooter", "name": "a74689a4ce45c2bd338a4e029c73744d"}, {"bike_id": "3c2e7c635bb328da9a11383b9dd4c434", "lat": 38.88593633333333, "is_disabled": 0, "lon": -77.017952, "fusion_lon": 0.0, "is_reserved": 0, "fusion_lat": 0.0, "rental_uris": {"android": "https://dc.lft.to/lastmile_qr_scan", "ios": "https://dc.lft.to/lastmile_qr_scan"}, "type": "electric_scooter", "name": "3c2e7c635bb328da9a11383b9dd4c434"}, {"bike_id": "c3cbb84dd8415005af50f4560b4d6e2a", "lat": 38.86654333333333, "is_disabled": 0, "lon": -76.98887116666667, "fusion_lon": 0.0, "is_reserved": 0, "fusion_lat": 0.0, "rental_uris": {"android": "https://dc.lft.to/lastmile_qr_scan", "ios": "https://dc.lft.to/lastmile_qr_scan"}, "type": "electric_scooter", "name": "c3cbb84dd8415005af50f4560b4d6e2a"}, {"bike_id": "042c5358112cbc3651085db1ab9bcb02", "lat": 38.89412166666666, "is_disabled": 0, "lon": -76.99946566666667, "fusion_lon": 0.0, "is_reserved": 0, "fusion_lat": 0.0, "rental_uris": {"android": "https://dc.lft.to/lastmile_qr_scan", "ios": "https://dc.lft.to/lastmile_qr_scan"}, "type": "electric_scooter", "name": "042c5358112cbc3651085db1ab9bcb02"}, {"bike_id": "f5a221120758372496ebc20c9bc7df87", "lat": 38.94409133333333, "is_disabled": 0, "lon": -77.05511083333333, "fusion_lon": 0.0, "is_reserved": 0, "fusion_lat": 0.0, "rental_uris": {"android": "https://dc.lft.to/lastmile_qr_scan", "ios": "https://dc.lft.to/lastmile_qr_scan"}, "type": "electric_bike", "name": "f5a221120758372496ebc20c9bc7df87"}, {"bike_id": "cae589b90db0306545125edf5d6aa869", "lat": 38.94509716666666, "is_disabled": 0, "lon": -77.033619, "fusion_lon": 0.0, "is_reserved": 0, "fusion_lat": 0.0, "rental_uris": {"android": "https://dc.lft.to/lastmile_qr_scan", "ios": "https://dc.lft.to/lastmile_qr_scan"}, "type": "electric_scooter", "name": "cae589b90db0306545125edf5d6aa869"}, {"bike_id": "738362ad2eaf6abcb824032c975fd861", "lat": 38.93419266666667, "is_disabled": 0, "lon": -77.039957, "fusion_lon": 0.0, "is_reserved": 0, "fusion_lat": 0.0, "rental_uris": {"android": "https://dc.lft.to/lastmile_qr_scan", "ios": "https://dc.lft.to/lastmile_qr_scan"}, "type": "electric_scooter", "name": "738362ad2eaf6abcb824032c975fd861"}, {"bike_id": "99087f0fcea8a6d9ca7e29bd7b0c70f4", "lat": 38.941796833333335, "is_disabled": 0, "lon": -77.0238155, "fusion_lon": 0.0, "is_reserved": 0, "fusion_lat": 0.0, "rental_uris": {"android": "https://dc.lft.to/lastmile_qr_scan", "ios": "https://dc.lft.to/lastmile_qr_scan"}, "type": "electric_scooter", "name": "99087f0fcea8a6d9ca7e29bd7b0c70f4"}, {"bike_id": "c40ce27cd5336a4d344e6cbe8b10b43f", "lat": 38.91746533333333, "is_disabled": 0, "lon": -77.03651833333333, "fusion_lon": 0.0, "is_reserved": 0, "fusion_lat": 0.0, "rental_uris": {"android": "https://dc.lft.to/lastmile_qr_scan", "ios": "https://dc.lft.to/lastmile_qr_scan"}, "type": "electric_scooter", "name": "c40ce27cd5336a4d344e6cbe8b10b43f"}, {"bike_id": "478b921cba232c4e4e11f62b68055555", "lat": 39.002897833333336, "is_disabled": 0, "lon": -76.90291916666666, "fusion_lon": 0.0, "is_reserved": 0, "fusion_lat": 0.0, "rental_uris": {"android": "https://dc.lft.to/lastmile_qr_scan", "ios": "https://dc.lft.to/lastmile_qr_scan"}, "type": "electric_bike", "name": "478b921cba232c4e4e11f62b68055555"},