{"data": {"bikes": [{"lat": 38.93098783333333, "fusion_lat": 0.0, "type": "electric_scooter", "bike_id": "c6dca8fd2ac736dbaf1443312de9b488", "rental_uris": {"ios": "https://dc.lft.to/lastmile_qr_scan", "android": "https://dc.lft.to/lastmile_qr_scan"}, "fusion_lon": 0.0, "lon": -77.02459633333333, "name": "c6dca8fd2ac736dbaf1443312de9b488", "is_reserved": 0, "is_disabled": 0}, {"lat": 38.91771716666667, "fusion_lat": 0.0, "type": "electric_scooter", "bike_id": "e13d257e1b90e2fce33627aa00c682e3", "rental_uris": {"ios": "https://dc.lft.to/lastmile_qr_scan", "android": "https://dc.lft.to/lastmile_qr_scan"}, "fusion_lon": 0.0, "lon": -77.01500416666667, "name": "e13d257e1b90e2fce33627aa00c682e3", "is_reserved": 0, "is_disabled": 0}, {"lat": 38.9004255, "fusion_lat": 0.0, "type": "electric_scooter", "bike_id": "df5b143fbf48e8f4ae52214b3671ca31", "rental_uris": {"ios": "https://dc.lft.to/lastmile_qr_scan", "android": "https://dc.lft.to/lastmile_qr_scan"}, "fusion_lon": 0.0, "lon": -77.04869266666667, "name": "df5b143fbf48e8f4ae52214b3671ca31", "is_reserved": 0, "is_disabled": 0}, {"lat": 38.902216833333334, "fusion_lat": 0.0, "type": "electric_scooter", "bike_id": "d0a372a887b46ba0a26a49642b566f07", "rental_uris": {"ios": "https://dc.lft.to/lastmile_qr_scan", "android": "https://dc.lft.to/lastmile_qr_scan"}, "fusion_lon": 0.0, "lon": -77.03388333333334, "name": "d0a372a887b46ba0a26a49642b566f07", "is_reserved": 0, "is_disabled": 0}, {"lat": 38.915508, "fusion_lat": 0.0, "type": "electric_scooter", "bike_id": "f5ee028a48fd9ca365de06e3007f17e1", "rental_uris": {"ios": "https://dc.lft.to/lastmile_qr_scan", "android": "https://dc.lft.to/lastmile_qr_scan"}, "fusion_lon": 0.0, "lon": -77.00706433333333, "name": "f5ee028a48fd9ca365de06e3007f17e1", "is_reserved": 0, "is_disabled": 0}, {"lat": 38.9279625, "fusion_lat": 0.0, "type": "electric_scooter", "bike_id": "b15933ce5d0b105672076b9594eddc09", "rental_uris": {"ios": "https://dc.lft.to/lastmile_qr_scan", "android": "https://dc.lft.to/lastmile_qr_scan"}, "fusion_lon": 0.0, "lon": -77.04058666666667, "name": "b15933ce5d0b105672076b9594eddc09", "is_reserved": 0, "is_disabled": 0}, {"lat": 38.9004665, "fusion_lat": 0.0, "type": "electric_scooter", "bike_id": "216b6f12b5a006fed4ca6ce133268e9c", "rental_uris": {"ios": "https://dc.lft.to/lastmile_qr_scan", "android": "https://dc.lft.to/lastmile_qr_scan"}, "fusion_lon": 0.0, "lon": -77.0295635, "name": "216b6f12b5a006fed4ca6ce133268e9c", "is_reserved": 0, "is_disabled": 0}, {"lat": 38.90088766666667, "fusion_lat": 0.0, "type": "electric_scooter", "bike_id": "ae0992d1415333c7be8a97ba0b5229a2", "rental_uris": {"ios": "https://dc.lft.to/lastmile_qr_scan", "android": "https://dc.lft.to/lastmile_qr_scan"}, "fusion_lon": 0.0, "lon": -77.0066165, "name": "ae0992d1415333c7be8a97ba0b5229a2", "is_reserved": 0, "is_disabled": 0}, {"lat": 38.917026666666665, "fusion_lat": 0.0, "type": "electric_scooter", "bike_id": "83859cfd585f20d37cbafe7910559c89", "rental_uris": {"ios": "https://dc.lft.to/lastmile_qr_scan", "android": "https://dc.lft.to/lastmile_qr_scan"}, "fusion_lon": 0.0, "lon": -77.02430566666666, "name": "83859cfd585f20d37cbafe7910559c89", "is_reserved": 0, "is_disabled": 0}, {"lat": 38.86384016666667, "fusion_lat": 0.0, "type": "electric_scooter", "bike_id": "d1797be44d015dd75aaa89555d5d9299", "rental_uris": {"ios": "https://dc.lft.to/lastmile_qr_scan", "android": "https://dc.lft.to/lastmile_qr_scan"}, "fusion_lon": 0.0, "lon": -76.99133033333334, "name": "d1797be44d015dd75aaa89555d5d9299", "is_reserved": 0, "is_disabled": 0}, {"lat": 38.939625666666664, "fusion_lat": 0.0, "type": "electric_scooter", "bike_id": "c5a84bbd62996815b37fb8982bb1a527", "rental_uris": {"ios": "https://dc.lft.to/lastmile_qr_scan", "android": "https://dc.lft.to/lastmile_qr_scan"}, "fusion_lon": 0.0, "lon": -77.0328365, "name": "c5a84bbd62996815b37fb8982bb1a527", "is_reserved": 0, "is_disabled": 0}, {"lat": 38.91403733333333, "fusion_lat": 0.0, "type": "electric_scooter", "bike_id": "42d1280c9ef9fc7182aa66e30885b618", "rental_uris": {"ios": "https://dc.lft.to/lastmile_qr_scan", "android": "https://dc.lft.to/lastmile_qr_scan"}, "fusion_lon": 0.0, "lon": -77.03219433333334, "name": "42d1280c9ef9fc7182aa66e30885b618", "is_reserved": 0, "is_disabled": 0}, {"lat": 38.92472, "fusion_lat": 0.0, "type": "electric_scooter", "bike_id": "517384154ef252b69ece12563db61bf5", "rental_uris": {"ios": "https://dc.lft.to/lastmile_qr_scan", "android": "https://dc.lft.to/lastmile_qr_scan"}, "fusion_lon": 0.0, "lon": -77.03920416666666, "name": "517384154ef252b69ece12563db61bf5", "is_reserved": 0, "is_disabled": 0}, {"lat": 38.8773435, "fusion_lat": 0.0, "type": "electric_scooter", "bike_id": "404a8d7b7e7b6d251009dbaebad99084", "rental_uris": {"ios": "https://dc.lft.to/lastmile_qr_scan", "android": "https://dc.lft.to/lastmile_qr_scan"}, "fusion_lon": 0.0, "lon": -76.99487866666666, "name": "404a8d7b7e7b6d251009dbaebad99084", "is_reserved": 0, "is_disabled": 0}, {"lat": 38.99002, "fusion_lat": 0.0, "type": "electric_bike", "bike_id": "294b20f169780b9dae04e405ee82cac3", "rental_uris": {"ios": "https://dc.lft.to/lastmile_qr_scan", "android": "https://dc.lft.to/lastmile_qr_scan"}, "fusion_lon": 0.0, "lon": -77.0044875, "name": "294b20f169780b9dae04e405ee82cac3", "is_reserved": 0, "is_disabled": 0}, {"lat": 38.91856516666667, "fusion_lat": 0.0, "type": "electric_scooter", "bike_id": "9169976f66b024a3e65680541db1209b", "rental_uris": {"ios": "https://dc.lft.to/lastmile_qr_scan", "android": "https://dc.lft.to/lastmile_qr_scan"}, "fusion_lon": 0.0, "lon": -77.0135655, "name": "9169976f66b024a3e65680541db1209b", "is_reserved": 0, "is_disabled": 0}, {"lat": 38.90363383333333, "fusion_lat": 0.0, "type": "electric_scooter", "bike_id": "9a719d79fc15324ff3d3fa33b6a42734", "rental_uris": {"ios": "https://dc.lft.to/lastmile_qr_scan", "android": "https://dc.lft.to/lastmile_qr_scan"}, "fusion_lon": 0.0, "lon": -77.021953, "name": "9a719d79fc15324ff3d3fa33b6a42734", "is_reserved": 0, "is_disabled": 0}, {"lat": 38.94198433333333, "fusion_lat": 0.0, "type": "electric_scooter", "bike_id": "0382fdabd4fde4dad655b92877d8889a", "rental_uris": {"ios": "https://dc.lft.to/lastmile_qr_scan", "android": "https://dc.lft.to/lastmile_qr_scan"}, "fusion_lon": 0.0, "lon": -77.02480883333334, "name": "0382fdabd4fde4dad655b92877d8889a", "is_reserved": 0, "is_disabled": 0}, {"lat": 38.90774183333333, "fusion_lat": 0.0, "type": "electric_scooter", "bike_id": "92602da834fa0af2ba72f14d9a464e50", "rental_uris": {"ios": "https://dc.lft.to/lastmile_qr_scan", "android": "https://dc.lft.to/lastmile_qr_scan"}, "fusion_lon": 0.0, "lon": -77.03842166666666, "name": "92602da834fa0af2ba72f14d9a464e50", "is_reserved": 0, "is_disabled": 0}, {"lat": 38.92338983333333, "fusion_lat": 0.0, "type": "electric_scooter", "bike_id": "89bca63efcaf703036d67a186b8f7a71", "rental_uris": {"ios": "https://dc.lft.to/lastmile_qr_scan", "android": "https://dc.lft.to/lastmile_qr_scan"}, "fusion_lon": 0.0, "lon": -77.03538733333333, "name": "89bca63efcaf703036d67a186b8f7a71", "is_reserved": 0, "is_disabled": 0}, {"lat": 38.918025666666665, "fusion_lat": 0.0, "type": "electric_scooter", "bike_id": "967d995b9e26db885144954226c2ba0c", "rental_uris": {"ios": "https://dc.lft.to/lastmile_qr_scan", "android": "https://dc.lft.to/lastmile_qr_scan"}, "fusion_lon": 0.0, "lon": -77.03447716666666, "name": "967d995b9e26db885144954226c2ba0c", "is_reserved": 0, "is_disabled": 0}, {"lat": 38.907370666666665, "fusion_lat": 0.0, "type": "electric_scooter", "bike_id": "5cc387d8eba243887b24c3fb1939f232", "rental_uris": {"ios": "https://dc.lft.to/lastmile_qr_scan", "android": "https://dc.lft.to/lastmile_qr_scan"}, "fusion_lon": 0.0, "lon": -77.04486433333334, "name": "5cc387d8eba243887b24c3fb1939f232", "is_reserved": 0, "is_disabled": 0}, {"lat": 38.91998916666667, "fusion_lat": 0.0, "type": "electric_scooter", "bike_id": "0a300b25b540a582f3b3b83f6b5cb53b", "rental_uris": {"ios": "https://dc.lft.to/lastmile_qr_scan", "android": "https://dc.lft.to/lastmile_qr_scan"}, "fusion_lon": 0.0, "lon": -77.04763516666667, "name": "0a300b25b540a582f3b3b83f6b5cb53b", "is_reserved": 0, "is_disabled": 0}, {"lat": 38.92301466666667, "fusion_lat": 0.0, "type": "electric_scooter", "bike_id": "7cf1511d30c3c2aacb7f34f62bf9a763", "rental_uris": {"ios": "https://dc.lft.to/lastmile_qr_scan", "android": "https://dc.lft.to/lastmile_qr_scan"}, "fusion_lon": 0.0, "lon": -77.02326816666667, "name": "7cf1511d30c3c2aacb7f34f62bf9a763", "is_reserved": 0, "is_disabled": 0}, {"lat": 38.899415, "fusion_lat": 0.0, "type": "electric_scooter", "bike_id": "164376ba252838c1dbbd49a2785afa1f", "rental_uris": {"ios": "https://dc.lft.to/lastmile_qr_scan", "android": "https://dc.lft.to/lastmile_qr_scan"}, "fusion_lon": 0.0, "lon": -77.02945433333333, "name": "164376ba252838c1dbbd49a2785afa1f", "is_reserved": 0, "is_disabled": 0}, {"lat": 38.88655133333334, "fusion_lat": 0.0, "type": "electric_scooter", "bike_id": "3f33743875de1dd68ddd22df35f8cfdd", "rental_uris": {"ios": "https://dc.lft.to/lastmile_qr_scan", "android": "https://dc.lft.to/lastmile_qr_scan"}, "fusion_lon": 0.0, "lon": -77.03388833333334, "name": "3f33743875de1dd68ddd22df35f8cfdd", "is_reserved": 0, "is_disabled": 0}, {"lat": 38.942865166666664, "fusion_lat": 0.0, "type": "electric_scooter", "bike_id": "c14170c9cbc9832a38aec39bf5d603a7", "rental_uris": {"ios": "https://dc.lft.to/lastmile_qr_scan", "android": "https://dc.lft.to/lastmile_qr_scan"}, "fusion_lon": 0.0, "lon": -77.02176666666666, "name": "c14170c9cbc9832a38aec39bf5d603a7", "is_reserved": 0, "is_disabled": 0}, {"lat": 38.88107883333333, "fusion_lat": 0.0, "type": "electric_scooter", "bike_id": "61703393e2ed01e4acdbcca6955b959b", "rental_uris": {"ios": "https://dc.lft.to/lastmile_qr_scan", "android": "https://dc.lft.to/lastmile_qr_scan"}, "fusion_lon": 0.0, "lon": -77.01673766666667, "name": "61703393e2ed01e4acdbcca6955b959b", "is_reserved": 0, "is_disabled": 0}, {"lat": 38.93177266666667, "fusion_lat": 0.0, "type": "electric_scooter", "bike_id": "8675f7c177690837d7ab45187dc43ad1", "rental_uris": {"ios": "https://dc.lft.to/lastmile_qr_scan", "android": "https://dc.lft.to/lastmile_qr_scan"}, "fusion_lon": 0.0, "lon": -77.04294916666667, "name": "8675f7c177690837d7ab45187dc43ad1", "is_reserved": 0, "is_disabled": 0}, {"lat": 38.902567833333336, "fusion_lat": 0.0, "type": "electric_scooter", "bike_id": "3b92440f3a9c07458e8ff61cfd309ba8", "rental_uris": {"ios": "https://dc.lft.to/lastmile_qr_scan", "android": "https://dc.lft.to/lastmile_qr_scan"}, "fusion_lon": 0.0, "lon": -77.06277716666666, "name": "3b92440f3a9c07458e8ff61cfd309ba8", "is_reserved": 0, "is_disabled": 0}, {"lat": 38.92230383333333, "fusion_lat": 0.0, "type": "electric_scooter", "bike_id": "ac4719990147222c90971805e6162a5f", "rental_uris": {"ios": "https://dc.lft.to/lastmile_qr_scan", "android": "https://dc.lft.to/lastmile_qr_scan"}, "fusion_lon": 0.0, "lon": -77.04340033333334, "name": "ac4719990147222c90971805e6162a5f", "is_reserved": 0, "is_disabled": 0}, {"lat": 38.9223805, "fusion_lat": 0.0, "type": "electric_scooter", "bike_id": "a46efa0c1472a7e822d52848c9505492", "rental_uris": {"ios": "https://dc.lft.to/lastmile_qr_scan", "android": "https://dc.lft.to/lastmile_qr_scan"}, "fusion_lon": 0.0, "lon": -77.01827733333333, "name": "a46efa0c1472a7e822d52848c9505492", "is_reserved": 0, "is_disabled": 0}, {"lat": 38.90466583333333, "fusion_lat": 0.0, "type": "electric_scooter", "bike_id": "9a5b38fb9a06ef75c03c05006cf15fc0", "rental_uris": {"ios": "https://dc.lft.to/lastmile_qr_scan", "android": "https://dc.lft.to/lastmile_qr_scan"}, "fusion_lon": 0.0, "lon": -76.9950145, "name": "9a5b38fb9a06ef75c03c05006cf15fc0", "is_reserved": 0, "is_disabled": 0}, {"lat": 38.911532666666666, "fusion_lat": 0.0, "type": "electric_scooter", "bike_id": "4857fe2501244510f3e987cc6aaf838c", "rental_uris": {"ios": "https://dc.lft.to/lastmile_qr_scan", "android": "https://dc.lft.to/lastmile_qr_scan"}, "fusion_lon": 0.0, "lon": -77.01983633333333, "name": "4857fe2501244510f3e987cc6aaf838c", "is_reserved": 0, "is_disabled": 0}, {"lat": 38.91888133333333, "fusion_lat": 0.0, "type": "electric_scooter", "bike_id": "31fff4676a4b1a529a259843a304284d", "rental_uris": {"ios": "https://dc.lft.to/lastmile_qr_scan", "android": "https://dc.lft.to/lastmile_qr_scan"}, "fusion_lon": 0.0, "lon": -77.038308, "name": "31fff4676a4b1a529a259843a304284d", "is_reserved": 0, "is_disabled": 0}, {"lat": 38.93472383333334, "fusion_lat": 0.0, "type": "electric_scooter", "bike_id": "9e6092bcef910245b448b581ddd4deeb", "rental_uris": {"ios": "https://dc.lft.to/lastmile_qr_scan", "android": "https://dc.lft.to/lastmile_qr_scan"}, "fusion_lon": 0.0, "lon": -77.0727685, "name": "9e6092bcef910245b448b581ddd4deeb", "is_reserved": 0, "is_disabled": 0}, {"lat": 38.879574166666664, "fusion_lat": 0.0, "type": "electric_scooter", "bike_id": "3a883f9e717800118a1d606f92695547", "rental_uris": {"ios": "https://dc.lft.to/lastmile_qr_scan", "android": "https://dc.lft.to/lastmile_qr_scan"}, "fusion_lon": 0.0, "lon": -76.99505433333333, "name": "3a883f9e717800118a1d606f92695547", "is_reserved": 0, "is_disabled": 0}, {"lat": 38.93465833333333, "fusion_lat": 0.0, "type": "electric_scooter", "bike_id": "19254f423fb0cc0e6bfae88172ba4b78", "rental_uris": {"ios": "https://dc.lft.to/lastmile_qr_scan", "android": "https://dc.lft.to/lastmile_qr_scan"}, "fusion_lon": 0.0, "lon": -77.07275833333334, "name": "19254f423fb0cc0e6bfae88172ba4b78", "is_reserved": 0, "is_disabled": 0}, {"lat": 38.91959633333333, "fusion_lat": 0.0, "type": "electric_scooter", "bike_id": "616907843b308d89b3cf1b0bfc78ac62", "rental_uris": {"ios": "https://dc.lft.to/lastmile_qr_scan", "android": "https://dc.lft.to/lastmile_qr_scan"}, "fusion_lon": 0.0, "lon": -77.02367383333333, "name": "616907843b308d89b3cf1b0bfc78ac62", "is_reserved": 0, "is_disabled": 0}, {"lat": 38.92071266666667, "fusion_lat": 0.0, "type": "electric_scooter", "bike_id": "9105267b8440abb158096774c4138b37", "rental_uris": {"ios": "https://dc.lft.to/lastmile_qr_scan", "android": "https://dc.lft.to/lastmile_qr_scan"}, "fusion_lon": 0.0, "lon": -77.024093, "name": "9105267b8440abb158096774c4138b37", "is_reserved": 0, "is_disabled": 0}, {"lat": 38.90960283333333, "fusion_lat": 0.0, "type": "electric_scooter", "bike_id": "5308d38aae3c71282f0111d856fdbc85", "rental_uris": {"ios": "https://dc.lft.to/lastmile_qr_scan", "android": "https://dc.lft.to/lastmile_qr_scan"}, "fusion_lon": 0.0, "lon": -77.03263816666667, "name": "5308d38aae3c71282f0111d856fdbc85", "is_reserved": 0, "is_disabled": 0}, {"lat": 38.924860333333335, "fusion_lat": 0.0, "type": "electric_scooter", "bike_id": "ad83c30b002029eb64928b99dbe3ab12", "rental_uris": {"ios": "https://dc.lft.to/lastmile_qr_scan", "android": "https://dc.lft.to/lastmile_qr_scan"}, "fusion_lon": 0.0, "lon": -77.0521495, "name": "ad83c30b002029eb64928b99dbe3ab12", "is_reserved": 0, "is_disabled": 0}, {"lat": 38.819138, "fusion_lat": 0.0, "type": "electric_bike", "bike_id": "886031dfabeccaace61db5df63b6aaeb", "rental_uris": {"ios": "https://dc.lft.to/lastmile_qr_scan", "android": "https://dc.lft.to/lastmile_qr_scan"}, "fusion_lon": 0.0, "lon": -77.12655533333333, "name": "886031dfabeccaace61db5df63b6aaeb", "is_reserved": 0, "is_disabled": 0}, {"lat": 38.937013, "fusion_lat": 0.0, "type": "electric_scooter", "bike_id": "ef73c6a218a6cbdae1b63d24344ff692", "rental_uris": {"ios": "https://dc.lft.to/lastmile_qr_scan", "android": "https://dc.lft.to/lastmile_qr_scan"}, "fusion_lon": 0.0, "lon": -77.08964966666667, "name": "ef73c6a218a6cbdae1b63d24344ff692", "is_reserved": 0, "is_disabled": 0}, {"lat": 38.918789, "fusion_lat": 0.0, "type": "electric_scooter", "bike_id": "7612c59deaae5cf51410d4d2b74ef165", "rental_uris": {"ios": "https://dc.lft.to/lastmile_qr_scan", "android": "https://dc.lft.to/lastmile_qr_scan"}, "fusion_lon": 0.0, "lon": -77.03554916666667, "name": "7612c59deaae5cf51410d4d2b74ef165", "is_reserved": 0, "is_disabled": 0}, {"lat": 38.898012666666666, "fusion_lat": 0.0, "type": "electric_scooter", "bike_id": "0fd7553f4775d1d27963754a755959fb", "rental_uris": {"ios": "https://dc.lft.to/lastmile_qr_scan", "android": "https://dc.lft.to/lastmile_qr_scan"}, "fusion_lon": 0.0, "lon": -77.0277935, "name": "0fd7553f4775d1d27963754a755959fb", "is_reserved": 0, "is_disabled": 0}, {"lat": 38.86502216666667, "fusion_lat": 0.0, "type": "electric_bike", "bike_id": "cf33b2b057b5aa4752cd32bd08448084", "rental_uris": {"ios": "https://dc.lft.to/lastmile_qr_scan", "android": "https://dc.lft.to/lastmile_qr_scan"}, "fusion_lon": 0.0, "lon": -77.07674233333333, "name": "cf33b2b057b5aa4752cd32bd08448084", "is_reserved": 0, "is_disabled": 0}, {"lat": 38.89192416666667, "fusion_lat": 0.0, "type": "electric_scooter", "bike_id": "e64bcd0f1841af7834687a3fc35ae5a3", "rental_uris": {"ios": "https://dc.lft.to/lastmile_qr_scan", "android": "https://dc.lft.to/lastmile_qr_scan"}, "fusion_lon": 0.0, "lon": -76.99855633333334, "name": "e64bcd0f1841af7834687a3fc35ae5a3", "is_reserved": 0, "is_disabled": 0}, {"lat": 38.9203795, "fusion_lat": 0.0, "type": "electric_scooter", "bike_id": "6012937fe3de4f056f5541b32a2eafa4", "rental_uris": {"ios": "https://dc.lft.to/lastmile_qr_scan", "android": "https://dc.lft.to/lastmile_qr_scan"}, "fusion_lon": 0.0, "lon": -77.02397633333334, "name": "6012937fe3de4f056f5541b32a2eafa4", "is_reserved": 0, "is_disabled": 0}, {"lat": 38.90816, "fusion_lat": 0.0, "type": "electric_scooter", "bike_id": "29d2eb447a2746ce523ae95e84b7e4e0", "rental_uris": {"ios": "https://dc.lft.to/lastmile_qr_scan", "android": "https://dc.lft.to/lastmile_qr_scan"}, "fusion_lon": 0.0, "lon": -77.0426135, "name": "29d2eb447a2746ce523ae95e84b7e4e0", "is_reserved": 0, "is_disabled": 0}, {"lat": 38.92599383333334, "fusion_lat": 0.0, "type": "electric_scooter", "bike_id": "284409506fa56056d651610b1595640d", "rental_uris": {"ios": "https://dc.lft.to/lastmile_qr_scan", "android": "https://dc.lft.to/lastmile_qr_scan"}, "fusion_lon": 0.0, "lon": -77.03990766666666, "name": "284409506fa56056d651610b1595640d", "is_reserved": 0, "is_disabled": 0}, {"lat": 38.918745, "fusion_lat": 0.0, "type": "electric_scooter", "bike_id": "b721c063bd71e85899e85e52770d4d8d", "rental_uris": {"ios": "https://dc.lft.to/lastmile_qr_scan", "android": "https://dc.lft.to/lastmile_qr_scan"}, "fusion_lon": 0.0, "lon": -77.03503, "name": "b721c063bd71e85899e85e52770d4d8d", "is_reserved": 0, "is_disabled": 0}, {"lat": 38.90037733333333, "fusion_lat": 0.0, "type": "electric_scooter", "bike_id": "ab91300f1b95c96c82eff39f1025ff98", "rental_uris": {"ios": "https://dc.lft.to/lastmile_qr_scan", "android": "https://dc.lft.to/lastmile_qr_scan"}, "fusion_lon": 0.0, "lon": -77.04860416666666, "name": "ab91300f1b95c96c82eff39f1025ff98", "is_reserved": 0, "is_disabled": 0}, {"lat": 38.902391333333334, "fusion_lat": 0.0, "type": "electric_scooter", "bike_id": "ce24a7035b3d1616418a54de157a7289", "rental_uris": {"ios": "https://dc.lft.to/lastmile_qr_scan", "android": "https://dc.lft.to/lastmile_qr_scan"}, "fusion_lon": 0.0, "lon": -77.0020415, "name": "ce24a7035b3d1616418a54de157a7289", "is_reserved": 0, "is_disabled": 0}, {"lat": 38.905112, "fusion_lat": 0.0, "type": "electric_scooter", "bike_id": "76651bdb8e6fdaec04bb89c5587528b7", "rental_uris": {"ios": "https://dc.lft.to/lastmile_qr_scan", "android": "https://dc.lft.to/lastmile_qr_scan"}, "fusion_lon": 0.0, "lon": -77.05120866666667, "name": "76651bdb8e6fdaec04bb89c5587528b7", "is_reserved": 0, "is_disabled": 0}, {"lat": 38.90576166666666, "fusion_lat": 0.0, "type": "electric_scooter", "bike_id": "6aa504c9e79777aa81e7610db3455b9a", "rental_uris": {"ios": "https://dc.lft.to/lastmile_qr_scan", "android": "https://dc.lft.to/lastmile_qr_scan"}, "fusion_lon": 0.0, "lon": -77.02204966666666, "name": "6aa504c9e79777aa81e7610db3455b9a", "is_reserved": 0, "is_disabled": 0}, {"lat": 38.92076566666667, "fusion_lat": 0.0, "type": "electric_scooter", "bike_id": "f7397d8327fa61defaa454d7a754aa20", "rental_uris": {"ios": "https://dc.lft.to/lastmile_qr_scan", "android": "https://dc.lft.to/lastmile_qr_scan"}, "fusion_lon": 0.0, "lon": -77.07464516666667, "name": "f7397d8327fa61defaa454d7a754aa20", "is_reserved": 0, "is_disabled": 0}, {"lat": 38.95086916666666, "fusion_lat": 0.0, "type": "electric_bike", "bike_id": "d89e370bfd820c23890ed7e9a7e05d1d", "rental_uris": {"ios": "https://dc.lft.to/lastmile_qr_scan", "android": "https://dc.lft.to/lastmile_qr_scan"}, "fusion_lon": 0.0, "lon": -77.06665283333334, "name": "d89e370bfd820c23890ed7e9a7e05d1d", "is_reserved": 0, "is_disabled": 0}, {"lat": 38.9205585, "fusion_lat": 0.0, "type": "electric_bike", "bike_id": "722a3adfa3a23594ad409f9228266be8", "rental_uris": {"ios": "https://dc.lft.to/lastmile_qr_scan", "android": "https://dc.lft.to/lastmile_qr_scan"}, "fusion_lon": 0.0, "lon": -77.0332125, "name": "722a3adfa3a23594ad409f9228266be8", "is_reserved": 0, "is_disabled": 0}, {"lat": 38.887288166666664, "fusion_lat": 0.0, "type": "electric_scooter", "bike_id": "699c183be13ac4dc746b5ea26d8a31c1", "rental_uris": {"ios": "https://dc.lft.to/lastmile_qr_scan", "android": "https://dc.lft.to/lastmile_qr_scan"}, "fusion_lon": 0.0, "lon": -76.98368116666667, "name": "699c183be13ac4dc746b5ea26d8a31c1", "is_reserved": 0, "is_disabled": 0}, {"lat": 38.9234365, "fusion_lat": 0.0, "type": "electric_scooter", "bike_id": "57f8109d77eec0b15c8362d349342a9e", "rental_uris": {"ios": "https://dc.lft.to/lastmile_qr_scan", "android": "https://dc.lft.to/lastmile_qr_scan"}, "fusion_lon": 0.0, "lon": -77.0517955, "name": "57f8109d77eec0b15c8362d349342a9e", "is_reserved": 0, "is_disabled": 0}, {"lat": 38.8841545, "fusion_lat": 0.0, "type": "electric_scooter", "bike_id": "f6f221b007d2dbbd95869a5bf8ad2511", "rental_uris": {"ios": "https://dc.lft.to/lastmile_qr_scan", "android": "https://dc.lft.to/lastmile_qr_scan"}, "fusion_lon": 0.0, "lon": -76.942135, "name": "f6f221b007d2dbbd95869a5bf8ad2511", "is_reserved": 0, "is_disabled": 0}, {"lat": 38.948885833333335, "fusion_lat": 0.0, "type": "electric_scooter", "bike_id": "2dde93704425c54d1f963d5357c7ba3f", "rental_uris": {"ios": "https://dc.lft.to/lastmile_qr_scan", "android": "https://dc.lft.to/lastmile_qr_scan"}, "fusion_lon": 0.0, "lon": -77.01852966666667, "name": "2dde93704425c54d1f963d5357c7ba3f", "is_reserved": 0, "is_disabled": 0}, {"lat": 38.882588166666665, "fusion_lat": 0.0, "type": "electric_scooter", "bike_id": "a14fefa892f8f46c6cade7faaa0391f9", "rental_uris": {"ios": "https://dc.lft.to/lastmile_qr_scan", "android": "https://dc.lft.to/lastmile_qr_scan"}, "fusion_lon": 0.0, "lon": -76.99610033333333, "name": "a14fefa892f8f46c6cade7faaa0391f9", "is_reserved": 0, "is_disabled": 0}, {"lat": 38.86214, "fusion_lat": 0.0, "type": "electric_scooter", "bike_id": "3c2db251787c6ff84a6d3f458ccd36a1", "rental_uris": {"ios": "https://dc.lft.to/lastmile_qr_scan", "android": "https://dc.lft.to/lastmile_qr_scan"}, "fusion_lon": 0.0, "lon": -76.99446533333334, "name": "3c2db251787c6ff84a6d3f458ccd36a1", "is_reserved": 0, "is_disabled": 0}, {"lat": 38.907773, "fusion_lat": 0.0, "type": "electric_scooter", "bike_id": "717bd1b9f7866f4ede52289c3e677095", "rental_uris": {"ios": "https://dc.lft.to/lastmile_qr_scan", "android": "https://dc.lft.to/lastmile_qr_scan"}, "fusion_lon": 0.0, "lon": -77.029615, "name": "717bd1b9f7866f4ede52289c3e677095", "is_reserved": 0, "is_disabled": 0}, {"lat": 38.90276266666667, "fusion_lat": 0.0, "type": "electric_scooter", "bike_id": "8092132660b1c9447942774d568e937b", "rental_uris": {"ios": "https://dc.lft.to/lastmile_qr_scan", "android": "https://dc.lft.to/lastmile_qr_scan"}, "fusion_lon": 0.0, "lon": -77.038532, "name": "8092132660b1c9447942774d568e937b", "is_reserved": 0, "is_disabled": 0}, {"lat": 38.899714833333334, "fusion_lat": 0.0, "type": "electric_scooter", "bike_id": "7272a67a9f34ddf2d6c6ba22a5f7846f", "rental_uris": {"ios": "https://dc.lft.to/lastmile_qr_scan", "android": "https://dc.lft.to/lastmile_qr_scan"}, "fusion_lon": 0.0, "lon": -76.99514016666667, "name": "7272a67a9f34ddf2d6c6ba22a5f7846f", "is_reserved": 0, "is_disabled": 0}, {"lat": 38.917205, "fusion_lat": 0.0, "type": "electric_scooter", "bike_id": "6b6539b1c095f8042889617a8004561d", "rental_uris": {"ios": "https://dc.lft.to/lastmile_qr_scan", "android": "https://dc.lft.to/lastmile_qr_scan"}, "fusion_lon": 0.0, "lon": -77.04090816666667, "name": "6b6539b1c095f8042889617a8004561d", "is_reserved": 0, "is_disabled": 0}, {"lat": 38.90730283333333, "fusion_lat": 0.0, "type": "electric_scooter", "bike_id": "33fe38f945968479ab19bccba3eac62c", "rental_uris": {"ios": "https://dc.lft.to/lastmile_qr_scan", "android": "https://dc.lft.to/lastmile_qr_scan"}, "fusion_lon": 0.0, "lon": -77.011342, "name": "33fe38f945968479ab19bccba3eac62c", "is_reserved": 0, "is_disabled": 0}, {"lat": 38.898317166666665, "fusion_lat": 0.0, "type": "electric_scooter", "bike_id": "2e7e4455507559647c04d948f3650480", "rental_uris": {"ios": "https://dc.lft.to/lastmile_qr_scan", "android": "https://dc.lft.to/lastmile_qr_scan"}, "fusion_lon": 0.0, "lon": -77.050377, "name": "2e7e4455507559647c04d948f3650480", "is_reserved": 0, "is_disabled": 0}, {"lat": 38.848333, "fusion_lat": 0.0, "type": "electric_bike", "bike_id": "49af9ce52957b27b6c568704b9632f17", "rental_uris": {"ios": "https://dc.lft.to/lastmile_qr_scan", "android": "https://dc.lft.to/lastmile_qr_scan"}, "fusion_lon": 0.0, "lon": -77.07908233333333, "name": "49af9ce52957b27b6c568704b9632f17", "is_reserved": 0, "is_disabled": 0}, {"lat": 38.92841816666667, "fusion_lat": 0.0, "type": "electric_scooter", "bike_id": "2608e4daea4cfa42f898a0e84657ad81", "rental_uris": {"ios": "https://dc.lft.to/lastmile_qr_scan", "android": "https://dc.lft.to/lastmile_qr_scan"}, "fusion_lon": 0.0, "lon": -77.02017316666667, "name": "2608e4daea4cfa42f898a0e84657ad81", "is_reserved": 0, "is_disabled": 0}, {"lat": 38.943121, "fusion_lat": 0.0, "type": "electric_scooter", "bike_id": "b7df7fb902f89d837000f9cb9a9788f7", "rental_uris": {"ios": "https://dc.lft.to/lastmile_qr_scan", "android": "https://dc.lft.to/lastmile_qr_scan"}, "fusion_lon": 0.0, "lon": -77.02495583333334, "name": "b7df7fb902f89d837000f9cb9a9788f7", "is_reserved": 0, "is_disabled": 0}, {"lat": 38.9225885, "fusion_lat": 0.0, "type": "electric_scooter", "bike_id": "65a065b71dc9bb3012a47664a567222e", "rental_uris": {"ios": "https://dc.lft.to/lastmile_qr_scan", "android": "https://dc.lft.to/lastmile_qr_scan"}, "fusion_lon": 0.0, "lon": -77.036858, "name": "65a065b71dc9bb3012a47664a567222e", "is_reserved": 0, "is_disabled": 0}, {"lat": 38.96185416666667, "fusion_lat": 0.0, "type": "electric_bike", "bike_id": "2154935fd3b3f6c1a3a25c418237db56", "rental_uris": {"ios": "https://dc.lft.to/lastmile_qr_scan", "android": "https://dc.lft.to/lastmile_qr_scan"}, "fusion_lon": 0.0, "lon": -77.052728, "name": "2154935fd3b3f6c1a3a25c418237db56", "is_reserved": 0, "is_disabled": 0}, {"lat": 38.884946666666664, "fusion_lat": 0.0, "type": "electric_scooter", "bike_id": "37fc0fa10a23362be0d353a8c0223234", "rental_uris": {"ios": "https://dc.lft.to/lastmile_qr_scan", "android": "https://dc.lft.to/lastmile_qr_scan"}, "fusion_lon": 0.0, "lon": -76.98064633333334, "name": "37fc0fa10a23362be0d353a8c0223234", "is_reserved": 0, "is_disabled": 0}, {"lat": 38.9182, "fusion_lat": 0.0, "type": "electric_scooter", "bike_id": "1c0ae6ada358ee0395d86c95e5ed987c", "rental_uris": {"ios": "https://dc.lft.to/lastmile_qr_scan", "android": "https://dc.lft.to/lastmile_qr_scan"}, "fusion_lon": 0.0, "lon": -77.03459083333334, "name": "1c0ae6ada358ee0395d86c95e5ed987c", "is_reserved": 0, "is_disabled": 0}, {"lat": 38.93063683333333, "fusion_lat": 0.0, "type": "electric_scooter", "bike_id": "c31bd332a8b88e6da9291abda3ac1760", "rental_uris": {"ios": "https://dc.lft.to/lastmile_qr_scan", "android": "https://dc.lft.to/lastmile_qr_scan"}, "fusion_lon": 0.0, "lon": -77.03818383333333, "name": "c31bd332a8b88e6da9291abda3ac1760", "is_reserved": 0, "is_disabled": 0}, {"lat": 38.905734333333335, "fusion_lat": 0.0, "type": "electric_scooter", "bike_id": "f7a7bc0620e20f1e72840565f887a3f3", "rental_uris": {"ios": "https://dc.lft.to/lastmile_qr_scan", "android": "https://dc.lft.to/lastmile_qr_scan"}, "fusion_lon": 0.0, "lon": -77.0058525, "name": "f7a7bc0620e20f1e72840565f887a3f3", "is_reserved": 0, "is_disabled": 0}, {"lat": 38.927922833333334, "fusion_lat": 0.0, "type": "electric_scooter", "bike_id": "365e15657aab5c1fd056b7c716cc8c93", "rental_uris": {"ios": "https://dc.lft.to/lastmile_qr_scan", "android": "https://dc.lft.to/lastmile_qr_scan"}, "fusion_lon": 0.0, "lon": -77.02725366666667, "name": "365e15657aab5c1fd056b7c716cc8c93", "is_reserved": 0, "is_disabled": 0}, {"lat": 38.904763833333334, "fusion_lat": 0.0, "type": "electric_scooter", "bike_id": "b0588780b0617fc65bf4fd3ade0123f8", "rental_uris": {"ios": "https://dc.lft.to/lastmile_qr_scan", "android": "https://dc.lft.to/lastmile_qr_scan"}, "fusion_lon": 0.0, "lon": -77.0210615, "name": "b0588780b0617fc65bf4fd3ade0123f8", "is_reserved": 0, "is_disabled": 0}, {"lat": 38.908265666666665, "fusion_lat": 0.0, "type": "electric_scooter", "bike_id": "4909d30ec3a6c7384bc6324e3e261231", "rental_uris": {"ios": "https://dc.lft.to/lastmile_qr_scan", "android": "https://dc.lft.to/lastmile_qr_scan"}, "fusion_lon": 0.0, "lon": -77.034628, "name": "4909d30ec3a6c7384bc6324e3e261231", "is_reserved": 0, "is_disabled": 0}, {"lat": 38.934472666666665, "fusion_lat": 0.0, "type": "electric_scooter", "bike_id": "ac0e3e7ca551083aea7bf6fe4ad7e8fe", "rental_uris": {"ios": "https://dc.lft.to/lastmile_qr_scan", "android": "https://dc.lft.to/lastmile_qr_scan"}, "fusion_lon": 0.0, "lon": -76.99718516666667, "name": "ac0e3e7ca551083aea7bf6fe4ad7e8fe", "is_reserved": 0, "is_disabled": 0}, {"lat": 38.9056565, "fusion_lat": 0.0, "type": "electric_scooter", "bike_id": "2cbb134a9f293f02448cf68e8f000499", "rental_uris": {"ios": "https://dc.lft.to/lastmile_qr_scan", "android": "https://dc.lft.to/lastmile_qr_scan"}, "fusion_lon": 0.0, "lon": -77.0345405, "name": "2cbb134a9f293f02448cf68e8f000499", "is_reserved": 0, "is_disabled": 0}, {"lat": 38.91683316666666, "fusion_lat": 0.0, "type": "electric_scooter", "bike_id": "64c7ac2b55ad90960595c45ccb7d790a", "rental_uris": {"ios": "https://dc.lft.to/lastmile_qr_scan", "android": "https://dc.lft.to/lastmile_qr_scan"}, "fusion_lon": 0.0, "lon": -77.03049466666667, "name": "64c7ac2b55ad90960595c45ccb7d790a", "is_reserved": 0, "is_disabled": 0}, {"lat": 38.942001, "fusion_lat": 0.0, "type": "electric_scooter", "bike_id": "f4fde8566ee4f5ec88da0acbd14fccc9", "rental_uris": {"ios": "https://dc.lft.to/lastmile_qr_scan", "android": "https://dc.lft.to/lastmile_qr_scan"}, "fusion_lon": 0.0, "lon": -77.02589683333333, "name": "f4fde8566ee4f5ec88da0acbd14fccc9", "is_reserved": 0, "is_disabled": 0}, {"lat": 38.8740385, "fusion_lat": 0.0, "type": "electric_scooter", "bike_id": "be26bd75ee88dac6f70366c30547f1e6", "rental_uris": {"ios": "https://dc.lft.to/lastmile_qr_scan", "android": "https://dc.lft.to/lastmile_qr_scan"}, "fusion_lon": 0.0, "lon": -77.00120766666667, "name": "be26bd75ee88dac6f70366c30547f1e6", "is_reserved": 0, "is_disabled": 0}, {"lat": 38.89241366666667, "fusion_lat": 0.0, "type": "electric_scooter", "bike_id": "694c46f8e92487ecf72e164a0b4620a2", "rental_uris": {"ios": "https://dc.lft.to/lastmile_qr_scan", "android": "https://dc.lft.to/lastmile_qr_scan"}, "fusion_lon": 0.0, "lon": -77.04166866666667, "name": "694c46f8e92487ecf72e164a0b4620a2", "is_reserved": 0, "is_disabled": 0}, {"lat": 38.92457816666667, "fusion_lat": 0.0, "type": "electric_scooter", "bike_id": "127101420c52ca2f60cffab6c346b6a1", "rental_uris": {"ios": "https://dc.lft.to/lastmile_qr_scan", "android": "https://dc.lft.to/lastmile_qr_scan"}, "fusion_lon": 0.0, "lon": -77.04037866666667, "name": "127101420c52ca2f60cffab6c346b6a1", "is_reserved": 0, "is_disabled": 0}, {"lat": 38.9202985, "fusion_lat": 0.0, "type": "electric_scooter", "bike_id": "d76bac41d1ba51ef921d0d6ab4c74c75", "rental_uris": {"ios": "https://dc.lft.to/lastmile_qr_scan", "android": "https://dc.lft.to/lastmile_qr_scan"}, "fusion_lon": 0.0, "lon": -77.071484, "name": "d76bac41d1ba51ef921d0d6ab4c74c75", "is_reserved": 0, "is_disabled": 0}, {"lat": 38.92550283333333, "fusion_lat": 0.0, "type": "electric_scooter", "bike_id": "f4587ab78e92a31afa7065d556110cc2", "rental_uris": {"ios": "https://dc.lft.to/lastmile_qr_scan", "android": "https://dc.lft.to/lastmile_qr_scan"}, "fusion_lon": 0.0, "lon": -77.0387055, "name": "f4587ab78e92a31afa7065d556110cc2", "is_reserved": 0, "is_disabled": 0}, {"lat": 38.95598783333333, "fusion_lat": 0.0, "type": "electric_bike", "bike_id": "0151d6010ac37399497458aa30197f60", "rental_uris": {"ios": "https://dc.lft.to/lastmile_qr_scan", "android": "https://dc.lft.to/lastmile_qr_scan"}, "fusion_lon": 0.0, "lon": -77.010043, "name": "0151d6010ac37399497458aa30197f60", "is_reserved": 0, "is_disabled": 0}, {"lat": 38.909611, "fusion_lat": 0.0, "type": "electric_scooter", "bike_id": "dbffe91bc048ed46210a1f1d1d9fa0b8", "rental_uris": {"ios": "https://dc.lft.to/lastmile_qr_scan", "android": "https://dc.lft.to/lastmile_qr_scan"}, "fusion_lon": 0.0, "lon": -77.03319233333333, "name": "dbffe91bc048ed46210a1f1d1d9fa0b8", "is_reserved": 0, "is_disabled": 0}, {"lat": 38.91049683333333, "fusion_lat": 0.0, "type": "electric_scooter", "bike_id": "4effdcf7296c5ee53c26f622ba05de6a", "rental_uris": {"ios": "https://dc.lft.to/lastmile_qr_scan", "android": "https://dc.lft.to/lastmile_qr_scan"}, "fusion_lon": 0.0, "lon": -77.00464283333334, "name": "4effdcf7296c5ee53c26f622ba05de6a", "is_reserved": 0, "is_disabled": 0}, {"lat": 38.923177, "fusion_lat": 0.0, "type": "electric_scooter", "bike_id": "cb556bee7c4683573a8cb246ff882f5c", "rental_uris": {"ios": "https://dc.lft.to/lastmile_qr_scan", "android": "https://dc.lft.to/lastmile_qr_scan"}, "fusion_lon": 0.0, "lon": -77.03048283333334, "name": "cb556bee7c4683573a8cb246ff882f5c", "is_reserved": 0, "is_disabled": 0}, {"lat": 38.90357233333334, "fusion_lat": 0.0, "type": "electric_scooter", "bike_id": "d23cbe35817bea750da6ab1dcb12fc8c", "rental_uris": {"ios": "https://dc.lft.to/lastmile_qr_scan", "android": "https://dc.lft.to/lastmile_qr_scan"}, "fusion_lon": 0.0, "lon": -77.00754666666667, "name": "d23cbe35817bea750da6ab1dcb12fc8c", "is_reserved": 0, "is_disabled": 0}, {"lat": 38.9193365, "fusion_lat": 0.0, "type": "electric_scooter", "bike_id": "aee0774465cfd39e9bd97bb6e98c31e8", "rental_uris": {"ios": "https://dc.lft.to/lastmile_qr_scan", "android": "https://dc.lft.to/lastmile_qr_scan"}, "fusion_lon": 0.0, "lon": -77.02603166666667, "name": "aee0774465cfd39e9bd97bb6e98c31e8", "is_reserved": 0, "is_disabled": 0}, {"lat": 38.89441033333333, "fusion_lat": 0.0, "type": "electric_scooter", "bike_id": "a5ade58f2aa4468321669f925da81599", "rental_uris": {"ios": "https://dc.lft.to/lastmile_qr_scan", "android": "https://dc.lft.to/lastmile_qr_scan"}, "fusion_lon": 0.0, "lon": -76.97824333333334, "name": "a5ade58f2aa4468321669f925da81599", "is_reserved": 0, "is_disabled": 0}, {"lat": 38.92097783333333, "fusion_lat": 0.0, "type": "electric_scooter", "bike_id": "25bd4cde210791d9225be0662285f5b2", "rental_uris": {"ios": "https://dc.lft.to/lastmile_qr_scan", "android": "https://dc.lft.to/lastmile_qr_scan"}, "fusion_lon": 0.0, "lon": -77.031707, "name": "25bd4cde210791d9225be0662285f5b2", "is_reserved": 0, "is_disabled": 0}, {"lat": 38.92547783333333, "fusion_lat": 0.0, "type": "electric_scooter", "bike_id": "095ff7c6eecd02f769ebf953988c040d", "rental_uris": {"ios": "https://dc.lft.to/lastmile_qr_scan", "android": "https://dc.lft.to/lastmile_qr_scan"}, "fusion_lon": 0.0, "lon": -77.02292866666667, "name": "095ff7c6eecd02f769ebf953988c040d", "is_reserved": 0, "is_disabled": 0}, {"lat": 38.9119225, "fusion_lat": 0.0, "type": "electric_scooter", "bike_id": "9c00be57b273790ac30bb05919fefec7", "rental_uris": {"ios": "https://dc.lft.to/lastmile_qr_scan", "android": "https://dc.lft.to/lastmile_qr_scan"}, "fusion_lon": 0.0, "lon": -77.00446716666667, "name": "9c00be57b273790ac30bb05919fefec7", "is_reserved": 0, "is_disabled": 0}, {"lat": 38.912522833333334, "fusion_lat": 0.0, "type": "electric_scooter", "bike_id": "e6316bbf22cd4cfc523558429aef39cd", "rental_uris": {"ios": "https://dc.lft.to/lastmile_qr_scan", "android": "https://dc.lft.to/lastmile_qr_scan"}, "fusion_lon": 0.0, "lon": -77.040363, "name": "e6316bbf22cd4cfc523558429aef39cd", "is_reserved": 0, "is_disabled": 0}, {"lat": 38.918011166666666, "fusion_lat": 0.0, "type": "electric_scooter", "bike_id": "b643fc91cd088374c38067bb7643ee54", "rental_uris": {"ios": "https://dc.lft.to/lastmile_qr_scan", "android": "https://dc.lft.to/lastmile_qr_scan"}, "fusion_lon": 0.0, "lon": -77.0344875, "name": "b643fc91cd088374c38067bb7643ee54", "is_reserved": 0, "is_disabled": 0}, {"lat": 38.9245835, "fusion_lat": 0.0, "type": "electric_scooter", "bike_id": "7e433224148492279dfd597f5005a9dc", "rental_uris": {"ios": "https://dc.lft.to/lastmile_qr_scan", "android": "https://dc.lft.to/lastmile_qr_scan"}, "fusion_lon": 0.0, "lon": -77.040417, "name": "7e433224148492279dfd597f5005a9dc", "is_reserved": 0, "is_disabled": 0}, {"lat": 38.9025225, "fusion_lat": 0.0, "type": "electric_scooter", "bike_id": "cf2e40d73a6e6ce05bc6774351cf8783", "rental_uris": {"ios": "https://dc.lft.to/lastmile_qr_scan", "android": "https://dc.lft.to/lastmile_qr_scan"}, "fusion_lon": 0.0, "lon": -76.97929766666667, "name": "cf2e40d73a6e6ce05bc6774351cf8783", "is_reserved": 0, "is_disabled": 0}, {"lat": 38.908448, "fusion_lat": 0.0, "type": "electric_scooter", "bike_id": "df51aada08e0d9c67f185754d4db0799", "rental_uris": {"ios": "https://dc.lft.to/lastmile_qr_scan", "android": "https://dc.lft.to/lastmile_qr_scan"}, "fusion_lon": 0.0, "lon": -77.03851316666666, "name": "df51aada08e0d9c67f185754d4db0799", "is_reserved": 0, "is_disabled": 0}, {"lat": 38.9089505, "fusion_lat": 0.0, "type": "electric_scooter", "bike_id": "d7c1c56a1d5a84bdc601c51f9ec0597e", "rental_uris": {"ios": "https://dc.lft.to/lastmile_qr_scan", "android": "https://dc.lft.to/lastmile_qr_scan"}, "fusion_lon": 0.0, "lon": -77.0441155, "name": "d7c1c56a1d5a84bdc601c51f9ec0597e", "is_reserved": 0, "is_disabled": 0}, {"lat": 38.888246333333335, "fusion_lat": 0.0, "type": "electric_scooter", "bike_id": "cc003f179e84e6843f0c231473d89142", "rental_uris": {"ios": "https://dc.lft.to/lastmile_qr_scan", "android": "https://dc.lft.to/lastmile_qr_scan"}, "fusion_lon": 0.0, "lon": -76.977219, "name": "cc003f179e84e6843f0c231473d89142", "is_reserved": 0, "is_disabled": 0}, {"lat": 38.9125835, "fusion_lat": 0.0, "type": "electric_scooter", "bike_id": "3b38c0f25e6f60e59fd4f5305f9de699", "rental_uris": {"ios": "https://dc.lft.to/lastmile_qr_scan", "android": "https://dc.lft.to/lastmile_qr_scan"}, "fusion_lon": 0.0, "lon": -77.04308733333333, "name": "3b38c0f25e6f60e59fd4f5305f9de699", "is_reserved": 0, "is_disabled": 0}, {"lat": 38.930535666666664, "fusion_lat": 0.0, "type": "electric_scooter", "bike_id": "6adb1c1ea350dcfe975cf4687cba00c8", "rental_uris": {"ios": "https://dc.lft.to/lastmile_qr_scan", "android": "https://dc.lft.to/lastmile_qr_scan"}, "fusion_lon": 0.0, "lon": -77.05851583333333, "name": "6adb1c1ea350dcfe975cf4687cba00c8", "is_reserved": 0, "is_disabled": 0}, {"lat": 38.919143166666665, "fusion_lat": 0.0, "type": "electric_scooter", "bike_id": "08f26933e00023742be43bb12c432825", "rental_uris": {"ios": "https://dc.lft.to/lastmile_qr_scan", "android": "https://dc.lft.to/lastmile_qr_scan"}, "fusion_lon": 0.0, "lon": -77.02524116666666, "name": "08f26933e00023742be43bb12c432825", "is_reserved": 0, "is_disabled": 0}, {"lat": 38.89754683333334, "fusion_lat": 0.0, "type": "electric_scooter", "bike_id": "55807fc6810f81bbc90d8c667ffc79ae", "rental_uris": {"ios": "https://dc.lft.to/lastmile_qr_scan", "android": "https://dc.lft.to/lastmile_qr_scan"}, "fusion_lon": 0.0, "lon": -77.050073, "name": "55807fc6810f81bbc90d8c667ffc79ae", "is_reserved": 0, "is_disabled": 0}, {"lat": 38.930512, "fusion_lat": 0.0, "type": "electric_scooter", "bike_id": "da219988d9a89e81158ee649f348d5c2", "rental_uris": {"ios": "https://dc.lft.to/lastmile_qr_scan", "android": "https://dc.lft.to/lastmile_qr_scan"}, "fusion_lon": 0.0, "lon": -77.058381, "name": "da219988d9a89e81158ee649f348d5c2", "is_reserved": 0, "is_disabled": 0}, {"lat": 38.901316666666666, "fusion_lat": 0.0, "type": "electric_scooter", "bike_id": "aecef1176f12baa442cfd04f484fa687", "rental_uris": {"ios": "https://dc.lft.to/lastmile_qr_scan", "android": "https://dc.lft.to/lastmile_qr_scan"}, "fusion_lon": 0.0, "lon": -77.0175075, "name": "aecef1176f12baa442cfd04f484fa687", "is_reserved": 0, "is_disabled": 0}, {"lat": 38.924490666666664, "fusion_lat": 0.0, "type": "electric_scooter", "bike_id": "bbd3e17373388f86db8c432eb1b011e6", "rental_uris": {"ios": "https://dc.lft.to/lastmile_qr_scan", "android": "https://dc.lft.to/lastmile_qr_scan"}, "fusion_lon": 0.0, "lon": -77.02235733333333, "name": "bbd3e17373388f86db8c432eb1b011e6", "is_reserved": 0, "is_disabled": 0}, {"lat": 38.925747, "fusion_lat": 0.0, "type": "electric_bike", "bike_id": "c24d6bd5519e7aca3e574ba8d966de39", "rental_uris": {"ios": "https://dc.lft.to/lastmile_qr_scan", "android": "https://dc.lft.to/lastmile_qr_scan"}, "fusion_lon": 0.0, "lon": -76.98617566666667, "name": "c24d6bd5519e7aca3e574ba8d966de39", "is_reserved": 0, "is_disabled": 0}, {"lat": 38.8924175, "fusion_lat": 0.0, "type": "electric_scooter", "bike_id": "47bb747b69a500d9d1336026d64c7b7f", "rental_uris": {"ios": "https://dc.lft.to/lastmile_qr_scan", "android": "https://dc.lft.to/lastmile_qr_scan"}, "fusion_lon": 0.0, "lon": -77.0503185, "name": "47bb747b69a500d9d1336026d64c7b7f", "is_reserved": 0, "is_disabled": 0}, {"lat": 38.9508715, "fusion_lat": 0.0, "type": "electric_bike", "bike_id": "233ca25613592322b8f1a9c27c53c8fe", "rental_uris": {"ios": "https://dc.lft.to/lastmile_qr_scan", "android": "https://dc.lft.to/lastmile_qr_scan"}, "fusion_lon": 0.0, "lon": -76.99795333333333, "name": "233ca25613592322b8f1a9c27c53c8fe", "is_reserved": 0, "is_disabled": 0}, {"lat": 38.93523833333333, "fusion_lat": 0.0, "type": "electric_scooter", "bike_id": "4e4f66cb157daccc3642d9d97a3b9e3b", "rental_uris": {"ios": "https://dc.lft.to/lastmile_qr_scan", "android": "https://dc.lft.to/lastmile_qr_scan"}, "fusion_lon": 0.0, "lon": -77.03259683333333, "name": "4e4f66cb157daccc3642d9d97a3b9e3b", "is_reserved": 0, "is_disabled": 0}, {"lat": 38.95736816666667, "fusion_lat": 0.0, "type": "electric_scooter", "bike_id": "6770fb2ab4fda9bf0a492c5f3324f66b", "rental_uris": {"ios": "https://dc.lft.to/lastmile_qr_scan", "android": "https://dc.lft.to/lastmile_qr_scan"}, "fusion_lon": 0.0, "lon": -77.00218583333333, "name": "6770fb2ab4fda9bf0a492c5f3324f66b", "is_reserved": 0, "is_disabled": 0}, {"lat": 38.91467733333333, "fusion_lat": 0.0, "type": "electric_scooter", "bike_id": "dd4456b097ef9410c4c9a8aa23840a23", "rental_uris": {"ios": "https://dc.lft.to/lastmile_qr_scan", "android": "https://dc.lft.to/lastmile_qr_scan"}, "fusion_lon": 0.0, "lon": -77.01555616666667, "name": "dd4456b097ef9410c4c9a8aa23840a23", "is_reserved": 0, "is_disabled": 0}, {"lat": 38.90852116666667, "fusion_lat": 0.0, "type": "electric_scooter", "bike_id": "6873e4f6861abbf827676ad32bf6aa09", "rental_uris": {"ios": "https://dc.lft.to/lastmile_qr_scan", "android": "https://dc.lft.to/lastmile_qr_scan"}, "fusion_lon": 0.0, "lon": -77.026874, "name": "6873e4f6861abbf827676ad32bf6aa09", "is_reserved": 0, "is_disabled": 0}, {"lat": 38.85095066666667, "fusion_lat": 0.0, "type": "electric_bike", "bike_id": "464462567384f1d1bc5a1cb5302aed04", "rental_uris": {"ios": "https://dc.lft.to/lastmile_qr_scan", "android": "https://dc.lft.to/lastmile_qr_scan"}, "fusion_lon": 0.0, "lon": -76.95688166666666, "name": "464462567384f1d1bc5a1cb5302aed04", "is_reserved": 0, "is_disabled": 0}, {"lat": 38.873715833333335, "fusion_lat": 0.0, "type": "electric_scooter", "bike_id": "dc962a90406b766d9aa07db71249c070", "rental_uris": {"ios": "https://dc.lft.to/lastmile_qr_scan", "android": "https://dc.lft.to/lastmile_qr_scan"}, "fusion_lon": 0.0, "lon": -77.00173583333333, "name": "dc962a90406b766d9aa07db71249c070", "is_reserved": 0, "is_disabled": 0}, {"lat": 38.92362633333333, "fusion_lat": 0.0, "type": "electric_scooter", "bike_id": "2e529bacc849a501569d6d04b0beb3ce", "rental_uris": {"ios": "https://dc.lft.to/lastmile_qr_scan", "android": "https://dc.lft.to/lastmile_qr_scan"}, "fusion_lon": 0.0, "lon": -77.04393016666667, "name": "2e529bacc849a501569d6d04b0beb3ce", "is_reserved": 0, "is_disabled": 0}, {"lat": 38.9431345, "fusion_lat": 0.0, "type": "electric_scooter", "bike_id": "6827f973768f41f27e13e0a4d76914dc", "rental_uris": {"ios": "https://dc.lft.to/lastmile_qr_scan", "android": "https://dc.lft.to/lastmile_qr_scan"}, "fusion_lon": 0.0, "lon": -77.01731766666667, "name": "6827f973768f41f27e13e0a4d76914dc", "is_reserved": 0, "is_disabled": 0}, {"lat": 38.92454466666667, "fusion_lat": 0.0, "type": "electric_bike", "bike_id": "e9e027ee8f37d05dc0f016ee98d8c20b", "rental_uris": {"ios": "https://dc.lft.to/lastmile_qr_scan", "android": "https://dc.lft.to/lastmile_qr_scan"}, "fusion_lon": 0.0, "lon": -77.00213633333334, "name": "e9e027ee8f37d05dc0f016ee98d8c20b", "is_reserved": 0, "is_disabled": 0}, {"lat": 38.92064533333333, "fusion_lat": 0.0, "type": "electric_scooter", "bike_id": "4cc7e5ae6aea4789b6e39619b20bf803", "rental_uris": {"ios": "https://dc.lft.to/lastmile_qr_scan", "android": "https://dc.lft.to/lastmile_qr_scan"}, "fusion_lon": 0.0, "lon": -77.02423183333333, "name": "4cc7e5ae6aea4789b6e39619b20bf803", "is_reserved": 0, "is_disabled": 0}, {"lat": 38.893449833333335, "fusion_lat": 0.0, "type": "electric_scooter", "bike_id": "0bdd8f90e7f9200284ad22aafa7dde83", "rental_uris": {"ios": "https://dc.lft.to/lastmile_qr_scan", "android": "https://dc.lft.to/lastmile_qr_scan"}, "fusion_lon": 0.0, "lon": -77.012294, "name": "0bdd8f90e7f9200284ad22aafa7dde83", "is_reserved": 0, "is_disabled": 0}, {"lat": 38.90228483333333, "fusion_lat": 0.0, "type": "electric_scooter", "bike_id": "2ae5d01b2fce9b1bfbb8712084c1d678", "rental_uris": {"ios": "https://dc.lft.to/lastmile_qr_scan", "android": "https://dc.lft.to/lastmile_qr_scan"}, "fusion_lon": 0.0, "lon": -77.00563633333333, "name": "2ae5d01b2fce9b1bfbb8712084c1d678", "is_reserved": 0, "is_disabled": 0}, {"lat": 38.89962716666667, "fusion_lat": 0.0, "type": "electric_scooter", "bike_id": "dbf74e350ed73df44a63cd4d687a7d3e", "rental_uris": {"ios": "https://dc.lft.to/lastmile_qr_scan", "android": "https://dc.lft.to/lastmile_qr_scan"}, "fusion_lon": 0.0, "lon": -77.01634116666666, "name": "dbf74e350ed73df44a63cd4d687a7d3e", "is_reserved": 0, "is_disabled": 0}, {"lat": 38.906317, "fusion_lat": 0.0, "type": "electric_scooter", "bike_id": "98b786be716f62e59eb7d0101001b685", "rental_uris": {"ios": "https://dc.lft.to/lastmile_qr_scan", "android": "https://dc.lft.to/lastmile_qr_scan"}, "fusion_lon": 0.0, "lon": -77.05149183333333, "name": "98b786be716f62e59eb7d0101001b685", "is_reserved": 0, "is_disabled": 0}, {"lat": 38.964475666666665, "fusion_lat": 0.0, "type": "electric_scooter", "bike_id": "58a0bfef56e52062bc9bb11c12ab33d2", "rental_uris": {"ios": "https://dc.lft.to/lastmile_qr_scan", "android": "https://dc.lft.to/lastmile_qr_scan"}, "fusion_lon": 0.0, "lon": -77.02006266666666, "name": "58a0bfef56e52062bc9bb11c12ab33d2", "is_reserved": 0, "is_disabled": 0}, {"lat": 38.905692333333334, "fusion_lat": 0.0, "type": "electric_scooter", "bike_id": "f6b6d34d6f5da726e7520e680f7c2386", "rental_uris": {"ios": "https://dc.lft.to/lastmile_qr_scan", "android": "https://dc.lft.to/lastmile_qr_scan"}, "fusion_lon": 0.0, "lon": -77.0275975, "name": "f6b6d34d6f5da726e7520e680f7c2386", "is_reserved": 0, "is_disabled": 0}, {"lat": 38.921572166666664, "fusion_lat": 0.0, "type": "electric_scooter", "bike_id": "aaaeaeb4601a115200045f0235eccbad", "rental_uris": {"ios": "https://dc.lft.to/lastmile_qr_scan", "android": "https://dc.lft.to/lastmile_qr_scan"}, "fusion_lon": 0.0, "lon": -77.03466516666667, "name": "aaaeaeb4601a115200045f0235eccbad", "is_reserved": 0, "is_disabled": 0}, {"lat": 38.923148166666664, "fusion_lat": 0.0, "type": "electric_scooter", "bike_id": "0d3fe343c511ac0efe86fef181fba3fd", "rental_uris": {"ios": "https://dc.lft.to/lastmile_qr_scan", "android": "https://dc.lft.to/lastmile_qr_scan"}, "fusion_lon": 0.0, "lon": -77.0290545, "name": "0d3fe343c511ac0efe86fef181fba3fd", "is_reserved": 0, "is_disabled": 0}, {"lat": 38.842732, "fusion_lat": 0.0, "type": "electric_bike", "bike_id": "7909551cbc86877cfa8716e0141994bd", "rental_uris": {"ios": "https://dc.lft.to/lastmile_qr_scan", "android": "https://dc.lft.to/lastmile_qr_scan"}, "fusion_lon": 0.0, "lon": -76.98837583333334, "name": "7909551cbc86877cfa8716e0141994bd", "is_reserved": 0, "is_disabled": 0}, {"lat": 38.92340733333333, "fusion_lat": 0.0, "type": "electric_scooter", "bike_id": "c91d395b4155efa80875bfea4e1a5b63", "rental_uris": {"ios": "https://dc.lft.to/lastmile_qr_scan", "android": "https://dc.lft.to/lastmile_qr_scan"}, "fusion_lon": 0.0, "lon": -77.0353565, "name": "c91d395b4155efa80875bfea4e1a5b63", "is_reserved": 0, "is_disabled": 0}, {"lat": 38.9048525, "fusion_lat": 0.0, "type": "electric_scooter", "bike_id": "ea8e6f24024050ec72cedb3e7aa619c5", "rental_uris": {"ios": "https://dc.lft.to/lastmile_qr_scan", "android": "https://dc.lft.to/lastmile_qr_scan"}, "fusion_lon": 0.0, "lon": -77.04807383333333, "name": "ea8e6f24024050ec72cedb3e7aa619c5", "is_reserved": 0, "is_disabled": 0}, {"lat": 38.9161025, "fusion_lat": 0.0, "type": "electric_scooter", "bike_id": "34b05e03b55108c4fe55058c93e5cb6e", "rental_uris": {"ios": "https://dc.lft.to/lastmile_qr_scan", "android": "https://dc.lft.to/lastmile_qr_scan"}, "fusion_lon": 0.0, "lon": -77.0115425, "name": "34b05e03b55108c4fe55058c93e5cb6e", "is_reserved": 0, "is_disabled": 0}, {"lat": 38.87659683333333, "fusion_lat": 0.0, "type": "electric_scooter", "bike_id": "bb62b1055aebe0937b2c8a7596ccbbbd", "rental_uris": {"ios": "https://dc.lft.to/lastmile_qr_scan", "android": "https://dc.lft.to/lastmile_qr_scan"}, "fusion_lon": 0.0, "lon": -76.99460133333334, "name": "bb62b1055aebe0937b2c8a7596ccbbbd", "is_reserved": 0, "is_disabled": 0}, {"lat": 38.90376933333334, "fusion_lat": 0.0, "type": "electric_scooter", "bike_id": "e1d3d05ddc3534c73001e5ea1699c8be", "rental_uris": {"ios": "https://dc.lft.to/lastmile_qr_scan", "android": "https://dc.lft.to/lastmile_qr_scan"}, "fusion_lon": 0.0, "lon": -77.04858383333334, "name": "e1d3d05ddc3534c73001e5ea1699c8be", "is_reserved": 0, "is_disabled": 0}, {"lat": 38.87722216666667, "fusion_lat": 0.0, "type": "electric_scooter", "bike_id": "1c09667be786db90edf9e6b9528d2f9c", "rental_uris": {"ios": "https://dc.lft.to/lastmile_qr_scan", "android": "https://dc.lft.to/lastmile_qr_scan"}, "fusion_lon": 0.0, "lon": -77.0175385, "name": "1c09667be786db90edf9e6b9528d2f9c", "is_reserved": 0, "is_disabled": 0}, {"lat": 38.910646, "fusion_lat": 0.0, "type": "electric_scooter", "bike_id": "3f4ec48a3546e355c4ed67b29bc6f0df", "rental_uris": {"ios": "https://dc.lft.to/lastmile_qr_scan", "android": "https://dc.lft.to/lastmile_qr_scan"}, "fusion_lon": 0.0, "lon": -77.04487183333333, "name": "3f4ec48a3546e355c4ed67b29bc6f0df", "is_reserved": 0, "is_disabled": 0}, {"lat": 38.91784716666667, "fusion_lat": 0.0, "type": "electric_scooter", "bike_id": "1b82d320f524df6ee59428c8ff8bba4b", "rental_uris": {"ios": "https://dc.lft.to/lastmile_qr_scan", "android": "https://dc.lft.to/lastmile_qr_scan"}, "fusion_lon": 0.0, "lon": -77.02284683333333, "name": "1b82d320f524df6ee59428c8ff8bba4b", "is_reserved": 0, "is_disabled": 0}, {"lat": 38.920403666666665, "fusion_lat": 0.0, "type": "electric_scooter", "bike_id": "8405181f5024336e287d9314c38ee5c0", "rental_uris": {"ios": "https://dc.lft.to/lastmile_qr_scan", "android": "https://dc.lft.to/lastmile_qr_scan"}, "fusion_lon": 0.0, "lon": -77.01703433333333, "name": "8405181f5024336e287d9314c38ee5c0", "is_reserved": 0, "is_disabled": 0}, {"lat": 38.915365666666666, "fusion_lat": 0.0, "type": "electric_scooter", "bike_id": "39338d3c3612e22f9c5b97e108d98645", "rental_uris": {"ios": "https://dc.lft.to/lastmile_qr_scan", "android": "https://dc.lft.to/lastmile_qr_scan"}, "fusion_lon": 0.0, "lon": -77.031763, "name": "39338d3c3612e22f9c5b97e108d98645", "is_reserved": 0, "is_disabled": 0}, {"lat": 38.907384, "fusion_lat": 0.0, "type": "electric_scooter", "bike_id": "7ccb20f730b4833c3a7e4bc92fc9183e", "rental_uris": {"ios": "https://dc.lft.to/lastmile_qr_scan", "android": "https://dc.lft.to/lastmile_qr_scan"}, "fusion_lon": 0.0, "lon": -77.028107, "name": "7ccb20f730b4833c3a7e4bc92fc9183e", "is_reserved": 0, "is_disabled": 0}, {"lat": 38.92637, "fusion_lat": 0.0, "type": "electric_scooter", "bike_id": "d8366882d0fa5cfcb30bd817489ebc99", "rental_uris": {"ios": "https://dc.lft.to/lastmile_qr_scan", "android": "https://dc.lft.to/lastmile_qr_scan"}, "fusion_lon": 0.0, "lon": -77.03399566666667, "name": "d8366882d0fa5cfcb30bd817489ebc99", "is_reserved": 0, "is_disabled": 0}, {"lat": 38.89774216666667, "fusion_lat": 0.0, "type": "electric_scooter", "bike_id": "55cad827caa8b25749b92b771123dea0", "rental_uris": {"ios": "https://dc.lft.to/lastmile_qr_scan", "android": "https://dc.lft.to/lastmile_qr_scan"}, "fusion_lon": 0.0, "lon": -76.98463016666666, "name": "55cad827caa8b25749b92b771123dea0", "is_reserved": 0, "is_disabled": 0}, {"lat": 38.9311595, "fusion_lat": 0.0, "type": "electric_scooter", "bike_id": "50280c666a6cfa13fc777dd9e1441481", "rental_uris": {"ios": "https://dc.lft.to/lastmile_qr_scan", "android": "https://dc.lft.to/lastmile_qr_scan"}, "fusion_lon": 0.0, "lon": -77.021392, "name": "50280c666a6cfa13fc777dd9e1441481", "is_reserved": 0, "is_disabled": 0}, {"lat": 38.902661333333334, "fusion_lat": 0.0, "type": "electric_scooter", "bike_id": "fe2935a19b1cfcd7e2b60a60d7c6c08a", "rental_uris": {"ios": "https://dc.lft.to/lastmile_qr_scan", "android": "https://dc.lft.to/lastmile_qr_scan"}, "fusion_lon": 0.0, "lon": -77.0532705, "name": "fe2935a19b1cfcd7e2b60a60d7c6c08a", "is_reserved": 0, "is_disabled": 0}, {"lat": 38.92193966666667, "fusion_lat": 0.0, "type": "electric_scooter", "bike_id": "5e9b8f43f7da9cf38b1fbbd4fe52ce35", "rental_uris": {"ios": "https://dc.lft.to/lastmile_qr_scan", "android": "https://dc.lft.to/lastmile_qr_scan"}, "fusion_lon": 0.0, "lon": -77.03787533333333, "name": "5e9b8f43f7da9cf38b1fbbd4fe52ce35", "is_reserved": 0, "is_disabled": 0}, {"lat": 38.8777235, "fusion_lat": 0.0, "type": "electric_scooter", "bike_id": "8907e52060cc44c31ec3112cd351a75a", "rental_uris": {"ios": "https://dc.lft.to/lastmile_qr_scan", "android": "https://dc.lft.to/lastmile_qr_scan"}, "fusion_lon": 0.0, "lon": -77.01758166666667, "name": "8907e52060cc44c31ec3112cd351a75a", "is_reserved": 0, "is_disabled": 0}, {"lat": 38.92137783333333, "fusion_lat": 0.0, "type": "electric_scooter", "bike_id": "bb51596ad6d4da6fa62eca47bf9046cf", "rental_uris": {"ios": "https://dc.lft.to/lastmile_qr_scan", "android": "https://dc.lft.to/lastmile_qr_scan"}, "fusion_lon": 0.0, "lon": -77.0183735, "name": "bb51596ad6d4da6fa62eca47bf9046cf", "is_reserved": 0, "is_disabled": 0}, {"lat": 39.034258, "fusion_lat": 0.0, "type": "electric_bike", "bike_id": "34ae0e64808d2276353bb6ad64c6612e", "rental_uris": {"ios": "https://dc.lft.to/lastmile_qr_scan", "android": "https://dc.lft.to/lastmile_qr_scan"}, "fusion_lon": 0.0, "lon": -77.04310666666667, "name": "34ae0e64808d2276353bb6ad64c6612e", "is_reserved": 0, "is_disabled": 0}, {"lat": 38.860612833333334, "fusion_lat": 0.0, "type": "electric_scooter", "bike_id": "66604f7455390c78a52b773a6836ce27", "rental_uris": {"ios": "https://dc.lft.to/lastmile_qr_scan", "android": "https://dc.lft.to/lastmile_qr_scan"}, "fusion_lon": 0.0, "lon": -76.96721316666667, "name": "66604f7455390c78a52b773a6836ce27", "is_reserved": 0, "is_disabled": 0}, {"lat": 38.917663166666664, "fusion_lat": 0.0, "type": "electric_scooter", "bike_id": "5913fc58f2ddd18aec15fbd9d7f7b7b8", "rental_uris": {"ios": "https://dc.lft.to/lastmile_qr_scan", "android": "https://dc.lft.to/lastmile_qr_scan"}, "fusion_lon": 0.0, "lon": -77.02367, "name": "5913fc58f2ddd18aec15fbd9d7f7b7b8", "is_reserved": 0, "is_disabled": 0}, {"lat": 38.910738333333335, "fusion_lat": 0.0, "type": "electric_scooter", "bike_id": "74c2373ad5d126958aae02974e02070e", "rental_uris": {"ios": "https://dc.lft.to/lastmile_qr_scan", "android": "https://dc.lft.to/lastmile_qr_scan"}, "fusion_lon": 0.0, "lon": -77.02715383333333, "name": "74c2373ad5d126958aae02974e02070e", "is_reserved": 0, "is_disabled": 0}, {"lat": 38.891883666666665, "fusion_lat": 0.0, "type": "electric_scooter", "bike_id": "7e8084a78b3cc0720501318b5ad2d3d4", "rental_uris": {"ios": "https://dc.lft.to/lastmile_qr_scan", "android": "https://dc.lft.to/lastmile_qr_scan"}, "fusion_lon": 0.0, "lon": -77.03184816666666, "name": "7e8084a78b3cc0720501318b5ad2d3d4", "is_reserved": 0, "is_disabled": 0}, {"lat": 38.898044, "fusion_lat": 0.0, "type": "electric_bike", "bike_id": "6e7286ee0bc970348e04cf4eb1c15b38", "rental_uris": {"ios": "https://dc.lft.to/lastmile_qr_scan", "android": "https://dc.lft.to/lastmile_qr_scan"}, "fusion_lon": 0.0, "lon": -77.0504815, "name": "6e7286ee0bc970348e04cf4eb1c15b38", "is_reserved": 0, "is_disabled": 0}, {"lat": 38.9036775, "fusion_lat": 0.0, "type": "electric_scooter", "bike_id": "ea3df1ffb397ac7f823a8d14877b4fb6", "rental_uris": {"ios": "https://dc.lft.to/lastmile_qr_scan", "android": "https://dc.lft.to/lastmile_qr_scan"}, "fusion_lon": 0.0, "lon": -77.04504166666666, "name": "ea3df1ffb397ac7f823a8d14877b4fb6", "is_reserved": 0, "is_disabled": 0}, {"lat": 38.928945666666664, "fusion_lat": 0.0, "type": "electric_scooter", "bike_id": "ed641e282571abc3420d566d89ab484d", "rental_uris": {"ios": "https://dc.lft.to/lastmile_qr_scan", "android": "https://dc.lft.to/lastmile_qr_scan"}, "fusion_lon": 0.0, "lon": -77.05809333333333, "name": "ed641e282571abc3420d566d89ab484d", "is_reserved": 0, "is_disabled": 0}, {"lat": 38.91254466666667, "fusion_lat": 0.0, "type": "electric_scooter", "bike_id": "3fc7ba918c29e663002448eb93ebebb9", "rental_uris": {"ios": "https://dc.lft.to/lastmile_qr_scan", "android": "https://dc.lft.to/lastmile_qr_scan"}, "fusion_lon": 0.0, "lon": -77.03806833333333, "name": "3fc7ba918c29e663002448eb93ebebb9", "is_reserved": 0, "is_disabled": 0}, {"lat": 38.904141, "fusion_lat": 0.0, "type": "electric_scooter", "bike_id": "98b241f5c989431808c9a3712890698a", "rental_uris": {"ios": "https://dc.lft.to/lastmile_qr_scan", "android": "https://dc.lft.to/lastmile_qr_scan"}, "fusion_lon": 0.0, "lon": -77.02060016666667, "name": "98b241f5c989431808c9a3712890698a", "is_reserved": 0, "is_disabled": 0}, {"lat": 38.91627483333333, "fusion_lat": 0.0, "type": "electric_scooter", "bike_id": "9788a856c2ddadfb33e7cd1fbf12cd49", "rental_uris": {"ios": "https://dc.lft.to/lastmile_qr_scan", "android": "https://dc.lft.to/lastmile_qr_scan"}, "fusion_lon": 0.0, "lon": -77.03854683333333, "name": "9788a856c2ddadfb33e7cd1fbf12cd49", "is_reserved": 0, "is_disabled": 0}, {"lat": 38.874552333333334, "fusion_lat": 0.0, "type": "electric_scooter", "bike_id": "fbdc1f5dd70bdb237764bfae21ecc305", "rental_uris": {"ios": "https://dc.lft.to/lastmile_qr_scan", "android": "https://dc.lft.to/lastmile_qr_scan"}, "fusion_lon": 0.0, "lon": -77.00119533333333, "name": "fbdc1f5dd70bdb237764bfae21ecc305", "is_reserved": 0, "is_disabled": 0}, {"lat": 38.92875166666666, "fusion_lat": 0.0, "type": "electric_scooter", "bike_id": "c71fdb8551b5892eae37c01b7c583d15", "rental_uris": {"ios": "https://dc.lft.to/lastmile_qr_scan", "android": "https://dc.lft.to/lastmile_qr_scan"}, "fusion_lon": 0.0, "lon": -77.03255866666667, "name": "c71fdb8551b5892eae37c01b7c583d15", "is_reserved": 0, "is_disabled": 0}, {"lat": 38.875462666666664, "fusion_lat": 0.0, "type": "electric_scooter", "bike_id": "f1a0a5526ae0b2524c0a57de7005b30c", "rental_uris": {"ios": "https://dc.lft.to/lastmile_qr_scan", "android": "https://dc.lft.to/lastmile_qr_scan"}, "fusion_lon": 0.0, "lon": -77.00538283333333, "name": "f1a0a5526ae0b2524c0a57de7005b30c", "is_reserved": 0, "is_disabled": 0}, {"lat": 38.90667166666667, "fusion_lat": 0.0, "type": "electric_scooter", "bike_id": "d8417667e181292aeb472dba2b7f2720", "rental_uris": {"ios": "https://dc.lft.to/lastmile_qr_scan", "android": "https://dc.lft.to/lastmile_qr_scan"}, "fusion_lon": 0.0, "lon": -77.0271395, "name": "d8417667e181292aeb472dba2b7f2720", "is_reserved": 0, "is_disabled": 0}, {"lat": 38.92306933333333, "fusion_lat": 0.0, "type": "electric_scooter", "bike_id": "2038c888ea2251ec40649b3678592ed4", "rental_uris": {"ios": "https://dc.lft.to/lastmile_qr_scan", "android": "https://dc.lft.to/lastmile_qr_scan"}, "fusion_lon": 0.0, "lon": -77.04275416666667, "name": "2038c888ea2251ec40649b3678592ed4", "is_reserved": 0, "is_disabled": 0}, {"lat": 38.913456, "fusion_lat": 0.0, "type": "electric_scooter", "bike_id": "464e16a9ff38afcb368e950262b40ecf", "rental_uris": {"ios": "https://dc.lft.to/lastmile_qr_scan", "android": "https://dc.lft.to/lastmile_qr_scan"}, "fusion_lon": 0.0, "lon": -77.02945116666666, "name": "464e16a9ff38afcb368e950262b40ecf", "is_reserved": 0, "is_disabled": 0}, {"lat": 38.893417666666664, "fusion_lat": 0.0, "type": "electric_scooter", "bike_id": "3446316380f1d10e6f865acaf80e08e6", "rental_uris": {"ios": "https://dc.lft.to/lastmile_qr_scan", "android": "https://dc.lft.to/lastmile_qr_scan"}, "fusion_lon": 0.0, "lon": -77.01228966666666, "name": "3446316380f1d10e6f865acaf80e08e6", "is_reserved": 0, "is_disabled": 0}, {"lat": 38.897902, "fusion_lat": 0.0, "type": "electric_bike", "bike_id": "d2428ea3d4c012adfb5e3caf482efe31", "rental_uris": {"ios": "https://dc.lft.to/lastmile_qr_scan", "android": "https://dc.lft.to/lastmile_qr_scan"}, "fusion_lon": 0.0, "lon": -77.00586166666666, "name": "d2428ea3d4c012adfb5e3caf482efe31", "is_reserved": 0, "is_disabled": 0}, {"lat": 38.930968666666665, "fusion_lat": 0.0, "type": "electric_scooter", "bike_id": "fc4711937d0559295ef44b8885adc972", "rental_uris": {"ios": "https://dc.lft.to/lastmile_qr_scan", "android": "https://dc.lft.to/lastmile_qr_scan"}, "fusion_lon": 0.0, "lon": -77.0266585, "name": "fc4711937d0559295ef44b8885adc972", "is_reserved": 0, "is_disabled": 0}, {"lat": 38.895939, "fusion_lat": 0.0, "type": "electric_scooter", "bike_id": "f024f8cfc3036fd431fe10a657b1ec60", "rental_uris": {"ios": "https://dc.lft.to/lastmile_qr_scan", "android": "https://dc.lft.to/lastmile_qr_scan"}, "fusion_lon": 0.0, "lon": -77.02330916666666, "name": "f024f8cfc3036fd431fe10a657b1ec60", "is_reserved": 0, "is_disabled": 0}, {"lat": 38.91352766666667, "fusion_lat": 0.0, "type": "electric_scooter", "bike_id": "4a729f900de1479e1165b720465340ad", "rental_uris": {"ios": "https://dc.lft.to/lastmile_qr_scan", "android": "https://dc.lft.to/lastmile_qr_scan"}, "fusion_lon": 0.0, "lon": -77.0434955, "name": "4a729f900de1479e1165b720465340ad", "is_reserved": 0, "is_disabled": 0}, {"lat": 38.91413716666667, "fusion_lat": 0.0, "type": "electric_scooter", "bike_id": "f91cb4bab88997c974544eefc15046a7", "rental_uris": {"ios": "https://dc.lft.to/lastmile_qr_scan", "android": "https://dc.lft.to/lastmile_qr_scan"}, "fusion_lon": 0.0, "lon": -77.022372, "name": "f91cb4bab88997c974544eefc15046a7", "is_reserved": 0, "is_disabled": 0}, {"lat": 38.9186655, "fusion_lat": 0.0, "type": "electric_scooter", "bike_id": "6b3f67bc4b1706c94f9224e89236b084", "rental_uris": {"ios": "https://dc.lft.to/lastmile_qr_scan", "android": "https://dc.lft.to/lastmile_qr_scan"}, "fusion_lon": 0.0, "lon": -77.04763116666666, "name": "6b3f67bc4b1706c94f9224e89236b084", "is_reserved": 0, "is_disabled": 0}, {"lat": 38.93429016666666, "fusion_lat": 0.0, "type": "electric_scooter", "bike_id": "c415b0bce8427d133d3a61875132a21c", "rental_uris": {"ios": "https://dc.lft.to/lastmile_qr_scan", "android": "https://dc.lft.to/lastmile_qr_scan"}, "fusion_lon": 0.0, "lon": -77.0453675, "name": "c415b0bce8427d133d3a61875132a21c", "is_reserved": 0, "is_disabled": 0}, {"lat": 38.93628733333333, "fusion_lat": 0.0, "type": "electric_scooter", "bike_id": "658fe88845a35cdbf1ebd9fc2e9f0834", "rental_uris": {"ios": "https://dc.lft.to/lastmile_qr_scan", "android": "https://dc.lft.to/lastmile_qr_scan"}, "fusion_lon": 0.0, "lon": -77.05884266666666, "name": "658fe88845a35cdbf1ebd9fc2e9f0834", "is_reserved": 0, "is_disabled": 0}, {"lat": 38.9567485, "fusion_lat": 0.0, "type": "electric_scooter", "bike_id": "d3f2d7a44d7eb927f240918dc71f92dc", "rental_uris": {"ios": "https://dc.lft.to/lastmile_qr_scan", "android": "https://dc.lft.to/lastmile_qr_scan"}, "fusion_lon": 0.0, "lon": -77.01368183333334, "name": "d3f2d7a44d7eb927f240918dc71f92dc", "is_reserved": 0, "is_disabled": 0}, {"lat": 38.941939166666664, "fusion_lat": 0.0, "type": "electric_scooter", "bike_id": "56cc448a1da0f303f518c65d66a1251b", "rental_uris": {"ios": "https://dc.lft.to/lastmile_qr_scan", "android": "https://dc.lft.to/lastmile_qr_scan"}, "fusion_lon": 0.0, "lon": -77.024762, "name": "56cc448a1da0f303f518c65d66a1251b", "is_reserved": 0, "is_disabled": 0}, {"lat": 38.876544833333334, "fusion_lat": 0.0, "type": "electric_scooter", "bike_id": "8fb7d248e2b85cc992f69bb44927a706", "rental_uris": {"ios": "https://dc.lft.to/lastmile_qr_scan", "android": "https://dc.lft.to/lastmile_qr_scan"}, "fusion_lon": 0.0, "lon": -77.0032025, "name": "8fb7d248e2b85cc992f69bb44927a706", "is_reserved": 0, "is_disabled": 0}, {"lat": 38.903954166666665, "fusion_lat": 0.0, "type": "electric_scooter", "bike_id": "e8554b43e39274a9b70a6ca87dd48f4c", "rental_uris": {"ios": "https://dc.lft.to/lastmile_qr_scan", "android": "https://dc.lft.to/lastmile_qr_scan"}, "fusion_lon": 0.0, "lon": -77.0535565, "name": "e8554b43e39274a9b70a6ca87dd48f4c", "is_reserved": 0, "is_disabled": 0}, {"lat": 38.874017, "fusion_lat": 0.0, "type": "electric_scooter", "bike_id": "299063b61e4493ceed79aaf49ffea894", "rental_uris": {"ios": "https://dc.lft.to/lastmile_qr_scan", "android": "https://dc.lft.to/lastmile_qr_scan"}, "fusion_lon": 0.0, "lon": -77.00035416666667, "name": "299063b61e4493ceed79aaf49ffea894", "is_reserved": 0, "is_disabled": 0}, {"lat": 38.918496166666664, "fusion_lat": 0.0, "type": "electric_scooter", "bike_id": "77eb3200c0497f078a949954dafab5b6", "rental_uris": {"ios": "https://dc.lft.to/lastmile_qr_scan", "android": "https://dc.lft.to/lastmile_qr_scan"}, "fusion_lon": 0.0, "lon": -77.02291133333334, "name": "77eb3200c0497f078a949954dafab5b6", "is_reserved": 0, "is_disabled": 0}, {"lat": 38.938806166666666, "fusion_lat": 0.0, "type": "electric_scooter", "bike_id": "c811ee9e724252f5d8247949b1c017cf", "rental_uris": {"ios": "https://dc.lft.to/lastmile_qr_scan", "android": "https://dc.lft.to/lastmile_qr_scan"}, "fusion_lon": 0.0, "lon": -77.02485883333334, "name": "c811ee9e724252f5d8247949b1c017cf", "is_reserved": 0, "is_disabled": 0}, {"lat": 38.902261833333334, "fusion_lat": 0.0, "type": "electric_scooter", "bike_id": "766ae975b1f8768dcfd2bb6f25f26cb3", "rental_uris": {"ios": "https://dc.lft.to/lastmile_qr_scan", "android": "https://dc.lft.to/lastmile_qr_scan"}, "fusion_lon": 0.0, "lon": -77.023709, "name": "766ae975b1f8768dcfd2bb6f25f26cb3", "is_reserved": 0, "is_disabled": 0}, {"lat": 38.90809466666666, "fusion_lat": 0.0, "type": "electric_scooter", "bike_id": "278ed86d70f072df8e6dc63e9d8c0ac1", "rental_uris": {"ios": "https://dc.lft.to/lastmile_qr_scan", "android": "https://dc.lft.to/lastmile_qr_scan"}, "fusion_lon": 0.0, "lon": -77.04342, "name": "278ed86d70f072df8e6dc63e9d8c0ac1", "is_reserved": 0, "is_disabled": 0}, {"lat": 38.893412, "fusion_lat": 0.0, "type": "electric_bike", "bike_id": "18e2bdb4a8fc0f93567d8bf1f193ef1c", "rental_uris": {"ios": "https://dc.lft.to/lastmile_qr_scan", "android": "https://dc.lft.to/lastmile_qr_scan"}, "fusion_lon": 0.0, "lon": -76.99261933333334, "name": "18e2bdb4a8fc0f93567d8bf1f193ef1c", "is_reserved": 0, "is_disabled": 0}, {"lat": 38.871865666666665, "fusion_lat": 0.0, "type": "electric_scooter", "bike_id": "51a73b7942c4637d039558c85ea89b3f", "rental_uris": {"ios": "https://dc.lft.to/lastmile_qr_scan", "android": "https://dc.lft.to/lastmile_qr_scan"}, "fusion_lon": 0.0, "lon": -77.006428, "name": "51a73b7942c4637d039558c85ea89b3f", "is_reserved": 0, "is_disabled": 0}, {"lat": 38.89755, "fusion_lat": 0.0, "type": "electric_scooter", "bike_id": "2c4d33d681c4c42fd962cf38e2ae8041", "rental_uris": {"ios": "https://dc.lft.to/lastmile_qr_scan", "android": "https://dc.lft.to/lastmile_qr_scan"}, "fusion_lon": 0.0, "lon": -77.04360216666667, "name": "2c4d33d681c4c42fd962cf38e2ae8041", "is_reserved": 0, "is_disabled": 0}, {"lat": 38.84280966666667, "fusion_lat": 0.0, "type": "electric_bike", "bike_id": "3cb3112537aaec81e9ad638eb830fb35", "rental_uris": {"ios": "https://dc.lft.to/lastmile_qr_scan", "android": "https://dc.lft.to/lastmile_qr_scan"}, "fusion_lon": 0.0, "lon": -77.07523316666666, "name": "3cb3112537aaec81e9ad638eb830fb35", "is_reserved": 0, "is_disabled": 0}, {"lat": 38.892221, "fusion_lat": 0.0, "type": "electric_scooter", "bike_id": "f2da32e0d2ce98355d0a4618a2d0f8fe", "rental_uris": {"ios": "https://dc.lft.to/lastmile_qr_scan", "android": "https://dc.lft.to/lastmile_qr_scan"}, "fusion_lon": 0.0, "lon": -77.04469966666667, "name": "f2da32e0d2ce98355d0a4618a2d0f8fe", "is_reserved": 0, "is_disabled": 0}, {"lat": 38.887405666666666, "fusion_lat": 0.0, "type": "electric_scooter", "bike_id": "5b3f7c249e0bca0bee2bd45ef20a2dce", "rental_uris": {"ios": "https://dc.lft.to/lastmile_qr_scan", "android": "https://dc.lft.to/lastmile_qr_scan"}, "fusion_lon": 0.0, "lon": -77.0317015, "name": "5b3f7c249e0bca0bee2bd45ef20a2dce", "is_reserved": 0, "is_disabled": 0}, {"lat": 38.9212115, "fusion_lat": 0.0, "type": "electric_scooter", "bike_id": "72801783bf69168d227d55675a6a0566", "rental_uris": {"ios": "https://dc.lft.to/lastmile_qr_scan", "android": "https://dc.lft.to/lastmile_qr_scan"}, "fusion_lon": 0.0, "lon": -77.01213566666667, "name": "72801783bf69168d227d55675a6a0566", "is_reserved": 0, "is_disabled": 0}, {"lat": 38.93578216666667, "fusion_lat": 0.0, "type": "electric_bike", "bike_id": "578cb0237d47ff0e6d6b6dd2c51c1aff", "rental_uris": {"ios": "https://dc.lft.to/lastmile_qr_scan", "android": "https://dc.lft.to/lastmile_qr_scan"}, "fusion_lon": 0.0, "lon": -77.02130133333333, "name": "578cb0237d47ff0e6d6b6dd2c51c1aff", "is_reserved": 0, "is_disabled": 0}, {"lat": 38.91571283333333, "fusion_lat": 0.0, "type": "electric_bike", "bike_id": "05ad03f08668fd3c44e15e932b2d32a3", "rental_uris": {"ios": "https://dc.lft.to/lastmile_qr_scan", "android": "https://dc.lft.to/lastmile_qr_scan"}, "fusion_lon": 0.0, "lon": -77.05027433333333, "name": "05ad03f08668fd3c44e15e932b2d32a3", "is_reserved": 0, "is_disabled": 0}, {"lat": 38.90465966666667, "fusion_lat": 0.0, "type": "electric_scooter", "bike_id": "622b5ab8dc3cc690c07e3a84cd8c31e7", "rental_uris": {"ios": "https://dc.lft.to/lastmile_qr_scan", "android": "https://dc.lft.to/lastmile_qr_scan"}, "fusion_lon": 0.0, "lon": -77.02942083333333, "name": "622b5ab8dc3cc690c07e3a84cd8c31e7", "is_reserved": 0, "is_disabled": 0}, {"lat": 38.92634916666667, "fusion_lat": 0.0, "type": "electric_scooter", "bike_id": "9f11bb063217e5ab29de4b3849d7dd8a", "rental_uris": {"ios": "https://dc.lft.to/lastmile_qr_scan", "android": "https://dc.lft.to/lastmile_qr_scan"}, "fusion_lon": 0.0, "lon": -77.0217005, "name": "9f11bb063217e5ab29de4b3849d7dd8a", "is_reserved": 0, "is_disabled": 0}, {"lat": 38.903295166666666, "fusion_lat": 0.0, "type": "electric_scooter", "bike_id": "bead56a2a3dc7dbdcc9e3dfc8ebdc352", "rental_uris": {"ios": "https://dc.lft.to/lastmile_qr_scan", "android": "https://dc.lft.to/lastmile_qr_scan"}, "fusion_lon": 0.0, "lon": -77.01627066666667, "name": "bead56a2a3dc7dbdcc9e3dfc8ebdc352", "is_reserved": 0, "is_disabled": 0}, {"lat": 38.9146765, "fusion_lat": 0.0, "type": "electric_scooter", "bike_id": "1f5bfeebf82991249391179a7fb39cd2", "rental_uris": {"ios": "https://dc.lft.to/lastmile_qr_scan", "android": "https://dc.lft.to/lastmile_qr_scan"}, "fusion_lon": 0.0, "lon": -77.03836233333334, "name": "1f5bfeebf82991249391179a7fb39cd2", "is_reserved": 0, "is_disabled": 0}, {"lat": 38.887687666666665, "fusion_lat": 0.0, "type": "electric_scooter", "bike_id": "1f4c949fb41d895b43a601b89889cdbe", "rental_uris": {"ios": "https://dc.lft.to/lastmile_qr_scan", "android": "https://dc.lft.to/lastmile_qr_scan"}, "fusion_lon": 0.0, "lon": -77.02839883333333, "name": "1f4c949fb41d895b43a601b89889cdbe", "is_reserved": 0, "is_disabled": 0}, {"lat": 38.892224, "fusion_lat": 0.0, "type": "electric_scooter", "bike_id": "62ce5230363393df54e19f87d4a65cd9", "rental_uris": {"ios": "https://dc.lft.to/lastmile_qr_scan", "android": "https://dc.lft.to/lastmile_qr_scan"}, "fusion_lon": 0.0, "lon": -77.041993, "name": "62ce5230363393df54e19f87d4a65cd9", "is_reserved": 0, "is_disabled": 0}, {"lat": 38.895583333333335, "fusion_lat": 0.0, "type": "electric_scooter", "bike_id": "e0d81ae7d9e1741cfef06ba6017bb15e", "rental_uris": {"ios": "https://dc.lft.to/lastmile_qr_scan", "android": "https://dc.lft.to/lastmile_qr_scan"}, "fusion_lon": 0.0, "lon": -76.94875966666666, "name": "e0d81ae7d9e1741cfef06ba6017bb15e", "is_reserved": 0, "is_disabled": 0}, {"lat": 38.929825, "fusion_lat": 0.0, "type": "electric_scooter", "bike_id": "125c1cc0d47a867e2e96f2b10bae8b76", "rental_uris": {"ios": "https://dc.lft.to/lastmile_qr_scan", "android": "https://dc.lft.to/lastmile_qr_scan"}, "fusion_lon": 0.0, "lon": -77.036606, "name": "125c1cc0d47a867e2e96f2b10bae8b76", "is_reserved": 0, "is_disabled": 0}, {"lat": 38.90823966666667, "fusion_lat": 0.0, "type": "electric_scooter", "bike_id": "75419574b28a20e138fbb48a3b620437", "rental_uris": {"ios": "https://dc.lft.to/lastmile_qr_scan", "android": "https://dc.lft.to/lastmile_qr_scan"}, "fusion_lon": 0.0, "lon": -77.03546366666667, "name": "75419574b28a20e138fbb48a3b620437", "is_reserved": 0, "is_disabled": 0}, {"lat": 38.9228665, "fusion_lat": 0.0, "type": "electric_scooter", "bike_id": "d399025bbcfb30426fc9c7200671e2cd", "rental_uris": {"ios": "https://dc.lft.to/lastmile_qr_scan", "android": "https://dc.lft.to/lastmile_qr_scan"}, "fusion_lon": 0.0, "lon": -77.0224845, "name": "d399025bbcfb30426fc9c7200671e2cd", "is_reserved": 0, "is_disabled": 0}, {"lat": 38.90713216666666, "fusion_lat": 0.0, "type": "electric_scooter", "bike_id": "de32acb5dfbce39d2a92f0b4715597bb", "rental_uris": {"ios": "https://dc.lft.to/lastmile_qr_scan", "android": "https://dc.lft.to/lastmile_qr_scan"}, "fusion_lon": 0.0, "lon": -77.0297745, "name": "de32acb5dfbce39d2a92f0b4715597bb", "is_reserved": 0, "is_disabled": 0}, {"lat": 38.913160833333336, "fusion_lat": 0.0, "type": "electric_scooter", "bike_id": "8e391182568f8a66a624a89cc33f7e94", "rental_uris": {"ios": "https://dc.lft.to/lastmile_qr_scan", "android": "https://dc.lft.to/lastmile_qr_scan"}, "fusion_lon": 0.0, "lon": -77.0144985, "name": "8e391182568f8a66a624a89cc33f7e94", "is_reserved": 0, "is_disabled": 0}, {"lat": 38.911849833333335, "fusion_lat": 0.0, "type": "electric_scooter", "bike_id": "534bc75dc4c972b70dcc7179367cc7c6", "rental_uris": {"ios": "https://dc.lft.to/lastmile_qr_scan", "android": "https://dc.lft.to/lastmile_qr_scan"}, "fusion_lon": 0.0, "lon": -77.0200075, "name": "534bc75dc4c972b70dcc7179367cc7c6", "is_reserved": 0, "is_disabled": 0}, {"lat": 38.9289375, "fusion_lat": 0.0, "type": "electric_scooter", "bike_id": "122de769d8332c813cdb832191830ac7", "rental_uris": {"ios": "https://dc.lft.to/lastmile_qr_scan", "android": "https://dc.lft.to/lastmile_qr_scan"}, "fusion_lon": 0.0, "lon": -77.03250583333333, "name": "122de769d8332c813cdb832191830ac7", "is_reserved": 0, "is_disabled": 0}, {"lat": 38.895405, "fusion_lat": 0.0, "type": "electric_scooter", "bike_id": "48f59aeeaa4c68804ba8e222fbda58f3", "rental_uris": {"ios": "https://dc.lft.to/lastmile_qr_scan", "android": "https://dc.lft.to/lastmile_qr_scan"}, "fusion_lon": 0.0, "lon": -76.9496785, "name": "48f59aeeaa4c68804ba8e222fbda58f3", "is_reserved": 0, "is_disabled": 0}, {"lat": 38.908223, "fusion_lat": 0.0, "type": "electric_scooter", "bike_id": "faa9129cf2b265464c8008607051d0bb", "rental_uris": {"ios": "https://dc.lft.to/lastmile_qr_scan", "android": "https://dc.lft.to/lastmile_qr_scan"}, "fusion_lon": 0.0, "lon": -77.036314, "name": "faa9129cf2b265464c8008607051d0bb", "is_reserved": 0, "is_disabled": 0}, {"lat": 38.881151, "fusion_lat": 0.0, "type": "electric_scooter", "bike_id": "c90e69fda52098e1436ad8faec71c04f", "rental_uris": {"ios": "https://dc.lft.to/lastmile_qr_scan", "android": "https://dc.lft.to/lastmile_qr_scan"}, "fusion_lon": 0.0, "lon": -77.0164915, "name": "c90e69fda52098e1436ad8faec71c04f", "is_reserved": 0, "is_disabled": 0}, {"lat": 38.9240585, "fusion_lat": 0.0, "type": "electric_scooter", "bike_id": "01ae40cae1ca5467f984b3980fd139f8", "rental_uris": {"ios": "https://dc.lft.to/lastmile_qr_scan", "android": "https://dc.lft.to/lastmile_qr_scan"}, "fusion_lon": 0.0, "lon": -77.051748, "name": "01ae40cae1ca5467f984b3980fd139f8", "is_reserved": 0, "is_disabled": 0}, {"lat": 38.881808666666664, "fusion_lat": 0.0, "type": "electric_scooter", "bike_id": "3f789b4202b3e7b83eb42331117dad37", "rental_uris": {"ios": "https://dc.lft.to/lastmile_qr_scan", "android": "https://dc.lft.to/lastmile_qr_scan"}, "fusion_lon": 0.0, "lon": -76.99261333333334, "name": "3f789b4202b3e7b83eb42331117dad37", "is_reserved": 0, "is_disabled": 0}, {"lat": 38.90425, "fusion_lat": 0.0, "type": "electric_scooter", "bike_id": "1d1efaa19d315c3022ac471f13334fa0", "rental_uris": {"ios": "https://dc.lft.to/lastmile_qr_scan", "android": "https://dc.lft.to/lastmile_qr_scan"}, "fusion_lon": 0.0, "lon": -77.02008566666666, "name": "1d1efaa19d315c3022ac471f13334fa0", "is_reserved": 0, "is_disabled": 0}, {"lat": 38.898483166666665, "fusion_lat": 0.0, "type": "electric_scooter", "bike_id": "7a444dcf2b3e167975a5efef2b918cc6", "rental_uris": {"ios": "https://dc.lft.to/lastmile_qr_scan", "android": "https://dc.lft.to/lastmile_qr_scan"}, "fusion_lon": 0.0, "lon": -76.94253933333333, "name": "7a444dcf2b3e167975a5efef2b918cc6", "is_reserved": 0, "is_disabled": 0}, {"lat": 38.80759533333333, "fusion_lat": 0.0, "type": "electric_bike", "bike_id": "c1a23d6abed6903fa1df25759aec8168", "rental_uris": {"ios": "https://dc.lft.to/lastmile_qr_scan", "android": "https://dc.lft.to/lastmile_qr_scan"}, "fusion_lon": 0.0, "lon": -77.12990166666667, "name": "c1a23d6abed6903fa1df25759aec8168", "is_reserved": 0, "is_disabled": 0}, {"lat": 38.860333833333335, "fusion_lat": 0.0, "type": "electric_bike", "bike_id": "d7c0745fcb7c1c3d73e5c9ccdf13f356", "rental_uris": {"ios": "https://dc.lft.to/lastmile_qr_scan", "android": "https://dc.lft.to/lastmile_qr_scan"}, "fusion_lon": 0.0, "lon": -77.0937885, "name": "d7c0745fcb7c1c3d73e5c9ccdf13f356", "is_reserved": 0, "is_disabled": 0}, {"lat": 38.908327166666666, "fusion_lat": 0.0, "type": "electric_scooter", "bike_id": "e27a76b46f18e5cda014290399f15984", "rental_uris": {"ios": "https://dc.lft.to/lastmile_qr_scan", "android": "https://dc.lft.to/lastmile_qr_scan"}, "fusion_lon": 0.0, "lon": -77.04332466666666, "name": "e27a76b46f18e5cda014290399f15984", "is_reserved": 0, "is_disabled": 0}, {"lat": 38.90376783333333, "fusion_lat": 0.0, "type": "electric_scooter", "bike_id": "8542b2e715efadd1bbf9f9712e2909b7", "rental_uris": {"ios": "https://dc.lft.to/lastmile_qr_scan", "android": "https://dc.lft.to/lastmile_qr_scan"}, "fusion_lon": 0.0, "lon": -77.04494833333334, "name": "8542b2e715efadd1bbf9f9712e2909b7", "is_reserved": 0, "is_disabled": 0}, {"lat": 38.90415083333333, "fusion_lat": 0.0, "type": "electric_scooter", "bike_id": "897a91980b82f09d89e7d09898e14fb6", "rental_uris": {"ios": "https://dc.lft.to/lastmile_qr_scan", "android": "https://dc.lft.to/lastmile_qr_scan"}, "fusion_lon": 0.0, "lon": -77.029474, "name": "897a91980b82f09d89e7d09898e14fb6", "is_reserved": 0, "is_disabled": 0}, {"lat": 38.9110605, "fusion_lat": 0.0, "type": "electric_scooter", "bike_id": "248667079652cd1e15931d5bce4b887a", "rental_uris": {"ios": "https://dc.lft.to/lastmile_qr_scan", "android": "https://dc.lft.to/lastmile_qr_scan"}, "fusion_lon": 0.0, "lon": -77.04545216666666, "name": "248667079652cd1e15931d5bce4b887a", "is_reserved": 0, "is_disabled": 0}, {"lat": 38.875338666666664, "fusion_lat": 0.0, "type": "electric_scooter", "bike_id": "f1f16882d0013b9835d62c6d86feab29", "rental_uris": {"ios": "https://dc.lft.to/lastmile_qr_scan", "android": "https://dc.lft.to/lastmile_qr_scan"}, "fusion_lon": 0.0, "lon": -77.0050905, "name": "f1f16882d0013b9835d62c6d86feab29", "is_reserved": 0, "is_disabled": 0}, {"lat": 38.92708416666667, "fusion_lat": 0.0, "type": "electric_scooter", "bike_id": "00e920cb10c4dd35c397a1867fc83502", "rental_uris": {"ios": "https://dc.lft.to/lastmile_qr_scan", "android": "https://dc.lft.to/lastmile_qr_scan"}, "fusion_lon": 0.0, "lon": -77.03826116666667, "name": "00e920cb10c4dd35c397a1867fc83502", "is_reserved": 0, "is_disabled": 0}, {"lat": 38.90858983333333, "fusion_lat": 0.0, "type": "electric_scooter", "bike_id": "266410802a63824e297b57daeeb91b6e", "rental_uris": {"ios": "https://dc.lft.to/lastmile_qr_scan", "android": "https://dc.lft.to/lastmile_qr_scan"}, "fusion_lon": 0.0, "lon": -77.03853466666666, "name": "266410802a63824e297b57daeeb91b6e", "is_reserved": 0, "is_disabled": 0}, {"lat": 38.899106333333336, "fusion_lat": 0.0, "type": "electric_scooter", "bike_id": "2ef6387050acaee73d515595dbd7e0e5", "rental_uris": {"ios": "https://dc.lft.to/lastmile_qr_scan", "android": "https://dc.lft.to/lastmile_qr_scan"}, "fusion_lon": 0.0, "lon": -77.0447365, "name": "2ef6387050acaee73d515595dbd7e0e5", "is_reserved": 0, "is_disabled": 0}, {"lat": 38.90536916666667, "fusion_lat": 0.0, "type": "electric_scooter", "bike_id": "bb7446cde81a56736d5f0eab50a2ee58", "rental_uris": {"ios": "https://dc.lft.to/lastmile_qr_scan", "android": "https://dc.lft.to/lastmile_qr_scan"}, "fusion_lon": 0.0, "lon": -77.05030683333334, "name": "bb7446cde81a56736d5f0eab50a2ee58", "is_reserved": 0, "is_disabled": 0}, {"lat": 38.914617, "fusion_lat": 0.0, "type": "electric_scooter", "bike_id": "1e0eac011df325ef04268faacbcdb2e8", "rental_uris": {"ios": "https://dc.lft.to/lastmile_qr_scan", "android": "https://dc.lft.to/lastmile_qr_scan"}, "fusion_lon": 0.0, "lon": -77.00216666666667, "name": "1e0eac011df325ef04268faacbcdb2e8", "is_reserved": 0, "is_disabled": 0}, {"lat": 38.940856, "fusion_lat": 0.0, "type": "electric_scooter", "bike_id": "e38eb09979971474a88ed3e2553151e4", "rental_uris": {"ios": "https://dc.lft.to/lastmile_qr_scan", "android": "https://dc.lft.to/lastmile_qr_scan"}, "fusion_lon": 0.0, "lon": -77.027232, "name": "e38eb09979971474a88ed3e2553151e4", "is_reserved": 0, "is_disabled": 0}, {"lat": 38.910214333333336, "fusion_lat": 0.0, "type": "electric_scooter", "bike_id": "02e0c935052d52305bb951af4fb15e1f", "rental_uris": {"ios": "https://dc.lft.to/lastmile_qr_scan", "android": "https://dc.lft.to/lastmile_qr_scan"}, "fusion_lon": 0.0, "lon": -77.02937766666666, "name": "02e0c935052d52305bb951af4fb15e1f", "is_reserved": 0, "is_disabled": 0}, {"lat": 38.92088116666667, "fusion_lat": 0.0, "type": "electric_scooter", "bike_id": "3eff079f40264dd2fc03c287a1671731", "rental_uris": {"ios": "https://dc.lft.to/lastmile_qr_scan", "android": "https://dc.lft.to/lastmile_qr_scan"}, "fusion_lon": 0.0, "lon": -77.08202616666667, "name": "3eff079f40264dd2fc03c287a1671731", "is_reserved": 0, "is_disabled": 0}, {"lat": 38.8650525, "fusion_lat": 0.0, "type": "electric_bike", "bike_id": "dd5f061a1dc8cd5f025c94d312f2be4d", "rental_uris": {"ios": "https://dc.lft.to/lastmile_qr_scan", "android": "https://dc.lft.to/lastmile_qr_scan"}, "fusion_lon": 0.0, "lon": -76.97744900000001, "name": "dd5f061a1dc8cd5f025c94d312f2be4d", "is_reserved": 0, "is_disabled": 0}, {"lat": 38.95397583333333, "fusion_lat": 0.0, "type": "electric_scooter", "bike_id": "0a4dfe89968bd28b5dbcfee50e30bb40", "rental_uris": {"ios": "https://dc.lft.to/lastmile_qr_scan", "android": "https://dc.lft.to/lastmile_qr_scan"}, "fusion_lon": 0.0, "lon": -77.02800583333334, "name": "0a4dfe89968bd28b5dbcfee50e30bb40", "is_reserved": 0, "is_disabled": 0}, {"lat": 38.887445666666665, "fusion_lat": 0.0, "type": "electric_scooter", "bike_id": "4bc76ea8ab4dfd58a2a3844d7d027226", "rental_uris": {"ios": "https://dc.lft.to/lastmile_qr_scan", "android": "https://dc.lft.to/lastmile_qr_scan"}, "fusion_lon": 0.0, "lon": -77.02777416666666, "name": "4bc76ea8ab4dfd58a2a3844d7d027226", "is_reserved": 0, "is_disabled": 0}, {"lat": 38.884308833333336, "fusion_lat": 0.0, "type": "electric_scooter", "bike_id": "aaf5513cee8650a00a25281bf1135586", "rental_uris": {"ios": "https://dc.lft.to/lastmile_qr_scan", "android": "https://dc.lft.to/lastmile_qr_scan"}, "fusion_lon": 0.0, "lon": -76.957576, "name": "aaf5513cee8650a00a25281bf1135586", "is_reserved": 0, "is_disabled": 0}, {"lat": 38.92112933333333, "fusion_lat": 0.0, "type": "electric_scooter", "bike_id": "6f98fabfb69bb47c55e4b0c497983860", "rental_uris": {"ios": "https://dc.lft.to/lastmile_qr_scan", "android": "https://dc.lft.to/lastmile_qr_scan"}, "fusion_lon": 0.0, "lon": -77.04225333333333, "name": "6f98fabfb69bb47c55e4b0c497983860", "is_reserved": 0, "is_disabled": 0}, {"lat": 38.91562666666667, "fusion_lat": 0.0, "type": "electric_bike", "bike_id": "b2185e71ca6954ef6229ccbac5f523f2", "rental_uris": {"ios": "https://dc.lft.to/lastmile_qr_scan", "android": "https://dc.lft.to/lastmile_qr_scan"}, "fusion_lon": 0.0, "lon": -77.04036566666667, "name": "b2185e71ca6954ef6229ccbac5f523f2", "is_reserved": 0, "is_disabled": 0}, {"lat": 38.908046, "fusion_lat": 0.0, "type": "electric_scooter", "bike_id": "6939e1e847d934f377c0cd45d8672525", "rental_uris": {"ios": "https://dc.lft.to/lastmile_qr_scan", "android": "https://dc.lft.to/lastmile_qr_scan"}, "fusion_lon": 0.0, "lon": -77.043556, "name": "6939e1e847d934f377c0cd45d8672525", "is_reserved": 0, "is_disabled": 0}, {"lat": 38.916373166666666, "fusion_lat": 0.0, "type": "electric_scooter", "bike_id": "300f9d6d4796cc29b30de392ffbf3596", "rental_uris": {"ios": "https://dc.lft.to/lastmile_qr_scan", "android": "https://dc.lft.to/lastmile_qr_scan"}, "fusion_lon": 0.0, "lon": -77.05073083333333, "name": "300f9d6d4796cc29b30de392ffbf3596", "is_reserved": 0, "is_disabled": 0}, {"lat": 38.91080183333333, "fusion_lat": 0.0, "type": "electric_scooter", "bike_id": "d57a90ec815938fc0238e5c2ff853015", "rental_uris": {"ios": "https://dc.lft.to/lastmile_qr_scan", "android": "https://dc.lft.to/lastmile_qr_scan"}, "fusion_lon": 0.0, "lon": -77.00151383333333, "name": "d57a90ec815938fc0238e5c2ff853015", "is_reserved": 0, "is_disabled": 0}, {"lat": 38.899751333333334, "fusion_lat": 0.0, "type": "electric_scooter", "bike_id": "db5018224e4e51afc2daa24a4547d586", "rental_uris": {"ios": "https://dc.lft.to/lastmile_qr_scan", "android": "https://dc.lft.to/lastmile_qr_scan"}, "fusion_lon": 0.0, "lon": -77.024284, "name": "db5018224e4e51afc2daa24a4547d586", "is_reserved": 0, "is_disabled": 0}, {"lat": 38.9239115, "fusion_lat": 0.0, "type": "electric_scooter", "bike_id": "f2c94922ef436b2960e23b8846f57516", "rental_uris": {"ios": "https://dc.lft.to/lastmile_qr_scan", "android": "https://dc.lft.to/lastmile_qr_scan"}, "fusion_lon": 0.0, "lon": -77.05060766666666, "name": "f2c94922ef436b2960e23b8846f57516", "is_reserved": 0, "is_disabled": 0}, {"lat": 38.948032166666664, "fusion_lat": 0.0, "type": "electric_bike", "bike_id": "903c76b645ea9671289e059a7e9dfb9e", "rental_uris": {"ios": "https://dc.lft.to/lastmile_qr_scan", "android": "https://dc.lft.to/lastmile_qr_scan"}, "fusion_lon": 0.0, "lon": -76.95969833333334, "name": "903c76b645ea9671289e059a7e9dfb9e", "is_reserved": 0, "is_disabled": 0}, {"lat": 38.909693, "fusion_lat": 0.0, "type": "electric_scooter", "bike_id": "056db1011c05bcc1e907dd80166cee1e", "rental_uris": {"ios": "https://dc.lft.to/lastmile_qr_scan", "android": "https://dc.lft.to/lastmile_qr_scan"}, "fusion_lon": 0.0, "lon": -77.033399, "name": "056db1011c05bcc1e907dd80166cee1e", "is_reserved": 0, "is_disabled": 0}, {"lat": 38.92373283333333, "fusion_lat": 0.0, "type": "electric_scooter", "bike_id": "088ed91678e639fe7efdefc6164dddae", "rental_uris": {"ios": "https://dc.lft.to/lastmile_qr_scan", "android": "https://dc.lft.to/lastmile_qr_scan"}, "fusion_lon": 0.0, "lon": -77.04088333333333, "name": "088ed91678e639fe7efdefc6164dddae", "is_reserved": 0, "is_disabled": 0}, {"lat": 38.8957845, "fusion_lat": 0.0, "type": "electric_scooter", "bike_id": "06f90dc3387cc18b711d9df14b79aa0c", "rental_uris": {"ios": "https://dc.lft.to/lastmile_qr_scan", "android": "https://dc.lft.to/lastmile_qr_scan"}, "fusion_lon": 0.0, "lon": -77.00912966666667, "name": "06f90dc3387cc18b711d9df14b79aa0c", "is_reserved": 0, "is_disabled": 0}, {"lat": 38.899800166666665, "fusion_lat": 0.0, "type": "electric_scooter", "bike_id": "05fb90bf53aa9b4120fee9467f93dccc", "rental_uris": {"ios": "https://dc.lft.to/lastmile_qr_scan", "android": "https://dc.lft.to/lastmile_qr_scan"}, "fusion_lon": 0.0, "lon": -77.02203083333333, "name": "05fb90bf53aa9b4120fee9467f93dccc", "is_reserved": 0, "is_disabled": 0}, {"lat": 38.906121166666665, "fusion_lat": 0.0, "type": "electric_scooter", "bike_id": "4419af3003325c9f7de5385e9975ec78", "rental_uris": {"ios": "https://dc.lft.to/lastmile_qr_scan", "android": "https://dc.lft.to/lastmile_qr_scan"}, "fusion_lon": 0.0, "lon": -77.021804, "name": "4419af3003325c9f7de5385e9975ec78", "is_reserved": 0, "is_disabled": 0}, {"lat": 38.925322333333334, "fusion_lat": 0.0, "type": "electric_scooter", "bike_id": "8c93afb1b8f6fe8c6a1aad360392f158", "rental_uris": {"ios": "https://dc.lft.to/lastmile_qr_scan", "android": "https://dc.lft.to/lastmile_qr_scan"}, "fusion_lon": 0.0, "lon": -77.041414, "name": "8c93afb1b8f6fe8c6a1aad360392f158", "is_reserved": 0, "is_disabled": 0}, {"lat": 38.920717333333336, "fusion_lat": 0.0, "type": "electric_scooter", "bike_id": "5c887c3e566b91d912a32c9369aff138", "rental_uris": {"ios": "https://dc.lft.to/lastmile_qr_scan", "android": "https://dc.lft.to/lastmile_qr_scan"}, "fusion_lon": 0.0, "lon": -77.02415566666667, "name": "5c887c3e566b91d912a32c9369aff138", "is_reserved": 0, "is_disabled": 0}, {"lat": 38.87250816666667, "fusion_lat": 0.0, "type": "electric_bike", "bike_id": "338a1f55e11151b4157edbf550c753f0", "rental_uris": {"ios": "https://dc.lft.to/lastmile_qr_scan", "android": "https://dc.lft.to/lastmile_qr_scan"}, "fusion_lon": 0.0, "lon": -76.97675066666666, "name": "338a1f55e11151b4157edbf550c753f0", "is_reserved": 0, "is_disabled": 0}, {"lat": 38.909565, "fusion_lat": 0.0, "type": "electric_scooter", "bike_id": "993d166f7edcdf1f343ce88263513faa", "rental_uris": {"ios": "https://dc.lft.to/lastmile_qr_scan", "android": "https://dc.lft.to/lastmile_qr_scan"}, "fusion_lon": 0.0, "lon": -77.0343335, "name": "993d166f7edcdf1f343ce88263513faa", "is_reserved": 0, "is_disabled": 0}, {"lat": 38.930422166666666, "fusion_lat": 0.0, "type": "electric_scooter", "bike_id": "dd58b20e8c0c133d1f21176b3a60f486", "rental_uris": {"ios": "https://dc.lft.to/lastmile_qr_scan", "android": "https://dc.lft.to/lastmile_qr_scan"}, "fusion_lon": 0.0, "lon": -77.07309383333333, "name": "dd58b20e8c0c133d1f21176b3a60f486", "is_reserved": 0, "is_disabled": 0}, {"lat": 38.898757333333336, "fusion_lat": 0.0, "type": "electric_scooter", "bike_id": "ddbee52e16aa205173a7465aaa6741e9", "rental_uris": {"ios": "https://dc.lft.to/lastmile_qr_scan", "android": "https://dc.lft.to/lastmile_qr_scan"}, "fusion_lon": 0.0, "lon": -76.93191983333334, "name": "ddbee52e16aa205173a7465aaa6741e9", "is_reserved": 0, "is_disabled": 0}, {"lat": 38.914841333333335, "fusion_lat": 0.0, "type": "electric_scooter", "bike_id": "29376e022b94a91f81705b20738d779c", "rental_uris": {"ios": "https://dc.lft.to/lastmile_qr_scan", "android": "https://dc.lft.to/lastmile_qr_scan"}, "fusion_lon": 0.0, "lon": -77.03224133333333, "name": "29376e022b94a91f81705b20738d779c", "is_reserved": 0, "is_disabled": 0}, {"lat": 38.92498716666667, "fusion_lat": 0.0, "type": "electric_scooter", "bike_id": "135a3878dbd4e63f5e304dfd11908c4f", "rental_uris": {"ios": "https://dc.lft.to/lastmile_qr_scan", "android": "https://dc.lft.to/lastmile_qr_scan"}, "fusion_lon": 0.0, "lon": -77.02146783333333, "name": "135a3878dbd4e63f5e304dfd11908c4f", "is_reserved": 0, "is_disabled": 0}, {"lat": 38.873832666666665, "fusion_lat": 0.0, "type": "electric_scooter", "bike_id": "dfafe90446ee130e7e181556f4a11483", "rental_uris": {"ios": "https://dc.lft.to/lastmile_qr_scan", "android": "https://dc.lft.to/lastmile_qr_scan"}, "fusion_lon": 0.0, "lon": -77.0019825, "name": "dfafe90446ee130e7e181556f4a11483", "is_reserved": 0, "is_disabled": 0}, {"lat": 38.90366433333333, "fusion_lat": 0.0, "type": "electric_scooter", "bike_id": "6f7656f5c02e5c47f37a980b64e5fb71", "rental_uris": {"ios": "https://dc.lft.to/lastmile_qr_scan", "android": "https://dc.lft.to/lastmile_qr_scan"}, "fusion_lon": 0.0, "lon": -77.02202183333333, "name": "6f7656f5c02e5c47f37a980b64e5fb71", "is_reserved": 0, "is_disabled": 0}, {"lat": 38.934135166666664, "fusion_lat": 0.0, "type": "electric_bike", "bike_id": "875ac3540689b6150f4d1228b791e845", "rental_uris": {"ios": "https://dc.lft.to/lastmile_qr_scan", "android": "https://dc.lft.to/lastmile_qr_scan"}, "fusion_lon": 0.0, "lon": -77.0430635, "name": "875ac3540689b6150f4d1228b791e845", "is_reserved": 0, "is_disabled": 0}, {"lat": 38.9167825, "fusion_lat": 0.0, "type": "electric_scooter", "bike_id": "72025600a03a292d34f032a9c7ff72cf", "rental_uris": {"ios": "https://dc.lft.to/lastmile_qr_scan", "android": "https://dc.lft.to/lastmile_qr_scan"}, "fusion_lon": 0.0, "lon": -77.030487, "name": "72025600a03a292d34f032a9c7ff72cf", "is_reserved": 0, "is_disabled": 0}, {"lat": 38.89823066666666, "fusion_lat": 0.0, "type": "electric_scooter", "bike_id": "efd4e44427cc6c946f0157ff728f4573", "rental_uris": {"ios": "https://dc.lft.to/lastmile_qr_scan", "android": "https://dc.lft.to/lastmile_qr_scan"}, "fusion_lon": 0.0, "lon": -77.03048716666666, "name": "efd4e44427cc6c946f0157ff728f4573", "is_reserved": 0, "is_disabled": 0}, {"lat": 38.857247, "fusion_lat": 0.0, "type": "electric_bike", "bike_id": "9210b9e461c85f6323a3ea430f1ddefc", "rental_uris": {"ios": "https://dc.lft.to/lastmile_qr_scan", "android": "https://dc.lft.to/lastmile_qr_scan"}, "fusion_lon": 0.0, "lon": -76.97772183333333, "name": "9210b9e461c85f6323a3ea430f1ddefc", "is_reserved": 0, "is_disabled": 0}, {"lat": 38.91729466666666, "fusion_lat": 0.0, "type": "electric_scooter", "bike_id": "57b0bd508ec224a873f0d7369ff3d1c0", "rental_uris": {"ios": "https://dc.lft.to/lastmile_qr_scan", "android": "https://dc.lft.to/lastmile_qr_scan"}, "fusion_lon": 0.0, "lon": -77.02705816666666, "name": "57b0bd508ec224a873f0d7369ff3d1c0", "is_reserved": 0, "is_disabled": 0}, {"lat": 38.898498333333336, "fusion_lat": 0.0, "type": "electric_scooter", "bike_id": "9cffbd7079d61be5913a699aa490d098", "rental_uris": {"ios": "https://dc.lft.to/lastmile_qr_scan", "android": "https://dc.lft.to/lastmile_qr_scan"}, "fusion_lon": 0.0, "lon": -77.040017, "name": "9cffbd7079d61be5913a699aa490d098", "is_reserved": 0, "is_disabled": 0}, {"lat": 38.881272, "fusion_lat": 0.0, "type": "electric_bike", "bike_id": "82b7efe9e8b1a4abe90354bd0502f19f", "rental_uris": {"ios": "https://dc.lft.to/lastmile_qr_scan", "android": "https://dc.lft.to/lastmile_qr_scan"}, "fusion_lon": 0.0, "lon": -77.01633733333334, "name": "82b7efe9e8b1a4abe90354bd0502f19f", "is_reserved": 0, "is_disabled": 0}, {"lat": 38.9303105, "fusion_lat": 0.0, "type": "electric_scooter", "bike_id": "0bc0367f245bcac4e93a62668221bccd", "rental_uris": {"ios": "https://dc.lft.to/lastmile_qr_scan", "android": "https://dc.lft.to/lastmile_qr_scan"}, "fusion_lon": 0.0, "lon": -77.05565166666666, "name": "0bc0367f245bcac4e93a62668221bccd", "is_reserved": 0, "is_disabled": 0}, {"lat": 38.96131583333333, "fusion_lat": 0.0, "type": "electric_bike", "bike_id": "0fc2bc0108bb94a710133d1b8b02e953", "rental_uris": {"ios": "https://dc.lft.to/lastmile_qr_scan", "android": "https://dc.lft.to/lastmile_qr_scan"}, "fusion_lon": 0.0, "lon": -77.03339183333334, "name": "0fc2bc0108bb94a710133d1b8b02e953", "is_reserved": 0, "is_disabled": 0}, {"lat": 38.905711333333336, "fusion_lat": 0.0, "type": "electric_scooter", "bike_id": "919aa4536c3e4ae550c754449cfd15a0", "rental_uris": {"ios": "https://dc.lft.to/lastmile_qr_scan", "android": "https://dc.lft.to/lastmile_qr_scan"}, "fusion_lon": 0.0, "lon": -77.04895283333333, "name": "919aa4536c3e4ae550c754449cfd15a0", "is_reserved": 0, "is_disabled": 0}, {"lat": 38.8812115, "fusion_lat": 0.0, "type": "electric_scooter", "bike_id": "fdfd2615f272edcbfab23d1e42576392", "rental_uris": {"ios": "https://dc.lft.to/lastmile_qr_scan", "android": "https://dc.lft.to/lastmile_qr_scan"}, "fusion_lon": 0.0, "lon": -77.01746, "name": "fdfd2615f272edcbfab23d1e42576392", "is_reserved": 0, "is_disabled": 0}, {"lat": 38.89339666666667, "fusion_lat": 0.0, "type": "electric_scooter", "bike_id": "74dcceb9839f56e9f954a6e9f45bab50", "rental_uris": {"ios": "https://dc.lft.to/lastmile_qr_scan", "android": "https://dc.lft.to/lastmile_qr_scan"}, "fusion_lon": 0.0, "lon": -76.99385566666666, "name": "74dcceb9839f56e9f954a6e9f45bab50", "is_reserved": 0, "is_disabled": 0}, {"lat": 38.887657, "fusion_lat": 0.0, "type": "electric_scooter", "bike_id": "13a8c85d7e0ef24e6f66d1723edf7339", "rental_uris": {"ios": "https://dc.lft.to/lastmile_qr_scan", "android": "https://dc.lft.to/lastmile_qr_scan"}, "fusion_lon": 0.0, "lon": -77.02234033333333, "name": "13a8c85d7e0ef24e6f66d1723edf7339", "is_reserved": 0, "is_disabled": 0}, {"lat": 38.90777116666667, "fusion_lat": 0.0, "type": "electric_scooter", "bike_id": "0dd0325a08ab792814b178276bbfa302", "rental_uris": {"ios": "https://dc.lft.to/lastmile_qr_scan", "android": "https://dc.lft.to/lastmile_qr_scan"}, "fusion_lon": 0.0, "lon": -77.03835616666667, "name": "0dd0325a08ab792814b178276bbfa302", "is_reserved": 0, "is_disabled": 0}, {"lat": 38.90565633333333, "fusion_lat": 0.0, "type": "electric_scooter", "bike_id": "02a57b68a9414fe94e64b75f2a6f97f6", "rental_uris": {"ios": "https://dc.lft.to/lastmile_qr_scan", "android": "https://dc.lft.to/lastmile_qr_scan"}, "fusion_lon": 0.0, "lon": -77.0060105, "name": "02a57b68a9414fe94e64b75f2a6f97f6", "is_reserved": 0, "is_disabled": 0}, {"lat": 38.87702083333333, "fusion_lat": 0.0, "type": "electric_scooter", "bike_id": "3856923bbcee63ef7882ac4fb85a88e2", "rental_uris": {"ios": "https://dc.lft.to/lastmile_qr_scan", "android": "https://dc.lft.to/lastmile_qr_scan"}, "fusion_lon": 0.0, "lon": -77.0066, "name": "3856923bbcee63ef7882ac4fb85a88e2", "is_reserved": 0, "is_disabled": 0}, {"lat": 38.9228795, "fusion_lat": 0.0, "type": "electric_scooter", "bike_id": "5533cdf98493b69291d154c25b25cba9", "rental_uris": {"ios": "https://dc.lft.to/lastmile_qr_scan", "android": "https://dc.lft.to/lastmile_qr_scan"}, "fusion_lon": 0.0, "lon": -77.02975383333333, "name": "5533cdf98493b69291d154c25b25cba9", "is_reserved": 0, "is_disabled": 0}, {"lat": 38.9180045, "fusion_lat": 0.0, "type": "electric_scooter", "bike_id": "7e4f448675108d7da5d2fec18cc219a0", "rental_uris": {"ios": "https://dc.lft.to/lastmile_qr_scan", "android": "https://dc.lft.to/lastmile_qr_scan"}, "fusion_lon": 0.0, "lon": -77.04026183333333, "name": "7e4f448675108d7da5d2fec18cc219a0", "is_reserved": 0, "is_disabled": 0}, {"lat": 38.914980666666665, "fusion_lat": 0.0, "type": "electric_scooter", "bike_id": "7576e74a6b3fcdccf61c66408101ac0e", "rental_uris": {"ios": "https://dc.lft.to/lastmile_qr_scan", "android": "https://dc.lft.to/lastmile_qr_scan"}, "fusion_lon": 0.0, "lon": -76.9837945, "name": "7576e74a6b3fcdccf61c66408101ac0e", "is_reserved": 0, "is_disabled": 0},