{"data": {"bikes": [{"name": "7f41b5ad42c7fbaa75ab7f50fa31085b", "is_disabled": 0, "lat": 38.840938333333334, "rental_uris": {"ios": "https://dc.lft.to/lastmile_qr_scan", "android": "https://dc.lft.to/lastmile_qr_scan"}, "bike_id": "7f41b5ad42c7fbaa75ab7f50fa31085b", "type": "electric_bike", "lon": -77.10709183333333, "is_reserved": 0, "fusion_lat": 0.0, "fusion_lon": 0.0}, {"name": "177e27255ea0db2aa702b555d43eecd2", "is_disabled": 0, "lat": 38.8975635, "rental_uris": {"ios": "https://dc.lft.to/lastmile_qr_scan", "android": "https://dc.lft.to/lastmile_qr_scan"}, "bike_id": "177e27255ea0db2aa702b555d43eecd2", "type": "electric_scooter", "lon": -77.022035, "is_reserved": 0, "fusion_lat": 0.0, "fusion_lon": 0.0}, {"name": "956b0a76e9139f3adfc696ff6e08bc32", "is_disabled": 0, "lat": 38.90998883333334, "rental_uris": {"ios": "https://dc.lft.to/lastmile_qr_scan", "android": "https://dc.lft.to/lastmile_qr_scan"}, "bike_id": "956b0a76e9139f3adfc696ff6e08bc32", "type": "electric_scooter", "lon": -77.034672, "is_reserved": 0, "fusion_lat": 0.0, "fusion_lon": 0.0}, {"name": "0984a809968b4bf859b44bfb2349fcd7", "is_disabled": 0, "lat": 38.871754833333334, "rental_uris": {"ios": "https://dc.lft.to/lastmile_qr_scan", "android": "https://dc.lft.to/lastmile_qr_scan"}, "bike_id": "0984a809968b4bf859b44bfb2349fcd7", "type": "electric_scooter", "lon": -77.0061565, "is_reserved": 0, "fusion_lat": 0.0, "fusion_lon": 0.0}, {"name": "51ca41f8107971a9cbaa7001fdc2c082", "is_disabled": 0, "lat": 38.900069, "rental_uris": {"ios": "https://dc.lft.to/lastmile_qr_scan", "android": "https://dc.lft.to/lastmile_qr_scan"}, "bike_id": "51ca41f8107971a9cbaa7001fdc2c082", "type": "electric_scooter", "lon": -77.05418883333333, "is_reserved": 0, "fusion_lat": 0.0, "fusion_lon": 0.0}, {"name": "243596e208cf7aa865939d0f69e82f10", "is_disabled": 0, "lat": 38.9168225, "rental_uris": {"ios": "https://dc.lft.to/lastmile_qr_scan", "android": "https://dc.lft.to/lastmile_qr_scan"}, "bike_id": "243596e208cf7aa865939d0f69e82f10", "type": "electric_scooter", "lon": -77.02383366666666, "is_reserved": 0, "fusion_lat": 0.0, "fusion_lon": 0.0}, {"name": "d2fb211996747ae5ce440521f049c850", "is_disabled": 0, "lat": 38.8971855, "rental_uris": {"ios": "https://dc.lft.to/lastmile_qr_scan", "android": "https://dc.lft.to/lastmile_qr_scan"}, "bike_id": "d2fb211996747ae5ce440521f049c850", "type": "electric_scooter", "lon": -77.002112, "is_reserved": 0, "fusion_lat": 0.0, "fusion_lon": 0.0}, {"name": "d4885d39022316295c64bd36cbae70b0", "is_disabled": 0, "lat": 38.901245, "rental_uris": {"ios": "https://dc.lft.to/lastmile_qr_scan", "android": "https://dc.lft.to/lastmile_qr_scan"}, "bike_id": "d4885d39022316295c64bd36cbae70b0", "type": "electric_scooter", "lon": -77.03223483333333, "is_reserved": 0, "fusion_lat": 0.0, "fusion_lon": 0.0}, {"name": "83a05aa9c72698ae733c118324e66ac0", "is_disabled": 0, "lat": 38.9234285, "rental_uris": {"ios": "https://dc.lft.to/lastmile_qr_scan", "android": "https://dc.lft.to/lastmile_qr_scan"}, "bike_id": "83a05aa9c72698ae733c118324e66ac0", "type": "electric_scooter", "lon": -77.05180616666667, "is_reserved": 0, "fusion_lat": 0.0, "fusion_lon": 0.0}, {"name": "973542bb7aa4b3df5a5f36b26be8f770", "is_disabled": 0, "lat": 38.923612166666665, "rental_uris": {"ios": "https://dc.lft.to/lastmile_qr_scan", "android": "https://dc.lft.to/lastmile_qr_scan"}, "bike_id": "973542bb7aa4b3df5a5f36b26be8f770", "type": "electric_scooter", "lon": -77.0211765, "is_reserved": 0, "fusion_lat": 0.0, "fusion_lon": 0.0}, {"name": "09bbc2ceeaefe3a7713ec33187c19802", "is_disabled": 0, "lat": 38.900382, "rental_uris": {"ios": "https://dc.lft.to/lastmile_qr_scan", "android": "https://dc.lft.to/lastmile_qr_scan"}, "bike_id": "09bbc2ceeaefe3a7713ec33187c19802", "type": "electric_scooter", "lon": -77.00202883333333, "is_reserved": 0, "fusion_lat": 0.0, "fusion_lon": 0.0}, {"name": "cefa40ed49746f4c598cf2cb3520ac9c", "is_disabled": 0, "lat": 38.90403366666666, "rental_uris": {"ios": "https://dc.lft.to/lastmile_qr_scan", "android": "https://dc.lft.to/lastmile_qr_scan"}, "bike_id": "cefa40ed49746f4c598cf2cb3520ac9c", "type": "electric_scooter", "lon": -77.06269233333333, "is_reserved": 0, "fusion_lat": 0.0, "fusion_lon": 0.0}, {"name": "8abb8c77fa0555bbdef49ae200af6a67", "is_disabled": 0, "lat": 38.93074266666667, "rental_uris": {"ios": "https://dc.lft.to/lastmile_qr_scan", "android": "https://dc.lft.to/lastmile_qr_scan"}, "bike_id": "8abb8c77fa0555bbdef49ae200af6a67", "type": "electric_scooter", "lon": -77.03437266666667, "is_reserved": 0, "fusion_lat": 0.0, "fusion_lon": 0.0}, {"name": "61a9c81be9ee4523efa52f3643b5282c", "is_disabled": 0, "lat": 38.9022505, "rental_uris": {"ios": "https://dc.lft.to/lastmile_qr_scan", "android": "https://dc.lft.to/lastmile_qr_scan"}, "bike_id": "61a9c81be9ee4523efa52f3643b5282c", "type": "electric_scooter", "lon": -77.016079, "is_reserved": 0, "fusion_lat": 0.0, "fusion_lon": 0.0}, {"name": "9a52d8c2f5caeb1e75a2079b1a941e90", "is_disabled": 0, "lat": 38.90778916666667, "rental_uris": {"ios": "https://dc.lft.to/lastmile_qr_scan", "android": "https://dc.lft.to/lastmile_qr_scan"}, "bike_id": "9a52d8c2f5caeb1e75a2079b1a941e90", "type": "electric_scooter", "lon": -77.04506066666667, "is_reserved": 0, "fusion_lat": 0.0, "fusion_lon": 0.0}, {"name": "ded13ae2e04471cd08466b0ab90491a1", "is_disabled": 0, "lat": 38.88297383333333, "rental_uris": {"ios": "https://dc.lft.to/lastmile_qr_scan", "android": "https://dc.lft.to/lastmile_qr_scan"}, "bike_id": "ded13ae2e04471cd08466b0ab90491a1", "type": "electric_scooter", "lon": -77.013935, "is_reserved": 0, "fusion_lat": 0.0, "fusion_lon": 0.0}, {"name": "6fe2fb9db52a9e3db64305c8ec1fb1d8", "is_disabled": 0, "lat": 38.924195, "rental_uris": {"ios": "https://dc.lft.to/lastmile_qr_scan", "android": "https://dc.lft.to/lastmile_qr_scan"}, "bike_id": "6fe2fb9db52a9e3db64305c8ec1fb1d8", "type": "electric_scooter", "lon": -77.02701366666666, "is_reserved": 0, "fusion_lat": 0.0, "fusion_lon": 0.0}, {"name": "963b2094fff325a35b8e31c3e33d5522", "is_disabled": 0, "lat": 38.87673516666667, "rental_uris": {"ios": "https://dc.lft.to/lastmile_qr_scan", "android": "https://dc.lft.to/lastmile_qr_scan"}, "bike_id": "963b2094fff325a35b8e31c3e33d5522", "type": "electric_scooter", "lon": -77.00341783333333, "is_reserved": 0, "fusion_lat": 0.0, "fusion_lon": 0.0}, {"name": "1b32971424855d1228ac6a20b386859c", "is_disabled": 0, "lat": 38.898025, "rental_uris": {"ios": "https://dc.lft.to/lastmile_qr_scan", "android": "https://dc.lft.to/lastmile_qr_scan"}, "bike_id": "1b32971424855d1228ac6a20b386859c", "type": "electric_scooter", "lon": -77.04611716666666, "is_reserved": 0, "fusion_lat": 0.0, "fusion_lon": 0.0}, {"name": "e3b176e8da54d1a86cf0bd817c1d65be", "is_disabled": 0, "lat": 38.906517, "rental_uris": {"ios": "https://dc.lft.to/lastmile_qr_scan", "android": "https://dc.lft.to/lastmile_qr_scan"}, "bike_id": "e3b176e8da54d1a86cf0bd817c1d65be", "type": "electric_scooter", "lon": -77.04331883333333, "is_reserved": 0, "fusion_lat": 0.0, "fusion_lon": 0.0}, {"name": "ef820e857d716a975c36a164e711cfcc", "is_disabled": 0, "lat": 38.89754883333333, "rental_uris": {"ios": "https://dc.lft.to/lastmile_qr_scan", "android": "https://dc.lft.to/lastmile_qr_scan"}, "bike_id": "ef820e857d716a975c36a164e711cfcc", "type": "electric_scooter", "lon": -77.03295866666667, "is_reserved": 0, "fusion_lat": 0.0, "fusion_lon": 0.0}, {"name": "deb13e89812274b275bfe26a2ecea1fa", "is_disabled": 0, "lat": 38.996816333333335, "rental_uris": {"ios": "https://dc.lft.to/lastmile_qr_scan", "android": "https://dc.lft.to/lastmile_qr_scan"}, "bike_id": "deb13e89812274b275bfe26a2ecea1fa", "type": "electric_bike", "lon": -77.025578, "is_reserved": 0, "fusion_lat": 0.0, "fusion_lon": 0.0}, {"name": "af2246ffa8946647a7ad0569919442e8", "is_disabled": 0, "lat": 38.897557666666664, "rental_uris": {"ios": "https://dc.lft.to/lastmile_qr_scan", "android": "https://dc.lft.to/lastmile_qr_scan"}, "bike_id": "af2246ffa8946647a7ad0569919442e8", "type": "electric_scooter", "lon": -77.044805, "is_reserved": 0, "fusion_lat": 0.0, "fusion_lon": 0.0}, {"name": "e833439d49e38a5f3ddcddb7772e9cf2", "is_disabled": 0, "lat": 38.91482166666667, "rental_uris": {"ios": "https://dc.lft.to/lastmile_qr_scan", "android": "https://dc.lft.to/lastmile_qr_scan"}, "bike_id": "e833439d49e38a5f3ddcddb7772e9cf2", "type": "electric_scooter", "lon": -77.04250933333333, "is_reserved": 0, "fusion_lat": 0.0, "fusion_lon": 0.0}, {"name": "a8158ee1e2b1dc665cbc05d45fd56c5c", "is_disabled": 0, "lat": 38.905739, "rental_uris": {"ios": "https://dc.lft.to/lastmile_qr_scan", "android": "https://dc.lft.to/lastmile_qr_scan"}, "bike_id": "a8158ee1e2b1dc665cbc05d45fd56c5c", "type": "electric_scooter", "lon": -77.00805933333334, "is_reserved": 0, "fusion_lat": 0.0, "fusion_lon": 0.0}, {"name": "59a540c93abc281f0151d3a613cace21", "is_disabled": 0, "lat": 38.928399666666664, "rental_uris": {"ios": "https://dc.lft.to/lastmile_qr_scan", "android": "https://dc.lft.to/lastmile_qr_scan"}, "bike_id": "59a540c93abc281f0151d3a613cace21", "type": "electric_bike", "lon": -77.0206285, "is_reserved": 0, "fusion_lat": 0.0, "fusion_lon": 0.0}, {"name": "772781f1727dcf2469e0a8b183688acf", "is_disabled": 0, "lat": 38.91604066666667, "rental_uris": {"ios": "https://dc.lft.to/lastmile_qr_scan", "android": "https://dc.lft.to/lastmile_qr_scan"}, "bike_id": "772781f1727dcf2469e0a8b183688acf", "type": "electric_scooter", "lon": -77.03206333333333, "is_reserved": 0, "fusion_lat": 0.0, "fusion_lon": 0.0}, {"name": "fe2c77a6f2587536fea12f1b78734fcc", "is_disabled": 0, "lat": 38.9081265, "rental_uris": {"ios": "https://dc.lft.to/lastmile_qr_scan", "android": "https://dc.lft.to/lastmile_qr_scan"}, "bike_id": "fe2c77a6f2587536fea12f1b78734fcc", "type": "electric_scooter", "lon": -77.04177216666666, "is_reserved": 0, "fusion_lat": 0.0, "fusion_lon": 0.0}, {"name": "f7027cdc740f9b4e861df3d18342ec8e", "is_disabled": 0, "lat": 38.90007633333333, "rental_uris": {"ios": "https://dc.lft.to/lastmile_qr_scan", "android": "https://dc.lft.to/lastmile_qr_scan"}, "bike_id": "f7027cdc740f9b4e861df3d18342ec8e", "type": "electric_scooter", "lon": -76.99975733333333, "is_reserved": 0, "fusion_lat": 0.0, "fusion_lon": 0.0}, {"name": "d20bc4931b5ae5bb78ccf58ca0093515", "is_disabled": 0, "lat": 38.92146866666667, "rental_uris": {"ios": "https://dc.lft.to/lastmile_qr_scan", "android": "https://dc.lft.to/lastmile_qr_scan"}, "bike_id": "d20bc4931b5ae5bb78ccf58ca0093515", "type": "electric_scooter", "lon": -77.04350733333334, "is_reserved": 0, "fusion_lat": 0.0, "fusion_lon": 0.0}, {"name": "b10deb298fcebc116f9c6ef093ccc9db", "is_disabled": 0, "lat": 38.91279333333333, "rental_uris": {"ios": "https://dc.lft.to/lastmile_qr_scan", "android": "https://dc.lft.to/lastmile_qr_scan"}, "bike_id": "b10deb298fcebc116f9c6ef093ccc9db", "type": "electric_scooter", "lon": -77.03671233333333, "is_reserved": 0, "fusion_lat": 0.0, "fusion_lon": 0.0}, {"name": "48389357533d754edae5ae3fcb189106", "is_disabled": 0, "lat": 38.9075315, "rental_uris": {"ios": "https://dc.lft.to/lastmile_qr_scan", "android": "https://dc.lft.to/lastmile_qr_scan"}, "bike_id": "48389357533d754edae5ae3fcb189106", "type": "electric_scooter", "lon": -77.03582016666667, "is_reserved": 0, "fusion_lat": 0.0, "fusion_lon": 0.0}, {"name": "6a71fa3e40650f00f092c13a9bc08eba", "is_disabled": 0, "lat": 38.9075135, "rental_uris": {"ios": "https://dc.lft.to/lastmile_qr_scan", "android": "https://dc.lft.to/lastmile_qr_scan"}, "bike_id": "6a71fa3e40650f00f092c13a9bc08eba", "type": "electric_scooter", "lon": -77.03588383333333, "is_reserved": 0, "fusion_lat": 0.0, "fusion_lon": 0.0}, {"name": "9d124cf5058d35fd39cdf255e1969ab9", "is_disabled": 0, "lat": 38.91957583333333, "rental_uris": {"ios": "https://dc.lft.to/lastmile_qr_scan", "android": "https://dc.lft.to/lastmile_qr_scan"}, "bike_id": "9d124cf5058d35fd39cdf255e1969ab9", "type": "electric_scooter", "lon": -77.02711783333334, "is_reserved": 0, "fusion_lat": 0.0, "fusion_lon": 0.0}, {"name": "24ed342d21ef0131752e67307b4ea538", "is_disabled": 0, "lat": 38.91693816666667, "rental_uris": {"ios": "https://dc.lft.to/lastmile_qr_scan", "android": "https://dc.lft.to/lastmile_qr_scan"}, "bike_id": "24ed342d21ef0131752e67307b4ea538", "type": "electric_scooter", "lon": -77.03113233333333, "is_reserved": 0, "fusion_lat": 0.0, "fusion_lon": 0.0}, {"name": "b2ec8930d14d00ea24a08c5e6ccbe440", "is_disabled": 0, "lat": 38.915898, "rental_uris": {"ios": "https://dc.lft.to/lastmile_qr_scan", "android": "https://dc.lft.to/lastmile_qr_scan"}, "bike_id": "b2ec8930d14d00ea24a08c5e6ccbe440", "type": "electric_scooter", "lon": -77.014846, "is_reserved": 0, "fusion_lat": 0.0, "fusion_lon": 0.0}, {"name": "b9215471ee1e7c17fad264442b14dc2e", "is_disabled": 0, "lat": 38.887277166666664, "rental_uris": {"ios": "https://dc.lft.to/lastmile_qr_scan", "android": "https://dc.lft.to/lastmile_qr_scan"}, "bike_id": "b9215471ee1e7c17fad264442b14dc2e", "type": "electric_scooter", "lon": -76.9835835, "is_reserved": 0, "fusion_lat": 0.0, "fusion_lon": 0.0}, {"name": "c2828c7d3f88d8957d33a46c37b89904", "is_disabled": 0, "lat": 38.901418, "rental_uris": {"ios": "https://dc.lft.to/lastmile_qr_scan", "android": "https://dc.lft.to/lastmile_qr_scan"}, "bike_id": "c2828c7d3f88d8957d33a46c37b89904", "type": "electric_scooter", "lon": -76.97425016666666, "is_reserved": 0, "fusion_lat": 0.0, "fusion_lon": 0.0}, {"name": "729ae65f47a645c10b230e3b98a0980d", "is_disabled": 0, "lat": 38.92038983333333, "rental_uris": {"ios": "https://dc.lft.to/lastmile_qr_scan", "android": "https://dc.lft.to/lastmile_qr_scan"}, "bike_id": "729ae65f47a645c10b230e3b98a0980d", "type": "electric_scooter", "lon": -77.01678766666667, "is_reserved": 0, "fusion_lat": 0.0, "fusion_lon": 0.0}, {"name": "23a9f208a75a65331538ec41f9a3eac3", "is_disabled": 0, "lat": 38.90723916666666, "rental_uris": {"ios": "https://dc.lft.to/lastmile_qr_scan", "android": "https://dc.lft.to/lastmile_qr_scan"}, "bike_id": "23a9f208a75a65331538ec41f9a3eac3", "type": "electric_scooter", "lon": -77.043176, "is_reserved": 0, "fusion_lat": 0.0, "fusion_lon": 0.0}, {"name": "923ff568dbb157e351ab48791208b886", "is_disabled": 0, "lat": 38.90837633333334, "rental_uris": {"ios": "https://dc.lft.to/lastmile_qr_scan", "android": "https://dc.lft.to/lastmile_qr_scan"}, "bike_id": "923ff568dbb157e351ab48791208b886", "type": "electric_scooter", "lon": -77.0434085, "is_reserved": 0, "fusion_lat": 0.0, "fusion_lon": 0.0}, {"name": "0076c280e92ea4e74a5130825f4ab208", "is_disabled": 0, "lat": 38.887392, "rental_uris": {"ios": "https://dc.lft.to/lastmile_qr_scan", "android": "https://dc.lft.to/lastmile_qr_scan"}, "bike_id": "0076c280e92ea4e74a5130825f4ab208", "type": "electric_scooter", "lon": -77.017843, "is_reserved": 0, "fusion_lat": 0.0, "fusion_lon": 0.0}, {"name": "88c40a129306afc57af84bc6e9979772", "is_disabled": 0, "lat": 38.91711, "rental_uris": {"ios": "https://dc.lft.to/lastmile_qr_scan", "android": "https://dc.lft.to/lastmile_qr_scan"}, "bike_id": "88c40a129306afc57af84bc6e9979772", "type": "electric_scooter", "lon": -77.033451, "is_reserved": 0, "fusion_lat": 0.0, "fusion_lon": 0.0}, {"name": "7826f7bea0bdc882cbb4eb63f74e2cbb", "is_disabled": 0, "lat": 38.91500833333333, "rental_uris": {"ios": "https://dc.lft.to/lastmile_qr_scan", "android": "https://dc.lft.to/lastmile_qr_scan"}, "bike_id": "7826f7bea0bdc882cbb4eb63f74e2cbb", "type": "electric_scooter", "lon": -77.03208316666667, "is_reserved": 0, "fusion_lat": 0.0, "fusion_lon": 0.0}, {"name": "e40fa61a739de4b75c6a016c3852c091", "is_disabled": 0, "lat": 38.902234, "rental_uris": {"ios": "https://dc.lft.to/lastmile_qr_scan", "android": "https://dc.lft.to/lastmile_qr_scan"}, "bike_id": "e40fa61a739de4b75c6a016c3852c091", "type": "electric_scooter", "lon": -77.05329933333333, "is_reserved": 0, "fusion_lat": 0.0, "fusion_lon": 0.0}, {"name": "80187487052569a8ff213b7c876302e8", "is_disabled": 0, "lat": 38.90986083333333, "rental_uris": {"ios": "https://dc.lft.to/lastmile_qr_scan", "android": "https://dc.lft.to/lastmile_qr_scan"}, "bike_id": "80187487052569a8ff213b7c876302e8", "type": "electric_scooter", "lon": -77.046752, "is_reserved": 0, "fusion_lat": 0.0, "fusion_lon": 0.0}, {"name": "c0e8d31916b53dfe59871003c335c0bc", "is_disabled": 0, "lat": 38.89295116666667, "rental_uris": {"ios": "https://dc.lft.to/lastmile_qr_scan", "android": "https://dc.lft.to/lastmile_qr_scan"}, "bike_id": "c0e8d31916b53dfe59871003c335c0bc", "type": "electric_scooter", "lon": -77.01226133333333, "is_reserved": 0, "fusion_lat": 0.0, "fusion_lon": 0.0}, {"name": "6e4b01e2a7b62a3a5a84b0354f9e5783", "is_disabled": 0, "lat": 38.93246166666667, "rental_uris": {"ios": "https://dc.lft.to/lastmile_qr_scan", "android": "https://dc.lft.to/lastmile_qr_scan"}, "bike_id": "6e4b01e2a7b62a3a5a84b0354f9e5783", "type": "electric_scooter", "lon": -77.06650566666667, "is_reserved": 0, "fusion_lat": 0.0, "fusion_lon": 0.0}, {"name": "4b592f092012727aa6f2d7ecf1496f55", "is_disabled": 0, "lat": 38.9169325, "rental_uris": {"ios": "https://dc.lft.to/lastmile_qr_scan", "android": "https://dc.lft.to/lastmile_qr_scan"}, "bike_id": "4b592f092012727aa6f2d7ecf1496f55", "type": "electric_scooter", "lon": -77.03386916666666, "is_reserved": 0, "fusion_lat": 0.0, "fusion_lon": 0.0}, {"name": "25fee3a773566686954dad645d59e2a5", "is_disabled": 0, "lat": 38.887744, "rental_uris": {"ios": "https://dc.lft.to/lastmile_qr_scan", "android": "https://dc.lft.to/lastmile_qr_scan"}, "bike_id": "25fee3a773566686954dad645d59e2a5", "type": "electric_scooter", "lon": -76.95533833333333, "is_reserved": 0, "fusion_lat": 0.0, "fusion_lon": 0.0}, {"name": "646e843edc55129f4f606e5fb3e051b6", "is_disabled": 0, "lat": 38.9354235, "rental_uris": {"ios": "https://dc.lft.to/lastmile_qr_scan", "android": "https://dc.lft.to/lastmile_qr_scan"}, "bike_id": "646e843edc55129f4f606e5fb3e051b6", "type": "electric_scooter", "lon": -77.05743216666667, "is_reserved": 0, "fusion_lat": 0.0, "fusion_lon": 0.0}, {"name": "151983ddbe3ac812c77c9c88714a1ea1", "is_disabled": 0, "lat": 38.918303333333334, "rental_uris": {"ios": "https://dc.lft.to/lastmile_qr_scan", "android": "https://dc.lft.to/lastmile_qr_scan"}, "bike_id": "151983ddbe3ac812c77c9c88714a1ea1", "type": "electric_scooter", "lon": -77.03189366666666, "is_reserved": 0, "fusion_lat": 0.0, "fusion_lon": 0.0}, {"name": "9990ee9b37405e9f3eba7aa5355aef56", "is_disabled": 0, "lat": 38.9921275, "rental_uris": {"ios": "https://dc.lft.to/lastmile_qr_scan", "android": "https://dc.lft.to/lastmile_qr_scan"}, "bike_id": "9990ee9b37405e9f3eba7aa5355aef56", "type": "electric_bike", "lon": -77.032137, "is_reserved": 0, "fusion_lat": 0.0, "fusion_lon": 0.0}, {"name": "e45f7f2f38caded8825b412a00e25905", "is_disabled": 0, "lat": 38.90209683333333, "rental_uris": {"ios": "https://dc.lft.to/lastmile_qr_scan", "android": "https://dc.lft.to/lastmile_qr_scan"}, "bike_id": "e45f7f2f38caded8825b412a00e25905", "type": "electric_scooter", "lon": -76.98614616666667, "is_reserved": 0, "fusion_lat": 0.0, "fusion_lon": 0.0}, {"name": "e24051d423c3db8563967f9ece70ce52", "is_disabled": 0, "lat": 38.957286, "rental_uris": {"ios": "https://dc.lft.to/lastmile_qr_scan", "android": "https://dc.lft.to/lastmile_qr_scan"}, "bike_id": "e24051d423c3db8563967f9ece70ce52", "type": "electric_scooter", "lon": -77.02406216666667, "is_reserved": 0, "fusion_lat": 0.0, "fusion_lon": 0.0}, {"name": "cef10f10e33993fad9da7c181ee3d0e4", "is_disabled": 0, "lat": 38.905833, "rental_uris": {"ios": "https://dc.lft.to/lastmile_qr_scan", "android": "https://dc.lft.to/lastmile_qr_scan"}, "bike_id": "cef10f10e33993fad9da7c181ee3d0e4", "type": "electric_scooter", "lon": -77.0059675, "is_reserved": 0, "fusion_lat": 0.0, "fusion_lon": 0.0}, {"name": "40245177f07ebb132a7c836904528266", "is_disabled": 0, "lat": 38.921209833333336, "rental_uris": {"ios": "https://dc.lft.to/lastmile_qr_scan", "android": "https://dc.lft.to/lastmile_qr_scan"}, "bike_id": "40245177f07ebb132a7c836904528266", "type": "electric_scooter", "lon": -77.04217416666667, "is_reserved": 0, "fusion_lat": 0.0, "fusion_lon": 0.0}, {"name": "9410474e325d880ead0fd7958dfccbe4", "is_disabled": 0, "lat": 38.917919166666664, "rental_uris": {"ios": "https://dc.lft.to/lastmile_qr_scan", "android": "https://dc.lft.to/lastmile_qr_scan"}, "bike_id": "9410474e325d880ead0fd7958dfccbe4", "type": "electric_scooter", "lon": -77.04168433333334, "is_reserved": 0, "fusion_lat": 0.0, "fusion_lon": 0.0}, {"name": "b91f0780c0acedb21843e3b6f00f4d99", "is_disabled": 0, "lat": 38.87403483333333, "rental_uris": {"ios": "https://dc.lft.to/lastmile_qr_scan", "android": "https://dc.lft.to/lastmile_qr_scan"}, "bike_id": "b91f0780c0acedb21843e3b6f00f4d99", "type": "electric_scooter", "lon": -77.0020885, "is_reserved": 0, "fusion_lat": 0.0, "fusion_lon": 0.0}, {"name": "16ceb14f50fa5e10bfd1a3ee8430f500", "is_disabled": 0, "lat": 38.928524, "rental_uris": {"ios": "https://dc.lft.to/lastmile_qr_scan", "android": "https://dc.lft.to/lastmile_qr_scan"}, "bike_id": "16ceb14f50fa5e10bfd1a3ee8430f500", "type": "electric_scooter", "lon": -77.03531966666667, "is_reserved": 0, "fusion_lat": 0.0, "fusion_lon": 0.0}, {"name": "9c029c89e9b7d4a1671979d097738fd1", "is_disabled": 0, "lat": 38.88727083333333, "rental_uris": {"ios": "https://dc.lft.to/lastmile_qr_scan", "android": "https://dc.lft.to/lastmile_qr_scan"}, "bike_id": "9c029c89e9b7d4a1671979d097738fd1", "type": "electric_scooter", "lon": -77.023862, "is_reserved": 0, "fusion_lat": 0.0, "fusion_lon": 0.0}, {"name": "b92a4a9dc5af2cba2d5f3a5864b72656", "is_disabled": 0, "lat": 38.908907, "rental_uris": {"ios": "https://dc.lft.to/lastmile_qr_scan", "android": "https://dc.lft.to/lastmile_qr_scan"}, "bike_id": "b92a4a9dc5af2cba2d5f3a5864b72656", "type": "electric_scooter", "lon": -77.04398716666667, "is_reserved": 0, "fusion_lat": 0.0, "fusion_lon": 0.0}, {"name": "4af4a56ba844f4839120b52bdb2276f3", "is_disabled": 0, "lat": 38.919200000000004, "rental_uris": {"ios": "https://dc.lft.to/lastmile_qr_scan", "android": "https://dc.lft.to/lastmile_qr_scan"}, "bike_id": "4af4a56ba844f4839120b52bdb2276f3", "type": "electric_scooter", "lon": -77.04161433333333, "is_reserved": 0, "fusion_lat": 0.0, "fusion_lon": 0.0}, {"name": "f3ce2d4ba46d72becaf27abeffdef16c", "is_disabled": 0, "lat": 38.918479, "rental_uris": {"ios": "https://dc.lft.to/lastmile_qr_scan", "android": "https://dc.lft.to/lastmile_qr_scan"}, "bike_id": "f3ce2d4ba46d72becaf27abeffdef16c", "type": "electric_scooter", "lon": -76.96537966666666, "is_reserved": 0, "fusion_lat": 0.0, "fusion_lon": 0.0}, {"name": "80b0c2f409e98d00f15efb735699d90c", "is_disabled": 0, "lat": 38.917970833333335, "rental_uris": {"ios": "https://dc.lft.to/lastmile_qr_scan", "android": "https://dc.lft.to/lastmile_qr_scan"}, "bike_id": "80b0c2f409e98d00f15efb735699d90c", "type": "electric_scooter", "lon": -77.027107, "is_reserved": 0, "fusion_lat": 0.0, "fusion_lon": 0.0}, {"name": "8c277a724c40c84005e11670b0ddd0ee", "is_disabled": 0, "lat": 38.89605866666667, "rental_uris": {"ios": "https://dc.lft.to/lastmile_qr_scan", "android": "https://dc.lft.to/lastmile_qr_scan"}, "bike_id": "8c277a724c40c84005e11670b0ddd0ee", "type": "electric_scooter", "lon": -76.98108033333334, "is_reserved": 0, "fusion_lat": 0.0, "fusion_lon": 0.0}, {"name": "456bf51ce729fbad1dd8b8453fd9cc86", "is_disabled": 0, "lat": 38.90570066666667, "rental_uris": {"ios": "https://dc.lft.to/lastmile_qr_scan", "android": "https://dc.lft.to/lastmile_qr_scan"}, "bike_id": "456bf51ce729fbad1dd8b8453fd9cc86", "type": "electric_scooter", "lon": -77.00596516666667, "is_reserved": 0, "fusion_lat": 0.0, "fusion_lon": 0.0}, {"name": "e91c795d7d6fa40b8e73eeed97a85486", "is_disabled": 0, "lat": 38.90157033333333, "rental_uris": {"ios": "https://dc.lft.to/lastmile_qr_scan", "android": "https://dc.lft.to/lastmile_qr_scan"}, "bike_id": "e91c795d7d6fa40b8e73eeed97a85486", "type": "electric_scooter", "lon": -77.02286866666667, "is_reserved": 0, "fusion_lat": 0.0, "fusion_lon": 0.0}, {"name": "7d375a9ce70b3aa4e3e94a9f1b4272b4", "is_disabled": 0, "lat": 38.895159666666665, "rental_uris": {"ios": "https://dc.lft.to/lastmile_qr_scan", "android": "https://dc.lft.to/lastmile_qr_scan"}, "bike_id": "7d375a9ce70b3aa4e3e94a9f1b4272b4", "type": "electric_scooter", "lon": -77.00363833333333, "is_reserved": 0, "fusion_lat": 0.0, "fusion_lon": 0.0}, {"name": "eab1c69fc667376c70768c70fe93adec", "is_disabled": 0, "lat": 38.901931833333336, "rental_uris": {"ios": "https://dc.lft.to/lastmile_qr_scan", "android": "https://dc.lft.to/lastmile_qr_scan"}, "bike_id": "eab1c69fc667376c70768c70fe93adec", "type": "electric_scooter", "lon": -77.023552, "is_reserved": 0, "fusion_lat": 0.0, "fusion_lon": 0.0}, {"name": "a0cab04a38ba0ee2d5eef82d1be661dd", "is_disabled": 0, "lat": 38.890326, "rental_uris": {"ios": "https://dc.lft.to/lastmile_qr_scan", "android": "https://dc.lft.to/lastmile_qr_scan"}, "bike_id": "a0cab04a38ba0ee2d5eef82d1be661dd", "type": "electric_scooter", "lon": -76.9376005, "is_reserved": 0, "fusion_lat": 0.0, "fusion_lon": 0.0}, {"name": "92b1fba33b301245e59a9608811cd0b8", "is_disabled": 0, "lat": 38.932184166666666, "rental_uris": {"ios": "https://dc.lft.to/lastmile_qr_scan", "android": "https://dc.lft.to/lastmile_qr_scan"}, "bike_id": "92b1fba33b301245e59a9608811cd0b8", "type": "electric_scooter", "lon": -76.99495433333334, "is_reserved": 0, "fusion_lat": 0.0, "fusion_lon": 0.0}, {"name": "e28a1495d969f3a37e676336b8d6a400", "is_disabled": 0, "lat": 38.923386, "rental_uris": {"ios": "https://dc.lft.to/lastmile_qr_scan", "android": "https://dc.lft.to/lastmile_qr_scan"}, "bike_id": "e28a1495d969f3a37e676336b8d6a400", "type": "electric_scooter", "lon": -77.05184216666666, "is_reserved": 0, "fusion_lat": 0.0, "fusion_lon": 0.0}, {"name": "97a6154bd0def4fd9baef0a33cdbbb20", "is_disabled": 0, "lat": 38.90660733333333, "rental_uris": {"ios": "https://dc.lft.to/lastmile_qr_scan", "android": "https://dc.lft.to/lastmile_qr_scan"}, "bike_id": "97a6154bd0def4fd9baef0a33cdbbb20", "type": "electric_scooter", "lon": -77.01062616666667, "is_reserved": 0, "fusion_lat": 0.0, "fusion_lon": 0.0}, {"name": "6c6435d200a1dac45e90f9d2aa0d0eef", "is_disabled": 0, "lat": 38.900253, "rental_uris": {"ios": "https://dc.lft.to/lastmile_qr_scan", "android": "https://dc.lft.to/lastmile_qr_scan"}, "bike_id": "6c6435d200a1dac45e90f9d2aa0d0eef", "type": "electric_scooter", "lon": -76.99853766666666, "is_reserved": 0, "fusion_lat": 0.0, "fusion_lon": 0.0}, {"name": "756fd278d1708432d726fee185392b5c", "is_disabled": 0, "lat": 38.962157833333336, "rental_uris": {"ios": "https://dc.lft.to/lastmile_qr_scan", "android": "https://dc.lft.to/lastmile_qr_scan"}, "bike_id": "756fd278d1708432d726fee185392b5c", "type": "electric_bike", "lon": -77.02801166666667, "is_reserved": 0, "fusion_lat": 0.0, "fusion_lon": 0.0}, {"name": "2af41141f92406a270e72a63a48c8972", "is_disabled": 0, "lat": 38.916783333333335, "rental_uris": {"ios": "https://dc.lft.to/lastmile_qr_scan", "android": "https://dc.lft.to/lastmile_qr_scan"}, "bike_id": "2af41141f92406a270e72a63a48c8972", "type": "electric_scooter", "lon": -77.02285716666667, "is_reserved": 0, "fusion_lat": 0.0, "fusion_lon": 0.0}, {"name": "3385450470fea02ccfadf3d6d57c991f", "is_disabled": 0, "lat": 38.91250616666667, "rental_uris": {"ios": "https://dc.lft.to/lastmile_qr_scan", "android": "https://dc.lft.to/lastmile_qr_scan"}, "bike_id": "3385450470fea02ccfadf3d6d57c991f", "type": "electric_scooter", "lon": -77.0077745, "is_reserved": 0, "fusion_lat": 0.0, "fusion_lon": 0.0}, {"name": "b895cae452ceb8368f62ac7e249a0e8a", "is_disabled": 0, "lat": 38.873711166666666, "rental_uris": {"ios": "https://dc.lft.to/lastmile_qr_scan", "android": "https://dc.lft.to/lastmile_qr_scan"}, "bike_id": "b895cae452ceb8368f62ac7e249a0e8a", "type": "electric_scooter", "lon": -77.001349, "is_reserved": 0, "fusion_lat": 0.0, "fusion_lon": 0.0}, {"name": "5e8faa72eddf970cb7c221960e96c3fc", "is_disabled": 0, "lat": 38.874717833333335, "rental_uris": {"ios": "https://dc.lft.to/lastmile_qr_scan", "android": "https://dc.lft.to/lastmile_qr_scan"}, "bike_id": "5e8faa72eddf970cb7c221960e96c3fc", "type": "electric_scooter", "lon": -77.00570066666667, "is_reserved": 0, "fusion_lat": 0.0, "fusion_lon": 0.0}, {"name": "39b87b4f79d1f5138c50f0d1fbc73b21", "is_disabled": 0, "lat": 38.899542833333335, "rental_uris": {"ios": "https://dc.lft.to/lastmile_qr_scan", "android": "https://dc.lft.to/lastmile_qr_scan"}, "bike_id": "39b87b4f79d1f5138c50f0d1fbc73b21", "type": "electric_scooter", "lon": -77.0449175, "is_reserved": 0, "fusion_lat": 0.0, "fusion_lon": 0.0}, {"name": "82dfd010bd3ff2a9d814fa6ce2eeb680", "is_disabled": 0, "lat": 38.9046615, "rental_uris": {"ios": "https://dc.lft.to/lastmile_qr_scan", "android": "https://dc.lft.to/lastmile_qr_scan"}, "bike_id": "82dfd010bd3ff2a9d814fa6ce2eeb680", "type": "electric_scooter", "lon": -77.05334616666667, "is_reserved": 0, "fusion_lat": 0.0, "fusion_lon": 0.0}, {"name": "940f23479006ae2899bf1dee5d65b448", "is_disabled": 0, "lat": 38.918149166666666, "rental_uris": {"ios": "https://dc.lft.to/lastmile_qr_scan", "android": "https://dc.lft.to/lastmile_qr_scan"}, "bike_id": "940f23479006ae2899bf1dee5d65b448", "type": "electric_scooter", "lon": -77.03163433333333, "is_reserved": 0, "fusion_lat": 0.0, "fusion_lon": 0.0}, {"name": "2dd3323746012741810d7a6178d38d91", "is_disabled": 0, "lat": 38.921517, "rental_uris": {"ios": "https://dc.lft.to/lastmile_qr_scan", "android": "https://dc.lft.to/lastmile_qr_scan"}, "bike_id": "2dd3323746012741810d7a6178d38d91", "type": "electric_scooter", "lon": -77.02025983333333, "is_reserved": 0, "fusion_lat": 0.0, "fusion_lon": 0.0}, {"name": "8e66da39091d1f9063baa88091a7a4ce", "is_disabled": 0, "lat": 38.939058, "rental_uris": {"ios": "https://dc.lft.to/lastmile_qr_scan", "android": "https://dc.lft.to/lastmile_qr_scan"}, "bike_id": "8e66da39091d1f9063baa88091a7a4ce", "type": "electric_scooter", "lon": -77.02457266666667, "is_reserved": 0, "fusion_lat": 0.0, "fusion_lon": 0.0}, {"name": "a6eb8a36281d92f88557145b37720424", "is_disabled": 0, "lat": 38.87666383333333, "rental_uris": {"ios": "https://dc.lft.to/lastmile_qr_scan", "android": "https://dc.lft.to/lastmile_qr_scan"}, "bike_id": "a6eb8a36281d92f88557145b37720424", "type": "electric_scooter", "lon": -77.00326216666667, "is_reserved": 0, "fusion_lat": 0.0, "fusion_lon": 0.0}, {"name": "626c5e6de5615d4deb66b6137be6b964", "is_disabled": 0, "lat": 38.89746516666666, "rental_uris": {"ios": "https://dc.lft.to/lastmile_qr_scan", "android": "https://dc.lft.to/lastmile_qr_scan"}, "bike_id": "626c5e6de5615d4deb66b6137be6b964", "type": "electric_scooter", "lon": -77.03310316666666, "is_reserved": 0, "fusion_lat": 0.0, "fusion_lon": 0.0}, {"name": "3ce37b7e531e45499b499d9c27a89167", "is_disabled": 0, "lat": 38.8921855, "rental_uris": {"ios": "https://dc.lft.to/lastmile_qr_scan", "android": "https://dc.lft.to/lastmile_qr_scan"}, "bike_id": "3ce37b7e531e45499b499d9c27a89167", "type": "electric_scooter", "lon": -77.02627683333333, "is_reserved": 0, "fusion_lat": 0.0, "fusion_lon": 0.0}, {"name": "8e2708ce4cd75d5695ebfed9af382bd5", "is_disabled": 0, "lat": 38.84611, "rental_uris": {"ios": "https://dc.lft.to/lastmile_qr_scan", "android": "https://dc.lft.to/lastmile_qr_scan"}, "bike_id": "8e2708ce4cd75d5695ebfed9af382bd5", "type": "electric_bike", "lon": -76.9691605, "is_reserved": 0, "fusion_lat": 0.0, "fusion_lon": 0.0}, {"name": "80c5f14a21491c647ca9f17d4914fb94", "is_disabled": 0, "lat": 38.908524666666665, "rental_uris": {"ios": "https://dc.lft.to/lastmile_qr_scan", "android": "https://dc.lft.to/lastmile_qr_scan"}, "bike_id": "80c5f14a21491c647ca9f17d4914fb94", "type": "electric_scooter", "lon": -77.02724566666667, "is_reserved": 0, "fusion_lat": 0.0, "fusion_lon": 0.0}, {"name": "8e3f0fb13a0aa8e7577687e57ac2e4f8", "is_disabled": 0, "lat": 38.892208333333336, "rental_uris": {"ios": "https://dc.lft.to/lastmile_qr_scan", "android": "https://dc.lft.to/lastmile_qr_scan"}, "bike_id": "8e3f0fb13a0aa8e7577687e57ac2e4f8", "type": "electric_scooter", "lon": -77.04327783333333, "is_reserved": 0, "fusion_lat": 0.0, "fusion_lon": 0.0}, {"name": "bb237a5b0db632796039c53789734b86", "is_disabled": 0, "lat": 38.88731666666666, "rental_uris": {"ios": "https://dc.lft.to/lastmile_qr_scan", "android": "https://dc.lft.to/lastmile_qr_scan"}, "bike_id": "bb237a5b0db632796039c53789734b86", "type": "electric_scooter", "lon": -77.02382866666666, "is_reserved": 0, "fusion_lat": 0.0, "fusion_lon": 0.0}, {"name": "55b0985bc84fb523b1b2912bd12c374b", "is_disabled": 0, "lat": 38.912575, "rental_uris": {"ios": "https://dc.lft.to/lastmile_qr_scan", "android": "https://dc.lft.to/lastmile_qr_scan"}, "bike_id": "55b0985bc84fb523b1b2912bd12c374b", "type": "electric_scooter", "lon": -77.045532, "is_reserved": 0, "fusion_lat": 0.0, "fusion_lon": 0.0}, {"name": "852406bf4febf9487cecdc0dd7f26a6b", "is_disabled": 0, "lat": 38.90987533333333, "rental_uris": {"ios": "https://dc.lft.to/lastmile_qr_scan", "android": "https://dc.lft.to/lastmile_qr_scan"}, "bike_id": "852406bf4febf9487cecdc0dd7f26a6b", "type": "electric_scooter", "lon": -76.99474666666667, "is_reserved": 0, "fusion_lat": 0.0, "fusion_lon": 0.0}, {"name": "eedd2e9d55d585a424e040f34fd12463", "is_disabled": 0, "lat": 38.9246705, "rental_uris": {"ios": "https://dc.lft.to/lastmile_qr_scan", "android": "https://dc.lft.to/lastmile_qr_scan"}, "bike_id": "eedd2e9d55d585a424e040f34fd12463", "type": "electric_scooter", "lon": -77.039416, "is_reserved": 0, "fusion_lat": 0.0, "fusion_lon": 0.0}, {"name": "1046178a46f272730156d9d60ada346a", "is_disabled": 0, "lat": 38.903309166666666, "rental_uris": {"ios": "https://dc.lft.to/lastmile_qr_scan", "android": "https://dc.lft.to/lastmile_qr_scan"}, "bike_id": "1046178a46f272730156d9d60ada346a", "type": "electric_scooter", "lon": -77.05296316666667, "is_reserved": 0, "fusion_lat": 0.0, "fusion_lon": 0.0}, {"name": "e5216fabf2d3e73e3b61c595f528db8f", "is_disabled": 0, "lat": 38.90952816666667, "rental_uris": {"ios": "https://dc.lft.to/lastmile_qr_scan", "android": "https://dc.lft.to/lastmile_qr_scan"}, "bike_id": "e5216fabf2d3e73e3b61c595f528db8f", "type": "electric_scooter", "lon": -77.01443016666667, "is_reserved": 0, "fusion_lat": 0.0, "fusion_lon": 0.0}, {"name": "d7e4527fc3717f413e4ba25c5e1ab7e0", "is_disabled": 0, "lat": 38.883861833333334, "rental_uris": {"ios": "https://dc.lft.to/lastmile_qr_scan", "android": "https://dc.lft.to/lastmile_qr_scan"}, "bike_id": "d7e4527fc3717f413e4ba25c5e1ab7e0", "type": "electric_scooter", "lon": -76.9305035, "is_reserved": 0, "fusion_lat": 0.0, "fusion_lon": 0.0}, {"name": "fd0bebd9ced066cd665a8e3afb1441be", "is_disabled": 0, "lat": 38.9151455, "rental_uris": {"ios": "https://dc.lft.to/lastmile_qr_scan", "android": "https://dc.lft.to/lastmile_qr_scan"}, "bike_id": "fd0bebd9ced066cd665a8e3afb1441be", "type": "electric_scooter", "lon": -77.04476166666667, "is_reserved": 0, "fusion_lat": 0.0, "fusion_lon": 0.0}, {"name": "869a546c23e0cd8d060abe6660d6dc80", "is_disabled": 0, "lat": 38.883508, "rental_uris": {"ios": "https://dc.lft.to/lastmile_qr_scan", "android": "https://dc.lft.to/lastmile_qr_scan"}, "bike_id": "869a546c23e0cd8d060abe6660d6dc80", "type": "electric_scooter", "lon": -77.0136325, "is_reserved": 0, "fusion_lat": 0.0, "fusion_lon": 0.0}, {"name": "7174520a876b2e02bcf485cc857caa70", "is_disabled": 0, "lat": 38.89704116666667, "rental_uris": {"ios": "https://dc.lft.to/lastmile_qr_scan", "android": "https://dc.lft.to/lastmile_qr_scan"}, "bike_id": "7174520a876b2e02bcf485cc857caa70", "type": "electric_scooter", "lon": -77.02683483333334, "is_reserved": 0, "fusion_lat": 0.0, "fusion_lon": 0.0}, {"name": "e352bed7b950e965744bb962a3ea6104", "is_disabled": 0, "lat": 38.909680333333334, "rental_uris": {"ios": "https://dc.lft.to/lastmile_qr_scan", "android": "https://dc.lft.to/lastmile_qr_scan"}, "bike_id": "e352bed7b950e965744bb962a3ea6104", "type": "electric_scooter", "lon": -77.03473983333333, "is_reserved": 0, "fusion_lat": 0.0, "fusion_lon": 0.0}, {"name": "cb766d5f3b0daa9266ce9137d8f523ba", "is_disabled": 0, "lat": 38.855118166666664, "rental_uris": {"ios": "https://dc.lft.to/lastmile_qr_scan", "android": "https://dc.lft.to/lastmile_qr_scan"}, "bike_id": "cb766d5f3b0daa9266ce9137d8f523ba", "type": "electric_bike", "lon": -76.9843745, "is_reserved": 0, "fusion_lat": 0.0, "fusion_lon": 0.0}, {"name": "f43c87fb84d8cd54be3862e61e8cf6ed", "is_disabled": 0, "lat": 38.90059, "rental_uris": {"ios": "https://dc.lft.to/lastmile_qr_scan", "android": "https://dc.lft.to/lastmile_qr_scan"}, "bike_id": "f43c87fb84d8cd54be3862e61e8cf6ed", "type": "electric_scooter", "lon": -77.01631566666667, "is_reserved": 0, "fusion_lat": 0.0, "fusion_lon": 0.0}, {"name": "d9cd6d3b10700f89acf65184a07e2f62", "is_disabled": 0, "lat": 38.937621166666666, "rental_uris": {"ios": "https://dc.lft.to/lastmile_qr_scan", "android": "https://dc.lft.to/lastmile_qr_scan"}, "bike_id": "d9cd6d3b10700f89acf65184a07e2f62", "type": "electric_bike", "lon": -76.99058783333334, "is_reserved": 0, "fusion_lat": 0.0, "fusion_lon": 0.0}, {"name": "b0c862cd68dda718f13716ab38f7c2d5", "is_disabled": 0, "lat": 38.91773666666667, "rental_uris": {"ios": "https://dc.lft.to/lastmile_qr_scan", "android": "https://dc.lft.to/lastmile_qr_scan"}, "bike_id": "b0c862cd68dda718f13716ab38f7c2d5", "type": "electric_scooter", "lon": -77.02409066666667, "is_reserved": 0, "fusion_lat": 0.0, "fusion_lon": 0.0}, {"name": "c59ff766e020c191ac690de8c1697515", "is_disabled": 0, "lat": 38.919241666666665, "rental_uris": {"ios": "https://dc.lft.to/lastmile_qr_scan", "android": "https://dc.lft.to/lastmile_qr_scan"}, "bike_id": "c59ff766e020c191ac690de8c1697515", "type": "electric_scooter", "lon": -77.02665633333334, "is_reserved": 0, "fusion_lat": 0.0, "fusion_lon": 0.0}, {"name": "980b9080ddd95b97ff0f67331516a0e6", "is_disabled": 0, "lat": 38.87206916666667, "rental_uris": {"ios": "https://dc.lft.to/lastmile_qr_scan", "android": "https://dc.lft.to/lastmile_qr_scan"}, "bike_id": "980b9080ddd95b97ff0f67331516a0e6", "type": "electric_scooter", "lon": -77.005809, "is_reserved": 0, "fusion_lat": 0.0, "fusion_lon": 0.0}, {"name": "2607806227f04f8f9080ef6f3f5b29fb", "is_disabled": 0, "lat": 38.91264, "rental_uris": {"ios": "https://dc.lft.to/lastmile_qr_scan", "android": "https://dc.lft.to/lastmile_qr_scan"}, "bike_id": "2607806227f04f8f9080ef6f3f5b29fb", "type": "electric_scooter", "lon": -77.02824933333333, "is_reserved": 0, "fusion_lat": 0.0, "fusion_lon": 0.0}, {"name": "5bfa4337ba20694a836791cf23fbc9fa", "is_disabled": 0, "lat": 38.8921295, "rental_uris": {"ios": "https://dc.lft.to/lastmile_qr_scan", "android": "https://dc.lft.to/lastmile_qr_scan"}, "bike_id": "5bfa4337ba20694a836791cf23fbc9fa", "type": "electric_scooter", "lon": -76.995726, "is_reserved": 0, "fusion_lat": 0.0, "fusion_lon": 0.0}, {"name": "d71a929feea8036c29083be3752b90f2", "is_disabled": 0, "lat": 38.937747333333334, "rental_uris": {"ios": "https://dc.lft.to/lastmile_qr_scan", "android": "https://dc.lft.to/lastmile_qr_scan"}, "bike_id": "d71a929feea8036c29083be3752b90f2", "type": "electric_scooter", "lon": -77.0326395, "is_reserved": 0, "fusion_lat": 0.0, "fusion_lon": 0.0}, {"name": "8a9e3ab71ca177209082fac464054ad2", "is_disabled": 0, "lat": 38.9560655, "rental_uris": {"ios": "https://dc.lft.to/lastmile_qr_scan", "android": "https://dc.lft.to/lastmile_qr_scan"}, "bike_id": "8a9e3ab71ca177209082fac464054ad2", "type": "electric_scooter", "lon": -77.03354933333334, "is_reserved": 0, "fusion_lat": 0.0, "fusion_lon": 0.0}, {"name": "d61d3f54ba898911b84296dde70c3b94", "is_disabled": 0, "lat": 38.9118965, "rental_uris": {"ios": "https://dc.lft.to/lastmile_qr_scan", "android": "https://dc.lft.to/lastmile_qr_scan"}, "bike_id": "d61d3f54ba898911b84296dde70c3b94", "type": "electric_scooter", "lon": -77.037577, "is_reserved": 0, "fusion_lat": 0.0, "fusion_lon": 0.0}, {"name": "9c6d3135b6ab76e53d3ef3efa5f256a4", "is_disabled": 0, "lat": 38.8960695, "rental_uris": {"ios": "https://dc.lft.to/lastmile_qr_scan", "android": "https://dc.lft.to/lastmile_qr_scan"}, "bike_id": "9c6d3135b6ab76e53d3ef3efa5f256a4", "type": "electric_scooter", "lon": -77.02364166666666, "is_reserved": 0, "fusion_lat": 0.0, "fusion_lon": 0.0}, {"name": "6233c182492d787d7ee8831931ddfff1", "is_disabled": 0, "lat": 38.90282083333334, "rental_uris": {"ios": "https://dc.lft.to/lastmile_qr_scan", "android": "https://dc.lft.to/lastmile_qr_scan"}, "bike_id": "6233c182492d787d7ee8831931ddfff1", "type": "electric_scooter", "lon": -77.03357583333333, "is_reserved": 0, "fusion_lat": 0.0, "fusion_lon": 0.0}, {"name": "42874df71c12228b29966ad6e390436e", "is_disabled": 0, "lat": 38.91817666666667, "rental_uris": {"ios": "https://dc.lft.to/lastmile_qr_scan", "android": "https://dc.lft.to/lastmile_qr_scan"}, "bike_id": "42874df71c12228b29966ad6e390436e", "type": "electric_scooter", "lon": -77.04003633333333, "is_reserved": 0, "fusion_lat": 0.0, "fusion_lon": 0.0}, {"name": "018b456c13fd475d7bb406796e503205", "is_disabled": 0, "lat": 38.942049833333336, "rental_uris": {"ios": "https://dc.lft.to/lastmile_qr_scan", "android": "https://dc.lft.to/lastmile_qr_scan"}, "bike_id": "018b456c13fd475d7bb406796e503205", "type": "electric_scooter", "lon": -77.0134835, "is_reserved": 0, "fusion_lat": 0.0, "fusion_lon": 0.0}, {"name": "787dc6e95b99ddd076c6dead0b44ff31", "is_disabled": 0, "lat": 39.004776166666666, "rental_uris": {"ios": "https://dc.lft.to/lastmile_qr_scan", "android": "https://dc.lft.to/lastmile_qr_scan"}, "bike_id": "787dc6e95b99ddd076c6dead0b44ff31", "type": "electric_bike", "lon": -77.02189383333334, "is_reserved": 0, "fusion_lat": 0.0, "fusion_lon": 0.0}, {"name": "231224ddd5389f7cb40f6e288144f87f", "is_disabled": 0, "lat": 38.8767665, "rental_uris": {"ios": "https://dc.lft.to/lastmile_qr_scan", "android": "https://dc.lft.to/lastmile_qr_scan"}, "bike_id": "231224ddd5389f7cb40f6e288144f87f", "type": "electric_scooter", "lon": -77.00346216666667, "is_reserved": 0, "fusion_lat": 0.0, "fusion_lon": 0.0}, {"name": "0eb1614fef9964b94a19231b8cab6a88", "is_disabled": 0, "lat": 38.930976333333334, "rental_uris": {"ios": "https://dc.lft.to/lastmile_qr_scan", "android": "https://dc.lft.to/lastmile_qr_scan"}, "bike_id": "0eb1614fef9964b94a19231b8cab6a88", "type": "electric_bike", "lon": -77.02460716666667, "is_reserved": 0, "fusion_lat": 0.0, "fusion_lon": 0.0}, {"name": "3070f1776659b59826ccda5c3f6be6d7", "is_disabled": 0, "lat": 38.89223833333333, "rental_uris": {"ios": "https://dc.lft.to/lastmile_qr_scan", "android": "https://dc.lft.to/lastmile_qr_scan"}, "bike_id": "3070f1776659b59826ccda5c3f6be6d7", "type": "electric_scooter", "lon": -77.0447425, "is_reserved": 0, "fusion_lat": 0.0, "fusion_lon": 0.0}, {"name": "2d85c8e27401b09e1adb9d37f28b92a3", "is_disabled": 0, "lat": 38.920032, "rental_uris": {"ios": "https://dc.lft.to/lastmile_qr_scan", "android": "https://dc.lft.to/lastmile_qr_scan"}, "bike_id": "2d85c8e27401b09e1adb9d37f28b92a3", "type": "electric_scooter", "lon": -77.0182015, "is_reserved": 0, "fusion_lat": 0.0, "fusion_lon": 0.0}, {"name": "7e660947de74d0e7d5df84b8fc92e03a", "is_disabled": 0, "lat": 38.898943, "rental_uris": {"ios": "https://dc.lft.to/lastmile_qr_scan", "android": "https://dc.lft.to/lastmile_qr_scan"}, "bike_id": "7e660947de74d0e7d5df84b8fc92e03a", "type": "electric_scooter", "lon": -76.98496033333333, "is_reserved": 0, "fusion_lat": 0.0, "fusion_lon": 0.0}, {"name": "6e3ce4e2cf64c37cba168fce7c47f636", "is_disabled": 0, "lat": 38.941788833333334, "rental_uris": {"ios": "https://dc.lft.to/lastmile_qr_scan", "android": "https://dc.lft.to/lastmile_qr_scan"}, "bike_id": "6e3ce4e2cf64c37cba168fce7c47f636", "type": "electric_scooter", "lon": -77.02492316666667, "is_reserved": 0, "fusion_lat": 0.0, "fusion_lon": 0.0}, {"name": "02c0c9a58137c962f7be434dbfb1fd66", "is_disabled": 0, "lat": 38.915405, "rental_uris": {"ios": "https://dc.lft.to/lastmile_qr_scan", "android": "https://dc.lft.to/lastmile_qr_scan"}, "bike_id": "02c0c9a58137c962f7be434dbfb1fd66", "type": "electric_scooter", "lon": -77.01224683333334, "is_reserved": 0, "fusion_lat": 0.0, "fusion_lon": 0.0}, {"name": "21cd7a6cefef4a7c4f39214dc6afd951", "is_disabled": 0, "lat": 38.92220116666667, "rental_uris": {"ios": "https://dc.lft.to/lastmile_qr_scan", "android": "https://dc.lft.to/lastmile_qr_scan"}, "bike_id": "21cd7a6cefef4a7c4f39214dc6afd951", "type": "electric_scooter", "lon": -77.02122033333333, "is_reserved": 0, "fusion_lat": 0.0, "fusion_lon": 0.0}, {"name": "61c3c4958cef89af2812c0cd40f04476", "is_disabled": 0, "lat": 38.835831, "rental_uris": {"ios": "https://dc.lft.to/lastmile_qr_scan", "android": "https://dc.lft.to/lastmile_qr_scan"}, "bike_id": "61c3c4958cef89af2812c0cd40f04476", "type": "electric_bike", "lon": -76.9901765, "is_reserved": 0, "fusion_lat": 0.0, "fusion_lon": 0.0}, {"name": "a4bb469b7740586a18277022149082b7", "is_disabled": 0, "lat": 38.918114333333335, "rental_uris": {"ios": "https://dc.lft.to/lastmile_qr_scan", "android": "https://dc.lft.to/lastmile_qr_scan"}, "bike_id": "a4bb469b7740586a18277022149082b7", "type": "electric_scooter", "lon": -77.01199566666666, "is_reserved": 0, "fusion_lat": 0.0, "fusion_lon": 0.0}, {"name": "d1ac58baef7d5a9931797143b85b1b31", "is_disabled": 0, "lat": 38.90476783333333, "rental_uris": {"ios": "https://dc.lft.to/lastmile_qr_scan", "android": "https://dc.lft.to/lastmile_qr_scan"}, "bike_id": "d1ac58baef7d5a9931797143b85b1b31", "type": "electric_scooter", "lon": -77.002217, "is_reserved": 0, "fusion_lat": 0.0, "fusion_lon": 0.0}, {"name": "5a2f4ff58bdcd9072eb4d4219259f96f", "is_disabled": 0, "lat": 38.9167995, "rental_uris": {"ios": "https://dc.lft.to/lastmile_qr_scan", "android": "https://dc.lft.to/lastmile_qr_scan"}, "bike_id": "5a2f4ff58bdcd9072eb4d4219259f96f", "type": "electric_scooter", "lon": -77.03846483333334, "is_reserved": 0, "fusion_lat": 0.0, "fusion_lon": 0.0}, {"name": "367fa2148ac5af1d0f5dc0cd5eec03c0", "is_disabled": 0, "lat": 38.9056015, "rental_uris": {"ios": "https://dc.lft.to/lastmile_qr_scan", "android": "https://dc.lft.to/lastmile_qr_scan"}, "bike_id": "367fa2148ac5af1d0f5dc0cd5eec03c0", "type": "electric_scooter", "lon": -77.02207666666666, "is_reserved": 0, "fusion_lat": 0.0, "fusion_lon": 0.0}, {"name": "f4c7f2feefdc4b8ef4df694ab06dfaf0", "is_disabled": 0, "lat": 38.901841166666664, "rental_uris": {"ios": "https://dc.lft.to/lastmile_qr_scan", "android": "https://dc.lft.to/lastmile_qr_scan"}, "bike_id": "f4c7f2feefdc4b8ef4df694ab06dfaf0", "type": "electric_scooter", "lon": -77.01614383333333, "is_reserved": 0, "fusion_lat": 0.0, "fusion_lon": 0.0}, {"name": "97d340845115260e75a08ccd33dfc229", "is_disabled": 0, "lat": 38.91218166666667, "rental_uris": {"ios": "https://dc.lft.to/lastmile_qr_scan", "android": "https://dc.lft.to/lastmile_qr_scan"}, "bike_id": "97d340845115260e75a08ccd33dfc229", "type": "electric_scooter", "lon": -77.06601016666667, "is_reserved": 0, "fusion_lat": 0.0, "fusion_lon": 0.0}, {"name": "528407fc530c8714ca43f0a8778a5f7a", "is_disabled": 0, "lat": 38.857156, "rental_uris": {"ios": "https://dc.lft.to/lastmile_qr_scan", "android": "https://dc.lft.to/lastmile_qr_scan"}, "bike_id": "528407fc530c8714ca43f0a8778a5f7a", "type": "electric_bike", "lon": -76.98100366666667, "is_reserved": 0, "fusion_lat": 0.0, "fusion_lon": 0.0}, {"name": "55226655e5488a619120b9c44c3a5ca0", "is_disabled": 0, "lat": 38.902479, "rental_uris": {"ios": "https://dc.lft.to/lastmile_qr_scan", "android": "https://dc.lft.to/lastmile_qr_scan"}, "bike_id": "55226655e5488a619120b9c44c3a5ca0", "type": "electric_scooter", "lon": -77.04300816666667, "is_reserved": 0, "fusion_lat": 0.0, "fusion_lon": 0.0}, {"name": "42a0704b40b110e3152b49254bc2a60b", "is_disabled": 0, "lat": 38.934041666666666, "rental_uris": {"ios": "https://dc.lft.to/lastmile_qr_scan", "android": "https://dc.lft.to/lastmile_qr_scan"}, "bike_id": "42a0704b40b110e3152b49254bc2a60b", "type": "electric_bike", "lon": -77.0430885, "is_reserved": 0, "fusion_lat": 0.0, "fusion_lon": 0.0}, {"name": "d8bf92cc36dbfa30e77e3fbb8aa9e80f", "is_disabled": 0, "lat": 38.877066666666664, "rental_uris": {"ios": "https://dc.lft.to/lastmile_qr_scan", "android": "https://dc.lft.to/lastmile_qr_scan"}, "bike_id": "d8bf92cc36dbfa30e77e3fbb8aa9e80f", "type": "electric_scooter", "lon": -77.019223, "is_reserved": 0, "fusion_lat": 0.0, "fusion_lon": 0.0}, {"name": "423ee4d5195df8be30b708fcca4a791c", "is_disabled": 0, "lat": 38.90150666666667, "rental_uris": {"ios": "https://dc.lft.to/lastmile_qr_scan", "android": "https://dc.lft.to/lastmile_qr_scan"}, "bike_id": "423ee4d5195df8be30b708fcca4a791c", "type": "electric_scooter", "lon": -77.04180483333333, "is_reserved": 0, "fusion_lat": 0.0, "fusion_lon": 0.0}, {"name": "53cb415b6c4a300380faebafb12035b1", "is_disabled": 0, "lat": 38.90358966666667, "rental_uris": {"ios": "https://dc.lft.to/lastmile_qr_scan", "android": "https://dc.lft.to/lastmile_qr_scan"}, "bike_id": "53cb415b6c4a300380faebafb12035b1", "type": "electric_scooter", "lon": -77.00773933333333, "is_reserved": 0, "fusion_lat": 0.0, "fusion_lon": 0.0}, {"name": "3136478e1a849bba1597b9d6197d9523", "is_disabled": 0, "lat": 38.9082005, "rental_uris": {"ios": "https://dc.lft.to/lastmile_qr_scan", "android": "https://dc.lft.to/lastmile_qr_scan"}, "bike_id": "3136478e1a849bba1597b9d6197d9523", "type": "electric_scooter", "lon": -77.03447866666667, "is_reserved": 0, "fusion_lat": 0.0, "fusion_lon": 0.0}, {"name": "c23f4b4fe786ab1c5afe020cfbbcc090", "is_disabled": 0, "lat": 38.8971785, "rental_uris": {"ios": "https://dc.lft.to/lastmile_qr_scan", "android": "https://dc.lft.to/lastmile_qr_scan"}, "bike_id": "c23f4b4fe786ab1c5afe020cfbbcc090", "type": "electric_scooter", "lon": -77.02821033333333, "is_reserved": 0, "fusion_lat": 0.0, "fusion_lon": 0.0}, {"name": "fe6b44d4cf55cd53e892418259432462", "is_disabled": 0, "lat": 38.90639633333333, "rental_uris": {"ios": "https://dc.lft.to/lastmile_qr_scan", "android": "https://dc.lft.to/lastmile_qr_scan"}, "bike_id": "fe6b44d4cf55cd53e892418259432462", "type": "electric_scooter", "lon": -77.00688466666666, "is_reserved": 0, "fusion_lat": 0.0, "fusion_lon": 0.0}, {"name": "aebeafbafece76670c830bbd8be1ed9e", "is_disabled": 0, "lat": 38.88734633333333, "rental_uris": {"ios": "https://dc.lft.to/lastmile_qr_scan", "android": "https://dc.lft.to/lastmile_qr_scan"}, "bike_id": "aebeafbafece76670c830bbd8be1ed9e", "type": "electric_scooter", "lon": -77.02132133333333, "is_reserved": 0, "fusion_lat": 0.0, "fusion_lon": 0.0}, {"name": "876ae1a3d82ac4a35b70d8a3b8adb5bd", "is_disabled": 0, "lat": 38.8984605, "rental_uris": {"ios": "https://dc.lft.to/lastmile_qr_scan", "android": "https://dc.lft.to/lastmile_qr_scan"}, "bike_id": "876ae1a3d82ac4a35b70d8a3b8adb5bd", "type": "electric_scooter", "lon": -77.02187433333333, "is_reserved": 0, "fusion_lat": 0.0, "fusion_lon": 0.0}, {"name": "ac559213c99a1833ec028c48376a5639", "is_disabled": 0, "lat": 38.8919355, "rental_uris": {"ios": "https://dc.lft.to/lastmile_qr_scan", "android": "https://dc.lft.to/lastmile_qr_scan"}, "bike_id": "ac559213c99a1833ec028c48376a5639", "type": "electric_scooter", "lon": -77.00290633333333, "is_reserved": 0, "fusion_lat": 0.0, "fusion_lon": 0.0}, {"name": "4942719d7ed7939b3a600c9af7c3d865", "is_disabled": 0, "lat": 38.9056125, "rental_uris": {"ios": "https://dc.lft.to/lastmile_qr_scan", "android": "https://dc.lft.to/lastmile_qr_scan"}, "bike_id": "4942719d7ed7939b3a600c9af7c3d865", "type": "electric_scooter", "lon": -76.98141216666667, "is_reserved": 0, "fusion_lat": 0.0, "fusion_lon": 0.0}, {"name": "52cdf234a04fdd0dbeffea552cdb851f", "is_disabled": 0, "lat": 38.91101316666666, "rental_uris": {"ios": "https://dc.lft.to/lastmile_qr_scan", "android": "https://dc.lft.to/lastmile_qr_scan"}, "bike_id": "52cdf234a04fdd0dbeffea552cdb851f", "type": "electric_scooter", "lon": -77.0420295, "is_reserved": 0, "fusion_lat": 0.0, "fusion_lon": 0.0}, {"name": "5b2a074494f79377150721cc64284f03", "is_disabled": 0, "lat": 38.92486683333333, "rental_uris": {"ios": "https://dc.lft.to/lastmile_qr_scan", "android": "https://dc.lft.to/lastmile_qr_scan"}, "bike_id": "5b2a074494f79377150721cc64284f03", "type": "electric_bike", "lon": -77.23340883333333, "is_reserved": 0, "fusion_lat": 0.0, "fusion_lon": 0.0}, {"name": "1b2fa3297dc7e032946fe5eb685a4bab", "is_disabled": 0, "lat": 38.909741833333335, "rental_uris": {"ios": "https://dc.lft.to/lastmile_qr_scan", "android": "https://dc.lft.to/lastmile_qr_scan"}, "bike_id": "1b2fa3297dc7e032946fe5eb685a4bab", "type": "electric_scooter", "lon": -77.03424066666666, "is_reserved": 0, "fusion_lat": 0.0, "fusion_lon": 0.0}, {"name": "2b2077764370fbf872e997b3d060a40e", "is_disabled": 0, "lat": 38.901166, "rental_uris": {"ios": "https://dc.lft.to/lastmile_qr_scan", "android": "https://dc.lft.to/lastmile_qr_scan"}, "bike_id": "2b2077764370fbf872e997b3d060a40e", "type": "electric_scooter", "lon": -77.03381566666667, "is_reserved": 0, "fusion_lat": 0.0, "fusion_lon": 0.0}, {"name": "2f95eab78734e968e1732c9843dd7198", "is_disabled": 0, "lat": 38.910237, "rental_uris": {"ios": "https://dc.lft.to/lastmile_qr_scan", "android": "https://dc.lft.to/lastmile_qr_scan"}, "bike_id": "2f95eab78734e968e1732c9843dd7198", "type": "electric_scooter", "lon": -77.04254216666666, "is_reserved": 0, "fusion_lat": 0.0, "fusion_lon": 0.0}, {"name": "aba47dfcf92f1d445dbca71149b08e75", "is_disabled": 0, "lat": 38.902008, "rental_uris": {"ios": "https://dc.lft.to/lastmile_qr_scan", "android": "https://dc.lft.to/lastmile_qr_scan"}, "bike_id": "aba47dfcf92f1d445dbca71149b08e75", "type": "electric_scooter", "lon": -77.02380983333333, "is_reserved": 0, "fusion_lat": 0.0, "fusion_lon": 0.0}, {"name": "aaf5ce9d839bf2970dd390833f47f3f4", "is_disabled": 0, "lat": 38.906642, "rental_uris": {"ios": "https://dc.lft.to/lastmile_qr_scan", "android": "https://dc.lft.to/lastmile_qr_scan"}, "bike_id": "aaf5ce9d839bf2970dd390833f47f3f4", "type": "electric_scooter", "lon": -77.02712616666666, "is_reserved": 0, "fusion_lat": 0.0, "fusion_lon": 0.0}, {"name": "c4f62f43672a38f0e630c4fd8f5396a4", "is_disabled": 0, "lat": 38.9237905, "rental_uris": {"ios": "https://dc.lft.to/lastmile_qr_scan", "android": "https://dc.lft.to/lastmile_qr_scan"}, "bike_id": "c4f62f43672a38f0e630c4fd8f5396a4", "type": "electric_scooter", "lon": -77.027364, "is_reserved": 0, "fusion_lat": 0.0, "fusion_lon": 0.0}, {"name": "3cc27a04f9ace1b1086eebd38b346783", "is_disabled": 0, "lat": 38.920198666666664, "rental_uris": {"ios": "https://dc.lft.to/lastmile_qr_scan", "android": "https://dc.lft.to/lastmile_qr_scan"}, "bike_id": "3cc27a04f9ace1b1086eebd38b346783", "type": "electric_scooter", "lon": -76.99563016666667, "is_reserved": 0, "fusion_lat": 0.0, "fusion_lon": 0.0}, {"name": "3398ad82d15b8d744ab85a0a1df9a6cb", "is_disabled": 0, "lat": 38.93171433333333, "rental_uris": {"ios": "https://dc.lft.to/lastmile_qr_scan", "android": "https://dc.lft.to/lastmile_qr_scan"}, "bike_id": "3398ad82d15b8d744ab85a0a1df9a6cb", "type": "electric_scooter", "lon": -77.05649866666667, "is_reserved": 0, "fusion_lat": 0.0, "fusion_lon": 0.0}, {"name": "abd9c1f5bc6d0ff8d8e46aeb3b8266b7", "is_disabled": 0, "lat": 38.900947333333335, "rental_uris": {"ios": "https://dc.lft.to/lastmile_qr_scan", "android": "https://dc.lft.to/lastmile_qr_scan"}, "bike_id": "abd9c1f5bc6d0ff8d8e46aeb3b8266b7", "type": "electric_scooter", "lon": -77.056904, "is_reserved": 0, "fusion_lat": 0.0, "fusion_lon": 0.0}, {"name": "caf2623482f10c6b7b70f71e33e8a1e9", "is_disabled": 0, "lat": 38.907304333333336, "rental_uris": {"ios": "https://dc.lft.to/lastmile_qr_scan", "android": "https://dc.lft.to/lastmile_qr_scan"}, "bike_id": "caf2623482f10c6b7b70f71e33e8a1e9", "type": "electric_scooter", "lon": -77.02952833333333, "is_reserved": 0, "fusion_lat": 0.0, "fusion_lon": 0.0}, {"name": "eb6fb464be3949c92d0161c3f87d581a", "is_disabled": 0, "lat": 38.9088225, "rental_uris": {"ios": "https://dc.lft.to/lastmile_qr_scan", "android": "https://dc.lft.to/lastmile_qr_scan"}, "bike_id": "eb6fb464be3949c92d0161c3f87d581a", "type": "electric_scooter", "lon": -77.0753575, "is_reserved": 0, "fusion_lat": 0.0, "fusion_lon": 0.0}, {"name": "ed5da6579682317f56be87a3d9d98d53", "is_disabled": 0, "lat": 38.910252166666666, "rental_uris": {"ios": "https://dc.lft.to/lastmile_qr_scan", "android": "https://dc.lft.to/lastmile_qr_scan"}, "bike_id": "ed5da6579682317f56be87a3d9d98d53", "type": "electric_scooter", "lon": -77.04259233333333, "is_reserved": 0, "fusion_lat": 0.0, "fusion_lon": 0.0}, {"name": "184d3a0ebfa66f023008302e66bfad54", "is_disabled": 0, "lat": 38.842778, "rental_uris": {"ios": "https://dc.lft.to/lastmile_qr_scan", "android": "https://dc.lft.to/lastmile_qr_scan"}, "bike_id": "184d3a0ebfa66f023008302e66bfad54", "type": "electric_bike", "lon": -76.98840066666666, "is_reserved": 0, "fusion_lat": 0.0, "fusion_lon": 0.0}, {"name": "afe697cbce4a289dcecef08438bf8ed6", "is_disabled": 0, "lat": 38.8961875, "rental_uris": {"ios": "https://dc.lft.to/lastmile_qr_scan", "android": "https://dc.lft.to/lastmile_qr_scan"}, "bike_id": "afe697cbce4a289dcecef08438bf8ed6", "type": "electric_scooter", "lon": -76.99839433333334, "is_reserved": 0, "fusion_lat": 0.0, "fusion_lon": 0.0}, {"name": "4ab6fe4c9cd03b7e6a0a5fcfb3555c5c", "is_disabled": 0, "lat": 38.90028816666667, "rental_uris": {"ios": "https://dc.lft.to/lastmile_qr_scan", "android": "https://dc.lft.to/lastmile_qr_scan"}, "bike_id": "4ab6fe4c9cd03b7e6a0a5fcfb3555c5c", "type": "electric_scooter", "lon": -76.99151166666667, "is_reserved": 0, "fusion_lat": 0.0, "fusion_lon": 0.0}, {"name": "8d3644e99128be5a3222999519d87686", "is_disabled": 0, "lat": 38.858041666666665, "rental_uris": {"ios": "https://dc.lft.to/lastmile_qr_scan", "android": "https://dc.lft.to/lastmile_qr_scan"}, "bike_id": "8d3644e99128be5a3222999519d87686", "type": "electric_bike", "lon": -76.98719683333333, "is_reserved": 0, "fusion_lat": 0.0, "fusion_lon": 0.0}, {"name": "df0ebfff72ae9b59b619829490570ee2", "is_disabled": 0, "lat": 38.91814333333333, "rental_uris": {"ios": "https://dc.lft.to/lastmile_qr_scan", "android": "https://dc.lft.to/lastmile_qr_scan"}, "bike_id": "df0ebfff72ae9b59b619829490570ee2", "type": "electric_scooter", "lon": -77.04005666666667, "is_reserved": 0, "fusion_lat": 0.0, "fusion_lon": 0.0}, {"name": "ad812989f9384da603d427042029c71e", "is_disabled": 0, "lat": 38.910317166666665, "rental_uris": {"ios": "https://dc.lft.to/lastmile_qr_scan", "android": "https://dc.lft.to/lastmile_qr_scan"}, "bike_id": "ad812989f9384da603d427042029c71e", "type": "electric_scooter", "lon": -76.993426, "is_reserved": 0, "fusion_lat": 0.0, "fusion_lon": 0.0}, {"name": "0772c925ac27fdc23a6981538d977adf", "is_disabled": 0, "lat": 38.821702333333334, "rental_uris": {"ios": "https://dc.lft.to/lastmile_qr_scan", "android": "https://dc.lft.to/lastmile_qr_scan"}, "bike_id": "0772c925ac27fdc23a6981538d977adf", "type": "electric_bike", "lon": -77.0014645, "is_reserved": 0, "fusion_lat": 0.0, "fusion_lon": 0.0}, {"name": "874ec9e1199dd21404b4b1c0958e72c6", "is_disabled": 0, "lat": 38.900787, "rental_uris": {"ios": "https://dc.lft.to/lastmile_qr_scan", "android": "https://dc.lft.to/lastmile_qr_scan"}, "bike_id": "874ec9e1199dd21404b4b1c0958e72c6", "type": "electric_scooter", "lon": -77.050107, "is_reserved": 0, "fusion_lat": 0.0, "fusion_lon": 0.0}, {"name": "ee96f5d79a34d77256a399a6b38b136a", "is_disabled": 0, "lat": 38.88386066666666, "rental_uris": {"ios": "https://dc.lft.to/lastmile_qr_scan", "android": "https://dc.lft.to/lastmile_qr_scan"}, "bike_id": "ee96f5d79a34d77256a399a6b38b136a", "type": "electric_scooter", "lon": -77.01976916666666, "is_reserved": 0, "fusion_lat": 0.0, "fusion_lon": 0.0}, {"name": "cc486e541d6676b9801f52009479e7c5", "is_disabled": 0, "lat": 38.894527333333336, "rental_uris": {"ios": "https://dc.lft.to/lastmile_qr_scan", "android": "https://dc.lft.to/lastmile_qr_scan"}, "bike_id": "cc486e541d6676b9801f52009479e7c5", "type": "electric_bike", "lon": -77.04678466666667, "is_reserved": 0, "fusion_lat": 0.0, "fusion_lon": 0.0}, {"name": "85d57c8c99f4d729d30427a684c38b88", "is_disabled": 0, "lat": 38.91805133333333, "rental_uris": {"ios": "https://dc.lft.to/lastmile_qr_scan", "android": "https://dc.lft.to/lastmile_qr_scan"}, "bike_id": "85d57c8c99f4d729d30427a684c38b88", "type": "electric_scooter", "lon": -77.04028983333333, "is_reserved": 0, "fusion_lat": 0.0, "fusion_lon": 0.0}, {"name": "da4759f00efd1fe459bec3e32934bb9d", "is_disabled": 0, "lat": 38.91106516666667, "rental_uris": {"ios": "https://dc.lft.to/lastmile_qr_scan", "android": "https://dc.lft.to/lastmile_qr_scan"}, "bike_id": "da4759f00efd1fe459bec3e32934bb9d", "type": "electric_scooter", "lon": -77.003802, "is_reserved": 0, "fusion_lat": 0.0, "fusion_lon": 0.0}, {"name": "80450d267d16ddc3e7e12466920b4440", "is_disabled": 0, "lat": 38.895439333333336, "rental_uris": {"ios": "https://dc.lft.to/lastmile_qr_scan", "android": "https://dc.lft.to/lastmile_qr_scan"}, "bike_id": "80450d267d16ddc3e7e12466920b4440", "type": "electric_scooter", "lon": -76.98340866666666, "is_reserved": 0, "fusion_lat": 0.0, "fusion_lon": 0.0}, {"name": "47bc12dd73adb168f495dd04d4fc1b96", "is_disabled": 0, "lat": 38.9020575, "rental_uris": {"ios": "https://dc.lft.to/lastmile_qr_scan", "android": "https://dc.lft.to/lastmile_qr_scan"}, "bike_id": "47bc12dd73adb168f495dd04d4fc1b96", "type": "electric_scooter", "lon": -77.0237725, "is_reserved": 0, "fusion_lat": 0.0, "fusion_lon": 0.0}, {"name": "f30f75ac60aad3dc2ec79c42deb3a667", "is_disabled": 0, "lat": 38.896203666666665, "rental_uris": {"ios": "https://dc.lft.to/lastmile_qr_scan", "android": "https://dc.lft.to/lastmile_qr_scan"}, "bike_id": "f30f75ac60aad3dc2ec79c42deb3a667", "type": "electric_scooter", "lon": -77.02700116666666, "is_reserved": 0, "fusion_lat": 0.0, "fusion_lon": 0.0}, {"name": "a7b8851820d7d70f30de9c7d211afd78", "is_disabled": 0, "lat": 38.911174333333335, "rental_uris": {"ios": "https://dc.lft.to/lastmile_qr_scan", "android": "https://dc.lft.to/lastmile_qr_scan"}, "bike_id": "a7b8851820d7d70f30de9c7d211afd78", "type": "electric_scooter", "lon": -77.04410133333333, "is_reserved": 0, "fusion_lat": 0.0, "fusion_lon": 0.0}, {"name": "f483511f9e55e46228b0e5a1521be20a", "is_disabled": 0, "lat": 38.91981716666667, "rental_uris": {"ios": "https://dc.lft.to/lastmile_qr_scan", "android": "https://dc.lft.to/lastmile_qr_scan"}, "bike_id": "f483511f9e55e46228b0e5a1521be20a", "type": "electric_scooter", "lon": -77.02190816666666, "is_reserved": 0, "fusion_lat": 0.0, "fusion_lon": 0.0}, {"name": "c7d9b848dd902958b5acfee707e9ed1a", "is_disabled": 0, "lat": 38.89604083333333, "rental_uris": {"ios": "https://dc.lft.to/lastmile_qr_scan", "android": "https://dc.lft.to/lastmile_qr_scan"}, "bike_id": "c7d9b848dd902958b5acfee707e9ed1a", "type": "electric_scooter", "lon": -77.00931266666667, "is_reserved": 0, "fusion_lat": 0.0, "fusion_lon": 0.0}, {"name": "138802f49cb05c1df0113f86948bbc82", "is_disabled": 0, "lat": 38.916902666666665, "rental_uris": {"ios": "https://dc.lft.to/lastmile_qr_scan", "android": "https://dc.lft.to/lastmile_qr_scan"}, "bike_id": "138802f49cb05c1df0113f86948bbc82", "type": "electric_scooter", "lon": -77.035911, "is_reserved": 0, "fusion_lat": 0.0, "fusion_lon": 0.0}, {"name": "b54d2e1f75a229a0a7410b3d95f25be5", "is_disabled": 0, "lat": 38.838261, "rental_uris": {"ios": "https://dc.lft.to/lastmile_qr_scan", "android": "https://dc.lft.to/lastmile_qr_scan"}, "bike_id": "b54d2e1f75a229a0a7410b3d95f25be5", "type": "electric_bike", "lon": -76.996849, "is_reserved": 0, "fusion_lat": 0.0, "fusion_lon": 0.0}, {"name": "0989f8db1d720c5682237ba3b6434940", "is_disabled": 0, "lat": 38.9141815, "rental_uris": {"ios": "https://dc.lft.to/lastmile_qr_scan", "android": "https://dc.lft.to/lastmile_qr_scan"}, "bike_id": "0989f8db1d720c5682237ba3b6434940", "type": "electric_scooter", "lon": -77.010777, "is_reserved": 0, "fusion_lat": 0.0, "fusion_lon": 0.0}, {"name": "854a5ff531314bca136d3f3f82544d7b", "is_disabled": 0, "lat": 38.887267333333334, "rental_uris": {"ios": "https://dc.lft.to/lastmile_qr_scan", "android": "https://dc.lft.to/lastmile_qr_scan"}, "bike_id": "854a5ff531314bca136d3f3f82544d7b", "type": "electric_scooter", "lon": -77.03210466666667, "is_reserved": 0, "fusion_lat": 0.0, "fusion_lon": 0.0}, {"name": "ad66eb9f3f5a2f0aba4b8b58a25e6e3b", "is_disabled": 0, "lat": 38.91683883333334, "rental_uris": {"ios": "https://dc.lft.to/lastmile_qr_scan", "android": "https://dc.lft.to/lastmile_qr_scan"}, "bike_id": "ad66eb9f3f5a2f0aba4b8b58a25e6e3b", "type": "electric_scooter", "lon": -77.02284483333334, "is_reserved": 0, "fusion_lat": 0.0, "fusion_lon": 0.0}, {"name": "a032ca8d8d0a537a39ba49d66ae64293", "is_disabled": 0, "lat": 38.89959733333333, "rental_uris": {"ios": "https://dc.lft.to/lastmile_qr_scan", "android": "https://dc.lft.to/lastmile_qr_scan"}, "bike_id": "a032ca8d8d0a537a39ba49d66ae64293", "type": "electric_scooter", "lon": -77.01611333333334, "is_reserved": 0, "fusion_lat": 0.0, "fusion_lon": 0.0}, {"name": "dd6596a7ac0c9c98d3e54e0dfbf383af", "is_disabled": 0, "lat": 38.910794833333334, "rental_uris": {"ios": "https://dc.lft.to/lastmile_qr_scan", "android": "https://dc.lft.to/lastmile_qr_scan"}, "bike_id": "dd6596a7ac0c9c98d3e54e0dfbf383af", "type": "electric_scooter", "lon": -77.02179216666667, "is_reserved": 0, "fusion_lat": 0.0, "fusion_lon": 0.0}, {"name": "95b6f852cdc29c79999ada9ef8f0dc8f", "is_disabled": 0, "lat": 38.906326666666665, "rental_uris": {"ios": "https://dc.lft.to/lastmile_qr_scan", "android": "https://dc.lft.to/lastmile_qr_scan"}, "bike_id": "95b6f852cdc29c79999ada9ef8f0dc8f", "type": "electric_scooter", "lon": -77.0060965, "is_reserved": 0, "fusion_lat": 0.0, "fusion_lon": 0.0}, {"name": "353a0bb501db9d7e8793d35519350998", "is_disabled": 0, "lat": 38.887243833333336, "rental_uris": {"ios": "https://dc.lft.to/lastmile_qr_scan", "android": "https://dc.lft.to/lastmile_qr_scan"}, "bike_id": "353a0bb501db9d7e8793d35519350998", "type": "electric_scooter", "lon": -77.01766116666667, "is_reserved": 0, "fusion_lat": 0.0, "fusion_lon": 0.0}, {"name": "c2a8c4b4f38c3a494774f9081e1f04eb", "is_disabled": 0, "lat": 38.90958716666667, "rental_uris": {"ios": "https://dc.lft.to/lastmile_qr_scan", "android": "https://dc.lft.to/lastmile_qr_scan"}, "bike_id": "c2a8c4b4f38c3a494774f9081e1f04eb", "type": "electric_scooter", "lon": -77.03955966666666, "is_reserved": 0, "fusion_lat": 0.0, "fusion_lon": 0.0}, {"name": "d3d9bb84e564978109f721738d873b6b", "is_disabled": 0, "lat": 38.912654833333335, "rental_uris": {"ios": "https://dc.lft.to/lastmile_qr_scan", "android": "https://dc.lft.to/lastmile_qr_scan"}, "bike_id": "d3d9bb84e564978109f721738d873b6b", "type": "electric_scooter", "lon": -77.0167465, "is_reserved": 0, "fusion_lat": 0.0, "fusion_lon": 0.0}, {"name": "fb7e0389baf7992cdc86954a6e8ac93c", "is_disabled": 0, "lat": 38.91997966666667, "rental_uris": {"ios": "https://dc.lft.to/lastmile_qr_scan", "android": "https://dc.lft.to/lastmile_qr_scan"}, "bike_id": "fb7e0389baf7992cdc86954a6e8ac93c", "type": "electric_scooter", "lon": -77.0328515, "is_reserved": 0, "fusion_lat": 0.0, "fusion_lon": 0.0}, {"name": "41d6c94127ed0fe83b510bb2c7d397bb", "is_disabled": 0, "lat": 38.92579033333333, "rental_uris": {"ios": "https://dc.lft.to/lastmile_qr_scan", "android": "https://dc.lft.to/lastmile_qr_scan"}, "bike_id": "41d6c94127ed0fe83b510bb2c7d397bb", "type": "electric_scooter", "lon": -77.03652416666667, "is_reserved": 0, "fusion_lat": 0.0, "fusion_lon": 0.0}, {"name": "438c89920d26bd4cadccbe2200c335d4", "is_disabled": 0, "lat": 38.920412, "rental_uris": {"ios": "https://dc.lft.to/lastmile_qr_scan", "android": "https://dc.lft.to/lastmile_qr_scan"}, "bike_id": "438c89920d26bd4cadccbe2200c335d4", "type": "electric_scooter", "lon": -77.0169415, "is_reserved": 0, "fusion_lat": 0.0, "fusion_lon": 0.0}, {"name": "0b2bebb4eb5ffeed96ae2c3855434292", "is_disabled": 0, "lat": 38.917970833333335, "rental_uris": {"ios": "https://dc.lft.to/lastmile_qr_scan", "android": "https://dc.lft.to/lastmile_qr_scan"}, "bike_id": "0b2bebb4eb5ffeed96ae2c3855434292", "type": "electric_scooter", "lon": -77.034501, "is_reserved": 0, "fusion_lat": 0.0, "fusion_lon": 0.0}, {"name": "4bd46b1941a58c9bf6a05199bd5471d6", "is_disabled": 0, "lat": 38.91669183333333, "rental_uris": {"ios": "https://dc.lft.to/lastmile_qr_scan", "android": "https://dc.lft.to/lastmile_qr_scan"}, "bike_id": "4bd46b1941a58c9bf6a05199bd5471d6", "type": "electric_scooter", "lon": -77.02408516666667, "is_reserved": 0, "fusion_lat": 0.0, "fusion_lon": 0.0}, {"name": "21f1de64c2ab2f177e186b87e1645d11", "is_disabled": 0, "lat": 38.91797733333333, "rental_uris": {"ios": "https://dc.lft.to/lastmile_qr_scan", "android": "https://dc.lft.to/lastmile_qr_scan"}, "bike_id": "21f1de64c2ab2f177e186b87e1645d11", "type": "electric_scooter", "lon": -77.0319085, "is_reserved": 0, "fusion_lat": 0.0, "fusion_lon": 0.0}, {"name": "3695a3c3acb7f3587dae2626dd496c5c", "is_disabled": 0, "lat": 38.8921685, "rental_uris": {"ios": "https://dc.lft.to/lastmile_qr_scan", "android": "https://dc.lft.to/lastmile_qr_scan"}, "bike_id": "3695a3c3acb7f3587dae2626dd496c5c", "type": "electric_scooter", "lon": -77.02645866666667, "is_reserved": 0, "fusion_lat": 0.0, "fusion_lon": 0.0}, {"name": "ff8db77402289c22bfd27d9b5efc3eda", "is_disabled": 0, "lat": 38.92201466666667, "rental_uris": {"ios": "https://dc.lft.to/lastmile_qr_scan", "android": "https://dc.lft.to/lastmile_qr_scan"}, "bike_id": "ff8db77402289c22bfd27d9b5efc3eda", "type": "electric_scooter", "lon": -77.04187633333333, "is_reserved": 0, "fusion_lat": 0.0, "fusion_lon": 0.0}, {"name": "c5b36f380a19da119d06f85dfa3e9691", "is_disabled": 0, "lat": 38.90963283333333, "rental_uris": {"ios": "https://dc.lft.to/lastmile_qr_scan", "android": "https://dc.lft.to/lastmile_qr_scan"}, "bike_id": "c5b36f380a19da119d06f85dfa3e9691", "type": "electric_scooter", "lon": -77.032263, "is_reserved": 0, "fusion_lat": 0.0, "fusion_lon": 0.0}, {"name": "755d8b3d514da5d5dbe8a68c4a7a38fe", "is_disabled": 0, "lat": 38.9147665, "rental_uris": {"ios": "https://dc.lft.to/lastmile_qr_scan", "android": "https://dc.lft.to/lastmile_qr_scan"}, "bike_id": "755d8b3d514da5d5dbe8a68c4a7a38fe", "type": "electric_scooter", "lon": -77.046149, "is_reserved": 0, "fusion_lat": 0.0, "fusion_lon": 0.0}, {"name": "9f3f94e3edb92624e164ea2e7decee0c", "is_disabled": 0, "lat": 38.924719833333334, "rental_uris": {"ios": "https://dc.lft.to/lastmile_qr_scan", "android": "https://dc.lft.to/lastmile_qr_scan"}, "bike_id": "9f3f94e3edb92624e164ea2e7decee0c", "type": "electric_scooter", "lon": -77.035576, "is_reserved": 0, "fusion_lat": 0.0, "fusion_lon": 0.0}, {"name": "8996e59adf1d247fee4ac0b15159ac80", "is_disabled": 0, "lat": 38.87731516666667, "rental_uris": {"ios": "https://dc.lft.to/lastmile_qr_scan", "android": "https://dc.lft.to/lastmile_qr_scan"}, "bike_id": "8996e59adf1d247fee4ac0b15159ac80", "type": "electric_scooter", "lon": -77.00262916666667, "is_reserved": 0, "fusion_lat": 0.0, "fusion_lon": 0.0}, {"name": "f5d842b852c1c88850efd4c088e7c648", "is_disabled": 0, "lat": 38.89746933333333, "rental_uris": {"ios": "https://dc.lft.to/lastmile_qr_scan", "android": "https://dc.lft.to/lastmile_qr_scan"}, "bike_id": "f5d842b852c1c88850efd4c088e7c648", "type": "electric_scooter", "lon": -77.012961, "is_reserved": 0, "fusion_lat": 0.0, "fusion_lon": 0.0}, {"name": "f65f0ddd4b9ddbedfcffb9375e4eeb5c", "is_disabled": 0, "lat": 38.873027, "rental_uris": {"ios": "https://dc.lft.to/lastmile_qr_scan", "android": "https://dc.lft.to/lastmile_qr_scan"}, "bike_id": "f65f0ddd4b9ddbedfcffb9375e4eeb5c", "type": "electric_scooter", "lon": -77.00129616666666, "is_reserved": 0, "fusion_lat": 0.0, "fusion_lon": 0.0}, {"name": "45ba185f0fde88be2bbb7b082ae7ff5c", "is_disabled": 0, "lat": 38.911184666666664, "rental_uris": {"ios": "https://dc.lft.to/lastmile_qr_scan", "android": "https://dc.lft.to/lastmile_qr_scan"}, "bike_id": "45ba185f0fde88be2bbb7b082ae7ff5c", "type": "electric_scooter", "lon": -77.04469483333334, "is_reserved": 0, "fusion_lat": 0.0, "fusion_lon": 0.0}, {"name": "033c408a0d4a4d403195d4b37e8299ba", "is_disabled": 0, "lat": 38.9418085, "rental_uris": {"ios": "https://dc.lft.to/lastmile_qr_scan", "android": "https://dc.lft.to/lastmile_qr_scan"}, "bike_id": "033c408a0d4a4d403195d4b37e8299ba", "type": "electric_scooter", "lon": -77.02489183333333, "is_reserved": 0, "fusion_lat": 0.0, "fusion_lon": 0.0}, {"name": "e505fb889e874bcd627614029dd468f6", "is_disabled": 0, "lat": 38.91686383333333, "rental_uris": {"ios": "https://dc.lft.to/lastmile_qr_scan", "android": "https://dc.lft.to/lastmile_qr_scan"}, "bike_id": "e505fb889e874bcd627614029dd468f6", "type": "electric_scooter", "lon": -77.02604966666667, "is_reserved": 0, "fusion_lat": 0.0, "fusion_lon": 0.0}, {"name": "5524d2fe7acc65570dab300b3eae1060", "is_disabled": 0, "lat": 38.90836516666667, "rental_uris": {"ios": "https://dc.lft.to/lastmile_qr_scan", "android": "https://dc.lft.to/lastmile_qr_scan"}, "bike_id": "5524d2fe7acc65570dab300b3eae1060", "type": "electric_scooter", "lon": -77.04012733333333, "is_reserved": 0, "fusion_lat": 0.0, "fusion_lon": 0.0}, {"name": "8c522f72e5a5efa2cf57fb3f3dd9be5c", "is_disabled": 0, "lat": 38.91781233333333, "rental_uris": {"ios": "https://dc.lft.to/lastmile_qr_scan", "android": "https://dc.lft.to/lastmile_qr_scan"}, "bike_id": "8c522f72e5a5efa2cf57fb3f3dd9be5c", "type": "electric_scooter", "lon": -77.03201583333333, "is_reserved": 0, "fusion_lat": 0.0, "fusion_lon": 0.0}, {"name": "92fface49d92ba91c6551b283aaf7d33", "is_disabled": 0, "lat": 38.933453666666665, "rental_uris": {"ios": "https://dc.lft.to/lastmile_qr_scan", "android": "https://dc.lft.to/lastmile_qr_scan"}, "bike_id": "92fface49d92ba91c6551b283aaf7d33", "type": "electric_scooter", "lon": -77.06195533333333, "is_reserved": 0, "fusion_lat": 0.0, "fusion_lon": 0.0}, {"name": "ecd4cf428234b0d034982c8b5ef34bc6", "is_disabled": 0, "lat": 38.8872025, "rental_uris": {"ios": "https://dc.lft.to/lastmile_qr_scan", "android": "https://dc.lft.to/lastmile_qr_scan"}, "bike_id": "ecd4cf428234b0d034982c8b5ef34bc6", "type": "electric_scooter", "lon": -77.01341816666667, "is_reserved": 0, "fusion_lat": 0.0, "fusion_lon": 0.0}, {"name": "280f1765bfbeb89f8727a00421e97341", "is_disabled": 0, "lat": 38.93220316666667, "rental_uris": {"ios": "https://dc.lft.to/lastmile_qr_scan", "android": "https://dc.lft.to/lastmile_qr_scan"}, "bike_id": "280f1765bfbeb89f8727a00421e97341", "type": "electric_scooter", "lon": -76.99493966666667, "is_reserved": 0, "fusion_lat": 0.0, "fusion_lon": 0.0}, {"name": "2798324623fb111e1c3990ede610e673", "is_disabled": 0, "lat": 38.905401, "rental_uris": {"ios": "https://dc.lft.to/lastmile_qr_scan", "android": "https://dc.lft.to/lastmile_qr_scan"}, "bike_id": "2798324623fb111e1c3990ede610e673", "type": "electric_scooter", "lon": -77.04965883333334, "is_reserved": 0, "fusion_lat": 0.0, "fusion_lon": 0.0}, {"name": "2d83ce1d47c399834ad0fb7bbb3dcc91", "is_disabled": 0, "lat": 38.9736945, "rental_uris": {"ios": "https://dc.lft.to/lastmile_qr_scan", "android": "https://dc.lft.to/lastmile_qr_scan"}, "bike_id": "2d83ce1d47c399834ad0fb7bbb3dcc91", "type": "electric_scooter", "lon": -77.018541, "is_reserved": 0, "fusion_lat": 0.0, "fusion_lon": 0.0}, {"name": "c110e51bc81c612a4f588fddc49da08c", "is_disabled": 0, "lat": 38.921598333333336, "rental_uris": {"ios": "https://dc.lft.to/lastmile_qr_scan", "android": "https://dc.lft.to/lastmile_qr_scan"}, "bike_id": "c110e51bc81c612a4f588fddc49da08c", "type": "electric_scooter", "lon": -77.04360633333333, "is_reserved": 0, "fusion_lat": 0.0, "fusion_lon": 0.0}, {"name": "e92acaa4bb65408cc5b93ed64220f015", "is_disabled": 0, "lat": 38.918015, "rental_uris": {"ios": "https://dc.lft.to/lastmile_qr_scan", "android": "https://dc.lft.to/lastmile_qr_scan"}, "bike_id": "e92acaa4bb65408cc5b93ed64220f015", "type": "electric_scooter", "lon": -77.04033383333334, "is_reserved": 0, "fusion_lat": 0.0, "fusion_lon": 0.0}, {"name": "f58170eef4f341d87c69d9011c1fde08", "is_disabled": 0, "lat": 38.91220783333333, "rental_uris": {"ios": "https://dc.lft.to/lastmile_qr_scan", "android": "https://dc.lft.to/lastmile_qr_scan"}, "bike_id": "f58170eef4f341d87c69d9011c1fde08", "type": "electric_scooter", "lon": -77.031974, "is_reserved": 0, "fusion_lat": 0.0, "fusion_lon": 0.0}, {"name": "10b3eec3af841a55e422c15335c1b195", "is_disabled": 0, "lat": 38.901668, "rental_uris": {"ios": "https://dc.lft.to/lastmile_qr_scan", "android": "https://dc.lft.to/lastmile_qr_scan"}, "bike_id": "10b3eec3af841a55e422c15335c1b195", "type": "electric_scooter", "lon": -77.02478366666666, "is_reserved": 0, "fusion_lat": 0.0, "fusion_lon": 0.0}, {"name": "c75ea56ec7fcf2b1cb00cc674548487e", "is_disabled": 0, "lat": 38.902886, "rental_uris": {"ios": "https://dc.lft.to/lastmile_qr_scan", "android": "https://dc.lft.to/lastmile_qr_scan"}, "bike_id": "c75ea56ec7fcf2b1cb00cc674548487e", "type": "electric_scooter", "lon": -77.03475883333333, "is_reserved": 0, "fusion_lat": 0.0, "fusion_lon": 0.0}, {"name": "e50a6badd032e2ac10cbaf9141aa5bcd", "is_disabled": 0, "lat": 38.900318, "rental_uris": {"ios": "https://dc.lft.to/lastmile_qr_scan", "android": "https://dc.lft.to/lastmile_qr_scan"}, "bike_id": "e50a6badd032e2ac10cbaf9141aa5bcd", "type": "electric_scooter", "lon": -76.98838833333333, "is_reserved": 0, "fusion_lat": 0.0, "fusion_lon": 0.0}, {"name": "09b69a5f070244056528446a7d897c14", "is_disabled": 0, "lat": 38.900150833333335, "rental_uris": {"ios": "https://dc.lft.to/lastmile_qr_scan", "android": "https://dc.lft.to/lastmile_qr_scan"}, "bike_id": "09b69a5f070244056528446a7d897c14", "type": "electric_scooter", "lon": -77.0121305, "is_reserved": 0, "fusion_lat": 0.0, "fusion_lon": 0.0}, {"name": "feb68c21fdb150680de405aa5bb9259e", "is_disabled": 0, "lat": 38.915024333333335, "rental_uris": {"ios": "https://dc.lft.to/lastmile_qr_scan", "android": "https://dc.lft.to/lastmile_qr_scan"}, "bike_id": "feb68c21fdb150680de405aa5bb9259e", "type": "electric_scooter", "lon": -77.03207883333333, "is_reserved": 0, "fusion_lat": 0.0, "fusion_lon": 0.0}, {"name": "a809c15b6ae99212dc20238c9b9689b1", "is_disabled": 0, "lat": 38.934420333333335, "rental_uris": {"ios": "https://dc.lft.to/lastmile_qr_scan", "android": "https://dc.lft.to/lastmile_qr_scan"}, "bike_id": "a809c15b6ae99212dc20238c9b9689b1", "type": "electric_scooter", "lon": -77.05779616666666, "is_reserved": 0, "fusion_lat": 0.0, "fusion_lon": 0.0}, {"name": "f865023d1a25b46c79fb9ed3a5d39d11", "is_disabled": 0, "lat": 38.924557666666665, "rental_uris": {"ios": "https://dc.lft.to/lastmile_qr_scan", "android": "https://dc.lft.to/lastmile_qr_scan"}, "bike_id": "f865023d1a25b46c79fb9ed3a5d39d11", "type": "electric_scooter", "lon": -76.97106933333333, "is_reserved": 0, "fusion_lat": 0.0, "fusion_lon": 0.0}, {"name": "43ebaa594d204e941486838037e54c70", "is_disabled": 0, "lat": 38.898888, "rental_uris": {"ios": "https://dc.lft.to/lastmile_qr_scan", "android": "https://dc.lft.to/lastmile_qr_scan"}, "bike_id": "43ebaa594d204e941486838037e54c70", "type": "electric_scooter", "lon": -76.93174583333334, "is_reserved": 0, "fusion_lat": 0.0, "fusion_lon": 0.0}, {"name": "5f8ff19dd0733140f6e494899d7829b2", "is_disabled": 0, "lat": 38.89830116666667, "rental_uris": {"ios": "https://dc.lft.to/lastmile_qr_scan", "android": "https://dc.lft.to/lastmile_qr_scan"}, "bike_id": "5f8ff19dd0733140f6e494899d7829b2", "type": "electric_scooter", "lon": -76.94632716666666, "is_reserved": 0, "fusion_lat": 0.0, "fusion_lon": 0.0}, {"name": "1b0b9ba75f40211ecbcb4cca9472f699", "is_disabled": 0, "lat": 38.905607333333336, "rental_uris": {"ios": "https://dc.lft.to/lastmile_qr_scan", "android": "https://dc.lft.to/lastmile_qr_scan"}, "bike_id": "1b0b9ba75f40211ecbcb4cca9472f699", "type": "electric_scooter", "lon": -77.00586933333334, "is_reserved": 0, "fusion_lat": 0.0, "fusion_lon": 0.0}, {"name": "1cf14fd36edb8f5a321767237245ce99", "is_disabled": 0, "lat": 38.907212333333334, "rental_uris": {"ios": "https://dc.lft.to/lastmile_qr_scan", "android": "https://dc.lft.to/lastmile_qr_scan"}, "bike_id": "1cf14fd36edb8f5a321767237245ce99", "type": "electric_scooter", "lon": -77.04999016666666, "is_reserved": 0, "fusion_lat": 0.0, "fusion_lon": 0.0}, {"name": "29dbf8f3069c2a417f3d2cf56903bd8a", "is_disabled": 0, "lat": 38.92092616666667, "rental_uris": {"ios": "https://dc.lft.to/lastmile_qr_scan", "android": "https://dc.lft.to/lastmile_qr_scan"}, "bike_id": "29dbf8f3069c2a417f3d2cf56903bd8a", "type": "electric_scooter", "lon": -77.02526966666667, "is_reserved": 0, "fusion_lat": 0.0, "fusion_lon": 0.0}, {"name": "dca0e73efb50f3e13bb1803e4a326d31", "is_disabled": 0, "lat": 38.90573066666666, "rental_uris": {"ios": "https://dc.lft.to/lastmile_qr_scan", "android": "https://dc.lft.to/lastmile_qr_scan"}, "bike_id": "dca0e73efb50f3e13bb1803e4a326d31", "type": "electric_scooter", "lon": -77.03867533333333, "is_reserved": 0, "fusion_lat": 0.0, "fusion_lon": 0.0}, {"name": "bc5eb5c800816ed6cea933e8ec7cd1cf", "is_disabled": 0, "lat": 38.93207483333333, "rental_uris": {"ios": "https://dc.lft.to/lastmile_qr_scan", "android": "https://dc.lft.to/lastmile_qr_scan"}, "bike_id": "bc5eb5c800816ed6cea933e8ec7cd1cf", "type": "electric_scooter", "lon": -77.038644, "is_reserved": 0, "fusion_lat": 0.0, "fusion_lon": 0.0}, {"name": "aca9fbd995c83c089851bf1a2062fbf3", "is_disabled": 0, "lat": 38.9166375, "rental_uris": {"ios": "https://dc.lft.to/lastmile_qr_scan", "android": "https://dc.lft.to/lastmile_qr_scan"}, "bike_id": "aca9fbd995c83c089851bf1a2062fbf3", "type": "electric_scooter", "lon": -77.023312, "is_reserved": 0, "fusion_lat": 0.0, "fusion_lon": 0.0}, {"name": "f3a27ce3e3244461ac3c946b4bb819a0", "is_disabled": 0, "lat": 38.921694333333335, "rental_uris": {"ios": "https://dc.lft.to/lastmile_qr_scan", "android": "https://dc.lft.to/lastmile_qr_scan"}, "bike_id": "f3a27ce3e3244461ac3c946b4bb819a0", "type": "electric_scooter", "lon": -77.019194, "is_reserved": 0, "fusion_lat": 0.0, "fusion_lon": 0.0}, {"name": "bc239956a66b04fe6e6d323219f84a31", "is_disabled": 0, "lat": 38.92467416666667, "rental_uris": {"ios": "https://dc.lft.to/lastmile_qr_scan", "android": "https://dc.lft.to/lastmile_qr_scan"}, "bike_id": "bc239956a66b04fe6e6d323219f84a31", "type": "electric_scooter", "lon": -77.039481, "is_reserved": 0, "fusion_lat": 0.0, "fusion_lon": 0.0}, {"name": "94ae246cf3ff945fd2a3cdd22d04b931", "is_disabled": 0, "lat": 38.886458, "rental_uris": {"ios": "https://dc.lft.to/lastmile_qr_scan", "android": "https://dc.lft.to/lastmile_qr_scan"}, "bike_id": "94ae246cf3ff945fd2a3cdd22d04b931", "type": "electric_scooter", "lon": -77.0199435, "is_reserved": 0, "fusion_lat": 0.0, "fusion_lon": 0.0}, {"name": "9c06bd7edcb02ac73a1c55009236ad92", "is_disabled": 0, "lat": 38.90871766666667, "rental_uris": {"ios": "https://dc.lft.to/lastmile_qr_scan", "android": "https://dc.lft.to/lastmile_qr_scan"}, "bike_id": "9c06bd7edcb02ac73a1c55009236ad92", "type": "electric_scooter", "lon": -77.03851716666667, "is_reserved": 0, "fusion_lat": 0.0, "fusion_lon": 0.0}, {"name": "5e6fbda49d85ec3d454148ed033b5b7f", "is_disabled": 0, "lat": 38.890267, "rental_uris": {"ios": "https://dc.lft.to/lastmile_qr_scan", "android": "https://dc.lft.to/lastmile_qr_scan"}, "bike_id": "5e6fbda49d85ec3d454148ed033b5b7f", "type": "electric_scooter", "lon": -76.93750366666667, "is_reserved": 0, "fusion_lat": 0.0, "fusion_lon": 0.0}, {"name": "a7c765ef85fbc3998bfeb74c3bf792ff", "is_disabled": 0, "lat": 38.917301, "rental_uris": {"ios": "https://dc.lft.to/lastmile_qr_scan", "android": "https://dc.lft.to/lastmile_qr_scan"}, "bike_id": "a7c765ef85fbc3998bfeb74c3bf792ff", "type": "electric_scooter", "lon": -77.04177166666666, "is_reserved": 0, "fusion_lat": 0.0, "fusion_lon": 0.0}, {"name": "a13ae51525dbed170a78945cc1dcd6e6", "is_disabled": 0, "lat": 38.87201316666667, "rental_uris": {"ios": "https://dc.lft.to/lastmile_qr_scan", "android": "https://dc.lft.to/lastmile_qr_scan"}, "bike_id": "a13ae51525dbed170a78945cc1dcd6e6", "type": "electric_scooter", "lon": -77.01679466666667, "is_reserved": 0, "fusion_lat": 0.0, "fusion_lon": 0.0}, {"name": "3bc5667f54a36314fec9419f649c01fc", "is_disabled": 0, "lat": 38.799810666666666, "rental_uris": {"ios": "https://dc.lft.to/lastmile_qr_scan", "android": "https://dc.lft.to/lastmile_qr_scan"}, "bike_id": "3bc5667f54a36314fec9419f649c01fc", "type": "electric_bike", "lon": -77.12979833333333, "is_reserved": 0, "fusion_lat": 0.0, "fusion_lon": 0.0}, {"name": "304a8693ce9c582cc2e8aa9b46562476", "is_disabled": 0, "lat": 38.909121, "rental_uris": {"ios": "https://dc.lft.to/lastmile_qr_scan", "android": "https://dc.lft.to/lastmile_qr_scan"}, "bike_id": "304a8693ce9c582cc2e8aa9b46562476", "type": "electric_scooter", "lon": -77.06429816666666, "is_reserved": 0, "fusion_lat": 0.0, "fusion_lon": 0.0}, {"name": "042845a52de15ebfff1e213f92dc084b", "is_disabled": 0, "lat": 38.92192933333333, "rental_uris": {"ios": "https://dc.lft.to/lastmile_qr_scan", "android": "https://dc.lft.to/lastmile_qr_scan"}, "bike_id": "042845a52de15ebfff1e213f92dc084b", "type": "electric_scooter", "lon": -77.04195, "is_reserved": 0, "fusion_lat": 0.0, "fusion_lon": 0.0}, {"name": "ed142379bb152707e9b051d2d9307d99", "is_disabled": 0, "lat": 38.86327466666667, "rental_uris": {"ios": "https://dc.lft.to/lastmile_qr_scan", "android": "https://dc.lft.to/lastmile_qr_scan"}, "bike_id": "ed142379bb152707e9b051d2d9307d99", "type": "electric_bike", "lon": -76.98716183333333, "is_reserved": 0, "fusion_lat": 0.0, "fusion_lon": 0.0}, {"name": "9e1f398db593a10d2b8c6e796635abfa", "is_disabled": 0, "lat": 38.898512, "rental_uris": {"ios": "https://dc.lft.to/lastmile_qr_scan", "android": "https://dc.lft.to/lastmile_qr_scan"}, "bike_id": "9e1f398db593a10d2b8c6e796635abfa", "type": "electric_scooter", "lon": -77.02975366666666, "is_reserved": 0, "fusion_lat": 0.0, "fusion_lon": 0.0}, {"name": "0678512712758d1dce332340c0b3c11d", "is_disabled": 0, "lat": 38.954808166666666, "rental_uris": {"ios": "https://dc.lft.to/lastmile_qr_scan", "android": "https://dc.lft.to/lastmile_qr_scan"}, "bike_id": "0678512712758d1dce332340c0b3c11d", "type": "electric_bike", "lon": -77.02672733333333, "is_reserved": 0, "fusion_lat": 0.0, "fusion_lon": 0.0}, {"name": "abcb2f2741c24dac722dec2e6aee10cd", "is_disabled": 0, "lat": 38.92463266666667, "rental_uris": {"ios": "https://dc.lft.to/lastmile_qr_scan", "android": "https://dc.lft.to/lastmile_qr_scan"}, "bike_id": "abcb2f2741c24dac722dec2e6aee10cd", "type": "electric_scooter", "lon": -77.03950316666666, "is_reserved": 0, "fusion_lat": 0.0, "fusion_lon": 0.0}, {"name": "91645ccafcab37edb5b2ed257ac370c8", "is_disabled": 0, "lat": 38.902519833333336, "rental_uris": {"ios": "https://dc.lft.to/lastmile_qr_scan", "android": "https://dc.lft.to/lastmile_qr_scan"}, "bike_id": "91645ccafcab37edb5b2ed257ac370c8", "type": "electric_scooter", "lon": -77.01872966666667, "is_reserved": 0, "fusion_lat": 0.0, "fusion_lon": 0.0}, {"name": "e163c82277d33b9f86aa13596580b232", "is_disabled": 0, "lat": 38.90846333333333, "rental_uris": {"ios": "https://dc.lft.to/lastmile_qr_scan", "android": "https://dc.lft.to/lastmile_qr_scan"}, "bike_id": "e163c82277d33b9f86aa13596580b232", "type": "electric_scooter", "lon": -77.06345266666666, "is_reserved": 0, "fusion_lat": 0.0, "fusion_lon": 0.0}, {"name": "07e207c7e50b3354aed8500aadcc538c", "is_disabled": 0, "lat": 38.92674433333333, "rental_uris": {"ios": "https://dc.lft.to/lastmile_qr_scan", "android": "https://dc.lft.to/lastmile_qr_scan"}, "bike_id": "07e207c7e50b3354aed8500aadcc538c", "type": "electric_scooter", "lon": -77.02587216666667, "is_reserved": 0, "fusion_lat": 0.0, "fusion_lon": 0.0}, {"name": "83af94dd5b04ced21461027cc40baa3e", "is_disabled": 0, "lat": 38.899882833333336, "rental_uris": {"ios": "https://dc.lft.to/lastmile_qr_scan", "android": "https://dc.lft.to/lastmile_qr_scan"}, "bike_id": "83af94dd5b04ced21461027cc40baa3e", "type": "electric_scooter", "lon": -77.0207495, "is_reserved": 0, "fusion_lat": 0.0, "fusion_lon": 0.0}, {"name": "162609b2fa8aaf2a86c6c420f936bad2", "is_disabled": 0, "lat": 38.93260016666667, "rental_uris": {"ios": "https://dc.lft.to/lastmile_qr_scan", "android": "https://dc.lft.to/lastmile_qr_scan"}, "bike_id": "162609b2fa8aaf2a86c6c420f936bad2", "type": "electric_scooter", "lon": -76.9889835, "is_reserved": 0, "fusion_lat": 0.0, "fusion_lon": 0.0}, {"name": "a4e87dc3d61645ec69f763f6990ec6ea", "is_disabled": 0, "lat": 38.93245133333333, "rental_uris": {"ios": "https://dc.lft.to/lastmile_qr_scan", "android": "https://dc.lft.to/lastmile_qr_scan"}, "bike_id": "a4e87dc3d61645ec69f763f6990ec6ea", "type": "electric_scooter", "lon": -77.02952316666666, "is_reserved": 0, "fusion_lat": 0.0, "fusion_lon": 0.0}, {"name": "7261d344926eb33e60df57231ea58c5f", "is_disabled": 0, "lat": 38.909666, "rental_uris": {"ios": "https://dc.lft.to/lastmile_qr_scan", "android": "https://dc.lft.to/lastmile_qr_scan"}, "bike_id": "7261d344926eb33e60df57231ea58c5f", "type": "electric_scooter", "lon": -77.032925, "is_reserved": 0, "fusion_lat": 0.0, "fusion_lon": 0.0}, {"name": "3388654472d2feef1ed7988d2377dc0b", "is_disabled": 0, "lat": 38.902692333333334, "rental_uris": {"ios": "https://dc.lft.to/lastmile_qr_scan", "android": "https://dc.lft.to/lastmile_qr_scan"}, "bike_id": "3388654472d2feef1ed7988d2377dc0b", "type": "electric_scooter", "lon": -77.03832566666667, "is_reserved": 0, "fusion_lat": 0.0, "fusion_lon": 0.0}, {"name": "1f437bb365f2524ecd73c63df1b5e234", "is_disabled": 0, "lat": 38.92709833333333, "rental_uris": {"ios": "https://dc.lft.to/lastmile_qr_scan", "android": "https://dc.lft.to/lastmile_qr_scan"}, "bike_id": "1f437bb365f2524ecd73c63df1b5e234", "type": "electric_scooter", "lon": -77.05353966666667, "is_reserved": 0, "fusion_lat": 0.0, "fusion_lon": 0.0}, {"name": "2c41772c156539913cf93eb763d9089d", "is_disabled": 0, "lat": 38.96229566666667, "rental_uris": {"ios": "https://dc.lft.to/lastmile_qr_scan", "android": "https://dc.lft.to/lastmile_qr_scan"}, "bike_id": "2c41772c156539913cf93eb763d9089d", "type": "electric_bike", "lon": -76.92799983333333, "is_reserved": 0, "fusion_lat": 0.0, "fusion_lon": 0.0}, {"name": "99baedf0fac8de26b988f99e0a0d6d38", "is_disabled": 0, "lat": 38.897232, "rental_uris": {"ios": "https://dc.lft.to/lastmile_qr_scan", "android": "https://dc.lft.to/lastmile_qr_scan"}, "bike_id": "99baedf0fac8de26b988f99e0a0d6d38", "type": "electric_scooter", "lon": -77.01870216666667, "is_reserved": 0, "fusion_lat": 0.0, "fusion_lon": 0.0}, {"name": "f1ccbe9be4d1697619ea4a673e9fcb7d", "is_disabled": 0, "lat": 38.9344475, "rental_uris": {"ios": "https://dc.lft.to/lastmile_qr_scan", "android": "https://dc.lft.to/lastmile_qr_scan"}, "bike_id": "f1ccbe9be4d1697619ea4a673e9fcb7d", "type": "electric_scooter", "lon": -77.0387245, "is_reserved": 0, "fusion_lat": 0.0, "fusion_lon": 0.0}, {"name": "c04ed0e924be7bab85aed8ff8bc2218c", "is_disabled": 0, "lat": 38.89720066666667, "rental_uris": {"ios": "https://dc.lft.to/lastmile_qr_scan", "android": "https://dc.lft.to/lastmile_qr_scan"}, "bike_id": "c04ed0e924be7bab85aed8ff8bc2218c", "type": "electric_scooter", "lon": -77.00347016666667, "is_reserved": 0, "fusion_lat": 0.0, "fusion_lon": 0.0}, {"name": "59ce56fc70b653a6fe40d5074ce7f332", "is_disabled": 0, "lat": 38.900223, "rental_uris": {"ios": "https://dc.lft.to/lastmile_qr_scan", "android": "https://dc.lft.to/lastmile_qr_scan"}, "bike_id": "59ce56fc70b653a6fe40d5074ce7f332", "type": "electric_scooter", "lon": -76.991526, "is_reserved": 0, "fusion_lat": 0.0, "fusion_lon": 0.0}, {"name": "40462772b432bee8d9073f2ba16ec486", "is_disabled": 0, "lat": 38.916946, "rental_uris": {"ios": "https://dc.lft.to/lastmile_qr_scan", "android": "https://dc.lft.to/lastmile_qr_scan"}, "bike_id": "40462772b432bee8d9073f2ba16ec486", "type": "electric_scooter", "lon": -77.027449, "is_reserved": 0, "fusion_lat": 0.0, "fusion_lon": 0.0}, {"name": "e9dad15cc60665c69e755bddf4ed308d", "is_disabled": 0, "lat": 38.916922, "rental_uris": {"ios": "https://dc.lft.to/lastmile_qr_scan", "android": "https://dc.lft.to/lastmile_qr_scan"}, "bike_id": "e9dad15cc60665c69e755bddf4ed308d", "type": "electric_scooter", "lon": -77.02645633333333, "is_reserved": 0, "fusion_lat": 0.0, "fusion_lon": 0.0}, {"name": "8a529f63106a673164600dccd2baa2a1", "is_disabled": 0, "lat": 38.909468333333336, "rental_uris": {"ios": "https://dc.lft.to/lastmile_qr_scan", "android": "https://dc.lft.to/lastmile_qr_scan"}, "bike_id": "8a529f63106a673164600dccd2baa2a1", "type": "electric_scooter", "lon": -77.027164, "is_reserved": 0, "fusion_lat": 0.0, "fusion_lon": 0.0}, {"name": "55ad545c1fdd5c2be916a7bd9c942e84", "is_disabled": 0, "lat": 38.89222383333333, "rental_uris": {"ios": "https://dc.lft.to/lastmile_qr_scan", "android": "https://dc.lft.to/lastmile_qr_scan"}, "bike_id": "55ad545c1fdd5c2be916a7bd9c942e84", "type": "electric_scooter", "lon": -77.045093, "is_reserved": 0, "fusion_lat": 0.0, "fusion_lon": 0.0}, {"name": "6eb1d4202c8875ae0ec2c7c75991f73e", "is_disabled": 0, "lat": 38.9054955, "rental_uris": {"ios": "https://dc.lft.to/lastmile_qr_scan", "android": "https://dc.lft.to/lastmile_qr_scan"}, "bike_id": "6eb1d4202c8875ae0ec2c7c75991f73e", "type": "electric_scooter", "lon": -77.00606466666666, "is_reserved": 0, "fusion_lat": 0.0, "fusion_lon": 0.0}, {"name": "79086ef41b4b1da74e683c564a7c7d45", "is_disabled": 0, "lat": 38.940074, "rental_uris": {"ios": "https://dc.lft.to/lastmile_qr_scan", "android": "https://dc.lft.to/lastmile_qr_scan"}, "bike_id": "79086ef41b4b1da74e683c564a7c7d45", "type": "electric_scooter", "lon": -77.02543083333333, "is_reserved": 0, "fusion_lat": 0.0, "fusion_lon": 0.0}, {"name": "5a4b408e968993783d0ce32ba090e0fc", "is_disabled": 0, "lat": 38.9033705, "rental_uris": {"ios": "https://dc.lft.to/lastmile_qr_scan", "android": "https://dc.lft.to/lastmile_qr_scan"}, "bike_id": "5a4b408e968993783d0ce32ba090e0fc", "type": "electric_scooter", "lon": -77.034373, "is_reserved": 0, "fusion_lat": 0.0, "fusion_lon": 0.0}, {"name": "4ff8dc2ace11a8b5be43581cc516bd2d", "is_disabled": 0, "lat": 38.94673683333333, "rental_uris": {"ios": "https://dc.lft.to/lastmile_qr_scan", "android": "https://dc.lft.to/lastmile_qr_scan"}, "bike_id": "4ff8dc2ace11a8b5be43581cc516bd2d", "type": "electric_bike", "lon": -76.95672216666667, "is_reserved": 0, "fusion_lat": 0.0, "fusion_lon": 0.0}, {"name": "06a2a7aa43c92201ca9d4915981e1092", "is_disabled": 0, "lat": 38.898845666666666, "rental_uris": {"ios": "https://dc.lft.to/lastmile_qr_scan", "android": "https://dc.lft.to/lastmile_qr_scan"}, "bike_id": "06a2a7aa43c92201ca9d4915981e1092", "type": "electric_scooter", "lon": -77.0447625, "is_reserved": 0, "fusion_lat": 0.0, "fusion_lon": 0.0}, {"name": "12b80a6d6b65bf20f64a0ae46f8d483a", "is_disabled": 0, "lat": 38.908404166666664, "rental_uris": {"ios": "https://dc.lft.to/lastmile_qr_scan", "android": "https://dc.lft.to/lastmile_qr_scan"}, "bike_id": "12b80a6d6b65bf20f64a0ae46f8d483a", "type": "electric_bike", "lon": -77.044027, "is_reserved": 0, "fusion_lat": 0.0, "fusion_lon": 0.0}, {"name": "66b69b3bd3b2078236d85d1cb3f2c254", "is_disabled": 0, "lat": 38.90678333333334, "rental_uris": {"ios": "https://dc.lft.to/lastmile_qr_scan", "android": "https://dc.lft.to/lastmile_qr_scan"}, "bike_id": "66b69b3bd3b2078236d85d1cb3f2c254", "type": "electric_scooter", "lon": -77.03671766666666, "is_reserved": 0, "fusion_lat": 0.0, "fusion_lon": 0.0}, {"name": "060130862b7c97e1535f03d54d09c812", "is_disabled": 0, "lat": 38.9071065, "rental_uris": {"ios": "https://dc.lft.to/lastmile_qr_scan", "android": "https://dc.lft.to/lastmile_qr_scan"}, "bike_id": "060130862b7c97e1535f03d54d09c812", "type": "electric_scooter", "lon": -77.02719133333333, "is_reserved": 0, "fusion_lat": 0.0, "fusion_lon": 0.0}, {"name": "64b663dff7284ee900f6629f00e3c00f", "is_disabled": 0, "lat": 38.92459083333333, "rental_uris": {"ios": "https://dc.lft.to/lastmile_qr_scan", "android": "https://dc.lft.to/lastmile_qr_scan"}, "bike_id": "64b663dff7284ee900f6629f00e3c00f", "type": "electric_scooter", "lon": -77.03949116666666, "is_reserved": 0, "fusion_lat": 0.0, "fusion_lon": 0.0}, {"name": "68b807bfb156ccb8fd4d6aa8d913242c", "is_disabled": 0, "lat": 38.932425333333335, "rental_uris": {"ios": "https://dc.lft.to/lastmile_qr_scan", "android": "https://dc.lft.to/lastmile_qr_scan"}, "bike_id": "68b807bfb156ccb8fd4d6aa8d913242c", "type": "electric_scooter", "lon": -77.02971833333334, "is_reserved": 0, "fusion_lat": 0.0, "fusion_lon": 0.0}, {"name": "b97f895e5860258b3effdfb0df2dfa56", "is_disabled": 0, "lat": 38.8874375, "rental_uris": {"ios": "https://dc.lft.to/lastmile_qr_scan", "android": "https://dc.lft.to/lastmile_qr_scan"}, "bike_id": "b97f895e5860258b3effdfb0df2dfa56", "type": "electric_scooter", "lon": -77.01779316666666, "is_reserved": 0, "fusion_lat": 0.0, "fusion_lon": 0.0}, {"name": "893b9977999dc83c7c9b9a13a41b0092", "is_disabled": 0, "lat": 38.913955333333334, "rental_uris": {"ios": "https://dc.lft.to/lastmile_qr_scan", "android": "https://dc.lft.to/lastmile_qr_scan"}, "bike_id": "893b9977999dc83c7c9b9a13a41b0092", "type": "electric_scooter", "lon": -77.0248685, "is_reserved": 0, "fusion_lat": 0.0, "fusion_lon": 0.0}, {"name": "38171f5c73281bc7425a079f844c16a0", "is_disabled": 0, "lat": 38.92031933333333, "rental_uris": {"ios": "https://dc.lft.to/lastmile_qr_scan", "android": "https://dc.lft.to/lastmile_qr_scan"}, "bike_id": "38171f5c73281bc7425a079f844c16a0", "type": "electric_scooter", "lon": -76.98993883333333, "is_reserved": 0, "fusion_lat": 0.0, "fusion_lon": 0.0}, {"name": "30004006fbda37865decda4a849b056a", "is_disabled": 0, "lat": 38.9013175, "rental_uris": {"ios": "https://dc.lft.to/lastmile_qr_scan", "android": "https://dc.lft.to/lastmile_qr_scan"}, "bike_id": "30004006fbda37865decda4a849b056a", "type": "electric_scooter", "lon": -77.04165566666667, "is_reserved": 0, "fusion_lat": 0.0, "fusion_lon": 0.0}, {"name": "b2bb3ff0910c5a8768d9492ce5f32e08", "is_disabled": 0, "lat": 38.902298333333334, "rental_uris": {"ios": "https://dc.lft.to/lastmile_qr_scan", "android": "https://dc.lft.to/lastmile_qr_scan"}, "bike_id": "b2bb3ff0910c5a8768d9492ce5f32e08", "type": "electric_scooter", "lon": -77.045632, "is_reserved": 0, "fusion_lat": 0.0, "fusion_lon": 0.0}, {"name": "73c7f3da23ee84ae2d4da4a0093d05cc", "is_disabled": 0, "lat": 38.899547166666665, "rental_uris": {"ios": "https://dc.lft.to/lastmile_qr_scan", "android": "https://dc.lft.to/lastmile_qr_scan"}, "bike_id": "73c7f3da23ee84ae2d4da4a0093d05cc", "type": "electric_scooter", "lon": -77.02195066666667, "is_reserved": 0, "fusion_lat": 0.0, "fusion_lon": 0.0}, {"name": "0659548adbc5b910fd60ff1275455463", "is_disabled": 0, "lat": 38.89214716666667, "rental_uris": {"ios": "https://dc.lft.to/lastmile_qr_scan", "android": "https://dc.lft.to/lastmile_qr_scan"}, "bike_id": "0659548adbc5b910fd60ff1275455463", "type": "electric_scooter", "lon": -77.02655466666667, "is_reserved": 0, "fusion_lat": 0.0, "fusion_lon": 0.0}, {"name": "41bab0bca43145384f383b0cc51110b0", "is_disabled": 0, "lat": 38.922471333333334, "rental_uris": {"ios": "https://dc.lft.to/lastmile_qr_scan", "android": "https://dc.lft.to/lastmile_qr_scan"}, "bike_id": "41bab0bca43145384f383b0cc51110b0", "type": "electric_scooter", "lon": -77.04253766666666, "is_reserved": 0, "fusion_lat": 0.0, "fusion_lon": 0.0}, {"name": "aec01d8844cb51a91d01f3cb2153d2aa", "is_disabled": 0, "lat": 38.8992645, "rental_uris": {"ios": "https://dc.lft.to/lastmile_qr_scan", "android": "https://dc.lft.to/lastmile_qr_scan"}, "bike_id": "aec01d8844cb51a91d01f3cb2153d2aa", "type": "electric_scooter", "lon": -77.012789, "is_reserved": 0, "fusion_lat": 0.0, "fusion_lon": 0.0}, {"name": "c7da07278b1cfb517b5646b2350cf48c", "is_disabled": 0, "lat": 38.879632666666666, "rental_uris": {"ios": "https://dc.lft.to/lastmile_qr_scan", "android": "https://dc.lft.to/lastmile_qr_scan"},