{"data": {"bikes": [{"bike_id": "2029eb349a9e53c4caf2fc742b02ac2b", "type": "electric_bike", "is_disabled": 0, "lat": 38.9436705, "rental_uris": {"ios": "https://dc.lft.to/lastmile_qr_scan", "android": "https://dc.lft.to/lastmile_qr_scan"}, "is_reserved": 0, "fusion_lon": 0.0, "fusion_lat": 0.0, "lon": -76.967811, "name": "2029eb349a9e53c4caf2fc742b02ac2b"}, {"bike_id": "44367e5ce8fa8bb177547c318993f7b5", "type": "electric_bike", "is_disabled": 0, "lat": 38.916550666666666, "rental_uris": {"ios": "https://dc.lft.to/lastmile_qr_scan", "android": "https://dc.lft.to/lastmile_qr_scan"}, "is_reserved": 0, "fusion_lon": 0.0, "fusion_lat": 0.0, "lon": -77.06822083333333, "name": "44367e5ce8fa8bb177547c318993f7b5"}, {"bike_id": "2f89ebe36bc20f6703320acaf6651d1c", "type": "electric_scooter", "is_disabled": 0, "lat": 38.89299883333333, "rental_uris": {"ios": "https://dc.lft.to/lastmile_qr_scan", "android": "https://dc.lft.to/lastmile_qr_scan"}, "is_reserved": 0, "fusion_lon": 0.0, "fusion_lat": 0.0, "lon": -77.01233333333333, "name": "2f89ebe36bc20f6703320acaf6651d1c"}, {"bike_id": "f486c044138c304ad6b72eb9a3cf721e", "type": "electric_scooter", "is_disabled": 0, "lat": 38.93678716666667, "rental_uris": {"ios": "https://dc.lft.to/lastmile_qr_scan", "android": "https://dc.lft.to/lastmile_qr_scan"}, "is_reserved": 0, "fusion_lon": 0.0, "fusion_lat": 0.0, "lon": -77.03569816666666, "name": "f486c044138c304ad6b72eb9a3cf721e"}, {"bike_id": "9bc3643fc26a11d1a566694ddd64c3fe", "type": "electric_scooter", "is_disabled": 0, "lat": 38.903790666666666, "rental_uris": {"ios": "https://dc.lft.to/lastmile_qr_scan", "android": "https://dc.lft.to/lastmile_qr_scan"}, "is_reserved": 0, "fusion_lon": 0.0, "fusion_lat": 0.0, "lon": -77.04872766666666, "name": "9bc3643fc26a11d1a566694ddd64c3fe"}, {"bike_id": "ef64088ab42e9131a1dc455901f45b95", "type": "electric_scooter", "is_disabled": 0, "lat": 38.85019883333333, "rental_uris": {"ios": "https://dc.lft.to/lastmile_qr_scan", "android": "https://dc.lft.to/lastmile_qr_scan"}, "is_reserved": 0, "fusion_lon": 0.0, "fusion_lat": 0.0, "lon": -76.9752735, "name": "ef64088ab42e9131a1dc455901f45b95"}, {"bike_id": "de0e6a91a932af48d8c88f8186a6fb80", "type": "electric_scooter", "is_disabled": 0, "lat": 38.86249083333333, "rental_uris": {"ios": "https://dc.lft.to/lastmile_qr_scan", "android": "https://dc.lft.to/lastmile_qr_scan"}, "is_reserved": 0, "fusion_lon": 0.0, "fusion_lat": 0.0, "lon": -76.99504083333333, "name": "de0e6a91a932af48d8c88f8186a6fb80"}, {"bike_id": "0e7e3ea07c2c061370cf9196bdbc2e12", "type": "electric_scooter", "is_disabled": 0, "lat": 38.9052225, "rental_uris": {"ios": "https://dc.lft.to/lastmile_qr_scan", "android": "https://dc.lft.to/lastmile_qr_scan"}, "is_reserved": 0, "fusion_lon": 0.0, "fusion_lat": 0.0, "lon": -77.06297166666667, "name": "0e7e3ea07c2c061370cf9196bdbc2e12"}, {"bike_id": "29b4ebfaea3f7bc3d2d7ca97920c676d", "type": "electric_bike", "is_disabled": 0, "lat": 38.923513166666666, "rental_uris": {"ios": "https://dc.lft.to/lastmile_qr_scan", "android": "https://dc.lft.to/lastmile_qr_scan"}, "is_reserved": 0, "fusion_lon": 0.0, "fusion_lat": 0.0, "lon": -76.97125466666667, "name": "29b4ebfaea3f7bc3d2d7ca97920c676d"}, {"bike_id": "eb7f39cfa25ea3ce318d846b05ce3eac", "type": "electric_scooter", "is_disabled": 0, "lat": 38.962099, "rental_uris": {"ios": "https://dc.lft.to/lastmile_qr_scan", "android": "https://dc.lft.to/lastmile_qr_scan"}, "is_reserved": 0, "fusion_lon": 0.0, "fusion_lat": 0.0, "lon": -77.022279, "name": "eb7f39cfa25ea3ce318d846b05ce3eac"}, {"bike_id": "6f54b075c47edf3f2b11ee827109c0e0", "type": "electric_bike", "is_disabled": 0, "lat": 38.93494533333333, "rental_uris": {"ios": "https://dc.lft.to/lastmile_qr_scan", "android": "https://dc.lft.to/lastmile_qr_scan"}, "is_reserved": 0, "fusion_lon": 0.0, "fusion_lat": 0.0, "lon": -76.99131866666667, "name": "6f54b075c47edf3f2b11ee827109c0e0"}, {"bike_id": "58a920c6637a9c4c1dfc84cbca0597ce", "type": "electric_scooter", "is_disabled": 0, "lat": 38.92753833333333, "rental_uris": {"ios": "https://dc.lft.to/lastmile_qr_scan", "android": "https://dc.lft.to/lastmile_qr_scan"}, "is_reserved": 0, "fusion_lon": 0.0, "fusion_lat": 0.0, "lon": -77.02534083333333, "name": "58a920c6637a9c4c1dfc84cbca0597ce"}, {"bike_id": "11c61833c688b74fd96682c2b188731b", "type": "electric_bike", "is_disabled": 0, "lat": 38.983901333333336, "rental_uris": {"ios": "https://dc.lft.to/lastmile_qr_scan", "android": "https://dc.lft.to/lastmile_qr_scan"}, "is_reserved": 0, "fusion_lon": 0.0, "fusion_lat": 0.0, "lon": -76.972213, "name": "11c61833c688b74fd96682c2b188731b"}, {"bike_id": "4cb1f0bf3887ad423fdb59a80c50494f", "type": "electric_scooter", "is_disabled": 0, "lat": 38.91684766666667, "rental_uris": {"ios": "https://dc.lft.to/lastmile_qr_scan", "android": "https://dc.lft.to/lastmile_qr_scan"}, "is_reserved": 0, "fusion_lon": 0.0, "fusion_lat": 0.0, "lon": -77.0295525, "name": "4cb1f0bf3887ad423fdb59a80c50494f"}, {"bike_id": "288d3fb1a7a67149a90e9b56cdca5edd", "type": "electric_scooter", "is_disabled": 0, "lat": 38.91482283333333, "rental_uris": {"ios": "https://dc.lft.to/lastmile_qr_scan", "android": "https://dc.lft.to/lastmile_qr_scan"}, "is_reserved": 0, "fusion_lon": 0.0, "fusion_lat": 0.0, "lon": -77.0029, "name": "288d3fb1a7a67149a90e9b56cdca5edd"}, {"bike_id": "fd27347a1922e7ac22a3d469aa34b684", "type": "electric_scooter", "is_disabled": 0, "lat": 38.93953066666667, "rental_uris": {"ios": "https://dc.lft.to/lastmile_qr_scan", "android": "https://dc.lft.to/lastmile_qr_scan"}, "is_reserved": 0, "fusion_lon": 0.0, "fusion_lat": 0.0, "lon": -77.07250283333333, "name": "fd27347a1922e7ac22a3d469aa34b684"}, {"bike_id": "39ae6ca4a9d3d7a6caf45f417275e264", "type": "electric_bike", "is_disabled": 0, "lat": 38.90515466666667, "rental_uris": {"ios": "https://dc.lft.to/lastmile_qr_scan", "android": "https://dc.lft.to/lastmile_qr_scan"}, "is_reserved": 0, "fusion_lon": 0.0, "fusion_lat": 0.0, "lon": -77.05675833333333, "name": "39ae6ca4a9d3d7a6caf45f417275e264"}, {"bike_id": "cdac5172de2d8b970ba43e8d379ebe2b", "type": "electric_scooter", "is_disabled": 0, "lat": 38.9259545, "rental_uris": {"ios": "https://dc.lft.to/lastmile_qr_scan", "android": "https://dc.lft.to/lastmile_qr_scan"}, "is_reserved": 0, "fusion_lon": 0.0, "fusion_lat": 0.0, "lon": -77.0217045, "name": "cdac5172de2d8b970ba43e8d379ebe2b"}, {"bike_id": "9d093760d1f38283435b925000ef78dc", "type": "electric_scooter", "is_disabled": 0, "lat": 38.918951166666666, "rental_uris": {"ios": "https://dc.lft.to/lastmile_qr_scan", "android": "https://dc.lft.to/lastmile_qr_scan"}, "is_reserved": 0, "fusion_lon": 0.0, "fusion_lat": 0.0, "lon": -77.04623983333333, "name": "9d093760d1f38283435b925000ef78dc"}, {"bike_id": "fb0682fe502d7c43d807b8c6e754146a", "type": "electric_scooter", "is_disabled": 0, "lat": 38.902993333333335, "rental_uris": {"ios": "https://dc.lft.to/lastmile_qr_scan", "android": "https://dc.lft.to/lastmile_qr_scan"}, "is_reserved": 0, "fusion_lon": 0.0, "fusion_lat": 0.0, "lon": -77.044757, "name": "fb0682fe502d7c43d807b8c6e754146a"}, {"bike_id": "5fe4fd73bfc5a4d6abf2d041853d2a99", "type": "electric_scooter", "is_disabled": 0, "lat": 38.901060333333334, "rental_uris": {"ios": "https://dc.lft.to/lastmile_qr_scan", "android": "https://dc.lft.to/lastmile_qr_scan"}, "is_reserved": 0, "fusion_lon": 0.0, "fusion_lat": 0.0, "lon": -77.0383935, "name": "5fe4fd73bfc5a4d6abf2d041853d2a99"}, {"bike_id": "9658d25d729f2d4345ba212f36241bc7", "type": "electric_scooter", "is_disabled": 0, "lat": 38.89116033333333, "rental_uris": {"ios": "https://dc.lft.to/lastmile_qr_scan", "android": "https://dc.lft.to/lastmile_qr_scan"}, "is_reserved": 0, "fusion_lon": 0.0, "fusion_lat": 0.0, "lon": -76.99152183333334, "name": "9658d25d729f2d4345ba212f36241bc7"}, {"bike_id": "74248510922540599117f6e32e3211aa", "type": "electric_scooter", "is_disabled": 0, "lat": 38.908505, "rental_uris": {"ios": "https://dc.lft.to/lastmile_qr_scan", "android": "https://dc.lft.to/lastmile_qr_scan"}, "is_reserved": 0, "fusion_lon": 0.0, "fusion_lat": 0.0, "lon": -76.999709, "name": "74248510922540599117f6e32e3211aa"}, {"bike_id": "b3f560217180bf00cc0f7159cafd6c8d", "type": "electric_scooter", "is_disabled": 0, "lat": 38.912639, "rental_uris": {"ios": "https://dc.lft.to/lastmile_qr_scan", "android": "https://dc.lft.to/lastmile_qr_scan"}, "is_reserved": 0, "fusion_lon": 0.0, "fusion_lat": 0.0, "lon": -77.06791933333334, "name": "b3f560217180bf00cc0f7159cafd6c8d"}, {"bike_id": "a2468d14f387c7cf31c4f959337895e0", "type": "electric_scooter", "is_disabled": 0, "lat": 38.86219716666667, "rental_uris": {"ios": "https://dc.lft.to/lastmile_qr_scan", "android": "https://dc.lft.to/lastmile_qr_scan"}, "is_reserved": 0, "fusion_lon": 0.0, "fusion_lat": 0.0, "lon": -76.99489033333333, "name": "a2468d14f387c7cf31c4f959337895e0"}, {"bike_id": "28f6a1c0698ceaf71187c9befcb5d52c", "type": "electric_scooter", "is_disabled": 0, "lat": 38.878599333333334, "rental_uris": {"ios": "https://dc.lft.to/lastmile_qr_scan", "android": "https://dc.lft.to/lastmile_qr_scan"}, "is_reserved": 0, "fusion_lon": 0.0, "fusion_lat": 0.0, "lon": -77.005803, "name": "28f6a1c0698ceaf71187c9befcb5d52c"}, {"bike_id": "6f0657e676294be2dabd9578c0afa53a", "type": "electric_scooter", "is_disabled": 0, "lat": 38.9201445, "rental_uris": {"ios": "https://dc.lft.to/lastmile_qr_scan", "android": "https://dc.lft.to/lastmile_qr_scan"}, "is_reserved": 0, "fusion_lon": 0.0, "fusion_lat": 0.0, "lon": -77.03122366666666, "name": "6f0657e676294be2dabd9578c0afa53a"}, {"bike_id": "2089587a4ad7c5046197bfd24955d64c", "type": "electric_scooter", "is_disabled": 0, "lat": 38.89846983333333, "rental_uris": {"ios": "https://dc.lft.to/lastmile_qr_scan", "android": "https://dc.lft.to/lastmile_qr_scan"}, "is_reserved": 0, "fusion_lon": 0.0, "fusion_lat": 0.0, "lon": -76.94636983333334, "name": "2089587a4ad7c5046197bfd24955d64c"}, {"bike_id": "913e5fc6f109ccb97fcca2e3be69e381", "type": "electric_scooter", "is_disabled": 0, "lat": 38.91924933333333, "rental_uris": {"ios": "https://dc.lft.to/lastmile_qr_scan", "android": "https://dc.lft.to/lastmile_qr_scan"}, "is_reserved": 0, "fusion_lon": 0.0, "fusion_lat": 0.0, "lon": -77.04244833333334, "name": "913e5fc6f109ccb97fcca2e3be69e381"}, {"bike_id": "3268d2ae2d9c17d724e58c96dead8ec4", "type": "electric_scooter", "is_disabled": 0, "lat": 38.90357133333333, "rental_uris": {"ios": "https://dc.lft.to/lastmile_qr_scan", "android": "https://dc.lft.to/lastmile_qr_scan"}, "is_reserved": 0, "fusion_lon": 0.0, "fusion_lat": 0.0, "lon": -77.0603215, "name": "3268d2ae2d9c17d724e58c96dead8ec4"}, {"bike_id": "49a73332d62c9dddda9026463cdbaa83", "type": "electric_scooter", "is_disabled": 0, "lat": 38.886619833333334, "rental_uris": {"ios": "https://dc.lft.to/lastmile_qr_scan", "android": "https://dc.lft.to/lastmile_qr_scan"}, "is_reserved": 0, "fusion_lon": 0.0, "fusion_lat": 0.0, "lon": -77.033926, "name": "49a73332d62c9dddda9026463cdbaa83"}, {"bike_id": "49504ba215deecce169151bc131f940e", "type": "electric_scooter", "is_disabled": 0, "lat": 38.86375783333333, "rental_uris": {"ios": "https://dc.lft.to/lastmile_qr_scan", "android": "https://dc.lft.to/lastmile_qr_scan"}, "is_reserved": 0, "fusion_lon": 0.0, "fusion_lat": 0.0, "lon": -76.99059166666666, "name": "49504ba215deecce169151bc131f940e"}, {"bike_id": "d384b2ea8d3df775d1ebe15d3fd43dd1", "type": "electric_scooter", "is_disabled": 0, "lat": 38.866809, "rental_uris": {"ios": "https://dc.lft.to/lastmile_qr_scan", "android": "https://dc.lft.to/lastmile_qr_scan"}, "is_reserved": 0, "fusion_lon": 0.0, "fusion_lat": 0.0, "lon": -76.98560416666666, "name": "d384b2ea8d3df775d1ebe15d3fd43dd1"}, {"bike_id": "6fc9268da4b7a822d262409e9e5373e8", "type": "electric_scooter", "is_disabled": 0, "lat": 38.907394833333335, "rental_uris": {"ios": "https://dc.lft.to/lastmile_qr_scan", "android": "https://dc.lft.to/lastmile_qr_scan"}, "is_reserved": 0, "fusion_lon": 0.0, "fusion_lat": 0.0, "lon": -77.0294865, "name": "6fc9268da4b7a822d262409e9e5373e8"}, {"bike_id": "1992762e3e0acac5966039bae3f0d6a5", "type": "electric_scooter", "is_disabled": 0, "lat": 38.876491, "rental_uris": {"ios": "https://dc.lft.to/lastmile_qr_scan", "android": "https://dc.lft.to/lastmile_qr_scan"}, "is_reserved": 0, "fusion_lon": 0.0, "fusion_lat": 0.0, "lon": -76.96504283333333, "name": "1992762e3e0acac5966039bae3f0d6a5"}, {"bike_id": "aec176f1fb9f077d502f6fbbd1448b3d", "type": "electric_scooter", "is_disabled": 0, "lat": 38.965672, "rental_uris": {"ios": "https://dc.lft.to/lastmile_qr_scan", "android": "https://dc.lft.to/lastmile_qr_scan"}, "is_reserved": 0, "fusion_lon": 0.0, "fusion_lat": 0.0, "lon": -77.0277535, "name": "aec176f1fb9f077d502f6fbbd1448b3d"}, {"bike_id": "3467ffebe60167e671a432a795ce5188", "type": "electric_scooter", "is_disabled": 0, "lat": 38.903350333333336, "rental_uris": {"ios": "https://dc.lft.to/lastmile_qr_scan", "android": "https://dc.lft.to/lastmile_qr_scan"}, "is_reserved": 0, "fusion_lon": 0.0, "fusion_lat": 0.0, "lon": -77.06929016666666, "name": "3467ffebe60167e671a432a795ce5188"}, {"bike_id": "897aa18b111c91262d861cf3ae84c65f", "type": "electric_scooter", "is_disabled": 0, "lat": 38.86250583333333, "rental_uris": {"ios": "https://dc.lft.to/lastmile_qr_scan", "android": "https://dc.lft.to/lastmile_qr_scan"}, "is_reserved": 0, "fusion_lon": 0.0, "fusion_lat": 0.0, "lon": -76.99498716666666, "name": "897aa18b111c91262d861cf3ae84c65f"}, {"bike_id": "a138332bcc1b27887943820a5764af76", "type": "electric_scooter", "is_disabled": 0, "lat": 38.984358, "rental_uris": {"ios": "https://dc.lft.to/lastmile_qr_scan", "android": "https://dc.lft.to/lastmile_qr_scan"}, "is_reserved": 0, "fusion_lon": 0.0, "fusion_lat": 0.0, "lon": -77.02669283333333, "name": "a138332bcc1b27887943820a5764af76"}, {"bike_id": "5ae2ac69d35212957cff011f8d72aebd", "type": "electric_scooter", "is_disabled": 0, "lat": 38.882585166666665, "rental_uris": {"ios": "https://dc.lft.to/lastmile_qr_scan", "android": "https://dc.lft.to/lastmile_qr_scan"}, "is_reserved": 0, "fusion_lon": 0.0, "fusion_lat": 0.0, "lon": -76.99508533333334, "name": "5ae2ac69d35212957cff011f8d72aebd"}, {"bike_id": "70ebd6f60fd4e5b687cd51f2a74889de", "type": "electric_scooter", "is_disabled": 0, "lat": 38.866563, "rental_uris": {"ios": "https://dc.lft.to/lastmile_qr_scan", "android": "https://dc.lft.to/lastmile_qr_scan"}, "is_reserved": 0, "fusion_lon": 0.0, "fusion_lat": 0.0, "lon": -76.98880383333334, "name": "70ebd6f60fd4e5b687cd51f2a74889de"}, {"bike_id": "4a402d73777407313c8797036278956a", "type": "electric_scooter", "is_disabled": 0, "lat": 38.90761966666667, "rental_uris": {"ios": "https://dc.lft.to/lastmile_qr_scan", "android": "https://dc.lft.to/lastmile_qr_scan"}, "is_reserved": 0, "fusion_lon": 0.0, "fusion_lat": 0.0, "lon": -77.00100266666666, "name": "4a402d73777407313c8797036278956a"}, {"bike_id": "f772b1a9b44c392ba7759b4642f2c7c1", "type": "electric_scooter", "is_disabled": 0, "lat": 38.927468833333336, "rental_uris": {"ios": "https://dc.lft.to/lastmile_qr_scan", "android": "https://dc.lft.to/lastmile_qr_scan"}, "is_reserved": 0, "fusion_lon": 0.0, "fusion_lat": 0.0, "lon": -77.00590016666666, "name": "f772b1a9b44c392ba7759b4642f2c7c1"}, {"bike_id": "44416bfe9e00cfad285a051e1ea3ee40", "type": "electric_scooter", "is_disabled": 0, "lat": 38.90037733333333, "rental_uris": {"ios": "https://dc.lft.to/lastmile_qr_scan", "android": "https://dc.lft.to/lastmile_qr_scan"}, "is_reserved": 0, "fusion_lon": 0.0, "fusion_lat": 0.0, "lon": -77.03523933333334, "name": "44416bfe9e00cfad285a051e1ea3ee40"}, {"bike_id": "9ef8740ab5ebbd4b085b32ace3d5b959", "type": "electric_scooter", "is_disabled": 0, "lat": 38.906498, "rental_uris": {"ios": "https://dc.lft.to/lastmile_qr_scan", "android": "https://dc.lft.to/lastmile_qr_scan"}, "is_reserved": 0, "fusion_lon": 0.0, "fusion_lat": 0.0, "lon": -77.01454466666667, "name": "9ef8740ab5ebbd4b085b32ace3d5b959"}, {"bike_id": "00d6a0c5a021400db98e9cb54cffbc4e", "type": "electric_scooter", "is_disabled": 0, "lat": 38.91697583333333, "rental_uris": {"ios": "https://dc.lft.to/lastmile_qr_scan", "android": "https://dc.lft.to/lastmile_qr_scan"}, "is_reserved": 0, "fusion_lon": 0.0, "fusion_lat": 0.0, "lon": -77.03773066666666, "name": "00d6a0c5a021400db98e9cb54cffbc4e"}, {"bike_id": "097d986aa70b9b5cf318043f48886526", "type": "electric_scooter", "is_disabled": 0, "lat": 38.9068055, "rental_uris": {"ios": "https://dc.lft.to/lastmile_qr_scan", "android": "https://dc.lft.to/lastmile_qr_scan"}, "is_reserved": 0, "fusion_lon": 0.0, "fusion_lat": 0.0, "lon": -77.0718265, "name": "097d986aa70b9b5cf318043f48886526"}, {"bike_id": "a89285866cf2d4a747c9441a479a3e1f", "type": "electric_scooter", "is_disabled": 0, "lat": 38.944957333333335, "rental_uris": {"ios": "https://dc.lft.to/lastmile_qr_scan", "android": "https://dc.lft.to/lastmile_qr_scan"}, "is_reserved": 0, "fusion_lon": 0.0, "fusion_lat": 0.0, "lon": -77.02619833333334, "name": "a89285866cf2d4a747c9441a479a3e1f"}, {"bike_id": "bd8a9cdfa436a18a09ba637d23400668", "type": "electric_scooter", "is_disabled": 0, "lat": 38.924469, "rental_uris": {"ios": "https://dc.lft.to/lastmile_qr_scan", "android": "https://dc.lft.to/lastmile_qr_scan"}, "is_reserved": 0, "fusion_lon": 0.0, "fusion_lat": 0.0, "lon": -77.0298255, "name": "bd8a9cdfa436a18a09ba637d23400668"}, {"bike_id": "c404ba1c1ab0d367ba49abd9edd04919", "type": "electric_scooter", "is_disabled": 0, "lat": 38.912024333333335, "rental_uris": {"ios": "https://dc.lft.to/lastmile_qr_scan", "android": "https://dc.lft.to/lastmile_qr_scan"}, "is_reserved": 0, "fusion_lon": 0.0, "fusion_lat": 0.0, "lon": -77.03203016666667, "name": "c404ba1c1ab0d367ba49abd9edd04919"}, {"bike_id": "ab5c29cbc446bb09268ef7fc58dc10b5", "type": "electric_scooter", "is_disabled": 0, "lat": 38.90560816666667, "rental_uris": {"ios": "https://dc.lft.to/lastmile_qr_scan", "android": "https://dc.lft.to/lastmile_qr_scan"}, "is_reserved": 0, "fusion_lon": 0.0, "fusion_lat": 0.0, "lon": -76.99791166666667, "name": "ab5c29cbc446bb09268ef7fc58dc10b5"}, {"bike_id": "049e7d4f4aac06b7c44b8a20f7fef027", "type": "electric_scooter", "is_disabled": 0, "lat": 38.92484566666667, "rental_uris": {"ios": "https://dc.lft.to/lastmile_qr_scan", "android": "https://dc.lft.to/lastmile_qr_scan"}, "is_reserved": 0, "fusion_lon": 0.0, "fusion_lat": 0.0, "lon": -77.02201366666667, "name": "049e7d4f4aac06b7c44b8a20f7fef027"}, {"bike_id": "5ba3ff2555c29f562f080cff192bea06", "type": "electric_bike", "is_disabled": 0, "lat": 38.97878733333334, "rental_uris": {"ios": "https://dc.lft.to/lastmile_qr_scan", "android": "https://dc.lft.to/lastmile_qr_scan"}, "is_reserved": 0, "fusion_lon": 0.0, "fusion_lat": 0.0, "lon": -77.06028333333333, "name": "5ba3ff2555c29f562f080cff192bea06"}, {"bike_id": "9de6b8b555afebc9c46f5f033c2ae020", "type": "electric_scooter", "is_disabled": 0, "lat": 38.935360833333334, "rental_uris": {"ios": "https://dc.lft.to/lastmile_qr_scan", "android": "https://dc.lft.to/lastmile_qr_scan"}, "is_reserved": 0, "fusion_lon": 0.0, "fusion_lat": 0.0, "lon": -77.0234755, "name": "9de6b8b555afebc9c46f5f033c2ae020"}, {"bike_id": "a961e9b5e6b5fe05e81ff1d7154236cf", "type": "electric_scooter", "is_disabled": 0, "lat": 38.909439666666664, "rental_uris": {"ios": "https://dc.lft.to/lastmile_qr_scan", "android": "https://dc.lft.to/lastmile_qr_scan"}, "is_reserved": 0, "fusion_lon": 0.0, "fusion_lat": 0.0, "lon": -77.04429816666666, "name": "a961e9b5e6b5fe05e81ff1d7154236cf"}, {"bike_id": "0b1d23b06364162029c42375b153b69b", "type": "electric_scooter", "is_disabled": 0, "lat": 38.920275333333336, "rental_uris": {"ios": "https://dc.lft.to/lastmile_qr_scan", "android": "https://dc.lft.to/lastmile_qr_scan"}, "is_reserved": 0, "fusion_lon": 0.0, "fusion_lat": 0.0, "lon": -77.031252, "name": "0b1d23b06364162029c42375b153b69b"}, {"bike_id": "201c0cd10a81a6540963d1bb88313a01", "type": "electric_scooter", "is_disabled": 0, "lat": 38.9016185, "rental_uris": {"ios": "https://dc.lft.to/lastmile_qr_scan", "android": "https://dc.lft.to/lastmile_qr_scan"}, "is_reserved": 0, "fusion_lon": 0.0, "fusion_lat": 0.0, "lon": -77.05934283333333, "name": "201c0cd10a81a6540963d1bb88313a01"}, {"bike_id": "e2e96311e218e1ff2fd5b9fba1be83a2", "type": "electric_scooter", "is_disabled": 0, "lat": 38.931801, "rental_uris": {"ios": "https://dc.lft.to/lastmile_qr_scan", "android": "https://dc.lft.to/lastmile_qr_scan"}, "is_reserved": 0, "fusion_lon": 0.0, "fusion_lat": 0.0, "lon": -77.02351633333333, "name": "e2e96311e218e1ff2fd5b9fba1be83a2"}, {"bike_id": "78cf523ce9a2545fed2f60fec5d3bdbd", "type": "electric_bike", "is_disabled": 0, "lat": 38.87290733333333, "rental_uris": {"ios": "https://dc.lft.to/lastmile_qr_scan", "android": "https://dc.lft.to/lastmile_qr_scan"}, "is_reserved": 0, "fusion_lon": 0.0, "fusion_lat": 0.0, "lon": -77.1392975, "name": "78cf523ce9a2545fed2f60fec5d3bdbd"}, {"bike_id": "8e25a777125b0dec26492a7c10f51e8a", "type": "electric_scooter", "is_disabled": 0, "lat": 38.9275335, "rental_uris": {"ios": "https://dc.lft.to/lastmile_qr_scan", "android": "https://dc.lft.to/lastmile_qr_scan"}, "is_reserved": 0, "fusion_lon": 0.0, "fusion_lat": 0.0, "lon": -77.0243105, "name": "8e25a777125b0dec26492a7c10f51e8a"}, {"bike_id": "d29dddb142d377879b29692aba7de1af", "type": "electric_scooter", "is_disabled": 0, "lat": 38.93619283333334, "rental_uris": {"ios": "https://dc.lft.to/lastmile_qr_scan", "android": "https://dc.lft.to/lastmile_qr_scan"}, "is_reserved": 0, "fusion_lon": 0.0, "fusion_lat": 0.0, "lon": -77.06755583333333, "name": "d29dddb142d377879b29692aba7de1af"}, {"bike_id": "4f1db3561ee2c81960456a0fbfbf9821", "type": "electric_scooter", "is_disabled": 0, "lat": 38.9369135, "rental_uris": {"ios": "https://dc.lft.to/lastmile_qr_scan", "android": "https://dc.lft.to/lastmile_qr_scan"}, "is_reserved": 0, "fusion_lon": 0.0, "fusion_lat": 0.0, "lon": -77.0193945, "name": "4f1db3561ee2c81960456a0fbfbf9821"}, {"bike_id": "dc8b2e040308b9883b1b07ac925c28e8", "type": "electric_scooter", "is_disabled": 0, "lat": 38.915492666666665, "rental_uris": {"ios": "https://dc.lft.to/lastmile_qr_scan", "android": "https://dc.lft.to/lastmile_qr_scan"}, "is_reserved": 0, "fusion_lon": 0.0, "fusion_lat": 0.0, "lon": -77.01273883333333, "name": "dc8b2e040308b9883b1b07ac925c28e8"}, {"bike_id": "3c86a3e452d071af468af73278316060", "type": "electric_scooter", "is_disabled": 0, "lat": 38.93616316666667, "rental_uris": {"ios": "https://dc.lft.to/lastmile_qr_scan", "android": "https://dc.lft.to/lastmile_qr_scan"}, "is_reserved": 0, "fusion_lon": 0.0, "fusion_lat": 0.0, "lon": -77.03808683333334, "name": "3c86a3e452d071af468af73278316060"}, {"bike_id": "84ba4b850a169d20d6135a8ed714475f", "type": "electric_scooter", "is_disabled": 0, "lat": 38.90818216666667, "rental_uris": {"ios": "https://dc.lft.to/lastmile_qr_scan", "android": "https://dc.lft.to/lastmile_qr_scan"}, "is_reserved": 0, "fusion_lon": 0.0, "fusion_lat": 0.0, "lon": -76.99716233333334, "name": "84ba4b850a169d20d6135a8ed714475f"}, {"bike_id": "73836b4050b904374496117da104a879", "type": "electric_scooter", "is_disabled": 0, "lat": 38.91616966666667, "rental_uris": {"ios": "https://dc.lft.to/lastmile_qr_scan", "android": "https://dc.lft.to/lastmile_qr_scan"}, "is_reserved": 0, "fusion_lon": 0.0, "fusion_lat": 0.0, "lon": -77.02311016666667, "name": "73836b4050b904374496117da104a879"}, {"bike_id": "c997cbe0289a3ad82e16dc6c6d52b548", "type": "electric_scooter", "is_disabled": 0, "lat": 38.89493933333333, "rental_uris": {"ios": "https://dc.lft.to/lastmile_qr_scan", "android": "https://dc.lft.to/lastmile_qr_scan"}, "is_reserved": 0, "fusion_lon": 0.0, "fusion_lat": 0.0, "lon": -77.01085116666667, "name": "c997cbe0289a3ad82e16dc6c6d52b548"}, {"bike_id": "5417d93eb95b9be86ac5e5dda70a8134", "type": "electric_scooter", "is_disabled": 0, "lat": 38.94488283333333, "rental_uris": {"ios": "https://dc.lft.to/lastmile_qr_scan", "android": "https://dc.lft.to/lastmile_qr_scan"}, "is_reserved": 0, "fusion_lon": 0.0, "fusion_lat": 0.0, "lon": -77.06387583333333, "name": "5417d93eb95b9be86ac5e5dda70a8134"}, {"bike_id": "8da3c8b5b0d5a6bee7c3509ffd144e52", "type": "electric_scooter", "is_disabled": 0, "lat": 38.920862166666666, "rental_uris": {"ios": "https://dc.lft.to/lastmile_qr_scan", "android": "https://dc.lft.to/lastmile_qr_scan"}, "is_reserved": 0, "fusion_lon": 0.0, "fusion_lat": 0.0, "lon": -77.02369316666666, "name": "8da3c8b5b0d5a6bee7c3509ffd144e52"}, {"bike_id": "3667dfac74bc3a8394478a8b52fd63b2", "type": "electric_scooter", "is_disabled": 0, "lat": 38.90970383333333, "rental_uris": {"ios": "https://dc.lft.to/lastmile_qr_scan", "android": "https://dc.lft.to/lastmile_qr_scan"}, "is_reserved": 0, "fusion_lon": 0.0, "fusion_lat": 0.0, "lon": -77.03367933333334, "name": "3667dfac74bc3a8394478a8b52fd63b2"}, {"bike_id": "11b6e91e3cb9b006ed55be1c83323273", "type": "electric_scooter", "is_disabled": 0, "lat": 38.923248666666666, "rental_uris": {"ios": "https://dc.lft.to/lastmile_qr_scan", "android": "https://dc.lft.to/lastmile_qr_scan"}, "is_reserved": 0, "fusion_lon": 0.0, "fusion_lat": 0.0, "lon": -77.02127383333334, "name": "11b6e91e3cb9b006ed55be1c83323273"}, {"bike_id": "f43153102c0f9a2a323c736dfbd49bf1", "type": "electric_scooter", "is_disabled": 0, "lat": 38.9321325, "rental_uris": {"ios": "https://dc.lft.to/lastmile_qr_scan", "android": "https://dc.lft.to/lastmile_qr_scan"}, "is_reserved": 0, "fusion_lon": 0.0, "fusion_lat": 0.0, "lon": -77.03515266666666, "name": "f43153102c0f9a2a323c736dfbd49bf1"}, {"bike_id": "d351500bd6c00dd56fb971e3e852b94a", "type": "electric_scooter", "is_disabled": 0, "lat": 38.928993166666665, "rental_uris": {"ios": "https://dc.lft.to/lastmile_qr_scan", "android": "https://dc.lft.to/lastmile_qr_scan"}, "is_reserved": 0, "fusion_lon": 0.0, "fusion_lat": 0.0, "lon": -77.03261133333334, "name": "d351500bd6c00dd56fb971e3e852b94a"}, {"bike_id": "d46f8da632ed5b22b3d1ca9c73bf3345", "type": "electric_scooter", "is_disabled": 0, "lat": 38.898405, "rental_uris": {"ios": "https://dc.lft.to/lastmile_qr_scan", "android": "https://dc.lft.to/lastmile_qr_scan"}, "is_reserved": 0, "fusion_lon": 0.0, "fusion_lat": 0.0, "lon": -77.04081083333334, "name": "d46f8da632ed5b22b3d1ca9c73bf3345"}, {"bike_id": "5c4769f323d7be626d0f3d005019c109", "type": "electric_scooter", "is_disabled": 0, "lat": 38.887698666666665, "rental_uris": {"ios": "https://dc.lft.to/lastmile_qr_scan", "android": "https://dc.lft.to/lastmile_qr_scan"}, "is_reserved": 0, "fusion_lon": 0.0, "fusion_lat": 0.0, "lon": -76.95598916666667, "name": "5c4769f323d7be626d0f3d005019c109"}, {"bike_id": "c39a712347be9fbbc7ad6c2dedef6132", "type": "electric_scooter", "is_disabled": 0, "lat": 38.923834666666664, "rental_uris": {"ios": "https://dc.lft.to/lastmile_qr_scan", "android": "https://dc.lft.to/lastmile_qr_scan"}, "is_reserved": 0, "fusion_lon": 0.0, "fusion_lat": 0.0, "lon": -77.04085333333333, "name": "c39a712347be9fbbc7ad6c2dedef6132"}, {"bike_id": "b772d85e36671d503ee9db8dee9b760d", "type": "electric_scooter", "is_disabled": 0, "lat": 38.927180166666666, "rental_uris": {"ios": "https://dc.lft.to/lastmile_qr_scan", "android": "https://dc.lft.to/lastmile_qr_scan"}, "is_reserved": 0, "fusion_lon": 0.0, "fusion_lat": 0.0, "lon": -77.05350783333333, "name": "b772d85e36671d503ee9db8dee9b760d"}, {"bike_id": "3fc13a9eb0dbbc7fd9bebd72f56572fa", "type": "electric_scooter", "is_disabled": 0, "lat": 38.9270975, "rental_uris": {"ios": "https://dc.lft.to/lastmile_qr_scan", "android": "https://dc.lft.to/lastmile_qr_scan"}, "is_reserved": 0, "fusion_lon": 0.0, "fusion_lat": 0.0, "lon": -77.03528916666667, "name": "3fc13a9eb0dbbc7fd9bebd72f56572fa"}, {"bike_id": "93b59a310d089ec4b4c3a8ae9e630cad", "type": "electric_bike", "is_disabled": 0, "lat": 38.845287166666665, "rental_uris": {"ios": "https://dc.lft.to/lastmile_qr_scan", "android": "https://dc.lft.to/lastmile_qr_scan"}, "is_reserved": 0, "fusion_lon": 0.0, "fusion_lat": 0.0, "lon": -76.97392233333333, "name": "93b59a310d089ec4b4c3a8ae9e630cad"}, {"bike_id": "08a4c4cc5d9c2f8db01340a860a32584", "type": "electric_bike", "is_disabled": 0, "lat": 38.872784333333335, "rental_uris": {"ios": "https://dc.lft.to/lastmile_qr_scan", "android": "https://dc.lft.to/lastmile_qr_scan"}, "is_reserved": 0, "fusion_lon": 0.0, "fusion_lat": 0.0, "lon": -77.23321916666667, "name": "08a4c4cc5d9c2f8db01340a860a32584"}, {"bike_id": "fcb9082bbc06dcf984644291a8910a97", "type": "electric_scooter", "is_disabled": 0, "lat": 38.91424083333333, "rental_uris": {"ios": "https://dc.lft.to/lastmile_qr_scan", "android": "https://dc.lft.to/lastmile_qr_scan"}, "is_reserved": 0, "fusion_lon": 0.0, "fusion_lat": 0.0, "lon": -77.04817016666667, "name": "fcb9082bbc06dcf984644291a8910a97"}, {"bike_id": "f054288c7bb06cf00278cb95f1b46165", "type": "electric_scooter", "is_disabled": 0, "lat": 38.928559, "rental_uris": {"ios": "https://dc.lft.to/lastmile_qr_scan", "android": "https://dc.lft.to/lastmile_qr_scan"}, "is_reserved": 0, "fusion_lon": 0.0, "fusion_lat": 0.0, "lon": -77.01949966666666, "name": "f054288c7bb06cf00278cb95f1b46165"}, {"bike_id": "6583ad5268f2182c7e377ddbb8c1f472", "type": "electric_scooter", "is_disabled": 0, "lat": 38.9478635, "rental_uris": {"ios": "https://dc.lft.to/lastmile_qr_scan", "android": "https://dc.lft.to/lastmile_qr_scan"}, "is_reserved": 0, "fusion_lon": 0.0, "fusion_lat": 0.0, "lon": -77.02135716666666, "name": "6583ad5268f2182c7e377ddbb8c1f472"}, {"bike_id": "b29f85c8ba20215f12058c999b26351a", "type": "electric_scooter", "is_disabled": 0, "lat": 38.921511833333334, "rental_uris": {"ios": "https://dc.lft.to/lastmile_qr_scan", "android": "https://dc.lft.to/lastmile_qr_scan"}, "is_reserved": 0, "fusion_lon": 0.0, "fusion_lat": 0.0, "lon": -77.035297, "name": "b29f85c8ba20215f12058c999b26351a"}, {"bike_id": "49083724b52984dcd07377b8f44df0fc", "type": "electric_scooter", "is_disabled": 0, "lat": 38.91374366666667, "rental_uris": {"ios": "https://dc.lft.to/lastmile_qr_scan", "android": "https://dc.lft.to/lastmile_qr_scan"}, "is_reserved": 0, "fusion_lon": 0.0, "fusion_lat": 0.0, "lon": -77.07267266666666, "name": "49083724b52984dcd07377b8f44df0fc"}, {"bike_id": "2f3653ad983c29ad94bd7379bd3ba0ba", "type": "electric_bike", "is_disabled": 0, "lat": 38.880630833333335, "rental_uris": {"ios": "https://dc.lft.to/lastmile_qr_scan", "android": "https://dc.lft.to/lastmile_qr_scan"}, "is_reserved": 0, "fusion_lon": 0.0, "fusion_lat": 0.0, "lon": -76.96240116666667, "name": "2f3653ad983c29ad94bd7379bd3ba0ba"}, {"bike_id": "6759a35257b1c9bd68cfc3f07e66e99a", "type": "electric_bike", "is_disabled": 0, "lat": 38.910168, "rental_uris": {"ios": "https://dc.lft.to/lastmile_qr_scan", "android": "https://dc.lft.to/lastmile_qr_scan"}, "is_reserved": 0, "fusion_lon": 0.0, "fusion_lat": 0.0, "lon": -77.22795933333333, "name": "6759a35257b1c9bd68cfc3f07e66e99a"}, {"bike_id": "261262d32abac9358afe5c6caffa9b9d", "type": "electric_scooter", "is_disabled": 0, "lat": 38.920041833333336, "rental_uris": {"ios": "https://dc.lft.to/lastmile_qr_scan", "android": "https://dc.lft.to/lastmile_qr_scan"}, "is_reserved": 0, "fusion_lon": 0.0, "fusion_lat": 0.0, "lon": -77.04189383333333, "name": "261262d32abac9358afe5c6caffa9b9d"}, {"bike_id": "023fc571f24effed079751e448eaa3b4", "type": "electric_scooter", "is_disabled": 0, "lat": 38.86983083333333, "rental_uris": {"ios": "https://dc.lft.to/lastmile_qr_scan", "android": "https://dc.lft.to/lastmile_qr_scan"}, "is_reserved": 0, "fusion_lon": 0.0, "fusion_lat": 0.0, "lon": -76.98171166666667, "name": "023fc571f24effed079751e448eaa3b4"}, {"bike_id": "1d6b8ec10d4be3a0b58574391898c75f", "type": "electric_scooter", "is_disabled": 0, "lat": 38.93533166666667, "rental_uris": {"ios": "https://dc.lft.to/lastmile_qr_scan", "android": "https://dc.lft.to/lastmile_qr_scan"}, "is_reserved": 0, "fusion_lon": 0.0, "fusion_lat": 0.0, "lon": -77.02351683333333, "name": "1d6b8ec10d4be3a0b58574391898c75f"}, {"bike_id": "e169fb212aa39a89465ad38df4eeefea", "type": "electric_scooter", "is_disabled": 0, "lat": 38.947093, "rental_uris": {"ios": "https://dc.lft.to/lastmile_qr_scan", "android": "https://dc.lft.to/lastmile_qr_scan"}, "is_reserved": 0, "fusion_lon": 0.0, "fusion_lat": 0.0, "lon": -77.01943166666666, "name": "e169fb212aa39a89465ad38df4eeefea"}, {"bike_id": "53a9a6e8f11838a165dce113c49bb94f", "type": "electric_scooter", "is_disabled": 0, "lat": 38.882415333333334, "rental_uris": {"ios": "https://dc.lft.to/lastmile_qr_scan", "android": "https://dc.lft.to/lastmile_qr_scan"}, "is_reserved": 0, "fusion_lon": 0.0, "fusion_lat": 0.0, "lon": -76.92652083333333, "name": "53a9a6e8f11838a165dce113c49bb94f"}, {"bike_id": "7575d4fb3de1a1df9ada30ea15a92942", "type": "electric_scooter", "is_disabled": 0, "lat": 38.9283205, "rental_uris": {"ios": "https://dc.lft.to/lastmile_qr_scan", "android": "https://dc.lft.to/lastmile_qr_scan"}, "is_reserved": 0, "fusion_lon": 0.0, "fusion_lat": 0.0, "lon": -77.00599016666666, "name": "7575d4fb3de1a1df9ada30ea15a92942"}, {"bike_id": "1de18d41198e863104a1b7213b46648b", "type": "electric_scooter", "is_disabled": 0, "lat": 38.90522816666667, "rental_uris": {"ios": "https://dc.lft.to/lastmile_qr_scan", "android": "https://dc.lft.to/lastmile_qr_scan"}, "is_reserved": 0, "fusion_lon": 0.0, "fusion_lat": 0.0, "lon": -77.04181666666666, "name": "1de18d41198e863104a1b7213b46648b"}, {"bike_id": "7ad105debc3a23634d06ab57f7559059", "type": "electric_scooter", "is_disabled": 0, "lat": 38.91010283333333, "rental_uris": {"ios": "https://dc.lft.to/lastmile_qr_scan", "android": "https://dc.lft.to/lastmile_qr_scan"}, "is_reserved": 0, "fusion_lon": 0.0, "fusion_lat": 0.0, "lon": -77.044266, "name": "7ad105debc3a23634d06ab57f7559059"}, {"bike_id": "47bca10b194552129b3895f5f626c3e5", "type": "electric_scooter", "is_disabled": 0, "lat": 38.905765333333335, "rental_uris": {"ios": "https://dc.lft.to/lastmile_qr_scan", "android": "https://dc.lft.to/lastmile_qr_scan"}, "is_reserved": 0, "fusion_lon": 0.0, "fusion_lat": 0.0, "lon": -77.03854883333334, "name": "47bca10b194552129b3895f5f626c3e5"}, {"bike_id": "cb28852a494f732a6c027b64bff676d8", "type": "electric_bike", "is_disabled": 0, "lat": 38.82378883333333, "rental_uris": {"ios": "https://dc.lft.to/lastmile_qr_scan", "android": "https://dc.lft.to/lastmile_qr_scan"}, "is_reserved": 0, "fusion_lon": 0.0, "fusion_lat": 0.0, "lon": -77.00224383333334, "name": "cb28852a494f732a6c027b64bff676d8"}, {"bike_id": "f0ceaa9c86bb3898ed1be2ae29128ce1", "type": "electric_scooter", "is_disabled": 0, "lat": 38.893583166666666, "rental_uris": {"ios": "https://dc.lft.to/lastmile_qr_scan", "android": "https://dc.lft.to/lastmile_qr_scan"}, "is_reserved": 0, "fusion_lon": 0.0, "fusion_lat": 0.0, "lon": -76.9493375, "name": "f0ceaa9c86bb3898ed1be2ae29128ce1"}, {"bike_id": "db2b63ada5f545ec7e5d9b859e356b58", "type": "electric_scooter", "is_disabled": 0, "lat": 38.897878166666665, "rental_uris": {"ios": "https://dc.lft.to/lastmile_qr_scan", "android": "https://dc.lft.to/lastmile_qr_scan"}, "is_reserved": 0, "fusion_lon": 0.0, "fusion_lat": 0.0, "lon": -77.02228433333333, "name": "db2b63ada5f545ec7e5d9b859e356b58"}, {"bike_id": "c086f2251083b06cc8c74de0bdb266e4", "type": "electric_scooter", "is_disabled": 0, "lat": 38.90231333333333, "rental_uris": {"ios": "https://dc.lft.to/lastmile_qr_scan", "android": "https://dc.lft.to/lastmile_qr_scan"}, "is_reserved": 0, "fusion_lon": 0.0, "fusion_lat": 0.0, "lon": -77.04586683333333, "name": "c086f2251083b06cc8c74de0bdb266e4"}, {"bike_id": "1757f10a394d709984dd03cefb5302d0", "type": "electric_scooter", "is_disabled": 0, "lat": 38.92803166666667, "rental_uris": {"ios": "https://dc.lft.to/lastmile_qr_scan", "android": "https://dc.lft.to/lastmile_qr_scan"}, "is_reserved": 0, "fusion_lon": 0.0, "fusion_lat": 0.0, "lon": -77.03194233333333, "name": "1757f10a394d709984dd03cefb5302d0"}, {"bike_id": "8af909f58886d6eab659fcc8e4aead6e", "type": "electric_scooter", "is_disabled": 0, "lat": 38.920032666666664, "rental_uris": {"ios": "https://dc.lft.to/lastmile_qr_scan", "android": "https://dc.lft.to/lastmile_qr_scan"}, "is_reserved": 0, "fusion_lon": 0.0, "fusion_lat": 0.0, "lon": -77.04181533333333, "name": "8af909f58886d6eab659fcc8e4aead6e"}, {"bike_id": "51ee4db1fe7b3263d21267e590d3785b", "type": "electric_scooter", "is_disabled": 0, "lat": 38.90366933333333, "rental_uris": {"ios": "https://dc.lft.to/lastmile_qr_scan", "android": "https://dc.lft.to/lastmile_qr_scan"}, "is_reserved": 0, "fusion_lon": 0.0, "fusion_lat": 0.0, "lon": -76.99949016666666, "name": "51ee4db1fe7b3263d21267e590d3785b"}, {"bike_id": "4169923598c9130c57337b7ab732cec3", "type": "electric_scooter", "is_disabled": 0, "lat": 38.91565116666666, "rental_uris": {"ios": "https://dc.lft.to/lastmile_qr_scan", "android": "https://dc.lft.to/lastmile_qr_scan"}, "is_reserved": 0, "fusion_lon": 0.0, "fusion_lat": 0.0, "lon": -77.0500725, "name": "4169923598c9130c57337b7ab732cec3"}, {"bike_id": "f5ca3d08276d5dcf6632d8b2b95f766c", "type": "electric_scooter", "is_disabled": 0, "lat": 38.92359483333333, "rental_uris": {"ios": "https://dc.lft.to/lastmile_qr_scan", "android": "https://dc.lft.to/lastmile_qr_scan"}, "is_reserved": 0, "fusion_lon": 0.0, "fusion_lat": 0.0, "lon": -77.05282716666666, "name": "f5ca3d08276d5dcf6632d8b2b95f766c"}, {"bike_id": "e7800d10fabd361c125f894989247f00", "type": "electric_scooter", "is_disabled": 0, "lat": 38.91407, "rental_uris": {"ios": "https://dc.lft.to/lastmile_qr_scan", "android": "https://dc.lft.to/lastmile_qr_scan"}, "is_reserved": 0, "fusion_lon": 0.0, "fusion_lat": 0.0, "lon": -77.0317935, "name": "e7800d10fabd361c125f894989247f00"}, {"bike_id": "e117711cf12230b9efe90f5c01b07f0a", "type": "electric_scooter", "is_disabled": 0, "lat": 38.888571, "rental_uris": {"ios": "https://dc.lft.to/lastmile_qr_scan", "android": "https://dc.lft.to/lastmile_qr_scan"}, "is_reserved": 0, "fusion_lon": 0.0, "fusion_lat": 0.0, "lon": -77.00048233333334, "name": "e117711cf12230b9efe90f5c01b07f0a"}, {"bike_id": "9dd9bf521fe2927610a0636bd3fe6a09", "type": "electric_scooter", "is_disabled": 0, "lat": 38.91062083333333, "rental_uris": {"ios": "https://dc.lft.to/lastmile_qr_scan", "android": "https://dc.lft.to/lastmile_qr_scan"}, "is_reserved": 0, "fusion_lon": 0.0, "fusion_lat": 0.0, "lon": -77.04155833333333, "name": "9dd9bf521fe2927610a0636bd3fe6a09"}, {"bike_id": "0c8e0830edd6f5f0a0ae68559b1480cc", "type": "electric_scooter", "is_disabled": 0, "lat": 38.889318833333334, "rental_uris": {"ios": "https://dc.lft.to/lastmile_qr_scan", "android": "https://dc.lft.to/lastmile_qr_scan"}, "is_reserved": 0, "fusion_lon": 0.0, "fusion_lat": 0.0, "lon": -76.9357895, "name": "0c8e0830edd6f5f0a0ae68559b1480cc"}, {"bike_id": "010f363047dcb07e53277a470f11a62c", "type": "electric_scooter", "is_disabled": 0, "lat": 38.905899166666664, "rental_uris": {"ios": "https://dc.lft.to/lastmile_qr_scan", "android": "https://dc.lft.to/lastmile_qr_scan"}, "is_reserved": 0, "fusion_lon": 0.0, "fusion_lat": 0.0, "lon": -77.03479983333334, "name": "010f363047dcb07e53277a470f11a62c"}, {"bike_id": "bd7c18de0b101259760017f6ded191f5", "type": "electric_scooter", "is_disabled": 0, "lat": 38.84435933333334, "rental_uris": {"ios": "https://dc.lft.to/lastmile_qr_scan", "android": "https://dc.lft.to/lastmile_qr_scan"}, "is_reserved": 0, "fusion_lon": 0.0, "fusion_lat": 0.0, "lon": -76.9978175, "name": "bd7c18de0b101259760017f6ded191f5"}, {"bike_id": "ae35ce0196d2e4923903222b2d97a7bb", "type": "electric_scooter", "is_disabled": 0, "lat": 38.9329345, "rental_uris": {"ios": "https://dc.lft.to/lastmile_qr_scan", "android": "https://dc.lft.to/lastmile_qr_scan"}, "is_reserved": 0, "fusion_lon": 0.0, "fusion_lat": 0.0, "lon": -77.03537516666667, "name": "ae35ce0196d2e4923903222b2d97a7bb"}, {"bike_id": "8510d39bbdef71deff67229e1a5167fc", "type": "electric_bike", "is_disabled": 0, "lat": 39.0431605, "rental_uris": {"ios": "https://dc.lft.to/lastmile_qr_scan", "android": "https://dc.lft.to/lastmile_qr_scan"}, "is_reserved": 0, "fusion_lon": 0.0, "fusion_lat": 0.0, "lon": -77.05158066666667, "name": "8510d39bbdef71deff67229e1a5167fc"}, {"bike_id": "5a579a5d5b3bfe5476a8886fe7615080", "type": "electric_scooter", "is_disabled": 0, "lat": 38.87160866666667, "rental_uris": {"ios": "https://dc.lft.to/lastmile_qr_scan", "android": "https://dc.lft.to/lastmile_qr_scan"}, "is_reserved": 0, "fusion_lon": 0.0, "fusion_lat": 0.0, "lon": -77.01356533333333, "name": "5a579a5d5b3bfe5476a8886fe7615080"}, {"bike_id": "81078dd13c672e0e83ab08ae887fbff8", "type": "electric_scooter", "is_disabled": 0, "lat": 38.910722166666666, "rental_uris": {"ios": "https://dc.lft.to/lastmile_qr_scan", "android": "https://dc.lft.to/lastmile_qr_scan"}, "is_reserved": 0, "fusion_lon": 0.0, "fusion_lat": 0.0, "lon": -77.02723383333333, "name": "81078dd13c672e0e83ab08ae887fbff8"}, {"bike_id": "635582c97d9e66261731e8489d260dbf", "type": "electric_scooter", "is_disabled": 0, "lat": 38.908216, "rental_uris": {"ios": "https://dc.lft.to/lastmile_qr_scan", "android": "https://dc.lft.to/lastmile_qr_scan"}, "is_reserved": 0, "fusion_lon": 0.0, "fusion_lat": 0.0, "lon": -77.063694, "name": "635582c97d9e66261731e8489d260dbf"}, {"bike_id": "a94c054c8b732141341354fab690b2ea", "type": "electric_scooter", "is_disabled": 0, "lat": 38.9237445, "rental_uris": {"ios": "https://dc.lft.to/lastmile_qr_scan", "android": "https://dc.lft.to/lastmile_qr_scan"}, "is_reserved": 0, "fusion_lon": 0.0, "fusion_lat": 0.0, "lon": -77.04117433333333, "name": "a94c054c8b732141341354fab690b2ea"}, {"bike_id": "fc12e13bfe7a1d50346c4d8c6bda9eb8", "type": "electric_scooter", "is_disabled": 0, "lat": 38.908635833333335, "rental_uris": {"ios": "https://dc.lft.to/lastmile_qr_scan", "android": "https://dc.lft.to/lastmile_qr_scan"}, "is_reserved": 0, "fusion_lon": 0.0, "fusion_lat": 0.0, "lon": -77.04542866666667, "name": "fc12e13bfe7a1d50346c4d8c6bda9eb8"}, {"bike_id": "72e115d59ce6531f5b5eee8ea712efd8", "type": "electric_scooter", "is_disabled": 0, "lat": 38.917055833333336, "rental_uris": {"ios": "https://dc.lft.to/lastmile_qr_scan", "android": "https://dc.lft.to/lastmile_qr_scan"}, "is_reserved": 0, "fusion_lon": 0.0, "fusion_lat": 0.0, "lon": -77.01013866666666, "name": "72e115d59ce6531f5b5eee8ea712efd8"}, {"bike_id": "72e46f1c54c34e02f34c3cb57fe1ca3c", "type": "electric_scooter", "is_disabled": 0, "lat": 38.908492833333334, "rental_uris": {"ios": "https://dc.lft.to/lastmile_qr_scan", "android": "https://dc.lft.to/lastmile_qr_scan"}, "is_reserved": 0, "fusion_lon": 0.0, "fusion_lat": 0.0, "lon": -76.99792383333333, "name": "72e46f1c54c34e02f34c3cb57fe1ca3c"}, {"bike_id": "be091f1bef77680417e8fa8efdf8a63f", "type": "electric_scooter", "is_disabled": 0, "lat": 38.900516833333334, "rental_uris": {"ios": "https://dc.lft.to/lastmile_qr_scan", "android": "https://dc.lft.to/lastmile_qr_scan"}, "is_reserved": 0, "fusion_lon": 0.0, "fusion_lat": 0.0, "lon": -77.0128545, "name": "be091f1bef77680417e8fa8efdf8a63f"}, {"bike_id": "295690ba5b28434e860bd267201513bd", "type": "electric_scooter", "is_disabled": 0, "lat": 38.906267666666665, "rental_uris": {"ios": "https://dc.lft.to/lastmile_qr_scan", "android": "https://dc.lft.to/lastmile_qr_scan"}, "is_reserved": 0, "fusion_lon": 0.0, "fusion_lat": 0.0, "lon": -77.05558183333333, "name": "295690ba5b28434e860bd267201513bd"}, {"bike_id": "839218eea7ae6897c38284391aff1967", "type": "electric_scooter", "is_disabled": 0, "lat": 38.88847833333333, "rental_uris": {"ios": "https://dc.lft.to/lastmile_qr_scan", "android": "https://dc.lft.to/lastmile_qr_scan"}, "is_reserved": 0, "fusion_lon": 0.0, "fusion_lat": 0.0, "lon": -76.98916133333333, "name": "839218eea7ae6897c38284391aff1967"}, {"bike_id": "1b8bb0f58cec2fbb3b549a4a5a48468a", "type": "electric_scooter", "is_disabled": 0, "lat": 38.863751666666666, "rental_uris": {"ios": "https://dc.lft.to/lastmile_qr_scan", "android": "https://dc.lft.to/lastmile_qr_scan"}, "is_reserved": 0, "fusion_lon": 0.0, "fusion_lat": 0.0, "lon": -76.99059083333333, "name": "1b8bb0f58cec2fbb3b549a4a5a48468a"}, {"bike_id": "48b8fc66d60f948bc5013268f9f15400", "type": "electric_bike", "is_disabled": 0, "lat": 38.908312, "rental_uris": {"ios": "https://dc.lft.to/lastmile_qr_scan", "android": "https://dc.lft.to/lastmile_qr_scan"}, "is_reserved": 0, "fusion_lon": 0.0, "fusion_lat": 0.0, "lon": -76.94159066666667, "name": "48b8fc66d60f948bc5013268f9f15400"}, {"bike_id": "d3647a6ccd7be6e9b599c4f12ba5a0fc", "type": "electric_scooter", "is_disabled": 0, "lat": 38.90676966666667, "rental_uris": {"ios": "https://dc.lft.to/lastmile_qr_scan", "android": "https://dc.lft.to/lastmile_qr_scan"}, "is_reserved": 0, "fusion_lon": 0.0, "fusion_lat": 0.0, "lon": -77.01046, "name": "d3647a6ccd7be6e9b599c4f12ba5a0fc"}, {"bike_id": "3b93d5d2d6f5b4f44588e79d66e1e6e3", "type": "electric_scooter", "is_disabled": 0, "lat": 38.87940416666667, "rental_uris": {"ios": "https://dc.lft.to/lastmile_qr_scan", "android": "https://dc.lft.to/lastmile_qr_scan"}, "is_reserved": 0, "fusion_lon": 0.0, "fusion_lat": 0.0, "lon": -77.00384033333333, "name": "3b93d5d2d6f5b4f44588e79d66e1e6e3"}, {"bike_id": "0de711cbeb6e357bc642528cd37a3cb5", "type": "electric_scooter", "is_disabled": 0, "lat": 38.896911333333335, "rental_uris": {"ios": "https://dc.lft.to/lastmile_qr_scan", "android": "https://dc.lft.to/lastmile_qr_scan"}, "is_reserved": 0, "fusion_lon": 0.0, "fusion_lat": 0.0, "lon": -77.03335783333333, "name": "0de711cbeb6e357bc642528cd37a3cb5"}, {"bike_id": "f308cca63198a78cba10dfcb4ab2c4e6", "type": "electric_scooter", "is_disabled": 0, "lat": 38.90687366666667, "rental_uris": {"ios": "https://dc.lft.to/lastmile_qr_scan", "android": "https://dc.lft.to/lastmile_qr_scan"}, "is_reserved": 0, "fusion_lon": 0.0, "fusion_lat": 0.0, "lon": -77.0532565, "name": "f308cca63198a78cba10dfcb4ab2c4e6"}, {"bike_id": "ab26b1d6e17946d0518e2982cf8552a7", "type": "electric_scooter", "is_disabled": 0, "lat": 38.87394066666667, "rental_uris": {"ios": "https://dc.lft.to/lastmile_qr_scan", "android": "https://dc.lft.to/lastmile_qr_scan"}, "is_reserved": 0, "fusion_lon": 0.0, "fusion_lat": 0.0, "lon": -77.00026533333333, "name": "ab26b1d6e17946d0518e2982cf8552a7"}, {"bike_id": "74efca03e418b11d1c50f0f3e61d6e5b", "type": "electric_scooter", "is_disabled": 0, "lat": 38.91706383333333, "rental_uris": {"ios": "https://dc.lft.to/lastmile_qr_scan", "android": "https://dc.lft.to/lastmile_qr_scan"}, "is_reserved": 0, "fusion_lon": 0.0, "fusion_lat": 0.0, "lon": -77.02895766666667, "name": "74efca03e418b11d1c50f0f3e61d6e5b"}, {"bike_id": "a39a5e2df8e45196bc9c28f74e5ef2d5", "type": "electric_scooter", "is_disabled": 0, "lat": 38.91707916666667, "rental_uris": {"ios": "https://dc.lft.to/lastmile_qr_scan", "android": "https://dc.lft.to/lastmile_qr_scan"}, "is_reserved": 0, "fusion_lon": 0.0, "fusion_lat": 0.0, "lon": -77.01071433333334, "name": "a39a5e2df8e45196bc9c28f74e5ef2d5"}, {"bike_id": "307bc1c1eab25599ce7d47686ed3eaaa", "type": "electric_scooter", "is_disabled": 0, "lat": 38.9296345, "rental_uris": {"ios": "https://dc.lft.to/lastmile_qr_scan", "android": "https://dc.lft.to/lastmile_qr_scan"}, "is_reserved": 0, "fusion_lon": 0.0, "fusion_lat": 0.0, "lon": -77.02964433333334, "name": "307bc1c1eab25599ce7d47686ed3eaaa"}, {"bike_id": "4c8553c3adfeb315535f0188c0fc8b4b", "type": "electric_scooter", "is_disabled": 0, "lat": 38.91291066666667, "rental_uris": {"ios": "https://dc.lft.to/lastmile_qr_scan", "android": "https://dc.lft.to/lastmile_qr_scan"}, "is_reserved": 0, "fusion_lon": 0.0, "fusion_lat": 0.0, "lon": -77.019762, "name": "4c8553c3adfeb315535f0188c0fc8b4b"}, {"bike_id": "32c0443b3fdbf00fbcbe012b38683c8f", "type": "electric_bike", "is_disabled": 0, "lat": 38.877042, "rental_uris": {"ios": "https://dc.lft.to/lastmile_qr_scan", "android": "https://dc.lft.to/lastmile_qr_scan"}, "is_reserved": 0, "fusion_lon": 0.0, "fusion_lat": 0.0, "lon": -77.10958466666666, "name": "32c0443b3fdbf00fbcbe012b38683c8f"}, {"bike_id": "3da52574fb915ad956a5ff2850b98996", "type": "electric_scooter", "is_disabled": 0, "lat": 38.92021966666667, "rental_uris": {"ios": "https://dc.lft.to/lastmile_qr_scan", "android": "https://dc.lft.to/lastmile_qr_scan"}, "is_reserved": 0, "fusion_lon": 0.0, "fusion_lat": 0.0, "lon": -77.03137766666667, "name": "3da52574fb915ad956a5ff2850b98996"}, {"bike_id": "4568b38aef00f6018f897a249d9553ff", "type": "electric_scooter", "is_disabled": 0, "lat": 38.922707, "rental_uris": {"ios": "https://dc.lft.to/lastmile_qr_scan", "android": "https://dc.lft.to/lastmile_qr_scan"}, "is_reserved": 0, "fusion_lon": 0.0, "fusion_lat": 0.0, "lon": -77.00046, "name": "4568b38aef00f6018f897a249d9553ff"}, {"bike_id": "74f469df35a5eb47f3ecff8d44ac19a6", "type": "electric_scooter", "is_disabled": 0, "lat": 38.9419285, "rental_uris": {"ios": "https://dc.lft.to/lastmile_qr_scan", "android": "https://dc.lft.to/lastmile_qr_scan"}, "is_reserved": 0, "fusion_lon": 0.0, "fusion_lat": 0.0, "lon": -77.02888816666666, "name": "74f469df35a5eb47f3ecff8d44ac19a6"}, {"bike_id": "e215e18381fa920e3177e153de9f4269", "type": "electric_scooter", "is_disabled": 0, "lat": 38.90489766666666, "rental_uris": {"ios": "https://dc.lft.to/lastmile_qr_scan", "android": "https://dc.lft.to/lastmile_qr_scan"}, "is_reserved": 0, "fusion_lon": 0.0, "fusion_lat": 0.0, "lon": -77.04102283333333, "name": "e215e18381fa920e3177e153de9f4269"}, {"bike_id": "ad06ad388bbe615daf729bb81bee50b4", "type": "electric_bike", "is_disabled": 0, "lat": 38.861959166666665, "rental_uris": {"ios": "https://dc.lft.to/lastmile_qr_scan", "android": "https://dc.lft.to/lastmile_qr_scan"}, "is_reserved": 0, "fusion_lon": 0.0, "fusion_lat": 0.0, "lon": -76.94806566666666, "name": "ad06ad388bbe615daf729bb81bee50b4"}, {"bike_id": "b173c188090bf31554f4a82bdd88d4fc", "type": "electric_scooter", "is_disabled": 0, "lat": 38.89592583333334, "rental_uris": {"ios": "https://dc.lft.to/lastmile_qr_scan", "android": "https://dc.lft.to/lastmile_qr_scan"}, "is_reserved": 0, "fusion_lon": 0.0, "fusion_lat": 0.0, "lon": -77.00502966666667, "name": "b173c188090bf31554f4a82bdd88d4fc"}, {"bike_id": "1d7e8897ff1d4a904758b95d7b50584e", "type": "electric_scooter", "is_disabled": 0, "lat": 38.900144833333336, "rental_uris": {"ios": "https://dc.lft.to/lastmile_qr_scan", "android": "https://dc.lft.to/lastmile_qr_scan"}, "is_reserved": 0, "fusion_lon": 0.0, "fusion_lat": 0.0, "lon": -77.04504233333333, "name": "1d7e8897ff1d4a904758b95d7b50584e"}, {"bike_id": "613510c2c7ec3332c3c9bec0fbf677e4", "type": "electric_bike", "is_disabled": 0, "lat": 38.9397095, "rental_uris": {"ios": "https://dc.lft.to/lastmile_qr_scan", "android": "https://dc.lft.to/lastmile_qr_scan"}, "is_reserved": 0, "fusion_lon": 0.0, "fusion_lat": 0.0, "lon": -77.05253083333334, "name": "613510c2c7ec3332c3c9bec0fbf677e4"}, {"bike_id": "8d7fab9ac4f5e3895976622a0d77f38e", "type": "electric_scooter", "is_disabled": 0, "lat": 38.89874616666667, "rental_uris": {"ios": "https://dc.lft.to/lastmile_qr_scan", "android": "https://dc.lft.to/lastmile_qr_scan"}, "is_reserved": 0, "fusion_lon": 0.0, "fusion_lat": 0.0, "lon": -76.93186133333333, "name": "8d7fab9ac4f5e3895976622a0d77f38e"}, {"bike_id": "3ac339ebd898059819f70c2d426ed91c", "type": "electric_scooter", "is_disabled": 0, "lat": 38.92011816666667, "rental_uris": {"ios": "https://dc.lft.to/lastmile_qr_scan", "android": "https://dc.lft.to/lastmile_qr_scan"}, "is_reserved": 0, "fusion_lon": 0.0, "fusion_lat": 0.0, "lon": -77.03138, "name": "3ac339ebd898059819f70c2d426ed91c"}, {"bike_id": "a1bab7933ae4f41cafd64c4d8b6f7e0b", "type": "electric_scooter", "is_disabled": 0, "lat": 38.90518616666667, "rental_uris": {"ios": "https://dc.lft.to/lastmile_qr_scan", "android": "https://dc.lft.to/lastmile_qr_scan"}, "is_reserved": 0, "fusion_lon": 0.0, "fusion_lat": 0.0, "lon": -77.06197066666667, "name": "a1bab7933ae4f41cafd64c4d8b6f7e0b"}, {"bike_id": "c45b003e64943ae58450f61cecf841a0", "type": "electric_scooter", "is_disabled": 0, "lat": 38.9372815, "rental_uris": {"ios": "https://dc.lft.to/lastmile_qr_scan", "android": "https://dc.lft.to/lastmile_qr_scan"}, "is_reserved": 0, "fusion_lon": 0.0, "fusion_lat": 0.0, "lon": -77.03292283333333, "name": "c45b003e64943ae58450f61cecf841a0"}, {"bike_id": "28ce64345b03faec888b915539004467", "type": "electric_scooter", "is_disabled": 0, "lat": 38.93788516666667, "rental_uris": {"ios": "https://dc.lft.to/lastmile_qr_scan", "android": "https://dc.lft.to/lastmile_qr_scan"}, "is_reserved": 0, "fusion_lon": 0.0, "fusion_lat": 0.0, "lon": -77.03293533333333, "name": "28ce64345b03faec888b915539004467"}, {"bike_id": "ef563c92fdd8a49c18fad56a7373e461", "type": "electric_scooter", "is_disabled": 0, "lat": 38.93857416666667, "rental_uris": {"ios": "https://dc.lft.to/lastmile_qr_scan", "android": "https://dc.lft.to/lastmile_qr_scan"}, "is_reserved": 0, "fusion_lon": 0.0, "fusion_lat": 0.0, "lon": -77.032621, "name": "ef563c92fdd8a49c18fad56a7373e461"}, {"bike_id": "0b97673c623fbd703ea1d31a749b1d9f", "type": "electric_scooter", "is_disabled": 0, "lat": 38.8986415, "rental_uris": {"ios": "https://dc.lft.to/lastmile_qr_scan", "android": "https://dc.lft.to/lastmile_qr_scan"}, "is_reserved": 0, "fusion_lon": 0.0, "fusion_lat": 0.0, "lon": -77.01882983333333, "name": "0b97673c623fbd703ea1d31a749b1d9f"}, {"bike_id": "4362c20a406711c0eac4c40c1f2add0c", "type": "electric_scooter", "is_disabled": 0, "lat": 38.906856833333336, "rental_uris": {"ios": "https://dc.lft.to/lastmile_qr_scan", "android": "https://dc.lft.to/lastmile_qr_scan"}, "is_reserved": 0, "fusion_lon": 0.0, "fusion_lat": 0.0, "lon": -77.02695116666666, "name": "4362c20a406711c0eac4c40c1f2add0c"}, {"bike_id": "b389877192bed584473c5f295c76ea3f", "type": "electric_scooter", "is_disabled": 0, "lat": 38.89227483333333, "rental_uris": {"ios": "https://dc.lft.to/lastmile_qr_scan", "android": "https://dc.lft.to/lastmile_qr_scan"}, "is_reserved": 0, "fusion_lon": 0.0, "fusion_lat": 0.0, "lon": -77.05002966666666, "name": "b389877192bed584473c5f295c76ea3f"}, {"bike_id": "329f573e0ce34dfd5d157ccdd6601e5c", "type": "electric_scooter", "is_disabled": 0, "lat": 38.952355, "rental_uris": {"ios": "https://dc.lft.to/lastmile_qr_scan", "android": "https://dc.lft.to/lastmile_qr_scan"}, "is_reserved": 0, "fusion_lon": 0.0, "fusion_lat": 0.0, "lon": -77.009536, "name": "329f573e0ce34dfd5d157ccdd6601e5c"}, {"bike_id": "5bb049ec4d469a198add49c5cf66b252", "type": "electric_scooter", "is_disabled": 0, "lat": 38.902722, "rental_uris": {"ios": "https://dc.lft.to/lastmile_qr_scan", "android": "https://dc.lft.to/lastmile_qr_scan"}, "is_reserved": 0, "fusion_lon": 0.0, "fusion_lat": 0.0, "lon": -77.05905533333333, "name": "5bb049ec4d469a198add49c5cf66b252"}, {"bike_id": "79fe1f7c59c8c38931e656b7268fb6f8", "type": "electric_scooter", "is_disabled": 0, "lat": 38.8766125, "rental_uris": {"ios": "https://dc.lft.to/lastmile_qr_scan", "android": "https://dc.lft.to/lastmile_qr_scan"}, "is_reserved": 0, "fusion_lon": 0.0, "fusion_lat": 0.0, "lon": -76.99642, "name": "79fe1f7c59c8c38931e656b7268fb6f8"}, {"bike_id": "57201650d7cf673d06d232f07e4102fc", "type": "electric_scooter", "is_disabled": 0, "lat": 38.919632666666665, "rental_uris": {"ios": "https://dc.lft.to/lastmile_qr_scan", "android": "https://dc.lft.to/lastmile_qr_scan"}, "is_reserved": 0, "fusion_lon": 0.0, "fusion_lat": 0.0, "lon": -77.04235966666667, "name": "57201650d7cf673d06d232f07e4102fc"}, {"bike_id": "695f4c68240df8b3403445b9f4e2fe0a", "type": "electric_scooter", "is_disabled": 0, "lat": 38.920989166666665, "rental_uris": {"ios": "https://dc.lft.to/lastmile_qr_scan", "android": "https://dc.lft.to/lastmile_qr_scan"}, "is_reserved": 0, "fusion_lon": 0.0, "fusion_lat": 0.0, "lon": -77.01675716666666, "name": "695f4c68240df8b3403445b9f4e2fe0a"}, {"bike_id": "03fc389458ae54d3d37b3e2c27f4e0f1", "type": "electric_scooter", "is_disabled": 0, "lat": 38.899844, "rental_uris": {"ios": "https://dc.lft.to/lastmile_qr_scan", "android": "https://dc.lft.to/lastmile_qr_scan"}, "is_reserved": 0, "fusion_lon": 0.0, "fusion_lat": 0.0, "lon": -77.021001, "name": "03fc389458ae54d3d37b3e2c27f4e0f1"}, {"bike_id": "e8d392c284bfdab9e4ae35af21aa9029", "type": "electric_scooter", "is_disabled": 0, "lat": 38.9223185, "rental_uris": {"ios": "https://dc.lft.to/lastmile_qr_scan", "android": "https://dc.lft.to/lastmile_qr_scan"}, "is_reserved": 0, "fusion_lon": 0.0, "fusion_lat": 0.0, "lon": -76.97532466666667, "name": "e8d392c284bfdab9e4ae35af21aa9029"}, {"bike_id": "f87f0d70032533e6e092c8725f9fe6a3", "type": "electric_bike", "is_disabled": 0, "lat": 39.0510715, "rental_uris": {"ios": "https://dc.lft.to/lastmile_qr_scan", "android": "https://dc.lft.to/lastmile_qr_scan"}, "is_reserved": 0, "fusion_lon": 0.0, "fusion_lat": 0.0, "lon": -77.11740333333333, "name": "f87f0d70032533e6e092c8725f9fe6a3"}, {"bike_id": "81aa3e40d17d3c095fcb22967df91332", "type": "electric_scooter", "is_disabled": 0, "lat": 38.93319416666667, "rental_uris": {"ios": "https://dc.lft.to/lastmile_qr_scan", "android": "https://dc.lft.to/lastmile_qr_scan"}, "is_reserved": 0, "fusion_lon": 0.0, "fusion_lat": 0.0, "lon": -77.02747483333333, "name": "81aa3e40d17d3c095fcb22967df91332"}, {"bike_id": "d1e41aa3719a7a5fd0f9714b5b4091d2", "type": "electric_scooter", "is_disabled": 0, "lat": 38.880124, "rental_uris": {"ios": "https://dc.lft.to/lastmile_qr_scan", "android": "https://dc.lft.to/lastmile_qr_scan"}, "is_reserved": 0, "fusion_lon": 0.0, "fusion_lat": 0.0, "lon": -76.99612733333333, "name": "d1e41aa3719a7a5fd0f9714b5b4091d2"}, {"bike_id": "ad97dceaf14a9c0bf29b864b81e689e0", "type": "electric_scooter", "is_disabled": 0, "lat": 38.90282233333333, "rental_uris": {"ios": "https://dc.lft.to/lastmile_qr_scan", "android": "https://dc.lft.to/lastmile_qr_scan"}, "is_reserved": 0, "fusion_lon": 0.0, "fusion_lat": 0.0, "lon": -77.01896033333334, "name": "ad97dceaf14a9c0bf29b864b81e689e0"}, {"bike_id": "07feea7de8a3beddd3d9e3006023875e", "type": "electric_scooter", "is_disabled": 0, "lat": 38.903094833333334, "rental_uris": {"ios": "https://dc.lft.to/lastmile_qr_scan", "android": "https://dc.lft.to/lastmile_qr_scan"}, "is_reserved": 0, "fusion_lon": 0.0, "fusion_lat": 0.0, "lon": -77.02364933333334, "name": "07feea7de8a3beddd3d9e3006023875e"}, {"bike_id": "4e6a16bcb0d119c9c3428a12fd31fa52", "type": "electric_scooter", "is_disabled": 0, "lat": 38.90244333333333, "rental_uris": {"ios": "https://dc.lft.to/lastmile_qr_scan", "android": "https://dc.lft.to/lastmile_qr_scan"}, "is_reserved": 0, "fusion_lon": 0.0, "fusion_lat": 0.0, "lon": -77.05392933333333, "name": "4e6a16bcb0d119c9c3428a12fd31fa52"}, {"bike_id": "b7b6e26160a25b8a2708a427446cbb08", "type": "electric_scooter", "is_disabled": 0, "lat": 38.90217916666667, "rental_uris": {"ios": "https://dc.lft.to/lastmile_qr_scan", "android": "https://dc.lft.to/lastmile_qr_scan"}, "is_reserved": 0, "fusion_lon": 0.0, "fusion_lat": 0.0, "lon": -77.05136233333333, "name": "b7b6e26160a25b8a2708a427446cbb08"}, {"bike_id": "778f3b05db8ed8eaaaf492b66fe7d4d9", "type": "electric_scooter", "is_disabled": 0, "lat": 38.9084655, "rental_uris": {"ios": "https://dc.lft.to/lastmile_qr_scan", "android": "https://dc.lft.to/lastmile_qr_scan"}, "is_reserved": 0, "fusion_lon": 0.0, "fusion_lat": 0.0, "lon": -76.99956183333333, "name": "778f3b05db8ed8eaaaf492b66fe7d4d9"}, {"bike_id": "320757c35e51a1bb1f6b27738713456e", "type": "electric_scooter", "is_disabled": 0, "lat": 38.917638, "rental_uris": {"ios": "https://dc.lft.to/lastmile_qr_scan", "android": "https://dc.lft.to/lastmile_qr_scan"}, "is_reserved": 0, "fusion_lon": 0.0, "fusion_lat": 0.0, "lon": -77.04767116666666, "name": "320757c35e51a1bb1f6b27738713456e"}, {"bike_id": "283c20eed81425a9bac9eb46ca0b844e", "type": "electric_bike", "is_disabled": 0, "lat": 38.8626535, "rental_uris": {"ios": "https://dc.lft.to/lastmile_qr_scan", "android": "https://dc.lft.to/lastmile_qr_scan"}, "is_reserved": 0, "fusion_lon": 0.0, "fusion_lat": 0.0, "lon": -76.9834745, "name": "283c20eed81425a9bac9eb46ca0b844e"}, {"bike_id": "00f70d29be087cc3f2485b86d164e058", "type": "electric_scooter", "is_disabled": 0, "lat": 38.896192666666664, "rental_uris": {"ios": "https://dc.lft.to/lastmile_qr_scan", "android": "https://dc.lft.to/lastmile_qr_scan"}, "is_reserved": 0, "fusion_lon": 0.0, "fusion_lat": 0.0, "lon": -76.98164433333334, "name": "00f70d29be087cc3f2485b86d164e058"}, {"bike_id": "f9735ff74ed23f68d1cf9cf486cb6f7e", "type": "electric_scooter", "is_disabled": 0, "lat": 38.913524333333335, "rental_uris": {"ios": "https://dc.lft.to/lastmile_qr_scan", "android": "https://dc.lft.to/lastmile_qr_scan"}, "is_reserved": 0, "fusion_lon": 0.0, "fusion_lat": 0.0, "lon": -77.02571216666666, "name": "f9735ff74ed23f68d1cf9cf486cb6f7e"}, {"bike_id": "472e5def0b384e23d8bfe484e2fe5686", "type": "electric_scooter", "is_disabled": 0, "lat": 38.91476516666667, "rental_uris": {"ios": "https://dc.lft.to/lastmile_qr_scan", "android": "https://dc.lft.to/lastmile_qr_scan"}, "is_reserved": 0, "fusion_lon": 0.0, "fusion_lat": 0.0, "lon": -77.04548483333333, "name": "472e5def0b384e23d8bfe484e2fe5686"}, {"bike_id": "db4440afb9dcf264e7130a9fb6cba183", "type": "electric_scooter", "is_disabled": 0, "lat": 38.915673166666664, "rental_uris": {"ios": "https://dc.lft.to/lastmile_qr_scan", "android": "https://dc.lft.to/lastmile_qr_scan"}, "is_reserved": 0, "fusion_lon": 0.0, "fusion_lat": 0.0, "lon": -77.02080533333333, "name": "db4440afb9dcf264e7130a9fb6cba183"}, {"bike_id": "3eb6c174fe7f9b2cffdcc6b175f9bef1", "type": "electric_scooter", "is_disabled": 0, "lat": 38.915724833333336, "rental_uris": {"ios": "https://dc.lft.to/lastmile_qr_scan", "android": "https://dc.lft.to/lastmile_qr_scan"}, "is_reserved": 0, "fusion_lon": 0.0, "fusion_lat": 0.0, "lon": -77.01999533333333, "name": "3eb6c174fe7f9b2cffdcc6b175f9bef1"}, {"bike_id": "24803c4bd8ffad2c03e145a82da920e3", "type": "electric_scooter", "is_disabled": 0, "lat": 38.914034, "rental_uris": {"ios": "https://dc.lft.to/lastmile_qr_scan", "android": "https://dc.lft.to/lastmile_qr_scan"}, "is_reserved": 0, "fusion_lon": 0.0, "fusion_lat": 0.0, "lon": -76.98192, "name": "24803c4bd8ffad2c03e145a82da920e3"}, {"bike_id": "9598d037abc8d666da05e4a2e9f8a6b5", "type": "electric_scooter", "is_disabled": 0, "lat": 38.896737333333334, "rental_uris": {"ios": "https://dc.lft.to/lastmile_qr_scan", "android": "https://dc.lft.to/lastmile_qr_scan"}, "is_reserved": 0, "fusion_lon": 0.0, "fusion_lat": 0.0, "lon": -77.026239, "name": "9598d037abc8d666da05e4a2e9f8a6b5"}, {"bike_id": "91fe100b7f41ec3f62c532a81bb21a7b", "type": "electric_scooter", "is_disabled": 0, "lat": 38.911669, "rental_uris": {"ios": "https://dc.lft.to/lastmile_qr_scan", "android": "https://dc.lft.to/lastmile_qr_scan"}, "is_reserved": 0, "fusion_lon": 0.0, "fusion_lat": 0.0, "lon": -77.06866616666667, "name": "91fe100b7f41ec3f62c532a81bb21a7b"}, {"bike_id": "3e2df4bb2082d55e05278b0b00146793", "type": "electric_scooter", "is_disabled": 0, "lat": 38.9168285, "rental_uris": {"ios": "https://dc.lft.to/lastmile_qr_scan", "android": "https://dc.lft.to/lastmile_qr_scan"}, "is_reserved": 0, "fusion_lon": 0.0, "fusion_lat": 0.0, "lon": -77.02973983333334, "name": "3e2df4bb2082d55e05278b0b00146793"}, {"bike_id": "541e945acd14ff2ee57e79d55b9c087b", "type": "electric_scooter", "is_disabled": 0, "lat": 38.91928933333333, "rental_uris": {"ios": "https://dc.lft.to/lastmile_qr_scan", "android": "https://dc.lft.to/lastmile_qr_scan"}, "is_reserved": 0, "fusion_lon": 0.0, "fusion_lat": 0.0, "lon": -77.04154716666666, "name": "541e945acd14ff2ee57e79d55b9c087b"}, {"bike_id": "5ed76193790a174dc571fa34581e5f17", "type": "electric_scooter", "is_disabled": 0, "lat": 38.917327, "rental_uris": {"ios": "https://dc.lft.to/lastmile_qr_scan", "android": "https://dc.lft.to/lastmile_qr_scan"}, "is_reserved": 0, "fusion_lon": 0.0, "fusion_lat": 0.0, "lon": -77.01902983333333, "name": "5ed76193790a174dc571fa34581e5f17"}, {"bike_id": "ca38ee5f6d6979e2d4e86f647b0cc671", "type": "electric_scooter", "is_disabled": 0, "lat": 38.900166, "rental_uris": {"ios": "https://dc.lft.to/lastmile_qr_scan", "android": "https://dc.lft.to/lastmile_qr_scan"}, "is_reserved": 0, "fusion_lon": 0.0, "fusion_lat": 0.0, "lon": -76.99608933333333, "name": "ca38ee5f6d6979e2d4e86f647b0cc671"}, {"bike_id": "65cd4e6a40efe8e8d4c90d06a5b90d74", "type": "electric_bike", "is_disabled": 0, "lat": 38.8552605, "rental_uris": {"ios": "https://dc.lft.to/lastmile_qr_scan", "android": "https://dc.lft.to/lastmile_qr_scan"}, "is_reserved": 0, "fusion_lon": 0.0, "fusion_lat": 0.0, "lon": -77.11986916666666, "name": "65cd4e6a40efe8e8d4c90d06a5b90d74"}, {"bike_id": "ee7e36bb857f6893e5f4e8bb3ca643f0", "type": "electric_scooter", "is_disabled": 0, "lat": 38.923677833333336, "rental_uris": {"ios": "https://dc.lft.to/lastmile_qr_scan", "android": "https://dc.lft.to/lastmile_qr_scan"}, "is_reserved": 0, "fusion_lon": 0.0, "fusion_lat": 0.0, "lon": -77.04135533333333, "name": "ee7e36bb857f6893e5f4e8bb3ca643f0"}, {"bike_id": "48d2a8827c9999b3aeffd9be39e96b5d", "type": "electric_scooter", "is_disabled": 0, "lat": 38.92068066666667, "rental_uris": {"ios": "https://dc.lft.to/lastmile_qr_scan", "android": "https://dc.lft.to/lastmile_qr_scan"}, "is_reserved": 0, "fusion_lon": 0.0, "fusion_lat": 0.0, "lon": -77.03186633333334, "name": "48d2a8827c9999b3aeffd9be39e96b5d"}, {"bike_id": "5d9c29d6ff2fdf4e855fa6eb454a9771", "type": "electric_scooter", "is_disabled": 0, "lat": 38.923431666666666, "rental_uris": {"ios": "https://dc.lft.to/lastmile_qr_scan", "android": "https://dc.lft.to/lastmile_qr_scan"}, "is_reserved": 0, "fusion_lon": 0.0, "fusion_lat": 0.0, "lon": -77.0417155, "name": "5d9c29d6ff2fdf4e855fa6eb454a9771"}, {"bike_id": "0c9a5ad95b1c46966b80c959f934e60e", "type": "electric_bike", "is_disabled": 0, "lat": 38.96319866666666, "rental_uris": {"ios": "https://dc.lft.to/lastmile_qr_scan", "android": "https://dc.lft.to/lastmile_qr_scan"}, "is_reserved": 0, "fusion_lon": 0.0, "fusion_lat": 0.0, "lon": -76.97359133333333, "name": "0c9a5ad95b1c46966b80c959f934e60e"}, {"bike_id": "0cf05c7d9271501e8505b3a9b8d0e8e0", "type": "electric_scooter", "is_disabled": 0, "lat": 38.924686666666666, "rental_uris": {"ios": "https://dc.lft.to/lastmile_qr_scan", "android": "https://dc.lft.to/lastmile_qr_scan"}, "is_reserved": 0, "fusion_lon": 0.0, "fusion_lat": 0.0, "lon": -77.02242683333333, "name": "0cf05c7d9271501e8505b3a9b8d0e8e0"}, {"bike_id": "924b264a4d73ab0b0e9c784f51b857e9", "type": "electric_scooter", "is_disabled": 0, "lat": 38.9155365, "rental_uris": {"ios": "https://dc.lft.to/lastmile_qr_scan", "android": "https://dc.lft.to/lastmile_qr_scan"}, "is_reserved": 0, "fusion_lon": 0.0, "fusion_lat": 0.0, "lon": -77.0123555, "name": "924b264a4d73ab0b0e9c784f51b857e9"}, {"bike_id": "90004056c8fa8c5f136478c088944aed", "type": "electric_scooter", "is_disabled": 0, "lat": 38.9238345, "rental_uris": {"ios": "https://dc.lft.to/lastmile_qr_scan", "android": "https://dc.lft.to/lastmile_qr_scan"}, "is_reserved": 0, "fusion_lon": 0.0, "fusion_lat": 0.0, "lon": -77.031298, "name": "90004056c8fa8c5f136478c088944aed"}, {"bike_id": "a1bae7a7b578975e40866b773a290ded", "type": "electric_bike", "is_disabled": 0, "lat": 38.95232516666667, "rental_uris": {"ios": "https://dc.lft.to/lastmile_qr_scan", "android": "https://dc.lft.to/lastmile_qr_scan"}, "is_reserved": 0, "fusion_lon": 0.0, "fusion_lat": 0.0, "lon": -76.97010883333333, "name": "a1bae7a7b578975e40866b773a290ded"}, {"bike_id": "b0715eb37c475438c3742ef8b9aacda6", "type": "electric_scooter", "is_disabled": 0, "lat": 38.90962783333333, "rental_uris": {"ios": "https://dc.lft.to/lastmile_qr_scan", "android": "https://dc.lft.to/lastmile_qr_scan"}, "is_reserved": 0, "fusion_lon": 0.0, "fusion_lat": 0.0, "lon": -77.022052, "name": "b0715eb37c475438c3742ef8b9aacda6"}, {"bike_id": "6d0bad2d66da13ce086a714388e2e626", "type": "electric_bike", "is_disabled": 0, "lat": 38.963099, "rental_uris": {"ios": "https://dc.lft.to/lastmile_qr_scan", "android": "https://dc.lft.to/lastmile_qr_scan"}, "is_reserved": 0, "fusion_lon": 0.0, "fusion_lat": 0.0, "lon": -77.01112066666667, "name": "6d0bad2d66da13ce086a714388e2e626"}, {"bike_id": "ef5746c2b47879f7f127e20b43762270", "type": "electric_scooter", "is_disabled": 0, "lat": 38.90071183333333, "rental_uris": {"ios": "https://dc.lft.to/lastmile_qr_scan", "android": "https://dc.lft.to/lastmile_qr_scan"}, "is_reserved": 0, "fusion_lon": 0.0, "fusion_lat": 0.0, "lon": -77.0513505, "name": "ef5746c2b47879f7f127e20b43762270"}, {"bike_id": "35848e7ff145d15919602ec2be7f5471", "type": "electric_scooter", "is_disabled": 0, "lat": 38.866635, "rental_uris": {"ios": "https://dc.lft.to/lastmile_qr_scan", "android": "https://dc.lft.to/lastmile_qr_scan"}, "is_reserved": 0, "fusion_lon": 0.0, "fusion_lat": 0.0, "lon": -76.98516133333334, "name": "35848e7ff145d15919602ec2be7f5471"}, {"bike_id": "60ecdc2995d8cc61182830660256681a", "type": "electric_scooter", "is_disabled": 0, "lat": 38.87423533333333, "rental_uris": {"ios": "https://dc.lft.to/lastmile_qr_scan", "android": "https://dc.lft.to/lastmile_qr_scan"}, "is_reserved": 0, "fusion_lon": 0.0, "fusion_lat": 0.0, "lon": -76.96912033333334, "name": "60ecdc2995d8cc61182830660256681a"}, {"bike_id": "c11646631a84fc0888b60c15ed384911", "type": "electric_scooter", "is_disabled": 0, "lat": 38.89926416666667, "rental_uris": {"ios": "https://dc.lft.to/lastmile_qr_scan", "android": "https://dc.lft.to/lastmile_qr_scan"}, "is_reserved": 0, "fusion_lon": 0.0, "fusion_lat": 0.0, "lon": -77.05367033333333, "name": "c11646631a84fc0888b60c15ed384911"}, {"bike_id": "bee0f5004c275c0484984783387716a0", "type": "electric_scooter", "is_disabled": 0, "lat": 38.8971555, "rental_uris": {"ios": "https://dc.lft.to/lastmile_qr_scan", "android": "https://dc.lft.to/lastmile_qr_scan"}, "is_reserved": 0, "fusion_lon": 0.0, "fusion_lat": 0.0, "lon": -77.00854533333333, "name": "bee0f5004c275c0484984783387716a0"}, {"bike_id": "ca201acf6cf513b9efa8d5e27ba3320f", "type": "electric_scooter", "is_disabled": 0, "lat": 38.910395, "rental_uris": {"ios": "https://dc.lft.to/lastmile_qr_scan", "android": "https://dc.lft.to/lastmile_qr_scan"}, "is_reserved": 0, "fusion_lon": 0.0, "fusion_lat": 0.0, "lon": -77.03800166666667, "name": "ca201acf6cf513b9efa8d5e27ba3320f"}, {"bike_id": "d07a682e56f449513ea893632433aa94", "type": "electric_scooter", "is_disabled": 0, "lat": 38.93542933333333, "rental_uris": {"ios": "https://dc.lft.to/lastmile_qr_scan", "android": "https://dc.lft.to/lastmile_qr_scan"}, "is_reserved": 0, "fusion_lon": 0.0, "fusion_lat": 0.0, "lon": -77.0582145, "name": "d07a682e56f449513ea893632433aa94"}, {"bike_id": "21f58053bc4a7883112ef38872327a94", "type": "electric_scooter", "is_disabled": 0, "lat": 38.90254916666667, "rental_uris": {"ios": "https://dc.lft.to/lastmile_qr_scan", "android": "https://dc.lft.to/lastmile_qr_scan"}, "is_reserved": 0, "fusion_lon": 0.0, "fusion_lat": 0.0, "lon": -77.01823183333333, "name": "21f58053bc4a7883112ef38872327a94"}, {"bike_id": "6dd842ae66b1647a5434cf9ef29c1d1f", "type": "electric_scooter", "is_disabled": 0, "lat": 38.9025145, "rental_uris": {"ios": "https://dc.lft.to/lastmile_qr_scan", "android": "https://dc.lft.to/lastmile_qr_scan"}, "is_reserved": 0, "fusion_lon": 0.0, "fusion_lat": 0.0, "lon": -77.03457916666666, "name": "6dd842ae66b1647a5434cf9ef29c1d1f"}, {"bike_id": "e0527e2d45cbb9e8455e03218f18f6f1", "type": "electric_scooter", "is_disabled": 0, "lat": 38.899397666666665, "rental_uris": {"ios": "https://dc.lft.to/lastmile_qr_scan", "android": "https://dc.lft.to/lastmile_qr_scan"}, "is_reserved": 0, "fusion_lon": 0.0, "fusion_lat": 0.0, "lon": -77.04766566666666, "name": "e0527e2d45cbb9e8455e03218f18f6f1"}, {"bike_id": "9da9a12ffe9c064df9b69598a793dc2a", "type": "electric_bike", "is_disabled": 0, "lat": 38.894335166666664, "rental_uris": {"ios": "https://dc.lft.to/lastmile_qr_scan", "android": "https://dc.lft.to/lastmile_qr_scan"}, "is_reserved": 0, "fusion_lon": 0.0, "fusion_lat": 0.0, "lon": -77.1884465, "name": "9da9a12ffe9c064df9b69598a793dc2a"}, {"bike_id": "b8edd595f22a630802f7b1a07d90c1cd", "type": "electric_scooter", "is_disabled": 0, "lat": 38.900766833333336, "rental_uris": {"ios": "https://dc.lft.to/lastmile_qr_scan", "android": "https://dc.lft.to/lastmile_qr_scan"}, "is_reserved": 0, "fusion_lon": 0.0, "fusion_lat": 0.0, "lon": -77.030911, "name": "b8edd595f22a630802f7b1a07d90c1cd"}, {"bike_id": "d5279373f11cf5ffeece766bd5a89abf", "type": "electric_scooter", "is_disabled": 0, "lat": 38.891117, "rental_uris": {"ios": "https://dc.lft.to/lastmile_qr_scan", "android": "https://dc.lft.to/lastmile_qr_scan"}, "is_reserved": 0, "fusion_lon": 0.0, "fusion_lat": 0.0, "lon": -77.0150515, "name": "d5279373f11cf5ffeece766bd5a89abf"}, {"bike_id": "34556f945f4dbbc5536ee8ac8a16853e", "type": "electric_scooter", "is_disabled": 0, "lat": 38.914017, "rental_uris": {"ios": "https://dc.lft.to/lastmile_qr_scan", "android": "https://dc.lft.to/lastmile_qr_scan"}, "is_reserved": 0, "fusion_lon": 0.0, "fusion_lat": 0.0, "lon": -77.03144283333333, "name": "34556f945f4dbbc5536ee8ac8a16853e"}, {"bike_id": "eb63f234c472c6ada733609c2ffbb108", "type": "electric_scooter", "is_disabled": 0, "lat": 38.9126545, "rental_uris": {"ios": "https://dc.lft.to/lastmile_qr_scan", "android": "https://dc.lft.to/lastmile_qr_scan"}, "is_reserved": 0, "fusion_lon": 0.0, "fusion_lat": 0.0, "lon": -77.03857216666667, "name": "eb63f234c472c6ada733609c2ffbb108"}, {"bike_id": "0e2b0758f90801cf7753a28a63d87271", "type": "electric_bike", "is_disabled": 0, "lat": 38.836684, "rental_uris": {"ios": "https://dc.lft.to/lastmile_qr_scan", "android": "https://dc.lft.to/lastmile_qr_scan"}, "is_reserved": 0, "fusion_lon": 0.0, "fusion_lat": 0.0, "lon": -76.99361683333333, "name": "0e2b0758f90801cf7753a28a63d87271"}, {"bike_id": "1ea1010aad037fcdc1d87e1d86492a7f", "type": "electric_scooter", "is_disabled": 0, "lat": 38.92746133333333, "rental_uris": {"ios": "https://dc.lft.to/lastmile_qr_scan", "android": "https://dc.lft.to/lastmile_qr_scan"}, "is_reserved": 0, "fusion_lon": 0.0, "fusion_lat": 0.0, "lon": -77.033882, "name": "1ea1010aad037fcdc1d87e1d86492a7f"}, {"bike_id": "ac29f2d2d49c78ec78aece832794fba1", "type": "electric_scooter", "is_disabled": 0, "lat": 38.90590233333333, "rental_uris": {"ios": "https://dc.lft.to/lastmile_qr_scan", "android": "https://dc.lft.to/lastmile_qr_scan"}, "is_reserved": 0, "fusion_lon": 0.0, "fusion_lat": 0.0, "lon": -77.0700755, "name": "ac29f2d2d49c78ec78aece832794fba1"}, {"bike_id": "b189d03dbb43df6bb2af8679442d2baa", "type": "electric_scooter", "is_disabled": 0, "lat": 38.964178833333335, "rental_uris": {"ios": "https://dc.lft.to/lastmile_qr_scan", "android": "https://dc.lft.to/lastmile_qr_scan"}, "is_reserved": 0, "fusion_lon": 0.0, "fusion_lat": 0.0, "lon": -77.02425483333333, "name": "b189d03dbb43df6bb2af8679442d2baa"}, {"bike_id": "9cfce4492e0ba0e1a7e3f60f33b5ecb6", "type": "electric_scooter", "is_disabled": 0, "lat": 38.91824033333333, "rental_uris": {"ios": "https://dc.lft.to/lastmile_qr_scan", "android": "https://dc.lft.to/lastmile_qr_scan"}, "is_reserved": 0, "fusion_lon": 0.0, "fusion_lat": 0.0, "lon": -77.0494475, "name": "9cfce4492e0ba0e1a7e3f60f33b5ecb6"}, {"bike_id": "a7840f66b7e4555a4116b516b8a2d3e0", "type": "electric_scooter", "is_disabled": 0, "lat": 38.92216716666667, "rental_uris": {"ios": "https://dc.lft.to/lastmile_qr_scan", "android": "https://dc.lft.to/lastmile_qr_scan"}, "is_reserved": 0, "fusion_lon": 0.0, "fusion_lat": 0.0, "lon": -77.032881, "name": "a7840f66b7e4555a4116b516b8a2d3e0"}, {"bike_id": "78d60857fabd44d134d782686decabdd", "type": "electric_scooter", "is_disabled": 0, "lat": 38.90580516666667, "rental_uris": {"ios": "https://dc.lft.to/lastmile_qr_scan", "android": "https://dc.lft.to/lastmile_qr_scan"}, "is_reserved": 0, "fusion_lon": 0.0, "fusion_lat": 0.0, "lon": -77.03842866666666, "name": "78d60857fabd44d134d782686decabdd"}, {"bike_id": "3d7b13e45b48e9d660e0ee7e09503903", "type": "electric_scooter", "is_disabled": 0, "lat": 38.9191915, "rental_uris": {"ios": "https://dc.lft.to/lastmile_qr_scan", "android": "https://dc.lft.to/lastmile_qr_scan"}, "is_reserved": 0, "fusion_lon": 0.0, "fusion_lat": 0.0, "lon": -77.03367466666667, "name": "3d7b13e45b48e9d660e0ee7e09503903"}, {"bike_id": "ca14d2781e629e9f95d45c1a33c80e8a", "type": "electric_scooter", "is_disabled": 0, "lat": 38.902083833333336, "rental_uris": {"ios": "https://dc.lft.to/lastmile_qr_scan", "android": "https://dc.lft.to/lastmile_qr_scan"}, "is_reserved": 0, "fusion_lon": 0.0, "fusion_lat": 0.0, "lon": -76.992695, "name": "ca14d2781e629e9f95d45c1a33c80e8a"}, {"bike_id": "806ab9ac97b85ea4e52502045ac9f36d", "type": "electric_scooter", "is_disabled": 0, "lat": 38.91045616666667, "rental_uris": {"ios": "https://dc.lft.to/lastmile_qr_scan", "android": "https://dc.lft.to/lastmile_qr_scan"}, "is_reserved": 0, "fusion_lon": 0.0, "fusion_lat": 0.0, "lon": -77.04363983333333, "name": "806ab9ac97b85ea4e52502045ac9f36d"}, {"bike_id": "bed1664427f37e1b4f3f849e4454ff81", "type": "electric_scooter", "is_disabled": 0, "lat": 38.9140375, "rental_uris": {"ios": "https://dc.lft.to/lastmile_qr_scan", "android": "https://dc.lft.to/lastmile_qr_scan"}, "is_reserved": 0, "fusion_lon": 0.0, "fusion_lat": 0.0, "lon": -77.03179416666667, "name": "bed1664427f37e1b4f3f849e4454ff81"}, {"bike_id": "55d199496b4b017171c15db3be3af5b4", "type": "electric_scooter", "is_disabled": 0, "lat": 38.9227695, "rental_uris": {"ios": "https://dc.lft.to/lastmile_qr_scan", "android": "https://dc.lft.to/lastmile_qr_scan"}, "is_reserved": 0, "fusion_lon": 0.0, "fusion_lat": 0.0, "lon": -77.04280716666666, "name": "55d199496b4b017171c15db3be3af5b4"}, {"bike_id": "42965e27628c6d142ae12cf4fe06614e", "type": "electric_scooter", "is_disabled": 0, "lat": 38.91710166666667, "rental_uris": {"ios": "https://dc.lft.to/lastmile_qr_scan", "android": "https://dc.lft.to/lastmile_qr_scan"}, "is_reserved": 0, "fusion_lon": 0.0, "fusion_lat": 0.0, "lon": -77.02931083333333, "name": "42965e27628c6d142ae12cf4fe06614e"}, {"bike_id": "985d67a0524658054fc3b4264ea03686", "type": "electric_scooter", "is_disabled": 0, "lat": 38.915181, "rental_uris": {"ios": "https://dc.lft.to/lastmile_qr_scan", "android": "https://dc.lft.to/lastmile_qr_scan"}, "is_reserved": 0, "fusion_lon": 0.0, "fusion_lat": 0.0, "lon": -77.01225366666667, "name": "985d67a0524658054fc3b4264ea03686"}, {"bike_id": "776ac7238b6dc2074c2a4632535abd29", "type": "electric_bike", "is_disabled": 0, "lat": 38.89743583333333, "rental_uris": {"ios": "https://dc.lft.to/lastmile_qr_scan", "android": "https://dc.lft.to/lastmile_qr_scan"}, "is_reserved": 0, "fusion_lon": 0.0, "fusion_lat": 0.0, "lon": -76.92046066666667, "name": "776ac7238b6dc2074c2a4632535abd29"}, {"bike_id": "16dea6d8133d7806b0dd064b305409ef", "type": "electric_scooter", "is_disabled": 0, "lat": 38.91932166666667, "rental_uris": {"ios": "https://dc.lft.to/lastmile_qr_scan", "android": "https://dc.lft.to/lastmile_qr_scan"}, "is_reserved": 0, "fusion_lon": 0.0, "fusion_lat": 0.0, "lon": -77.04636183333334, "name": "16dea6d8133d7806b0dd064b305409ef"}, {"bike_id": "a7a18e0ac91b986aeba11c8190ee52bf", "type": "electric_scooter", "is_disabled": 0, "lat": 38.9135145, "rental_uris": {"ios": "https://dc.lft.to/lastmile_qr_scan", "android": "https://dc.lft.to/lastmile_qr_scan"}, "is_reserved": 0, "fusion_lon": 0.0, "fusion_lat": 0.0, "lon": -77.031849, "name": "a7a18e0ac91b986aeba11c8190ee52bf"}, {"bike_id": "72845297a6ab89bbf1d5f0e0899301ad", "type": "electric_scooter", "is_disabled": 0, "lat": 38.8973065, "rental_uris": {"ios": "https://dc.lft.to/lastmile_qr_scan", "android": "https://dc.lft.to/lastmile_qr_scan"}, "is_reserved": 0, "fusion_lon": 0.0, "fusion_lat": 0.0, "lon": -77.03343966666667, "name": "72845297a6ab89bbf1d5f0e0899301ad"}, {"bike_id": "e0cc6230f0fef0ac0929e0ba678d6553", "type": "electric_scooter", "is_disabled": 0, "lat": 38.906848333333336, "rental_uris": {"ios": "https://dc.lft.to/lastmile_qr_scan", "android": "https://dc.lft.to/lastmile_qr_scan"}, "is_reserved": 0, "fusion_lon": 0.0, "fusion_lat": 0.0, "lon": -77.07169083333334, "name": "e0cc6230f0fef0ac0929e0ba678d6553"}, {"bike_id": "697fba0bc9372cd070f05c298e030f69", "type": "electric_bike", "is_disabled": 0, "lat": 38.876783833333334, "rental_uris": {"ios": "https://dc.lft.to/lastmile_qr_scan", "android": "https://dc.lft.to/lastmile_qr_scan"}, "is_reserved": 0, "fusion_lon": 0.0, "fusion_lat": 0.0, "lon": -77.01464883333334, "name": "697fba0bc9372cd070f05c298e030f69"}, {"bike_id": "c0e0d70740c70c60468359b9ee2e90e5", "type": "electric_scooter", "is_disabled": 0, "lat": 38.9030705, "rental_uris": {"ios": "https://dc.lft.to/lastmile_qr_scan", "android": "https://dc.lft.to/lastmile_qr_scan"}, "is_reserved": 0, "fusion_lon": 0.0, "fusion_lat": 0.0, "lon": -76.98345633333334, "name": "c0e0d70740c70c60468359b9ee2e90e5"}, {"bike_id": "15d4bb36cb147b8d5a46ef9e4fcca1b3", "type": "electric_scooter", "is_disabled": 0, "lat": 38.9233505, "rental_uris": {"ios": "https://dc.lft.to/lastmile_qr_scan", "android": "https://dc.lft.to/lastmile_qr_scan"}, "is_reserved": 0, "fusion_lon": 0.0, "fusion_lat": 0.0, "lon": -77.0430375, "name": "15d4bb36cb147b8d5a46ef9e4fcca1b3"}, {"bike_id": "3fe9d8ed857e78c064c01b05904991c8", "type": "electric_scooter", "is_disabled": 0, "lat": 38.914837166666665, "rental_uris": {"ios": "https://dc.lft.to/lastmile_qr_scan", "android": "https://dc.lft.to/lastmile_qr_scan"}, "is_reserved": 0, "fusion_lon": 0.0, "fusion_lat": 0.0, "lon": -77.039172, "name": "3fe9d8ed857e78c064c01b05904991c8"}, {"bike_id": "008c5eb8e57753501ae142d5ac78d123", "type": "electric_bike", "is_disabled": 0, "lat": 38.89752433333334, "rental_uris": {"ios": "https://dc.lft.to/lastmile_qr_scan", "android": "https://dc.lft.to/lastmile_qr_scan"}, "is_reserved": 0, "fusion_lon": 0.0, "fusion_lat": 0.0, "lon": -77.00746366666667, "name": "008c5eb8e57753501ae142d5ac78d123"}, {"bike_id": "96ebfd93344c02c14852278ffd1c45ae", "type": "electric_scooter", "is_disabled": 0, "lat": 38.891988, "rental_uris": {"ios": "https://dc.lft.to/lastmile_qr_scan", "android": "https://dc.lft.to/lastmile_qr_scan"}, "is_reserved": 0, "fusion_lon": 0.0, "fusion_lat": 0.0, "lon": -77.00232083333333, "name": "96ebfd93344c02c14852278ffd1c45ae"}, {"bike_id": "4bf1dd9d33fdd74139a5039b7ff63a23", "type": "electric_scooter", "is_disabled": 0, "lat": 38.926134166666664, "rental_uris": {"ios": "https://dc.lft.to/lastmile_qr_scan", "android": "https://dc.lft.to/lastmile_qr_scan"}, "is_reserved": 0, "fusion_lon": 0.0, "fusion_lat": 0.0, "lon": -77.0215975, "name": "4bf1dd9d33fdd74139a5039b7ff63a23"}, {"bike_id": "abfed053f0a203c4c40975f0b89403f7", "type": "electric_scooter", "is_disabled": 0, "lat": 38.93456316666666, "rental_uris": {"ios": "https://dc.lft.to/lastmile_qr_scan", "android": "https://dc.lft.to/lastmile_qr_scan"}, "is_reserved": 0, "fusion_lon": 0.0, "fusion_lat": 0.0, "lon": -77.03049733333333, "name": "abfed053f0a203c4c40975f0b89403f7"}, {"bike_id": "56360bc19bcd81e482f83679984f5eb2", "type": "electric_scooter", "is_disabled": 0, "lat": 38.920621833333335, "rental_uris": {"ios": "https://dc.lft.to/lastmile_qr_scan", "android": "https://dc.lft.to/lastmile_qr_scan"}, "is_reserved": 0, "fusion_lon": 0.0, "fusion_lat": 0.0, "lon": -77.03462716666667, "name": "56360bc19bcd81e482f83679984f5eb2"}, {"bike_id": "95951e0cb7f0c24112f09a0ba469aa26", "type": "electric_scooter", "is_disabled": 0, "lat": 38.88521566666667, "rental_uris": {"ios": "https://dc.lft.to/lastmile_qr_scan", "android": "https://dc.lft.to/lastmile_qr_scan"}, "is_reserved": 0, "fusion_lon": 0.0, "fusion_lat": 0.0, "lon": -77.015398, "name": "95951e0cb7f0c24112f09a0ba469aa26"}, {"bike_id": "5d838045c6ca27b8a89e238f898d1e64", "type": "electric_scooter", "is_disabled": 0, "lat": 38.89859766666667, "rental_uris": {"ios": "https://dc.lft.to/lastmile_qr_scan", "android": "https://dc.lft.to/lastmile_qr_scan"}, "is_reserved": 0, "fusion_lon": 0.0, "fusion_lat": 0.0, "lon": -77.04877066666667, "name": "5d838045c6ca27b8a89e238f898d1e64"}, {"bike_id": "2b4b0114a77b8e04ad7ec17022d8e0fd", "type": "electric_scooter", "is_disabled": 0, "lat": 38.89673483333333, "rental_uris": {"ios": "https://dc.lft.to/lastmile_qr_scan", "android": "https://dc.lft.to/lastmile_qr_scan"}, "is_reserved": 0, "fusion_lon": 0.0, "fusion_lat": 0.0, "lon": -76.98824366666666, "name": "2b4b0114a77b8e04ad7ec17022d8e0fd"}, {"bike_id": "118c476fdfabf7f0acb95d018a85087c", "type": "electric_scooter", "is_disabled": 0, "lat": 38.9002965, "rental_uris": {"ios": "https://dc.lft.to/lastmile_qr_scan", "android": "https://dc.lft.to/lastmile_qr_scan"}, "is_reserved": 0, "fusion_lon": 0.0, "fusion_lat": 0.0, "lon": -76.998953, "name": "118c476fdfabf7f0acb95d018a85087c"}, {"bike_id": "76233bdac22e8c821a3207f236b9696c", "type": "electric_scooter", "is_disabled": 0, "lat": 38.89736966666667, "rental_uris": {"ios": "https://dc.lft.to/lastmile_qr_scan", "android": "https://dc.lft.to/lastmile_qr_scan"}, "is_reserved": 0, "fusion_lon": 0.0, "fusion_lat": 0.0, "lon": -77.00753716666667, "name": "76233bdac22e8c821a3207f236b9696c"}, {"bike_id": "7a3f94898941327883ce23692b6fd5ed", "type": "electric_bike", "is_disabled": 0, "lat": 38.95927066666667, "rental_uris": {"ios": "https://dc.lft.to/lastmile_qr_scan", "android": "https://dc.lft.to/lastmile_qr_scan"}, "is_reserved": 0, "fusion_lon": 0.0, "fusion_lat": 0.0, "lon": -77.0312515, "name": "7a3f94898941327883ce23692b6fd5ed"}, {"bike_id": "1ff7dc53d400b5c295e1dbf099e070fc", "type": "electric_scooter", "is_disabled": 0, "lat": 38.87567333333333, "rental_uris": {"ios": "https://dc.lft.to/lastmile_qr_scan", "android": "https://dc.lft.to/lastmile_qr_scan"}, "is_reserved": 0, "fusion_lon": 0.0, "fusion_lat": 0.0, "lon": -76.95867133333333, "name": "1ff7dc53d400b5c295e1dbf099e070fc"}, {"bike_id": "a0750464504a91956b4d04785d7bf9f2", "type": "electric_scooter", "is_disabled": 0, "lat": 38.906262166666664, "rental_uris": {"ios": "https://dc.lft.to/lastmile_qr_scan", "android": "https://dc.lft.to/lastmile_qr_scan"}, "is_reserved": 0, "fusion_lon": 0.0, "fusion_lat": 0.0, "lon": -77.05147366666667, "name": "a0750464504a91956b4d04785d7bf9f2"}, {"bike_id": "6d2455f2d8f35548ebd7198acdd8ff06", "type": "electric_scooter", "is_disabled": 0, "lat": 38.94512, "rental_uris": {"ios": "https://dc.lft.to/lastmile_qr_scan", "android": "https://dc.lft.to/lastmile_qr_scan"}, "is_reserved": 0, "fusion_lon": 0.0, "fusion_lat": 0.0, "lon": -77.02170916666667, "name": "6d2455f2d8f35548ebd7198acdd8ff06"}, {"bike_id": "16067e11ccec20219598fb88d7b92df6", "type": "electric_scooter", "is_disabled": 0, "lat": 38.90405783333333, "rental_uris": {"ios": "https://dc.lft.to/lastmile_qr_scan", "android": "https://dc.lft.to/lastmile_qr_scan"}, "is_reserved": 0, "fusion_lon": 0.0, "fusion_lat": 0.0, "lon": -77.01796516666667, "name": "16067e11ccec20219598fb88d7b92df6"}, {"bike_id": "35afb221078f81a7b0883828731350d9", "type": "electric_scooter", "is_disabled": 0, "lat": 38.920122166666665, "rental_uris": {"ios": "https://dc.lft.to/lastmile_qr_scan", "android": "https://dc.lft.to/lastmile_qr_scan"}, "is_reserved": 0, "fusion_lon": 0.0, "fusion_lat": 0.0, "lon": -77.02380233333334, "name": "35afb221078f81a7b0883828731350d9"}, {"bike_id": "6f1608e29e5305121e857c9cb7afa8f0", "type": "electric_scooter", "is_disabled": 0, "lat": 38.89837633333333, "rental_uris": {"ios": "https://dc.lft.to/lastmile_qr_scan", "android": "https://dc.lft.to/lastmile_qr_scan"}, "is_reserved": 0, "fusion_lon": 0.0, "fusion_lat": 0.0, "lon": -77.007724, "name": "6f1608e29e5305121e857c9cb7afa8f0"}, {"bike_id": "a6b72b0b688bea3c4362db152b992a43", "type": "electric_scooter", "is_disabled": 0, "lat": 38.959366, "rental_uris": {"ios": "https://dc.lft.to/lastmile_qr_scan", "android": "https://dc.lft.to/lastmile_qr_scan"}, "is_reserved": 0, "fusion_lon": 0.0, "fusion_lat": 0.0, "lon": -77.03121783333333, "name": "a6b72b0b688bea3c4362db152b992a43"}, {"bike_id": "00e8127ad7eed2acef36a4592c2927e4", "type": "electric_scooter", "is_disabled": 0, "lat": 38.931572, "rental_uris": {"ios": "https://dc.lft.to/lastmile_qr_scan", "android": "https://dc.lft.to/lastmile_qr_scan"}, "is_reserved": 0, "fusion_lon": 0.0, "fusion_lat": 0.0, "lon": -77.04545433333334, "name": "00e8127ad7eed2acef36a4592c2927e4"}, {"bike_id": "ca42a683ac90a492d201a66b2549f952", "type": "electric_scooter", "is_disabled": 0, "lat": 38.883417333333334, "rental_uris": {"ios": "https://dc.lft.to/lastmile_qr_scan", "android": "https://dc.lft.to/lastmile_qr_scan"}, "is_reserved": 0, "fusion_lon": 0.0, "fusion_lat": 0.0, "lon": -76.99507533333333, "name": "ca42a683ac90a492d201a66b2549f952"}, {"bike_id": "a98c2d8ddf8c436a6c0ac07751456ff9", "type": "electric_bike", "is_disabled": 0, "lat": 38.95504783333333, "rental_uris": {"ios": "https://dc.lft.to/lastmile_qr_scan", "android": "https://dc.lft.to/lastmile_qr_scan"}, "is_reserved": 0, "fusion_lon": 0.0, "fusion_lat": 0.0, "lon": -76.99352883333333, "name": "a98c2d8ddf8c436a6c0ac07751456ff9"}, {"bike_id": "989d6fd2f8212c6395acbb82547ccdb2", "type": "electric_scooter", "is_disabled": 0, "lat": 38.9238775, "rental_uris": {"ios": "https://dc.lft.to/lastmile_qr_scan", "android": "https://dc.lft.to/lastmile_qr_scan"}, "is_reserved": 0, "fusion_lon": 0.0, "fusion_lat": 0.0, "lon": -77.03020883333333, "name": "989d6fd2f8212c6395acbb82547ccdb2"}, {"bike_id": "7d016152bf397721d639d282afb5060e", "type": "electric_bike", "is_disabled": 0, "lat": 39.036990833333334, "rental_uris": {"ios": "https://dc.lft.to/lastmile_qr_scan", "android": "https://dc.lft.to/lastmile_qr_scan"}, "is_reserved": 0, "fusion_lon": 0.0, "fusion_lat": 0.0, "lon": -77.028611, "name": "7d016152bf397721d639d282afb5060e"}, {"bike_id": "1b385f21b81305feeb6354d4487dda76", "type": "electric_scooter", "is_disabled": 0, "lat": 38.91021833333333, "rental_uris": {"ios": "https://dc.lft.to/lastmile_qr_scan", "android": "https://dc.lft.to/lastmile_qr_scan"}, "is_reserved": 0, "fusion_lon": 0.0, "fusion_lat": 0.0, "lon": -77.00921766666667, "name": "1b385f21b81305feeb6354d4487dda76"}, {"bike_id": "276da1d4389b507d0e80659df3670c98", "type": "electric_scooter", "is_disabled": 0, "lat": 38.9174005, "rental_uris": {"ios": "https://dc.lft.to/lastmile_qr_scan", "android": "https://dc.lft.to/lastmile_qr_scan"}, "is_reserved": 0, "fusion_lon": 0.0, "fusion_lat": 0.0, "lon": -77.04072216666667, "name": "276da1d4389b507d0e80659df3670c98"}, {"bike_id": "e97445eb63c12258cf36355d02980ec5", "type": "electric_scooter", "is_disabled": 0, "lat": 38.830957833333336, "rental_uris": {"ios": "https://dc.lft.to/lastmile_qr_scan", "android": "https://dc.lft.to/lastmile_qr_scan"}, "is_reserved": 0, "fusion_lon": 0.0, "fusion_lat": 0.0, "lon": -77.05164533333334, "name": "e97445eb63c12258cf36355d02980ec5"}, {"bike_id": "f270bfd86020f2aa893aa4736df9eda4", "type": "electric_bike", "is_disabled": 0, "lat": 38.955034166666664, "rental_uris": {"ios": "https://dc.lft.to/lastmile_qr_scan", "android": "https://dc.lft.to/lastmile_qr_scan"}, "is_reserved": 0, "fusion_lon": 0.0, "fusion_lat": 0.0, "lon": -77.0699955, "name": "f270bfd86020f2aa893aa4736df9eda4"}, {"bike_id": "df5ca08e9d070015591dbfc27d7a1246", "type": "electric_scooter", "is_disabled": 0, "lat": 38.9082995, "rental_uris": {"ios": "https://dc.lft.to/lastmile_qr_scan", "android": "https://dc.lft.to/lastmile_qr_scan"}, "is_reserved": 0, "fusion_lon": 0.0, "fusion_lat": 0.0, "lon": -77.044576, "name": "df5ca08e9d070015591dbfc27d7a1246"}, {"bike_id": "432af7e9b0b4acd3a91a68e774774667", "type": "electric_scooter", "is_disabled": 0, "lat": 38.86737516666667, "rental_uris": {"ios": "https://dc.lft.to/lastmile_qr_scan", "android": "https://dc.lft.to/lastmile_qr_scan"}, "is_reserved": 0, "fusion_lon": 0.0, "fusion_lat": 0.0, "lon": -76.97868566666666, "name": "432af7e9b0b4acd3a91a68e774774667"}, {"bike_id": "b23aba1b52cc5adfe8956a652cd61426", "type": "electric_scooter", "is_disabled": 0, "lat": 38.90736416666667, "rental_uris": {"ios": "https://dc.lft.to/lastmile_qr_scan", "android": "https://dc.lft.to/lastmile_qr_scan"}, "is_reserved": 0, "fusion_lon": 0.0, "fusion_lat": 0.0, "lon": -76.97968866666666, "name": "b23aba1b52cc5adfe8956a652cd61426"}, {"bike_id": "c22489102cab4247f5e0c54f093ca449", "type": "electric_bike", "is_disabled": 0, "lat": 38.80384033333333, "rental_uris": {"ios": "https://dc.lft.to/lastmile_qr_scan", "android": "https://dc.lft.to/lastmile_qr_scan"}, "is_reserved": 0, "fusion_lon": 0.0, "fusion_lat": 0.0, "lon": -77.06746166666667, "name": "c22489102cab4247f5e0c54f093ca449"}, {"bike_id": "925889fac84a9b4329bc15efe8cb8217", "type": "electric_scooter", "is_disabled": 0, "lat": 38.9125055, "rental_uris": {"ios": "https://dc.lft.to/lastmile_qr_scan", "android": "https://dc.lft.to/lastmile_qr_scan"}, "is_reserved": 0, "fusion_lon": 0.0, "fusion_lat": 0.0, "lon": -77.02957366666666, "name": "925889fac84a9b4329bc15efe8cb8217"}, {"bike_id": "90bdc8eeed2bedcc7db07092d07b2c05", "type": "electric_scooter", "is_disabled": 0, "lat": 38.917682166666665, "rental_uris": {"ios": "https://dc.lft.to/lastmile_qr_scan", "android": "https://dc.lft.to/lastmile_qr_scan"}, "is_reserved": 0, "fusion_lon": 0.0, "fusion_lat": 0.0, "lon": -77.03465983333334, "name": "90bdc8eeed2bedcc7db07092d07b2c05"}, {"bike_id": "7145fbb2a9b9e920df88a57810ecb22a", "type": "electric_scooter", "is_disabled": 0, "lat": 38.90757216666667, "rental_uris": {"ios": "https://dc.lft.to/lastmile_qr_scan", "android": "https://dc.lft.to/lastmile_qr_scan"}, "is_reserved": 0, "fusion_lon": 0.0, "fusion_lat": 0.0, "lon": -77.031849, "name": "7145fbb2a9b9e920df88a57810ecb22a"}, {"bike_id": "450bf67c00aff3c8e7c83c2b777f776b", "type": "electric_scooter", "is_disabled": 0, "lat": 38.864664833333336, "rental_uris": {"ios": "https://dc.lft.to/lastmile_qr_scan", "android": "https://dc.lft.to/lastmile_qr_scan"}, "is_reserved": 0, "fusion_lon": 0.0, "fusion_lat": 0.0, "lon": -76.97736566666667, "name": "450bf67c00aff3c8e7c83c2b777f776b"}, {"bike_id": "ec64b06d4fb3a112dfab6a00c1c5a029", "type": "electric_scooter", "is_disabled": 0, "lat": 38.91044733333333, "rental_uris": {"ios": "https://dc.lft.to/lastmile_qr_scan", "android": "https://dc.lft.to/lastmile_qr_scan"}, "is_reserved": 0, "fusion_lon": 0.0, "fusion_lat": 0.0, "lon": -77.03476033333334, "name": "ec64b06d4fb3a112dfab6a00c1c5a029"}, {"bike_id": "cef4407b241d0e1644d905a45b1aa2a4", "type": "electric_bike", "is_disabled": 0, "lat": 38.969582333333335, "rental_uris": {"ios": "https://dc.lft.to/lastmile_qr_scan", "android": "https://dc.lft.to/lastmile_qr_scan"}, "is_reserved": 0, "fusion_lon": 0.0, "fusion_lat": 0.0, "lon": -76.9575455, "name": "cef4407b241d0e1644d905a45b1aa2a4"}, {"bike_id": "553468eb5878bcfc1d4eb24b1bafeacb", "type": "electric_scooter", "is_disabled": 0, "lat": 38.935487, "rental_uris": {"ios": "https://dc.lft.to/lastmile_qr_scan", "android": "https://dc.lft.to/lastmile_qr_scan"}, "is_reserved": 0, "fusion_lon": 0.0, "fusion_lat": 0.0, "lon": -77.05859783333334, "name": "553468eb5878bcfc1d4eb24b1bafeacb"}, {"bike_id": "bca15c21c4e89774a4ce14786c84ee9f", "type": "electric_scooter", "is_disabled": 0, "lat": 38.8830095, "rental_uris": {"ios": "https://dc.lft.to/lastmile_qr_scan", "android": "https://dc.lft.to/lastmile_qr_scan"}, "is_reserved": 0, "fusion_lon": 0.0, "fusion_lat": 0.0, "lon": -76.948547, "name": "bca15c21c4e89774a4ce14786c84ee9f"}, {"bike_id": "2f43082eacb721d5cd91a690b876fb71", "type": "electric_scooter", "is_disabled": 0, "lat": 38.924755833333336, "rental_uris": {"ios": "https://dc.lft.to/lastmile_qr_scan", "android": "https://dc.lft.to/lastmile_qr_scan"}, "is_reserved": 0, "fusion_lon": 0.0, "fusion_lat": 0.0, "lon": -77.02837366666667, "name": "2f43082eacb721d5cd91a690b876fb71"}, {"bike_id": "5d9888720d943e6bfb7751c1bbff02e9", "type": "electric_scooter", "is_disabled": 0, "lat": 38.923168, "rental_uris": {"ios": "https://dc.lft.to/lastmile_qr_scan", "android": "https://dc.lft.to/lastmile_qr_scan"}, "is_reserved": 0, "fusion_lon": 0.0, "fusion_lat": 0.0, "lon": -77.05613, "name": "5d9888720d943e6bfb7751c1bbff02e9"}, {"bike_id": "9191d31d40046fa87623ca6b61eef02c", "type": "electric_scooter", "is_disabled": 0, "lat": 38.900097833333334, "rental_uris": {"ios": "https://dc.lft.to/lastmile_qr_scan", "android": "https://dc.lft.to/lastmile_qr_scan"}, "is_reserved": 0, "fusion_lon": 0.0, "fusion_lat": 0.0, "lon": -76.9988505, "name": "9191d31d40046fa87623ca6b61eef02c"}, {"bike_id": "6c962d4d1379464816fe3eb00bab883e", "type": "electric_scooter", "is_disabled": 0, "lat": 38.92473733333333, "rental_uris": {"ios": "https://dc.lft.to/lastmile_qr_scan", "android": "https://dc.lft.to/lastmile_qr_scan"}, "is_reserved": 0, "fusion_lon": 0.0, "fusion_lat": 0.0, "lon": -77.02240816666666, "name": "6c962d4d1379464816fe3eb00bab883e"}, {"bike_id": "18f933e1c7d29e9974ec684fe36e5e65", "type": "electric_scooter", "is_disabled": 0, "lat": 38.915928, "rental_uris": {"ios": "https://dc.lft.to/lastmile_qr_scan", "android": "https://dc.lft.to/lastmile_qr_scan"}, "is_reserved": 0, "fusion_lon": 0.0, "fusion_lat": 0.0, "lon": -77.04474183333333, "name": "18f933e1c7d29e9974ec684fe36e5e65"}, {"bike_id": "af98e6bac95863b390875c7e5ff38aab", "type": "electric_scooter", "is_disabled": 0, "lat": 38.942107, "rental_uris": {"ios": "https://dc.lft.to/lastmile_qr_scan", "android": "https://dc.lft.to/lastmile_qr_scan"}, "is_reserved": 0, "fusion_lon": 0.0, "fusion_lat": 0.0, "lon": -77.02582783333334, "name": "af98e6bac95863b390875c7e5ff38aab"}, {"bike_id": "e2ced46a83623dbc53f2eb3c0d396a38", "type": "electric_scooter", "is_disabled": 0, "lat": 38.911801833333335, "rental_uris": {"ios": "https://dc.lft.to/lastmile_qr_scan", "android": "https://dc.lft.to/lastmile_qr_scan"}, "is_reserved": 0, "fusion_lon": 0.0, "fusion_lat": 0.0, "lon": -77.029536, "name": "e2ced46a83623dbc53f2eb3c0d396a38"}, {"bike_id": "57ba406521164490627a3cd6658b9dd6", "type": "electric_scooter", "is_disabled": 0, "lat": 38.9248895, "rental_uris": {"ios": "https://dc.lft.to/lastmile_qr_scan", "android": "https://dc.lft.to/lastmile_qr_scan"}, "is_reserved": 0, "fusion_lon": 0.0, "fusion_lat": 0.0, "lon": -77.05755416666666, "name": "57ba406521164490627a3cd6658b9dd6"}, {"bike_id": "bc086876bbf7ef58ae2f8a2536bbc791", "type": "electric_scooter", "is_disabled": 0, "lat": 38.9127285, "rental_uris": {"ios": "https://dc.lft.to/lastmile_qr_scan", "android": "https://dc.lft.to/lastmile_qr_scan"}, "is_reserved": 0, "fusion_lon": 0.0, "fusion_lat": 0.0, "lon": -77.01459783333334, "name": "bc086876bbf7ef58ae2f8a2536bbc791"}, {"bike_id": "060a6278860ae106eedc7e0f2c1b52a7", "type": "electric_scooter", "is_disabled": 0, "lat": 38.93639733333333, "rental_uris": {"ios": "https://dc.lft.to/lastmile_qr_scan", "android": "https://dc.lft.to/lastmile_qr_scan"}, "is_reserved": 0, "fusion_lon": 0.0, "fusion_lat": 0.0, "lon": -77.05887716666666, "name": "060a6278860ae106eedc7e0f2c1b52a7"}, {"bike_id": "a11090c05a8326ede4a1e92aec5af723", "type": "electric_scooter", "is_disabled": 0, "lat": 38.9040005, "rental_uris": {"ios": "https://dc.lft.to/lastmile_qr_scan", "android": "https://dc.lft.to/lastmile_qr_scan"}, "is_reserved": 0, "fusion_lon": 0.0, "fusion_lat": 0.0, "lon": -77.06277283333333, "name": "a11090c05a8326ede4a1e92aec5af723"}, {"bike_id": "193d9ce33434e90f59913930ada3c8ee", "type": "electric_scooter", "is_disabled": 0, "lat": 38.9053195, "rental_uris": {"ios": "https://dc.lft.to/lastmile_qr_scan", "android": "https://dc.lft.to/lastmile_qr_scan"}, "is_reserved": 0, "fusion_lon": 0.0, "fusion_lat": 0.0, "lon": -77.05680266666667, "name": "193d9ce33434e90f59913930ada3c8ee"}, {"bike_id": "f3fee49195af1d56293bd411098f2535", "type": "electric_scooter", "is_disabled": 0, "lat": 38.938932333333334, "rental_uris": {"ios": "https://dc.lft.to/lastmile_qr_scan", "android": "https://dc.lft.to/lastmile_qr_scan"}, "is_reserved": 0, "fusion_lon": 0.0, "fusion_lat": 0.0, "lon": -77.02824483333333, "name": "f3fee49195af1d56293bd411098f2535"},