{"data": {"bikes": [{"lat": 38.923632166666664, "is_disabled": 0, "type": "electric_scooter", "lon": -77.050508, "bike_id": "156f4bad3e314a6443a5b8a92cb6a7b9", "fusion_lat": 0.0, "name": "156f4bad3e314a6443a5b8a92cb6a7b9", "is_reserved": 0, "rental_uris": {"android": "https://dc.lft.to/lastmile_qr_scan", "ios": "https://dc.lft.to/lastmile_qr_scan"}, "fusion_lon": 0.0}, {"lat": 38.91819816666667, "is_disabled": 0, "type": "electric_scooter", "lon": -77.03666216666667, "bike_id": "caf3f30355be0a802920f92fb806b4c4", "fusion_lat": 0.0, "name": "caf3f30355be0a802920f92fb806b4c4", "is_reserved": 0, "rental_uris": {"android": "https://dc.lft.to/lastmile_qr_scan", "ios": "https://dc.lft.to/lastmile_qr_scan"}, "fusion_lon": 0.0}, {"lat": 38.9024545, "is_disabled": 0, "type": "electric_scooter", "lon": -77.06266066666667, "bike_id": "3296897d1d41862f6e99b68bb76c4b78", "fusion_lat": 0.0, "name": "3296897d1d41862f6e99b68bb76c4b78", "is_reserved": 0, "rental_uris": {"android": "https://dc.lft.to/lastmile_qr_scan", "ios": "https://dc.lft.to/lastmile_qr_scan"}, "fusion_lon": 0.0}, {"lat": 38.935772166666666, "is_disabled": 0, "type": "electric_scooter", "lon": -77.0376205, "bike_id": "437c2ce90d4dc7bd29e8be5ebd6423a5", "fusion_lat": 0.0, "name": "437c2ce90d4dc7bd29e8be5ebd6423a5", "is_reserved": 0, "rental_uris": {"android": "https://dc.lft.to/lastmile_qr_scan", "ios": "https://dc.lft.to/lastmile_qr_scan"}, "fusion_lon": 0.0}, {"lat": 38.950771333333336, "is_disabled": 0, "type": "electric_bike", "lon": -77.01202683333334, "bike_id": "a3c0ece652d505ae3ca3b6c496c7b112", "fusion_lat": 0.0, "name": "a3c0ece652d505ae3ca3b6c496c7b112", "is_reserved": 0, "rental_uris": {"android": "https://dc.lft.to/lastmile_qr_scan", "ios": "https://dc.lft.to/lastmile_qr_scan"}, "fusion_lon": 0.0}, {"lat": 38.91115883333333, "is_disabled": 0, "type": "electric_scooter", "lon": -77.03869183333333, "bike_id": "55dcaf06917f1c5bc4a55dbf0bb87798", "fusion_lat": 0.0, "name": "55dcaf06917f1c5bc4a55dbf0bb87798", "is_reserved": 0, "rental_uris": {"android": "https://dc.lft.to/lastmile_qr_scan", "ios": "https://dc.lft.to/lastmile_qr_scan"}, "fusion_lon": 0.0}, {"lat": 38.88270816666667, "is_disabled": 0, "type": "electric_bike", "lon": -76.93238883333333, "bike_id": "15ae7b96b5e2c0b4f1b2493bde530c12", "fusion_lat": 0.0, "name": "15ae7b96b5e2c0b4f1b2493bde530c12", "is_reserved": 0, "rental_uris": {"android": "https://dc.lft.to/lastmile_qr_scan", "ios": "https://dc.lft.to/lastmile_qr_scan"}, "fusion_lon": 0.0}, {"lat": 38.898224666666664, "is_disabled": 0, "type": "electric_scooter", "lon": -77.02934116666667, "bike_id": "512a772c4f5122451d31492a8caa28d3", "fusion_lat": 0.0, "name": "512a772c4f5122451d31492a8caa28d3", "is_reserved": 0, "rental_uris": {"android": "https://dc.lft.to/lastmile_qr_scan", "ios": "https://dc.lft.to/lastmile_qr_scan"}, "fusion_lon": 0.0}, {"lat": 38.9062525, "is_disabled": 0, "type": "electric_scooter", "lon": -77.021863, "bike_id": "7f7ed649a235366cb40bd2ed7b92e902", "fusion_lat": 0.0, "name": "7f7ed649a235366cb40bd2ed7b92e902", "is_reserved": 0, "rental_uris": {"android": "https://dc.lft.to/lastmile_qr_scan", "ios": "https://dc.lft.to/lastmile_qr_scan"}, "fusion_lon": 0.0}, {"lat": 38.8942465, "is_disabled": 0, "type": "electric_scooter", "lon": -77.02096133333333, "bike_id": "d182da268ef93193c747ac68a92ee988", "fusion_lat": 0.0, "name": "d182da268ef93193c747ac68a92ee988", "is_reserved": 0, "rental_uris": {"android": "https://dc.lft.to/lastmile_qr_scan", "ios": "https://dc.lft.to/lastmile_qr_scan"}, "fusion_lon": 0.0}, {"lat": 38.9070335, "is_disabled": 0, "type": "electric_scooter", "lon": -77.00340583333333, "bike_id": "3522820cd35489bece51c6ddb1991458", "fusion_lat": 0.0, "name": "3522820cd35489bece51c6ddb1991458", "is_reserved": 0, "rental_uris": {"android": "https://dc.lft.to/lastmile_qr_scan", "ios": "https://dc.lft.to/lastmile_qr_scan"}, "fusion_lon": 0.0}, {"lat": 38.915540166666666, "is_disabled": 0, "type": "electric_scooter", "lon": -77.04178183333333, "bike_id": "830b393a8af2827aa603692e48caaac7", "fusion_lat": 0.0, "name": "830b393a8af2827aa603692e48caaac7", "is_reserved": 0, "rental_uris": {"android": "https://dc.lft.to/lastmile_qr_scan", "ios": "https://dc.lft.to/lastmile_qr_scan"}, "fusion_lon": 0.0}, {"lat": 38.928274333333334, "is_disabled": 0, "type": "electric_scooter", "lon": -77.05438716666667, "bike_id": "7f0205ad5bf46e7b243a0b6524fb8267", "fusion_lat": 0.0, "name": "7f0205ad5bf46e7b243a0b6524fb8267", "is_reserved": 0, "rental_uris": {"android": "https://dc.lft.to/lastmile_qr_scan", "ios": "https://dc.lft.to/lastmile_qr_scan"}, "fusion_lon": 0.0}, {"lat": 38.902641833333334, "is_disabled": 0, "type": "electric_scooter", "lon": -77.04029483333333, "bike_id": "2072ab0fee3b9ee0067f9c95c1edaa7d", "fusion_lat": 0.0, "name": "2072ab0fee3b9ee0067f9c95c1edaa7d", "is_reserved": 0, "rental_uris": {"android": "https://dc.lft.to/lastmile_qr_scan", "ios": "https://dc.lft.to/lastmile_qr_scan"}, "fusion_lon": 0.0}, {"lat": 38.91610766666667, "is_disabled": 0, "type": "electric_scooter", "lon": -77.0173415, "bike_id": "bef7f538c2a8c529f2e8b8c109a06c37", "fusion_lat": 0.0, "name": "bef7f538c2a8c529f2e8b8c109a06c37", "is_reserved": 0, "rental_uris": {"android": "https://dc.lft.to/lastmile_qr_scan", "ios": "https://dc.lft.to/lastmile_qr_scan"}, "fusion_lon": 0.0}, {"lat": 38.866243, "is_disabled": 0, "type": "electric_scooter", "lon": -76.98669816666667, "bike_id": "5671fb012090e88dd27520dc08f52331", "fusion_lat": 0.0, "name": "5671fb012090e88dd27520dc08f52331", "is_reserved": 0, "rental_uris": {"android": "https://dc.lft.to/lastmile_qr_scan", "ios": "https://dc.lft.to/lastmile_qr_scan"}, "fusion_lon": 0.0}, {"lat": 38.936071, "is_disabled": 0, "type": "electric_scooter", "lon": -77.0585925, "bike_id": "5fdc728903347c48f8b49ba29f91f161", "fusion_lat": 0.0, "name": "5fdc728903347c48f8b49ba29f91f161", "is_reserved": 0, "rental_uris": {"android": "https://dc.lft.to/lastmile_qr_scan", "ios": "https://dc.lft.to/lastmile_qr_scan"}, "fusion_lon": 0.0}, {"lat": 38.92355516666667, "is_disabled": 0, "type": "electric_scooter", "lon": -77.0502305, "bike_id": "59da9f878f55ac4c075abaa558f68a43", "fusion_lat": 0.0, "name": "59da9f878f55ac4c075abaa558f68a43", "is_reserved": 0, "rental_uris": {"android": "https://dc.lft.to/lastmile_qr_scan", "ios": "https://dc.lft.to/lastmile_qr_scan"}, "fusion_lon": 0.0}, {"lat": 38.935343833333334, "is_disabled": 0, "type": "electric_scooter", "lon": -77.03252483333333, "bike_id": "1238c082119c823a043d042768de61cf", "fusion_lat": 0.0, "name": "1238c082119c823a043d042768de61cf", "is_reserved": 0, "rental_uris": {"android": "https://dc.lft.to/lastmile_qr_scan", "ios": "https://dc.lft.to/lastmile_qr_scan"}, "fusion_lon": 0.0}, {"lat": 38.9078425, "is_disabled": 0, "type": "electric_scooter", "lon": -77.044763, "bike_id": "b780029c3244923595dcf9abccecef76", "fusion_lat": 0.0, "name": "b780029c3244923595dcf9abccecef76", "is_reserved": 0, "rental_uris": {"android": "https://dc.lft.to/lastmile_qr_scan", "ios": "https://dc.lft.to/lastmile_qr_scan"}, "fusion_lon": 0.0}, {"lat": 38.930899833333335, "is_disabled": 0, "type": "electric_scooter", "lon": -77.03747983333334, "bike_id": "730553c1509499da9016f09e3304ac5b", "fusion_lat": 0.0, "name": "730553c1509499da9016f09e3304ac5b", "is_reserved": 0, "rental_uris": {"android": "https://dc.lft.to/lastmile_qr_scan", "ios": "https://dc.lft.to/lastmile_qr_scan"}, "fusion_lon": 0.0}, {"lat": 38.90852866666667, "is_disabled": 0, "type": "electric_scooter", "lon": -77.04346133333334, "bike_id": "003f6c39847759b1eac312d175f25e59", "fusion_lat": 0.0, "name": "003f6c39847759b1eac312d175f25e59", "is_reserved": 0, "rental_uris": {"android": "https://dc.lft.to/lastmile_qr_scan", "ios": "https://dc.lft.to/lastmile_qr_scan"}, "fusion_lon": 0.0}, {"lat": 38.892214, "is_disabled": 0, "type": "electric_scooter", "lon": -77.0231935, "bike_id": "ff0f32cb3b8d94eb794cdd713287c33b", "fusion_lat": 0.0, "name": "ff0f32cb3b8d94eb794cdd713287c33b", "is_reserved": 0, "rental_uris": {"android": "https://dc.lft.to/lastmile_qr_scan", "ios": "https://dc.lft.to/lastmile_qr_scan"}, "fusion_lon": 0.0}, {"lat": 38.927468833333336, "is_disabled": 0, "type": "electric_scooter", "lon": -77.0341155, "bike_id": "59332fc0e488ac1db654dbdc8bd5bd37", "fusion_lat": 0.0, "name": "59332fc0e488ac1db654dbdc8bd5bd37", "is_reserved": 0, "rental_uris": {"android": "https://dc.lft.to/lastmile_qr_scan", "ios": "https://dc.lft.to/lastmile_qr_scan"}, "fusion_lon": 0.0}, {"lat": 38.911049166666665, "is_disabled": 0, "type": "electric_scooter", "lon": -77.044792, "bike_id": "949cacbecaf95f2c52099c11b5ab7b04", "fusion_lat": 0.0, "name": "949cacbecaf95f2c52099c11b5ab7b04", "is_reserved": 0, "rental_uris": {"android": "https://dc.lft.to/lastmile_qr_scan", "ios": "https://dc.lft.to/lastmile_qr_scan"}, "fusion_lon": 0.0}, {"lat": 38.91188866666667, "is_disabled": 0, "type": "electric_scooter", "lon": -77.03424616666666, "bike_id": "2ca6049ef4fec8827f8db4bc6daac076", "fusion_lat": 0.0, "name": "2ca6049ef4fec8827f8db4bc6daac076", "is_reserved": 0, "rental_uris": {"android": "https://dc.lft.to/lastmile_qr_scan", "ios": "https://dc.lft.to/lastmile_qr_scan"}, "fusion_lon": 0.0}, {"lat": 38.92290066666666, "is_disabled": 0, "type": "electric_scooter", "lon": -77.02965233333333, "bike_id": "a4aa836d4060f9d558fcac33952555a5", "fusion_lat": 0.0, "name": "a4aa836d4060f9d558fcac33952555a5", "is_reserved": 0, "rental_uris": {"android": "https://dc.lft.to/lastmile_qr_scan", "ios": "https://dc.lft.to/lastmile_qr_scan"}, "fusion_lon": 0.0}, {"lat": 38.95475666666667, "is_disabled": 0, "type": "electric_scooter", "lon": -77.06556416666666, "bike_id": "2599fec5c382e11acb5dbbde1ff4da2d", "fusion_lat": 0.0, "name": "2599fec5c382e11acb5dbbde1ff4da2d", "is_reserved": 0, "rental_uris": {"android": "https://dc.lft.to/lastmile_qr_scan", "ios": "https://dc.lft.to/lastmile_qr_scan"}, "fusion_lon": 0.0}, {"lat": 38.892478, "is_disabled": 0, "type": "electric_scooter", "lon": -77.03957166666666, "bike_id": "80df3c0d0b83b8e5d3e8701edfaead57", "fusion_lat": 0.0, "name": "80df3c0d0b83b8e5d3e8701edfaead57", "is_reserved": 0, "rental_uris": {"android": "https://dc.lft.to/lastmile_qr_scan", "ios": "https://dc.lft.to/lastmile_qr_scan"}, "fusion_lon": 0.0}, {"lat": 38.90088566666667, "is_disabled": 0, "type": "electric_scooter", "lon": -77.05011016666667, "bike_id": "48ab3365024997af774c1a7c176ad7a1", "fusion_lat": 0.0, "name": "48ab3365024997af774c1a7c176ad7a1", "is_reserved": 0, "rental_uris": {"android": "https://dc.lft.to/lastmile_qr_scan", "ios": "https://dc.lft.to/lastmile_qr_scan"}, "fusion_lon": 0.0}, {"lat": 38.9367405, "is_disabled": 0, "type": "electric_scooter", "lon": -77.0245025, "bike_id": "6ab2e704c4c5635b4f10e6ced994764c", "fusion_lat": 0.0, "name": "6ab2e704c4c5635b4f10e6ced994764c", "is_reserved": 0, "rental_uris": {"android": "https://dc.lft.to/lastmile_qr_scan", "ios": "https://dc.lft.to/lastmile_qr_scan"}, "fusion_lon": 0.0}, {"lat": 38.918702833333334, "is_disabled": 0, "type": "electric_scooter", "lon": -77.031684, "bike_id": "4e83a23c2aa4b1fa8e6a4c3238cf0907", "fusion_lat": 0.0, "name": "4e83a23c2aa4b1fa8e6a4c3238cf0907", "is_reserved": 0, "rental_uris": {"android": "https://dc.lft.to/lastmile_qr_scan", "ios": "https://dc.lft.to/lastmile_qr_scan"}, "fusion_lon": 0.0}, {"lat": 38.913348, "is_disabled": 0, "type": "electric_scooter", "lon": -77.04885383333334, "bike_id": "87e583684657c1832134a1b1561c865d", "fusion_lat": 0.0, "name": "87e583684657c1832134a1b1561c865d", "is_reserved": 0, "rental_uris": {"android": "https://dc.lft.to/lastmile_qr_scan", "ios": "https://dc.lft.to/lastmile_qr_scan"}, "fusion_lon": 0.0}, {"lat": 38.907916, "is_disabled": 0, "type": "electric_scooter", "lon": -77.03806933333334, "bike_id": "01111eb846825c7d3909a1fb5f7a9a0a", "fusion_lat": 0.0, "name": "01111eb846825c7d3909a1fb5f7a9a0a", "is_reserved": 0, "rental_uris": {"android": "https://dc.lft.to/lastmile_qr_scan", "ios": "https://dc.lft.to/lastmile_qr_scan"}, "fusion_lon": 0.0}, {"lat": 38.92748683333333, "is_disabled": 0, "type": "electric_scooter", "lon": -76.9971985, "bike_id": "816d8d2d2c3e7648d9a52f3fd9c76867", "fusion_lat": 0.0, "name": "816d8d2d2c3e7648d9a52f3fd9c76867", "is_reserved": 0, "rental_uris": {"android": "https://dc.lft.to/lastmile_qr_scan", "ios": "https://dc.lft.to/lastmile_qr_scan"}, "fusion_lon": 0.0}, {"lat": 39.03048716666667, "is_disabled": 0, "type": "electric_bike", "lon": -77.09486566666666, "bike_id": "867edb063f6ded7ae83275127ddcc5f1", "fusion_lat": 0.0, "name": "867edb063f6ded7ae83275127ddcc5f1", "is_reserved": 0, "rental_uris": {"android": "https://dc.lft.to/lastmile_qr_scan", "ios": "https://dc.lft.to/lastmile_qr_scan"}, "fusion_lon": 0.0}, {"lat": 38.863662, "is_disabled": 0, "type": "electric_scooter", "lon": -76.99038, "bike_id": "8547735273b015163a01d9f341f530f8", "fusion_lat": 0.0, "name": "8547735273b015163a01d9f341f530f8", "is_reserved": 0, "rental_uris": {"android": "https://dc.lft.to/lastmile_qr_scan", "ios": "https://dc.lft.to/lastmile_qr_scan"}, "fusion_lon": 0.0}, {"lat": 38.91311533333333, "is_disabled": 0, "type": "electric_scooter", "lon": -77.04163433333333, "bike_id": "9f4531786da7d7f9d676a42c08d91803", "fusion_lat": 0.0, "name": "9f4531786da7d7f9d676a42c08d91803", "is_reserved": 0, "rental_uris": {"android": "https://dc.lft.to/lastmile_qr_scan", "ios": "https://dc.lft.to/lastmile_qr_scan"}, "fusion_lon": 0.0}, {"lat": 38.90501666666667, "is_disabled": 0, "type": "electric_scooter", "lon": -77.06286766666666, "bike_id": "50f24305acc51dc651d6490080f990dd", "fusion_lat": 0.0, "name": "50f24305acc51dc651d6490080f990dd", "is_reserved": 0, "rental_uris": {"android": "https://dc.lft.to/lastmile_qr_scan", "ios": "https://dc.lft.to/lastmile_qr_scan"}, "fusion_lon": 0.0}, {"lat": 38.875757166666666, "is_disabled": 0, "type": "electric_scooter", "lon": -77.0207305, "bike_id": "224670a8e0fb49e3e8f9ef75a81bc493", "fusion_lat": 0.0, "name": "224670a8e0fb49e3e8f9ef75a81bc493", "is_reserved": 0, "rental_uris": {"android": "https://dc.lft.to/lastmile_qr_scan", "ios": "https://dc.lft.to/lastmile_qr_scan"}, "fusion_lon": 0.0}, {"lat": 38.90357316666667, "is_disabled": 0, "type": "electric_scooter", "lon": -77.02914166666666, "bike_id": "2833ca2504bb55c8465b90d43d95c548", "fusion_lat": 0.0, "name": "2833ca2504bb55c8465b90d43d95c548", "is_reserved": 0, "rental_uris": {"android": "https://dc.lft.to/lastmile_qr_scan", "ios": "https://dc.lft.to/lastmile_qr_scan"}, "fusion_lon": 0.0}, {"lat": 38.91924516666667, "is_disabled": 0, "type": "electric_scooter", "lon": -77.031764, "bike_id": "c04f42814f73433a283003b0e737d389", "fusion_lat": 0.0, "name": "c04f42814f73433a283003b0e737d389", "is_reserved": 0, "rental_uris": {"android": "https://dc.lft.to/lastmile_qr_scan", "ios": "https://dc.lft.to/lastmile_qr_scan"}, "fusion_lon": 0.0}, {"lat": 38.9096555, "is_disabled": 0, "type": "electric_scooter", "lon": -77.03955316666666, "bike_id": "818ad29ded174488a225a99fd9ff871f", "fusion_lat": 0.0, "name": "818ad29ded174488a225a99fd9ff871f", "is_reserved": 0, "rental_uris": {"android": "https://dc.lft.to/lastmile_qr_scan", "ios": "https://dc.lft.to/lastmile_qr_scan"}, "fusion_lon": 0.0}, {"lat": 38.908545833333335, "is_disabled": 0, "type": "electric_scooter", "lon": -76.9996495, "bike_id": "47b8f1b2610ab70422109b0a9fe784b5", "fusion_lat": 0.0, "name": "47b8f1b2610ab70422109b0a9fe784b5", "is_reserved": 0, "rental_uris": {"android": "https://dc.lft.to/lastmile_qr_scan", "ios": "https://dc.lft.to/lastmile_qr_scan"}, "fusion_lon": 0.0}, {"lat": 38.9041175, "is_disabled": 0, "type": "electric_scooter", "lon": -77.0403955, "bike_id": "fc6d9ec6aa36e955f0147ea19209d27e", "fusion_lat": 0.0, "name": "fc6d9ec6aa36e955f0147ea19209d27e", "is_reserved": 0, "rental_uris": {"android": "https://dc.lft.to/lastmile_qr_scan", "ios": "https://dc.lft.to/lastmile_qr_scan"}, "fusion_lon": 0.0}, {"lat": 38.943610166666666, "is_disabled": 0, "type": "electric_bike", "lon": -76.96784566666666, "bike_id": "75407175552b0bff16d0ee56cc0beea9", "fusion_lat": 0.0, "name": "75407175552b0bff16d0ee56cc0beea9", "is_reserved": 0, "rental_uris": {"android": "https://dc.lft.to/lastmile_qr_scan", "ios": "https://dc.lft.to/lastmile_qr_scan"}, "fusion_lon": 0.0}, {"lat": 38.9025325, "is_disabled": 0, "type": "electric_scooter", "lon": -77.0434, "bike_id": "97d445bc9c44be9cfb9847509fb7d0ee", "fusion_lat": 0.0, "name": "97d445bc9c44be9cfb9847509fb7d0ee", "is_reserved": 0, "rental_uris": {"android": "https://dc.lft.to/lastmile_qr_scan", "ios": "https://dc.lft.to/lastmile_qr_scan"}, "fusion_lon": 0.0}, {"lat": 38.8851285, "is_disabled": 0, "type": "electric_scooter", "lon": -77.00679666666667, "bike_id": "9cc127833c48bd3776761864e4a3fee2", "fusion_lat": 0.0, "name": "9cc127833c48bd3776761864e4a3fee2", "is_reserved": 0, "rental_uris": {"android": "https://dc.lft.to/lastmile_qr_scan", "ios": "https://dc.lft.to/lastmile_qr_scan"}, "fusion_lon": 0.0}, {"lat": 38.93462866666667, "is_disabled": 0, "type": "electric_scooter", "lon": -77.06191583333333, "bike_id": "e065d371be298a1cfe633c0b5c089a20", "fusion_lat": 0.0, "name": "e065d371be298a1cfe633c0b5c089a20", "is_reserved": 0, "rental_uris": {"android": "https://dc.lft.to/lastmile_qr_scan", "ios": "https://dc.lft.to/lastmile_qr_scan"}, "fusion_lon": 0.0}, {"lat": 39.00008016666666, "is_disabled": 0, "type": "electric_bike", "lon": -76.9108285, "bike_id": "b1176fdb3b6830ffbab6b3057b8450f5", "fusion_lat": 0.0, "name": "b1176fdb3b6830ffbab6b3057b8450f5", "is_reserved": 0, "rental_uris": {"android": "https://dc.lft.to/lastmile_qr_scan", "ios": "https://dc.lft.to/lastmile_qr_scan"}, "fusion_lon": 0.0}, {"lat": 38.863904166666664, "is_disabled": 0, "type": "electric_bike", "lon": -76.98991216666667, "bike_id": "4ac1d6fc38941c8542f39d3259112b15", "fusion_lat": 0.0, "name": "4ac1d6fc38941c8542f39d3259112b15", "is_reserved": 0, "rental_uris": {"android": "https://dc.lft.to/lastmile_qr_scan", "ios": "https://dc.lft.to/lastmile_qr_scan"}, "fusion_lon": 0.0}, {"lat": 38.91116366666667, "is_disabled": 0, "type": "electric_scooter", "lon": -77.03304883333334, "bike_id": "7452816c469ad0798bd8c7ad86246583", "fusion_lat": 0.0, "name": "7452816c469ad0798bd8c7ad86246583", "is_reserved": 0, "rental_uris": {"android": "https://dc.lft.to/lastmile_qr_scan", "ios": "https://dc.lft.to/lastmile_qr_scan"}, "fusion_lon": 0.0}, {"lat": 38.8874885, "is_disabled": 0, "type": "electric_scooter", "lon": -77.03230033333334, "bike_id": "6efa79254c8d79d64c76ebbeab809856", "fusion_lat": 0.0, "name": "6efa79254c8d79d64c76ebbeab809856", "is_reserved": 0, "rental_uris": {"android": "https://dc.lft.to/lastmile_qr_scan", "ios": "https://dc.lft.to/lastmile_qr_scan"}, "fusion_lon": 0.0}, {"lat": 38.8656415, "is_disabled": 0, "type": "electric_scooter", "lon": -76.9740305, "bike_id": "27b39210e962e1b92254017de698103e", "fusion_lat": 0.0, "name": "27b39210e962e1b92254017de698103e", "is_reserved": 0, "rental_uris": {"android": "https://dc.lft.to/lastmile_qr_scan", "ios": "https://dc.lft.to/lastmile_qr_scan"}, "fusion_lon": 0.0}, {"lat": 38.95356266666667, "is_disabled": 0, "type": "electric_bike", "lon": -76.98095533333333, "bike_id": "861bf581ea49068a598aa02c4d3a9f8f", "fusion_lat": 0.0, "name": "861bf581ea49068a598aa02c4d3a9f8f", "is_reserved": 0, "rental_uris": {"android": "https://dc.lft.to/lastmile_qr_scan", "ios": "https://dc.lft.to/lastmile_qr_scan"}, "fusion_lon": 0.0}, {"lat": 38.8976645, "is_disabled": 0, "type": "electric_scooter", "lon": -77.02694416666667, "bike_id": "44c33638da4ebaee3a0197463f403838", "fusion_lat": 0.0, "name": "44c33638da4ebaee3a0197463f403838", "is_reserved": 0, "rental_uris": {"android": "https://dc.lft.to/lastmile_qr_scan", "ios": "https://dc.lft.to/lastmile_qr_scan"}, "fusion_lon": 0.0}, {"lat": 38.910993500000004, "is_disabled": 0, "type": "electric_scooter", "lon": -77.03187266666667, "bike_id": "a329a5be200221e8bde0a86b1e51a07d", "fusion_lat": 0.0, "name": "a329a5be200221e8bde0a86b1e51a07d", "is_reserved": 0, "rental_uris": {"android": "https://dc.lft.to/lastmile_qr_scan", "ios": "https://dc.lft.to/lastmile_qr_scan"}, "fusion_lon": 0.0}, {"lat": 38.941748833333335, "is_disabled": 0, "type": "electric_scooter", "lon": -77.04138716666667, "bike_id": "d79b8ef7ce1d28f5b3ccc253fc7eb456", "fusion_lat": 0.0, "name": "d79b8ef7ce1d28f5b3ccc253fc7eb456", "is_reserved": 0, "rental_uris": {"android": "https://dc.lft.to/lastmile_qr_scan", "ios": "https://dc.lft.to/lastmile_qr_scan"}, "fusion_lon": 0.0}, {"lat": 38.908055833333336, "is_disabled": 0, "type": "electric_scooter", "lon": -77.04319283333334, "bike_id": "46021d2ea92cde1d37b4a28f7834088b", "fusion_lat": 0.0, "name": "46021d2ea92cde1d37b4a28f7834088b", "is_reserved": 0, "rental_uris": {"android": "https://dc.lft.to/lastmile_qr_scan", "ios": "https://dc.lft.to/lastmile_qr_scan"}, "fusion_lon": 0.0}, {"lat": 38.91790566666667, "is_disabled": 0, "type": "electric_scooter", "lon": -77.0229, "bike_id": "5ae8406c5e2b1e43fe7c244501ecdd52", "fusion_lat": 0.0, "name": "5ae8406c5e2b1e43fe7c244501ecdd52", "is_reserved": 0, "rental_uris": {"android": "https://dc.lft.to/lastmile_qr_scan", "ios": "https://dc.lft.to/lastmile_qr_scan"}, "fusion_lon": 0.0}, {"lat": 38.89223533333333, "is_disabled": 0, "type": "electric_scooter", "lon": -77.02779016666666, "bike_id": "80e2a3c75ad095ea40ace9aae4834b07", "fusion_lat": 0.0, "name": "80e2a3c75ad095ea40ace9aae4834b07", "is_reserved": 0, "rental_uris": {"android": "https://dc.lft.to/lastmile_qr_scan", "ios": "https://dc.lft.to/lastmile_qr_scan"}, "fusion_lon": 0.0}, {"lat": 38.905998833333335, "is_disabled": 0, "type": "electric_scooter", "lon": -77.01629683333333, "bike_id": "8fbbb5b1f64525669065a837d4af89d3", "fusion_lat": 0.0, "name": "8fbbb5b1f64525669065a837d4af89d3", "is_reserved": 0, "rental_uris": {"android": "https://dc.lft.to/lastmile_qr_scan", "ios": "https://dc.lft.to/lastmile_qr_scan"}, "fusion_lon": 0.0}, {"lat": 38.89338683333333, "is_disabled": 0, "type": "electric_scooter", "lon": -76.99160883333333, "bike_id": "c34a658ec6dc743fb24f968e78a1d398", "fusion_lat": 0.0, "name": "c34a658ec6dc743fb24f968e78a1d398", "is_reserved": 0, "rental_uris": {"android": "https://dc.lft.to/lastmile_qr_scan", "ios": "https://dc.lft.to/lastmile_qr_scan"}, "fusion_lon": 0.0}, {"lat": 38.915721833333336, "is_disabled": 0, "type": "electric_scooter", "lon": -77.03148333333333, "bike_id": "89961bad4f37f6ee468eb3ea53d82528", "fusion_lat": 0.0, "name": "89961bad4f37f6ee468eb3ea53d82528", "is_reserved": 0, "rental_uris": {"android": "https://dc.lft.to/lastmile_qr_scan", "ios": "https://dc.lft.to/lastmile_qr_scan"}, "fusion_lon": 0.0}, {"lat": 38.91815733333333, "is_disabled": 0, "type": "electric_scooter", "lon": -77.03196966666667, "bike_id": "5bf5299a76cb18c26d7f6d68399c40b0", "fusion_lat": 0.0, "name": "5bf5299a76cb18c26d7f6d68399c40b0", "is_reserved": 0, "rental_uris": {"android": "https://dc.lft.to/lastmile_qr_scan", "ios": "https://dc.lft.to/lastmile_qr_scan"}, "fusion_lon": 0.0}, {"lat": 38.901964166666666, "is_disabled": 0, "type": "electric_scooter", "lon": -76.98222033333333, "bike_id": "bd836b3e548752f06e9d9a4c5243e983", "fusion_lat": 0.0, "name": "bd836b3e548752f06e9d9a4c5243e983", "is_reserved": 0, "rental_uris": {"android": "https://dc.lft.to/lastmile_qr_scan", "ios": "https://dc.lft.to/lastmile_qr_scan"}, "fusion_lon": 0.0}, {"lat": 38.93526466666667, "is_disabled": 0, "type": "electric_scooter", "lon": -77.072987, "bike_id": "f9d81688174dad1b5675ebf943211577", "fusion_lat": 0.0, "name": "f9d81688174dad1b5675ebf943211577", "is_reserved": 0, "rental_uris": {"android": "https://dc.lft.to/lastmile_qr_scan", "ios": "https://dc.lft.to/lastmile_qr_scan"}, "fusion_lon": 0.0}, {"lat": 38.87919083333333, "is_disabled": 0, "type": "electric_scooter", "lon": -77.03102333333334, "bike_id": "92a3146a708df21935a602829d93aeda", "fusion_lat": 0.0, "name": "92a3146a708df21935a602829d93aeda", "is_reserved": 0, "rental_uris": {"android": "https://dc.lft.to/lastmile_qr_scan", "ios": "https://dc.lft.to/lastmile_qr_scan"}, "fusion_lon": 0.0}, {"lat": 38.902776, "is_disabled": 0, "type": "electric_scooter", "lon": -77.03858933333333, "bike_id": "55ff0a701b74c0cef88630af433c4872", "fusion_lat": 0.0, "name": "55ff0a701b74c0cef88630af433c4872", "is_reserved": 0, "rental_uris": {"android": "https://dc.lft.to/lastmile_qr_scan", "ios": "https://dc.lft.to/lastmile_qr_scan"}, "fusion_lon": 0.0}, {"lat": 38.90811766666667, "is_disabled": 0, "type": "electric_scooter", "lon": -77.04337366666667, "bike_id": "d592846c54767ceab7bd757232c6daae", "fusion_lat": 0.0, "name": "d592846c54767ceab7bd757232c6daae", "is_reserved": 0, "rental_uris": {"android": "https://dc.lft.to/lastmile_qr_scan", "ios": "https://dc.lft.to/lastmile_qr_scan"}, "fusion_lon": 0.0}, {"lat": 38.8921995, "is_disabled": 0, "type": "electric_scooter", "lon": -77.02225816666666, "bike_id": "ee92e9aa7292482934c86aba38befc05", "fusion_lat": 0.0, "name": "ee92e9aa7292482934c86aba38befc05", "is_reserved": 0, "rental_uris": {"android": "https://dc.lft.to/lastmile_qr_scan", "ios": "https://dc.lft.to/lastmile_qr_scan"}, "fusion_lon": 0.0}, {"lat": 38.908691, "is_disabled": 0, "type": "electric_scooter", "lon": -77.03559316666667, "bike_id": "b1c332301f12fdc0d58d5e08122a921b", "fusion_lat": 0.0, "name": "b1c332301f12fdc0d58d5e08122a921b", "is_reserved": 0, "rental_uris": {"android": "https://dc.lft.to/lastmile_qr_scan", "ios": "https://dc.lft.to/lastmile_qr_scan"}, "fusion_lon": 0.0}, {"lat": 38.901978166666666, "is_disabled": 0, "type": "electric_scooter", "lon": -77.02184316666667, "bike_id": "25294f002438749a6fd59c50d26cb8b9", "fusion_lat": 0.0, "name": "25294f002438749a6fd59c50d26cb8b9", "is_reserved": 0, "rental_uris": {"android": "https://dc.lft.to/lastmile_qr_scan", "ios": "https://dc.lft.to/lastmile_qr_scan"}, "fusion_lon": 0.0}, {"lat": 38.90587333333333, "is_disabled": 0, "type": "electric_scooter", "lon": -77.00567116666667, "bike_id": "015914dfc7bc54a0885a00d743ec9ed7", "fusion_lat": 0.0, "name": "015914dfc7bc54a0885a00d743ec9ed7", "is_reserved": 0, "rental_uris": {"android": "https://dc.lft.to/lastmile_qr_scan", "ios": "https://dc.lft.to/lastmile_qr_scan"}, "fusion_lon": 0.0}, {"lat": 38.8520815, "is_disabled": 0, "type": "electric_bike", "lon": -77.101253, "bike_id": "718c8924fc38f8e6a278713255bdba8a", "fusion_lat": 0.0, "name": "718c8924fc38f8e6a278713255bdba8a", "is_reserved": 0, "rental_uris": {"android": "https://dc.lft.to/lastmile_qr_scan", "ios": "https://dc.lft.to/lastmile_qr_scan"}, "fusion_lon": 0.0}, {"lat": 38.89968016666667, "is_disabled": 0, "type": "electric_scooter", "lon": -77.025678, "bike_id": "e22ff6007031dc49576e6d3e80b57214", "fusion_lat": 0.0, "name": "e22ff6007031dc49576e6d3e80b57214", "is_reserved": 0, "rental_uris": {"android": "https://dc.lft.to/lastmile_qr_scan", "ios": "https://dc.lft.to/lastmile_qr_scan"}, "fusion_lon": 0.0}, {"lat": 38.8840615, "is_disabled": 0, "type": "electric_bike", "lon": -76.96066816666666, "bike_id": "de8b3b4a0d8bc156aa44ac3301f8c441", "fusion_lat": 0.0, "name": "de8b3b4a0d8bc156aa44ac3301f8c441", "is_reserved": 0, "rental_uris": {"android": "https://dc.lft.to/lastmile_qr_scan", "ios": "https://dc.lft.to/lastmile_qr_scan"}, "fusion_lon": 0.0}, {"lat": 38.970869, "is_disabled": 0, "type": "electric_bike", "lon": -77.06967466666667, "bike_id": "e94127743dc9674cc3531e5fa5a66d06", "fusion_lat": 0.0, "name": "e94127743dc9674cc3531e5fa5a66d06", "is_reserved": 0, "rental_uris": {"android": "https://dc.lft.to/lastmile_qr_scan", "ios": "https://dc.lft.to/lastmile_qr_scan"}, "fusion_lon": 0.0}, {"lat": 38.9118655, "is_disabled": 0, "type": "electric_scooter", "lon": -77.04027066666667, "bike_id": "66b1c664f2eac46bfa4c20f6c305e266", "fusion_lat": 0.0, "name": "66b1c664f2eac46bfa4c20f6c305e266", "is_reserved": 0, "rental_uris": {"android": "https://dc.lft.to/lastmile_qr_scan", "ios": "https://dc.lft.to/lastmile_qr_scan"}, "fusion_lon": 0.0}, {"lat": 38.89874483333333, "is_disabled": 0, "type": "electric_scooter", "lon": -76.93183366666666, "bike_id": "d640a2154afa185152610895620882d9", "fusion_lat": 0.0, "name": "d640a2154afa185152610895620882d9", "is_reserved": 0, "rental_uris": {"android": "https://dc.lft.to/lastmile_qr_scan", "ios": "https://dc.lft.to/lastmile_qr_scan"}, "fusion_lon": 0.0}, {"lat": 38.92616866666667, "is_disabled": 0, "type": "electric_scooter", "lon": -77.02163416666667, "bike_id": "8e1ad30610688add307b7c148cce1b67", "fusion_lat": 0.0, "name": "8e1ad30610688add307b7c148cce1b67", "is_reserved": 0, "rental_uris": {"android": "https://dc.lft.to/lastmile_qr_scan", "ios": "https://dc.lft.to/lastmile_qr_scan"}, "fusion_lon": 0.0}, {"lat": 38.9056675, "is_disabled": 0, "type": "electric_scooter", "lon": -77.02187583333334, "bike_id": "3505b807088dd7a236390b365d07657b", "fusion_lat": 0.0, "name": "3505b807088dd7a236390b365d07657b", "is_reserved": 0, "rental_uris": {"android": "https://dc.lft.to/lastmile_qr_scan", "ios": "https://dc.lft.to/lastmile_qr_scan"}, "fusion_lon": 0.0}, {"lat": 38.914229, "is_disabled": 0, "type": "electric_scooter", "lon": -77.02203216666666, "bike_id": "da6403716c2c328ca14f6dba2fafbea3", "fusion_lat": 0.0, "name": "da6403716c2c328ca14f6dba2fafbea3", "is_reserved": 0, "rental_uris": {"android": "https://dc.lft.to/lastmile_qr_scan", "ios": "https://dc.lft.to/lastmile_qr_scan"}, "fusion_lon": 0.0}, {"lat": 38.9181925, "is_disabled": 0, "type": "electric_scooter", "lon": -77.03911566666666, "bike_id": "aa618988ed07f66870952b9130c2b581", "fusion_lat": 0.0, "name": "aa618988ed07f66870952b9130c2b581", "is_reserved": 0, "rental_uris": {"android": "https://dc.lft.to/lastmile_qr_scan", "ios": "https://dc.lft.to/lastmile_qr_scan"}, "fusion_lon": 0.0}, {"lat": 38.99624566666667, "is_disabled": 0, "type": "electric_bike", "lon": -77.02982433333334, "bike_id": "6105e589e56c03c122f9dbaf9d37b6bc", "fusion_lat": 0.0, "name": "6105e589e56c03c122f9dbaf9d37b6bc", "is_reserved": 0, "rental_uris": {"android": "https://dc.lft.to/lastmile_qr_scan", "ios": "https://dc.lft.to/lastmile_qr_scan"}, "fusion_lon": 0.0}, {"lat": 38.90816616666667, "is_disabled": 0, "type": "electric_scooter", "lon": -77.04353566666667, "bike_id": "28f90a4d0003ca627156808cdb099ce6", "fusion_lat": 0.0, "name": "28f90a4d0003ca627156808cdb099ce6", "is_reserved": 0, "rental_uris": {"android": "https://dc.lft.to/lastmile_qr_scan", "ios": "https://dc.lft.to/lastmile_qr_scan"}, "fusion_lon": 0.0}, {"lat": 38.90372466666667, "is_disabled": 0, "type": "electric_scooter", "lon": -77.0399175, "bike_id": "1d60640f7d1fe15a31f87f6580a632ff", "fusion_lat": 0.0, "name": "1d60640f7d1fe15a31f87f6580a632ff", "is_reserved": 0, "rental_uris": {"android": "https://dc.lft.to/lastmile_qr_scan", "ios": "https://dc.lft.to/lastmile_qr_scan"}, "fusion_lon": 0.0}, {"lat": 38.907370666666665, "is_disabled": 0, "type": "electric_scooter", "lon": -77.027117, "bike_id": "cdcd44bf1271f3214347adfb72556b4e", "fusion_lat": 0.0, "name": "cdcd44bf1271f3214347adfb72556b4e", "is_reserved": 0, "rental_uris": {"android": "https://dc.lft.to/lastmile_qr_scan", "ios": "https://dc.lft.to/lastmile_qr_scan"}, "fusion_lon": 0.0}, {"lat": 38.9156415, "is_disabled": 0, "type": "electric_scooter", "lon": -77.029829, "bike_id": "9ec0e0e62cd8b65d325ad3accc10ba3a", "fusion_lat": 0.0, "name": "9ec0e0e62cd8b65d325ad3accc10ba3a", "is_reserved": 0, "rental_uris": {"android": "https://dc.lft.to/lastmile_qr_scan", "ios": "https://dc.lft.to/lastmile_qr_scan"}, "fusion_lon": 0.0}, {"lat": 38.91733083333333, "is_disabled": 0, "type": "electric_scooter", "lon": -77.03660883333333, "bike_id": "9f708b84af85b29d343ee29e9554e580", "fusion_lat": 0.0, "name": "9f708b84af85b29d343ee29e9554e580", "is_reserved": 0, "rental_uris": {"android": "https://dc.lft.to/lastmile_qr_scan", "ios": "https://dc.lft.to/lastmile_qr_scan"}, "fusion_lon": 0.0}, {"lat": 38.90734333333333, "is_disabled": 0, "type": "electric_scooter", "lon": -77.02807716666666, "bike_id": "710d1015da10df38738419cf8835955e", "fusion_lat": 0.0, "name": "710d1015da10df38738419cf8835955e", "is_reserved": 0, "rental_uris": {"android": "https://dc.lft.to/lastmile_qr_scan", "ios": "https://dc.lft.to/lastmile_qr_scan"}, "fusion_lon": 0.0}, {"lat": 38.9331745, "is_disabled": 0, "type": "electric_scooter", "lon": -77.04521816666667, "bike_id": "016044cc6568025e7a044856e455a28a", "fusion_lat": 0.0, "name": "016044cc6568025e7a044856e455a28a", "is_reserved": 0, "rental_uris": {"android": "https://dc.lft.to/lastmile_qr_scan", "ios": "https://dc.lft.to/lastmile_qr_scan"}, "fusion_lon": 0.0}, {"lat": 38.897442833333336, "is_disabled": 0, "type": "electric_scooter", "lon": -77.00075966666667, "bike_id": "815c8db596a1775eab02c708f498a6fd", "fusion_lat": 0.0, "name": "815c8db596a1775eab02c708f498a6fd", "is_reserved": 0, "rental_uris": {"android": "https://dc.lft.to/lastmile_qr_scan", "ios": "https://dc.lft.to/lastmile_qr_scan"}, "fusion_lon": 0.0}, {"lat": 38.8667455, "is_disabled": 0, "type": "electric_scooter", "lon": -76.98539616666666, "bike_id": "39cd691017b14acb01fe3d9dd2a893e5", "fusion_lat": 0.0, "name": "39cd691017b14acb01fe3d9dd2a893e5", "is_reserved": 0, "rental_uris": {"android": "https://dc.lft.to/lastmile_qr_scan", "ios": "https://dc.lft.to/lastmile_qr_scan"}, "fusion_lon": 0.0}, {"lat": 38.917716, "is_disabled": 0, "type": "electric_scooter", "lon": -77.0229685, "bike_id": "aebfd893a509969513ae518ab47cb167", "fusion_lat": 0.0, "name": "aebfd893a509969513ae518ab47cb167", "is_reserved": 0, "rental_uris": {"android": "https://dc.lft.to/lastmile_qr_scan", "ios": "https://dc.lft.to/lastmile_qr_scan"}, "fusion_lon": 0.0}, {"lat": 38.892232666666665, "is_disabled": 0, "type": "electric_scooter", "lon": -77.04201583333334, "bike_id": "4b72a453ba5c5886ec11ba3b9d019968", "fusion_lat": 0.0, "name": "4b72a453ba5c5886ec11ba3b9d019968", "is_reserved": 0, "rental_uris": {"android": "https://dc.lft.to/lastmile_qr_scan", "ios": "https://dc.lft.to/lastmile_qr_scan"}, "fusion_lon": 0.0}, {"lat": 38.917805333333334, "is_disabled": 0, "type": "electric_scooter", "lon": -77.03658366666667, "bike_id": "ca7f82fe1d845635cb997ca4f67b613d", "fusion_lat": 0.0, "name": "ca7f82fe1d845635cb997ca4f67b613d", "is_reserved": 0, "rental_uris": {"android": "https://dc.lft.to/lastmile_qr_scan", "ios": "https://dc.lft.to/lastmile_qr_scan"}, "fusion_lon": 0.0}, {"lat": 38.913146833333336, "is_disabled": 0, "type": "electric_scooter", "lon": -77.01446583333333, "bike_id": "8e348676499aeaedca30345df691bdc6", "fusion_lat": 0.0, "name": "8e348676499aeaedca30345df691bdc6", "is_reserved": 0, "rental_uris": {"android": "https://dc.lft.to/lastmile_qr_scan", "ios": "https://dc.lft.to/lastmile_qr_scan"}, "fusion_lon": 0.0}, {"lat": 38.89769416666667, "is_disabled": 0, "type": "electric_scooter", "lon": -77.02700083333333, "bike_id": "8c57b29cd0ea010dd6c8360735a243af", "fusion_lat": 0.0, "name": "8c57b29cd0ea010dd6c8360735a243af", "is_reserved": 0, "rental_uris": {"android": "https://dc.lft.to/lastmile_qr_scan", "ios": "https://dc.lft.to/lastmile_qr_scan"}, "fusion_lon": 0.0}, {"lat": 38.87733683333333, "is_disabled": 0, "type": "electric_bike", "lon": -76.98105866666667, "bike_id": "3586f870336a28d073bc00d44aa6bb41", "fusion_lat": 0.0, "name": "3586f870336a28d073bc00d44aa6bb41", "is_reserved": 0, "rental_uris": {"android": "https://dc.lft.to/lastmile_qr_scan", "ios": "https://dc.lft.to/lastmile_qr_scan"}, "fusion_lon": 0.0}, {"lat": 38.909728666666666, "is_disabled": 0, "type": "electric_scooter", "lon": -77.03868933333334, "bike_id": "856db6b5b0dd40eecf3cd9ab7fc01310", "fusion_lat": 0.0, "name": "856db6b5b0dd40eecf3cd9ab7fc01310", "is_reserved": 0, "rental_uris": {"android": "https://dc.lft.to/lastmile_qr_scan", "ios": "https://dc.lft.to/lastmile_qr_scan"}, "fusion_lon": 0.0}, {"lat": 38.89882766666667, "is_disabled": 0, "type": "electric_scooter", "lon": -77.02027016666666, "bike_id": "45909ada935b696aca78d912dbbb6ee0", "fusion_lat": 0.0, "name": "45909ada935b696aca78d912dbbb6ee0", "is_reserved": 0, "rental_uris": {"android": "https://dc.lft.to/lastmile_qr_scan", "ios": "https://dc.lft.to/lastmile_qr_scan"}, "fusion_lon": 0.0}, {"lat": 38.90576883333333, "is_disabled": 0, "type": "electric_scooter", "lon": -77.04866566666666, "bike_id": "7eab36a17f5615666c4264af665ccbac", "fusion_lat": 0.0, "name": "7eab36a17f5615666c4264af665ccbac", "is_reserved": 0, "rental_uris": {"android": "https://dc.lft.to/lastmile_qr_scan", "ios": "https://dc.lft.to/lastmile_qr_scan"}, "fusion_lon": 0.0}, {"lat": 38.92213, "is_disabled": 0, "type": "electric_scooter", "lon": -77.040109, "bike_id": "f574b2f3a71b294a4b6aea2f35a9704b", "fusion_lat": 0.0, "name": "f574b2f3a71b294a4b6aea2f35a9704b", "is_reserved": 0, "rental_uris": {"android": "https://dc.lft.to/lastmile_qr_scan", "ios": "https://dc.lft.to/lastmile_qr_scan"}, "fusion_lon": 0.0}, {"lat": 38.92848566666667, "is_disabled": 0, "type": "electric_scooter", "lon": -77.03318433333334, "bike_id": "f03743a31f23b6a3a5144f65c06eebc7", "fusion_lat": 0.0, "name": "f03743a31f23b6a3a5144f65c06eebc7", "is_reserved": 0, "rental_uris": {"android": "https://dc.lft.to/lastmile_qr_scan", "ios": "https://dc.lft.to/lastmile_qr_scan"}, "fusion_lon": 0.0}, {"lat": 38.914191833333334, "is_disabled": 0, "type": "electric_scooter", "lon": -77.04641066666667, "bike_id": "527141ddd08bb041d85527ece5e41502", "fusion_lat": 0.0, "name": "527141ddd08bb041d85527ece5e41502", "is_reserved": 0, "rental_uris": {"android": "https://dc.lft.to/lastmile_qr_scan", "ios": "https://dc.lft.to/lastmile_qr_scan"}, "fusion_lon": 0.0}, {"lat": 38.9161425, "is_disabled": 0, "type": "electric_scooter", "lon": -77.032467, "bike_id": "5849750cab699ce63dc76ce035a49b2d", "fusion_lat": 0.0, "name": "5849750cab699ce63dc76ce035a49b2d", "is_reserved": 0, "rental_uris": {"android": "https://dc.lft.to/lastmile_qr_scan", "ios": "https://dc.lft.to/lastmile_qr_scan"}, "fusion_lon": 0.0}, {"lat": 38.9161475, "is_disabled": 0, "type": "electric_bike", "lon": -77.00296316666666, "bike_id": "d82925f3150b731fb418fdde9293dc7a", "fusion_lat": 0.0, "name": "d82925f3150b731fb418fdde9293dc7a", "is_reserved": 0, "rental_uris": {"android": "https://dc.lft.to/lastmile_qr_scan", "ios": "https://dc.lft.to/lastmile_qr_scan"}, "fusion_lon": 0.0}, {"lat": 38.871430333333336, "is_disabled": 0, "type": "electric_bike", "lon": -76.93712966666666, "bike_id": "e393b36b8134df3da65ca29180798bf6", "fusion_lat": 0.0, "name": "e393b36b8134df3da65ca29180798bf6", "is_reserved": 0, "rental_uris": {"android": "https://dc.lft.to/lastmile_qr_scan", "ios": "https://dc.lft.to/lastmile_qr_scan"}, "fusion_lon": 0.0}, {"lat": 38.89222266666667, "is_disabled": 0, "type": "electric_scooter", "lon": -77.03167933333333, "bike_id": "f36958f272daf09f40bc9a40097f976f", "fusion_lat": 0.0, "name": "f36958f272daf09f40bc9a40097f976f", "is_reserved": 0, "rental_uris": {"android": "https://dc.lft.to/lastmile_qr_scan", "ios": "https://dc.lft.to/lastmile_qr_scan"}, "fusion_lon": 0.0}, {"lat": 38.887428166666666, "is_disabled": 0, "type": "electric_scooter", "lon": -77.02206766666667, "bike_id": "2a4b5880cd3baf402f6b94d4003ce7a0", "fusion_lat": 0.0, "name": "2a4b5880cd3baf402f6b94d4003ce7a0", "is_reserved": 0, "rental_uris": {"android": "https://dc.lft.to/lastmile_qr_scan", "ios": "https://dc.lft.to/lastmile_qr_scan"}, "fusion_lon": 0.0}, {"lat": 38.868356666666664, "is_disabled": 0, "type": "electric_scooter", "lon": -76.97742083333333, "bike_id": "3a115a7f3cb25ee45db671ca2441390b", "fusion_lat": 0.0, "name": "3a115a7f3cb25ee45db671ca2441390b", "is_reserved": 0, "rental_uris": {"android": "https://dc.lft.to/lastmile_qr_scan", "ios": "https://dc.lft.to/lastmile_qr_scan"}, "fusion_lon": 0.0}, {"lat": 38.89220433333333, "is_disabled": 0, "type": "electric_scooter", "lon": -77.0436835, "bike_id": "04d46acf6961ba5adbaea21aecfa151b", "fusion_lat": 0.0, "name": "04d46acf6961ba5adbaea21aecfa151b", "is_reserved": 0, "rental_uris": {"android": "https://dc.lft.to/lastmile_qr_scan", "ios": "https://dc.lft.to/lastmile_qr_scan"}, "fusion_lon": 0.0}, {"lat": 38.916183833333335, "is_disabled": 0, "type": "electric_scooter", "lon": -77.0486935, "bike_id": "2b0412009a97732db0293e30b3d7783c", "fusion_lat": 0.0, "name": "2b0412009a97732db0293e30b3d7783c", "is_reserved": 0, "rental_uris": {"android": "https://dc.lft.to/lastmile_qr_scan", "ios": "https://dc.lft.to/lastmile_qr_scan"}, "fusion_lon": 0.0}, {"lat": 38.9246795, "is_disabled": 0, "type": "electric_scooter", "lon": -77.02712466666667, "bike_id": "f82b9e3ea81417de83d376152fd524a8", "fusion_lat": 0.0, "name": "f82b9e3ea81417de83d376152fd524a8", "is_reserved": 0, "rental_uris": {"android": "https://dc.lft.to/lastmile_qr_scan", "ios": "https://dc.lft.to/lastmile_qr_scan"}, "fusion_lon": 0.0}, {"lat": 38.9006265, "is_disabled": 0, "type": "electric_scooter", "lon": -77.05088083333334, "bike_id": "b2ffdf9a4dc6345804f548a9c0f24d7c", "fusion_lat": 0.0, "name": "b2ffdf9a4dc6345804f548a9c0f24d7c", "is_reserved": 0, "rental_uris": {"android": "https://dc.lft.to/lastmile_qr_scan", "ios": "https://dc.lft.to/lastmile_qr_scan"}, "fusion_lon": 0.0}, {"lat": 38.90636166666667, "is_disabled": 0, "type": "electric_scooter", "lon": -77.025048, "bike_id": "dcfc380cb5f1832babd64005298398cf", "fusion_lat": 0.0, "name": "dcfc380cb5f1832babd64005298398cf", "is_reserved": 0, "rental_uris": {"android": "https://dc.lft.to/lastmile_qr_scan", "ios": "https://dc.lft.to/lastmile_qr_scan"}, "fusion_lon": 0.0}, {"lat": 38.9126505, "is_disabled": 0, "type": "electric_scooter", "lon": -77.0386695, "bike_id": "b3ed5b16dd33bf6cea76dab60c62cfd9", "fusion_lat": 0.0, "name": "b3ed5b16dd33bf6cea76dab60c62cfd9", "is_reserved": 0, "rental_uris": {"android": "https://dc.lft.to/lastmile_qr_scan", "ios": "https://dc.lft.to/lastmile_qr_scan"}, "fusion_lon": 0.0}, {"lat": 38.87285083333333, "is_disabled": 0, "type": "electric_scooter", "lon": -77.00985816666666, "bike_id": "63bfc07b93f8db5362dacce46475f7e3", "fusion_lat": 0.0, "name": "63bfc07b93f8db5362dacce46475f7e3", "is_reserved": 0, "rental_uris": {"android": "https://dc.lft.to/lastmile_qr_scan", "ios": "https://dc.lft.to/lastmile_qr_scan"}, "fusion_lon": 0.0}, {"lat": 38.903622166666665, "is_disabled": 0, "type": "electric_scooter", "lon": -77.04254416666667, "bike_id": "e50e92bc89fcccfefe13c2f2474778a1", "fusion_lat": 0.0, "name": "e50e92bc89fcccfefe13c2f2474778a1", "is_reserved": 0, "rental_uris": {"android": "https://dc.lft.to/lastmile_qr_scan", "ios": "https://dc.lft.to/lastmile_qr_scan"}, "fusion_lon": 0.0}, {"lat": 38.905721, "is_disabled": 0, "type": "electric_scooter", "lon": -76.99873016666666, "bike_id": "e5a5951ca5001483db80a746f187f85b", "fusion_lat": 0.0, "name": "e5a5951ca5001483db80a746f187f85b", "is_reserved": 0, "rental_uris": {"android": "https://dc.lft.to/lastmile_qr_scan", "ios": "https://dc.lft.to/lastmile_qr_scan"}, "fusion_lon": 0.0}, {"lat": 38.86713566666667, "is_disabled": 0, "type": "electric_scooter", "lon": -76.98725766666666, "bike_id": "d71f5a90e44e488cdd00673a3a0fcd21", "fusion_lat": 0.0, "name": "d71f5a90e44e488cdd00673a3a0fcd21", "is_reserved": 0, "rental_uris": {"android": "https://dc.lft.to/lastmile_qr_scan", "ios": "https://dc.lft.to/lastmile_qr_scan"}, "fusion_lon": 0.0}, {"lat": 38.90945816666667, "is_disabled": 0, "type": "electric_scooter", "lon": -77.03443566666667, "bike_id": "b6e5b0c6f8cca336d3f5654712cc66e9", "fusion_lat": 0.0, "name": "b6e5b0c6f8cca336d3f5654712cc66e9", "is_reserved": 0, "rental_uris": {"android": "https://dc.lft.to/lastmile_qr_scan", "ios": "https://dc.lft.to/lastmile_qr_scan"}, "fusion_lon": 0.0}, {"lat": 38.8922055, "is_disabled": 0, "type": "electric_scooter", "lon": -77.02225966666667, "bike_id": "52e5050f9d0db17d514bce5e5823a83b", "fusion_lat": 0.0, "name": "52e5050f9d0db17d514bce5e5823a83b", "is_reserved": 0, "rental_uris": {"android": "https://dc.lft.to/lastmile_qr_scan", "ios": "https://dc.lft.to/lastmile_qr_scan"}, "fusion_lon": 0.0}, {"lat": 38.865089166666664, "is_disabled": 0, "type": "electric_scooter", "lon": -76.99007633333333, "bike_id": "8e187e5157502abe9be2b9d7c6c70d94", "fusion_lat": 0.0, "name": "8e187e5157502abe9be2b9d7c6c70d94", "is_reserved": 0, "rental_uris": {"android": "https://dc.lft.to/lastmile_qr_scan", "ios": "https://dc.lft.to/lastmile_qr_scan"}, "fusion_lon": 0.0}, {"lat": 38.89221466666667, "is_disabled": 0, "type": "electric_scooter", "lon": -77.02226116666667, "bike_id": "daaa59d1f71d680ce3976d7b9b97ac90", "fusion_lat": 0.0, "name": "daaa59d1f71d680ce3976d7b9b97ac90", "is_reserved": 0, "rental_uris": {"android": "https://dc.lft.to/lastmile_qr_scan", "ios": "https://dc.lft.to/lastmile_qr_scan"}, "fusion_lon": 0.0}, {"lat": 38.87344866666667, "is_disabled": 0, "type": "electric_scooter", "lon": -76.99172616666667, "bike_id": "0999352241f3841086d41d7c7132385e", "fusion_lat": 0.0, "name": "0999352241f3841086d41d7c7132385e", "is_reserved": 0, "rental_uris": {"android": "https://dc.lft.to/lastmile_qr_scan", "ios": "https://dc.lft.to/lastmile_qr_scan"}, "fusion_lon": 0.0}, {"lat": 38.91912266666667, "is_disabled": 0, "type": "electric_scooter", "lon": -77.02594866666666, "bike_id": "c9530657d19cc0fe3fa595654ba204c8", "fusion_lat": 0.0, "name": "c9530657d19cc0fe3fa595654ba204c8", "is_reserved": 0, "rental_uris": {"android": "https://dc.lft.to/lastmile_qr_scan", "ios": "https://dc.lft.to/lastmile_qr_scan"}, "fusion_lon": 0.0}, {"lat": 38.906754666666664, "is_disabled": 0, "type": "electric_scooter", "lon": -77.03827, "bike_id": "6b8eef736df0a54e0332c7fc42614f69", "fusion_lat": 0.0, "name": "6b8eef736df0a54e0332c7fc42614f69", "is_reserved": 0, "rental_uris": {"android": "https://dc.lft.to/lastmile_qr_scan", "ios": "https://dc.lft.to/lastmile_qr_scan"}, "fusion_lon": 0.0}, {"lat": 38.906219, "is_disabled": 0, "type": "electric_scooter", "lon": -77.02188833333334, "bike_id": "cd055fabc2daf2e52e9bb3e3cde61a9f", "fusion_lat": 0.0, "name": "cd055fabc2daf2e52e9bb3e3cde61a9f", "is_reserved": 0, "rental_uris": {"android": "https://dc.lft.to/lastmile_qr_scan", "ios": "https://dc.lft.to/lastmile_qr_scan"}, "fusion_lon": 0.0}, {"lat": 38.88738766666667, "is_disabled": 0, "type": "electric_scooter", "lon": -77.02206766666667, "bike_id": "f1f1f73d14740ccbb10f06bf447aa824", "fusion_lat": 0.0, "name": "f1f1f73d14740ccbb10f06bf447aa824", "is_reserved": 0, "rental_uris": {"android": "https://dc.lft.to/lastmile_qr_scan", "ios": "https://dc.lft.to/lastmile_qr_scan"}, "fusion_lon": 0.0}, {"lat": 38.923635833333336, "is_disabled": 0, "type": "electric_scooter", "lon": -77.05130916666667, "bike_id": "07b5cb948d6c185262fc8d83da1d5714", "fusion_lat": 0.0, "name": "07b5cb948d6c185262fc8d83da1d5714", "is_reserved": 0, "rental_uris": {"android": "https://dc.lft.to/lastmile_qr_scan", "ios": "https://dc.lft.to/lastmile_qr_scan"}, "fusion_lon": 0.0}, {"lat": 38.893926666666665, "is_disabled": 0, "type": "electric_scooter", "lon": -76.94999716666666, "bike_id": "86191344f9b228c1faac6b293ad13a80", "fusion_lat": 0.0, "name": "86191344f9b228c1faac6b293ad13a80", "is_reserved": 0, "rental_uris": {"android": "https://dc.lft.to/lastmile_qr_scan", "ios": "https://dc.lft.to/lastmile_qr_scan"}, "fusion_lon": 0.0}, {"lat": 38.91565416666667, "is_disabled": 0, "type": "electric_scooter", "lon": -77.02005216666667, "bike_id": "3d1e11fd44f90d472cb03d989c4aba0f", "fusion_lat": 0.0, "name": "3d1e11fd44f90d472cb03d989c4aba0f", "is_reserved": 0, "rental_uris": {"android": "https://dc.lft.to/lastmile_qr_scan", "ios": "https://dc.lft.to/lastmile_qr_scan"}, "fusion_lon": 0.0}, {"lat": 38.954152, "is_disabled": 0, "type": "electric_bike", "lon": -76.98056216666667, "bike_id": "072a64b0305dece2d8b366a5e30e7daf", "fusion_lat": 0.0, "name": "072a64b0305dece2d8b366a5e30e7daf", "is_reserved": 0, "rental_uris": {"android": "https://dc.lft.to/lastmile_qr_scan", "ios": "https://dc.lft.to/lastmile_qr_scan"}, "fusion_lon": 0.0}, {"lat": 38.944333666666665, "is_disabled": 0, "type": "electric_scooter", "lon": -77.06342433333333, "bike_id": "9ad2126ab38c7cd9494e93db96ce796b", "fusion_lat": 0.0, "name": "9ad2126ab38c7cd9494e93db96ce796b", "is_reserved": 0, "rental_uris": {"android": "https://dc.lft.to/lastmile_qr_scan", "ios": "https://dc.lft.to/lastmile_qr_scan"}, "fusion_lon": 0.0}, {"lat": 38.90091133333333, "is_disabled": 0, "type": "electric_scooter", "lon": -77.0006345, "bike_id": "35f8e3bc079d4703bcb8b3eba25bbf1d", "fusion_lat": 0.0, "name": "35f8e3bc079d4703bcb8b3eba25bbf1d", "is_reserved": 0, "rental_uris": {"android": "https://dc.lft.to/lastmile_qr_scan", "ios": "https://dc.lft.to/lastmile_qr_scan"}, "fusion_lon": 0.0}, {"lat": 38.905117, "is_disabled": 0, "type": "electric_scooter", "lon": -77.029421, "bike_id": "a72d7a8d0bd8628f413c155cca45b1c1", "fusion_lat": 0.0, "name": "a72d7a8d0bd8628f413c155cca45b1c1", "is_reserved": 0, "rental_uris": {"android": "https://dc.lft.to/lastmile_qr_scan", "ios": "https://dc.lft.to/lastmile_qr_scan"}, "fusion_lon": 0.0}, {"lat": 38.895481333333336, "is_disabled": 0, "type": "electric_scooter", "lon": -77.00919483333334, "bike_id": "016bd7707a1ee6b0dfafc16feb21f667", "fusion_lat": 0.0, "name": "016bd7707a1ee6b0dfafc16feb21f667", "is_reserved": 0, "rental_uris": {"android": "https://dc.lft.to/lastmile_qr_scan", "ios": "https://dc.lft.to/lastmile_qr_scan"}, "fusion_lon": 0.0}, {"lat": 38.898925166666665, "is_disabled": 0, "type": "electric_scooter", "lon": -76.933615, "bike_id": "42cdd659b8da5ca8fe6c9f9a3cd6813c", "fusion_lat": 0.0, "name": "42cdd659b8da5ca8fe6c9f9a3cd6813c", "is_reserved": 0, "rental_uris": {"android": "https://dc.lft.to/lastmile_qr_scan", "ios": "https://dc.lft.to/lastmile_qr_scan"}, "fusion_lon": 0.0}, {"lat": 38.897031, "is_disabled": 0, "type": "electric_scooter", "lon": -77.04871933333334, "bike_id": "ff221ecd113160418264f880f80e9e55", "fusion_lat": 0.0, "name": "ff221ecd113160418264f880f80e9e55", "is_reserved": 0, "rental_uris": {"android": "https://dc.lft.to/lastmile_qr_scan", "ios": "https://dc.lft.to/lastmile_qr_scan"}, "fusion_lon": 0.0}, {"lat": 38.89702116666667, "is_disabled": 0, "type": "electric_scooter", "lon": -77.008372, "bike_id": "bb623458c954f911969bbc8bf5af8f08", "fusion_lat": 0.0, "name": "bb623458c954f911969bbc8bf5af8f08", "is_reserved": 0, "rental_uris": {"android": "https://dc.lft.to/lastmile_qr_scan", "ios": "https://dc.lft.to/lastmile_qr_scan"}, "fusion_lon": 0.0}, {"lat": 38.922487333333336, "is_disabled": 0, "type": "electric_scooter", "lon": -77.03138466666667, "bike_id": "3c15d3d65cee8df33a781e3e368f0de3", "fusion_lat": 0.0, "name": "3c15d3d65cee8df33a781e3e368f0de3", "is_reserved": 0, "rental_uris": {"android": "https://dc.lft.to/lastmile_qr_scan", "ios": "https://dc.lft.to/lastmile_qr_scan"}, "fusion_lon": 0.0}, {"lat": 38.91186233333333, "is_disabled": 0, "type": "electric_scooter", "lon": -77.0108185, "bike_id": "efe0ff1d3f0e486bf9b104ba47b4dfbf", "fusion_lat": 0.0, "name": "efe0ff1d3f0e486bf9b104ba47b4dfbf", "is_reserved": 0, "rental_uris": {"android": "https://dc.lft.to/lastmile_qr_scan", "ios": "https://dc.lft.to/lastmile_qr_scan"}, "fusion_lon": 0.0}, {"lat": 38.9023855, "is_disabled": 0, "type": "electric_scooter", "lon": -77.001966, "bike_id": "3835e8984ac008f76d93cedebf27f29b", "fusion_lat": 0.0, "name": "3835e8984ac008f76d93cedebf27f29b", "is_reserved": 0, "rental_uris": {"android": "https://dc.lft.to/lastmile_qr_scan", "ios": "https://dc.lft.to/lastmile_qr_scan"}, "fusion_lon": 0.0}, {"lat": 38.925748666666664, "is_disabled": 0, "type": "electric_scooter", "lon": -77.02836533333333, "bike_id": "511385a6bff27469f8233ea6fdce8665", "fusion_lat": 0.0, "name": "511385a6bff27469f8233ea6fdce8665", "is_reserved": 0, "rental_uris": {"android": "https://dc.lft.to/lastmile_qr_scan", "ios": "https://dc.lft.to/lastmile_qr_scan"}, "fusion_lon": 0.0}, {"lat": 38.932612166666665, "is_disabled": 0, "type": "electric_scooter", "lon": -77.0346855, "bike_id": "6969c0130183678a071839e52ade08e2", "fusion_lat": 0.0, "name": "6969c0130183678a071839e52ade08e2", "is_reserved": 0, "rental_uris": {"android": "https://dc.lft.to/lastmile_qr_scan", "ios": "https://dc.lft.to/lastmile_qr_scan"}, "fusion_lon": 0.0}, {"lat": 38.9301745, "is_disabled": 0, "type": "electric_scooter", "lon": -77.04456316666666, "bike_id": "5f16ecacc86d73df8db8ba3a7d749856", "fusion_lat": 0.0, "name": "5f16ecacc86d73df8db8ba3a7d749856", "is_reserved": 0, "rental_uris": {"android": "https://dc.lft.to/lastmile_qr_scan", "ios": "https://dc.lft.to/lastmile_qr_scan"}, "fusion_lon": 0.0}, {"lat": 38.914101333333335, "is_disabled": 0, "type": "electric_scooter", "lon": -77.03154833333333, "bike_id": "7d6dbec852430271c8c5f4462b2c502a", "fusion_lat": 0.0, "name": "7d6dbec852430271c8c5f4462b2c502a", "is_reserved": 0, "rental_uris": {"android": "https://dc.lft.to/lastmile_qr_scan", "ios": "https://dc.lft.to/lastmile_qr_scan"}, "fusion_lon": 0.0}, {"lat": 38.9215565, "is_disabled": 0, "type": "electric_scooter", "lon": -77.03513866666667, "bike_id": "db8c73d73606cf6aa506d50842c4ec72", "fusion_lat": 0.0, "name": "db8c73d73606cf6aa506d50842c4ec72", "is_reserved": 0, "rental_uris": {"android": "https://dc.lft.to/lastmile_qr_scan", "ios": "https://dc.lft.to/lastmile_qr_scan"}, "fusion_lon": 0.0}, {"lat": 38.9435455, "is_disabled": 0, "type": "electric_scooter", "lon": -77.00212716666667, "bike_id": "eceeb587d8add213c8f0d6a6a4e6ecd0", "fusion_lat": 0.0, "name": "eceeb587d8add213c8f0d6a6a4e6ecd0", "is_reserved": 0, "rental_uris": {"android": "https://dc.lft.to/lastmile_qr_scan", "ios": "https://dc.lft.to/lastmile_qr_scan"}, "fusion_lon": 0.0}, {"lat": 38.919150333333334, "is_disabled": 0, "type": "electric_scooter", "lon": -77.03178216666667, "bike_id": "4eed3f9e27150dbc54f257a3a81ea258", "fusion_lat": 0.0, "name": "4eed3f9e27150dbc54f257a3a81ea258", "is_reserved": 0, "rental_uris": {"android": "https://dc.lft.to/lastmile_qr_scan", "ios": "https://dc.lft.to/lastmile_qr_scan"}, "fusion_lon": 0.0}, {"lat": 38.965114, "is_disabled": 0, "type": "electric_bike", "lon": -77.02827333333333, "bike_id": "5c3bda8d653ed2048e9cb2b065a1b980", "fusion_lat": 0.0, "name": "5c3bda8d653ed2048e9cb2b065a1b980", "is_reserved": 0, "rental_uris": {"android": "https://dc.lft.to/lastmile_qr_scan", "ios": "https://dc.lft.to/lastmile_qr_scan"}, "fusion_lon": 0.0}, {"lat": 38.95884983333333, "is_disabled": 0, "type": "electric_bike", "lon": -76.92493433333334, "bike_id": "d6a420ee14e3e1deeadd9f9adbfa42ec", "fusion_lat": 0.0, "name": "d6a420ee14e3e1deeadd9f9adbfa42ec", "is_reserved": 0, "rental_uris": {"android": "https://dc.lft.to/lastmile_qr_scan", "ios": "https://dc.lft.to/lastmile_qr_scan"}, "fusion_lon": 0.0}, {"lat": 38.934104166666664, "is_disabled": 0, "type": "electric_scooter", "lon": -77.03293283333333, "bike_id": "a49bed1a2081171794e4e5b08a4d53fa", "fusion_lat": 0.0, "name": "a49bed1a2081171794e4e5b08a4d53fa", "is_reserved": 0, "rental_uris": {"android": "https://dc.lft.to/lastmile_qr_scan", "ios": "https://dc.lft.to/lastmile_qr_scan"}, "fusion_lon": 0.0}, {"lat": 38.9206285, "is_disabled": 0, "type": "electric_scooter", "lon": -77.07885933333333, "bike_id": "8f97171a5629af489549ce998ea252da", "fusion_lat": 0.0, "name": "8f97171a5629af489549ce998ea252da", "is_reserved": 0, "rental_uris": {"android": "https://dc.lft.to/lastmile_qr_scan", "ios": "https://dc.lft.to/lastmile_qr_scan"}, "fusion_lon": 0.0}, {"lat": 38.883636333333335, "is_disabled": 0, "type": "electric_scooter", "lon": -76.94155583333334, "bike_id": "b357d7619ec28600065790652bc040e6", "fusion_lat": 0.0, "name": "b357d7619ec28600065790652bc040e6", "is_reserved": 0, "rental_uris": {"android": "https://dc.lft.to/lastmile_qr_scan", "ios": "https://dc.lft.to/lastmile_qr_scan"}, "fusion_lon": 0.0}, {"lat": 38.92537883333333, "is_disabled": 0, "type": "electric_scooter", "lon": -77.02628333333334, "bike_id": "63e6fb5a96423535e55e112acdbf26bf", "fusion_lat": 0.0, "name": "63e6fb5a96423535e55e112acdbf26bf", "is_reserved": 0, "rental_uris": {"android": "https://dc.lft.to/lastmile_qr_scan", "ios": "https://dc.lft.to/lastmile_qr_scan"}, "fusion_lon": 0.0}, {"lat": 38.93609083333333, "is_disabled": 0, "type": "electric_scooter", "lon": -77.05860783333334, "bike_id": "f9db96e769460037fe56ab6823f033c5", "fusion_lat": 0.0, "name": "f9db96e769460037fe56ab6823f033c5", "is_reserved": 0, "rental_uris": {"android": "https://dc.lft.to/lastmile_qr_scan", "ios": "https://dc.lft.to/lastmile_qr_scan"}, "fusion_lon": 0.0}, {"lat": 38.90982133333333, "is_disabled": 0, "type": "electric_scooter", "lon": -77.03179583333333, "bike_id": "4670edcea1c5aa061883739a392c724f", "fusion_lat": 0.0, "name": "4670edcea1c5aa061883739a392c724f", "is_reserved": 0, "rental_uris": {"android": "https://dc.lft.to/lastmile_qr_scan", "ios": "https://dc.lft.to/lastmile_qr_scan"}, "fusion_lon": 0.0}, {"lat": 38.916841, "is_disabled": 0, "type": "electric_scooter", "lon": -77.002004, "bike_id": "7c9312d38767e8d5bf1a591fb4253ea8", "fusion_lat": 0.0, "name": "7c9312d38767e8d5bf1a591fb4253ea8", "is_reserved": 0, "rental_uris": {"android": "https://dc.lft.to/lastmile_qr_scan", "ios": "https://dc.lft.to/lastmile_qr_scan"}, "fusion_lon": 0.0}, {"lat": 38.9077565, "is_disabled": 0, "type": "electric_scooter", "lon": -77.03864766666666, "bike_id": "e1475d8a2d9d020f80bfa5d02ef68406", "fusion_lat": 0.0, "name": "e1475d8a2d9d020f80bfa5d02ef68406", "is_reserved": 0, "rental_uris": {"android": "https://dc.lft.to/lastmile_qr_scan", "ios": "https://dc.lft.to/lastmile_qr_scan"}, "fusion_lon": 0.0}, {"lat": 38.82782183333333, "is_disabled": 0, "type": "electric_bike", "lon": -77.00917616666666, "bike_id": "2de2445fca1549d4027b8a17016ddbc5", "fusion_lat": 0.0, "name": "2de2445fca1549d4027b8a17016ddbc5", "is_reserved": 0, "rental_uris": {"android": "https://dc.lft.to/lastmile_qr_scan", "ios": "https://dc.lft.to/lastmile_qr_scan"}, "fusion_lon": 0.0}, {"lat": 38.91919216666667, "is_disabled": 0, "type": "electric_scooter", "lon": -77.03389333333334, "bike_id": "e910b5e89e624bb70478e3551f3c5414", "fusion_lat": 0.0, "name": "e910b5e89e624bb70478e3551f3c5414", "is_reserved": 0, "rental_uris": {"android": "https://dc.lft.to/lastmile_qr_scan", "ios": "https://dc.lft.to/lastmile_qr_scan"}, "fusion_lon": 0.0}, {"lat": 38.98652233333333, "is_disabled": 0, "type": "electric_bike", "lon": -77.056357, "bike_id": "0a42f53d0040bfc8700faadcf4d614b9", "fusion_lat": 0.0, "name": "0a42f53d0040bfc8700faadcf4d614b9", "is_reserved": 0, "rental_uris": {"android": "https://dc.lft.to/lastmile_qr_scan", "ios": "https://dc.lft.to/lastmile_qr_scan"}, "fusion_lon": 0.0}, {"lat": 38.913558, "is_disabled": 0, "type": "electric_scooter", "lon": -77.045989, "bike_id": "a2a548c6b723465f8c9a577d8753a4ee", "fusion_lat": 0.0, "name": "a2a548c6b723465f8c9a577d8753a4ee", "is_reserved": 0, "rental_uris": {"android": "https://dc.lft.to/lastmile_qr_scan", "ios": "https://dc.lft.to/lastmile_qr_scan"}, "fusion_lon": 0.0}, {"lat": 38.922005666666664, "is_disabled": 0, "type": "electric_scooter", "lon": -77.03981933333333, "bike_id": "9eaf3be6c0b3df93741ee71615827494", "fusion_lat": 0.0, "name": "9eaf3be6c0b3df93741ee71615827494", "is_reserved": 0, "rental_uris": {"android": "https://dc.lft.to/lastmile_qr_scan", "ios": "https://dc.lft.to/lastmile_qr_scan"}, "fusion_lon": 0.0}, {"lat": 38.84426533333333, "is_disabled": 0, "type": "electric_scooter", "lon": -76.9978255, "bike_id": "cbb39aa81225e2a1d4f7928614d9e041", "fusion_lat": 0.0, "name": "cbb39aa81225e2a1d4f7928614d9e041", "is_reserved": 0, "rental_uris": {"android": "https://dc.lft.to/lastmile_qr_scan", "ios": "https://dc.lft.to/lastmile_qr_scan"}, "fusion_lon": 0.0}, {"lat": 38.90563683333333, "is_disabled": 0, "type": "electric_scooter", "lon": -77.04350033333333, "bike_id": "b18172c5f83d647276860619bcf37b58", "fusion_lat": 0.0, "name": "b18172c5f83d647276860619bcf37b58", "is_reserved": 0, "rental_uris": {"android": "https://dc.lft.to/lastmile_qr_scan", "ios": "https://dc.lft.to/lastmile_qr_scan"}, "fusion_lon": 0.0}, {"lat": 38.91473966666667, "is_disabled": 0, "type": "electric_scooter", "lon": -77.00346116666667, "bike_id": "2a1dda28234c948c089d56eb6ba95efd", "fusion_lat": 0.0, "name": "2a1dda28234c948c089d56eb6ba95efd", "is_reserved": 0, "rental_uris": {"android": "https://dc.lft.to/lastmile_qr_scan", "ios": "https://dc.lft.to/lastmile_qr_scan"}, "fusion_lon": 0.0}, {"lat": 38.92482483333333, "is_disabled": 0, "type": "electric_scooter", "lon": -77.02828366666667, "bike_id": "7b69f7b58b507786fa3368ba4e345c83", "fusion_lat": 0.0, "name": "7b69f7b58b507786fa3368ba4e345c83", "is_reserved": 0, "rental_uris": {"android": "https://dc.lft.to/lastmile_qr_scan", "ios": "https://dc.lft.to/lastmile_qr_scan"}, "fusion_lon": 0.0}, {"lat": 38.90772066666667, "is_disabled": 0, "type": "electric_scooter", "lon": -77.03862483333333, "bike_id": "e691afe2b79d65ee1a81a0b5271cbcb2", "fusion_lat": 0.0, "name": "e691afe2b79d65ee1a81a0b5271cbcb2", "is_reserved": 0, "rental_uris": {"android": "https://dc.lft.to/lastmile_qr_scan", "ios": "https://dc.lft.to/lastmile_qr_scan"}, "fusion_lon": 0.0}, {"lat": 38.888312, "is_disabled": 0, "type": "electric_scooter", "lon": -76.99413633333333, "bike_id": "a70c95e22ce152cdc65e7a6ac98b4cb2", "fusion_lat": 0.0, "name": "a70c95e22ce152cdc65e7a6ac98b4cb2", "is_reserved": 0, "rental_uris": {"android": "https://dc.lft.to/lastmile_qr_scan", "ios": "https://dc.lft.to/lastmile_qr_scan"}, "fusion_lon": 0.0}, {"lat": 38.9011685, "is_disabled": 0, "type": "electric_bike", "lon": -77.04881783333333, "bike_id": "d6e57bf81979c69903b1cc1b9541836e", "fusion_lat": 0.0, "name": "d6e57bf81979c69903b1cc1b9541836e", "is_reserved": 0, "rental_uris": {"android": "https://dc.lft.to/lastmile_qr_scan", "ios": "https://dc.lft.to/lastmile_qr_scan"}, "fusion_lon": 0.0}, {"lat": 38.90958666666667, "is_disabled": 0, "type": "electric_scooter", "lon": -77.03843816666667, "bike_id": "3d01de73911d6852faeab4def1f90429", "fusion_lat": 0.0, "name": "3d01de73911d6852faeab4def1f90429", "is_reserved": 0, "rental_uris": {"android": "https://dc.lft.to/lastmile_qr_scan", "ios": "https://dc.lft.to/lastmile_qr_scan"}, "fusion_lon": 0.0}, {"lat": 38.92127833333333, "is_disabled": 0, "type": "electric_scooter", "lon": -77.01169733333333, "bike_id": "3ae8db1b33cb0762795fd22d8b56e842", "fusion_lat": 0.0, "name": "3ae8db1b33cb0762795fd22d8b56e842", "is_reserved": 0, "rental_uris": {"android": "https://dc.lft.to/lastmile_qr_scan", "ios": "https://dc.lft.to/lastmile_qr_scan"}, "fusion_lon": 0.0}, {"lat": 38.91739833333333, "is_disabled": 0, "type": "electric_scooter", "lon": -77.03203, "bike_id": "6a13a749fd947c5f36c92acef6734695", "fusion_lat": 0.0, "name": "6a13a749fd947c5f36c92acef6734695", "is_reserved": 0, "rental_uris": {"android": "https://dc.lft.to/lastmile_qr_scan", "ios": "https://dc.lft.to/lastmile_qr_scan"}, "fusion_lon": 0.0}, {"lat": 38.918170333333336, "is_disabled": 0, "type": "electric_scooter", "lon": -77.02485416666667, "bike_id": "371bb6c562d77dd861c2f62912a971f1", "fusion_lat": 0.0, "name": "371bb6c562d77dd861c2f62912a971f1", "is_reserved": 0, "rental_uris": {"android": "https://dc.lft.to/lastmile_qr_scan", "ios": "https://dc.lft.to/lastmile_qr_scan"}, "fusion_lon": 0.0}, {"lat": 38.89220483333333, "is_disabled": 0, "type": "electric_scooter", "lon": -77.02211133333333, "bike_id": "4eeb8a451859691897728c984cef8db1", "fusion_lat": 0.0, "name": "4eeb8a451859691897728c984cef8db1", "is_reserved": 0, "rental_uris": {"android": "https://dc.lft.to/lastmile_qr_scan", "ios": "https://dc.lft.to/lastmile_qr_scan"}, "fusion_lon": 0.0}, {"lat": 38.98274133333334, "is_disabled": 0, "type": "electric_bike", "lon": -77.0177265, "bike_id": "9636de64c5545e9a8623a5251b529146", "fusion_lat": 0.0, "name": "9636de64c5545e9a8623a5251b529146", "is_reserved": 0, "rental_uris": {"android": "https://dc.lft.to/lastmile_qr_scan", "ios": "https://dc.lft.to/lastmile_qr_scan"}, "fusion_lon": 0.0}, {"lat": 38.90989233333333, "is_disabled": 0, "type": "electric_scooter", "lon": -77.04158133333334, "bike_id": "b7fd46628defa6996755bc6dc6d4507d", "fusion_lat": 0.0, "name": "b7fd46628defa6996755bc6dc6d4507d", "is_reserved": 0, "rental_uris": {"android": "https://dc.lft.to/lastmile_qr_scan", "ios": "https://dc.lft.to/lastmile_qr_scan"}, "fusion_lon": 0.0}, {"lat": 38.919876333333335, "is_disabled": 0, "type": "electric_scooter", "lon": -77.02530766666666, "bike_id": "4b15ea5b19eaf66ac4a8f69d55e69022", "fusion_lat": 0.0, "name": "4b15ea5b19eaf66ac4a8f69d55e69022", "is_reserved": 0, "rental_uris": {"android": "https://dc.lft.to/lastmile_qr_scan", "ios": "https://dc.lft.to/lastmile_qr_scan"}, "fusion_lon": 0.0}, {"lat": 38.9166635, "is_disabled": 0, "type": "electric_scooter", "lon": -77.02291966666667, "bike_id": "9ccc9514f72c3d9ed7e7f5b4158eec79", "fusion_lat": 0.0, "name": "9ccc9514f72c3d9ed7e7f5b4158eec79", "is_reserved": 0, "rental_uris": {"android": "https://dc.lft.to/lastmile_qr_scan", "ios": "https://dc.lft.to/lastmile_qr_scan"}, "fusion_lon": 0.0}, {"lat": 38.98502533333333, "is_disabled": 0, "type": "electric_bike", "lon": -76.98202583333334, "bike_id": "a08e390d3852dc5d543ae9f35fa32672", "fusion_lat": 0.0, "name": "a08e390d3852dc5d543ae9f35fa32672", "is_reserved": 0, "rental_uris": {"android": "https://dc.lft.to/lastmile_qr_scan", "ios": "https://dc.lft.to/lastmile_qr_scan"}, "fusion_lon": 0.0}, {"lat": 38.805766, "is_disabled": 0, "type": "electric_bike", "lon": -77.06860066666667, "bike_id": "ccfb0e4a60cca47aa904817fe6796ff9", "fusion_lat": 0.0, "name": "ccfb0e4a60cca47aa904817fe6796ff9", "is_reserved": 0, "rental_uris": {"android": "https://dc.lft.to/lastmile_qr_scan", "ios": "https://dc.lft.to/lastmile_qr_scan"}, "fusion_lon": 0.0}, {"lat": 38.90257666666667, "is_disabled": 0, "type": "electric_scooter", "lon": -77.026566, "bike_id": "efb47de768da1de420842c6402b1a063", "fusion_lat": 0.0, "name": "efb47de768da1de420842c6402b1a063", "is_reserved": 0, "rental_uris": {"android": "https://dc.lft.to/lastmile_qr_scan", "ios": "https://dc.lft.to/lastmile_qr_scan"}, "fusion_lon": 0.0}, {"lat": 38.87717266666667, "is_disabled": 0, "type": "electric_scooter", "lon": -77.01755533333333, "bike_id": "60dc27540ba06b2db59784f5d992facd", "fusion_lat": 0.0, "name": "60dc27540ba06b2db59784f5d992facd", "is_reserved": 0, "rental_uris": {"android": "https://dc.lft.to/lastmile_qr_scan", "ios": "https://dc.lft.to/lastmile_qr_scan"}, "fusion_lon": 0.0}, {"lat": 38.94823983333333, "is_disabled": 0, "type": "electric_scooter", "lon": -76.9990465, "bike_id": "cb3fd9200b42d04dd8f904c80dae3841", "fusion_lat": 0.0, "name": "cb3fd9200b42d04dd8f904c80dae3841", "is_reserved": 0, "rental_uris": {"android": "https://dc.lft.to/lastmile_qr_scan", "ios": "https://dc.lft.to/lastmile_qr_scan"}, "fusion_lon": 0.0}, {"lat": 38.8860145, "is_disabled": 0, "type": "electric_scooter", "lon": -77.01896616666667, "bike_id": "1d3c5ee3ff6c40ef2b0119276e80d952", "fusion_lat": 0.0, "name": "1d3c5ee3ff6c40ef2b0119276e80d952", "is_reserved": 0, "rental_uris": {"android": "https://dc.lft.to/lastmile_qr_scan", "ios": "https://dc.lft.to/lastmile_qr_scan"}, "fusion_lon": 0.0}, {"lat": 38.88549233333333, "is_disabled": 0, "type": "electric_bike", "lon": -77.11787666666666, "bike_id": "24f78207dda05938080d486edec6d792", "fusion_lat": 0.0, "name": "24f78207dda05938080d486edec6d792", "is_reserved": 0, "rental_uris": {"android": "https://dc.lft.to/lastmile_qr_scan", "ios": "https://dc.lft.to/lastmile_qr_scan"}, "fusion_lon": 0.0}, {"lat": 38.9170325, "is_disabled": 0, "type": "electric_scooter", "lon": -76.979274, "bike_id": "175f8cb59b614c3c3fe5e43d00d2b8fd", "fusion_lat": 0.0, "name": "175f8cb59b614c3c3fe5e43d00d2b8fd", "is_reserved": 0, "rental_uris": {"android": "https://dc.lft.to/lastmile_qr_scan", "ios": "https://dc.lft.to/lastmile_qr_scan"}, "fusion_lon": 0.0}, {"lat": 38.90627116666667, "is_disabled": 0, "type": "electric_bike", "lon": -76.98607783333334, "bike_id": "7229f6bd95ea0e85c7dd2df098869c01", "fusion_lat": 0.0, "name": "7229f6bd95ea0e85c7dd2df098869c01", "is_reserved": 0, "rental_uris": {"android": "https://dc.lft.to/lastmile_qr_scan", "ios": "https://dc.lft.to/lastmile_qr_scan"}, "fusion_lon": 0.0}, {"lat": 38.92204533333334, "is_disabled": 0, "type": "electric_bike", "lon": -77.08191016666666, "bike_id": "62966aad23beeeec1278adce47840191", "fusion_lat": 0.0, "name": "62966aad23beeeec1278adce47840191", "is_reserved": 0, "rental_uris": {"android": "https://dc.lft.to/lastmile_qr_scan", "ios": "https://dc.lft.to/lastmile_qr_scan"}, "fusion_lon": 0.0}, {"lat": 38.90828833333333, "is_disabled": 0, "type": "electric_scooter", "lon": -77.02006766666666, "bike_id": "c3cd1eb4861839d76c7e26aee430f168", "fusion_lat": 0.0, "name": "c3cd1eb4861839d76c7e26aee430f168", "is_reserved": 0, "rental_uris": {"android": "https://dc.lft.to/lastmile_qr_scan", "ios": "https://dc.lft.to/lastmile_qr_scan"}, "fusion_lon": 0.0}, {"lat": 38.919572333333335, "is_disabled": 0, "type": "electric_scooter", "lon": -77.01440916666667, "bike_id": "2768ff6884866b38b51a8d496f5f5a88", "fusion_lat": 0.0, "name": "2768ff6884866b38b51a8d496f5f5a88", "is_reserved": 0, "rental_uris": {"android": "https://dc.lft.to/lastmile_qr_scan", "ios": "https://dc.lft.to/lastmile_qr_scan"}, "fusion_lon": 0.0}, {"lat": 38.90426883333333, "is_disabled": 0, "type": "electric_scooter", "lon": -77.05067933333333, "bike_id": "c0c97d9d0e38206fdb5cee2bf7b13910", "fusion_lat": 0.0, "name": "c0c97d9d0e38206fdb5cee2bf7b13910", "is_reserved": 0, "rental_uris": {"android": "https://dc.lft.to/lastmile_qr_scan", "ios": "https://dc.lft.to/lastmile_qr_scan"}, "fusion_lon": 0.0}, {"lat": 38.88667133333333, "is_disabled": 0, "type": "electric_bike", "lon": -77.16255333333334, "bike_id": "091dd978c592e410bc177da6be8d320b", "fusion_lat": 0.0, "name": "091dd978c592e410bc177da6be8d320b", "is_reserved": 0, "rental_uris": {"android": "https://dc.lft.to/lastmile_qr_scan", "ios": "https://dc.lft.to/lastmile_qr_scan"}, "fusion_lon": 0.0}, {"lat": 38.8867325, "is_disabled": 0, "type": "electric_scooter", "lon": -76.99035316666667, "bike_id": "b40810ff81c77f64f30865cd4740e045", "fusion_lat": 0.0, "name": "b40810ff81c77f64f30865cd4740e045", "is_reserved": 0, "rental_uris": {"android": "https://dc.lft.to/lastmile_qr_scan", "ios": "https://dc.lft.to/lastmile_qr_scan"}, "fusion_lon": 0.0}, {"lat": 38.92344933333333, "is_disabled": 0, "type": "electric_scooter", "lon": -77.03528166666666, "bike_id": "58ab016e3b4a686c646e7cea1a55c3bb", "fusion_lat": 0.0, "name": "58ab016e3b4a686c646e7cea1a55c3bb", "is_reserved": 0, "rental_uris": {"android": "https://dc.lft.to/lastmile_qr_scan", "ios": "https://dc.lft.to/lastmile_qr_scan"}, "fusion_lon": 0.0}, {"lat": 38.9039455, "is_disabled": 0, "type": "electric_scooter", "lon": -77.0434025, "bike_id": "87ad6af40102463099cf2c1275aa4f98", "fusion_lat": 0.0, "name": "87ad6af40102463099cf2c1275aa4f98", "is_reserved": 0, "rental_uris": {"android": "https://dc.lft.to/lastmile_qr_scan", "ios": "https://dc.lft.to/lastmile_qr_scan"}, "fusion_lon": 0.0}, {"lat": 38.90195116666666, "is_disabled": 0, "type": "electric_scooter", "lon": -77.02183333333333, "bike_id": "5daf07f3336c6372b0572539342fb6da", "fusion_lat": 0.0, "name": "5daf07f3336c6372b0572539342fb6da", "is_reserved": 0, "rental_uris": {"android": "https://dc.lft.to/lastmile_qr_scan", "ios": "https://dc.lft.to/lastmile_qr_scan"}, "fusion_lon": 0.0}, {"lat": 38.9211505, "is_disabled": 0, "type": "electric_scooter", "lon": -77.04581466666667, "bike_id": "9dc96b0c5b4bb3f24e6c194ed8f8ed8e", "fusion_lat": 0.0, "name": "9dc96b0c5b4bb3f24e6c194ed8f8ed8e", "is_reserved": 0, "rental_uris": {"android": "https://dc.lft.to/lastmile_qr_scan", "ios": "https://dc.lft.to/lastmile_qr_scan"}, "fusion_lon": 0.0}, {"lat": 39.07505, "is_disabled": 0, "type": "electric_bike", "lon": -77.11901683333333, "bike_id": "876cd96b68d6ebd35c746f23131c8caa", "fusion_lat": 0.0, "name": "876cd96b68d6ebd35c746f23131c8caa", "is_reserved": 0, "rental_uris": {"android": "https://dc.lft.to/lastmile_qr_scan", "ios": "https://dc.lft.to/lastmile_qr_scan"}, "fusion_lon": 0.0}, {"lat": 38.91263433333334, "is_disabled": 0, "type": "electric_scooter", "lon": -77.02253366666666, "bike_id": "852a9f764e38c20eceee919c1376eff1", "fusion_lat": 0.0, "name": "852a9f764e38c20eceee919c1376eff1", "is_reserved": 0, "rental_uris": {"android": "https://dc.lft.to/lastmile_qr_scan", "ios": "https://dc.lft.to/lastmile_qr_scan"}, "fusion_lon": 0.0}, {"lat": 38.911115333333335, "is_disabled": 0, "type": "electric_scooter", "lon": -77.02012, "bike_id": "e42b904226bc097ca738911a0ba595f9", "fusion_lat": 0.0, "name": "e42b904226bc097ca738911a0ba595f9", "is_reserved": 0, "rental_uris": {"android": "https://dc.lft.to/lastmile_qr_scan", "ios": "https://dc.lft.to/lastmile_qr_scan"}, "fusion_lon": 0.0}, {"lat": 38.90869433333334, "is_disabled": 0, "type": "electric_scooter", "lon": -77.0428335, "bike_id": "e634a754950ba708f4e7ddefb5ce6717", "fusion_lat": 0.0, "name": "e634a754950ba708f4e7ddefb5ce6717", "is_reserved": 0, "rental_uris": {"android": "https://dc.lft.to/lastmile_qr_scan", "ios": "https://dc.lft.to/lastmile_qr_scan"}, "fusion_lon": 0.0}, {"lat": 38.81342933333333, "is_disabled": 0, "type": "electric_bike", "lon": -77.0492585, "bike_id": "c3ce088bcc36d10a2a951e7e936b7b30", "fusion_lat": 0.0, "name": "c3ce088bcc36d10a2a951e7e936b7b30", "is_reserved": 0, "rental_uris": {"android": "https://dc.lft.to/lastmile_qr_scan", "ios": "https://dc.lft.to/lastmile_qr_scan"}, "fusion_lon": 0.0}, {"lat": 38.914857166666664, "is_disabled": 0, "type": "electric_scooter", "lon": -77.01378366666667, "bike_id": "be669c4fb6897e1deaee3a0dbedd8f87", "fusion_lat": 0.0, "name": "be669c4fb6897e1deaee3a0dbedd8f87", "is_reserved": 0, "rental_uris": {"android": "https://dc.lft.to/lastmile_qr_scan", "ios": "https://dc.lft.to/lastmile_qr_scan"}, "fusion_lon": 0.0}, {"lat": 38.9003575, "is_disabled": 0, "type": "electric_scooter", "lon": -77.00196666666666, "bike_id": "e96d017312ca928e6917959d4a806c9a", "fusion_lat": 0.0, "name": "e96d017312ca928e6917959d4a806c9a", "is_reserved": 0, "rental_uris": {"android": "https://dc.lft.to/lastmile_qr_scan", "ios": "https://dc.lft.to/lastmile_qr_scan"}, "fusion_lon": 0.0}, {"lat": 38.924796666666666, "is_disabled": 0, "type": "electric_scooter", "lon": -77.03510783333333, "bike_id": "6c999784f3d1d62eea902a03ab3f17f0", "fusion_lat": 0.0, "name": "6c999784f3d1d62eea902a03ab3f17f0", "is_reserved": 0, "rental_uris": {"android": "https://dc.lft.to/lastmile_qr_scan", "ios": "https://dc.lft.to/lastmile_qr_scan"}, "fusion_lon": 0.0}, {"lat": 38.933608166666666, "is_disabled": 0, "type": "electric_scooter", "lon": -77.05714483333334, "bike_id": "7bb205b9410e859d72f430f18d873887", "fusion_lat": 0.0, "name": "7bb205b9410e859d72f430f18d873887", "is_reserved": 0, "rental_uris": {"android": "https://dc.lft.to/lastmile_qr_scan", "ios": "https://dc.lft.to/lastmile_qr_scan"}, "fusion_lon": 0.0}, {"lat": 38.89853883333333, "is_disabled": 0, "type": "electric_scooter", "lon": -76.97659533333334, "bike_id": "3d08088cf7bd7a1e5c00dbc194d079b2", "fusion_lat": 0.0, "name": "3d08088cf7bd7a1e5c00dbc194d079b2", "is_reserved": 0, "rental_uris": {"android": "https://dc.lft.to/lastmile_qr_scan", "ios": "https://dc.lft.to/lastmile_qr_scan"}, "fusion_lon": 0.0}, {"lat": 38.92784433333333, "is_disabled": 0, "type": "electric_scooter", "lon": -77.03198033333334, "bike_id": "9c49afab95a996a113f2f57e0557434b", "fusion_lat": 0.0, "name": "9c49afab95a996a113f2f57e0557434b", "is_reserved": 0, "rental_uris": {"android": "https://dc.lft.to/lastmile_qr_scan", "ios": "https://dc.lft.to/lastmile_qr_scan"}, "fusion_lon": 0.0}, {"lat": 38.90307333333333, "is_disabled": 0, "type": "electric_scooter", "lon": -77.06299216666666, "bike_id": "d0d62a892f8ac1af2a5562c5bfd8fba5", "fusion_lat": 0.0, "name": "d0d62a892f8ac1af2a5562c5bfd8fba5", "is_reserved": 0, "rental_uris": {"android": "https://dc.lft.to/lastmile_qr_scan", "ios": "https://dc.lft.to/lastmile_qr_scan"}, "fusion_lon": 0.0}, {"lat": 38.9112895, "is_disabled": 0, "type": "electric_scooter", "lon": -77.03840333333333, "bike_id": "e434a07a93f30803d7e3c7297fa42c71", "fusion_lat": 0.0, "name": "e434a07a93f30803d7e3c7297fa42c71", "is_reserved": 0, "rental_uris": {"android": "https://dc.lft.to/lastmile_qr_scan", "ios": "https://dc.lft.to/lastmile_qr_scan"}, "fusion_lon": 0.0}, {"lat": 38.855181, "is_disabled": 0, "type": "electric_bike", "lon": -76.98424816666666, "bike_id": "d782ffac27f7c0078c3c42c53d5f1b01", "fusion_lat": 0.0, "name": "d782ffac27f7c0078c3c42c53d5f1b01", "is_reserved": 0, "rental_uris": {"android": "https://dc.lft.to/lastmile_qr_scan", "ios": "https://dc.lft.to/lastmile_qr_scan"}, "fusion_lon": 0.0}, {"lat": 38.934259833333336, "is_disabled": 0, "type": "electric_scooter", "lon": -77.05556333333334, "bike_id": "41a9188b9e3d3a9c0673e180f7460b7b", "fusion_lat": 0.0, "name": "41a9188b9e3d3a9c0673e180f7460b7b", "is_reserved": 0, "rental_uris": {"android": "https://dc.lft.to/lastmile_qr_scan", "ios": "https://dc.lft.to/lastmile_qr_scan"}, "fusion_lon": 0.0}, {"lat": 38.911111, "is_disabled": 0, "type": "electric_scooter", "lon": -77.04817033333333, "bike_id": "938ccd24d03c3ad0d75b1e75b4c1db28", "fusion_lat": 0.0, "name": "938ccd24d03c3ad0d75b1e75b4c1db28", "is_reserved": 0, "rental_uris": {"android": "https://dc.lft.to/lastmile_qr_scan", "ios": "https://dc.lft.to/lastmile_qr_scan"}, "fusion_lon": 0.0}, {"lat": 38.91808066666667, "is_disabled": 0, "type": "electric_scooter", "lon": -77.036761, "bike_id": "a5405ea23ba727d31cd65ffa046908af", "fusion_lat": 0.0, "name": "a5405ea23ba727d31cd65ffa046908af", "is_reserved": 0, "rental_uris": {"android": "https://dc.lft.to/lastmile_qr_scan", "ios": "https://dc.lft.to/lastmile_qr_scan"}, "fusion_lon": 0.0}, {"lat": 38.908241, "is_disabled": 0, "type": "electric_scooter", "lon": -77.01792333333333, "bike_id": "dbf7600121227c26c1c76e0f9e344e44", "fusion_lat": 0.0, "name": "dbf7600121227c26c1c76e0f9e344e44", "is_reserved": 0, "rental_uris": {"android": "https://dc.lft.to/lastmile_qr_scan", "ios": "https://dc.lft.to/lastmile_qr_scan"}, "fusion_lon": 0.0}, {"lat": 38.91798266666667, "is_disabled": 0, "type": "electric_scooter", "lon": -77.03176383333333, "bike_id": "8f3f75179dcdda5e0e1f4bccf1395886", "fusion_lat": 0.0, "name": "8f3f75179dcdda5e0e1f4bccf1395886", "is_reserved": 0, "rental_uris": {"android": "https://dc.lft.to/lastmile_qr_scan", "ios": "https://dc.lft.to/lastmile_qr_scan"}, "fusion_lon": 0.0}, {"lat": 38.91556083333333, "is_disabled": 0, "type": "electric_scooter", "lon": -77.020503, "bike_id": "271405492b3752e764b358aa5babebc9", "fusion_lat": 0.0, "name": "271405492b3752e764b358aa5babebc9", "is_reserved": 0, "rental_uris": {"android": "https://dc.lft.to/lastmile_qr_scan", "ios": "https://dc.lft.to/lastmile_qr_scan"}, "fusion_lon": 0.0}, {"lat": 38.836777166666664, "is_disabled": 0, "type": "electric_scooter", "lon": -77.00576983333333, "bike_id": "dbbe4d07a30fe5daaf7da0ba8ee94b18", "fusion_lat": 0.0, "name": "dbbe4d07a30fe5daaf7da0ba8ee94b18", "is_reserved": 0, "rental_uris": {"android": "https://dc.lft.to/lastmile_qr_scan", "ios": "https://dc.lft.to/lastmile_qr_scan"}, "fusion_lon": 0.0}, {"lat": 38.912562333333334, "is_disabled": 0, "type": "electric_scooter", "lon": -77.02218566666667, "bike_id": "6a888e677f2c302114203b1ec762e4d3", "fusion_lat": 0.0, "name": "6a888e677f2c302114203b1ec762e4d3", "is_reserved": 0, "rental_uris": {"android": "https://dc.lft.to/lastmile_qr_scan", "ios": "https://dc.lft.to/lastmile_qr_scan"}, "fusion_lon": 0.0}, {"lat": 38.9005635, "is_disabled": 0, "type": "electric_scooter", "lon": -77.00207916666666, "bike_id": "60c0b423b9c622844a1bd138f5fbec41", "fusion_lat": 0.0, "name": "60c0b423b9c622844a1bd138f5fbec41", "is_reserved": 0, "rental_uris": {"android": "https://dc.lft.to/lastmile_qr_scan", "ios": "https://dc.lft.to/lastmile_qr_scan"}, "fusion_lon": 0.0}, {"lat": 38.92364883333333, "is_disabled": 0, "type": "electric_scooter", "lon": -77.05134483333333, "bike_id": "820824ccc7829d26b80c8dee85f234d5", "fusion_lat": 0.0, "name": "820824ccc7829d26b80c8dee85f234d5", "is_reserved": 0, "rental_uris": {"android": "https://dc.lft.to/lastmile_qr_scan", "ios": "https://dc.lft.to/lastmile_qr_scan"}, "fusion_lon": 0.0}, {"lat": 38.905796333333335, "is_disabled": 0, "type": "electric_scooter", "lon": -77.02965116666667, "bike_id": "8d378668160971c9771efa134285613b", "fusion_lat": 0.0, "name": "8d378668160971c9771efa134285613b", "is_reserved": 0, "rental_uris": {"android": "https://dc.lft.to/lastmile_qr_scan", "ios": "https://dc.lft.to/lastmile_qr_scan"}, "fusion_lon": 0.0}, {"lat": 38.910448, "is_disabled": 0, "type": "electric_scooter", "lon": -77.05585416666666, "bike_id": "9a3e919f49031aa6a09c097fcc3109cd", "fusion_lat": 0.0, "name": "9a3e919f49031aa6a09c097fcc3109cd", "is_reserved": 0, "rental_uris": {"android": "https://dc.lft.to/lastmile_qr_scan", "ios": "https://dc.lft.to/lastmile_qr_scan"}, "fusion_lon": 0.0}, {"lat": 38.90097, "is_disabled": 0, "type": "electric_scooter", "lon": -76.98482, "bike_id": "a65af36784f0d41301b33668cdb1b9b2", "fusion_lat": 0.0, "name": "a65af36784f0d41301b33668cdb1b9b2", "is_reserved": 0, "rental_uris": {"android": "https://dc.lft.to/lastmile_qr_scan", "ios": "https://dc.lft.to/lastmile_qr_scan"}, "fusion_lon": 0.0}, {"lat": 38.908601166666664, "is_disabled": 0, "type": "electric_scooter", "lon": -77.04588966666667, "bike_id": "29fd57ad4282de596130288776465659", "fusion_lat": 0.0, "name": "29fd57ad4282de596130288776465659", "is_reserved": 0, "rental_uris": {"android": "https://dc.lft.to/lastmile_qr_scan", "ios": "https://dc.lft.to/lastmile_qr_scan"}, "fusion_lon": 0.0}, {"lat": 38.90638716666667, "is_disabled": 0, "type": "electric_scooter", "lon": -77.03416666666666, "bike_id": "097891a2039fc2dca15f44849dfd0f79", "fusion_lat": 0.0, "name": "097891a2039fc2dca15f44849dfd0f79", "is_reserved": 0, "rental_uris": {"android": "https://dc.lft.to/lastmile_qr_scan", "ios": "https://dc.lft.to/lastmile_qr_scan"}, "fusion_lon": 0.0}, {"lat": 38.92038183333333, "is_disabled": 0, "type": "electric_scooter", "lon": -77.04183966666666, "bike_id": "d239359df338a3e361486c7b938ec040", "fusion_lat": 0.0, "name": "d239359df338a3e361486c7b938ec040", "is_reserved": 0, "rental_uris": {"android": "https://dc.lft.to/lastmile_qr_scan", "ios": "https://dc.lft.to/lastmile_qr_scan"}, "fusion_lon": 0.0}, {"lat": 38.91816433333334, "is_disabled": 0, "type": "electric_scooter", "lon": -77.0138975, "bike_id": "a5fdcfc07a06133dce4fa60fe3d1f76c", "fusion_lat": 0.0, "name": "a5fdcfc07a06133dce4fa60fe3d1f76c", "is_reserved": 0, "rental_uris": {"android": "https://dc.lft.to/lastmile_qr_scan", "ios": "https://dc.lft.to/lastmile_qr_scan"}, "fusion_lon": 0.0}, {"lat": 38.897285, "is_disabled": 0, "type": "electric_scooter", "lon": -77.02174333333333, "bike_id": "c633da034ff8825cf899f45b038aac79", "fusion_lat": 0.0, "name": "c633da034ff8825cf899f45b038aac79", "is_reserved": 0, "rental_uris": {"android": "https://dc.lft.to/lastmile_qr_scan", "ios": "https://dc.lft.to/lastmile_qr_scan"}, "fusion_lon": 0.0}, {"lat": 38.80709133333333, "is_disabled": 0, "type": "electric_bike", "lon": -77.06172916666667, "bike_id": "5a927cdf530994ccfa2b4456eba3c6b5", "fusion_lat": 0.0, "name": "5a927cdf530994ccfa2b4456eba3c6b5", "is_reserved": 0, "rental_uris": {"android": "https://dc.lft.to/lastmile_qr_scan", "ios": "https://dc.lft.to/lastmile_qr_scan"}, "fusion_lon": 0.0}, {"lat": 38.89228216666667, "is_disabled": 0, "type": "electric_bike", "lon": -77.03444316666666, "bike_id": "0abaae424f226d8a0743415e18832df7", "fusion_lat": 0.0, "name": "0abaae424f226d8a0743415e18832df7", "is_reserved": 0, "rental_uris": {"android": "https://dc.lft.to/lastmile_qr_scan", "ios": "https://dc.lft.to/lastmile_qr_scan"}, "fusion_lon": 0.0}, {"lat": 38.91622666666667, "is_disabled": 0, "type": "electric_scooter", "lon": -77.02297583333333, "bike_id": "6b7c057ce90122ddcb8ee6718ae2e47f", "fusion_lat": 0.0, "name": "6b7c057ce90122ddcb8ee6718ae2e47f", "is_reserved": 0, "rental_uris": {"android": "https://dc.lft.to/lastmile_qr_scan", "ios": "https://dc.lft.to/lastmile_qr_scan"}, "fusion_lon": 0.0}, {"lat": 38.890721666666664, "is_disabled": 0, "type": "electric_scooter", "lon": -76.988398, "bike_id": "0a3b7e22aee73aa909f1e3f8ede9a672", "fusion_lat": 0.0, "name": "0a3b7e22aee73aa909f1e3f8ede9a672", "is_reserved": 0, "rental_uris": {"android": "https://dc.lft.to/lastmile_qr_scan", "ios": "https://dc.lft.to/lastmile_qr_scan"}, "fusion_lon": 0.0}, {"lat": 38.94558466666667, "is_disabled": 0, "type": "electric_bike", "lon": -76.89537533333333, "bike_id": "b0d5ac9f654a21921d20ce85b87d70ac", "fusion_lat": 0.0, "name": "b0d5ac9f654a21921d20ce85b87d70ac", "is_reserved": 0, "rental_uris": {"android": "https://dc.lft.to/lastmile_qr_scan", "ios": "https://dc.lft.to/lastmile_qr_scan"}, "fusion_lon": 0.0}, {"lat": 38.93656466666667, "is_disabled": 0, "type": "electric_bike", "lon": -76.95223416666667, "bike_id": "0cb61b47ad7bc88a6042c8ac29d0b286", "fusion_lat": 0.0, "name": "0cb61b47ad7bc88a6042c8ac29d0b286", "is_reserved": 0, "rental_uris": {"android": "https://dc.lft.to/lastmile_qr_scan", "ios": "https://dc.lft.to/lastmile_qr_scan"}, "fusion_lon": 0.0}, {"lat": 38.90962866666667, "is_disabled": 0, "type": "electric_scooter", "lon": -77.03429516666667, "bike_id": "469eb391ca404ce2c52def6a73301dde", "fusion_lat": 0.0, "name": "469eb391ca404ce2c52def6a73301dde", "is_reserved": 0, "rental_uris": {"android": "https://dc.lft.to/lastmile_qr_scan", "ios": "https://dc.lft.to/lastmile_qr_scan"}, "fusion_lon": 0.0}, {"lat": 38.9171565, "is_disabled": 0, "type": "electric_scooter", "lon": -77.03838716666667, "bike_id": "7477a0dd6f0febd9937f23c9d96cd722", "fusion_lat": 0.0, "name": "7477a0dd6f0febd9937f23c9d96cd722", "is_reserved": 0, "rental_uris": {"android": "https://dc.lft.to/lastmile_qr_scan", "ios": "https://dc.lft.to/lastmile_qr_scan"}, "fusion_lon": 0.0}, {"lat": 38.90549683333333, "is_disabled": 0, "type": "electric_scooter", "lon": -77.033895, "bike_id": "ab9c9daa290d9a46fce5f9d2764d22a9", "fusion_lat": 0.0, "name": "ab9c9daa290d9a46fce5f9d2764d22a9", "is_reserved": 0, "rental_uris": {"android": "https://dc.lft.to/lastmile_qr_scan", "ios": "https://dc.lft.to/lastmile_qr_scan"}, "fusion_lon": 0.0}, {"lat": 38.85198483333333, "is_disabled": 0, "type": "electric_scooter", "lon": -76.976345, "bike_id": "f5781dec99661593ddca60a1e28f217b", "fusion_lat": 0.0, "name": "f5781dec99661593ddca60a1e28f217b", "is_reserved": 0, "rental_uris": {"android": "https://dc.lft.to/lastmile_qr_scan", "ios": "https://dc.lft.to/lastmile_qr_scan"}, "fusion_lon": 0.0}, {"lat": 38.857150833333336, "is_disabled": 0, "type": "electric_scooter", "lon": -76.98675033333333, "bike_id": "3bd403350b5b11d1bd5daff2e63d00e8", "fusion_lat": 0.0, "name": "3bd403350b5b11d1bd5daff2e63d00e8", "is_reserved": 0, "rental_uris": {"android": "https://dc.lft.to/lastmile_qr_scan", "ios": "https://dc.lft.to/lastmile_qr_scan"}, "fusion_lon": 0.0}, {"lat": 39.0342775, "is_disabled": 0, "type": "electric_bike", "lon": -77.04290766666666, "bike_id": "2b9375ab697ca6c1d57973076c413423", "fusion_lat": 0.0, "name": "2b9375ab697ca6c1d57973076c413423", "is_reserved": 0, "rental_uris": {"android": "https://dc.lft.to/lastmile_qr_scan", "ios": "https://dc.lft.to/lastmile_qr_scan"}, "fusion_lon": 0.0}, {"lat": 38.9925685, "is_disabled": 0, "type": "electric_scooter", "lon": -77.03659983333333, "bike_id": "7d2ead1772791f0296a39bfbe9dbe19b", "fusion_lat": 0.0, "name": "7d2ead1772791f0296a39bfbe9dbe19b", "is_reserved": 0, "rental_uris": {"android": "https://dc.lft.to/lastmile_qr_scan", "ios": "https://dc.lft.to/lastmile_qr_scan"}, "fusion_lon": 0.0}, {"lat": 38.89354516666667, "is_disabled": 0, "type": "electric_scooter", "lon": -77.04135266666667, "bike_id": "7f6b2e4f7e91d2afd2e7bf31bc127c67", "fusion_lat": 0.0, "name": "7f6b2e4f7e91d2afd2e7bf31bc127c67", "is_reserved": 0, "rental_uris": {"android": "https://dc.lft.to/lastmile_qr_scan", "ios": "https://dc.lft.to/lastmile_qr_scan"}, "fusion_lon": 0.0}, {"lat": 38.90020483333333, "is_disabled": 0, "type": "electric_scooter", "lon": -77.04643333333334, "bike_id": "df247120b481d5882fdede56ce485ae6", "fusion_lat": 0.0, "name": "df247120b481d5882fdede56ce485ae6", "is_reserved": 0, "rental_uris": {"android": "https://dc.lft.to/lastmile_qr_scan", "ios": "https://dc.lft.to/lastmile_qr_scan"}, "fusion_lon": 0.0}, {"lat": 38.9184705, "is_disabled": 0, "type": "electric_bike", "lon": -77.06982533333333, "bike_id": "3f9f2c36985b42906c4a57c6ad912ea2", "fusion_lat": 0.0, "name": "3f9f2c36985b42906c4a57c6ad912ea2", "is_reserved": 0, "rental_uris": {"android": "https://dc.lft.to/lastmile_qr_scan", "ios": "https://dc.lft.to/lastmile_qr_scan"}, "fusion_lon": 0.0}, {"lat": 38.909683, "is_disabled": 0, "type": "electric_scooter", "lon": -77.04619266666667, "bike_id": "488ace4167a08034df456b6ccf7eec74", "fusion_lat": 0.0, "name": "488ace4167a08034df456b6ccf7eec74", "is_reserved": 0, "rental_uris": {"android": "https://dc.lft.to/lastmile_qr_scan", "ios": "https://dc.lft.to/lastmile_qr_scan"}, "fusion_lon": 0.0}, {"lat": 38.93691333333334, "is_disabled": 0, "type": "electric_scooter", "lon": -77.02408666666666, "bike_id": "7ddf144760d1d0a7199cfec9a82c400c", "fusion_lat": 0.0, "name": "7ddf144760d1d0a7199cfec9a82c400c", "is_reserved": 0, "rental_uris": {"android": "https://dc.lft.to/lastmile_qr_scan", "ios": "https://dc.lft.to/lastmile_qr_scan"}, "fusion_lon": 0.0}, {"lat": 38.925909833333336, "is_disabled": 0, "type": "electric_scooter", "lon": -77.04410816666666, "bike_id": "81730f798e98ca4b56a4e255ac732e44", "fusion_lat": 0.0, "name": "81730f798e98ca4b56a4e255ac732e44", "is_reserved": 0, "rental_uris": {"android": "https://dc.lft.to/lastmile_qr_scan", "ios": "https://dc.lft.to/lastmile_qr_scan"}, "fusion_lon": 0.0}, {"lat": 38.844345833333335, "is_disabled": 0, "type": "electric_scooter", "lon": -76.996607, "bike_id": "0e482f342f92fcbe995b8e538d8fc2bb", "fusion_lat": 0.0, "name": "0e482f342f92fcbe995b8e538d8fc2bb", "is_reserved": 0, "rental_uris": {"android": "https://dc.lft.to/lastmile_qr_scan", "ios": "https://dc.lft.to/lastmile_qr_scan"}, "fusion_lon": 0.0}, {"lat": 38.9276, "is_disabled": 0, "type": "electric_scooter", "lon": -77.03268516666667, "bike_id": "ea6e21b08ccd1b91995214ecb10f7c3e", "fusion_lat": 0.0, "name": "ea6e21b08ccd1b91995214ecb10f7c3e", "is_reserved": 0, "rental_uris": {"android": "https://dc.lft.to/lastmile_qr_scan", "ios": "https://dc.lft.to/lastmile_qr_scan"}, "fusion_lon": 0.0}, {"lat": 38.89219833333333, "is_disabled": 0, "type": "electric_scooter", "lon": -77.0278105, "bike_id": "92ca5fed2eadd997dc8ebb7421e41793", "fusion_lat": 0.0, "name": "92ca5fed2eadd997dc8ebb7421e41793", "is_reserved": 0, "rental_uris": {"android": "https://dc.lft.to/lastmile_qr_scan", "ios": "https://dc.lft.to/lastmile_qr_scan"}, "fusion_lon": 0.0}, {"lat": 38.9080655, "is_disabled": 0, "type": "electric_scooter", "lon": -77.04253033333333, "bike_id": "1b98b8e9d8609da39ba88121691c8450", "fusion_lat": 0.0, "name": "1b98b8e9d8609da39ba88121691c8450", "is_reserved": 0, "rental_uris": {"android": "https://dc.lft.to/lastmile_qr_scan", "ios": "https://dc.lft.to/lastmile_qr_scan"}, "fusion_lon": 0.0}, {"lat": 38.9052125, "is_disabled": 0, "type": "electric_scooter", "lon": -77.06187816666667, "bike_id": "953a0ba596b34702f068bae683f5d184", "fusion_lat": 0.0, "name": "953a0ba596b34702f068bae683f5d184", "is_reserved": 0, "rental_uris": {"android": "https://dc.lft.to/lastmile_qr_scan", "ios": "https://dc.lft.to/lastmile_qr_scan"}, "fusion_lon": 0.0}, {"lat": 38.917828166666666, "is_disabled": 0, "type": "electric_scooter", "lon": -77.02279633333333, "bike_id": "7a5cda796caf95acb66be1334050f334", "fusion_lat": 0.0, "name": "7a5cda796caf95acb66be1334050f334", "is_reserved": 0, "rental_uris": {"android": "https://dc.lft.to/lastmile_qr_scan", "ios": "https://dc.lft.to/lastmile_qr_scan"}, "fusion_lon": 0.0}, {"lat": 38.911218, "is_disabled": 0, "type": "electric_scooter", "lon": -77.043657, "bike_id": "ad021bb094040c5f1370edf2b49acfb1", "fusion_lat": 0.0, "name": "ad021bb094040c5f1370edf2b49acfb1", "is_reserved": 0, "rental_uris": {"android": "https://dc.lft.to/lastmile_qr_scan", "ios": "https://dc.lft.to/lastmile_qr_scan"}, "fusion_lon": 0.0}, {"lat": 38.915536, "is_disabled": 0, "type": "electric_scooter", "lon": -77.04189516666666, "bike_id": "3823ef58fa04434b96f73674f9a8f4a1", "fusion_lat": 0.0, "name": "3823ef58fa04434b96f73674f9a8f4a1", "is_reserved": 0, "rental_uris": {"android": "https://dc.lft.to/lastmile_qr_scan", "ios": "https://dc.lft.to/lastmile_qr_scan"}, "fusion_lon": 0.0}, {"lat": 38.924682833333335, "is_disabled": 0, "type": "electric_scooter", "lon": -77.02713216666666, "bike_id": "61f7475bb17744c594adbec1fd4fd14a", "fusion_lat": 0.0, "name": "61f7475bb17744c594adbec1fd4fd14a", "is_reserved": 0, "rental_uris": {"android": "https://dc.lft.to/lastmile_qr_scan", "ios": "https://dc.lft.to/lastmile_qr_scan"}, "fusion_lon": 0.0}, {"lat": 39.02931566666667, "is_disabled": 0, "type": "electric_bike", "lon": -77.04928466666667, "bike_id": "5d1fb1c906bbf578b7ad1e25628e1825", "fusion_lat": 0.0, "name": "5d1fb1c906bbf578b7ad1e25628e1825", "is_reserved": 0, "rental_uris": {"android": "https://dc.lft.to/lastmile_qr_scan", "ios": "https://dc.lft.to/lastmile_qr_scan"}, "fusion_lon": 0.0}, {"lat": 38.916360833333336, "is_disabled": 0, "type": "electric_scooter", "lon": -77.0384435, "bike_id": "9d92305378677ec96790ff35eab303c5", "fusion_lat": 0.0, "name": "9d92305378677ec96790ff35eab303c5", "is_reserved": 0, "rental_uris": {"android": "https://dc.lft.to/lastmile_qr_scan", "ios": "https://dc.lft.to/lastmile_qr_scan"}, "fusion_lon": 0.0}, {"lat": 38.92235866666667, "is_disabled": 0, "type": "electric_scooter", "lon": -77.04241716666667, "bike_id": "a36349c44fff261ea306e5524dcc7146", "fusion_lat": 0.0, "name": "a36349c44fff261ea306e5524dcc7146", "is_reserved": 0, "rental_uris": {"android": "https://dc.lft.to/lastmile_qr_scan", "ios": "https://dc.lft.to/lastmile_qr_scan"}, "fusion_lon": 0.0}, {"lat": 38.8921695, "is_disabled": 0, "type": "electric_scooter", "lon": -76.995852, "bike_id": "5cb0827cb490ea3a3facf5614ac66f61", "fusion_lat": 0.0, "name": "5cb0827cb490ea3a3facf5614ac66f61", "is_reserved": 0, "rental_uris": {"android": "https://dc.lft.to/lastmile_qr_scan", "ios": "https://dc.lft.to/lastmile_qr_scan"}, "fusion_lon": 0.0}, {"lat": 38.93110133333333, "is_disabled": 0, "type": "electric_scooter", "lon": -77.0384245, "bike_id": "9deaf4cf7619428edaf5687beebe6022", "fusion_lat": 0.0, "name": "9deaf4cf7619428edaf5687beebe6022", "is_reserved": 0, "rental_uris": {"android": "https://dc.lft.to/lastmile_qr_scan", "ios": "https://dc.lft.to/lastmile_qr_scan"}, "fusion_lon": 0.0}, {"lat": 38.8849055, "is_disabled": 0, "type": "electric_scooter", "lon": -77.00713216666666, "bike_id": "488d12eba2f76109f9c273c116762040", "fusion_lat": 0.0, "name": "488d12eba2f76109f9c273c116762040", "is_reserved": 0, "rental_uris": {"android": "https://dc.lft.to/lastmile_qr_scan", "ios": "https://dc.lft.to/lastmile_qr_scan"}, "fusion_lon": 0.0}, {"lat": 38.9347515, "is_disabled": 0, "type": "electric_scooter", "lon": -77.041153, "bike_id": "7219cd654698db5ffc2fa044b0e2fee3", "fusion_lat": 0.0, "name": "7219cd654698db5ffc2fa044b0e2fee3", "is_reserved": 0, "rental_uris": {"android": "https://dc.lft.to/lastmile_qr_scan", "ios": "https://dc.lft.to/lastmile_qr_scan"}, "fusion_lon": 0.0}, {"lat": 38.92408966666667, "is_disabled": 0, "type": "electric_scooter", "lon": -77.04461816666667, "bike_id": "ea362a37757509bc96c5e176590f2701", "fusion_lat": 0.0, "name": "ea362a37757509bc96c5e176590f2701", "is_reserved": 0, "rental_uris": {"android": "https://dc.lft.to/lastmile_qr_scan", "ios": "https://dc.lft.to/lastmile_qr_scan"}, "fusion_lon": 0.0}, {"lat": 38.89544433333333, "is_disabled": 0, "type": "electric_scooter", "lon": -77.00914233333333, "bike_id": "061b287e938796b4a96af481b07bdc4a", "fusion_lat": 0.0, "name": "061b287e938796b4a96af481b07bdc4a", "is_reserved": 0, "rental_uris": {"android": "https://dc.lft.to/lastmile_qr_scan", "ios": "https://dc.lft.to/lastmile_qr_scan"}, "fusion_lon": 0.0}, {"lat": 38.935260666666665, "is_disabled": 0, "type": "electric_scooter", "lon": -77.07299883333333, "bike_id": "b0ad3ab21a5fe5b9c5f93cb3f66c2e01", "fusion_lat": 0.0, "name": "b0ad3ab21a5fe5b9c5f93cb3f66c2e01", "is_reserved": 0, "rental_uris": {"android": "https://dc.lft.to/lastmile_qr_scan", "ios": "https://dc.lft.to/lastmile_qr_scan"}, "fusion_lon": 0.0}, {"lat": 38.903712666666664, "is_disabled": 0, "type": "electric_scooter", "lon": -76.99230850000001, "bike_id": "5ccf9fe01bf48042dffea9a81e0b2f79", "fusion_lat": 0.0, "name": "5ccf9fe01bf48042dffea9a81e0b2f79", "is_reserved": 0, "rental_uris": {"android": "https://dc.lft.to/lastmile_qr_scan", "ios": "https://dc.lft.to/lastmile_qr_scan"}, "fusion_lon": 0.0}, {"lat": 38.908527166666666, "is_disabled": 0, "type": "electric_scooter", "lon": -77.0197225, "bike_id": "8f92a19609e22228b1d7c75273690bd4", "fusion_lat": 0.0, "name": "8f92a19609e22228b1d7c75273690bd4", "is_reserved": 0, "rental_uris": {"android": "https://dc.lft.to/lastmile_qr_scan", "ios": "https://dc.lft.to/lastmile_qr_scan"}, "fusion_lon": 0.0}, {"lat": 38.8974065, "is_disabled": 0, "type": "electric_scooter", "lon": -77.023845, "bike_id": "b31ce71e3dfa7d51c7901f513d71890d", "fusion_lat": 0.0, "name": "b31ce71e3dfa7d51c7901f513d71890d", "is_reserved": 0, "rental_uris": {"android": "https://dc.lft.to/lastmile_qr_scan", "ios": "https://dc.lft.to/lastmile_qr_scan"}, "fusion_lon": 0.0}, {"lat": 38.916430166666665, "is_disabled": 0, "type": "electric_scooter", "lon": -77.0478095, "bike_id": "d7d69174ab67b1b0e49038093273dded", "fusion_lat": 0.0, "name": "d7d69174ab67b1b0e49038093273dded", "is_reserved": 0, "rental_uris": {"android": "https://dc.lft.to/lastmile_qr_scan", "ios": "https://dc.lft.to/lastmile_qr_scan"}, "fusion_lon": 0.0}, {"lat": 38.911283, "is_disabled": 0, "type": "electric_scooter", "lon": -77.03835033333333, "bike_id": "fd9f60d6999e830a10e62aeb496a419e", "fusion_lat": 0.0, "name": "fd9f60d6999e830a10e62aeb496a419e", "is_reserved": 0, "rental_uris": {"android": "https://dc.lft.to/lastmile_qr_scan", "ios": "https://dc.lft.to/lastmile_qr_scan"}, "fusion_lon": 0.0}, {"lat": 38.930755166666664, "is_disabled": 0, "type": "electric_scooter", "lon": -77.037488, "bike_id": "f20965f8ea118f7af63e88fb45414324", "fusion_lat": 0.0, "name": "f20965f8ea118f7af63e88fb45414324", "is_reserved": 0, "rental_uris": {"android": "https://dc.lft.to/lastmile_qr_scan", "ios": "https://dc.lft.to/lastmile_qr_scan"}, "fusion_lon": 0.0}, {"lat": 38.893507, "is_disabled": 0, "type": "electric_scooter", "lon": -77.041409, "bike_id": "368dbed0992285efdbc30388602810f2", "fusion_lat": 0.0, "name": "368dbed0992285efdbc30388602810f2", "is_reserved": 0, "rental_uris": {"android": "https://dc.lft.to/lastmile_qr_scan", "ios": "https://dc.lft.to/lastmile_qr_scan"}, "fusion_lon": 0.0}, {"lat": 38.908982333333334, "is_disabled": 0, "type": "electric_scooter", "lon": -77.03144183333333, "bike_id": "0117676d4170a825deeb5afd657197b9", "fusion_lat": 0.0, "name": "0117676d4170a825deeb5afd657197b9", "is_reserved": 0, "rental_uris": {"android": "https://dc.lft.to/lastmile_qr_scan", "ios": "https://dc.lft.to/lastmile_qr_scan"}, "fusion_lon": 0.0}, {"lat": 38.900402, "is_disabled": 0, "type": "electric_scooter", "lon": -76.9938135, "bike_id": "ae61f8855b05d6d814dd6c14ac2c2e8e", "fusion_lat": 0.0, "name": "ae61f8855b05d6d814dd6c14ac2c2e8e", "is_reserved": 0, "rental_uris": {"android": "https://dc.lft.to/lastmile_qr_scan", "ios": "https://dc.lft.to/lastmile_qr_scan"}, "fusion_lon": 0.0}, {"lat": 38.925263666666666, "is_disabled": 0, "type": "electric_scooter", "lon": -77.04427116666666, "bike_id": "af973c17c12fcfc81d45fd717ba9a561", "fusion_lat": 0.0, "name": "af973c17c12fcfc81d45fd717ba9a561", "is_reserved": 0, "rental_uris": {"android": "https://dc.lft.to/lastmile_qr_scan", "ios": "https://dc.lft.to/lastmile_qr_scan"}, "fusion_lon": 0.0},