{"data": {"bikes": [{"fusion_lat": 0.0, "name": "fcfc47eb170798f73e43c63c59f45abb", "is_disabled": 0, "rental_uris": {"android": "https://dc.lft.to/lastmile_qr_scan", "ios": "https://dc.lft.to/lastmile_qr_scan"}, "fusion_lon": 0.0, "lat": 38.899180333333334, "bike_id": "fcfc47eb170798f73e43c63c59f45abb", "type": "electric_scooter", "is_reserved": 0, "lon": -77.05135766666666}, {"fusion_lat": 0.0, "name": "3e4d1d9662b7cc7e6891a6b67dfc53a1", "is_disabled": 0, "rental_uris": {"android": "https://dc.lft.to/lastmile_qr_scan", "ios": "https://dc.lft.to/lastmile_qr_scan"}, "fusion_lon": 0.0, "lat": 38.9026945, "bike_id": "3e4d1d9662b7cc7e6891a6b67dfc53a1", "type": "electric_scooter", "is_reserved": 0, "lon": -76.98994716666667}, {"fusion_lat": 0.0, "name": "70576b67d0b1e2141844c1da3d84ccf7", "is_disabled": 0, "rental_uris": {"android": "https://dc.lft.to/lastmile_qr_scan", "ios": "https://dc.lft.to/lastmile_qr_scan"}, "fusion_lon": 0.0, "lat": 38.900384, "bike_id": "70576b67d0b1e2141844c1da3d84ccf7", "type": "electric_scooter", "is_reserved": 0, "lon": -77.0297275}, {"fusion_lat": 0.0, "name": "6d42ca7cabc68a2c732b5814aca14711", "is_disabled": 0, "rental_uris": {"android": "https://dc.lft.to/lastmile_qr_scan", "ios": "https://dc.lft.to/lastmile_qr_scan"}, "fusion_lon": 0.0, "lat": 38.894994833333335, "bike_id": "6d42ca7cabc68a2c732b5814aca14711", "type": "electric_scooter", "is_reserved": 0, "lon": -77.002129}, {"fusion_lat": 0.0, "name": "474141d37ad645e87cc24a605a606b27", "is_disabled": 0, "rental_uris": {"android": "https://dc.lft.to/lastmile_qr_scan", "ios": "https://dc.lft.to/lastmile_qr_scan"}, "fusion_lon": 0.0, "lat": 38.91209533333333, "bike_id": "474141d37ad645e87cc24a605a606b27", "type": "electric_scooter", "is_reserved": 0, "lon": -77.0197955}, {"fusion_lat": 0.0, "name": "b0265e76951eb50368dcbeba1bd81e92", "is_disabled": 0, "rental_uris": {"android": "https://dc.lft.to/lastmile_qr_scan", "ios": "https://dc.lft.to/lastmile_qr_scan"}, "fusion_lon": 0.0, "lat": 38.96748983333333, "bike_id": "b0265e76951eb50368dcbeba1bd81e92", "type": "electric_bike", "is_reserved": 0, "lon": -76.98224683333333}, {"fusion_lat": 0.0, "name": "c24ad7bbc93999e508aea44c5a3c9cf3", "is_disabled": 0, "rental_uris": {"android": "https://dc.lft.to/lastmile_qr_scan", "ios": "https://dc.lft.to/lastmile_qr_scan"}, "fusion_lon": 0.0, "lat": 38.90959766666667, "bike_id": "c24ad7bbc93999e508aea44c5a3c9cf3", "type": "electric_scooter", "is_reserved": 0, "lon": -77.03938383333333}, {"fusion_lat": 0.0, "name": "e6a606c3779a0de7f8714abd5023a7bb", "is_disabled": 0, "rental_uris": {"android": "https://dc.lft.to/lastmile_qr_scan", "ios": "https://dc.lft.to/lastmile_qr_scan"}, "fusion_lon": 0.0, "lat": 38.91467083333333, "bike_id": "e6a606c3779a0de7f8714abd5023a7bb", "type": "electric_scooter", "is_reserved": 0, "lon": -77.01554883333333}, {"fusion_lat": 0.0, "name": "6ae798079b6fbbec75110b05684edcf5", "is_disabled": 0, "rental_uris": {"android": "https://dc.lft.to/lastmile_qr_scan", "ios": "https://dc.lft.to/lastmile_qr_scan"}, "fusion_lon": 0.0, "lat": 38.924471833333335, "bike_id": "6ae798079b6fbbec75110b05684edcf5", "type": "electric_scooter", "is_reserved": 0, "lon": -77.04022433333333}, {"fusion_lat": 0.0, "name": "55e4a589bb24d8e77c00c4320bfec9d0", "is_disabled": 0, "rental_uris": {"android": "https://dc.lft.to/lastmile_qr_scan", "ios": "https://dc.lft.to/lastmile_qr_scan"}, "fusion_lon": 0.0, "lat": 38.8560555, "bike_id": "55e4a589bb24d8e77c00c4320bfec9d0", "type": "electric_bike", "is_reserved": 0, "lon": -77.10808}, {"fusion_lat": 0.0, "name": "7e85325d28b5eca979cc96cb6ffb5db0", "is_disabled": 0, "rental_uris": {"android": "https://dc.lft.to/lastmile_qr_scan", "ios": "https://dc.lft.to/lastmile_qr_scan"}, "fusion_lon": 0.0, "lat": 38.877662666666666, "bike_id": "7e85325d28b5eca979cc96cb6ffb5db0", "type": "electric_scooter", "is_reserved": 0, "lon": -77.00344883333334}, {"fusion_lat": 0.0, "name": "18c9dfada9b670aed7dcbeb096d08944", "is_disabled": 0, "rental_uris": {"android": "https://dc.lft.to/lastmile_qr_scan", "ios": "https://dc.lft.to/lastmile_qr_scan"}, "fusion_lon": 0.0, "lat": 38.91229366666666, "bike_id": "18c9dfada9b670aed7dcbeb096d08944", "type": "electric_scooter", "is_reserved": 0, "lon": -77.04777083333333}, {"fusion_lat": 0.0, "name": "776ebe0fa0c70fea38e3486e3fc6ab8c", "is_disabled": 0, "rental_uris": {"android": "https://dc.lft.to/lastmile_qr_scan", "ios": "https://dc.lft.to/lastmile_qr_scan"}, "fusion_lon": 0.0, "lat": 38.9052365, "bike_id": "776ebe0fa0c70fea38e3486e3fc6ab8c", "type": "electric_scooter", "is_reserved": 0, "lon": -77.0171505}, {"fusion_lat": 0.0, "name": "5922df2d4e272d515acf03f63771b64e", "is_disabled": 0, "rental_uris": {"android": "https://dc.lft.to/lastmile_qr_scan", "ios": "https://dc.lft.to/lastmile_qr_scan"}, "fusion_lon": 0.0, "lat": 38.917233, "bike_id": "5922df2d4e272d515acf03f63771b64e", "type": "electric_scooter", "is_reserved": 0, "lon": -77.027011}, {"fusion_lat": 0.0, "name": "54a3753523f25ecbea1c0a6251a8a4a5", "is_disabled": 0, "rental_uris": {"android": "https://dc.lft.to/lastmile_qr_scan", "ios": "https://dc.lft.to/lastmile_qr_scan"}, "fusion_lon": 0.0, "lat": 38.92682716666667, "bike_id": "54a3753523f25ecbea1c0a6251a8a4a5", "type": "electric_scooter", "is_reserved": 0, "lon": -77.02784183333333}, {"fusion_lat": 0.0, "name": "14e117e3c93d6037a203efbba06f9904", "is_disabled": 0, "rental_uris": {"android": "https://dc.lft.to/lastmile_qr_scan", "ios": "https://dc.lft.to/lastmile_qr_scan"}, "fusion_lon": 0.0, "lat": 38.89837, "bike_id": "14e117e3c93d6037a203efbba06f9904", "type": "electric_scooter", "is_reserved": 0, "lon": -77.0303205}, {"fusion_lat": 0.0, "name": "3268e096b0574e680f088ef951ad7e8a", "is_disabled": 0, "rental_uris": {"android": "https://dc.lft.to/lastmile_qr_scan", "ios": "https://dc.lft.to/lastmile_qr_scan"}, "fusion_lon": 0.0, "lat": 38.90983, "bike_id": "3268e096b0574e680f088ef951ad7e8a", "type": "electric_scooter", "is_reserved": 0, "lon": -77.08480583333333}, {"fusion_lat": 0.0, "name": "f1f68ec38010d97f6935f2597f8d7c3e", "is_disabled": 0, "rental_uris": {"android": "https://dc.lft.to/lastmile_qr_scan", "ios": "https://dc.lft.to/lastmile_qr_scan"}, "fusion_lon": 0.0, "lat": 38.900243833333334, "bike_id": "f1f68ec38010d97f6935f2597f8d7c3e", "type": "electric_scooter", "is_reserved": 0, "lon": -77.01193}, {"fusion_lat": 0.0, "name": "e559bbc2938ab1a6c908cf4cd0d248fb", "is_disabled": 0, "rental_uris": {"android": "https://dc.lft.to/lastmile_qr_scan", "ios": "https://dc.lft.to/lastmile_qr_scan"}, "fusion_lon": 0.0, "lat": 38.96574433333333, "bike_id": "e559bbc2938ab1a6c908cf4cd0d248fb", "type": "electric_scooter", "is_reserved": 0, "lon": -77.0026755}, {"fusion_lat": 0.0, "name": "af0fd463591f950c1653db411f19819e", "is_disabled": 0, "rental_uris": {"android": "https://dc.lft.to/lastmile_qr_scan", "ios": "https://dc.lft.to/lastmile_qr_scan"}, "fusion_lon": 0.0, "lat": 38.867334166666666, "bike_id": "af0fd463591f950c1653db411f19819e", "type": "electric_scooter", "is_reserved": 0, "lon": -76.9878905}, {"fusion_lat": 0.0, "name": "bdef6a78c8f76a4123b251c9d16a5979", "is_disabled": 0, "rental_uris": {"android": "https://dc.lft.to/lastmile_qr_scan", "ios": "https://dc.lft.to/lastmile_qr_scan"}, "fusion_lon": 0.0, "lat": 38.924375833333336, "bike_id": "bdef6a78c8f76a4123b251c9d16a5979", "type": "electric_scooter", "is_reserved": 0, "lon": -77.04474283333333}, {"fusion_lat": 0.0, "name": "bd3ed91af6ba803415bed0b2994ca760", "is_disabled": 0, "rental_uris": {"android": "https://dc.lft.to/lastmile_qr_scan", "ios": "https://dc.lft.to/lastmile_qr_scan"}, "fusion_lon": 0.0, "lat": 38.92422716666667, "bike_id": "bd3ed91af6ba803415bed0b2994ca760", "type": "electric_scooter", "is_reserved": 0, "lon": -77.05744883333334}, {"fusion_lat": 0.0, "name": "054f5c7b11142b17fdbc6e842cf80ac3", "is_disabled": 0, "rental_uris": {"android": "https://dc.lft.to/lastmile_qr_scan", "ios": "https://dc.lft.to/lastmile_qr_scan"}, "fusion_lon": 0.0, "lat": 38.92102583333333, "bike_id": "054f5c7b11142b17fdbc6e842cf80ac3", "type": "electric_scooter", "is_reserved": 0, "lon": -77.022217}, {"fusion_lat": 0.0, "name": "15860ed464c837d207eb1c42dc18ef0b", "is_disabled": 0, "rental_uris": {"android": "https://dc.lft.to/lastmile_qr_scan", "ios": "https://dc.lft.to/lastmile_qr_scan"}, "fusion_lon": 0.0, "lat": 38.961835, "bike_id": "15860ed464c837d207eb1c42dc18ef0b", "type": "electric_bike", "is_reserved": 0, "lon": -77.05269516666667}, {"fusion_lat": 0.0, "name": "b7dea528f14799c4663368292aa078e0", "is_disabled": 0, "rental_uris": {"android": "https://dc.lft.to/lastmile_qr_scan", "ios": "https://dc.lft.to/lastmile_qr_scan"}, "fusion_lon": 0.0, "lat": 38.920274, "bike_id": "b7dea528f14799c4663368292aa078e0", "type": "electric_scooter", "is_reserved": 0, "lon": -77.0102785}, {"fusion_lat": 0.0, "name": "c36b91ee2b23a231fb81d6040189d3ad", "is_disabled": 0, "rental_uris": {"android": "https://dc.lft.to/lastmile_qr_scan", "ios": "https://dc.lft.to/lastmile_qr_scan"}, "fusion_lon": 0.0, "lat": 38.897080333333335, "bike_id": "c36b91ee2b23a231fb81d6040189d3ad", "type": "electric_scooter", "is_reserved": 0, "lon": -77.01326933333333}, {"fusion_lat": 0.0, "name": "f269e320e74bcdfb8d6b550b78f1f796", "is_disabled": 0, "rental_uris": {"android": "https://dc.lft.to/lastmile_qr_scan", "ios": "https://dc.lft.to/lastmile_qr_scan"}, "fusion_lon": 0.0, "lat": 38.9017595, "bike_id": "f269e320e74bcdfb8d6b550b78f1f796", "type": "electric_scooter", "is_reserved": 0, "lon": -77.02734466666666}, {"fusion_lat": 0.0, "name": "304b3eea84e3b5c1ee782886a2e70187", "is_disabled": 0, "rental_uris": {"android": "https://dc.lft.to/lastmile_qr_scan", "ios": "https://dc.lft.to/lastmile_qr_scan"}, "fusion_lon": 0.0, "lat": 38.900030666666666, "bike_id": "304b3eea84e3b5c1ee782886a2e70187", "type": "electric_scooter", "is_reserved": 0, "lon": -76.99845716666667}, {"fusion_lat": 0.0, "name": "6061d5b7cc3699c846cef90cb627719a", "is_disabled": 0, "rental_uris": {"android": "https://dc.lft.to/lastmile_qr_scan", "ios": "https://dc.lft.to/lastmile_qr_scan"}, "fusion_lon": 0.0, "lat": 38.9048655, "bike_id": "6061d5b7cc3699c846cef90cb627719a", "type": "electric_scooter", "is_reserved": 0, "lon": -76.949387}, {"fusion_lat": 0.0, "name": "56c03aa581496b58d1bf883e426c86a9", "is_disabled": 0, "rental_uris": {"android": "https://dc.lft.to/lastmile_qr_scan", "ios": "https://dc.lft.to/lastmile_qr_scan"}, "fusion_lon": 0.0, "lat": 38.9301195, "bike_id": "56c03aa581496b58d1bf883e426c86a9", "type": "electric_scooter", "is_reserved": 0, "lon": -77.03252683333334}, {"fusion_lat": 0.0, "name": "c26da4edae63fd38989d12c77976cf09", "is_disabled": 0, "rental_uris": {"android": "https://dc.lft.to/lastmile_qr_scan", "ios": "https://dc.lft.to/lastmile_qr_scan"}, "fusion_lon": 0.0, "lat": 38.892198666666665, "bike_id": "c26da4edae63fd38989d12c77976cf09", "type": "electric_scooter", "is_reserved": 0, "lon": -77.02313733333334}, {"fusion_lat": 0.0, "name": "d9cd9437a66c060d9f65a50d6fd07501", "is_disabled": 0, "rental_uris": {"android": "https://dc.lft.to/lastmile_qr_scan", "ios": "https://dc.lft.to/lastmile_qr_scan"}, "fusion_lon": 0.0, "lat": 38.900212333333336, "bike_id": "d9cd9437a66c060d9f65a50d6fd07501", "type": "electric_scooter", "is_reserved": 0, "lon": -76.99622783333334}, {"fusion_lat": 0.0, "name": "109c6267fadbc8fe3094a45cd76bdf44", "is_disabled": 0, "rental_uris": {"android": "https://dc.lft.to/lastmile_qr_scan", "ios": "https://dc.lft.to/lastmile_qr_scan"}, "fusion_lon": 0.0, "lat": 38.93412033333333, "bike_id": "109c6267fadbc8fe3094a45cd76bdf44", "type": "electric_scooter", "is_reserved": 0, "lon": -77.02203316666667}, {"fusion_lat": 0.0, "name": "cabc4a6632942f46452753c4db9ba0a2", "is_disabled": 0, "rental_uris": {"android": "https://dc.lft.to/lastmile_qr_scan", "ios": "https://dc.lft.to/lastmile_qr_scan"}, "fusion_lon": 0.0, "lat": 38.905417666666665, "bike_id": "cabc4a6632942f46452753c4db9ba0a2", "type": "electric_scooter", "is_reserved": 0, "lon": -77.04681716666667}, {"fusion_lat": 0.0, "name": "73a25ead2a22daa5760a692ea2ceece2", "is_disabled": 0, "rental_uris": {"android": "https://dc.lft.to/lastmile_qr_scan", "ios": "https://dc.lft.to/lastmile_qr_scan"}, "fusion_lon": 0.0, "lat": 38.93187666666667, "bike_id": "73a25ead2a22daa5760a692ea2ceece2", "type": "electric_scooter", "is_reserved": 0, "lon": -77.0331165}, {"fusion_lat": 0.0, "name": "bdbd69c361bed7597f1c3e1b6b12b5bc", "is_disabled": 0, "rental_uris": {"android": "https://dc.lft.to/lastmile_qr_scan", "ios": "https://dc.lft.to/lastmile_qr_scan"}, "fusion_lon": 0.0, "lat": 38.901527, "bike_id": "bdbd69c361bed7597f1c3e1b6b12b5bc", "type": "electric_scooter", "is_reserved": 0, "lon": -77.026125}, {"fusion_lat": 0.0, "name": "6a0d924ec00ffbacec6e73ff662f82ba", "is_disabled": 0, "rental_uris": {"android": "https://dc.lft.to/lastmile_qr_scan", "ios": "https://dc.lft.to/lastmile_qr_scan"}, "fusion_lon": 0.0, "lat": 38.90959483333334, "bike_id": "6a0d924ec00ffbacec6e73ff662f82ba", "type": "electric_scooter", "is_reserved": 0, "lon": -77.02763566666667}, {"fusion_lat": 0.0, "name": "139ff1e74533ca824b526762ea0a367d", "is_disabled": 0, "rental_uris": {"android": "https://dc.lft.to/lastmile_qr_scan", "ios": "https://dc.lft.to/lastmile_qr_scan"}, "fusion_lon": 0.0, "lat": 38.900176, "bike_id": "139ff1e74533ca824b526762ea0a367d", "type": "electric_scooter", "is_reserved": 0, "lon": -77.00672783333333}, {"fusion_lat": 0.0, "name": "0701ba3ccd5bb36ab79d8181ff1fef79", "is_disabled": 0, "rental_uris": {"android": "https://dc.lft.to/lastmile_qr_scan", "ios": "https://dc.lft.to/lastmile_qr_scan"}, "fusion_lon": 0.0, "lat": 38.954196, "bike_id": "0701ba3ccd5bb36ab79d8181ff1fef79", "type": "electric_scooter", "is_reserved": 0, "lon": -77.02765883333333}, {"fusion_lat": 0.0, "name": "79fae7e58ecf04fb54081efa4a53e38f", "is_disabled": 0, "rental_uris": {"android": "https://dc.lft.to/lastmile_qr_scan", "ios": "https://dc.lft.to/lastmile_qr_scan"}, "fusion_lon": 0.0, "lat": 38.908900833333334, "bike_id": "79fae7e58ecf04fb54081efa4a53e38f", "type": "electric_scooter", "is_reserved": 0, "lon": -77.04392766666666}, {"fusion_lat": 0.0, "name": "cf11215ccee0dcacf7c905de50f019af", "is_disabled": 0, "rental_uris": {"android": "https://dc.lft.to/lastmile_qr_scan", "ios": "https://dc.lft.to/lastmile_qr_scan"}, "fusion_lon": 0.0, "lat": 38.8935555, "bike_id": "cf11215ccee0dcacf7c905de50f019af", "type": "electric_scooter", "is_reserved": 0, "lon": -76.98657466666667}, {"fusion_lat": 0.0, "name": "1e0f113a8acfa54f93f01c793c81570d", "is_disabled": 0, "rental_uris": {"android": "https://dc.lft.to/lastmile_qr_scan", "ios": "https://dc.lft.to/lastmile_qr_scan"}, "fusion_lon": 0.0, "lat": 38.91633216666666, "bike_id": "1e0f113a8acfa54f93f01c793c81570d", "type": "electric_scooter", "is_reserved": 0, "lon": -77.05070616666667}, {"fusion_lat": 0.0, "name": "5741806db468eb598a0ae4f99f29b7a4", "is_disabled": 0, "rental_uris": {"android": "https://dc.lft.to/lastmile_qr_scan", "ios": "https://dc.lft.to/lastmile_qr_scan"}, "fusion_lon": 0.0, "lat": 38.911179, "bike_id": "5741806db468eb598a0ae4f99f29b7a4", "type": "electric_scooter", "is_reserved": 0, "lon": -77.04372083333334}, {"fusion_lat": 0.0, "name": "f2d910279ac2d108bccc7a8b5e70c1fe", "is_disabled": 0, "rental_uris": {"android": "https://dc.lft.to/lastmile_qr_scan", "ios": "https://dc.lft.to/lastmile_qr_scan"}, "fusion_lon": 0.0, "lat": 38.90623, "bike_id": "f2d910279ac2d108bccc7a8b5e70c1fe", "type": "electric_scooter", "is_reserved": 0, "lon": -77.0260815}, {"fusion_lat": 0.0, "name": "37e1f32050e3340a3ae628fa411d006d", "is_disabled": 0, "rental_uris": {"android": "https://dc.lft.to/lastmile_qr_scan", "ios": "https://dc.lft.to/lastmile_qr_scan"}, "fusion_lon": 0.0, "lat": 38.95239883333333, "bike_id": "37e1f32050e3340a3ae628fa411d006d", "type": "electric_bike", "is_reserved": 0, "lon": -76.9795525}, {"fusion_lat": 0.0, "name": "be6b191d4699b1d82e6d095cd8c303bd", "is_disabled": 0, "rental_uris": {"android": "https://dc.lft.to/lastmile_qr_scan", "ios": "https://dc.lft.to/lastmile_qr_scan"}, "fusion_lon": 0.0, "lat": 38.916340166666664, "bike_id": "be6b191d4699b1d82e6d095cd8c303bd", "type": "electric_scooter", "is_reserved": 0, "lon": -77.02974133333333}, {"fusion_lat": 0.0, "name": "e74db9432bbdc15b02ca5c3bfcd73c15", "is_disabled": 0, "rental_uris": {"android": "https://dc.lft.to/lastmile_qr_scan", "ios": "https://dc.lft.to/lastmile_qr_scan"}, "fusion_lon": 0.0, "lat": 38.880160333333336, "bike_id": "e74db9432bbdc15b02ca5c3bfcd73c15", "type": "electric_scooter", "is_reserved": 0, "lon": -76.98072466666666}, {"fusion_lat": 0.0, "name": "7734eb6a66928a8d6e1f1d06c7298323", "is_disabled": 0, "rental_uris": {"android": "https://dc.lft.to/lastmile_qr_scan", "ios": "https://dc.lft.to/lastmile_qr_scan"}, "fusion_lon": 0.0, "lat": 38.90239666666667, "bike_id": "7734eb6a66928a8d6e1f1d06c7298323", "type": "electric_scooter", "is_reserved": 0, "lon": -77.002022}, {"fusion_lat": 0.0, "name": "fcc99ca5a83c67a4c2dc6c95998c1d96", "is_disabled": 0, "rental_uris": {"android": "https://dc.lft.to/lastmile_qr_scan", "ios": "https://dc.lft.to/lastmile_qr_scan"}, "fusion_lon": 0.0, "lat": 38.9168555, "bike_id": "fcc99ca5a83c67a4c2dc6c95998c1d96", "type": "electric_scooter", "is_reserved": 0, "lon": -77.03750033333333}, {"fusion_lat": 0.0, "name": "aa0b985847b1741e7fe375e2cfb45e71", "is_disabled": 0, "rental_uris": {"android": "https://dc.lft.to/lastmile_qr_scan", "ios": "https://dc.lft.to/lastmile_qr_scan"}, "fusion_lon": 0.0, "lat": 38.906527833333335, "bike_id": "aa0b985847b1741e7fe375e2cfb45e71", "type": "electric_scooter", "is_reserved": 0, "lon": -77.02215133333333}, {"fusion_lat": 0.0, "name": "c8482c52f476dbddd8db90818780a4a1", "is_disabled": 0, "rental_uris": {"android": "https://dc.lft.to/lastmile_qr_scan", "ios": "https://dc.lft.to/lastmile_qr_scan"}, "fusion_lon": 0.0, "lat": 38.917510166666666, "bike_id": "c8482c52f476dbddd8db90818780a4a1", "type": "electric_scooter", "is_reserved": 0, "lon": -77.06939266666667}, {"fusion_lat": 0.0, "name": "be4dc84e9f836ceb19d40df0e7254d43", "is_disabled": 0, "rental_uris": {"android": "https://dc.lft.to/lastmile_qr_scan", "ios": "https://dc.lft.to/lastmile_qr_scan"}, "fusion_lon": 0.0, "lat": 38.9111775, "bike_id": "be4dc84e9f836ceb19d40df0e7254d43", "type": "electric_scooter", "is_reserved": 0, "lon": -77.01883383333333}, {"fusion_lat": 0.0, "name": "6f72427ba42f2507f119cb10fb6516a2", "is_disabled": 0, "rental_uris": {"android": "https://dc.lft.to/lastmile_qr_scan", "ios": "https://dc.lft.to/lastmile_qr_scan"}, "fusion_lon": 0.0, "lat": 38.931178, "bike_id": "6f72427ba42f2507f119cb10fb6516a2", "type": "electric_scooter", "is_reserved": 0, "lon": -77.02088166666667}, {"fusion_lat": 0.0, "name": "4894a024f509ed0f760b2708eaac8025", "is_disabled": 0, "rental_uris": {"android": "https://dc.lft.to/lastmile_qr_scan", "ios": "https://dc.lft.to/lastmile_qr_scan"}, "fusion_lon": 0.0, "lat": 38.885195333333336, "bike_id": "4894a024f509ed0f760b2708eaac8025", "type": "electric_scooter", "is_reserved": 0, "lon": -76.97711416666667}, {"fusion_lat": 0.0, "name": "133c16071b621e7caca6e7acea1bce8c", "is_disabled": 0, "rental_uris": {"android": "https://dc.lft.to/lastmile_qr_scan", "ios": "https://dc.lft.to/lastmile_qr_scan"}, "fusion_lon": 0.0, "lat": 38.827955833333334, "bike_id": "133c16071b621e7caca6e7acea1bce8c", "type": "electric_bike", "is_reserved": 0, "lon": -77.12490433333333}, {"fusion_lat": 0.0, "name": "6e2abd65d1879fbd7329e2b5c5675d9e", "is_disabled": 0, "rental_uris": {"android": "https://dc.lft.to/lastmile_qr_scan", "ios": "https://dc.lft.to/lastmile_qr_scan"}, "fusion_lon": 0.0, "lat": 38.9062345, "bike_id": "6e2abd65d1879fbd7329e2b5c5675d9e", "type": "electric_scooter", "is_reserved": 0, "lon": -77.02608416666666}, {"fusion_lat": 0.0, "name": "84314ed3858ae1335d442004e47cc52d", "is_disabled": 0, "rental_uris": {"android": "https://dc.lft.to/lastmile_qr_scan", "ios": "https://dc.lft.to/lastmile_qr_scan"}, "fusion_lon": 0.0, "lat": 38.892207666666664, "bike_id": "84314ed3858ae1335d442004e47cc52d", "type": "electric_scooter", "is_reserved": 0, "lon": -77.02658583333333}, {"fusion_lat": 0.0, "name": "f30e455dbf6257893f0be06503dbc0b3", "is_disabled": 0, "rental_uris": {"android": "https://dc.lft.to/lastmile_qr_scan", "ios": "https://dc.lft.to/lastmile_qr_scan"}, "fusion_lon": 0.0, "lat": 38.8974325, "bike_id": "f30e455dbf6257893f0be06503dbc0b3", "type": "electric_scooter", "is_reserved": 0, "lon": -77.00369133333334}, {"fusion_lat": 0.0, "name": "38d5435f1d474180d60c28ce04a16be2", "is_disabled": 0, "rental_uris": {"android": "https://dc.lft.to/lastmile_qr_scan", "ios": "https://dc.lft.to/lastmile_qr_scan"}, "fusion_lon": 0.0, "lat": 38.911231666666666, "bike_id": "38d5435f1d474180d60c28ce04a16be2", "type": "electric_scooter", "is_reserved": 0, "lon": -77.08133716666667}, {"fusion_lat": 0.0, "name": "b4752d2e77c6bb073ad9247bfee40be6", "is_disabled": 0, "rental_uris": {"android": "https://dc.lft.to/lastmile_qr_scan", "ios": "https://dc.lft.to/lastmile_qr_scan"}, "fusion_lon": 0.0, "lat": 38.939552, "bike_id": "b4752d2e77c6bb073ad9247bfee40be6", "type": "electric_scooter", "is_reserved": 0, "lon": -77.03291316666666}, {"fusion_lat": 0.0, "name": "ddd218182863429c45b5f25f34157f59", "is_disabled": 0, "rental_uris": {"android": "https://dc.lft.to/lastmile_qr_scan", "ios": "https://dc.lft.to/lastmile_qr_scan"}, "fusion_lon": 0.0, "lat": 38.913234, "bike_id": "ddd218182863429c45b5f25f34157f59", "type": "electric_scooter", "is_reserved": 0, "lon": -77.019718}, {"fusion_lat": 0.0, "name": "0ceaddead1226bb4b40ce8f0558e9aed", "is_disabled": 0, "rental_uris": {"android": "https://dc.lft.to/lastmile_qr_scan", "ios": "https://dc.lft.to/lastmile_qr_scan"}, "fusion_lon": 0.0, "lat": 38.922480666666665, "bike_id": "0ceaddead1226bb4b40ce8f0558e9aed", "type": "electric_scooter", "is_reserved": 0, "lon": -77.04253616666666}, {"fusion_lat": 0.0, "name": "5a43e271a71c5cda7756e1f5f40074bf", "is_disabled": 0, "rental_uris": {"android": "https://dc.lft.to/lastmile_qr_scan", "ios": "https://dc.lft.to/lastmile_qr_scan"}, "fusion_lon": 0.0, "lat": 38.873963, "bike_id": "5a43e271a71c5cda7756e1f5f40074bf", "type": "electric_scooter", "is_reserved": 0, "lon": -77.01454766666667}, {"fusion_lat": 0.0, "name": "b7696e4a75ac1b8b6690152fa694e7d4", "is_disabled": 0, "rental_uris": {"android": "https://dc.lft.to/lastmile_qr_scan", "ios": "https://dc.lft.to/lastmile_qr_scan"}, "fusion_lon": 0.0, "lat": 38.887665, "bike_id": "b7696e4a75ac1b8b6690152fa694e7d4", "type": "electric_scooter", "is_reserved": 0, "lon": -77.0130475}, {"fusion_lat": 0.0, "name": "51e0e97f38cc37ef3e42940350e17483", "is_disabled": 0, "rental_uris": {"android": "https://dc.lft.to/lastmile_qr_scan", "ios": "https://dc.lft.to/lastmile_qr_scan"}, "fusion_lon": 0.0, "lat": 38.9012995, "bike_id": "51e0e97f38cc37ef3e42940350e17483", "type": "electric_scooter", "is_reserved": 0, "lon": -77.0418565}, {"fusion_lat": 0.0, "name": "502923a1955eb0b7085156496a99bd07", "is_disabled": 0, "rental_uris": {"android": "https://dc.lft.to/lastmile_qr_scan", "ios": "https://dc.lft.to/lastmile_qr_scan"}, "fusion_lon": 0.0, "lat": 38.91753816666667, "bike_id": "502923a1955eb0b7085156496a99bd07", "type": "electric_scooter", "is_reserved": 0, "lon": -77.012163}, {"fusion_lat": 0.0, "name": "1d6b23c36030fcef0f65fa430236a6a9", "is_disabled": 0, "rental_uris": {"android": "https://dc.lft.to/lastmile_qr_scan", "ios": "https://dc.lft.to/lastmile_qr_scan"}, "fusion_lon": 0.0, "lat": 38.909678166666666, "bike_id": "1d6b23c36030fcef0f65fa430236a6a9", "type": "electric_scooter", "is_reserved": 0, "lon": -77.04842766666667}, {"fusion_lat": 0.0, "name": "781f3990019f564ab8da66deca9f87a6", "is_disabled": 0, "rental_uris": {"android": "https://dc.lft.to/lastmile_qr_scan", "ios": "https://dc.lft.to/lastmile_qr_scan"}, "fusion_lon": 0.0, "lat": 38.8932485, "bike_id": "781f3990019f564ab8da66deca9f87a6", "type": "electric_bike", "is_reserved": 0, "lon": -76.95125033333333}, {"fusion_lat": 0.0, "name": "8afc66e409135903c85d892f56ac23c5", "is_disabled": 0, "rental_uris": {"android": "https://dc.lft.to/lastmile_qr_scan", "ios": "https://dc.lft.to/lastmile_qr_scan"}, "fusion_lon": 0.0, "lat": 38.973648833333336, "bike_id": "8afc66e409135903c85d892f56ac23c5", "type": "electric_scooter", "is_reserved": 0, "lon": -77.012943}, {"fusion_lat": 0.0, "name": "7b481d3bb5668decaf66689cab85e756", "is_disabled": 0, "rental_uris": {"android": "https://dc.lft.to/lastmile_qr_scan", "ios": "https://dc.lft.to/lastmile_qr_scan"}, "fusion_lon": 0.0, "lat": 38.9234335, "bike_id": "7b481d3bb5668decaf66689cab85e756", "type": "electric_scooter", "is_reserved": 0, "lon": -77.051766}, {"fusion_lat": 0.0, "name": "e391cecb0f64fbd5930b661d9e38ecf3", "is_disabled": 0, "rental_uris": {"android": "https://dc.lft.to/lastmile_qr_scan", "ios": "https://dc.lft.to/lastmile_qr_scan"}, "fusion_lon": 0.0, "lat": 38.912148333333334, "bike_id": "e391cecb0f64fbd5930b661d9e38ecf3", "type": "electric_scooter", "is_reserved": 0, "lon": -77.03188433333334}, {"fusion_lat": 0.0, "name": "344267e4bd266ba521c54ba341518adc", "is_disabled": 0, "rental_uris": {"android": "https://dc.lft.to/lastmile_qr_scan", "ios": "https://dc.lft.to/lastmile_qr_scan"}, "fusion_lon": 0.0, "lat": 38.90310016666667, "bike_id": "344267e4bd266ba521c54ba341518adc", "type": "electric_scooter", "is_reserved": 0, "lon": -76.97805166666667}, {"fusion_lat": 0.0, "name": "a55268bd84158551ee56e300cb795600", "is_disabled": 0, "rental_uris": {"android": "https://dc.lft.to/lastmile_qr_scan", "ios": "https://dc.lft.to/lastmile_qr_scan"}, "fusion_lon": 0.0, "lat": 38.91099583333333, "bike_id": "a55268bd84158551ee56e300cb795600", "type": "electric_scooter", "is_reserved": 0, "lon": -77.04462133333334}, {"fusion_lat": 0.0, "name": "70f3ffab377f1f0c20b2e72695eb66b7", "is_disabled": 0, "rental_uris": {"android": "https://dc.lft.to/lastmile_qr_scan", "ios": "https://dc.lft.to/lastmile_qr_scan"}, "fusion_lon": 0.0, "lat": 38.91845266666667, "bike_id": "70f3ffab377f1f0c20b2e72695eb66b7", "type": "electric_scooter", "is_reserved": 0, "lon": -77.06370616666666}, {"fusion_lat": 0.0, "name": "08285e7e65f305af37ee059e316d6d2c", "is_disabled": 0, "rental_uris": {"android": "https://dc.lft.to/lastmile_qr_scan", "ios": "https://dc.lft.to/lastmile_qr_scan"}, "fusion_lon": 0.0, "lat": 38.8840305, "bike_id": "08285e7e65f305af37ee059e316d6d2c", "type": "electric_scooter", "is_reserved": 0, "lon": -77.0083605}, {"fusion_lat": 0.0, "name": "6089a1e05b724e232263557960b454f6", "is_disabled": 0, "rental_uris": {"android": "https://dc.lft.to/lastmile_qr_scan", "ios": "https://dc.lft.to/lastmile_qr_scan"}, "fusion_lon": 0.0, "lat": 38.912776, "bike_id": "6089a1e05b724e232263557960b454f6", "type": "electric_scooter", "is_reserved": 0, "lon": -77.0366}, {"fusion_lat": 0.0, "name": "9ce257d4bcc1c5bc32b0e23517426867", "is_disabled": 0, "rental_uris": {"android": "https://dc.lft.to/lastmile_qr_scan", "ios": "https://dc.lft.to/lastmile_qr_scan"}, "fusion_lon": 0.0, "lat": 38.90393733333333, "bike_id": "9ce257d4bcc1c5bc32b0e23517426867", "type": "electric_scooter", "is_reserved": 0, "lon": -77.062976}, {"fusion_lat": 0.0, "name": "99b787fc1c2bb06872a4d191f04c084e", "is_disabled": 0, "rental_uris": {"android": "https://dc.lft.to/lastmile_qr_scan", "ios": "https://dc.lft.to/lastmile_qr_scan"}, "fusion_lon": 0.0, "lat": 38.894482333333336, "bike_id": "99b787fc1c2bb06872a4d191f04c084e", "type": "electric_scooter", "is_reserved": 0, "lon": -77.0271195}, {"fusion_lat": 0.0, "name": "39c5ab6ca2e7aeff2915b1e80a52b1ab", "is_disabled": 0, "rental_uris": {"android": "https://dc.lft.to/lastmile_qr_scan", "ios": "https://dc.lft.to/lastmile_qr_scan"}, "fusion_lon": 0.0, "lat": 38.922904333333335, "bike_id": "39c5ab6ca2e7aeff2915b1e80a52b1ab", "type": "electric_scooter", "is_reserved": 0, "lon": -77.02961016666667}, {"fusion_lat": 0.0, "name": "aec77bcfccacb688f5db94627e06441b", "is_disabled": 0, "rental_uris": {"android": "https://dc.lft.to/lastmile_qr_scan", "ios": "https://dc.lft.to/lastmile_qr_scan"}, "fusion_lon": 0.0, "lat": 38.90458433333333, "bike_id": "aec77bcfccacb688f5db94627e06441b", "type": "electric_scooter", "is_reserved": 0, "lon": -77.04873333333333}, {"fusion_lat": 0.0, "name": "50c31db6989fbd79c2da292295030156", "is_disabled": 0, "rental_uris": {"android": "https://dc.lft.to/lastmile_qr_scan", "ios": "https://dc.lft.to/lastmile_qr_scan"}, "fusion_lon": 0.0, "lat": 38.90354033333333, "bike_id": "50c31db6989fbd79c2da292295030156", "type": "electric_scooter", "is_reserved": 0, "lon": -76.97478616666666}, {"fusion_lat": 0.0, "name": "fb342e2c8491444cdb4a6974c3ce098d", "is_disabled": 0, "rental_uris": {"android": "https://dc.lft.to/lastmile_qr_scan", "ios": "https://dc.lft.to/lastmile_qr_scan"}, "fusion_lon": 0.0, "lat": 38.907397, "bike_id": "fb342e2c8491444cdb4a6974c3ce098d", "type": "electric_scooter", "is_reserved": 0, "lon": -77.041955}, {"fusion_lat": 0.0, "name": "0ab3fec6222356f1d59304a652157998", "is_disabled": 0, "rental_uris": {"android": "https://dc.lft.to/lastmile_qr_scan", "ios": "https://dc.lft.to/lastmile_qr_scan"}, "fusion_lon": 0.0, "lat": 38.9382815, "bike_id": "0ab3fec6222356f1d59304a652157998", "type": "electric_scooter", "is_reserved": 0, "lon": -76.991895}, {"fusion_lat": 0.0, "name": "4722b4982f39fad7eaf28da9244e250b", "is_disabled": 0, "rental_uris": {"android": "https://dc.lft.to/lastmile_qr_scan", "ios": "https://dc.lft.to/lastmile_qr_scan"}, "fusion_lon": 0.0, "lat": 38.90367066666666, "bike_id": "4722b4982f39fad7eaf28da9244e250b", "type": "electric_scooter", "is_reserved": 0, "lon": -77.0383385}, {"fusion_lat": 0.0, "name": "ca8d12a36c8f461230a6a270cffe0413", "is_disabled": 0, "rental_uris": {"android": "https://dc.lft.to/lastmile_qr_scan", "ios": "https://dc.lft.to/lastmile_qr_scan"}, "fusion_lon": 0.0, "lat": 38.9172755, "bike_id": "ca8d12a36c8f461230a6a270cffe0413", "type": "electric_scooter", "is_reserved": 0, "lon": -77.02698333333333}, {"fusion_lat": 0.0, "name": "904dc3ba9024e7873a05441986a98166", "is_disabled": 0, "rental_uris": {"android": "https://dc.lft.to/lastmile_qr_scan", "ios": "https://dc.lft.to/lastmile_qr_scan"}, "fusion_lon": 0.0, "lat": 38.90783016666666, "bike_id": "904dc3ba9024e7873a05441986a98166", "type": "electric_scooter", "is_reserved": 0, "lon": -77.03529733333333}, {"fusion_lat": 0.0, "name": "8f7f523764c7ab976269fd7068eff885", "is_disabled": 0, "rental_uris": {"android": "https://dc.lft.to/lastmile_qr_scan", "ios": "https://dc.lft.to/lastmile_qr_scan"}, "fusion_lon": 0.0, "lat": 38.904650833333335, "bike_id": "8f7f523764c7ab976269fd7068eff885", "type": "electric_scooter", "is_reserved": 0, "lon": -77.025997}, {"fusion_lat": 0.0, "name": "c8c0b6fd28385196295286a2c3687fdf", "is_disabled": 0, "rental_uris": {"android": "https://dc.lft.to/lastmile_qr_scan", "ios": "https://dc.lft.to/lastmile_qr_scan"}, "fusion_lon": 0.0, "lat": 38.93556616666667, "bike_id": "c8c0b6fd28385196295286a2c3687fdf", "type": "electric_bike", "is_reserved": 0, "lon": -77.03700816666667}, {"fusion_lat": 0.0, "name": "0d5d49598f1bfe5bb5ea18afa843667c", "is_disabled": 0, "rental_uris": {"android": "https://dc.lft.to/lastmile_qr_scan", "ios": "https://dc.lft.to/lastmile_qr_scan"}, "fusion_lon": 0.0, "lat": 38.919388, "bike_id": "0d5d49598f1bfe5bb5ea18afa843667c", "type": "electric_bike", "is_reserved": 0, "lon": -77.221345}, {"fusion_lat": 0.0, "name": "1e63d6b83df8c69815c136eaed110408", "is_disabled": 0, "rental_uris": {"android": "https://dc.lft.to/lastmile_qr_scan", "ios": "https://dc.lft.to/lastmile_qr_scan"}, "fusion_lon": 0.0, "lat": 38.911045333333334, "bike_id": "1e63d6b83df8c69815c136eaed110408", "type": "electric_scooter", "is_reserved": 0, "lon": -77.002119}, {"fusion_lat": 0.0, "name": "1ea029b944845314a95dbe242f0e39cc", "is_disabled": 0, "rental_uris": {"android": "https://dc.lft.to/lastmile_qr_scan", "ios": "https://dc.lft.to/lastmile_qr_scan"}, "fusion_lon": 0.0, "lat": 38.91750666666667, "bike_id": "1ea029b944845314a95dbe242f0e39cc", "type": "electric_scooter", "is_reserved": 0, "lon": -77.06937883333333}, {"fusion_lat": 0.0, "name": "b04b66793c24b46305cb414811676df4", "is_disabled": 0, "rental_uris": {"android": "https://dc.lft.to/lastmile_qr_scan", "ios": "https://dc.lft.to/lastmile_qr_scan"}, "fusion_lon": 0.0, "lat": 38.909122833333335, "bike_id": "b04b66793c24b46305cb414811676df4", "type": "electric_scooter", "is_reserved": 0, "lon": -77.04212783333334}, {"fusion_lat": 0.0, "name": "ef618879f4a78dc77c983e60f6b2d83a", "is_disabled": 0, "rental_uris": {"android": "https://dc.lft.to/lastmile_qr_scan", "ios": "https://dc.lft.to/lastmile_qr_scan"}, "fusion_lon": 0.0, "lat": 38.87729316666667, "bike_id": "ef618879f4a78dc77c983e60f6b2d83a", "type": "electric_scooter", "is_reserved": 0, "lon": -77.0060285}, {"fusion_lat": 0.0, "name": "113448d03633cbf41c3b1db95294331f", "is_disabled": 0, "rental_uris": {"android": "https://dc.lft.to/lastmile_qr_scan", "ios": "https://dc.lft.to/lastmile_qr_scan"}, "fusion_lon": 0.0, "lat": 38.916112, "bike_id": "113448d03633cbf41c3b1db95294331f", "type": "electric_scooter", "is_reserved": 0, "lon": -77.0239965}, {"fusion_lat": 0.0, "name": "3f7e8a57e020f76af331456aeabb3fb0", "is_disabled": 0, "rental_uris": {"android": "https://dc.lft.to/lastmile_qr_scan", "ios": "https://dc.lft.to/lastmile_qr_scan"}, "fusion_lon": 0.0, "lat": 38.90095916666667, "bike_id": "3f7e8a57e020f76af331456aeabb3fb0", "type": "electric_scooter", "is_reserved": 0, "lon": -77.04753083333334}, {"fusion_lat": 0.0, "name": "8d04d3b4f9afabc78fbe4bd4cefaa0d6", "is_disabled": 0, "rental_uris": {"android": "https://dc.lft.to/lastmile_qr_scan", "ios": "https://dc.lft.to/lastmile_qr_scan"}, "fusion_lon": 0.0, "lat": 38.88990233333333, "bike_id": "8d04d3b4f9afabc78fbe4bd4cefaa0d6", "type": "electric_bike", "is_reserved": 0, "lon": -77.07133316666666}, {"fusion_lat": 0.0, "name": "c9d4c3fd4f860066835324b0fae4b2a7", "is_disabled": 0, "rental_uris": {"android": "https://dc.lft.to/lastmile_qr_scan", "ios": "https://dc.lft.to/lastmile_qr_scan"}, "fusion_lon": 0.0, "lat": 38.8934925, "bike_id": "c9d4c3fd4f860066835324b0fae4b2a7", "type": "electric_scooter", "is_reserved": 0, "lon": -77.0396815}, {"fusion_lat": 0.0, "name": "91d14eddd15b18b3256d2a87b5caf13f", "is_disabled": 0, "rental_uris": {"android": "https://dc.lft.to/lastmile_qr_scan", "ios": "https://dc.lft.to/lastmile_qr_scan"}, "fusion_lon": 0.0, "lat": 38.90724266666667, "bike_id": "91d14eddd15b18b3256d2a87b5caf13f", "type": "electric_scooter", "is_reserved": 0, "lon": -77.0434}, {"fusion_lat": 0.0, "name": "2025169317a9e65270856b4d736bd460", "is_disabled": 0, "rental_uris": {"android": "https://dc.lft.to/lastmile_qr_scan", "ios": "https://dc.lft.to/lastmile_qr_scan"}, "fusion_lon": 0.0, "lat": 38.907304, "bike_id": "2025169317a9e65270856b4d736bd460", "type": "electric_scooter", "is_reserved": 0, "lon": -77.043443}, {"fusion_lat": 0.0, "name": "927839f715c37eb9dd92838984bebe32", "is_disabled": 0, "rental_uris": {"android": "https://dc.lft.to/lastmile_qr_scan", "ios": "https://dc.lft.to/lastmile_qr_scan"}, "fusion_lon": 0.0, "lat": 38.92087866666667, "bike_id": "927839f715c37eb9dd92838984bebe32", "type": "electric_scooter", "is_reserved": 0, "lon": -77.0240975}, {"fusion_lat": 0.0, "name": "edd7f12821f6db062ad1fc5b8cc341a8", "is_disabled": 0, "rental_uris": {"android": "https://dc.lft.to/lastmile_qr_scan", "ios": "https://dc.lft.to/lastmile_qr_scan"}, "fusion_lon": 0.0, "lat": 38.90759583333333, "bike_id": "edd7f12821f6db062ad1fc5b8cc341a8", "type": "electric_scooter", "is_reserved": 0, "lon": -77.035929}, {"fusion_lat": 0.0, "name": "ddd03a97d18ede97e4234a5e5ef36da5", "is_disabled": 0, "rental_uris": {"android": "https://dc.lft.to/lastmile_qr_scan", "ios": "https://dc.lft.to/lastmile_qr_scan"}, "fusion_lon": 0.0, "lat": 38.930622166666666, "bike_id": "ddd03a97d18ede97e4234a5e5ef36da5", "type": "electric_scooter", "is_reserved": 0, "lon": -77.032155}, {"fusion_lat": 0.0, "name": "f3c836db2ea794163b9c9e9894ed0798", "is_disabled": 0, "rental_uris": {"android": "https://dc.lft.to/lastmile_qr_scan", "ios": "https://dc.lft.to/lastmile_qr_scan"}, "fusion_lon": 0.0, "lat": 38.9235695, "bike_id": "f3c836db2ea794163b9c9e9894ed0798", "type": "electric_scooter", "is_reserved": 0, "lon": -77.04157566666666}, {"fusion_lat": 0.0, "name": "8734c71a1ec509733c50da0dab74ba72", "is_disabled": 0, "rental_uris": {"android": "https://dc.lft.to/lastmile_qr_scan", "ios": "https://dc.lft.to/lastmile_qr_scan"}, "fusion_lon": 0.0, "lat": 38.91531333333333, "bike_id": "8734c71a1ec509733c50da0dab74ba72", "type": "electric_scooter", "is_reserved": 0, "lon": -77.07478233333333}, {"fusion_lat": 0.0, "name": "a4595b5c8cfe20ec57108bd0beca983b", "is_disabled": 0, "rental_uris": {"android": "https://dc.lft.to/lastmile_qr_scan", "ios": "https://dc.lft.to/lastmile_qr_scan"}, "fusion_lon": 0.0, "lat": 38.919783833333334, "bike_id": "a4595b5c8cfe20ec57108bd0beca983b", "type": "electric_scooter", "is_reserved": 0, "lon": -77.02417483333333}, {"fusion_lat": 0.0, "name": "9ff5c8c6a701facd58d45939ae0d5502", "is_disabled": 0, "rental_uris": {"android": "https://dc.lft.to/lastmile_qr_scan", "ios": "https://dc.lft.to/lastmile_qr_scan"}, "fusion_lon": 0.0, "lat": 38.9024675, "bike_id": "9ff5c8c6a701facd58d45939ae0d5502", "type": "electric_scooter", "is_reserved": 0, "lon": -77.017774}, {"fusion_lat": 0.0, "name": "1ff1e6922233d61a9fd7b6e74c9f7685", "is_disabled": 0, "rental_uris": {"android": "https://dc.lft.to/lastmile_qr_scan", "ios": "https://dc.lft.to/lastmile_qr_scan"}, "fusion_lon": 0.0, "lat": 38.92033333333333, "bike_id": "1ff1e6922233d61a9fd7b6e74c9f7685", "type": "electric_scooter", "is_reserved": 0, "lon": -77.07143716666667}, {"fusion_lat": 0.0, "name": "acb17844d48a7901066bc0054f0a5ed5", "is_disabled": 0, "rental_uris": {"android": "https://dc.lft.to/lastmile_qr_scan", "ios": "https://dc.lft.to/lastmile_qr_scan"}, "fusion_lon": 0.0, "lat": 38.9236245, "bike_id": "acb17844d48a7901066bc0054f0a5ed5", "type": "electric_scooter", "is_reserved": 0, "lon": -77.03369683333334}, {"fusion_lat": 0.0, "name": "88e9bfbc66e285280cfcc5c308e9485e", "is_disabled": 0, "rental_uris": {"android": "https://dc.lft.to/lastmile_qr_scan", "ios": "https://dc.lft.to/lastmile_qr_scan"}, "fusion_lon": 0.0, "lat": 38.997758166666664, "bike_id": "88e9bfbc66e285280cfcc5c308e9485e", "type": "electric_bike", "is_reserved": 0, "lon": -77.04721166666667}, {"fusion_lat": 0.0, "name": "6d7f74dd01569dadfef875d44c97f80b", "is_disabled": 0, "rental_uris": {"android": "https://dc.lft.to/lastmile_qr_scan", "ios": "https://dc.lft.to/lastmile_qr_scan"}, "fusion_lon": 0.0, "lat": 38.90952016666667, "bike_id": "6d7f74dd01569dadfef875d44c97f80b", "type": "electric_scooter", "is_reserved": 0, "lon": -76.98538933333333}, {"fusion_lat": 0.0, "name": "b2356c8bd533b052b165eda7dd701b96", "is_disabled": 0, "rental_uris": {"android": "https://dc.lft.to/lastmile_qr_scan", "ios": "https://dc.lft.to/lastmile_qr_scan"}, "fusion_lon": 0.0, "lat": 38.90074516666667, "bike_id": "b2356c8bd533b052b165eda7dd701b96", "type": "electric_scooter", "is_reserved": 0, "lon": -77.04784216666667}, {"fusion_lat": 0.0, "name": "1da5406990964314f611d3ef8ab5d238", "is_disabled": 0, "rental_uris": {"android": "https://dc.lft.to/lastmile_qr_scan", "ios": "https://dc.lft.to/lastmile_qr_scan"}, "fusion_lon": 0.0, "lat": 38.90382, "bike_id": "1da5406990964314f611d3ef8ab5d238", "type": "electric_scooter", "is_reserved": 0, "lon": -77.04823483333334}, {"fusion_lat": 0.0, "name": "51ca322ffd70dda52a10be5050386a91", "is_disabled": 0, "rental_uris": {"android": "https://dc.lft.to/lastmile_qr_scan", "ios": "https://dc.lft.to/lastmile_qr_scan"}, "fusion_lon": 0.0, "lat": 38.90586483333333, "bike_id": "51ca322ffd70dda52a10be5050386a91", "type": "electric_scooter", "is_reserved": 0, "lon": -77.00637183333333}, {"fusion_lat": 0.0, "name": "c628e1008c3beaeab7fd0b09ff07acc5", "is_disabled": 0, "rental_uris": {"android": "https://dc.lft.to/lastmile_qr_scan", "ios": "https://dc.lft.to/lastmile_qr_scan"}, "fusion_lon": 0.0, "lat": 38.90571633333333, "bike_id": "c628e1008c3beaeab7fd0b09ff07acc5", "type": "electric_scooter", "is_reserved": 0, "lon": -77.0455635}, {"fusion_lat": 0.0, "name": "8169c6ea9f18e434cfd27644106fb172", "is_disabled": 0, "rental_uris": {"android": "https://dc.lft.to/lastmile_qr_scan", "ios": "https://dc.lft.to/lastmile_qr_scan"}, "fusion_lon": 0.0, "lat": 38.93702033333334, "bike_id": "8169c6ea9f18e434cfd27644106fb172", "type": "electric_scooter", "is_reserved": 0, "lon": -77.03284983333333}, {"fusion_lat": 0.0, "name": "a0bfb2c8367a9f30a80a0c08ee314682", "is_disabled": 0, "rental_uris": {"android": "https://dc.lft.to/lastmile_qr_scan", "ios": "https://dc.lft.to/lastmile_qr_scan"}, "fusion_lon": 0.0, "lat": 38.92530333333333, "bike_id": "a0bfb2c8367a9f30a80a0c08ee314682", "type": "electric_scooter", "is_reserved": 0, "lon": -77.0524645}, {"fusion_lat": 0.0, "name": "e05bf3e4f52225c90607925dbd9c4546", "is_disabled": 0, "rental_uris": {"android": "https://dc.lft.to/lastmile_qr_scan", "ios": "https://dc.lft.to/lastmile_qr_scan"}, "fusion_lon": 0.0, "lat": 38.917085, "bike_id": "e05bf3e4f52225c90607925dbd9c4546", "type": "electric_scooter", "is_reserved": 0, "lon": -77.04129333333333}, {"fusion_lat": 0.0, "name": "b4ff9a2f42e7644a6cc356e66322bb59", "is_disabled": 0, "rental_uris": {"android": "https://dc.lft.to/lastmile_qr_scan", "ios": "https://dc.lft.to/lastmile_qr_scan"}, "fusion_lon": 0.0, "lat": 38.917389, "bike_id": "b4ff9a2f42e7644a6cc356e66322bb59", "type": "electric_scooter", "is_reserved": 0, "lon": -77.031983}, {"fusion_lat": 0.0, "name": "b78bc56d1ae73a1e5d5465dedd85e693", "is_disabled": 0, "rental_uris": {"android": "https://dc.lft.to/lastmile_qr_scan", "ios": "https://dc.lft.to/lastmile_qr_scan"}, "fusion_lon": 0.0, "lat": 38.941853333333334, "bike_id": "b78bc56d1ae73a1e5d5465dedd85e693", "type": "electric_scooter", "is_reserved": 0, "lon": -77.02487516666666}, {"fusion_lat": 0.0, "name": "8b1d8be220bca23ed7c70ea79f977b47", "is_disabled": 0, "rental_uris": {"android": "https://dc.lft.to/lastmile_qr_scan", "ios": "https://dc.lft.to/lastmile_qr_scan"}, "fusion_lon": 0.0, "lat": 38.903045166666665, "bike_id": "8b1d8be220bca23ed7c70ea79f977b47", "type": "electric_scooter", "is_reserved": 0, "lon": -76.97653983333333}, {"fusion_lat": 0.0, "name": "6388684b3dcdf0dfd3fc3f7676b552ed", "is_disabled": 0, "rental_uris": {"android": "https://dc.lft.to/lastmile_qr_scan", "ios": "https://dc.lft.to/lastmile_qr_scan"}, "fusion_lon": 0.0, "lat": 38.902491833333336, "bike_id": "6388684b3dcdf0dfd3fc3f7676b552ed", "type": "electric_scooter", "is_reserved": 0, "lon": -77.06132866666667}, {"fusion_lat": 0.0, "name": "d016ce59d7e8d67544dbb4bb95612898", "is_disabled": 0, "rental_uris": {"android": "https://dc.lft.to/lastmile_qr_scan", "ios": "https://dc.lft.to/lastmile_qr_scan"}, "fusion_lon": 0.0, "lat": 38.9286255, "bike_id": "d016ce59d7e8d67544dbb4bb95612898", "type": "electric_scooter", "is_reserved": 0, "lon": -77.03039316666667}, {"fusion_lat": 0.0, "name": "6b392d22f0d9e0431ce6cb3cefdb85e8", "is_disabled": 0, "rental_uris": {"android": "https://dc.lft.to/lastmile_qr_scan", "ios": "https://dc.lft.to/lastmile_qr_scan"}, "fusion_lon": 0.0, "lat": 38.9248645, "bike_id": "6b392d22f0d9e0431ce6cb3cefdb85e8", "type": "electric_scooter", "is_reserved": 0, "lon": -77.02548483333334}, {"fusion_lat": 0.0, "name": "9eb4b89786d3728d72c7b24c426ae955", "is_disabled": 0, "rental_uris": {"android": "https://dc.lft.to/lastmile_qr_scan", "ios": "https://dc.lft.to/lastmile_qr_scan"}, "fusion_lon": 0.0, "lat": 38.9082705, "bike_id": "9eb4b89786d3728d72c7b24c426ae955", "type": "electric_scooter", "is_reserved": 0, "lon": -77.03859333333334}, {"fusion_lat": 0.0, "name": "e66c5dfac044b9974e21f3cd3f688232", "is_disabled": 0, "rental_uris": {"android": "https://dc.lft.to/lastmile_qr_scan", "ios": "https://dc.lft.to/lastmile_qr_scan"}, "fusion_lon": 0.0, "lat": 38.994439666666665, "bike_id": "e66c5dfac044b9974e21f3cd3f688232", "type": "electric_bike", "is_reserved": 0, "lon": -76.99589633333333}, {"fusion_lat": 0.0, "name": "8f3abaf4e69b913c20d6eb4d17cba457", "is_disabled": 0, "rental_uris": {"android": "https://dc.lft.to/lastmile_qr_scan", "ios": "https://dc.lft.to/lastmile_qr_scan"}, "fusion_lon": 0.0, "lat": 38.8933525, "bike_id": "8f3abaf4e69b913c20d6eb4d17cba457", "type": "electric_scooter", "is_reserved": 0, "lon": -76.94379833333333}, {"fusion_lat": 0.0, "name": "f6c8248e3463accbae668e000ec8e73f", "is_disabled": 0, "rental_uris": {"android": "https://dc.lft.to/lastmile_qr_scan", "ios": "https://dc.lft.to/lastmile_qr_scan"}, "fusion_lon": 0.0, "lat": 38.919901, "bike_id": "f6c8248e3463accbae668e000ec8e73f", "type": "electric_scooter", "is_reserved": 0, "lon": -77.0218645}, {"fusion_lat": 0.0, "name": "a8200289e062c564ce617862cac02e82", "is_disabled": 0, "rental_uris": {"android": "https://dc.lft.to/lastmile_qr_scan", "ios": "https://dc.lft.to/lastmile_qr_scan"}, "fusion_lon": 0.0, "lat": 38.93350433333333, "bike_id": "a8200289e062c564ce617862cac02e82", "type": "electric_scooter", "is_reserved": 0, "lon": -77.0722125}, {"fusion_lat": 0.0, "name": "fffcb15d88278d6a8b549d8e7a3d66f3", "is_disabled": 0, "rental_uris": {"android": "https://dc.lft.to/lastmile_qr_scan", "ios": "https://dc.lft.to/lastmile_qr_scan"}, "fusion_lon": 0.0, "lat": 38.93100033333333, "bike_id": "fffcb15d88278d6a8b549d8e7a3d66f3", "type": "electric_scooter", "is_reserved": 0, "lon": -77.0247905}, {"fusion_lat": 0.0, "name": "66a62a6b4b4f4caf94d292855ecb2197", "is_disabled": 0, "rental_uris": {"android": "https://dc.lft.to/lastmile_qr_scan", "ios": "https://dc.lft.to/lastmile_qr_scan"}, "fusion_lon": 0.0, "lat": 38.93111283333333, "bike_id": "66a62a6b4b4f4caf94d292855ecb2197", "type": "electric_scooter", "is_reserved": 0, "lon": -77.02972483333333}, {"fusion_lat": 0.0, "name": "bf334929d2bef00d8640b9492083544a", "is_disabled": 0, "rental_uris": {"android": "https://dc.lft.to/lastmile_qr_scan", "ios": "https://dc.lft.to/lastmile_qr_scan"}, "fusion_lon": 0.0, "lat": 38.905923666666666, "bike_id": "bf334929d2bef00d8640b9492083544a", "type": "electric_scooter", "is_reserved": 0, "lon": -77.0029005}, {"fusion_lat": 0.0, "name": "6e8f74b61948ea6e0533ca16135b3a52", "is_disabled": 0, "rental_uris": {"android": "https://dc.lft.to/lastmile_qr_scan", "ios": "https://dc.lft.to/lastmile_qr_scan"}, "fusion_lon": 0.0, "lat": 38.90957, "bike_id": "6e8f74b61948ea6e0533ca16135b3a52", "type": "electric_scooter", "is_reserved": 0, "lon": -77.02381666666666}, {"fusion_lat": 0.0, "name": "4c805a3f8067022de09c706f77c97776", "is_disabled": 0, "rental_uris": {"android": "https://dc.lft.to/lastmile_qr_scan", "ios": "https://dc.lft.to/lastmile_qr_scan"}, "fusion_lon": 0.0, "lat": 38.88749633333333, "bike_id": "4c805a3f8067022de09c706f77c97776", "type": "electric_scooter", "is_reserved": 0, "lon": -77.02130316666667}, {"fusion_lat": 0.0, "name": "5265ed91fa235a54bf1a3b0cc0145425", "is_disabled": 0, "rental_uris": {"android": "https://dc.lft.to/lastmile_qr_scan", "ios": "https://dc.lft.to/lastmile_qr_scan"}, "fusion_lon": 0.0, "lat": 38.921257, "bike_id": "5265ed91fa235a54bf1a3b0cc0145425", "type": "electric_scooter", "is_reserved": 0, "lon": -77.044233}, {"fusion_lat": 0.0, "name": "7d639f93c70c44425716d4a9024d1c48", "is_disabled": 0, "rental_uris": {"android": "https://dc.lft.to/lastmile_qr_scan", "ios": "https://dc.lft.to/lastmile_qr_scan"}, "fusion_lon": 0.0, "lat": 38.89929216666667, "bike_id": "7d639f93c70c44425716d4a9024d1c48", "type": "electric_scooter", "is_reserved": 0, "lon": -77.02191016666667}, {"fusion_lat": 0.0, "name": "630cc536f122260fe70c43c884763ecb", "is_disabled": 0, "rental_uris": {"android": "https://dc.lft.to/lastmile_qr_scan", "ios": "https://dc.lft.to/lastmile_qr_scan"}, "fusion_lon": 0.0, "lat": 38.924511, "bike_id": "630cc536f122260fe70c43c884763ecb", "type": "electric_scooter", "is_reserved": 0, "lon": -77.039733}, {"fusion_lat": 0.0, "name": "fe2af71e070257198138b24760af2d96", "is_disabled": 0, "rental_uris": {"android": "https://dc.lft.to/lastmile_qr_scan", "ios": "https://dc.lft.to/lastmile_qr_scan"}, "fusion_lon": 0.0, "lat": 38.906915166666664, "bike_id": "fe2af71e070257198138b24760af2d96", "type": "electric_scooter", "is_reserved": 0, "lon": -77.07179533333333}, {"fusion_lat": 0.0, "name": "bf7b29bcdc488ae7dd17e656f21e671f", "is_disabled": 0, "rental_uris": {"android": "https://dc.lft.to/lastmile_qr_scan", "ios": "https://dc.lft.to/lastmile_qr_scan"}, "fusion_lon": 0.0, "lat": 38.9024235, "bike_id": "bf7b29bcdc488ae7dd17e656f21e671f", "type": "electric_scooter", "is_reserved": 0, "lon": -77.03355783333333}, {"fusion_lat": 0.0, "name": "d00f3a3b6d46028899136066dee164d5", "is_disabled": 0, "rental_uris": {"android": "https://dc.lft.to/lastmile_qr_scan", "ios": "https://dc.lft.to/lastmile_qr_scan"}, "fusion_lon": 0.0, "lat": 38.90090283333333, "bike_id": "d00f3a3b6d46028899136066dee164d5", "type": "electric_scooter", "is_reserved": 0, "lon": -77.05697933333333}, {"fusion_lat": 0.0, "name": "d22daac660883b83bcac093b1f6cb244", "is_disabled": 0, "rental_uris": {"android": "https://dc.lft.to/lastmile_qr_scan", "ios": "https://dc.lft.to/lastmile_qr_scan"}, "fusion_lon": 0.0, "lat": 38.88494433333334, "bike_id": "d22daac660883b83bcac093b1f6cb244", "type": "electric_scooter", "is_reserved": 0, "lon": -77.0089555}, {"fusion_lat": 0.0, "name": "0ff170dc2d9e04176501c1dfbba92c4b", "is_disabled": 0, "rental_uris": {"android": "https://dc.lft.to/lastmile_qr_scan", "ios": "https://dc.lft.to/lastmile_qr_scan"}, "fusion_lon": 0.0, "lat": 38.8984675, "bike_id": "0ff170dc2d9e04176501c1dfbba92c4b", "type": "electric_scooter", "is_reserved": 0, "lon": -77.02781883333333}, {"fusion_lat": 0.0, "name": "663a32842e22f7741bbcbb3f0c875126", "is_disabled": 0, "rental_uris": {"android": "https://dc.lft.to/lastmile_qr_scan", "ios": "https://dc.lft.to/lastmile_qr_scan"}, "fusion_lon": 0.0, "lat": 38.89669216666667, "bike_id": "663a32842e22f7741bbcbb3f0c875126", "type": "electric_scooter", "is_reserved": 0, "lon": -76.93211233333334}, {"fusion_lat": 0.0, "name": "51de49e92db43f65e3773631fc3e4709", "is_disabled": 0, "rental_uris": {"android": "https://dc.lft.to/lastmile_qr_scan", "ios": "https://dc.lft.to/lastmile_qr_scan"}, "fusion_lon": 0.0, "lat": 38.91104466666667, "bike_id": "51de49e92db43f65e3773631fc3e4709", "type": "electric_scooter", "is_reserved": 0, "lon": -77.04200833333333}, {"fusion_lat": 0.0, "name": "e8830858b4f2b3692cc0e95d165b6f8d", "is_disabled": 0, "rental_uris": {"android": "https://dc.lft.to/lastmile_qr_scan", "ios": "https://dc.lft.to/lastmile_qr_scan"}, "fusion_lon": 0.0, "lat": 38.92387183333334, "bike_id": "e8830858b4f2b3692cc0e95d165b6f8d", "type": "electric_scooter", "is_reserved": 0, "lon": -77.02738983333333}, {"fusion_lat": 0.0, "name": "9d5b1fe1da66318ac0d1f93b12b87410", "is_disabled": 0, "rental_uris": {"android": "https://dc.lft.to/lastmile_qr_scan", "ios": "https://dc.lft.to/lastmile_qr_scan"}, "fusion_lon": 0.0, "lat": 38.904317666666664, "bike_id": "9d5b1fe1da66318ac0d1f93b12b87410", "type": "electric_scooter", "is_reserved": 0, "lon": -76.98226633333333}, {"fusion_lat": 0.0, "name": "885a84cd2074b623023bca51a6aca254", "is_disabled": 0, "rental_uris": {"android": "https://dc.lft.to/lastmile_qr_scan", "ios": "https://dc.lft.to/lastmile_qr_scan"}, "fusion_lon": 0.0, "lat": 38.932576166666664, "bike_id": "885a84cd2074b623023bca51a6aca254", "type": "electric_scooter", "is_reserved": 0, "lon": -77.019222}, {"fusion_lat": 0.0, "name": "2b6b4600d0f6c7901f32047168a05e5d", "is_disabled": 0, "rental_uris": {"android": "https://dc.lft.to/lastmile_qr_scan", "ios": "https://dc.lft.to/lastmile_qr_scan"}, "fusion_lon": 0.0, "lat": 38.932396833333335, "bike_id": "2b6b4600d0f6c7901f32047168a05e5d", "type": "electric_bike", "is_reserved": 0, "lon": -76.97429033333333}, {"fusion_lat": 0.0, "name": "6e1580c827958a076195f734cad6ad86", "is_disabled": 0, "rental_uris": {"android": "https://dc.lft.to/lastmile_qr_scan", "ios": "https://dc.lft.to/lastmile_qr_scan"}, "fusion_lon": 0.0, "lat": 38.9248595, "bike_id": "6e1580c827958a076195f734cad6ad86", "type": "electric_bike", "is_reserved": 0, "lon": -77.23344933333334}, {"fusion_lat": 0.0, "name": "bdc64ca87d079267d467b34d7e6267ce", "is_disabled": 0, "rental_uris": {"android": "https://dc.lft.to/lastmile_qr_scan", "ios": "https://dc.lft.to/lastmile_qr_scan"}, "fusion_lon": 0.0, "lat": 38.9127325, "bike_id": "bdc64ca87d079267d467b34d7e6267ce", "type": "electric_scooter", "is_reserved": 0, "lon": -77.03200216666667}, {"fusion_lat": 0.0, "name": "0e338090aef3896c97e21e63e8f10b9b", "is_disabled": 0, "rental_uris": {"android": "https://dc.lft.to/lastmile_qr_scan", "ios": "https://dc.lft.to/lastmile_qr_scan"}, "fusion_lon": 0.0, "lat": 38.93174066666667, "bike_id": "0e338090aef3896c97e21e63e8f10b9b", "type": "electric_scooter", "is_reserved": 0, "lon": -77.05645316666667}, {"fusion_lat": 0.0, "name": "6d5b3d88b7288575c9eb40f8744a19e3", "is_disabled": 0, "rental_uris": {"android": "https://dc.lft.to/lastmile_qr_scan", "ios": "https://dc.lft.to/lastmile_qr_scan"}, "fusion_lon": 0.0, "lat": 38.896704166666666, "bike_id": "6d5b3d88b7288575c9eb40f8744a19e3", "type": "electric_scooter", "is_reserved": 0, "lon": -77.02448816666667}, {"fusion_lat": 0.0, "name": "26d25b1ae88b6fb11a13cfe56dfba750", "is_disabled": 0, "rental_uris": {"android": "https://dc.lft.to/lastmile_qr_scan", "ios": "https://dc.lft.to/lastmile_qr_scan"}, "fusion_lon": 0.0, "lat": 38.913973166666665, "bike_id": "26d25b1ae88b6fb11a13cfe56dfba750", "type": "electric_scooter", "is_reserved": 0, "lon": -77.07559116666667}, {"fusion_lat": 0.0, "name": "04bce33fac6054f99c9e94381456064b", "is_disabled": 0, "rental_uris": {"android": "https://dc.lft.to/lastmile_qr_scan", "ios": "https://dc.lft.to/lastmile_qr_scan"}, "fusion_lon": 0.0, "lat": 38.922867833333335, "bike_id": "04bce33fac6054f99c9e94381456064b", "type": "electric_scooter", "is_reserved": 0, "lon": -77.03661066666666}, {"fusion_lat": 0.0, "name": "ae9bb2d0be63d0097315a90bec39ba8e", "is_disabled": 0, "rental_uris": {"android": "https://dc.lft.to/lastmile_qr_scan", "ios": "https://dc.lft.to/lastmile_qr_scan"}, "fusion_lon": 0.0, "lat": 38.91766666666667, "bike_id": "ae9bb2d0be63d0097315a90bec39ba8e", "type": "electric_scooter", "is_reserved": 0, "lon": -77.03586516666667}, {"fusion_lat": 0.0, "name": "b2ce4816b7a0436fcec8535d73aa7bf6", "is_disabled": 0, "rental_uris": {"android": "https://dc.lft.to/lastmile_qr_scan", "ios": "https://dc.lft.to/lastmile_qr_scan"}, "fusion_lon": 0.0, "lat": 38.899506, "bike_id": "b2ce4816b7a0436fcec8535d73aa7bf6", "type": "electric_scooter", "is_reserved": 0, "lon": -77.05703183333334}, {"fusion_lat": 0.0, "name": "00757c2f525f273713d27dc21c29171b", "is_disabled": 0, "rental_uris": {"android": "https://dc.lft.to/lastmile_qr_scan", "ios": "https://dc.lft.to/lastmile_qr_scan"}, "fusion_lon": 0.0, "lat": 38.90278383333333, "bike_id": "00757c2f525f273713d27dc21c29171b", "type": "electric_scooter", "is_reserved": 0, "lon": -77.03657066666666}, {"fusion_lat": 0.0, "name": "5f06c2fdc00800cb181681b0a479a632", "is_disabled": 0, "rental_uris": {"android": "https://dc.lft.to/lastmile_qr_scan", "ios": "https://dc.lft.to/lastmile_qr_scan"}, "fusion_lon": 0.0, "lat": 38.887465, "bike_id": "5f06c2fdc00800cb181681b0a479a632", "type": "electric_scooter", "is_reserved": 0, "lon": -77.02137133333333}, {"fusion_lat": 0.0, "name": "8c50bb38746ca85755b2e78460216038", "is_disabled": 0, "rental_uris": {"android": "https://dc.lft.to/lastmile_qr_scan", "ios": "https://dc.lft.to/lastmile_qr_scan"}, "fusion_lon": 0.0, "lat": 38.933578, "bike_id": "8c50bb38746ca85755b2e78460216038", "type": "electric_scooter", "is_reserved": 0, "lon": -77.07310416666667}, {"fusion_lat": 0.0, "name": "9e34e5921eae3b440ef2b88f474b94d3", "is_disabled": 0, "rental_uris": {"android": "https://dc.lft.to/lastmile_qr_scan", "ios": "https://dc.lft.to/lastmile_qr_scan"}, "fusion_lon": 0.0, "lat": 38.92533516666667, "bike_id": "9e34e5921eae3b440ef2b88f474b94d3", "type": "electric_scooter", "is_reserved": 0, "lon": -77.052519}, {"fusion_lat": 0.0, "name": "05f79ee06fc32e2d83385f4bd1e24925", "is_disabled": 0, "rental_uris": {"android": "https://dc.lft.to/lastmile_qr_scan", "ios": "https://dc.lft.to/lastmile_qr_scan"}, "fusion_lon": 0.0, "lat": 38.963862, "bike_id": "05f79ee06fc32e2d83385f4bd1e24925", "type": "electric_bike", "is_reserved": 0, "lon": -76.95040966666667}, {"fusion_lat": 0.0, "name": "8cff115db5be7f454111752a420029da", "is_disabled": 0, "rental_uris": {"android": "https://dc.lft.to/lastmile_qr_scan", "ios": "https://dc.lft.to/lastmile_qr_scan"}, "fusion_lon": 0.0, "lat": 38.91851166666667, "bike_id": "8cff115db5be7f454111752a420029da", "type": "electric_scooter", "is_reserved": 0, "lon": -77.03526833333333}, {"fusion_lat": 0.0, "name": "6cfa6c3f329c9ef3478fa44732614152", "is_disabled": 0, "rental_uris": {"android": "https://dc.lft.to/lastmile_qr_scan", "ios": "https://dc.lft.to/lastmile_qr_scan"}, "fusion_lon": 0.0, "lat": 38.892188166666664, "bike_id": "6cfa6c3f329c9ef3478fa44732614152", "type": "electric_scooter", "is_reserved": 0, "lon": -76.9574085}, {"fusion_lat": 0.0, "name": "c09e8539b5b159cd98ac41b91abb93b8", "is_disabled": 0, "rental_uris": {"android": "https://dc.lft.to/lastmile_qr_scan", "ios": "https://dc.lft.to/lastmile_qr_scan"}, "fusion_lon": 0.0, "lat": 38.9170265, "bike_id": "c09e8539b5b159cd98ac41b91abb93b8", "type": "electric_scooter", "is_reserved": 0, "lon": -77.02422066666666}, {"fusion_lat": 0.0, "name": "ef4a3dfa534f6043eaf3bbb8d3731d76", "is_disabled": 0, "rental_uris": {"android": "https://dc.lft.to/lastmile_qr_scan", "ios": "https://dc.lft.to/lastmile_qr_scan"}, "fusion_lon": 0.0, "lat": 38.895753166666665, "bike_id": "ef4a3dfa534f6043eaf3bbb8d3731d76", "type": "electric_scooter", "is_reserved": 0, "lon": -76.98320216666667}, {"fusion_lat": 0.0, "name": "f3df34810a157b0b6022e60e83faf452", "is_disabled": 0, "rental_uris": {"android": "https://dc.lft.to/lastmile_qr_scan", "ios": "https://dc.lft.to/lastmile_qr_scan"}, "fusion_lon": 0.0, "lat": 38.9124345, "bike_id": "f3df34810a157b0b6022e60e83faf452", "type": "electric_scooter", "is_reserved": 0, "lon": -77.04513133333333}, {"fusion_lat": 0.0, "name": "681989cfa4738dfa3796e46304e0c564", "is_disabled": 0, "rental_uris": {"android": "https://dc.lft.to/lastmile_qr_scan", "ios": "https://dc.lft.to/lastmile_qr_scan"}, "fusion_lon": 0.0, "lat": 38.924757666666665, "bike_id": "681989cfa4738dfa3796e46304e0c564", "type": "electric_scooter", "is_reserved": 0, "lon": -77.0207605}, {"fusion_lat": 0.0, "name": "cc9d68bdfe85a050563d4ed1dc460a83", "is_disabled": 0, "rental_uris": {"android": "https://dc.lft.to/lastmile_qr_scan", "ios": "https://dc.lft.to/lastmile_qr_scan"}, "fusion_lon": 0.0, "lat": 38.923239833333334, "bike_id": "cc9d68bdfe85a050563d4ed1dc460a83", "type": "electric_scooter", "is_reserved": 0, "lon": -77.03526516666666}, {"fusion_lat": 0.0, "name": "81bace8facf73b6713d34eead5a0ef62", "is_disabled": 0, "rental_uris": {"android": "https://dc.lft.to/lastmile_qr_scan", "ios": "https://dc.lft.to/lastmile_qr_scan"}, "fusion_lon": 0.0, "lat": 38.8798355, "bike_id": "81bace8facf73b6713d34eead5a0ef62", "type": "electric_scooter", "is_reserved": 0, "lon": -76.98384866666666}, {"fusion_lat": 0.0, "name": "4f66fac17c3dab66454866c3181e7a28", "is_disabled": 0, "rental_uris": {"android": "https://dc.lft.to/lastmile_qr_scan", "ios": "https://dc.lft.to/lastmile_qr_scan"}, "fusion_lon": 0.0, "lat": 38.93465533333333, "bike_id": "4f66fac17c3dab66454866c3181e7a28", "type": "electric_scooter", "is_reserved": 0, "lon": -77.04122116666667}, {"fusion_lat": 0.0, "name": "7af7720277e600b29000095e7486ba4b", "is_disabled": 0, "rental_uris": {"android": "https://dc.lft.to/lastmile_qr_scan", "ios": "https://dc.lft.to/lastmile_qr_scan"}, "fusion_lon": 0.0, "lat": 38.89969266666667, "bike_id": "7af7720277e600b29000095e7486ba4b", "type": "electric_scooter", "is_reserved": 0, "lon": -77.05266466666667}, {"fusion_lat": 0.0, "name": "62271a22546eb22a0b97b9afbd92354c", "is_disabled": 0, "rental_uris": {"android": "https://dc.lft.to/lastmile_qr_scan", "ios": "https://dc.lft.to/lastmile_qr_scan"}, "fusion_lon": 0.0, "lat": 38.9308585, "bike_id": "62271a22546eb22a0b97b9afbd92354c", "type": "electric_scooter", "is_reserved": 0, "lon": -77.02000366666667}, {"fusion_lat": 0.0, "name": "45a441fb1beb3cb11405f4a2e1777890", "is_disabled": 0, "rental_uris": {"android": "https://dc.lft.to/lastmile_qr_scan", "ios": "https://dc.lft.to/lastmile_qr_scan"}, "fusion_lon": 0.0, "lat": 38.901005166666664, "bike_id": "45a441fb1beb3cb11405f4a2e1777890", "type": "electric_scooter", "is_reserved": 0, "lon": -76.9304755}, {"fusion_lat": 0.0, "name": "014ebb5e7108ae742460615e326a4b3d", "is_disabled": 0, "rental_uris": {"android": "https://dc.lft.to/lastmile_qr_scan", "ios": "https://dc.lft.to/lastmile_qr_scan"}, "fusion_lon": 0.0, "lat": 38.911085666666665, "bike_id": "014ebb5e7108ae742460615e326a4b3d", "type": "electric_scooter", "is_reserved": 0, "lon": -77.03158766666667}, {"fusion_lat": 0.0, "name": "ae43fb4bb4df9cf15f602b1567eb249e", "is_disabled": 0, "rental_uris": {"android": "https://dc.lft.to/lastmile_qr_scan", "ios": "https://dc.lft.to/lastmile_qr_scan"}, "fusion_lon": 0.0, "lat": 38.9039655, "bike_id": "ae43fb4bb4df9cf15f602b1567eb249e", "type": "electric_scooter", "is_reserved": 0, "lon": -77.01781033333333}, {"fusion_lat": 0.0, "name": "442069438af99dd3fb908e13e9d56dcc", "is_disabled": 0, "rental_uris": {"android": "https://dc.lft.to/lastmile_qr_scan", "ios": "https://dc.lft.to/lastmile_qr_scan"}, "fusion_lon": 0.0, "lat": 38.876690833333335, "bike_id": "442069438af99dd3fb908e13e9d56dcc", "type": "electric_scooter", "is_reserved": 0, "lon": -77.00352966666667}, {"fusion_lat": 0.0, "name": "995f233ad220f15ef360fe1780bebef2", "is_disabled": 0, "rental_uris": {"android": "https://dc.lft.to/lastmile_qr_scan", "ios": "https://dc.lft.to/lastmile_qr_scan"}, "fusion_lon": 0.0, "lat": 38.92339916666667, "bike_id": "995f233ad220f15ef360fe1780bebef2", "type": "electric_scooter", "is_reserved": 0, "lon": -77.05221266666666}, {"fusion_lat": 0.0, "name": "fd3f16b48437b51d371a99399fedc33d", "is_disabled": 0, "rental_uris": {"android": "https://dc.lft.to/lastmile_qr_scan", "ios": "https://dc.lft.to/lastmile_qr_scan"}, "fusion_lon": 0.0, "lat": 38.92130216666666, "bike_id": "fd3f16b48437b51d371a99399fedc33d", "type": "electric_scooter", "is_reserved": 0, "lon": -77.01799533333333}, {"fusion_lat": 0.0, "name": "9d5da4cf6f0023c72e9ecf30e9184596", "is_disabled": 0, "rental_uris": {"android": "https://dc.lft.to/lastmile_qr_scan", "ios": "https://dc.lft.to/lastmile_qr_scan"}, "fusion_lon": 0.0, "lat": 38.923185833333335, "bike_id": "9d5da4cf6f0023c72e9ecf30e9184596", "type": "electric_scooter", "is_reserved": 0, "lon": -77.040388}, {"fusion_lat": 0.0, "name": "eed571c5a1ececee8ec64d7bf1c3383e", "is_disabled": 0, "rental_uris": {"android": "https://dc.lft.to/lastmile_qr_scan", "ios": "https://dc.lft.to/lastmile_qr_scan"}, "fusion_lon": 0.0, "lat": 38.897443, "bike_id": "eed571c5a1ececee8ec64d7bf1c3383e", "type": "electric_scooter", "is_reserved": 0, "lon": -77.02443966666667}, {"fusion_lat": 0.0, "name": "4ae4acbf5cb4403255f79f4359b0dc80", "is_disabled": 0, "rental_uris": {"android": "https://dc.lft.to/lastmile_qr_scan", "ios": "https://dc.lft.to/lastmile_qr_scan"}, "fusion_lon": 0.0, "lat": 38.90349416666667, "bike_id": "4ae4acbf5cb4403255f79f4359b0dc80", "type": "electric_scooter", "is_reserved": 0, "lon": -76.9747955}, {"fusion_lat": 0.0, "name": "977f3ace39281485d9155f8ae79a0d75", "is_disabled": 0, "rental_uris": {"android": "https://dc.lft.to/lastmile_qr_scan", "ios": "https://dc.lft.to/lastmile_qr_scan"}, "fusion_lon": 0.0, "lat": 38.907834666666666, "bike_id": "977f3ace39281485d9155f8ae79a0d75", "type": "electric_scooter", "is_reserved": 0, "lon": -77.042442}, {"fusion_lat": 0.0, "name": "40859d1be4a482bdb6d544d63ee6e6bd", "is_disabled": 0, "rental_uris": {"android": "https://dc.lft.to/lastmile_qr_scan", "ios": "https://dc.lft.to/lastmile_qr_scan"}, "fusion_lon": 0.0, "lat": 38.92234716666667, "bike_id": "40859d1be4a482bdb6d544d63ee6e6bd", "type": "electric_scooter", "is_reserved": 0, "lon": -77.0390355}, {"fusion_lat": 0.0, "name": "a1037fa3c58330da34b37955021af87a", "is_disabled": 0, "rental_uris": {"android": "https://dc.lft.to/lastmile_qr_scan", "ios": "https://dc.lft.to/lastmile_qr_scan"}, "fusion_lon": 0.0, "lat": 38.93186033333333, "bike_id": "a1037fa3c58330da34b37955021af87a", "type": "electric_scooter", "is_reserved": 0, "lon": -77.0201185}, {"fusion_lat": 0.0, "name": "b1136a933f8d05039d79bcfd634599d8", "is_disabled": 0, "rental_uris": {"android": "https://dc.lft.to/lastmile_qr_scan", "ios": "https://dc.lft.to/lastmile_qr_scan"}, "fusion_lon": 0.0, "lat": 38.9170565, "bike_id": "b1136a933f8d05039d79bcfd634599d8", "type": "electric_scooter", "is_reserved": 0, "lon": -77.024108}, {"fusion_lat": 0.0, "name": "298f424a76197efe91133b3d0521838b", "is_disabled": 0, "rental_uris": {"android": "https://dc.lft.to/lastmile_qr_scan", "ios": "https://dc.lft.to/lastmile_qr_scan"}, "fusion_lon": 0.0, "lat": 38.9370365, "bike_id": "298f424a76197efe91133b3d0521838b", "type": "electric_scooter", "is_reserved": 0, "lon": -77.03279066666667}, {"fusion_lat": 0.0, "name": "f4d10f180e98b355ba0d7eaf5430ba41", "is_disabled": 0, "rental_uris": {"android": "https://dc.lft.to/lastmile_qr_scan", "ios": "https://dc.lft.to/lastmile_qr_scan"}, "fusion_lon": 0.0, "lat": 38.886286, "bike_id": "f4d10f180e98b355ba0d7eaf5430ba41", "type": "electric_scooter", "is_reserved": 0, "lon": -77.02844166666667}, {"fusion_lat": 0.0, "name": "13c724bf669a1b9540c9bcc5f6a183fb", "is_disabled": 0, "rental_uris": {"android": "https://dc.lft.to/lastmile_qr_scan", "ios": "https://dc.lft.to/lastmile_qr_scan"}, "fusion_lon": 0.0, "lat": 38.91564866666667, "bike_id": "13c724bf669a1b9540c9bcc5f6a183fb", "type": "electric_scooter", "is_reserved": 0, "lon": -77.03135183333333}, {"fusion_lat": 0.0, "name": "63560ab94ed9362c39b53c72b14dfc3b", "is_disabled": 0, "rental_uris": {"android": "https://dc.lft.to/lastmile_qr_scan", "ios": "https://dc.lft.to/lastmile_qr_scan"}, "fusion_lon": 0.0, "lat": 38.915591666666664, "bike_id": "63560ab94ed9362c39b53c72b14dfc3b", "type": "electric_scooter", "is_reserved": 0, "lon": -77.01050516666666}, {"fusion_lat": 0.0, "name": "386c021a3896af6cbb71d767ea605842", "is_disabled": 0, "rental_uris": {"android": "https://dc.lft.to/lastmile_qr_scan", "ios": "https://dc.lft.to/lastmile_qr_scan"}, "fusion_lon": 0.0, "lat": 38.89222266666667, "bike_id": "386c021a3896af6cbb71d767ea605842", "type": "electric_scooter", "is_reserved": 0, "lon": -77.04095783333334}, {"fusion_lat": 0.0, "name": "847c383ac61fd556a1d40f8c01ba00fe", "is_disabled": 0, "rental_uris": {"android": "https://dc.lft.to/lastmile_qr_scan", "ios": "https://dc.lft.to/lastmile_qr_scan"}, "fusion_lon": 0.0, "lat": 38.9014965, "bike_id": "847c383ac61fd556a1d40f8c01ba00fe", "type": "electric_scooter", "is_reserved": 0, "lon": -77.05995816666666}, {"fusion_lat": 0.0, "name": "7860ecd864cbc7304331dc2c5e2c1a81", "is_disabled": 0, "rental_uris": {"android": "https://dc.lft.to/lastmile_qr_scan", "ios": "https://dc.lft.to/lastmile_qr_scan"}, "fusion_lon": 0.0, "lat": 38.90391783333333, "bike_id": "7860ecd864cbc7304331dc2c5e2c1a81", "type": "electric_scooter", "is_reserved": 0, "lon": -77.02472716666666}, {"fusion_lat": 0.0, "name": "c357aa7120eb239155463d599cf4f8ad", "is_disabled": 0, "rental_uris": {"android": "https://dc.lft.to/lastmile_qr_scan", "ios": "https://dc.lft.to/lastmile_qr_scan"}, "fusion_lon": 0.0, "lat": 38.8434815, "bike_id": "c357aa7120eb239155463d599cf4f8ad", "type": "electric_bike", "is_reserved": 0, "lon": -76.97826866666666}, {"fusion_lat": 0.0, "name": "65d66e5cfa97c9b6dc4d71b1798938d2", "is_disabled": 0, "rental_uris": {"android": "https://dc.lft.to/lastmile_qr_scan", "ios": "https://dc.lft.to/lastmile_qr_scan"}, "fusion_lon": 0.0, "lat": 38.903759666666666, "bike_id": "65d66e5cfa97c9b6dc4d71b1798938d2", "type": "electric_scooter", "is_reserved": 0, "lon": -77.03830683333334}, {"fusion_lat": 0.0, "name": "fd2fc128dddbf71f9c777ab7729a5379", "is_disabled": 0, "rental_uris": {"android": "https://dc.lft.to/lastmile_qr_scan", "ios": "https://dc.lft.to/lastmile_qr_scan"}, "fusion_lon": 0.0, "lat": 38.89671766666667, "bike_id": "fd2fc128dddbf71f9c777ab7729a5379", "type": "electric_scooter", "is_reserved": 0, "lon": -77.024796}, {"fusion_lat": 0.0, "name": "a8f16e6bf72b5304565192ef4424231e", "is_disabled": 0, "rental_uris": {"android": "https://dc.lft.to/lastmile_qr_scan", "ios": "https://dc.lft.to/lastmile_qr_scan"}, "fusion_lon": 0.0, "lat": 38.88363533333333, "bike_id": "a8f16e6bf72b5304565192ef4424231e", "type": "electric_scooter", "is_reserved": 0, "lon": -76.94157616666666}, {"fusion_lat": 0.0, "name": "6d3bc1c185fdbec0e48d166728ba5fed", "is_disabled": 0, "rental_uris": {"android": "https://dc.lft.to/lastmile_qr_scan", "ios": "https://dc.lft.to/lastmile_qr_scan"}, "fusion_lon": 0.0, "lat": 38.923433, "bike_id": "6d3bc1c185fdbec0e48d166728ba5fed", "type": "electric_scooter", "is_reserved": 0, "lon": -77.05226}, {"fusion_lat": 0.0, "name": "c65c8ee397d9c4e07f3b084df41bbdfe", "is_disabled": 0, "rental_uris": {"android": "https://dc.lft.to/lastmile_qr_scan", "ios": "https://dc.lft.to/lastmile_qr_scan"}, "fusion_lon": 0.0, "lat": 38.91579383333333, "bike_id": "c65c8ee397d9c4e07f3b084df41bbdfe", "type": "electric_scooter", "is_reserved": 0, "lon": -76.9839085}, {"fusion_lat": 0.0, "name": "adf9314748e34dc13111bce3a3b9363a", "is_disabled": 0, "rental_uris": {"android": "https://dc.lft.to/lastmile_qr_scan", "ios": "https://dc.lft.to/lastmile_qr_scan"}, "fusion_lon": 0.0, "lat": 38.90500883333333, "bike_id": "adf9314748e34dc13111bce3a3b9363a", "type": "electric_bike", "is_reserved": 0, "lon": -76.97449433333334}, {"fusion_lat": 0.0, "name": "5e7010a1c9bfbd07e39af9aef0fb924d", "is_disabled": 0, "rental_uris": {"android": "https://dc.lft.to/lastmile_qr_scan", "ios": "https://dc.lft.to/lastmile_qr_scan"}, "fusion_lon": 0.0, "lat": 38.9171725, "bike_id": "5e7010a1c9bfbd07e39af9aef0fb924d", "type": "electric_scooter", "is_reserved": 0, "lon": -77.03222883333333}, {"fusion_lat": 0.0, "name": "2da8ef4da07d353a9af37805b4cd47fe", "is_disabled": 0, "rental_uris": {"android": "https://dc.lft.to/lastmile_qr_scan", "ios": "https://dc.lft.to/lastmile_qr_scan"}, "fusion_lon": 0.0, "lat": 38.90148716666667, "bike_id": "2da8ef4da07d353a9af37805b4cd47fe", "type": "electric_scooter", "is_reserved": 0, "lon": -77.05911683333333}, {"fusion_lat": 0.0, "name": "dc82246d3570073d03bf09e35dd72a86", "is_disabled": 0, "rental_uris": {"android": "https://dc.lft.to/lastmile_qr_scan", "ios": "https://dc.lft.to/lastmile_qr_scan"}, "fusion_lon": 0.0, "lat": 38.93835416666667, "bike_id": "dc82246d3570073d03bf09e35dd72a86", "type": "electric_scooter", "is_reserved": 0, "lon": -77.02455433333333}, {"fusion_lat": 0.0, "name": "5434d2d19e6c396f1d9f20e6fc056891", "is_disabled": 0, "rental_uris": {"android": "https://dc.lft.to/lastmile_qr_scan", "ios": "https://dc.lft.to/lastmile_qr_scan"}, "fusion_lon": 0.0, "lat": 38.92046766666667, "bike_id": "5434d2d19e6c396f1d9f20e6fc056891", "type": "electric_bike", "is_reserved": 0, "lon": -76.998207}, {"fusion_lat": 0.0, "name": "f0f7f3a3502476a60997c84a68255eed", "is_disabled": 0, "rental_uris": {"android": "https://dc.lft.to/lastmile_qr_scan", "ios": "https://dc.lft.to/lastmile_qr_scan"}, "fusion_lon": 0.0, "lat": 38.90369483333333, "bike_id": "f0f7f3a3502476a60997c84a68255eed", "type": "electric_scooter", "is_reserved": 0, "lon": -77.03547783333333}, {"fusion_lat": 0.0, "name": "fbbf50e6cb1e46a1f0301b3fd01b6b7e", "is_disabled": 0, "rental_uris": {"android": "https://dc.lft.to/lastmile_qr_scan", "ios": "https://dc.lft.to/lastmile_qr_scan"}, "fusion_lon": 0.0, "lat": 38.93129316666667, "bike_id": "fbbf50e6cb1e46a1f0301b3fd01b6b7e", "type": "electric_bike", "is_reserved": 0, "lon": -77.0197575}, {"fusion_lat": 0.0, "name": "7ff8b1f43a7f23c78ec5c3b6d1fb49e5", "is_disabled": 0, "rental_uris": {"android": "https://dc.lft.to/lastmile_qr_scan", "ios": "https://dc.lft.to/lastmile_qr_scan"}, "fusion_lon": 0.0, "lat": 38.900425, "bike_id": "7ff8b1f43a7f23c78ec5c3b6d1fb49e5", "type": "electric_scooter", "is_reserved": 0, "lon": -77.03286616666666}, {"fusion_lat": 0.0, "name": "13835954b5e161c1dbd9261fff5049a8", "is_disabled": 0, "rental_uris": {"android": "https://dc.lft.to/lastmile_qr_scan", "ios": "https://dc.lft.to/lastmile_qr_scan"}, "fusion_lon": 0.0, "lat": 38.918325333333335, "bike_id": "13835954b5e161c1dbd9261fff5049a8", "type": "electric_scooter", "is_reserved": 0, "lon": -77.02393633333334}, {"fusion_lat": 0.0, "name": "a93e50416ec31868ed342984d79ef413", "is_disabled": 0, "rental_uris": {"android": "https://dc.lft.to/lastmile_qr_scan", "ios": "https://dc.lft.to/lastmile_qr_scan"}, "fusion_lon": 0.0, "lat": 38.916965, "bike_id": "a93e50416ec31868ed342984d79ef413", "type": "electric_scooter", "is_reserved": 0, "lon": -77.0321015}, {"fusion_lat": 0.0, "name": "947d474b0339e8fa26a6e60156ac0547", "is_disabled": 0, "rental_uris": {"android": "https://dc.lft.to/lastmile_qr_scan", "ios": "https://dc.lft.to/lastmile_qr_scan"}, "fusion_lon": 0.0, "lat": 38.865171333333336, "bike_id": "947d474b0339e8fa26a6e60156ac0547", "type": "electric_bike", "is_reserved": 0, "lon": -76.97336833333334}, {"fusion_lat": 0.0, "name": "f7953aaac5c26d60ef5ddb4ea675aaab", "is_disabled": 0, "rental_uris": {"android": "https://dc.lft.to/lastmile_qr_scan", "ios": "https://dc.lft.to/lastmile_qr_scan"}, "fusion_lon": 0.0, "lat": 38.934544, "bike_id": "f7953aaac5c26d60ef5ddb4ea675aaab", "type": "electric_scooter", "is_reserved": 0, "lon": -77.0297565}, {"fusion_lat": 0.0, "name": "aaf7790810e40f143d8496352340f4be", "is_disabled": 0, "rental_uris": {"android": "https://dc.lft.to/lastmile_qr_scan", "ios": "https://dc.lft.to/lastmile_qr_scan"}, "fusion_lon": 0.0, "lat": 38.91656966666667, "bike_id": "aaf7790810e40f143d8496352340f4be", "type": "electric_scooter", "is_reserved": 0, "lon": -77.03858716666667}, {"fusion_lat": 0.0, "name": "e0dc9a659f7b043b8445751187c8aacd", "is_disabled": 0, "rental_uris": {"android": "https://dc.lft.to/lastmile_qr_scan", "ios": "https://dc.lft.to/lastmile_qr_scan"}, "fusion_lon": 0.0, "lat": 38.915940666666664, "bike_id": "e0dc9a659f7b043b8445751187c8aacd", "type": "electric_scooter", "is_reserved": 0, "lon": -77.04485366666667}, {"fusion_lat": 0.0, "name": "ecc71025b43ef86cfdf8e41600a148e7", "is_disabled": 0, "rental_uris": {"android": "https://dc.lft.to/lastmile_qr_scan", "ios": "https://dc.lft.to/lastmile_qr_scan"}, "fusion_lon": 0.0, "lat": 38.8490955, "bike_id": "ecc71025b43ef86cfdf8e41600a148e7", "type": "electric_bike", "is_reserved": 0, "lon": -77.09982483333333}, {"fusion_lat": 0.0, "name": "848f3c9f038875ee752e04115e574788", "is_disabled": 0, "rental_uris": {"android": "https://dc.lft.to/lastmile_qr_scan", "ios": "https://dc.lft.to/lastmile_qr_scan"}, "fusion_lon": 0.0, "lat": 38.88899833333333, "bike_id": "848f3c9f038875ee752e04115e574788", "type": "electric_scooter", "is_reserved": 0, "lon": -76.99205316666666}, {"fusion_lat": 0.0, "name": "8664912f1ffcfc4f960e2f636b476b6c", "is_disabled": 0, "rental_uris": {"android": "https://dc.lft.to/lastmile_qr_scan", "ios": "https://dc.lft.to/lastmile_qr_scan"}, "fusion_lon": 0.0, "lat": 38.89846816666667, "bike_id": "8664912f1ffcfc4f960e2f636b476b6c", "type": "electric_scooter", "is_reserved": 0, "lon": -76.99037466666667}, {"fusion_lat": 0.0, "name": "52aaaf3fdf4974bbd8da1c873e2a163a", "is_disabled": 0, "rental_uris": {"android": "https://dc.lft.to/lastmile_qr_scan", "ios": "https://dc.lft.to/lastmile_qr_scan"}, "fusion_lon": 0.0, "lat": 38.8781855, "bike_id": "52aaaf3fdf4974bbd8da1c873e2a163a", "type": "electric_scooter", "is_reserved": 0, "lon": -77.001343}, {"fusion_lat": 0.0, "name": "e71703f21363d526e014ab0762a9a29b", "is_disabled": 0, "rental_uris": {"android": "https://dc.lft.to/lastmile_qr_scan", "ios": "https://dc.lft.to/lastmile_qr_scan"}, "fusion_lon": 0.0, "lat": 38.916379, "bike_id": "e71703f21363d526e014ab0762a9a29b", "type": "electric_scooter", "is_reserved": 0, "lon": -77.03196783333334}, {"fusion_lat": 0.0, "name": "bf26b3dfb80eaa6b279e77e539155924", "is_disabled": 0, "rental_uris": {"android": "https://dc.lft.to/lastmile_qr_scan", "ios": "https://dc.lft.to/lastmile_qr_scan"}, "fusion_lon": 0.0, "lat": 38.931099833333334, "bike_id": "bf26b3dfb80eaa6b279e77e539155924", "type": "electric_scooter", "is_reserved": 0, "lon": -77.03031}, {"fusion_lat": 0.0, "name": "f0e57241cc0ba192f9230e5a694d89f4", "is_disabled": 0, "rental_uris": {"android": "https://dc.lft.to/lastmile_qr_scan", "ios": "https://dc.lft.to/lastmile_qr_scan"}, "fusion_lon": 0.0, "lat": 38.919825, "bike_id": "f0e57241cc0ba192f9230e5a694d89f4", "type": "electric_scooter", "is_reserved": 0, "lon": -77.04166783333334}, {"fusion_lat": 0.0, "name": "e613380b6ca8b1d89d5767aff10d4b2f", "is_disabled": 0, "rental_uris": {"android": "https://dc.lft.to/lastmile_qr_scan", "ios": "https://dc.lft.to/lastmile_qr_scan"}, "fusion_lon": 0.0, "lat": 38.91742516666667, "bike_id": "e613380b6ca8b1d89d5767aff10d4b2f", "type": "electric_scooter", "is_reserved": 0, "lon": -77.03464816666667}, {"fusion_lat": 0.0, "name": "d5f1950c65c77f5d3f271991b59f1120", "is_disabled": 0, "rental_uris": {"android": "https://dc.lft.to/lastmile_qr_scan", "ios": "https://dc.lft.to/lastmile_qr_scan"}, "fusion_lon": 0.0, "lat": 38.920625, "bike_id": "d5f1950c65c77f5d3f271991b59f1120", "type": "electric_scooter", "is_reserved": 0, "lon": -77.023025}, {"fusion_lat": 0.0, "name": "288bcd68ca44825c6983200ca891d558", "is_disabled": 0, "rental_uris": {"android": "https://dc.lft.to/lastmile_qr_scan", "ios": "https://dc.lft.to/lastmile_qr_scan"}, "fusion_lon": 0.0, "lat": 38.90371533333333, "bike_id": "288bcd68ca44825c6983200ca891d558", "type": "electric_scooter", "is_reserved": 0, "lon": -77.0383985}, {"fusion_lat": 0.0, "name": "7a71dcdfa7eb970a9655490c297cd8eb", "is_disabled": 0, "rental_uris": {"android": "https://dc.lft.to/lastmile_qr_scan", "ios": "https://dc.lft.to/lastmile_qr_scan"}, "fusion_lon": 0.0, "lat": 38.92367866666667, "bike_id": "7a71dcdfa7eb970a9655490c297cd8eb", "type": "electric_scooter", "is_reserved": 0, "lon": -77.04100466666667}, {"fusion_lat": 0.0, "name": "955f4d97866ee3d8f1b5f7f247c894ae", "is_disabled": 0, "rental_uris": {"android": "https://dc.lft.to/lastmile_qr_scan", "ios": "https://dc.lft.to/lastmile_qr_scan"}, "fusion_lon": 0.0, "lat": 38.94601016666667, "bike_id": "955f4d97866ee3d8f1b5f7f247c894ae", "type": "electric_scooter", "is_reserved": 0, "lon": -77.02981233333334}, {"fusion_lat": 0.0, "name": "abecf9251b0e95faf7a1db7c6e679ef9", "is_disabled": 0, "rental_uris": {"android": "https://dc.lft.to/lastmile_qr_scan", "ios": "https://dc.lft.to/lastmile_qr_scan"}, "fusion_lon": 0.0, "lat": 38.980484833333335, "bike_id": "abecf9251b0e95faf7a1db7c6e679ef9", "type": "electric_bike", "is_reserved": 0, "lon": -76.95799983333333}, {"fusion_lat": 0.0, "name": "ff193976bfe85240c0f1850fa2d30bb1", "is_disabled": 0, "rental_uris": {"android": "https://dc.lft.to/lastmile_qr_scan", "ios": "https://dc.lft.to/lastmile_qr_scan"}, "fusion_lon": 0.0, "lat": 38.923549333333334, "bike_id": "ff193976bfe85240c0f1850fa2d30bb1", "type": "electric_scooter", "is_reserved": 0, "lon": -77.07305133333334}, {"fusion_lat": 0.0, "name": "a6b067ec55f032e9853ea64a495523b4", "is_disabled": 0, "rental_uris": {"android": "https://dc.lft.to/lastmile_qr_scan", "ios": "https://dc.lft.to/lastmile_qr_scan"}, "fusion_lon": 0.0, "lat": 38.941920833333334, "bike_id": "a6b067ec55f032e9853ea64a495523b4", "type": "electric_scooter", "is_reserved": 0, "lon": -77.04112483333333}, {"fusion_lat": 0.0, "name": "6636c3dd9c060d99d5cd275cdb1af69e", "is_disabled": 0, "rental_uris": {"android": "https://dc.lft.to/lastmile_qr_scan", "ios": "https://dc.lft.to/lastmile_qr_scan"}, "fusion_lon": 0.0, "lat": 38.904819833333335, "bike_id": "6636c3dd9c060d99d5cd275cdb1af69e", "type": "electric_scooter", "is_reserved": 0, "lon": -77.038841}, {"fusion_lat": 0.0, "name": "52f2a3ff5b89075971ee7ae97c93cd15", "is_disabled": 0, "rental_uris": {"android": "https://dc.lft.to/lastmile_qr_scan", "ios": "https://dc.lft.to/lastmile_qr_scan"}, "fusion_lon": 0.0, "lat": 38.90022783333333, "bike_id": "52f2a3ff5b89075971ee7ae97c93cd15", "type": "electric_scooter", "is_reserved": 0, "lon": -77.00181916666666}, {"fusion_lat": 0.0, "name": "18744605219e9a29a91ac16928800e9d", "is_disabled": 0, "rental_uris": {"android": "https://dc.lft.to/lastmile_qr_scan", "ios": "https://dc.lft.to/lastmile_qr_scan"}, "fusion_lon": 0.0, "lat": 38.844221833333336, "bike_id": "18744605219e9a29a91ac16928800e9d", "type": "electric_scooter", "is_reserved": 0, "lon": -76.99784333333334}, {"fusion_lat": 0.0, "name": "cd5e571ac37c65646d45f72794b3bc70", "is_disabled": 0, "rental_uris": {"android": "https://dc.lft.to/lastmile_qr_scan", "ios": "https://dc.lft.to/lastmile_qr_scan"}, "fusion_lon": 0.0, "lat": 38.920727166666666, "bike_id": "cd5e571ac37c65646d45f72794b3bc70", "type": "electric_scooter", "is_reserved": 0, "lon": -77.0240685}, {"fusion_lat": 0.0, "name": "b06d7ce03e1b95a395e00c7e6b16ef32", "is_disabled": 0, "rental_uris": {"android": "https://dc.lft.to/lastmile_qr_scan", "ios": "https://dc.lft.to/lastmile_qr_scan"}, "fusion_lon": 0.0, "lat": 38.91132016666667, "bike_id": "b06d7ce03e1b95a395e00c7e6b16ef32", "type": "electric_scooter", "is_reserved": 0, "lon": -77.06536316666667}, {"fusion_lat": 0.0, "name": "a112ca951f709dae30325a8271409dd6", "is_disabled": 0, "rental_uris": {"android": "https://dc.lft.to/lastmile_qr_scan", "ios": "https://dc.lft.to/lastmile_qr_scan"}, "fusion_lon": 0.0, "lat": 38.9115085, "bike_id": "a112ca951f709dae30325a8271409dd6", "type": "electric_scooter", "is_reserved": 0, "lon": -77.03220466666667}, {"fusion_lat": 0.0, "name": "a25748d8b90c9ae5275ea7c810084431", "is_disabled": 0, "rental_uris": {"android": "https://dc.lft.to/lastmile_qr_scan", "ios": "https://dc.lft.to/lastmile_qr_scan"}, "fusion_lon": 0.0, "lat": 38.92488133333333, "bike_id": "a25748d8b90c9ae5275ea7c810084431", "type": "electric_scooter", "is_reserved": 0, "lon": -77.025924}, {"fusion_lat": 0.0, "name": "545e80e16734d83c20c2fe55ea3e339b", "is_disabled": 0, "rental_uris": {"android": "https://dc.lft.to/lastmile_qr_scan", "ios": "https://dc.lft.to/lastmile_qr_scan"}, "fusion_lon": 0.0, "lat": 38.93994583333333, "bike_id": "545e80e16734d83c20c2fe55ea3e339b", "type": "electric_scooter", "is_reserved": 0, "lon": -77.01656933333334}, {"fusion_lat": 0.0, "name": "fde983aa69c843d23f873e1e38d5f6cd", "is_disabled": 0, "rental_uris": {"android": "https://dc.lft.to/lastmile_qr_scan", "ios": "https://dc.lft.to/lastmile_qr_scan"}, "fusion_lon": 0.0, "lat": 38.9368925, "bike_id": "fde983aa69c843d23f873e1e38d5f6cd", "type": "electric_bike", "is_reserved": 0, "lon": -76.99057933333333}, {"fusion_lat": 0.0, "name": "de792111efc7f9620d045c694d1464b0", "is_disabled": 0, "rental_uris": {"android": "https://dc.lft.to/lastmile_qr_scan", "ios": "https://dc.lft.to/lastmile_qr_scan"}, "fusion_lon": 0.0, "lat": 38.874499166666666, "bike_id": "de792111efc7f9620d045c694d1464b0", "type": "electric_scooter", "is_reserved": 0, "lon": -77.00888166666667}, {"fusion_lat": 0.0, "name": "5a4feca4b07b2e3d2599555f051b02a8", "is_disabled": 0, "rental_uris": {"android": "https://dc.lft.to/lastmile_qr_scan", "ios": "https://dc.lft.to/lastmile_qr_scan"}, "fusion_lon": 0.0, "lat": 38.92880233333333, "bike_id": "5a4feca4b07b2e3d2599555f051b02a8", "type": "electric_scooter", "is_reserved": 0, "lon": -77.034051}, {"fusion_lat": 0.0, "name": "c6ff1e07c35203d22f354bb1f47999bf", "is_disabled": 0, "rental_uris": {"android": "https://dc.lft.to/lastmile_qr_scan", "ios": "https://dc.lft.to/lastmile_qr_scan"}, "fusion_lon": 0.0, "lat": 38.91785933333333, "bike_id": "c6ff1e07c35203d22f354bb1f47999bf", "type": "electric_scooter", "is_reserved": 0, "lon": -77.04047466666667}, {"fusion_lat": 0.0, "name": "53952808ef6ed882d3d1a5718865a122", "is_disabled": 0, "rental_uris": {"android": "https://dc.lft.to/lastmile_qr_scan", "ios": "https://dc.lft.to/lastmile_qr_scan"}, "fusion_lon": 0.0, "lat": 38.8803135, "bike_id": "53952808ef6ed882d3d1a5718865a122", "type": "electric_scooter", "is_reserved": 0, "lon": -77.02505566666666}, {"fusion_lat": 0.0, "name": "b027abb0a0186b20f7a698f4e749ff5a", "is_disabled": 0, "rental_uris": {"android": "https://dc.lft.to/lastmile_qr_scan", "ios": "https://dc.lft.to/lastmile_qr_scan"}, "fusion_lon": 0.0, "lat": 38.902735, "bike_id": "b027abb0a0186b20f7a698f4e749ff5a", "type": "electric_scooter", "is_reserved": 0, "lon": -77.03659633333334}, {"fusion_lat": 0.0, "name": "2bbb44f4b88868e922c6a976cadd9e26", "is_disabled": 0, "rental_uris": {"android": "https://dc.lft.to/lastmile_qr_scan", "ios": "https://dc.lft.to/lastmile_qr_scan"}, "fusion_lon": 0.0, "lat": 38.87712116666667, "bike_id": "2bbb44f4b88868e922c6a976cadd9e26", "type": "electric_scooter", "is_reserved": 0, "lon": -77.00752366666667}, {"fusion_lat": 0.0, "name": "4abd0b99d033eed8d0d006466ee7e9f6", "is_disabled": 0, "rental_uris": {"android": "https://dc.lft.to/lastmile_qr_scan", "ios": "https://dc.lft.to/lastmile_qr_scan"}, "fusion_lon": 0.0, "lat": 38.904613499999996, "bike_id": "4abd0b99d033eed8d0d006466ee7e9f6", "type": "electric_scooter", "is_reserved": 0, "lon": -77.05324516666667}, {"fusion_lat": 0.0, "name": "6b34e28ffe8c6f53ed8a6cd63f9183cd", "is_disabled": 0, "rental_uris": {"android": "https://dc.lft.to/lastmile_qr_scan", "ios": "https://dc.lft.to/lastmile_qr_scan"}, "fusion_lon": 0.0, "lat": 38.926102, "bike_id": "6b34e28ffe8c6f53ed8a6cd63f9183cd", "type": "electric_scooter", "is_reserved": 0, "lon": -77.0396125}, {"fusion_lat": 0.0, "name": "0775dcf1227024147e297685cf658a1e", "is_disabled": 0, "rental_uris": {"android": "https://dc.lft.to/lastmile_qr_scan", "ios": "https://dc.lft.to/lastmile_qr_scan"}, "fusion_lon": 0.0, "lat": 38.9040015, "bike_id": "0775dcf1227024147e297685cf658a1e", "type": "electric_scooter", "is_reserved": 0, "lon": -77.0366855}, {"fusion_lat": 0.0, "name": "55d837e99b8ecc0aea4da33a95cc371e", "is_disabled": 0, "rental_uris": {"android": "https://dc.lft.to/lastmile_qr_scan", "ios": "https://dc.lft.to/lastmile_qr_scan"}, "fusion_lon": 0.0, "lat": 38.91219816666667, "bike_id": "55d837e99b8ecc0aea4da33a95cc371e", "type": "electric_scooter", "is_reserved": 0, "lon": -77.00666333333334}, {"fusion_lat": 0.0, "name": "9102b77cf2fa09b59fe478ae7a1e57e9", "is_disabled": 0, "rental_uris": {"android": "https://dc.lft.to/lastmile_qr_scan", "ios": "https://dc.lft.to/lastmile_qr_scan"}, "fusion_lon": 0.0, "lat": 38.89931883333333, "bike_id": "9102b77cf2fa09b59fe478ae7a1e57e9", "type": "electric_scooter", "is_reserved": 0, "lon": -77.0221165}, {"fusion_lat": 0.0, "name": "255c64e3a2bd3407d26374b029015461", "is_disabled": 0, "rental_uris": {"android": "https://dc.lft.to/lastmile_qr_scan", "ios": "https://dc.lft.to/lastmile_qr_scan"}, "fusion_lon": 0.0, "lat": 38.91575183333333, "bike_id": "255c64e3a2bd3407d26374b029015461", "type": "electric_scooter", "is_reserved": 0, "lon": -77.0465695}, {"fusion_lat": 0.0, "name": "84cf771ddce3b5d4213d8c5c49d604a2", "is_disabled": 0, "rental_uris": {"android": "https://dc.lft.to/lastmile_qr_scan", "ios": "https://dc.lft.to/lastmile_qr_scan"}, "fusion_lon": 0.0, "lat": 38.92384783333333, "bike_id": "84cf771ddce3b5d4213d8c5c49d604a2", "type": "electric_scooter", "is_reserved": 0, "lon": -77.02741583333334}, {"fusion_lat": 0.0, "name": "31261ee14abe537080627ebc7732be04", "is_disabled": 0, "rental_uris": {"android": "https://dc.lft.to/lastmile_qr_scan", "ios": "https://dc.lft.to/lastmile_qr_scan"}, "fusion_lon": 0.0, "lat": 38.8983925, "bike_id": "31261ee14abe537080627ebc7732be04", "type": "electric_scooter", "is_reserved": 0, "lon": -77.02711216666667}, {"fusion_lat": 0.0, "name": "754e06e16665d89aca95be6705e32c5c", "is_disabled": 0, "rental_uris": {"android": "https://dc.lft.to/lastmile_qr_scan", "ios": "https://dc.lft.to/lastmile_qr_scan"}, "fusion_lon": 0.0, "lat": 38.8984585, "bike_id": "754e06e16665d89aca95be6705e32c5c", "type": "electric_scooter", "is_reserved": 0, "lon": -77.02223583333334}, {"fusion_lat": 0.0, "name": "8ed4d4883db625b897ae17a12c555373", "is_disabled": 0, "rental_uris": {"android": "https://dc.lft.to/lastmile_qr_scan", "ios": "https://dc.lft.to/lastmile_qr_scan"}, "fusion_lon": 0.0, "lat": 38.87886733333333, "bike_id": "8ed4d4883db625b897ae17a12c555373", "type": "electric_scooter", "is_reserved": 0, "lon": -76.96543066666666}, {"fusion_lat": 0.0, "name": "8963f15d4d0a03de9bc9b55e1979b23b", "is_disabled": 0, "rental_uris": {"android": "https://dc.lft.to/lastmile_qr_scan", "ios": "https://dc.lft.to/lastmile_qr_scan"}, "fusion_lon": 0.0, "lat": 38.892177, "bike_id": "8963f15d4d0a03de9bc9b55e1979b23b", "type": "electric_scooter", "is_reserved": 0, "lon": -77.0265965}, {"fusion_lat": 0.0, "name": "16afdfda3e5e9e10f5b4628619b51eb2", "is_disabled": 0, "rental_uris": {"android": "https://dc.lft.to/lastmile_qr_scan", "ios": "https://dc.lft.to/lastmile_qr_scan"}, "fusion_lon": 0.0, "lat": 38.93501766666667, "bike_id": "16afdfda3e5e9e10f5b4628619b51eb2", "type": "electric_scooter", "is_reserved": 0, "lon": -77.03635616666666}, {"fusion_lat": 0.0, "name": "edd76f16f78ef0c953eb562330b32e61", "is_disabled": 0, "rental_uris": {"android": "https://dc.lft.to/lastmile_qr_scan", "ios": "https://dc.lft.to/lastmile_qr_scan"}, "fusion_lon": 0.0, "lat": 38.9000685, "bike_id": "edd76f16f78ef0c953eb562330b32e61", "type": "electric_scooter", "is_reserved": 0, "lon": -77.04480366666667}, {"fusion_lat": 0.0, "name": "c3ee98f493096de9889abeeb90ec552d", "is_disabled": 0, "rental_uris": {"android": "https://dc.lft.to/lastmile_qr_scan", "ios": "https://dc.lft.to/lastmile_qr_scan"}, "fusion_lon": 0.0, "lat": 38.917154833333335, "bike_id": "c3ee98f493096de9889abeeb90ec552d", "type": "electric_scooter", "is_reserved": 0, "lon": -77.02296366666667}, {"fusion_lat": 0.0, "name": "e0b705b1e885502a9e2353408654cc74", "is_disabled": 0, "rental_uris": {"android": "https://dc.lft.to/lastmile_qr_scan", "ios": "https://dc.lft.to/lastmile_qr_scan"}, "fusion_lon": 0.0, "lat": 38.897438, "bike_id": "e0b705b1e885502a9e2353408654cc74", "type": "electric_scooter", "is_reserved": 0, "lon": -77.02689233333334}, {"fusion_lat": 0.0, "name": "3b4a5b103f7ecaecfe8cc29b9898d8c1", "is_disabled": 0, "rental_uris": {"android": "https://dc.lft.to/lastmile_qr_scan", "ios": "https://dc.lft.to/lastmile_qr_scan"}, "fusion_lon": 0.0, "lat": 38.91463733333333, "bike_id": "3b4a5b103f7ecaecfe8cc29b9898d8c1", "type": "electric_scooter", "is_reserved": 0, "lon": -77.00211183333333}, {"fusion_lat": 0.0, "name": "df6778983b81837d98f7a1bc5d318018", "is_disabled": 0, "rental_uris": {"android": "https://dc.lft.to/lastmile_qr_scan", "ios": "https://dc.lft.to/lastmile_qr_scan"}, "fusion_lon": 0.0, "lat": 38.92403616666667, "bike_id": "df6778983b81837d98f7a1bc5d318018", "type": "electric_scooter", "is_reserved": 0, "lon": -77.027031}, {"fusion_lat": 0.0, "name": "d4f39ab26143b41365ae06b77b075d88", "is_disabled": 0, "rental_uris": {"android": "https://dc.lft.to/lastmile_qr_scan", "ios": "https://dc.lft.to/lastmile_qr_scan"}, "fusion_lon": 0.0, "lat": 38.90408733333334, "bike_id": "d4f39ab26143b41365ae06b77b075d88", "type": "electric_scooter", "is_reserved": 0, "lon": -77.02020666666667}, {"fusion_lat": 0.0, "name": "c8ebc1c5252b62b55d36872434c0655c", "is_disabled": 0, "rental_uris": {"android": "https://dc.lft.to/lastmile_qr_scan", "ios": "https://dc.lft.to/lastmile_qr_scan"}, "fusion_lon": 0.0, "lat": 38.93140783333333, "bike_id": "c8ebc1c5252b62b55d36872434c0655c", "type": "electric_scooter", "is_reserved": 0, "lon": -77.028278}, {"fusion_lat": 0.0, "name": "7944c8903bb2b93936fe10933c147f80", "is_disabled": 0, "rental_uris": {"android": "https://dc.lft.to/lastmile_qr_scan", "ios": "https://dc.lft.to/lastmile_qr_scan"}, "fusion_lon": 0.0, "lat": 38.8983345, "bike_id": "7944c8903bb2b93936fe10933c147f80", "type": "electric_scooter", "is_reserved": 0, "lon": -77.00758716666667}, {"fusion_lat": 0.0, "name": "ece22d6b37e86a95531810ef48ba7266", "is_disabled": 0, "rental_uris": {"android": "https://dc.lft.to/lastmile_qr_scan", "ios": "https://dc.lft.to/lastmile_qr_scan"}, "fusion_lon": 0.0, "lat": 38.913623, "bike_id": "ece22d6b37e86a95531810ef48ba7266", "type": "electric_scooter", "is_reserved": 0, "lon": -77.04593983333334}, {"fusion_lat": 0.0, "name": "adff6e5b5076f829bb656a3bf5c63ed2", "is_disabled": 0, "rental_uris": {"android": "https://dc.lft.to/lastmile_qr_scan", "ios": "https://dc.lft.to/lastmile_qr_scan"}, "fusion_lon": 0.0, "lat": 38.91490733333333, "bike_id": "adff6e5b5076f829bb656a3bf5c63ed2", "type": "electric_scooter", "is_reserved": 0, "lon": -77.04244466666667}, {"fusion_lat": 0.0, "name": "a89be140e76ca09d553c902159ab8f88", "is_disabled": 0, "rental_uris": {"android": "https://dc.lft.to/lastmile_qr_scan", "ios": "https://dc.lft.to/lastmile_qr_scan"}, "fusion_lon": 0.0, "lat": 39.070498, "bike_id": "a89be140e76ca09d553c902159ab8f88", "type": "electric_bike", "is_reserved": 0, "lon": -77.11481383333333}, {"fusion_lat": 0.0, "name": "6a9fdd9efa285831f84808a9b1190831", "is_disabled": 0, "rental_uris": {"android": "https://dc.lft.to/lastmile_qr_scan", "ios": "https://dc.lft.to/lastmile_qr_scan"}, "fusion_lon": 0.0, "lat": 38.899957, "bike_id": "6a9fdd9efa285831f84808a9b1190831", "type": "electric_scooter", "is_reserved": 0, "lon": -77.02294333333333}, {"fusion_lat": 0.0, "name": "43d6d6c4ea3bb39ba710abb10e6b3eb7", "is_disabled": 0, "rental_uris": {"android": "https://dc.lft.to/lastmile_qr_scan", "ios": "https://dc.lft.to/lastmile_qr_scan"}, "fusion_lon": 0.0, "lat": 38.923342833333336, "bike_id": "43d6d6c4ea3bb39ba710abb10e6b3eb7", "type": "electric_scooter", "is_reserved": 0, "lon": -77.05300333333334}, {"fusion_lat": 0.0, "name": "3cd5b6dafa155d5cdc6537a8fa4c36b0", "is_disabled": 0, "rental_uris": {"android": "https://dc.lft.to/lastmile_qr_scan", "ios": "https://dc.lft.to/lastmile_qr_scan"}, "fusion_lon": 0.0, "lat": 38.9019725, "bike_id": "3cd5b6dafa155d5cdc6537a8fa4c36b0", "type": "electric_scooter", "is_reserved": 0, "lon": -77.0611415}, {"fusion_lat": 0.0, "name": "4c8330cebdfd096e33938750b6b714af", "is_disabled": 0, "rental_uris": {"android": "https://dc.lft.to/lastmile_qr_scan", "ios": "https://dc.lft.to/lastmile_qr_scan"}, "fusion_lon": 0.0, "lat": 38.90257866666666, "bike_id": "4c8330cebdfd096e33938750b6b714af", "type": "electric_scooter", "is_reserved": 0, "lon": -77.00536533333333}, {"fusion_lat": 0.0, "name": "79a5d6189f2320089fc949863520f13d", "is_disabled": 0, "rental_uris": {"android": "https://dc.lft.to/lastmile_qr_scan", "ios": "https://dc.lft.to/lastmile_qr_scan"}, "fusion_lon": 0.0, "lat": 38.91122516666667, "bike_id": "79a5d6189f2320089fc949863520f13d", "type": "electric_scooter", "is_reserved": 0, "lon": -77.00398583333333}, {"fusion_lat": 0.0, "name": "b065d6685cdf77f68d303b0acbe94167", "is_disabled": 0, "rental_uris": {"android": "https://dc.lft.to/lastmile_qr_scan", "ios": "https://dc.lft.to/lastmile_qr_scan"}, "fusion_lon": 0.0, "lat": 38.89578783333333, "bike_id": "b065d6685cdf77f68d303b0acbe94167", "type": "electric_scooter", "is_reserved": 0, "lon": -76.98323283333333}, {"fusion_lat": 0.0, "name": "5c97ebcdfa369524e6a3d480762999a8", "is_disabled": 0, "rental_uris": {"android": "https://dc.lft.to/lastmile_qr_scan", "ios": "https://dc.lft.to/lastmile_qr_scan"}, "fusion_lon": 0.0, "lat": 38.94970816666667, "bike_id": "5c97ebcdfa369524e6a3d480762999a8", "type": "electric_scooter", "is_reserved": 0, "lon": -77.06631983333334}, {"fusion_lat": 0.0, "name": "ad392ff7d9b818ffb53301325339b0ab", "is_disabled": 0, "rental_uris": {"android": "https://dc.lft.to/lastmile_qr_scan", "ios": "https://dc.lft.to/lastmile_qr_scan"}, "fusion_lon": 0.0, "lat": 38.93576733333333, "bike_id": "ad392ff7d9b818ffb53301325339b0ab", "type": "electric_scooter", "is_reserved": 0, "lon": -77.0212955}, {"fusion_lat": 0.0, "name": "39983b1da12b64d7ff7227ef5cb5516b", "is_disabled": 0, "rental_uris": {"android": "https://dc.lft.to/lastmile_qr_scan", "ios": "https://dc.lft.to/lastmile_qr_scan"}, "fusion_lon": 0.0, "lat": 38.900398, "bike_id": "39983b1da12b64d7ff7227ef5cb5516b", "type": "electric_scooter", "is_reserved": 0, "lon": -76.9972555}, {"fusion_lat": 0.0, "name": "87ee0faeb2a53f8bf91d457151a9bbb6", "is_disabled": 0, "rental_uris": {"android": "https://dc.lft.to/lastmile_qr_scan", "ios": "https://dc.lft.to/lastmile_qr_scan"}, "fusion_lon": 0.0, "lat": 38.918229, "bike_id": "87ee0faeb2a53f8bf91d457151a9bbb6", "type": "electric_scooter", "is_reserved": 0, "lon": -77.03227783333334}, {"fusion_lat": 0.0, "name": "0a4032542ce7d95a07d957fe9e7ae19c", "is_disabled": 0, "rental_uris": {"android": "https://dc.lft.to/lastmile_qr_scan", "ios": "https://dc.lft.to/lastmile_qr_scan"}, "fusion_lon": 0.0, "lat": 38.87481116666667, "bike_id": "0a4032542ce7d95a07d957fe9e7ae19c", "type": "electric_scooter", "is_reserved": 0, "lon": -77.0060745}, {"fusion_lat": 0.0, "name": "ca143a1e99902e8e28016b343294140f", "is_disabled": 0, "rental_uris": {"android": "https://dc.lft.to/lastmile_qr_scan", "ios": "https://dc.lft.to/lastmile_qr_scan"}, "fusion_lon": 0.0, "lat": 38.9245505, "bike_id": "ca143a1e99902e8e28016b343294140f", "type": "electric_scooter", "is_reserved": 0, "lon": -77.03969083333334}, {"fusion_lat": 0.0, "name": "1d124226b0be8432f958a7e93295255c", "is_disabled": 0, "rental_uris": {"android": "https://dc.lft.to/lastmile_qr_scan", "ios": "https://dc.lft.to/lastmile_qr_scan"}, "fusion_lon": 0.0, "lat": 38.9208975, "bike_id": "1d124226b0be8432f958a7e93295255c", "type": "electric_scooter", "is_reserved": 0, "lon": -77.02526133333333}, {"fusion_lat": 0.0, "name": "4e2063dc2797778f014c89aaee8d17ec", "is_disabled": 0, "rental_uris": {"android": "https://dc.lft.to/lastmile_qr_scan", "ios": "https://dc.lft.to/lastmile_qr_scan"}, "fusion_lon": 0.0, "lat": 38.876629, "bike_id": "4e2063dc2797778f014c89aaee8d17ec", "type": "electric_scooter", "is_reserved": 0, "lon": -77.01781816666667}, {"fusion_lat": 0.0, "name": "91dc0e7df18d3f1e927c69670dfd9cd5", "is_disabled": 0, "rental_uris": {"android": "https://dc.lft.to/lastmile_qr_scan", "ios": "https://dc.lft.to/lastmile_qr_scan"}, "fusion_lon": 0.0, "lat": 38.92784966666667, "bike_id": "91dc0e7df18d3f1e927c69670dfd9cd5", "type": "electric_scooter", "is_reserved": 0, "lon": -77.053188}, {"fusion_lat": 0.0, "name": "41152bf538d176cebcc06f1626ef4e18", "is_disabled": 0, "rental_uris": {"android": "https://dc.lft.to/lastmile_qr_scan", "ios": "https://dc.lft.to/lastmile_qr_scan"}, "fusion_lon": 0.0, "lat": 38.962359, "bike_id": "41152bf538d176cebcc06f1626ef4e18", "type": "electric_bike", "is_reserved": 0, "lon": -76.92799716666667}, {"fusion_lat": 0.0, "name": "f5266dca49db46626bdc548a9bebf633", "is_disabled": 0, "rental_uris": {"android": "https://dc.lft.to/lastmile_qr_scan", "ios": "https://dc.lft.to/lastmile_qr_scan"}, "fusion_lon": 0.0, "lat": 38.908916833333336, "bike_id": "f5266dca49db46626bdc548a9bebf633", "type": "electric_scooter", "is_reserved": 0, "lon": -77.04383033333333}, {"fusion_lat": 0.0, "name": "c9a6e8e88334c14b1925816f07c908ba", "is_disabled": 0, "rental_uris": {"android": "https://dc.lft.to/lastmile_qr_scan", "ios": "https://dc.lft.to/lastmile_qr_scan"}, "fusion_lon": 0.0, "lat": 38.947218, "bike_id": "c9a6e8e88334c14b1925816f07c908ba", "type": "electric_scooter", "is_reserved": 0, "lon": -77.02766566666666}, {"fusion_lat": 0.0, "name": "6a68160725cff74d5fba61dfddd2b263", "is_disabled": 0, "rental_uris": {"android": "https://dc.lft.to/lastmile_qr_scan", "ios": "https://dc.lft.to/lastmile_qr_scan"},