{"data": {"bikes": [{"lat": 38.9029025, "bike_id": "a97576bf3ca2a5c4c805f123c9240928", "is_reserved": 0, "is_disabled": 0, "rental_uris": {"android": "https://dc.lft.to/lastmile_qr_scan", "ios": "https://dc.lft.to/lastmile_qr_scan"}, "fusion_lon": 0.0, "lon": -76.990366, "type": "electric_scooter", "fusion_lat": 0.0, "name": "a97576bf3ca2a5c4c805f123c9240928"}, {"lat": 38.89847266666666, "bike_id": "e7f00374a40b1f003a484a52cad73aa7", "is_reserved": 0, "is_disabled": 0, "rental_uris": {"android": "https://dc.lft.to/lastmile_qr_scan", "ios": "https://dc.lft.to/lastmile_qr_scan"}, "fusion_lon": 0.0, "lon": -77.04366616666667, "type": "electric_scooter", "fusion_lat": 0.0, "name": "e7f00374a40b1f003a484a52cad73aa7"}, {"lat": 38.935276, "bike_id": "d5837ff6b1439d63f5c118559e2aa84a", "is_reserved": 0, "is_disabled": 0, "rental_uris": {"android": "https://dc.lft.to/lastmile_qr_scan", "ios": "https://dc.lft.to/lastmile_qr_scan"}, "fusion_lon": 0.0, "lon": -77.07263466666667, "type": "electric_scooter", "fusion_lat": 0.0, "name": "d5837ff6b1439d63f5c118559e2aa84a"}, {"lat": 38.94421583333333, "bike_id": "309ea2fae88770807f3215d1ce3813e7", "is_reserved": 0, "is_disabled": 0, "rental_uris": {"android": "https://dc.lft.to/lastmile_qr_scan", "ios": "https://dc.lft.to/lastmile_qr_scan"}, "fusion_lon": 0.0, "lon": -77.06330933333334, "type": "electric_scooter", "fusion_lat": 0.0, "name": "309ea2fae88770807f3215d1ce3813e7"}, {"lat": 38.89895816666667, "bike_id": "3219ab417f2ec589b01f60d671699429", "is_reserved": 0, "is_disabled": 0, "rental_uris": {"android": "https://dc.lft.to/lastmile_qr_scan", "ios": "https://dc.lft.to/lastmile_qr_scan"}, "fusion_lon": 0.0, "lon": -77.03185583333334, "type": "electric_scooter", "fusion_lat": 0.0, "name": "3219ab417f2ec589b01f60d671699429"}, {"lat": 38.863565, "bike_id": "140bab4e9ba35d569e42c7de8a29db69", "is_reserved": 0, "is_disabled": 0, "rental_uris": {"android": "https://dc.lft.to/lastmile_qr_scan", "ios": "https://dc.lft.to/lastmile_qr_scan"}, "fusion_lon": 0.0, "lon": -76.99064783333333, "type": "electric_scooter", "fusion_lat": 0.0, "name": "140bab4e9ba35d569e42c7de8a29db69"}, {"lat": 38.85400583333333, "bike_id": "959ada164bf6649c184f2e86943743ed", "is_reserved": 0, "is_disabled": 0, "rental_uris": {"android": "https://dc.lft.to/lastmile_qr_scan", "ios": "https://dc.lft.to/lastmile_qr_scan"}, "fusion_lon": 0.0, "lon": -77.12073533333333, "type": "electric_bike", "fusion_lat": 0.0, "name": "959ada164bf6649c184f2e86943743ed"}, {"lat": 38.84427683333333, "bike_id": "d831aa352bde9aed6ed1e7fa10a7c666", "is_reserved": 0, "is_disabled": 0, "rental_uris": {"android": "https://dc.lft.to/lastmile_qr_scan", "ios": "https://dc.lft.to/lastmile_qr_scan"}, "fusion_lon": 0.0, "lon": -77.08578283333334, "type": "electric_bike", "fusion_lat": 0.0, "name": "d831aa352bde9aed6ed1e7fa10a7c666"}, {"lat": 38.915564, "bike_id": "b04bb81a9fbb53a8631f54851724011b", "is_reserved": 0, "is_disabled": 0, "rental_uris": {"android": "https://dc.lft.to/lastmile_qr_scan", "ios": "https://dc.lft.to/lastmile_qr_scan"}, "fusion_lon": 0.0, "lon": -77.03173366666667, "type": "electric_scooter", "fusion_lat": 0.0, "name": "b04bb81a9fbb53a8631f54851724011b"}, {"lat": 38.904440666666666, "bike_id": "170e8ae137a2fb2526320d20d4aea89d", "is_reserved": 0, "is_disabled": 0, "rental_uris": {"android": "https://dc.lft.to/lastmile_qr_scan", "ios": "https://dc.lft.to/lastmile_qr_scan"}, "fusion_lon": 0.0, "lon": -77.04848333333334, "type": "electric_bike", "fusion_lat": 0.0, "name": "170e8ae137a2fb2526320d20d4aea89d"}, {"lat": 38.926944, "bike_id": "6d5c25109499719bdde6aef221aca701", "is_reserved": 0, "is_disabled": 0, "rental_uris": {"android": "https://dc.lft.to/lastmile_qr_scan", "ios": "https://dc.lft.to/lastmile_qr_scan"}, "fusion_lon": 0.0, "lon": -77.02077216666666, "type": "electric_scooter", "fusion_lat": 0.0, "name": "6d5c25109499719bdde6aef221aca701"}, {"lat": 38.895001, "bike_id": "e551823e74fb6c65f1cc9aa5566b50cb", "is_reserved": 0, "is_disabled": 0, "rental_uris": {"android": "https://dc.lft.to/lastmile_qr_scan", "ios": "https://dc.lft.to/lastmile_qr_scan"}, "fusion_lon": 0.0, "lon": -76.921999, "type": "electric_bike", "fusion_lat": 0.0, "name": "e551823e74fb6c65f1cc9aa5566b50cb"}, {"lat": 38.90736483333333, "bike_id": "ec6b7e9565e17e5b3cf34c64e2071ace", "is_reserved": 0, "is_disabled": 0, "rental_uris": {"android": "https://dc.lft.to/lastmile_qr_scan", "ios": "https://dc.lft.to/lastmile_qr_scan"}, "fusion_lon": 0.0, "lon": -77.04237133333334, "type": "electric_scooter", "fusion_lat": 0.0, "name": "ec6b7e9565e17e5b3cf34c64e2071ace"}, {"lat": 38.902107, "bike_id": "f244a6eb2a828b2b4f0990fdebd7e5b0", "is_reserved": 0, "is_disabled": 0, "rental_uris": {"android": "https://dc.lft.to/lastmile_qr_scan", "ios": "https://dc.lft.to/lastmile_qr_scan"}, "fusion_lon": 0.0, "lon": -77.0325205, "type": "electric_scooter", "fusion_lat": 0.0, "name": "f244a6eb2a828b2b4f0990fdebd7e5b0"}, {"lat": 38.91568216666667, "bike_id": "e38a9b5fb3bd3f547575569834f2df01", "is_reserved": 0, "is_disabled": 0, "rental_uris": {"android": "https://dc.lft.to/lastmile_qr_scan", "ios": "https://dc.lft.to/lastmile_qr_scan"}, "fusion_lon": 0.0, "lon": -77.03210983333334, "type": "electric_scooter", "fusion_lat": 0.0, "name": "e38a9b5fb3bd3f547575569834f2df01"}, {"lat": 38.907665, "bike_id": "12c6e994be3005b2599d4391adff5ac1", "is_reserved": 0, "is_disabled": 0, "rental_uris": {"android": "https://dc.lft.to/lastmile_qr_scan", "ios": "https://dc.lft.to/lastmile_qr_scan"}, "fusion_lon": 0.0, "lon": -77.0554835, "type": "electric_scooter", "fusion_lat": 0.0, "name": "12c6e994be3005b2599d4391adff5ac1"}, {"lat": 38.8987915, "bike_id": "444130a31e859309d2ff9d936d392575", "is_reserved": 0, "is_disabled": 0, "rental_uris": {"android": "https://dc.lft.to/lastmile_qr_scan", "ios": "https://dc.lft.to/lastmile_qr_scan"}, "fusion_lon": 0.0, "lon": -76.93185066666666, "type": "electric_scooter", "fusion_lat": 0.0, "name": "444130a31e859309d2ff9d936d392575"}, {"lat": 38.9236375, "bike_id": "9b8e776eb8b2cd264bf0d7a1ef95faf1", "is_reserved": 0, "is_disabled": 0, "rental_uris": {"android": "https://dc.lft.to/lastmile_qr_scan", "ios": "https://dc.lft.to/lastmile_qr_scan"}, "fusion_lon": 0.0, "lon": -77.00384866666667, "type": "electric_scooter", "fusion_lat": 0.0, "name": "9b8e776eb8b2cd264bf0d7a1ef95faf1"}, {"lat": 38.8922235, "bike_id": "3390a8bc99a34b208871a21225157827", "is_reserved": 0, "is_disabled": 0, "rental_uris": {"android": "https://dc.lft.to/lastmile_qr_scan", "ios": "https://dc.lft.to/lastmile_qr_scan"}, "fusion_lon": 0.0, "lon": -77.023671, "type": "electric_scooter", "fusion_lat": 0.0, "name": "3390a8bc99a34b208871a21225157827"}, {"lat": 38.89989683333334, "bike_id": "01e691f2143cf31fc140c04caf256625", "is_reserved": 0, "is_disabled": 0, "rental_uris": {"android": "https://dc.lft.to/lastmile_qr_scan", "ios": "https://dc.lft.to/lastmile_qr_scan"}, "fusion_lon": 0.0, "lon": -77.055659, "type": "electric_scooter", "fusion_lat": 0.0, "name": "01e691f2143cf31fc140c04caf256625"}, {"lat": 38.936759, "bike_id": "27e16eab097a9ecfb72f6bbb5948ac12", "is_reserved": 0, "is_disabled": 0, "rental_uris": {"android": "https://dc.lft.to/lastmile_qr_scan", "ios": "https://dc.lft.to/lastmile_qr_scan"}, "fusion_lon": 0.0, "lon": -77.03267933333333, "type": "electric_scooter", "fusion_lat": 0.0, "name": "27e16eab097a9ecfb72f6bbb5948ac12"}, {"lat": 38.852056833333336, "bike_id": "671a06d5685db1f5ac919b8ec9bcbd49", "is_reserved": 0, "is_disabled": 0, "rental_uris": {"android": "https://dc.lft.to/lastmile_qr_scan", "ios": "https://dc.lft.to/lastmile_qr_scan"}, "fusion_lon": 0.0, "lon": -77.101249, "type": "electric_bike", "fusion_lat": 0.0, "name": "671a06d5685db1f5ac919b8ec9bcbd49"}, {"lat": 38.91549783333333, "bike_id": "9cc75eef80cc41e9cf3ba963fdc121cb", "is_reserved": 0, "is_disabled": 0, "rental_uris": {"android": "https://dc.lft.to/lastmile_qr_scan", "ios": "https://dc.lft.to/lastmile_qr_scan"}, "fusion_lon": 0.0, "lon": -77.0434765, "type": "electric_scooter", "fusion_lat": 0.0, "name": "9cc75eef80cc41e9cf3ba963fdc121cb"}, {"lat": 38.892222, "bike_id": "c993838c31cce763280894a000fde2d2", "is_reserved": 0, "is_disabled": 0, "rental_uris": {"android": "https://dc.lft.to/lastmile_qr_scan", "ios": "https://dc.lft.to/lastmile_qr_scan"}, "fusion_lon": 0.0, "lon": -77.01960416666667, "type": "electric_scooter", "fusion_lat": 0.0, "name": "c993838c31cce763280894a000fde2d2"}, {"lat": 38.97502083333333, "bike_id": "78dcf2d1a4b908178c24586fe5810a29", "is_reserved": 0, "is_disabled": 0, "rental_uris": {"android": "https://dc.lft.to/lastmile_qr_scan", "ios": "https://dc.lft.to/lastmile_qr_scan"}, "fusion_lon": 0.0, "lon": -77.016952, "type": "electric_scooter", "fusion_lat": 0.0, "name": "78dcf2d1a4b908178c24586fe5810a29"}, {"lat": 38.827886, "bike_id": "4acbf39754bcb908080810db4cffdafe", "is_reserved": 0, "is_disabled": 0, "rental_uris": {"android": "https://dc.lft.to/lastmile_qr_scan", "ios": "https://dc.lft.to/lastmile_qr_scan"}, "fusion_lon": 0.0, "lon": -77.00918183333333, "type": "electric_scooter", "fusion_lat": 0.0, "name": "4acbf39754bcb908080810db4cffdafe"}, {"lat": 38.9065465, "bike_id": "8ec335adcf58933031ffa4f29dfcab72", "is_reserved": 0, "is_disabled": 0, "rental_uris": {"android": "https://dc.lft.to/lastmile_qr_scan", "ios": "https://dc.lft.to/lastmile_qr_scan"}, "fusion_lon": 0.0, "lon": -77.00600833333333, "type": "electric_scooter", "fusion_lat": 0.0, "name": "8ec335adcf58933031ffa4f29dfcab72"}, {"lat": 38.923142666666664, "bike_id": "62ca025a8dd9457e360c9c32e6e31c4a", "is_reserved": 0, "is_disabled": 0, "rental_uris": {"android": "https://dc.lft.to/lastmile_qr_scan", "ios": "https://dc.lft.to/lastmile_qr_scan"}, "fusion_lon": 0.0, "lon": -77.035258, "type": "electric_scooter", "fusion_lat": 0.0, "name": "62ca025a8dd9457e360c9c32e6e31c4a"}, {"lat": 38.93599666666667, "bike_id": "0a4d3a22e41d8d0da01d82b0f34240ca", "is_reserved": 0, "is_disabled": 0, "rental_uris": {"android": "https://dc.lft.to/lastmile_qr_scan", "ios": "https://dc.lft.to/lastmile_qr_scan"}, "fusion_lon": 0.0, "lon": -77.05618766666667, "type": "electric_scooter", "fusion_lat": 0.0, "name": "0a4d3a22e41d8d0da01d82b0f34240ca"}, {"lat": 38.8760545, "bike_id": "13f52752372b05f435b0fbd8b9cce7ce", "is_reserved": 0, "is_disabled": 0, "rental_uris": {"android": "https://dc.lft.to/lastmile_qr_scan", "ios": "https://dc.lft.to/lastmile_qr_scan"}, "fusion_lon": 0.0, "lon": -77.00156833333334, "type": "electric_scooter", "fusion_lat": 0.0, "name": "13f52752372b05f435b0fbd8b9cce7ce"}, {"lat": 38.91491533333333, "bike_id": "fb38547552c5324d755879a60365cf25", "is_reserved": 0, "is_disabled": 0, "rental_uris": {"android": "https://dc.lft.to/lastmile_qr_scan", "ios": "https://dc.lft.to/lastmile_qr_scan"}, "fusion_lon": 0.0, "lon": -77.01724383333334, "type": "electric_scooter", "fusion_lat": 0.0, "name": "fb38547552c5324d755879a60365cf25"}, {"lat": 38.924061, "bike_id": "53f8eba92d646e7815198b0217922bf8", "is_reserved": 0, "is_disabled": 0, "rental_uris": {"android": "https://dc.lft.to/lastmile_qr_scan", "ios": "https://dc.lft.to/lastmile_qr_scan"}, "fusion_lon": 0.0, "lon": -77.0448235, "type": "electric_scooter", "fusion_lat": 0.0, "name": "53f8eba92d646e7815198b0217922bf8"}, {"lat": 38.88038133333333, "bike_id": "364971ac263bc340861a84a1c0ffce47", "is_reserved": 0, "is_disabled": 0, "rental_uris": {"android": "https://dc.lft.to/lastmile_qr_scan", "ios": "https://dc.lft.to/lastmile_qr_scan"}, "fusion_lon": 0.0, "lon": -77.00370166666667, "type": "electric_scooter", "fusion_lat": 0.0, "name": "364971ac263bc340861a84a1c0ffce47"}, {"lat": 38.962315333333336, "bike_id": "797549def1f52a618a111d74a93f99ff", "is_reserved": 0, "is_disabled": 0, "rental_uris": {"android": "https://dc.lft.to/lastmile_qr_scan", "ios": "https://dc.lft.to/lastmile_qr_scan"}, "fusion_lon": 0.0, "lon": -77.0262905, "type": "electric_bike", "fusion_lat": 0.0, "name": "797549def1f52a618a111d74a93f99ff"}, {"lat": 38.92023233333333, "bike_id": "96585cc50dd0c2693c0d86ef8a3d2d90", "is_reserved": 0, "is_disabled": 0, "rental_uris": {"android": "https://dc.lft.to/lastmile_qr_scan", "ios": "https://dc.lft.to/lastmile_qr_scan"}, "fusion_lon": 0.0, "lon": -77.039758, "type": "electric_scooter", "fusion_lat": 0.0, "name": "96585cc50dd0c2693c0d86ef8a3d2d90"}, {"lat": 38.8832625, "bike_id": "2029a77cb6628afb9f351052aaff6d8d", "is_reserved": 0, "is_disabled": 0, "rental_uris": {"android": "https://dc.lft.to/lastmile_qr_scan", "ios": "https://dc.lft.to/lastmile_qr_scan"}, "fusion_lon": 0.0, "lon": -77.01756433333334, "type": "electric_scooter", "fusion_lat": 0.0, "name": "2029a77cb6628afb9f351052aaff6d8d"}, {"lat": 38.9267975, "bike_id": "0762c66a41f54e77a4ed6ea778b4dc50", "is_reserved": 0, "is_disabled": 0, "rental_uris": {"android": "https://dc.lft.to/lastmile_qr_scan", "ios": "https://dc.lft.to/lastmile_qr_scan"}, "fusion_lon": 0.0, "lon": -77.00746383333333, "type": "electric_scooter", "fusion_lat": 0.0, "name": "0762c66a41f54e77a4ed6ea778b4dc50"}, {"lat": 38.92252533333333, "bike_id": "f9757870399bbc484827f9fa1b61aedd", "is_reserved": 0, "is_disabled": 0, "rental_uris": {"android": "https://dc.lft.to/lastmile_qr_scan", "ios": "https://dc.lft.to/lastmile_qr_scan"}, "fusion_lon": 0.0, "lon": -77.0363795, "type": "electric_scooter", "fusion_lat": 0.0, "name": "f9757870399bbc484827f9fa1b61aedd"}, {"lat": 38.917079333333334, "bike_id": "1993883683d0e0405bab9b77c2f61a47", "is_reserved": 0, "is_disabled": 0, "rental_uris": {"android": "https://dc.lft.to/lastmile_qr_scan", "ios": "https://dc.lft.to/lastmile_qr_scan"}, "fusion_lon": 0.0, "lon": -77.04193716666667, "type": "electric_scooter", "fusion_lat": 0.0, "name": "1993883683d0e0405bab9b77c2f61a47"}, {"lat": 38.907393666666664, "bike_id": "3d93d576f1ca2fc09d49b2e31d050c7a", "is_reserved": 0, "is_disabled": 0, "rental_uris": {"android": "https://dc.lft.to/lastmile_qr_scan", "ios": "https://dc.lft.to/lastmile_qr_scan"}, "fusion_lon": 0.0, "lon": -77.04387433333333, "type": "electric_scooter", "fusion_lat": 0.0, "name": "3d93d576f1ca2fc09d49b2e31d050c7a"}, {"lat": 38.949150333333336, "bike_id": "8b405ef47cd99ba9155ee8249e6fea71", "is_reserved": 0, "is_disabled": 0, "rental_uris": {"android": "https://dc.lft.to/lastmile_qr_scan", "ios": "https://dc.lft.to/lastmile_qr_scan"}, "fusion_lon": 0.0, "lon": -76.977031, "type": "electric_bike", "fusion_lat": 0.0, "name": "8b405ef47cd99ba9155ee8249e6fea71"}, {"lat": 38.900078666666666, "bike_id": "0ad9b26306d3e39fd9401a5583eb065d", "is_reserved": 0, "is_disabled": 0, "rental_uris": {"android": "https://dc.lft.to/lastmile_qr_scan", "ios": "https://dc.lft.to/lastmile_qr_scan"}, "fusion_lon": 0.0, "lon": -77.03274133333333, "type": "electric_scooter", "fusion_lat": 0.0, "name": "0ad9b26306d3e39fd9401a5583eb065d"}, {"lat": 38.931990166666665, "bike_id": "b79650a29a70e7a6abd08708779d9331", "is_reserved": 0, "is_disabled": 0, "rental_uris": {"android": "https://dc.lft.to/lastmile_qr_scan", "ios": "https://dc.lft.to/lastmile_qr_scan"}, "fusion_lon": 0.0, "lon": -77.0385315, "type": "electric_scooter", "fusion_lat": 0.0, "name": "b79650a29a70e7a6abd08708779d9331"}, {"lat": 38.890430333333335, "bike_id": "533d7370f49458a9d5a56b9b9b024b42", "is_reserved": 0, "is_disabled": 0, "rental_uris": {"android": "https://dc.lft.to/lastmile_qr_scan", "ios": "https://dc.lft.to/lastmile_qr_scan"}, "fusion_lon": 0.0, "lon": -76.9514705, "type": "electric_scooter", "fusion_lat": 0.0, "name": "533d7370f49458a9d5a56b9b9b024b42"}, {"lat": 38.99833533333333, "bike_id": "cf686a0710169b06ebfd4d9f5deb87aa", "is_reserved": 0, "is_disabled": 0, "rental_uris": {"android": "https://dc.lft.to/lastmile_qr_scan", "ios": "https://dc.lft.to/lastmile_qr_scan"}, "fusion_lon": 0.0, "lon": -76.883669, "type": "electric_bike", "fusion_lat": 0.0, "name": "cf686a0710169b06ebfd4d9f5deb87aa"}, {"lat": 38.96638733333333, "bike_id": "be2fb729ae3d8417f5c5eb7bfa754fc3", "is_reserved": 0, "is_disabled": 0, "rental_uris": {"android": "https://dc.lft.to/lastmile_qr_scan", "ios": "https://dc.lft.to/lastmile_qr_scan"}, "fusion_lon": 0.0, "lon": -77.01997233333333, "type": "electric_scooter", "fusion_lat": 0.0, "name": "be2fb729ae3d8417f5c5eb7bfa754fc3"}, {"lat": 38.911887, "bike_id": "547658930214b763289051575b314d64", "is_reserved": 0, "is_disabled": 0, "rental_uris": {"android": "https://dc.lft.to/lastmile_qr_scan", "ios": "https://dc.lft.to/lastmile_qr_scan"}, "fusion_lon": 0.0, "lon": -77.03975966666667, "type": "electric_scooter", "fusion_lat": 0.0, "name": "547658930214b763289051575b314d64"}, {"lat": 38.90037066666667, "bike_id": "76155c8aab35156ed8cb6c9963e8d521", "is_reserved": 0, "is_disabled": 0, "rental_uris": {"android": "https://dc.lft.to/lastmile_qr_scan", "ios": "https://dc.lft.to/lastmile_qr_scan"}, "fusion_lon": 0.0, "lon": -77.02902333333333, "type": "electric_scooter", "fusion_lat": 0.0, "name": "76155c8aab35156ed8cb6c9963e8d521"}, {"lat": 38.939658333333334, "bike_id": "11fa5bbb822814c358fe8a38b8defa45", "is_reserved": 0, "is_disabled": 0, "rental_uris": {"android": "https://dc.lft.to/lastmile_qr_scan", "ios": "https://dc.lft.to/lastmile_qr_scan"}, "fusion_lon": 0.0, "lon": -77.36084616666666, "type": "electric_bike", "fusion_lat": 0.0, "name": "11fa5bbb822814c358fe8a38b8defa45"}, {"lat": 38.91699116666667, "bike_id": "9de9677fba904adc86d5b87544e1e11f", "is_reserved": 0, "is_disabled": 0, "rental_uris": {"android": "https://dc.lft.to/lastmile_qr_scan", "ios": "https://dc.lft.to/lastmile_qr_scan"}, "fusion_lon": 0.0, "lon": -77.011686, "type": "electric_scooter", "fusion_lat": 0.0, "name": "9de9677fba904adc86d5b87544e1e11f"}, {"lat": 38.88403116666667, "bike_id": "de7ab4fbda450bf007fd39eb2368dccc", "is_reserved": 0, "is_disabled": 0, "rental_uris": {"android": "https://dc.lft.to/lastmile_qr_scan", "ios": "https://dc.lft.to/lastmile_qr_scan"}, "fusion_lon": 0.0, "lon": -77.030433, "type": "electric_scooter", "fusion_lat": 0.0, "name": "de7ab4fbda450bf007fd39eb2368dccc"}, {"lat": 38.921631833333336, "bike_id": "6764ffbd4e8c96ee8c9788ba9d7e7a1b", "is_reserved": 0, "is_disabled": 0, "rental_uris": {"android": "https://dc.lft.to/lastmile_qr_scan", "ios": "https://dc.lft.to/lastmile_qr_scan"}, "fusion_lon": 0.0, "lon": -77.04690783333334, "type": "electric_scooter", "fusion_lat": 0.0, "name": "6764ffbd4e8c96ee8c9788ba9d7e7a1b"}, {"lat": 38.883328666666664, "bike_id": "a26e727964eac59bb14771b871e930ff", "is_reserved": 0, "is_disabled": 0, "rental_uris": {"android": "https://dc.lft.to/lastmile_qr_scan", "ios": "https://dc.lft.to/lastmile_qr_scan"}, "fusion_lon": 0.0, "lon": -77.01749566666666, "type": "electric_scooter", "fusion_lat": 0.0, "name": "a26e727964eac59bb14771b871e930ff"}, {"lat": 38.8973685, "bike_id": "818e1be4571eac957e97fb8983815b2d", "is_reserved": 0, "is_disabled": 0, "rental_uris": {"android": "https://dc.lft.to/lastmile_qr_scan", "ios": "https://dc.lft.to/lastmile_qr_scan"}, "fusion_lon": 0.0, "lon": -77.003707, "type": "electric_scooter", "fusion_lat": 0.0, "name": "818e1be4571eac957e97fb8983815b2d"}, {"lat": 38.900006, "bike_id": "9ba6c635e8d34834e8dcd47d0a27e273", "is_reserved": 0, "is_disabled": 0, "rental_uris": {"android": "https://dc.lft.to/lastmile_qr_scan", "ios": "https://dc.lft.to/lastmile_qr_scan"}, "fusion_lon": 0.0, "lon": -77.05334266666667, "type": "electric_scooter", "fusion_lat": 0.0, "name": "9ba6c635e8d34834e8dcd47d0a27e273"}, {"lat": 38.911909333333334, "bike_id": "539ecc52cd7271d021ee4ad984a4ee33", "is_reserved": 0, "is_disabled": 0, "rental_uris": {"android": "https://dc.lft.to/lastmile_qr_scan", "ios": "https://dc.lft.to/lastmile_qr_scan"}, "fusion_lon": 0.0, "lon": -77.0382325, "type": "electric_scooter", "fusion_lat": 0.0, "name": "539ecc52cd7271d021ee4ad984a4ee33"}, {"lat": 38.91264783333333, "bike_id": "e66263e8dba92a01d2526d8b551f0b72", "is_reserved": 0, "is_disabled": 0, "rental_uris": {"android": "https://dc.lft.to/lastmile_qr_scan", "ios": "https://dc.lft.to/lastmile_qr_scan"}, "fusion_lon": 0.0, "lon": -77.03919816666667, "type": "electric_scooter", "fusion_lat": 0.0, "name": "e66263e8dba92a01d2526d8b551f0b72"}, {"lat": 38.86251766666667, "bike_id": "2ebfc95f2003acd1dfef8290b34b97dc", "is_reserved": 0, "is_disabled": 0, "rental_uris": {"android": "https://dc.lft.to/lastmile_qr_scan", "ios": "https://dc.lft.to/lastmile_qr_scan"}, "fusion_lon": 0.0, "lon": -77.08655516666667, "type": "electric_bike", "fusion_lat": 0.0, "name": "2ebfc95f2003acd1dfef8290b34b97dc"}, {"lat": 38.90016983333334, "bike_id": "1f81b334d70e6788d93e2af44b667e86", "is_reserved": 0, "is_disabled": 0, "rental_uris": {"android": "https://dc.lft.to/lastmile_qr_scan", "ios": "https://dc.lft.to/lastmile_qr_scan"}, "fusion_lon": 0.0, "lon": -77.0315825, "type": "electric_scooter", "fusion_lat": 0.0, "name": "1f81b334d70e6788d93e2af44b667e86"}, {"lat": 38.86259416666667, "bike_id": "61ce56302d4975b86f17d88c642aaddc", "is_reserved": 0, "is_disabled": 0, "rental_uris": {"android": "https://dc.lft.to/lastmile_qr_scan", "ios": "https://dc.lft.to/lastmile_qr_scan"}, "fusion_lon": 0.0, "lon": -76.9954835, "type": "electric_scooter", "fusion_lat": 0.0, "name": "61ce56302d4975b86f17d88c642aaddc"}, {"lat": 38.9233485, "bike_id": "c56b5b3f4c0ac6d4cebabaef09c7a10e", "is_reserved": 0, "is_disabled": 0, "rental_uris": {"android": "https://dc.lft.to/lastmile_qr_scan", "ios": "https://dc.lft.to/lastmile_qr_scan"}, "fusion_lon": 0.0, "lon": -77.04302933333334, "type": "electric_scooter", "fusion_lat": 0.0, "name": "c56b5b3f4c0ac6d4cebabaef09c7a10e"}, {"lat": 38.84430866666667, "bike_id": "d4e9f8239105078847876bd8dba054fb", "is_reserved": 0, "is_disabled": 0, "rental_uris": {"android": "https://dc.lft.to/lastmile_qr_scan", "ios": "https://dc.lft.to/lastmile_qr_scan"}, "fusion_lon": 0.0, "lon": -76.99811866666667, "type": "electric_scooter", "fusion_lat": 0.0, "name": "d4e9f8239105078847876bd8dba054fb"}, {"lat": 38.91671233333334, "bike_id": "9e0a26e40136487eae7c1acfa686d6df", "is_reserved": 0, "is_disabled": 0, "rental_uris": {"android": "https://dc.lft.to/lastmile_qr_scan", "ios": "https://dc.lft.to/lastmile_qr_scan"}, "fusion_lon": 0.0, "lon": -77.02289116666667, "type": "electric_scooter", "fusion_lat": 0.0, "name": "9e0a26e40136487eae7c1acfa686d6df"}, {"lat": 38.91565383333333, "bike_id": "6e33daa237dd5454ab89d78dc57fbb4b", "is_reserved": 0, "is_disabled": 0, "rental_uris": {"android": "https://dc.lft.to/lastmile_qr_scan", "ios": "https://dc.lft.to/lastmile_qr_scan"}, "fusion_lon": 0.0, "lon": -77.01167416666667, "type": "electric_scooter", "fusion_lat": 0.0, "name": "6e33daa237dd5454ab89d78dc57fbb4b"}, {"lat": 38.96622816666667, "bike_id": "881571c8fb918130b61eb9861533dbe9", "is_reserved": 0, "is_disabled": 0, "rental_uris": {"android": "https://dc.lft.to/lastmile_qr_scan", "ios": "https://dc.lft.to/lastmile_qr_scan"}, "fusion_lon": 0.0, "lon": -76.99460466666666, "type": "electric_bike", "fusion_lat": 0.0, "name": "881571c8fb918130b61eb9861533dbe9"}, {"lat": 38.9548325, "bike_id": "ed807a563e4af79ba2da63e08258a799", "is_reserved": 0, "is_disabled": 0, "rental_uris": {"android": "https://dc.lft.to/lastmile_qr_scan", "ios": "https://dc.lft.to/lastmile_qr_scan"}, "fusion_lon": 0.0, "lon": -76.988628, "type": "electric_bike", "fusion_lat": 0.0, "name": "ed807a563e4af79ba2da63e08258a799"}, {"lat": 38.87014, "bike_id": "9d819c7f334de241fe0562797a9087b5", "is_reserved": 0, "is_disabled": 0, "rental_uris": {"android": "https://dc.lft.to/lastmile_qr_scan", "ios": "https://dc.lft.to/lastmile_qr_scan"}, "fusion_lon": 0.0, "lon": -76.96021883333333, "type": "electric_bike", "fusion_lat": 0.0, "name": "9d819c7f334de241fe0562797a9087b5"}, {"lat": 38.942631166666665, "bike_id": "255253fba564ac5cdfb13e603e9416b4", "is_reserved": 0, "is_disabled": 0, "rental_uris": {"android": "https://dc.lft.to/lastmile_qr_scan", "ios": "https://dc.lft.to/lastmile_qr_scan"}, "fusion_lon": 0.0, "lon": -77.02838866666667, "type": "electric_bike", "fusion_lat": 0.0, "name": "255253fba564ac5cdfb13e603e9416b4"}, {"lat": 38.917413833333335, "bike_id": "07ff523b2d7d8fc1ae18aa81c9c25935", "is_reserved": 0, "is_disabled": 0, "rental_uris": {"android": "https://dc.lft.to/lastmile_qr_scan", "ios": "https://dc.lft.to/lastmile_qr_scan"}, "fusion_lon": 0.0, "lon": -77.04828316666666, "type": "electric_scooter", "fusion_lat": 0.0, "name": "07ff523b2d7d8fc1ae18aa81c9c25935"}, {"lat": 38.88374116666667, "bike_id": "5c2ae58c8029adac9b6691e227b62d70", "is_reserved": 0, "is_disabled": 0, "rental_uris": {"android": "https://dc.lft.to/lastmile_qr_scan", "ios": "https://dc.lft.to/lastmile_qr_scan"}, "fusion_lon": 0.0, "lon": -76.9951785, "type": "electric_scooter", "fusion_lat": 0.0, "name": "5c2ae58c8029adac9b6691e227b62d70"}, {"lat": 38.884065666666665, "bike_id": "660c3ccd95b7d9db049991606052d67f", "is_reserved": 0, "is_disabled": 0, "rental_uris": {"android": "https://dc.lft.to/lastmile_qr_scan", "ios": "https://dc.lft.to/lastmile_qr_scan"}, "fusion_lon": 0.0, "lon": -76.96059133333333, "type": "electric_bike", "fusion_lat": 0.0, "name": "660c3ccd95b7d9db049991606052d67f"}, {"lat": 38.871429666666664, "bike_id": "92366f6ad37498b0fa3e89108fba8eaf", "is_reserved": 0, "is_disabled": 0, "rental_uris": {"android": "https://dc.lft.to/lastmile_qr_scan", "ios": "https://dc.lft.to/lastmile_qr_scan"}, "fusion_lon": 0.0, "lon": -76.99332816666667, "type": "electric_scooter", "fusion_lat": 0.0, "name": "92366f6ad37498b0fa3e89108fba8eaf"}, {"lat": 38.914790833333335, "bike_id": "01ced64b1a68d86e37b980737190440a", "is_reserved": 0, "is_disabled": 0, "rental_uris": {"android": "https://dc.lft.to/lastmile_qr_scan", "ios": "https://dc.lft.to/lastmile_qr_scan"}, "fusion_lon": 0.0, "lon": -77.02549516666667, "type": "electric_scooter", "fusion_lat": 0.0, "name": "01ced64b1a68d86e37b980737190440a"}, {"lat": 38.9181355, "bike_id": "65846463515bafe4a546606efa69c6a7", "is_reserved": 0, "is_disabled": 0, "rental_uris": {"android": "https://dc.lft.to/lastmile_qr_scan", "ios": "https://dc.lft.to/lastmile_qr_scan"}, "fusion_lon": 0.0, "lon": -77.040041, "type": "electric_scooter", "fusion_lat": 0.0, "name": "65846463515bafe4a546606efa69c6a7"}, {"lat": 38.97371016666666, "bike_id": "76a807adcba31d4ad2a199dcaa76c692", "is_reserved": 0, "is_disabled": 0, "rental_uris": {"android": "https://dc.lft.to/lastmile_qr_scan", "ios": "https://dc.lft.to/lastmile_qr_scan"}, "fusion_lon": 0.0, "lon": -77.0185205, "type": "electric_scooter", "fusion_lat": 0.0, "name": "76a807adcba31d4ad2a199dcaa76c692"}, {"lat": 38.91680366666667, "bike_id": "dcf177f3e57abae8fc664d2b92201296", "is_reserved": 0, "is_disabled": 0, "rental_uris": {"android": "https://dc.lft.to/lastmile_qr_scan", "ios": "https://dc.lft.to/lastmile_qr_scan"}, "fusion_lon": 0.0, "lon": -77.04376216666667, "type": "electric_scooter", "fusion_lat": 0.0, "name": "dcf177f3e57abae8fc664d2b92201296"}, {"lat": 38.90389183333333, "bike_id": "8e980d136f49809c29d9d0e49372dd14", "is_reserved": 0, "is_disabled": 0, "rental_uris": {"android": "https://dc.lft.to/lastmile_qr_scan", "ios": "https://dc.lft.to/lastmile_qr_scan"}, "fusion_lon": 0.0, "lon": -77.03190683333334, "type": "electric_scooter", "fusion_lat": 0.0, "name": "8e980d136f49809c29d9d0e49372dd14"}, {"lat": 38.92051283333333, "bike_id": "51fa2c6b5dc9b570ee4bf3c967e50cec", "is_reserved": 0, "is_disabled": 0, "rental_uris": {"android": "https://dc.lft.to/lastmile_qr_scan", "ios": "https://dc.lft.to/lastmile_qr_scan"}, "fusion_lon": 0.0, "lon": -77.03338633333334, "type": "electric_scooter", "fusion_lat": 0.0, "name": "51fa2c6b5dc9b570ee4bf3c967e50cec"}, {"lat": 38.89046666666667, "bike_id": "dd330694d106179b17a76d58d59885de", "is_reserved": 0, "is_disabled": 0, "rental_uris": {"android": "https://dc.lft.to/lastmile_qr_scan", "ios": "https://dc.lft.to/lastmile_qr_scan"}, "fusion_lon": 0.0, "lon": -76.93753566666666, "type": "electric_scooter", "fusion_lat": 0.0, "name": "dd330694d106179b17a76d58d59885de"}, {"lat": 38.93564633333333, "bike_id": "5120dfd33824ab85e6cb4acef6708199", "is_reserved": 0, "is_disabled": 0, "rental_uris": {"android": "https://dc.lft.to/lastmile_qr_scan", "ios": "https://dc.lft.to/lastmile_qr_scan"}, "fusion_lon": 0.0, "lon": -77.05816083333333, "type": "electric_scooter", "fusion_lat": 0.0, "name": "5120dfd33824ab85e6cb4acef6708199"}, {"lat": 38.89727116666667, "bike_id": "ac68a8bf2c56485428b04d285e527efd", "is_reserved": 0, "is_disabled": 0, "rental_uris": {"android": "https://dc.lft.to/lastmile_qr_scan", "ios": "https://dc.lft.to/lastmile_qr_scan"}, "fusion_lon": 0.0, "lon": -76.99384566666667, "type": "electric_scooter", "fusion_lat": 0.0, "name": "ac68a8bf2c56485428b04d285e527efd"}, {"lat": 38.9230865, "bike_id": "5ff4b1d9755bf4a1485df7ab286e3758", "is_reserved": 0, "is_disabled": 0, "rental_uris": {"android": "https://dc.lft.to/lastmile_qr_scan", "ios": "https://dc.lft.to/lastmile_qr_scan"}, "fusion_lon": 0.0, "lon": -77.0339905, "type": "electric_scooter", "fusion_lat": 0.0, "name": "5ff4b1d9755bf4a1485df7ab286e3758"}, {"lat": 38.9104875, "bike_id": "7686f91bf93e9691996e721b1219ca60", "is_reserved": 0, "is_disabled": 0, "rental_uris": {"android": "https://dc.lft.to/lastmile_qr_scan", "ios": "https://dc.lft.to/lastmile_qr_scan"}, "fusion_lon": 0.0, "lon": -77.03211683333333, "type": "electric_scooter", "fusion_lat": 0.0, "name": "7686f91bf93e9691996e721b1219ca60"}, {"lat": 38.906220166666664, "bike_id": "67740f50eb5ca55dae34047cbfb10903", "is_reserved": 0, "is_disabled": 0, "rental_uris": {"android": "https://dc.lft.to/lastmile_qr_scan", "ios": "https://dc.lft.to/lastmile_qr_scan"}, "fusion_lon": 0.0, "lon": -77.03961733333334, "type": "electric_scooter", "fusion_lat": 0.0, "name": "67740f50eb5ca55dae34047cbfb10903"}, {"lat": 38.898568, "bike_id": "045c3028445f8f54cc57f3543482808f", "is_reserved": 0, "is_disabled": 0, "rental_uris": {"android": "https://dc.lft.to/lastmile_qr_scan", "ios": "https://dc.lft.to/lastmile_qr_scan"}, "fusion_lon": 0.0, "lon": -76.97663183333333, "type": "electric_scooter", "fusion_lat": 0.0, "name": "045c3028445f8f54cc57f3543482808f"}, {"lat": 38.890178666666664, "bike_id": "8bf729f07f0eb90e14d8538a027f6a3c", "is_reserved": 0, "is_disabled": 0, "rental_uris": {"android": "https://dc.lft.to/lastmile_qr_scan", "ios": "https://dc.lft.to/lastmile_qr_scan"}, "fusion_lon": 0.0, "lon": -76.93730616666667, "type": "electric_scooter", "fusion_lat": 0.0, "name": "8bf729f07f0eb90e14d8538a027f6a3c"}, {"lat": 38.874201666666664, "bike_id": "830067885af4bffd61650e70861603d8", "is_reserved": 0, "is_disabled": 0, "rental_uris": {"android": "https://dc.lft.to/lastmile_qr_scan", "ios": "https://dc.lft.to/lastmile_qr_scan"}, "fusion_lon": 0.0, "lon": -77.10326216666667, "type": "electric_bike", "fusion_lat": 0.0, "name": "830067885af4bffd61650e70861603d8"}, {"lat": 38.91692966666667, "bike_id": "a790200d456b734f80dbfef615ead269", "is_reserved": 0, "is_disabled": 0, "rental_uris": {"android": "https://dc.lft.to/lastmile_qr_scan", "ios": "https://dc.lft.to/lastmile_qr_scan"}, "fusion_lon": 0.0, "lon": -77.0376005, "type": "electric_scooter", "fusion_lat": 0.0, "name": "a790200d456b734f80dbfef615ead269"}, {"lat": 38.917983, "bike_id": "a7bb3d3e913edf26af4a9a85627c914c", "is_reserved": 0, "is_disabled": 0, "rental_uris": {"android": "https://dc.lft.to/lastmile_qr_scan", "ios": "https://dc.lft.to/lastmile_qr_scan"}, "fusion_lon": 0.0, "lon": -77.032046, "type": "electric_scooter", "fusion_lat": 0.0, "name": "a7bb3d3e913edf26af4a9a85627c914c"}, {"lat": 38.91758883333333, "bike_id": "0e6fb978e73650a37271144a487ab65a", "is_reserved": 0, "is_disabled": 0, "rental_uris": {"android": "https://dc.lft.to/lastmile_qr_scan", "ios": "https://dc.lft.to/lastmile_qr_scan"}, "fusion_lon": 0.0, "lon": -77.03078483333333, "type": "electric_scooter", "fusion_lat": 0.0, "name": "0e6fb978e73650a37271144a487ab65a"}, {"lat": 38.897285333333336, "bike_id": "345774ec869ebb294dc34814e53bee18", "is_reserved": 0, "is_disabled": 0, "rental_uris": {"android": "https://dc.lft.to/lastmile_qr_scan", "ios": "https://dc.lft.to/lastmile_qr_scan"}, "fusion_lon": 0.0, "lon": -77.02160783333333, "type": "electric_scooter", "fusion_lat": 0.0, "name": "345774ec869ebb294dc34814e53bee18"}, {"lat": 38.92658983333333, "bike_id": "440ad7ba5ad6912e80b1cf43b7f3753c", "is_reserved": 0, "is_disabled": 0, "rental_uris": {"android": "https://dc.lft.to/lastmile_qr_scan", "ios": "https://dc.lft.to/lastmile_qr_scan"}, "fusion_lon": 0.0, "lon": -77.05317816666667, "type": "electric_scooter", "fusion_lat": 0.0, "name": "440ad7ba5ad6912e80b1cf43b7f3753c"}, {"lat": 38.89506383333333, "bike_id": "c036fd2d7abd9a6607502f7f438947e2", "is_reserved": 0, "is_disabled": 0, "rental_uris": {"android": "https://dc.lft.to/lastmile_qr_scan", "ios": "https://dc.lft.to/lastmile_qr_scan"}, "fusion_lon": 0.0, "lon": -77.01598116666666, "type": "electric_scooter", "fusion_lat": 0.0, "name": "c036fd2d7abd9a6607502f7f438947e2"}, {"lat": 38.842940666666664, "bike_id": "47f9de7ffda364151f7cda21c53ff2f9", "is_reserved": 0, "is_disabled": 0, "rental_uris": {"android": "https://dc.lft.to/lastmile_qr_scan", "ios": "https://dc.lft.to/lastmile_qr_scan"}, "fusion_lon": 0.0, "lon": -76.9994695, "type": "electric_scooter", "fusion_lat": 0.0, "name": "47f9de7ffda364151f7cda21c53ff2f9"}, {"lat": 38.910602833333336, "bike_id": "3c6e140f8e8224ac96fd73b16bc93d3a", "is_reserved": 0, "is_disabled": 0, "rental_uris": {"android": "https://dc.lft.to/lastmile_qr_scan", "ios": "https://dc.lft.to/lastmile_qr_scan"}, "fusion_lon": 0.0, "lon": -77.0309115, "type": "electric_scooter", "fusion_lat": 0.0, "name": "3c6e140f8e8224ac96fd73b16bc93d3a"}, {"lat": 38.9191005, "bike_id": "4e400e36c8e01e4a643c6992150ccb67", "is_reserved": 0, "is_disabled": 0, "rental_uris": {"android": "https://dc.lft.to/lastmile_qr_scan", "ios": "https://dc.lft.to/lastmile_qr_scan"}, "fusion_lon": 0.0, "lon": -77.04601916666667, "type": "electric_scooter", "fusion_lat": 0.0, "name": "4e400e36c8e01e4a643c6992150ccb67"}, {"lat": 38.90437216666667, "bike_id": "152ece96f73aad8eb941fecf63b64ee9", "is_reserved": 0, "is_disabled": 0, "rental_uris": {"android": "https://dc.lft.to/lastmile_qr_scan", "ios": "https://dc.lft.to/lastmile_qr_scan"}, "fusion_lon": 0.0, "lon": -77.0466815, "type": "electric_scooter", "fusion_lat": 0.0, "name": "152ece96f73aad8eb941fecf63b64ee9"}, {"lat": 38.93481666666667, "bike_id": "bcd75635489469030225718ec2d98709", "is_reserved": 0, "is_disabled": 0, "rental_uris": {"android": "https://dc.lft.to/lastmile_qr_scan", "ios": "https://dc.lft.to/lastmile_qr_scan"}, "fusion_lon": 0.0, "lon": -77.07268616666667, "type": "electric_scooter", "fusion_lat": 0.0, "name": "bcd75635489469030225718ec2d98709"}, {"lat": 38.916686166666665, "bike_id": "92ae126bcd625e5efb4580379d38ed07", "is_reserved": 0, "is_disabled": 0, "rental_uris": {"android": "https://dc.lft.to/lastmile_qr_scan", "ios": "https://dc.lft.to/lastmile_qr_scan"}, "fusion_lon": 0.0, "lon": -77.0328285, "type": "electric_scooter", "fusion_lat": 0.0, "name": "92ae126bcd625e5efb4580379d38ed07"}, {"lat": 38.91269366666667, "bike_id": "bc15ba2afe334774a1d34749d04a5701", "is_reserved": 0, "is_disabled": 0, "rental_uris": {"android": "https://dc.lft.to/lastmile_qr_scan", "ios": "https://dc.lft.to/lastmile_qr_scan"}, "fusion_lon": 0.0, "lon": -77.0345765, "type": "electric_scooter", "fusion_lat": 0.0, "name": "bc15ba2afe334774a1d34749d04a5701"}, {"lat": 38.899786166666665, "bike_id": "2399c4dc36dd9712bee446058bb92e04", "is_reserved": 0, "is_disabled": 0, "rental_uris": {"android": "https://dc.lft.to/lastmile_qr_scan", "ios": "https://dc.lft.to/lastmile_qr_scan"}, "fusion_lon": 0.0, "lon": -77.02075583333334, "type": "electric_scooter", "fusion_lat": 0.0, "name": "2399c4dc36dd9712bee446058bb92e04"}, {"lat": 38.89727216666667, "bike_id": "87ef7b5f1b17a879c72272c533342004", "is_reserved": 0, "is_disabled": 0, "rental_uris": {"android": "https://dc.lft.to/lastmile_qr_scan", "ios": "https://dc.lft.to/lastmile_qr_scan"}, "fusion_lon": 0.0, "lon": -77.03183316666667, "type": "electric_scooter", "fusion_lat": 0.0, "name": "87ef7b5f1b17a879c72272c533342004"}, {"lat": 38.93479033333333, "bike_id": "fcaac89e1f214cf2389c8253c03e8d96", "is_reserved": 0, "is_disabled": 0, "rental_uris": {"android": "https://dc.lft.to/lastmile_qr_scan", "ios": "https://dc.lft.to/lastmile_qr_scan"}, "fusion_lon": 0.0, "lon": -77.08665916666666, "type": "electric_scooter", "fusion_lat": 0.0, "name": "fcaac89e1f214cf2389c8253c03e8d96"}, {"lat": 38.915732166666665, "bike_id": "fcb47b472423385ddbcbd7849a18229a", "is_reserved": 0, "is_disabled": 0, "rental_uris": {"android": "https://dc.lft.to/lastmile_qr_scan", "ios": "https://dc.lft.to/lastmile_qr_scan"}, "fusion_lon": 0.0, "lon": -77.01998966666666, "type": "electric_scooter", "fusion_lat": 0.0, "name": "fcb47b472423385ddbcbd7849a18229a"}, {"lat": 38.90266716666667, "bike_id": "6d72a4189067e15b4f937bc9c1fe0dd3", "is_reserved": 0, "is_disabled": 0, "rental_uris": {"android": "https://dc.lft.to/lastmile_qr_scan", "ios": "https://dc.lft.to/lastmile_qr_scan"}, "fusion_lon": 0.0, "lon": -77.00884233333333, "type": "electric_scooter", "fusion_lat": 0.0, "name": "6d72a4189067e15b4f937bc9c1fe0dd3"}, {"lat": 38.938008833333335, "bike_id": "65f0e8a084956e90bc1f4cdb77d59c6b", "is_reserved": 0, "is_disabled": 0, "rental_uris": {"android": "https://dc.lft.to/lastmile_qr_scan", "ios": "https://dc.lft.to/lastmile_qr_scan"}, "fusion_lon": 0.0, "lon": -77.02423583333334, "type": "electric_scooter", "fusion_lat": 0.0, "name": "65f0e8a084956e90bc1f4cdb77d59c6b"}, {"lat": 38.88674683333333, "bike_id": "caff461824b72d62972201483585f70b", "is_reserved": 0, "is_disabled": 0, "rental_uris": {"android": "https://dc.lft.to/lastmile_qr_scan", "ios": "https://dc.lft.to/lastmile_qr_scan"}, "fusion_lon": 0.0, "lon": -76.93611933333334, "type": "electric_scooter", "fusion_lat": 0.0, "name": "caff461824b72d62972201483585f70b"}, {"lat": 38.9272515, "bike_id": "3ae39995e8c19e33940c0f9da7b4f2a5", "is_reserved": 0, "is_disabled": 0, "rental_uris": {"android": "https://dc.lft.to/lastmile_qr_scan", "ios": "https://dc.lft.to/lastmile_qr_scan"}, "fusion_lon": 0.0, "lon": -77.0366975, "type": "electric_scooter", "fusion_lat": 0.0, "name": "3ae39995e8c19e33940c0f9da7b4f2a5"}, {"lat": 38.925133, "bike_id": "fca8b201ab95ef621ab5ccacbcb9411d", "is_reserved": 0, "is_disabled": 0, "rental_uris": {"android": "https://dc.lft.to/lastmile_qr_scan", "ios": "https://dc.lft.to/lastmile_qr_scan"}, "fusion_lon": 0.0, "lon": -77.03815183333333, "type": "electric_scooter", "fusion_lat": 0.0, "name": "fca8b201ab95ef621ab5ccacbcb9411d"}, {"lat": 38.911811, "bike_id": "0f3abdcc08c22650bf1a5a04430aedb8", "is_reserved": 0, "is_disabled": 0, "rental_uris": {"android": "https://dc.lft.to/lastmile_qr_scan", "ios": "https://dc.lft.to/lastmile_qr_scan"}, "fusion_lon": 0.0, "lon": -77.04457816666667, "type": "electric_scooter", "fusion_lat": 0.0, "name": "0f3abdcc08c22650bf1a5a04430aedb8"}, {"lat": 38.910219833333336, "bike_id": "282daa6159b350cc106765c242ead040", "is_reserved": 0, "is_disabled": 0, "rental_uris": {"android": "https://dc.lft.to/lastmile_qr_scan", "ios": "https://dc.lft.to/lastmile_qr_scan"}, "fusion_lon": 0.0, "lon": -77.031145, "type": "electric_scooter", "fusion_lat": 0.0, "name": "282daa6159b350cc106765c242ead040"}, {"lat": 38.9107085, "bike_id": "32259477e960d3b261abe04f0f8fed28", "is_reserved": 0, "is_disabled": 0, "rental_uris": {"android": "https://dc.lft.to/lastmile_qr_scan", "ios": "https://dc.lft.to/lastmile_qr_scan"}, "fusion_lon": 0.0, "lon": -77.02292933333334, "type": "electric_scooter", "fusion_lat": 0.0, "name": "32259477e960d3b261abe04f0f8fed28"}, {"lat": 38.9138665, "bike_id": "29ddaba5096d0911b9f61a1e5e8a25b7", "is_reserved": 0, "is_disabled": 0, "rental_uris": {"android": "https://dc.lft.to/lastmile_qr_scan", "ios": "https://dc.lft.to/lastmile_qr_scan"}, "fusion_lon": 0.0, "lon": -77.00460683333333, "type": "electric_scooter", "fusion_lat": 0.0, "name": "29ddaba5096d0911b9f61a1e5e8a25b7"}, {"lat": 38.928721, "bike_id": "cab46156134bc9bb9d3d8d8772047a1f", "is_reserved": 0, "is_disabled": 0, "rental_uris": {"android": "https://dc.lft.to/lastmile_qr_scan", "ios": "https://dc.lft.to/lastmile_qr_scan"}, "fusion_lon": 0.0, "lon": -77.0332035, "type": "electric_scooter", "fusion_lat": 0.0, "name": "cab46156134bc9bb9d3d8d8772047a1f"}, {"lat": 38.897323, "bike_id": "bb4ebb828203731b98d9ad438a83823f", "is_reserved": 0, "is_disabled": 0, "rental_uris": {"android": "https://dc.lft.to/lastmile_qr_scan", "ios": "https://dc.lft.to/lastmile_qr_scan"}, "fusion_lon": 0.0, "lon": -77.02663283333334, "type": "electric_scooter", "fusion_lat": 0.0, "name": "bb4ebb828203731b98d9ad438a83823f"}, {"lat": 38.908990333333335, "bike_id": "35b62ab67ddc2f4de18805b1d51d99cf", "is_reserved": 0, "is_disabled": 0, "rental_uris": {"android": "https://dc.lft.to/lastmile_qr_scan", "ios": "https://dc.lft.to/lastmile_qr_scan"}, "fusion_lon": 0.0, "lon": -76.99773633333334, "type": "electric_scooter", "fusion_lat": 0.0, "name": "35b62ab67ddc2f4de18805b1d51d99cf"}, {"lat": 38.896080166666664, "bike_id": "78388ec236651940aefbf7efd93bd9bc", "is_reserved": 0, "is_disabled": 0, "rental_uris": {"android": "https://dc.lft.to/lastmile_qr_scan", "ios": "https://dc.lft.to/lastmile_qr_scan"}, "fusion_lon": 0.0, "lon": -77.0302975, "type": "electric_scooter", "fusion_lat": 0.0, "name": "78388ec236651940aefbf7efd93bd9bc"}, {"lat": 38.92886283333333, "bike_id": "b7b749e7483930f0ea10f07a60b36961", "is_reserved": 0, "is_disabled": 0, "rental_uris": {"android": "https://dc.lft.to/lastmile_qr_scan", "ios": "https://dc.lft.to/lastmile_qr_scan"}, "fusion_lon": 0.0, "lon": -77.03327483333334, "type": "electric_scooter", "fusion_lat": 0.0, "name": "b7b749e7483930f0ea10f07a60b36961"}, {"lat": 38.94958833333333, "bike_id": "cf9734bfb43f7ea927c8a4e7e6609333", "is_reserved": 0, "is_disabled": 0, "rental_uris": {"android": "https://dc.lft.to/lastmile_qr_scan", "ios": "https://dc.lft.to/lastmile_qr_scan"}, "fusion_lon": 0.0, "lon": -77.02720766666667, "type": "electric_scooter", "fusion_lat": 0.0, "name": "cf9734bfb43f7ea927c8a4e7e6609333"}, {"lat": 38.931136333333335, "bike_id": "210e719cfd5ec8929c78470677fcfa8d", "is_reserved": 0, "is_disabled": 0, "rental_uris": {"android": "https://dc.lft.to/lastmile_qr_scan", "ios": "https://dc.lft.to/lastmile_qr_scan"}, "fusion_lon": 0.0, "lon": -77.02341483333333, "type": "electric_scooter", "fusion_lat": 0.0, "name": "210e719cfd5ec8929c78470677fcfa8d"}, {"lat": 38.896835833333334, "bike_id": "3c23078b1f41491202883972407c0df9", "is_reserved": 0, "is_disabled": 0, "rental_uris": {"android": "https://dc.lft.to/lastmile_qr_scan", "ios": "https://dc.lft.to/lastmile_qr_scan"}, "fusion_lon": 0.0, "lon": -77.0320065, "type": "electric_scooter", "fusion_lat": 0.0, "name": "3c23078b1f41491202883972407c0df9"}, {"lat": 38.93208633333333, "bike_id": "02818f389ce267b2a89b6c343a8940b1", "is_reserved": 0, "is_disabled": 0, "rental_uris": {"android": "https://dc.lft.to/lastmile_qr_scan", "ios": "https://dc.lft.to/lastmile_qr_scan"}, "fusion_lon": 0.0, "lon": -77.03281, "type": "electric_scooter", "fusion_lat": 0.0, "name": "02818f389ce267b2a89b6c343a8940b1"}, {"lat": 38.9196915, "bike_id": "eb999b698fd60917851b2daa8101f65e", "is_reserved": 0, "is_disabled": 0, "rental_uris": {"android": "https://dc.lft.to/lastmile_qr_scan", "ios": "https://dc.lft.to/lastmile_qr_scan"}, "fusion_lon": 0.0, "lon": -77.021651, "type": "electric_scooter", "fusion_lat": 0.0, "name": "eb999b698fd60917851b2daa8101f65e"}, {"lat": 38.8944105, "bike_id": "e38e4302e96553afa5c96fdee5dc00c5", "is_reserved": 0, "is_disabled": 0, "rental_uris": {"android": "https://dc.lft.to/lastmile_qr_scan", "ios": "https://dc.lft.to/lastmile_qr_scan"}, "fusion_lon": 0.0, "lon": -76.94959816666666, "type": "electric_scooter", "fusion_lat": 0.0, "name": "e38e4302e96553afa5c96fdee5dc00c5"}, {"lat": 38.890481, "bike_id": "561ce694a3c99cbd530ad3e92d34a777", "is_reserved": 0, "is_disabled": 0, "rental_uris": {"android": "https://dc.lft.to/lastmile_qr_scan", "ios": "https://dc.lft.to/lastmile_qr_scan"}, "fusion_lon": 0.0, "lon": -76.93751183333333, "type": "electric_scooter", "fusion_lat": 0.0, "name": "561ce694a3c99cbd530ad3e92d34a777"}, {"lat": 38.86487666666667, "bike_id": "853ba2e1ef270347363828b43264efd8", "is_reserved": 0, "is_disabled": 0, "rental_uris": {"android": "https://dc.lft.to/lastmile_qr_scan", "ios": "https://dc.lft.to/lastmile_qr_scan"}, "fusion_lon": 0.0, "lon": -77.0730875, "type": "electric_bike", "fusion_lat": 0.0, "name": "853ba2e1ef270347363828b43264efd8"}, {"lat": 38.917783666666665, "bike_id": "b7a714dd43b008532f1a9bb0c051da28", "is_reserved": 0, "is_disabled": 0, "rental_uris": {"android": "https://dc.lft.to/lastmile_qr_scan", "ios": "https://dc.lft.to/lastmile_qr_scan"}, "fusion_lon": 0.0, "lon": -77.04340266666667, "type": "electric_scooter", "fusion_lat": 0.0, "name": "b7a714dd43b008532f1a9bb0c051da28"}, {"lat": 38.8996695, "bike_id": "9af93496d066ac1cb487f2367e53e924", "is_reserved": 0, "is_disabled": 0, "rental_uris": {"android": "https://dc.lft.to/lastmile_qr_scan", "ios": "https://dc.lft.to/lastmile_qr_scan"}, "fusion_lon": 0.0, "lon": -76.987046, "type": "electric_scooter", "fusion_lat": 0.0, "name": "9af93496d066ac1cb487f2367e53e924"}, {"lat": 38.893262, "bike_id": "0a2a42f20c40473e4897963ed9f09308", "is_reserved": 0, "is_disabled": 0, "rental_uris": {"android": "https://dc.lft.to/lastmile_qr_scan", "ios": "https://dc.lft.to/lastmile_qr_scan"}, "fusion_lon": 0.0, "lon": -76.943807, "type": "electric_scooter", "fusion_lat": 0.0, "name": "0a2a42f20c40473e4897963ed9f09308"}, {"lat": 38.932651666666665, "bike_id": "25bb71c5a24aadab6dbf33990161fabc", "is_reserved": 0, "is_disabled": 0, "rental_uris": {"android": "https://dc.lft.to/lastmile_qr_scan", "ios": "https://dc.lft.to/lastmile_qr_scan"}, "fusion_lon": 0.0, "lon": -77.0387215, "type": "electric_scooter", "fusion_lat": 0.0, "name": "25bb71c5a24aadab6dbf33990161fabc"}, {"lat": 38.8443515, "bike_id": "8a7fc09c11f1af1e958bb70b19ddca22", "is_reserved": 0, "is_disabled": 0, "rental_uris": {"android": "https://dc.lft.to/lastmile_qr_scan", "ios": "https://dc.lft.to/lastmile_qr_scan"}, "fusion_lon": 0.0, "lon": -76.99777, "type": "electric_scooter", "fusion_lat": 0.0, "name": "8a7fc09c11f1af1e958bb70b19ddca22"}, {"lat": 38.84366583333333, "bike_id": "c76ff7cb71ae5f91684299d394e93bb3", "is_reserved": 0, "is_disabled": 0, "rental_uris": {"android": "https://dc.lft.to/lastmile_qr_scan", "ios": "https://dc.lft.to/lastmile_qr_scan"}, "fusion_lon": 0.0, "lon": -76.97828033333333, "type": "electric_bike", "fusion_lat": 0.0, "name": "c76ff7cb71ae5f91684299d394e93bb3"}, {"lat": 38.9040245, "bike_id": "c1afc8f61cef406d9bf0ece979c6016d", "is_reserved": 0, "is_disabled": 0, "rental_uris": {"android": "https://dc.lft.to/lastmile_qr_scan", "ios": "https://dc.lft.to/lastmile_qr_scan"}, "fusion_lon": 0.0, "lon": -76.97422816666666, "type": "electric_scooter", "fusion_lat": 0.0, "name": "c1afc8f61cef406d9bf0ece979c6016d"}, {"lat": 38.896907, "bike_id": "a9bbcbd227f95768b9ae3eb3f6c6f78b", "is_reserved": 0, "is_disabled": 0, "rental_uris": {"android": "https://dc.lft.to/lastmile_qr_scan", "ios": "https://dc.lft.to/lastmile_qr_scan"}, "fusion_lon": 0.0, "lon": -77.0051005, "type": "electric_scooter", "fusion_lat": 0.0, "name": "a9bbcbd227f95768b9ae3eb3f6c6f78b"}, {"lat": 38.89609083333333, "bike_id": "3f6ac0587b312a26aa3560eeec323637", "is_reserved": 0, "is_disabled": 0, "rental_uris": {"android": "https://dc.lft.to/lastmile_qr_scan", "ios": "https://dc.lft.to/lastmile_qr_scan"}, "fusion_lon": 0.0, "lon": -77.0092525, "type": "electric_scooter", "fusion_lat": 0.0, "name": "3f6ac0587b312a26aa3560eeec323637"}, {"lat": 38.918334, "bike_id": "04321496cae8bb266e7f5aa7c01f7bea", "is_reserved": 0, "is_disabled": 0, "rental_uris": {"android": "https://dc.lft.to/lastmile_qr_scan", "ios": "https://dc.lft.to/lastmile_qr_scan"}, "fusion_lon": 0.0, "lon": -77.04154883333334, "type": "electric_scooter", "fusion_lat": 0.0, "name": "04321496cae8bb266e7f5aa7c01f7bea"}, {"lat": 38.909621, "bike_id": "4b3f1860fc979a882c8e951dc6eb47bb", "is_reserved": 0, "is_disabled": 0, "rental_uris": {"android": "https://dc.lft.to/lastmile_qr_scan", "ios": "https://dc.lft.to/lastmile_qr_scan"}, "fusion_lon": 0.0, "lon": -77.02282216666667, "type": "electric_scooter", "fusion_lat": 0.0, "name": "4b3f1860fc979a882c8e951dc6eb47bb"}, {"lat": 38.901403, "bike_id": "d79f5a876c9ac1c69df3e41f5d7f6725", "is_reserved": 0, "is_disabled": 0, "rental_uris": {"android": "https://dc.lft.to/lastmile_qr_scan", "ios": "https://dc.lft.to/lastmile_qr_scan"}, "fusion_lon": 0.0, "lon": -77.02599633333334, "type": "electric_scooter", "fusion_lat": 0.0, "name": "d79f5a876c9ac1c69df3e41f5d7f6725"}, {"lat": 38.905926, "bike_id": "eab30d4ae0dcf42bd8861abafd33522b", "is_reserved": 0, "is_disabled": 0, "rental_uris": {"android": "https://dc.lft.to/lastmile_qr_scan", "ios": "https://dc.lft.to/lastmile_qr_scan"}, "fusion_lon": 0.0, "lon": -77.04590233333333, "type": "electric_scooter", "fusion_lat": 0.0, "name": "eab30d4ae0dcf42bd8861abafd33522b"}, {"lat": 38.928186, "bike_id": "eca6706b2f4bb09e97cf248d38ec96cc", "is_reserved": 0, "is_disabled": 0, "rental_uris": {"android": "https://dc.lft.to/lastmile_qr_scan", "ios": "https://dc.lft.to/lastmile_qr_scan"}, "fusion_lon": 0.0, "lon": -77.0287345, "type": "electric_scooter", "fusion_lat": 0.0, "name": "eca6706b2f4bb09e97cf248d38ec96cc"}, {"lat": 38.898512833333335, "bike_id": "578e179814e08299c53bb4df892ee1e1", "is_reserved": 0, "is_disabled": 0, "rental_uris": {"android": "https://dc.lft.to/lastmile_qr_scan", "ios": "https://dc.lft.to/lastmile_qr_scan"}, "fusion_lon": 0.0, "lon": -77.03288066666667, "type": "electric_scooter", "fusion_lat": 0.0, "name": "578e179814e08299c53bb4df892ee1e1"}, {"lat": 38.99946933333333, "bike_id": "d0cf31d9de66e81324071f8710d11653", "is_reserved": 0, "is_disabled": 0, "rental_uris": {"android": "https://dc.lft.to/lastmile_qr_scan", "ios": "https://dc.lft.to/lastmile_qr_scan"}, "fusion_lon": 0.0, "lon": -77.03172283333333, "type": "electric_bike", "fusion_lat": 0.0, "name": "d0cf31d9de66e81324071f8710d11653"}, {"lat": 38.903758333333336, "bike_id": "a45918923dc5450d3c29704038fc8a23", "is_reserved": 0, "is_disabled": 0, "rental_uris": {"android": "https://dc.lft.to/lastmile_qr_scan", "ios": "https://dc.lft.to/lastmile_qr_scan"}, "fusion_lon": 0.0, "lon": -77.04519266666667, "type": "electric_scooter", "fusion_lat": 0.0, "name": "a45918923dc5450d3c29704038fc8a23"}, {"lat": 38.898398, "bike_id": "e9ad7d0c6b6e046e67f0784f90f36ccc", "is_reserved": 0, "is_disabled": 0, "rental_uris": {"android": "https://dc.lft.to/lastmile_qr_scan", "ios": "https://dc.lft.to/lastmile_qr_scan"}, "fusion_lon": 0.0, "lon": -77.02882883333334, "type": "electric_scooter", "fusion_lat": 0.0, "name": "e9ad7d0c6b6e046e67f0784f90f36ccc"}, {"lat": 38.92801733333334, "bike_id": "9a956f8986021a0d0a63ef1f102bc205", "is_reserved": 0, "is_disabled": 0, "rental_uris": {"android": "https://dc.lft.to/lastmile_qr_scan", "ios": "https://dc.lft.to/lastmile_qr_scan"}, "fusion_lon": 0.0, "lon": -77.0229575, "type": "electric_scooter", "fusion_lat": 0.0, "name": "9a956f8986021a0d0a63ef1f102bc205"}, {"lat": 38.9054895, "bike_id": "20720ee7af7066bd4462eb7b4071a67a", "is_reserved": 0, "is_disabled": 0, "rental_uris": {"android": "https://dc.lft.to/lastmile_qr_scan", "ios": "https://dc.lft.to/lastmile_qr_scan"}, "fusion_lon": 0.0, "lon": -77.03989583333333, "type": "electric_scooter", "fusion_lat": 0.0, "name": "20720ee7af7066bd4462eb7b4071a67a"}, {"lat": 38.9016145, "bike_id": "bf041b7e824139560c1799868d3c3138", "is_reserved": 0, "is_disabled": 0, "rental_uris": {"android": "https://dc.lft.to/lastmile_qr_scan", "ios": "https://dc.lft.to/lastmile_qr_scan"}, "fusion_lon": 0.0, "lon": -77.03342983333333, "type": "electric_scooter", "fusion_lat": 0.0, "name": "bf041b7e824139560c1799868d3c3138"}, {"lat": 38.941866166666664, "bike_id": "d012d8cee0074a2af9ddb804dd9f85ac", "is_reserved": 0, "is_disabled": 0, "rental_uris": {"android": "https://dc.lft.to/lastmile_qr_scan", "ios": "https://dc.lft.to/lastmile_qr_scan"}, "fusion_lon": 0.0, "lon": -77.024879, "type": "electric_scooter", "fusion_lat": 0.0, "name": "d012d8cee0074a2af9ddb804dd9f85ac"}, {"lat": 38.892895, "bike_id": "a77ba6ac587ba7b692eda9be8c3eae01", "is_reserved": 0, "is_disabled": 0, "rental_uris": {"android": "https://dc.lft.to/lastmile_qr_scan", "ios": "https://dc.lft.to/lastmile_qr_scan"}, "fusion_lon": 0.0, "lon": -77.041844, "type": "electric_scooter", "fusion_lat": 0.0, "name": "a77ba6ac587ba7b692eda9be8c3eae01"}, {"lat": 38.92403566666667, "bike_id": "83f65ace8be2136170e6157157fb5119", "is_reserved": 0, "is_disabled": 0, "rental_uris": {"android": "https://dc.lft.to/lastmile_qr_scan", "ios": "https://dc.lft.to/lastmile_qr_scan"}, "fusion_lon": 0.0, "lon": -77.0206095, "type": "electric_scooter", "fusion_lat": 0.0, "name": "83f65ace8be2136170e6157157fb5119"}, {"lat": 38.90052033333333, "bike_id": "f3928d15cbc7d999a456f833c64b81b0", "is_reserved": 0, "is_disabled": 0, "rental_uris": {"android": "https://dc.lft.to/lastmile_qr_scan", "ios": "https://dc.lft.to/lastmile_qr_scan"}, "fusion_lon": 0.0, "lon": -76.98833166666667, "type": "electric_scooter", "fusion_lat": 0.0, "name": "f3928d15cbc7d999a456f833c64b81b0"}, {"lat": 38.90401633333333, "bike_id": "33183c9be43208621e4bf559037a4dec", "is_reserved": 0, "is_disabled": 0, "rental_uris": {"android": "https://dc.lft.to/lastmile_qr_scan", "ios": "https://dc.lft.to/lastmile_qr_scan"}, "fusion_lon": 0.0, "lon": -77.043442, "type": "electric_scooter", "fusion_lat": 0.0, "name": "33183c9be43208621e4bf559037a4dec"}, {"lat": 38.92238233333333, "bike_id": "842a96ff76709e764095729ccc127072", "is_reserved": 0, "is_disabled": 0, "rental_uris": {"android": "https://dc.lft.to/lastmile_qr_scan", "ios": "https://dc.lft.to/lastmile_qr_scan"}, "fusion_lon": 0.0, "lon": -77.0433665, "type": "electric_scooter", "fusion_lat": 0.0, "name": "842a96ff76709e764095729ccc127072"}, {"lat": 38.90952883333333, "bike_id": "b7ec22488574473f49dac1453153b392", "is_reserved": 0, "is_disabled": 0, "rental_uris": {"android": "https://dc.lft.to/lastmile_qr_scan", "ios": "https://dc.lft.to/lastmile_qr_scan"}, "fusion_lon": 0.0, "lon": -77.047224, "type": "electric_scooter", "fusion_lat": 0.0, "name": "b7ec22488574473f49dac1453153b392"}, {"lat": 38.892337, "bike_id": "a6a1a32312d904c207e4edd6e3eba32e", "is_reserved": 0, "is_disabled": 0, "rental_uris": {"android": "https://dc.lft.to/lastmile_qr_scan", "ios": "https://dc.lft.to/lastmile_qr_scan"}, "fusion_lon": 0.0, "lon": -77.0261425, "type": "electric_scooter", "fusion_lat": 0.0, "name": "a6a1a32312d904c207e4edd6e3eba32e"}, {"lat": 38.898481333333336, "bike_id": "c598bcd0bdbe17bcb5c06e4dbc16e563", "is_reserved": 0, "is_disabled": 0, "rental_uris": {"android": "https://dc.lft.to/lastmile_qr_scan", "ios": "https://dc.lft.to/lastmile_qr_scan"}, "fusion_lon": 0.0, "lon": -77.026926, "type": "electric_scooter", "fusion_lat": 0.0, "name": "c598bcd0bdbe17bcb5c06e4dbc16e563"}, {"lat": 38.9441395, "bike_id": "669d24040e797846b7dcd98c6ebbe5c3", "is_reserved": 0, "is_disabled": 0, "rental_uris": {"android": "https://dc.lft.to/lastmile_qr_scan", "ios": "https://dc.lft.to/lastmile_qr_scan"}, "fusion_lon": 0.0, "lon": -77.06322416666667, "type": "electric_scooter", "fusion_lat": 0.0, "name": "669d24040e797846b7dcd98c6ebbe5c3"}, {"lat": 38.90676033333333, "bike_id": "b6daa257125b0bad34a1f37f783a3776", "is_reserved": 0, "is_disabled": 0, "rental_uris": {"android": "https://dc.lft.to/lastmile_qr_scan", "ios": "https://dc.lft.to/lastmile_qr_scan"}, "fusion_lon": 0.0, "lon": -77.04890266666666, "type": "electric_scooter", "fusion_lat": 0.0, "name": "b6daa257125b0bad34a1f37f783a3776"}, {"lat": 38.88737283333333, "bike_id": "2c9d58c5c38b921fd578aba64d0e3433", "is_reserved": 0, "is_disabled": 0, "rental_uris": {"android": "https://dc.lft.to/lastmile_qr_scan", "ios": "https://dc.lft.to/lastmile_qr_scan"}, "fusion_lon": 0.0, "lon": -77.01744416666666, "type": "electric_scooter", "fusion_lat": 0.0, "name": "2c9d58c5c38b921fd578aba64d0e3433"}, {"lat": 38.8846815, "bike_id": "5eac6d8b84bef17524776c7be1ad83e3", "is_reserved": 0, "is_disabled": 0, "rental_uris": {"android": "https://dc.lft.to/lastmile_qr_scan", "ios": "https://dc.lft.to/lastmile_qr_scan"}, "fusion_lon": 0.0, "lon": -76.9540175, "type": "electric_scooter", "fusion_lat": 0.0, "name": "5eac6d8b84bef17524776c7be1ad83e3"}, {"lat": 38.901574833333335, "bike_id": "d857a5c396026b70609faf01b396b665", "is_reserved": 0, "is_disabled": 0, "rental_uris": {"android": "https://dc.lft.to/lastmile_qr_scan", "ios": "https://dc.lft.to/lastmile_qr_scan"}, "fusion_lon": 0.0, "lon": -77.05899683333334, "type": "electric_scooter", "fusion_lat": 0.0, "name": "d857a5c396026b70609faf01b396b665"}, {"lat": 38.89417683333333, "bike_id": "542b97d56f544bcb2d410c16c377899c", "is_reserved": 0, "is_disabled": 0, "rental_uris": {"android": "https://dc.lft.to/lastmile_qr_scan", "ios": "https://dc.lft.to/lastmile_qr_scan"}, "fusion_lon": 0.0, "lon": -77.029935, "type": "electric_scooter", "fusion_lat": 0.0, "name": "542b97d56f544bcb2d410c16c377899c"}, {"lat": 38.907763333333335, "bike_id": "af8b769a4ea548952cd95f8cf8d89d80", "is_reserved": 0, "is_disabled": 0, "rental_uris": {"android": "https://dc.lft.to/lastmile_qr_scan", "ios": "https://dc.lft.to/lastmile_qr_scan"}, "fusion_lon": 0.0, "lon": -77.069317, "type": "electric_scooter", "fusion_lat": 0.0, "name": "af8b769a4ea548952cd95f8cf8d89d80"}, {"lat": 38.866285833333336, "bike_id": "7079fea0b64f80497feda01d08ea91bb", "is_reserved": 0, "is_disabled": 0, "rental_uris": {"android": "https://dc.lft.to/lastmile_qr_scan", "ios": "https://dc.lft.to/lastmile_qr_scan"}, "fusion_lon": 0.0, "lon": -76.98717166666667, "type": "electric_scooter", "fusion_lat": 0.0, "name": "7079fea0b64f80497feda01d08ea91bb"}, {"lat": 38.950312333333336, "bike_id": "f097dc26c79dbb862def50dd1ed01a24", "is_reserved": 0, "is_disabled": 0, "rental_uris": {"android": "https://dc.lft.to/lastmile_qr_scan", "ios": "https://dc.lft.to/lastmile_qr_scan"}, "fusion_lon": 0.0, "lon": -77.01976, "type": "electric_scooter", "fusion_lat": 0.0, "name": "f097dc26c79dbb862def50dd1ed01a24"}, {"lat": 38.90671416666667, "bike_id": "295df57ffbe54076f90ca4ce60752352", "is_reserved": 0, "is_disabled": 0, "rental_uris": {"android": "https://dc.lft.to/lastmile_qr_scan", "ios": "https://dc.lft.to/lastmile_qr_scan"}, "fusion_lon": 0.0, "lon": -77.02712466666667, "type": "electric_scooter", "fusion_lat": 0.0, "name": "295df57ffbe54076f90ca4ce60752352"}, {"lat": 38.9052275, "bike_id": "6e19d129c470e5f64f435d4e846779d6", "is_reserved": 0, "is_disabled": 0, "rental_uris": {"android": "https://dc.lft.to/lastmile_qr_scan", "ios": "https://dc.lft.to/lastmile_qr_scan"}, "fusion_lon": 0.0, "lon": -77.05005816666667, "type": "electric_scooter", "fusion_lat": 0.0, "name": "6e19d129c470e5f64f435d4e846779d6"}, {"lat": 38.913618, "bike_id": "a2c8f2a24181d6d71b29328aeb2f6491", "is_reserved": 0, "is_disabled": 0, "rental_uris": {"android": "https://dc.lft.to/lastmile_qr_scan", "ios": "https://dc.lft.to/lastmile_qr_scan"}, "fusion_lon": 0.0, "lon": -77.019967, "type": "electric_scooter", "fusion_lat": 0.0, "name": "a2c8f2a24181d6d71b29328aeb2f6491"}, {"lat": 38.91827116666666, "bike_id": "6ddd404ea00f25146c8f561cfd5a191b", "is_reserved": 0, "is_disabled": 0, "rental_uris": {"android": "https://dc.lft.to/lastmile_qr_scan", "ios": "https://dc.lft.to/lastmile_qr_scan"}, "fusion_lon": 0.0, "lon": -77.03905833333333, "type": "electric_scooter", "fusion_lat": 0.0, "name": "6ddd404ea00f25146c8f561cfd5a191b"}, {"lat": 38.9194865, "bike_id": "b8535b0b0d42e570ffd60aa83202454e", "is_reserved": 0, "is_disabled": 0, "rental_uris": {"android": "https://dc.lft.to/lastmile_qr_scan", "ios": "https://dc.lft.to/lastmile_qr_scan"}, "fusion_lon": 0.0, "lon": -77.0251105, "type": "electric_scooter", "fusion_lat": 0.0, "name": "b8535b0b0d42e570ffd60aa83202454e"}, {"lat": 38.9154, "bike_id": "d090aec825ff5544821ef528aeb4cabf", "is_reserved": 0, "is_disabled": 0, "rental_uris": {"android": "https://dc.lft.to/lastmile_qr_scan", "ios": "https://dc.lft.to/lastmile_qr_scan"}, "fusion_lon": 0.0, "lon": -76.98367866666666, "type": "electric_scooter", "fusion_lat": 0.0, "name": "d090aec825ff5544821ef528aeb4cabf"}, {"lat": 38.926770833333336, "bike_id": "e6c7412e0f11f3e1a27009928f0585eb", "is_reserved": 0, "is_disabled": 0, "rental_uris": {"android": "https://dc.lft.to/lastmile_qr_scan", "ios": "https://dc.lft.to/lastmile_qr_scan"}, "fusion_lon": 0.0, "lon": -77.0266865, "type": "electric_scooter", "fusion_lat": 0.0, "name": "e6c7412e0f11f3e1a27009928f0585eb"}, {"lat": 38.9035695, "bike_id": "73c2f8d8dbb89d53f1db054ae925b29b", "is_reserved": 0, "is_disabled": 0, "rental_uris": {"android": "https://dc.lft.to/lastmile_qr_scan", "ios": "https://dc.lft.to/lastmile_qr_scan"}, "fusion_lon": 0.0, "lon": -77.05218833333333, "type": "electric_scooter", "fusion_lat": 0.0, "name": "73c2f8d8dbb89d53f1db054ae925b29b"}, {"lat": 38.907589, "bike_id": "34a47549d0b61ce6c491b8fdf1f6c77f", "is_reserved": 0, "is_disabled": 0, "rental_uris": {"android": "https://dc.lft.to/lastmile_qr_scan", "ios": "https://dc.lft.to/lastmile_qr_scan"}, "fusion_lon": 0.0, "lon": -77.04355866666667, "type": "electric_scooter", "fusion_lat": 0.0, "name": "34a47549d0b61ce6c491b8fdf1f6c77f"}, {"lat": 38.912648, "bike_id": "1f199b8b62a5206b1b0a3fff1fe5cb77", "is_reserved": 0, "is_disabled": 0, "rental_uris": {"android": "https://dc.lft.to/lastmile_qr_scan", "ios": "https://dc.lft.to/lastmile_qr_scan"}, "fusion_lon": 0.0, "lon": -77.026838, "type": "electric_scooter", "fusion_lat": 0.0, "name": "1f199b8b62a5206b1b0a3fff1fe5cb77"}, {"lat": 38.930660333333336, "bike_id": "ccfd3cc825f4da60ab1e1d16eff43aef", "is_reserved": 0, "is_disabled": 0, "rental_uris": {"android": "https://dc.lft.to/lastmile_qr_scan", "ios": "https://dc.lft.to/lastmile_qr_scan"}, "fusion_lon": 0.0, "lon": -77.039583, "type": "electric_scooter", "fusion_lat": 0.0, "name": "ccfd3cc825f4da60ab1e1d16eff43aef"}, {"lat": 38.8922155, "bike_id": "ba057c78fdca5b883ef07c6ab87ed200", "is_reserved": 0, "is_disabled": 0, "rental_uris": {"android": "https://dc.lft.to/lastmile_qr_scan", "ios": "https://dc.lft.to/lastmile_qr_scan"}, "fusion_lon": 0.0, "lon": -77.04516616666666, "type": "electric_scooter", "fusion_lat": 0.0, "name": "ba057c78fdca5b883ef07c6ab87ed200"}, {"lat": 38.942027333333336, "bike_id": "caa8afb1e63ac5b3483310f605272e27", "is_reserved": 0, "is_disabled": 0, "rental_uris": {"android": "https://dc.lft.to/lastmile_qr_scan", "ios": "https://dc.lft.to/lastmile_qr_scan"}, "fusion_lon": 0.0, "lon": -77.01834233333334, "type": "electric_scooter", "fusion_lat": 0.0, "name": "caa8afb1e63ac5b3483310f605272e27"}, {"lat": 38.988295666666666, "bike_id": "639d9a985c93e705af589d7452bb493d", "is_reserved": 0, "is_disabled": 0, "rental_uris": {"android": "https://dc.lft.to/lastmile_qr_scan", "ios": "https://dc.lft.to/lastmile_qr_scan"}, "fusion_lon": 0.0, "lon": -76.99645366666667, "type": "electric_bike", "fusion_lat": 0.0, "name": "639d9a985c93e705af589d7452bb493d"}, {"lat": 38.8959915, "bike_id": "384c2b678ff4316b6602d34ac283a5cc", "is_reserved": 0, "is_disabled": 0, "rental_uris": {"android": "https://dc.lft.to/lastmile_qr_scan", "ios": "https://dc.lft.to/lastmile_qr_scan"}, "fusion_lon": 0.0, "lon": -76.90708833333333, "type": "electric_bike", "fusion_lat": 0.0, "name": "384c2b678ff4316b6602d34ac283a5cc"}, {"lat": 38.898546833333334, "bike_id": "05d5e83a406f7168c6650d0d10cc6d58", "is_reserved": 0, "is_disabled": 0, "rental_uris": {"android": "https://dc.lft.to/lastmile_qr_scan", "ios": "https://dc.lft.to/lastmile_qr_scan"}, "fusion_lon": 0.0, "lon": -76.99029816666666, "type": "electric_scooter", "fusion_lat": 0.0, "name": "05d5e83a406f7168c6650d0d10cc6d58"}, {"lat": 38.927894, "bike_id": "4a4021d1789e7e7ec16506630ded1e12", "is_reserved": 0, "is_disabled": 0, "rental_uris": {"android": "https://dc.lft.to/lastmile_qr_scan", "ios": "https://dc.lft.to/lastmile_qr_scan"}, "fusion_lon": 0.0, "lon": -77.054125, "type": "electric_scooter", "fusion_lat": 0.0, "name": "4a4021d1789e7e7ec16506630ded1e12"}, {"lat": 38.907708166666666, "bike_id": "cf0347df773c2e459a8062fe6c64f63d", "is_reserved": 0, "is_disabled": 0, "rental_uris": {"android": "https://dc.lft.to/lastmile_qr_scan", "ios": "https://dc.lft.to/lastmile_qr_scan"}, "fusion_lon": 0.0, "lon": -77.04343966666667, "type": "electric_scooter", "fusion_lat": 0.0, "name": "cf0347df773c2e459a8062fe6c64f63d"}, {"lat": 38.9069345, "bike_id": "88695ad2ec364ebb71b79a8b78d08939", "is_reserved": 0, "is_disabled": 0, "rental_uris": {"android": "https://dc.lft.to/lastmile_qr_scan", "ios": "https://dc.lft.to/lastmile_qr_scan"}, "fusion_lon": 0.0, "lon": -77.0099745, "type": "electric_scooter", "fusion_lat": 0.0, "name": "88695ad2ec364ebb71b79a8b78d08939"}, {"lat": 38.926187666666664, "bike_id": "fbc9a4d582f82e98415c50eb3b102ab4", "is_reserved": 0, "is_disabled": 0, "rental_uris": {"android": "https://dc.lft.to/lastmile_qr_scan", "ios": "https://dc.lft.to/lastmile_qr_scan"}, "fusion_lon": 0.0, "lon": -77.02221866666666, "type": "electric_scooter", "fusion_lat": 0.0, "name": "fbc9a4d582f82e98415c50eb3b102ab4"}, {"lat": 38.85811133333333, "bike_id": "38c20615c623900a372072d4f3e4db96", "is_reserved": 0, "is_disabled": 0, "rental_uris": {"android": "https://dc.lft.to/lastmile_qr_scan", "ios": "https://dc.lft.to/lastmile_qr_scan"}, "fusion_lon": 0.0, "lon": -76.98923733333334, "type": "electric_scooter", "fusion_lat": 0.0, "name": "38c20615c623900a372072d4f3e4db96"}, {"lat": 38.902391, "bike_id": "8e322f6e2024b1abd86a80d0a7b3f1a1", "is_reserved": 0, "is_disabled": 0, "rental_uris": {"android": "https://dc.lft.to/lastmile_qr_scan", "ios": "https://dc.lft.to/lastmile_qr_scan"}, "fusion_lon": 0.0, "lon": -77.00199083333334, "type": "electric_scooter", "fusion_lat": 0.0, "name": "8e322f6e2024b1abd86a80d0a7b3f1a1"}, {"lat": 38.91805766666667, "bike_id": "0532a3d8ff3fd5d70329072273a10f93", "is_reserved": 0, "is_disabled": 0, "rental_uris": {"android": "https://dc.lft.to/lastmile_qr_scan", "ios": "https://dc.lft.to/lastmile_qr_scan"}, "fusion_lon": 0.0, "lon": -77.0344245, "type": "electric_scooter", "fusion_lat": 0.0, "name": "0532a3d8ff3fd5d70329072273a10f93"}, {"lat": 38.844354833333334, "bike_id": "0cd56880757b5654a48d43fb61e1c93c", "is_reserved": 0, "is_disabled": 0, "rental_uris": {"android": "https://dc.lft.to/lastmile_qr_scan", "ios": "https://dc.lft.to/lastmile_qr_scan"}, "fusion_lon": 0.0, "lon": -76.99815316666667, "type": "electric_scooter", "fusion_lat": 0.0, "name": "0cd56880757b5654a48d43fb61e1c93c"}, {"lat": 38.922682333333334, "bike_id": "8df46ef2f90bfb64f348b761c71b32c1", "is_reserved": 0, "is_disabled": 0, "rental_uris": {"android": "https://dc.lft.to/lastmile_qr_scan", "ios": "https://dc.lft.to/lastmile_qr_scan"}, "fusion_lon": 0.0, "lon": -77.01982633333333, "type": "electric_bike", "fusion_lat": 0.0, "name": "8df46ef2f90bfb64f348b761c71b32c1"}, {"lat": 38.90279866666667, "bike_id": "4c78f4cc7478b2d7dbfa67ce3670d16f", "is_reserved": 0, "is_disabled": 0, "rental_uris": {"android": "https://dc.lft.to/lastmile_qr_scan", "ios": "https://dc.lft.to/lastmile_qr_scan"}, "fusion_lon": 0.0, "lon": -77.046083, "type": "electric_scooter", "fusion_lat": 0.0, "name": "4c78f4cc7478b2d7dbfa67ce3670d16f"}, {"lat": 38.90575283333333, "bike_id": "5566b059064fff1f5ddd69c90aff7340", "is_reserved": 0, "is_disabled": 0, "rental_uris": {"android": "https://dc.lft.to/lastmile_qr_scan", "ios": "https://dc.lft.to/lastmile_qr_scan"}, "fusion_lon": 0.0, "lon": -77.022201, "type": "electric_scooter", "fusion_lat": 0.0, "name": "5566b059064fff1f5ddd69c90aff7340"}, {"lat": 38.906872666666665, "bike_id": "119ef9e83bf28ec9754e603053e7de57", "is_reserved": 0, "is_disabled": 0, "rental_uris": {"android": "https://dc.lft.to/lastmile_qr_scan", "ios": "https://dc.lft.to/lastmile_qr_scan"}, "fusion_lon": 0.0, "lon": -77.0090335, "type": "electric_scooter", "fusion_lat": 0.0, "name": "119ef9e83bf28ec9754e603053e7de57"}, {"lat": 38.90251383333333, "bike_id": "330ce2926f7c1e957c93758b0b95d2d2", "is_reserved": 0, "is_disabled": 0, "rental_uris": {"android": "https://dc.lft.to/lastmile_qr_scan", "ios": "https://dc.lft.to/lastmile_qr_scan"}, "fusion_lon": 0.0, "lon": -77.04354416666666, "type": "electric_scooter", "fusion_lat": 0.0, "name": "330ce2926f7c1e957c93758b0b95d2d2"}, {"lat": 38.898754833333335, "bike_id": "c51efb1587a20bc78d90fafb62a83e92", "is_reserved": 0, "is_disabled": 0, "rental_uris": {"android": "https://dc.lft.to/lastmile_qr_scan", "ios": "https://dc.lft.to/lastmile_qr_scan"}, "fusion_lon": 0.0, "lon": -76.93156333333333, "type": "electric_scooter", "fusion_lat": 0.0, "name": "c51efb1587a20bc78d90fafb62a83e92"}, {"lat": 38.9470565, "bike_id": "d4cfc0fb4765af320b3b8b6d4b4d0b63", "is_reserved": 0, "is_disabled": 0, "rental_uris": {"android": "https://dc.lft.to/lastmile_qr_scan", "ios": "https://dc.lft.to/lastmile_qr_scan"}, "fusion_lon": 0.0, "lon": -77.01937916666667, "type": "electric_scooter", "fusion_lat": 0.0, "name": "d4cfc0fb4765af320b3b8b6d4b4d0b63"}, {"lat": 38.88280733333333, "bike_id": "d0277491b77b6d1a03ec00140ecfe21c", "is_reserved": 0, "is_disabled": 0, "rental_uris": {"android": "https://dc.lft.to/lastmile_qr_scan", "ios": "https://dc.lft.to/lastmile_qr_scan"}, "fusion_lon": 0.0, "lon": -76.99503833333333, "type": "electric_scooter", "fusion_lat": 0.0, "name": "d0277491b77b6d1a03ec00140ecfe21c"}, {"lat": 38.889652166666664, "bike_id": "53b7ee4c08d0ee3be924c38d4502b6ba", "is_reserved": 0, "is_disabled": 0, "rental_uris": {"android": "https://dc.lft.to/lastmile_qr_scan", "ios": "https://dc.lft.to/lastmile_qr_scan"}, "fusion_lon": 0.0, "lon": -76.927365, "type": "electric_scooter", "fusion_lat": 0.0, "name": "53b7ee4c08d0ee3be924c38d4502b6ba"}, {"lat": 38.926066166666665, "bike_id": "2f57b0f313464f386149b99dba476b6c", "is_reserved": 0, "is_disabled": 0, "rental_uris": {"android": "https://dc.lft.to/lastmile_qr_scan", "ios": "https://dc.lft.to/lastmile_qr_scan"}, "fusion_lon": 0.0, "lon": -77.02154816666666, "type": "electric_scooter", "fusion_lat": 0.0, "name": "2f57b0f313464f386149b99dba476b6c"}, {"lat": 38.895563833333334, "bike_id": "dda2c9f35bfa748c0b59b1132d2381b3", "is_reserved": 0, "is_disabled": 0, "rental_uris": {"android": "https://dc.lft.to/lastmile_qr_scan", "ios": "https://dc.lft.to/lastmile_qr_scan"}, "fusion_lon": 0.0, "lon": -77.04672033333334, "type": "electric_scooter", "fusion_lat": 0.0, "name": "dda2c9f35bfa748c0b59b1132d2381b3"}, {"lat": 38.923573, "bike_id": "cbb6519efd64db2d5964fd91fa3ea16b", "is_reserved": 0, "is_disabled": 0, "rental_uris": {"android": "https://dc.lft.to/lastmile_qr_scan", "ios": "https://dc.lft.to/lastmile_qr_scan"}, "fusion_lon": 0.0, "lon": -77.05039366666666, "type": "electric_scooter", "fusion_lat": 0.0, "name": "cbb6519efd64db2d5964fd91fa3ea16b"}, {"lat": 38.9024085, "bike_id": "16d8d2817b8cac4c5c7e94b36426381e", "is_reserved": 0, "is_disabled": 0, "rental_uris": {"android": "https://dc.lft.to/lastmile_qr_scan", "ios": "https://dc.lft.to/lastmile_qr_scan"}, "fusion_lon": 0.0, "lon": -77.02696033333334, "type": "electric_scooter", "fusion_lat": 0.0, "name": "16d8d2817b8cac4c5c7e94b36426381e"}, {"lat": 38.9335605, "bike_id": "f3c34c27cbcd76ef417b4f9cfa4be4fa", "is_reserved": 0, "is_disabled": 0, "rental_uris": {"android": "https://dc.lft.to/lastmile_qr_scan", "ios": "https://dc.lft.to/lastmile_qr_scan"}, "fusion_lon": 0.0, "lon": -77.07366983333333, "type": "electric_scooter", "fusion_lat": 0.0, "name": "f3c34c27cbcd76ef417b4f9cfa4be4fa"}, {"lat": 38.9288975, "bike_id": "cc10274021f12df31f45d08e4dc6bcd3", "is_reserved": 0, "is_disabled": 0, "rental_uris": {"android": "https://dc.lft.to/lastmile_qr_scan", "ios": "https://dc.lft.to/lastmile_qr_scan"}, "fusion_lon": 0.0, "lon": -77.02331666666667, "type": "electric_scooter", "fusion_lat": 0.0, "name": "cc10274021f12df31f45d08e4dc6bcd3"}, {"lat": 38.90260883333333, "bike_id": "c6d2196cb50eb9179eaa2032c00f78f8", "is_reserved": 0, "is_disabled": 0, "rental_uris": {"android": "https://dc.lft.to/lastmile_qr_scan", "ios": "https://dc.lft.to/lastmile_qr_scan"}, "fusion_lon": 0.0, "lon": -77.0024605, "type": "electric_scooter", "fusion_lat": 0.0, "name": "c6d2196cb50eb9179eaa2032c00f78f8"}, {"lat": 38.915483333333334, "bike_id": "5d6a200aca563a3806c8104be15379d8", "is_reserved": 0, "is_disabled": 0, "rental_uris": {"android": "https://dc.lft.to/lastmile_qr_scan", "ios": "https://dc.lft.to/lastmile_qr_scan"}, "fusion_lon": 0.0, "lon": -77.04349666666667, "type": "electric_scooter", "fusion_lat": 0.0, "name": "5d6a200aca563a3806c8104be15379d8"}, {"lat": 38.92224266666667, "bike_id": "d0965a756ebf211d5784cfda5c70013f", "is_reserved": 0, "is_disabled": 0, "rental_uris": {"android": "https://dc.lft.to/lastmile_qr_scan", "ios": "https://dc.lft.to/lastmile_qr_scan"}, "fusion_lon": 0.0, "lon": -77.04246516666667, "type": "electric_scooter", "fusion_lat": 0.0, "name": "d0965a756ebf211d5784cfda5c70013f"}, {"lat": 38.904072, "bike_id": "ddfb3ad64601b006e349d5f991566dcc", "is_reserved": 0, "is_disabled": 0, "rental_uris": {"android": "https://dc.lft.to/lastmile_qr_scan", "ios": "https://dc.lft.to/lastmile_qr_scan"}, "fusion_lon": 0.0, "lon": -76.981088, "type": "electric_scooter", "fusion_lat": 0.0, "name": "ddfb3ad64601b006e349d5f991566dcc"}, {"lat": 38.9206205, "bike_id": "552d64eb1ed7e92c5d5354a2c8e9887b", "is_reserved": 0, "is_disabled": 0, "rental_uris": {"android": "https://dc.lft.to/lastmile_qr_scan", "ios": "https://dc.lft.to/lastmile_qr_scan"}, "fusion_lon": 0.0, "lon": -77.04543983333333, "type": "electric_scooter", "fusion_lat": 0.0, "name": "552d64eb1ed7e92c5d5354a2c8e9887b"}, {"lat": 38.90426733333334, "bike_id": "c4ff7a68c8225b5bf334f6b4cd119f22", "is_reserved": 0, "is_disabled": 0, "rental_uris": {"android": "https://dc.lft.to/lastmile_qr_scan", "ios": "https://dc.lft.to/lastmile_qr_scan"}, "fusion_lon": 0.0, "lon": -77.04350566666666, "type": "electric_scooter", "fusion_lat": 0.0, "name": "c4ff7a68c8225b5bf334f6b4cd119f22"}, {"lat": 38.927139833333335, "bike_id": "5418217569acf384972e1bd8e96a2f89", "is_reserved": 0, "is_disabled": 0, "rental_uris": {"android": "https://dc.lft.to/lastmile_qr_scan", "ios": "https://dc.lft.to/lastmile_qr_scan"}, "fusion_lon": 0.0, "lon": -77.02092383333333, "type": "electric_scooter", "fusion_lat": 0.0, "name": "5418217569acf384972e1bd8e96a2f89"}, {"lat": 38.915428666666664, "bike_id": "a6c35c170513573538fe213b03188f8d", "is_reserved": 0, "is_disabled": 0, "rental_uris": {"android": "https://dc.lft.to/lastmile_qr_scan", "ios": "https://dc.lft.to/lastmile_qr_scan"}, "fusion_lon": 0.0, "lon": -76.983666, "type": "electric_scooter", "fusion_lat": 0.0, "name": "a6c35c170513573538fe213b03188f8d"}, {"lat": 38.902424833333335, "bike_id": "12a53a4b6bdf0558025091ffcfd4c47a", "is_reserved": 0, "is_disabled": 0, "rental_uris": {"android": "https://dc.lft.to/lastmile_qr_scan", "ios": "https://dc.lft.to/lastmile_qr_scan"}, "fusion_lon": 0.0, "lon": -77.01787116666667, "type": "electric_scooter", "fusion_lat": 0.0, "name": "12a53a4b6bdf0558025091ffcfd4c47a"}, {"lat": 38.95407683333333, "bike_id": "96f281d2c9bb7646629cc4cf89ae549b", "is_reserved": 0, "is_disabled": 0, "rental_uris": {"android": "https://dc.lft.to/lastmile_qr_scan", "ios": "https://dc.lft.to/lastmile_qr_scan"}, "fusion_lon": 0.0, "lon": -77.027952, "type": "electric_scooter", "fusion_lat": 0.0, "name": "96f281d2c9bb7646629cc4cf89ae549b"}, {"lat": 38.86257033333333, "bike_id": "0ae1a9a0f47956e3af1d54e8feae2668", "is_reserved": 0, "is_disabled": 0, "rental_uris": {"android": "https://dc.lft.to/lastmile_qr_scan", "ios": "https://dc.lft.to/lastmile_qr_scan"}, "fusion_lon": 0.0, "lon": -76.98693083333333, "type": "electric_scooter", "fusion_lat": 0.0, "name": "0ae1a9a0f47956e3af1d54e8feae2668"}, {"lat": 38.8954425, "bike_id": "d70dada07701504a6ecda14200039a20", "is_reserved": 0, "is_disabled": 0, "rental_uris": {"android": "https://dc.lft.to/lastmile_qr_scan", "ios": "https://dc.lft.to/lastmile_qr_scan"}, "fusion_lon": 0.0, "lon": -77.00202083333333, "type": "electric_scooter", "fusion_lat": 0.0, "name": "d70dada07701504a6ecda14200039a20"}, {"lat": 38.93602166666667, "bike_id": "77b9428229418fbbbaef1c321f319b03", "is_reserved": 0, "is_disabled": 0, "rental_uris": {"android": "https://dc.lft.to/lastmile_qr_scan", "ios": "https://dc.lft.to/lastmile_qr_scan"}, "fusion_lon": 0.0, "lon": -77.03649966666667, "type": "electric_scooter", "fusion_lat": 0.0, "name": "77b9428229418fbbbaef1c321f319b03"}, {"lat": 38.90410283333333, "bike_id": "e3f3cbd4680fcec68e5d8e8eb1a6ddcd", "is_reserved": 0, "is_disabled": 0, "rental_uris": {"android": "https://dc.lft.to/lastmile_qr_scan", "ios": "https://dc.lft.to/lastmile_qr_scan"}, "fusion_lon": 0.0, "lon": -76.97331433333333, "type": "electric_scooter", "fusion_lat": 0.0, "name": "e3f3cbd4680fcec68e5d8e8eb1a6ddcd"}, {"lat": 38.90542383333333, "bike_id": "f591dd078433670be8ce2185651672f1", "is_reserved": 0, "is_disabled": 0, "rental_uris": {"android": "https://dc.lft.to/lastmile_qr_scan", "ios": "https://dc.lft.to/lastmile_qr_scan"}, "fusion_lon": 0.0, "lon": -77.04904116666667, "type": "electric_scooter", "fusion_lat": 0.0, "name": "f591dd078433670be8ce2185651672f1"}, {"lat": 38.90011633333334, "bike_id": "f01f0155118f7214154845bafc062c42", "is_reserved": 0, "is_disabled": 0, "rental_uris": {"android": "https://dc.lft.to/lastmile_qr_scan", "ios": "https://dc.lft.to/lastmile_qr_scan"}, "fusion_lon": 0.0, "lon": -77.00040483333333, "type": "electric_scooter", "fusion_lat": 0.0, "name": "f01f0155118f7214154845bafc062c42"}, {"lat": 38.90730033333333, "bike_id": "7b5990dd5c9250bacc44213228cf8974", "is_reserved": 0, "is_disabled": 0, "rental_uris": {"android": "https://dc.lft.to/lastmile_qr_scan", "ios": "https://dc.lft.to/lastmile_qr_scan"}, "fusion_lon": 0.0, "lon": -77.04050766666667, "type": "electric_scooter", "fusion_lat": 0.0, "name": "7b5990dd5c9250bacc44213228cf8974"}, {"lat": 38.8922385, "bike_id": "f1bab86651a504c52fb77c6497eaa275", "is_reserved": 0, "is_disabled": 0, "rental_uris": {"android": "https://dc.lft.to/lastmile_qr_scan", "ios": "https://dc.lft.to/lastmile_qr_scan"}, "fusion_lon": 0.0, "lon": -77.04335183333333, "type": "electric_scooter", "fusion_lat": 0.0, "name": "f1bab86651a504c52fb77c6497eaa275"}, {"lat": 38.916760333333336, "bike_id": "5a6c4a34146440edb45724795df5c423", "is_reserved": 0, "is_disabled": 0, "rental_uris": {"android": "https://dc.lft.to/lastmile_qr_scan", "ios": "https://dc.lft.to/lastmile_qr_scan"}, "fusion_lon": 0.0, "lon": -77.02718233333333, "type": "electric_scooter", "fusion_lat": 0.0, "name": "5a6c4a34146440edb45724795df5c423"}, {"lat": 38.92838416666667, "bike_id": "723ec044785f6de400940cf5a321585f", "is_reserved": 0, "is_disabled": 0, "rental_uris": {"android": "https://dc.lft.to/lastmile_qr_scan", "ios": "https://dc.lft.to/lastmile_qr_scan"}, "fusion_lon": 0.0, "lon": -76.99364, "type": "electric_scooter", "fusion_lat": 0.0, "name": "723ec044785f6de400940cf5a321585f"}, {"lat": 38.909604, "bike_id": "9ff3951e3f82cb20df5e931ab4cbea0f", "is_reserved": 0, "is_disabled": 0, "rental_uris": {"android": "https://dc.lft.to/lastmile_qr_scan", "ios": "https://dc.lft.to/lastmile_qr_scan"}, "fusion_lon": 0.0, "lon": -77.03304283333334, "type": "electric_scooter", "fusion_lat": 0.0, "name": "9ff3951e3f82cb20df5e931ab4cbea0f"}, {"lat": 38.8949535, "bike_id": "0ba0ee9a0cd69d6b4d6c78326896a9c3", "is_reserved": 0, "is_disabled": 0, "rental_uris": {"android": "https://dc.lft.to/lastmile_qr_scan", "ios": "https://dc.lft.to/lastmile_qr_scan"}, "fusion_lon": 0.0, "lon": -77.00294616666666, "type": "electric_scooter", "fusion_lat": 0.0, "name": "0ba0ee9a0cd69d6b4d6c78326896a9c3"}, {"lat": 38.9214475, "bike_id": "5ddf13523d2900402499bd85df255882", "is_reserved": 0, "is_disabled": 0, "rental_uris": {"android": "https://dc.lft.to/lastmile_qr_scan", "ios": "https://dc.lft.to/lastmile_qr_scan"}, "fusion_lon": 0.0, "lon": -77.03449683333334, "type": "electric_scooter", "fusion_lat": 0.0, "name": "5ddf13523d2900402499bd85df255882"}, {"lat": 38.897375, "bike_id": "7e9b37a8ce950f436dcf4e3a6493d257", "is_reserved": 0, "is_disabled": 0, "rental_uris": {"android": "https://dc.lft.to/lastmile_qr_scan", "ios": "https://dc.lft.to/lastmile_qr_scan"}, "fusion_lon": 0.0, "lon": -77.00376183333333, "type": "electric_scooter", "fusion_lat": 0.0, "name": "7e9b37a8ce950f436dcf4e3a6493d257"}, {"lat": 38.90793716666667, "bike_id": "193e5964c7487d0edee08dddf044e6f1", "is_reserved": 0, "is_disabled": 0, "rental_uris": {"android": "https://dc.lft.to/lastmile_qr_scan", "ios": "https://dc.lft.to/lastmile_qr_scan"}, "fusion_lon": 0.0, "lon": -77.03197866666666, "type": "electric_scooter", "fusion_lat": 0.0, "name": "193e5964c7487d0edee08dddf044e6f1"}, {"lat": 38.9434485, "bike_id": "304adb5eb6bbf124e79946e5f79bc360", "is_reserved": 0, "is_disabled": 0, "rental_uris": {"android": "https://dc.lft.to/lastmile_qr_scan", "ios": "https://dc.lft.to/lastmile_qr_scan"}, "fusion_lon": 0.0, "lon": -77.06292916666666, "type": "electric_scooter", "fusion_lat": 0.0, "name": "304adb5eb6bbf124e79946e5f79bc360"}, {"lat": 38.917969, "bike_id": "5b2097fc32e752a5d1bd961290433ee1", "is_reserved": 0, "is_disabled": 0, "rental_uris": {"android": "https://dc.lft.to/lastmile_qr_scan", "ios": "https://dc.lft.to/lastmile_qr_scan"}, "fusion_lon": 0.0, "lon": -77.03203533333334, "type": "electric_scooter", "fusion_lat": 0.0, "name": "5b2097fc32e752a5d1bd961290433ee1"}, {"lat": 38.896515666666666, "bike_id": "4066075079c2e84a00fcc42f16d332ce", "is_reserved": 0, "is_disabled": 0, "rental_uris": {"android": "https://dc.lft.to/lastmile_qr_scan", "ios": "https://dc.lft.to/lastmile_qr_scan"}, "fusion_lon": 0.0, "lon": -76.93014883333333, "type": "electric_bike", "fusion_lat": 0.0, "name": "4066075079c2e84a00fcc42f16d332ce"}, {"lat": 38.904853833333334, "bike_id": "493d0b4a20e286b19186254f6f2e5c55", "is_reserved": 0, "is_disabled": 0, "rental_uris": {"android": "https://dc.lft.to/lastmile_qr_scan", "ios": "https://dc.lft.to/lastmile_qr_scan"}, "fusion_lon": 0.0, "lon": -77.02707666666667, "type": "electric_scooter", "fusion_lat": 0.0, "name": "493d0b4a20e286b19186254f6f2e5c55"}, {"lat": 38.905936, "bike_id": "b90b1deb4a2e554c2fad95c347959694", "is_reserved": 0, "is_disabled": 0, "rental_uris": {"android": "https://dc.lft.to/lastmile_qr_scan", "ios": "https://dc.lft.to/lastmile_qr_scan"}, "fusion_lon": 0.0, "lon": -77.03468633333334, "type": "electric_scooter", "fusion_lat": 0.0, "name": "b90b1deb4a2e554c2fad95c347959694"}, {"lat": 38.884768666666666, "bike_id": "b435d3d280dea5fe2ff6e363ff60fa2e", "is_reserved": 0, "is_disabled": 0, "rental_uris": {"android": "https://dc.lft.to/lastmile_qr_scan", "ios": "https://dc.lft.to/lastmile_qr_scan"}, "fusion_lon": 0.0, "lon": -76.99839683333333, "type": "electric_scooter", "fusion_lat": 0.0, "name": "b435d3d280dea5fe2ff6e363ff60fa2e"}, {"lat": 38.89913416666667, "bike_id": "7260f61990b8f8cd0f1f5d329eef83f2", "is_reserved": 0, "is_disabled": 0, "rental_uris": {"android": "https://dc.lft.to/lastmile_qr_scan", "ios": "https://dc.lft.to/lastmile_qr_scan"}, "fusion_lon": 0.0, "lon": -76.9336615, "type": "electric_scooter", "fusion_lat": 0.0, "name": "7260f61990b8f8cd0f1f5d329eef83f2"}, {"lat": 38.92128866666667, "bike_id": "d02b5879986ca29ecdfa67406fda425a", "is_reserved": 0, "is_disabled": 0, "rental_uris": {"android": "https://dc.lft.to/lastmile_qr_scan", "ios": "https://dc.lft.to/lastmile_qr_scan"}, "fusion_lon": 0.0, "lon": -77.0254285, "type": "electric_scooter", "fusion_lat": 0.0, "name": "d02b5879986ca29ecdfa67406fda425a"}, {"lat": 38.9507875, "bike_id": "67ee390dd3b26fdc733665a4066dde5f", "is_reserved": 0, "is_disabled": 0, "rental_uris": {"android": "https://dc.lft.to/lastmile_qr_scan", "ios": "https://dc.lft.to/lastmile_qr_scan"}, "fusion_lon": 0.0, "lon": -77.03100966666666, "type": "electric_scooter", "fusion_lat": 0.0, "name": "67ee390dd3b26fdc733665a4066dde5f"}, {"lat": 38.90737083333333, "bike_id": "349bbd88180ca69d6adfb70897214f46", "is_reserved": 0, "is_disabled": 0, "rental_uris": {"android": "https://dc.lft.to/lastmile_qr_scan", "ios": "https://dc.lft.to/lastmile_qr_scan"}, "fusion_lon": 0.0, "lon": -77.04220616666667, "type": "electric_scooter", "fusion_lat": 0.0, "name": "349bbd88180ca69d6adfb70897214f46"}, {"lat": 38.908060166666665, "bike_id": "0318eb7a8f7023c514c85a96a4f2e0d8", "is_reserved": 0, "is_disabled": 0, "rental_uris": {"android": "https://dc.lft.to/lastmile_qr_scan", "ios": "https://dc.lft.to/lastmile_qr_scan"}, "fusion_lon": 0.0, "lon": -77.08398733333334, "type": "electric_scooter", "fusion_lat": 0.0, "name": "0318eb7a8f7023c514c85a96a4f2e0d8"}, {"lat": 38.893474166666664, "bike_id": "e5143e669a9898e8eb3f0be1d6a16139", "is_reserved": 0, "is_disabled": 0, "rental_uris": {"android": "https://dc.lft.to/lastmile_qr_scan", "ios": "https://dc.lft.to/lastmile_qr_scan"}, "fusion_lon": 0.0, "lon": -76.94936166666666, "type": "electric_scooter", "fusion_lat": 0.0, "name": "e5143e669a9898e8eb3f0be1d6a16139"}, {"lat": 38.905734333333335, "bike_id": "925726c4aebb3085295222161507035a", "is_reserved": 0, "is_disabled": 0, "rental_uris": {"android": "https://dc.lft.to/lastmile_qr_scan", "ios": "https://dc.lft.to/lastmile_qr_scan"}, "fusion_lon": 0.0, "lon": -77.01421266666667, "type": "electric_bike", "fusion_lat": 0.0, "name": "925726c4aebb3085295222161507035a"}, {"lat": 38.90071716666667, "bike_id": "b539fd2f8f18d833883184c224799af4", "is_reserved": 0, "is_disabled": 0, "rental_uris": {"android": "https://dc.lft.to/lastmile_qr_scan", "ios": "https://dc.lft.to/lastmile_qr_scan"}, "fusion_lon": 0.0, "lon": -77.0477315, "type": "electric_scooter", "fusion_lat": 0.0, "name": "b539fd2f8f18d833883184c224799af4"}, {"lat": 38.956371833333336, "bike_id": "178a9abe4b6df048abf6898fd15da339", "is_reserved": 0, "is_disabled": 0, "rental_uris": {"android": "https://dc.lft.to/lastmile_qr_scan", "ios": "https://dc.lft.to/lastmile_qr_scan"}, "fusion_lon": 0.0, "lon": -77.03302383333333, "type": "electric_scooter", "fusion_lat": 0.0, "name": "178a9abe4b6df048abf6898fd15da339"}, {"lat": 38.91705966666667, "bike_id": "238df8d9dfdb698594f0344d0af42132", "is_reserved": 0, "is_disabled": 0, "rental_uris": {"android": "https://dc.lft.to/lastmile_qr_scan", "ios": "https://dc.lft.to/lastmile_qr_scan"}, "fusion_lon": 0.0, "lon": -77.02641183333333, "type": "electric_scooter", "fusion_lat": 0.0, "name": "238df8d9dfdb698594f0344d0af42132"}, {"lat": 38.904481833333335, "bike_id": "645062fa02e9c0fc67c406e1708808ec", "is_reserved": 0, "is_disabled": 0, "rental_uris": {"android": "https://dc.lft.to/lastmile_qr_scan", "ios": "https://dc.lft.to/lastmile_qr_scan"}, "fusion_lon": 0.0, "lon": -77.02839183333333, "type": "electric_scooter", "fusion_lat": 0.0, "name": "645062fa02e9c0fc67c406e1708808ec"}, {"lat": 38.900441, "bike_id": "00d189f7318d47f0592a757523275b4b", "is_reserved": 0, "is_disabled": 0, "rental_uris": {"android": "https://dc.lft.to/lastmile_qr_scan", "ios": "https://dc.lft.to/lastmile_qr_scan"}, "fusion_lon": 0.0, "lon": -76.98835433333333, "type": "electric_scooter", "fusion_lat": 0.0, "name": "00d189f7318d47f0592a757523275b4b"}, {"lat": 38.942905333333336, "bike_id": "3f41d0659c22945aab21b53733afe963", "is_reserved": 0, "is_disabled": 0, "rental_uris": {"android": "https://dc.lft.to/lastmile_qr_scan", "ios": "https://dc.lft.to/lastmile_qr_scan"}, "fusion_lon": 0.0, "lon": -77.05894516666666, "type": "electric_scooter", "fusion_lat": 0.0, "name": "3f41d0659c22945aab21b53733afe963"}, {"lat": 38.902569166666666, "bike_id": "fa610d219c113f76d541f4d7c3ee3544", "is_reserved": 0, "is_disabled": 0, "rental_uris": {"android": "https://dc.lft.to/lastmile_qr_scan", "ios": "https://dc.lft.to/lastmile_qr_scan"}, "fusion_lon": 0.0, "lon": -77.04617316666666, "type": "electric_scooter", "fusion_lat": 0.0, "name": "fa610d219c113f76d541f4d7c3ee3544"}, {"lat": 38.954269333333336, "bike_id": "b6b5e54920a58e2cd096c628b9d3e437", "is_reserved": 0, "is_disabled": 0, "rental_uris": {"android": "https://dc.lft.to/lastmile_qr_scan", "ios": "https://dc.lft.to/lastmile_qr_scan"}, "fusion_lon": 0.0, "lon": -77.02773733333333, "type": "electric_scooter", "fusion_lat": 0.0, "name": "b6b5e54920a58e2cd096c628b9d3e437"}, {"lat": 38.9180845, "bike_id": "af0591b6ef80c10da9ee39a4b86b1587", "is_reserved": 0, "is_disabled": 0, "rental_uris": {"android": "https://dc.lft.to/lastmile_qr_scan", "ios": "https://dc.lft.to/lastmile_qr_scan"}, "fusion_lon": 0.0, "lon": -77.00928433333333, "type": "electric_scooter", "fusion_lat": 0.0, "name": "af0591b6ef80c10da9ee39a4b86b1587"}, {"lat": 38.862391, "bike_id": "4e8c89249a5cca6c98ec57912cd79306", "is_reserved": 0, "is_disabled": 0, "rental_uris": {"android": "https://dc.lft.to/lastmile_qr_scan", "ios": "https://dc.lft.to/lastmile_qr_scan"}, "fusion_lon": 0.0, "lon": -76.99081333333334, "type": "electric_bike", "fusion_lat": 0.0, "name": "4e8c89249a5cca6c98ec57912cd79306"}, {"lat": 38.890182, "bike_id": "0ad125ebe64893b168fab01902ea01ae", "is_reserved": 0, "is_disabled": 0, "rental_uris": {"android": "https://dc.lft.to/lastmile_qr_scan", "ios": "https://dc.lft.to/lastmile_qr_scan"}, "fusion_lon": 0.0, "lon": -76.93732283333334, "type": "electric_scooter", "fusion_lat": 0.0, "name": "0ad125ebe64893b168fab01902ea01ae"}, {"lat": 38.9055095, "bike_id": "c4ab54f905459f71d5231d662888ef7f", "is_reserved": 0, "is_disabled": 0, "rental_uris": {"android": "https://dc.lft.to/lastmile_qr_scan", "ios": "https://dc.lft.to/lastmile_qr_scan"}, "fusion_lon": 0.0, "lon": -77.03472833333333, "type": "electric_scooter", "fusion_lat": 0.0, "name": "c4ab54f905459f71d5231d662888ef7f"}, {"lat": 38.89799433333334, "bike_id": "388a67fed6b16edcb59fcc9015c28865", "is_reserved": 0, "is_disabled": 0, "rental_uris": {"android": "https://dc.lft.to/lastmile_qr_scan", "ios": "https://dc.lft.to/lastmile_qr_scan"}, "fusion_lon": 0.0, "lon": -76.99160183333333, "type": "electric_scooter", "fusion_lat": 0.0, "name": "388a67fed6b16edcb59fcc9015c28865"}, {"lat": 38.899444833333334, "bike_id": "a519060a3d4e580538c9307dccad8435", "is_reserved": 0, "is_disabled": 0, "rental_uris": {"android": "https://dc.lft.to/lastmile_qr_scan", "ios": "https://dc.lft.to/lastmile_qr_scan"}, "fusion_lon": 0.0, "lon": -77.02200366666666, "type": "electric_scooter", "fusion_lat": 0.0, "name": "a519060a3d4e580538c9307dccad8435"}, {"lat": 38.8874325, "bike_id": "332860f71cee69b0dcc03668596149fe", "is_reserved": 0, "is_disabled": 0, "rental_uris": {"android": "https://dc.lft.to/lastmile_qr_scan", "ios": "https://dc.lft.to/lastmile_qr_scan"}, "fusion_lon": 0.0, "lon": -77.01404, "type": "electric_scooter", "fusion_lat": 0.0, "name": "332860f71cee69b0dcc03668596149fe"}, {"lat": 39.0885875, "bike_id": "c8ad04819a74d6ece79f0b48a8ea56d7", "is_reserved": 0, "is_disabled": 0, "rental_uris": {"android": "https://dc.lft.to/lastmile_qr_scan", "ios": "https://dc.lft.to/lastmile_qr_scan"}, "fusion_lon": 0.0, "lon": -77.1784115, "type": "electric_bike", "fusion_lat": 0.0, "name": "c8ad04819a74d6ece79f0b48a8ea56d7"}, {"lat": 38.89222516666667, "bike_id": "34c175d4d64bf5d60b0d14dd8212d209", "is_reserved": 0, "is_disabled": 0, "rental_uris": {"android": "https://dc.lft.to/lastmile_qr_scan", "ios": "https://dc.lft.to/lastmile_qr_scan"}, "fusion_lon": 0.0, "lon": -77.026545, "type": "electric_scooter", "fusion_lat": 0.0, "name": "34c175d4d64bf5d60b0d14dd8212d209"}, {"lat": 38.89554233333333, "bike_id": "a19193c0e91ef4883569ee5f77018c93", "is_reserved": 0, "is_disabled": 0, "rental_uris": {"android": "https://dc.lft.to/lastmile_qr_scan", "ios": "https://dc.lft.to/lastmile_qr_scan"}, "fusion_lon": 0.0, "lon": -76.95640833333333, "type": "electric_scooter", "fusion_lat": 0.0, "name": "a19193c0e91ef4883569ee5f77018c93"}, {"lat": 38.932590166666664, "bike_id": "e9c78d11b02487da0d1c43ded6e31124", "is_reserved": 0, "is_disabled": 0, "rental_uris": {"android": "https://dc.lft.to/lastmile_qr_scan", "ios": "https://dc.lft.to/lastmile_qr_scan"}, "fusion_lon": 0.0, "lon": -77.0327175, "type": "electric_scooter", "fusion_lat": 0.0, "name": "e9c78d11b02487da0d1c43ded6e31124"}, {"lat": 38.88183883333333, "bike_id": "6bae2c08a73ccd1bd637cf835d29eb18", "is_reserved": 0, "is_disabled": 0, "rental_uris": {"android": "https://dc.lft.to/lastmile_qr_scan", "ios": "https://dc.lft.to/lastmile_qr_scan"}, "fusion_lon": 0.0, "lon": -77.086295, "type": "electric_bike", "fusion_lat": 0.0, "name": "6bae2c08a73ccd1bd637cf835d29eb18"}, {"lat": 38.9107785, "bike_id": "9fdcf4925bb1988ba019dad7e0b35784", "is_reserved": 0, "is_disabled": 0, "rental_uris": {"android": "https://dc.lft.to/lastmile_qr_scan", "ios": "https://dc.lft.to/lastmile_qr_scan"}, "fusion_lon": 0.0, "lon": -77.0288515, "type": "electric_scooter", "fusion_lat": 0.0, "name": "9fdcf4925bb1988ba019dad7e0b35784"}, {"lat": 38.916973, "bike_id": "e999c7bcd5197ec2efbb667fe1b9c73c", "is_reserved": 0, "is_disabled": 0, "rental_uris": {"android": "https://dc.lft.to/lastmile_qr_scan", "ios": "https://dc.lft.to/lastmile_qr_scan"}, "fusion_lon": 0.0, "lon": -77.04289083333333, "type": "electric_scooter", "fusion_lat": 0.0, "name": "e999c7bcd5197ec2efbb667fe1b9c73c"}, {"lat": 38.917945, "bike_id": "f607587f2fec4f3b60e2a7eb34922448", "is_reserved": 0, "is_disabled": 0, "rental_uris": {"android": "https://dc.lft.to/lastmile_qr_scan", "ios": "https://dc.lft.to/lastmile_qr_scan"}, "fusion_lon": 0.0, "lon": -77.03222183333334, "type": "electric_scooter", "fusion_lat": 0.0, "name": "f607587f2fec4f3b60e2a7eb34922448"}, {"lat": 38.88112683333333, "bike_id": "ef992106d4abd9e7c0373b14ea3d41c6", "is_reserved": 0, "is_disabled": 0, "rental_uris": {"android": "https://dc.lft.to/lastmile_qr_scan", "ios": "https://dc.lft.to/lastmile_qr_scan"}, "fusion_lon": 0.0, "lon": -77.0164885, "type": "electric_scooter", "fusion_lat": 0.0, "name": "ef992106d4abd9e7c0373b14ea3d41c6"}, {"lat": 38.89917966666667, "bike_id": "b6016035ea296c7283eaa4d79cf25cf4", "is_reserved": 0, "is_disabled": 0, "rental_uris": {"android": "https://dc.lft.to/lastmile_qr_scan", "ios": "https://dc.lft.to/lastmile_qr_scan"}, "fusion_lon": 0.0, "lon": -76.93369516666667, "type": "electric_scooter", "fusion_lat": 0.0, "name": "b6016035ea296c7283eaa4d79cf25cf4"}, {"lat": 38.924763, "bike_id": "a5a135c33ecbb3c9b284bc6c729e69ed", "is_reserved": 0, "is_disabled": 0, "rental_uris": {"android": "https://dc.lft.to/lastmile_qr_scan", "ios": "https://dc.lft.to/lastmile_qr_scan"}, "fusion_lon": 0.0, "lon": -77.03790866666667, "type": "electric_scooter", "fusion_lat": 0.0, "name": "a5a135c33ecbb3c9b284bc6c729e69ed"}, {"lat": 38.888753, "bike_id": "b5b9ae9b9aa0f61a3fa4a0ee188e674e", "is_reserved": 0, "is_disabled": 0, "rental_uris": {"android": "https://dc.lft.to/lastmile_qr_scan", "ios": "https://dc.lft.to/lastmile_qr_scan"}, "fusion_lon": 0.0, "lon": -76.95716350000001, "type": "electric_scooter", "fusion_lat": 0.0, "name": "b5b9ae9b9aa0f61a3fa4a0ee188e674e"}, {"lat": 38.94092066666666, "bike_id": "a336e325bd28692bd538069316328053", "is_reserved": 0, "is_disabled": 0, "rental_uris": {"android": "https://dc.lft.to/lastmile_qr_scan", "ios": "https://dc.lft.to/lastmile_qr_scan"}, "fusion_lon": 0.0, "lon": -77.02718633333333, "type": "electric_scooter", "fusion_lat": 0.0, "name": "a336e325bd28692bd538069316328053"}, {"lat": 38.922974833333335, "bike_id": "a5544cd77d3a04acaa987b363333ee4d", "is_reserved": 0, "is_disabled": 0, "rental_uris": {"android": "https://dc.lft.to/lastmile_qr_scan", "ios": "https://dc.lft.to/lastmile_qr_scan"}, "fusion_lon": 0.0, "lon": -77.04269083333334, "type": "electric_scooter", "fusion_lat": 0.0, "name": "a5544cd77d3a04acaa987b363333ee4d"}, {"lat": 38.90267466666667, "bike_id": "6b92d21a0be35945103e529c867f6b32", "is_reserved": 0, "is_disabled": 0, "rental_uris": {"android": "https://dc.lft.to/lastmile_qr_scan", "ios": "https://dc.lft.to/lastmile_qr_scan"}, "fusion_lon": 0.0, "lon": -77.0175645, "type": "electric_scooter", "fusion_lat": 0.0, "name": "6b92d21a0be35945103e529c867f6b32"}, {"lat": 38.89874233333333, "bike_id": "ccf7b8301b0ff11f596b0c89ba3d141d", "is_reserved": 0, "is_disabled": 0, "rental_uris": {"android": "https://dc.lft.to/lastmile_qr_scan", "ios": "https://dc.lft.to/lastmile_qr_scan"}, "fusion_lon": 0.0, "lon": -77.01357766666666, "type": "electric_bike", "fusion_lat": 0.0, "name": "ccf7b8301b0ff11f596b0c89ba3d141d"}, {"lat": 38.9002075, "bike_id": "502db5f6e8749b80ee8fe3962761802a", "is_reserved": 0, "is_disabled": 0, "rental_uris": {"android": "https://dc.lft.to/lastmile_qr_scan", "ios": "https://dc.lft.to/lastmile_qr_scan"}, "fusion_lon": 0.0, "lon": -77.01167133333334, "type": "electric_scooter", "fusion_lat": 0.0, "name": "502db5f6e8749b80ee8fe3962761802a"}, {"lat": 38.928527833333334, "bike_id": "010d62c0fa8ceeb8453c8fe3fefb49fa", "is_reserved": 0, "is_disabled": 0, "rental_uris": {"android": "https://dc.lft.to/lastmile_qr_scan", "ios": "https://dc.lft.to/lastmile_qr_scan"}, "fusion_lon": 0.0, "lon": -77.03285916666667, "type": "electric_scooter", "fusion_lat": 0.0, "name": "010d62c0fa8ceeb8453c8fe3fefb49fa"}, {"lat": 38.926154, "bike_id": "a6c49463043eea0f314948b6438422a9", "is_reserved": 0, "is_disabled": 0, "rental_uris": {"android": "https://dc.lft.to/lastmile_qr_scan", "ios": "https://dc.lft.to/lastmile_qr_scan"}, "fusion_lon": 0.0, "lon": -77.02160433333333, "type": "electric_scooter", "fusion_lat": 0.0, "name": "a6c49463043eea0f314948b6438422a9"}, {"lat": 38.8947995, "bike_id": "8c33119513ea25f05884f48636e4b4ae", "is_reserved": 0, "is_disabled": 0, "rental_uris": {"android": "https://dc.lft.to/lastmile_qr_scan", "ios": "https://dc.lft.to/lastmile_qr_scan"}, "fusion_lon": 0.0, "lon": -77.0222285, "type": "electric_scooter", "fusion_lat": 0.0, "name": "8c33119513ea25f05884f48636e4b4ae"}, {"lat": 38.9595425, "bike_id": "1f16dac94c0ffef10b089becb23b0df6", "is_reserved": 0, "is_disabled": 0, "rental_uris": {"android": "https://dc.lft.to/lastmile_qr_scan", "ios": "https://dc.lft.to/lastmile_qr_scan"}, "fusion_lon": 0.0, "lon": -77.100899, "type": "electric_bike", "fusion_lat": 0.0, "name": "1f16dac94c0ffef10b089becb23b0df6"}, {"lat": 38.90048, "bike_id": "72b894d8b7cebd8eb791b9d6d9212a73", "is_reserved": 0, "is_disabled": 0, "rental_uris": {"android": "https://dc.lft.to/lastmile_qr_scan", "ios": "https://dc.lft.to/lastmile_qr_scan"}, "fusion_lon": 0.0, "lon": -76.99862416666667, "type": "electric_scooter", "fusion_lat": 0.0, "name": "72b894d8b7cebd8eb791b9d6d9212a73"}, {"lat": 38.92042816666667, "bike_id": "07f339ab68bd5853c9fe0a95fb2e39ab", "is_reserved": 0, "is_disabled": 0, "rental_uris": {"android": "https://dc.lft.to/lastmile_qr_scan", "ios": "https://dc.lft.to/lastmile_qr_scan"}, "fusion_lon": 0.0, "lon": -77.03409383333333, "type": "electric_scooter", "fusion_lat": 0.0, "name": "07f339ab68bd5853c9fe0a95fb2e39ab"}, {"lat": 38.91707733333333, "bike_id": "6efbcd0a63f78dd423ad4e3ad0ef440d", "is_reserved": 0, "is_disabled": 0, "rental_uris": {"android": "https://dc.lft.to/lastmile_qr_scan", "ios": "https://dc.lft.to/lastmile_qr_scan"}, "fusion_lon": 0.0, "lon": -77.040679, "type": "electric_scooter", "fusion_lat": 0.0, "name": "6efbcd0a63f78dd423ad4e3ad0ef440d"}, {"lat": 38.90312183333333, "bike_id": "35efb6cb6db3dc4d9d4021167112d7a3", "is_reserved": 0, "is_disabled": 0, "rental_uris": {"android": "https://dc.lft.to/lastmile_qr_scan", "ios": "https://dc.lft.to/lastmile_qr_scan"}, "fusion_lon": 0.0, "lon": -77.02897333333334, "type": "electric_scooter", "fusion_lat": 0.0, "name": "35efb6cb6db3dc4d9d4021167112d7a3"}, {"lat": 38.93270833333333, "bike_id": "ee06668e288cb8fd9cc1f2caec485816", "is_reserved": 0, "is_disabled": 0, "rental_uris": {"android": "https://dc.lft.to/lastmile_qr_scan", "ios": "https://dc.lft.to/lastmile_qr_scan"},