{"data": {"bikes": [{"bike_id": "8ea2fc07745bde4d8ef42d8ee57c76a7", "is_reserved": 0, "fusion_lon": 0.0, "lat": 38.9308155, "is_disabled": 0, "name": "8ea2fc07745bde4d8ef42d8ee57c76a7", "fusion_lat": 0.0, "rental_uris": {"ios": "https://dc.lft.to/lastmile_qr_scan", "android": "https://dc.lft.to/lastmile_qr_scan"}, "lon": -77.02798183333333, "type": "electric_scooter"}, {"bike_id": "3ea174395c2898dda0327c6d277cf455", "is_reserved": 0, "fusion_lon": 0.0, "lat": 38.90309516666667, "is_disabled": 0, "name": "3ea174395c2898dda0327c6d277cf455", "fusion_lat": 0.0, "rental_uris": {"ios": "https://dc.lft.to/lastmile_qr_scan", "android": "https://dc.lft.to/lastmile_qr_scan"}, "lon": -77.05176083333333, "type": "electric_scooter"}, {"bike_id": "119662dd5d2dce3cf39d13db311c2e51", "is_reserved": 0, "fusion_lon": 0.0, "lat": 38.86655983333333, "is_disabled": 0, "name": "119662dd5d2dce3cf39d13db311c2e51", "fusion_lat": 0.0, "rental_uris": {"ios": "https://dc.lft.to/lastmile_qr_scan", "android": "https://dc.lft.to/lastmile_qr_scan"}, "lon": -76.9901685, "type": "electric_scooter"}, {"bike_id": "a59503b82e7a03f7e9b21a9d776153f2", "is_reserved": 0, "fusion_lon": 0.0, "lat": 38.898226666666666, "is_disabled": 0, "name": "a59503b82e7a03f7e9b21a9d776153f2", "fusion_lat": 0.0, "rental_uris": {"ios": "https://dc.lft.to/lastmile_qr_scan", "android": "https://dc.lft.to/lastmile_qr_scan"}, "lon": -76.94653383333333, "type": "electric_scooter"}, {"bike_id": "eb63774dc636c481158735eafd20b5ad", "is_reserved": 0, "fusion_lon": 0.0, "lat": 38.901575, "is_disabled": 0, "name": "eb63774dc636c481158735eafd20b5ad", "fusion_lat": 0.0, "rental_uris": {"ios": "https://dc.lft.to/lastmile_qr_scan", "android": "https://dc.lft.to/lastmile_qr_scan"}, "lon": -77.02910416666667, "type": "electric_scooter"}, {"bike_id": "7adc6acb28e7eb478138ec4ec4e0cec5", "is_reserved": 0, "fusion_lon": 0.0, "lat": 38.919938333333334, "is_disabled": 0, "name": "7adc6acb28e7eb478138ec4ec4e0cec5", "fusion_lat": 0.0, "rental_uris": {"ios": "https://dc.lft.to/lastmile_qr_scan", "android": "https://dc.lft.to/lastmile_qr_scan"}, "lon": -77.0347135, "type": "electric_scooter"}, {"bike_id": "8d5f8c664ca5ea5916c7f4c65a1155ec", "is_reserved": 0, "fusion_lon": 0.0, "lat": 38.8398515, "is_disabled": 0, "name": "8d5f8c664ca5ea5916c7f4c65a1155ec", "fusion_lat": 0.0, "rental_uris": {"ios": "https://dc.lft.to/lastmile_qr_scan", "android": "https://dc.lft.to/lastmile_qr_scan"}, "lon": -77.00569116666667, "type": "electric_bike"}, {"bike_id": "59f825049bbe40455fba74739b8b5f02", "is_reserved": 0, "fusion_lon": 0.0, "lat": 38.90042483333333, "is_disabled": 0, "name": "59f825049bbe40455fba74739b8b5f02", "fusion_lat": 0.0, "rental_uris": {"ios": "https://dc.lft.to/lastmile_qr_scan", "android": "https://dc.lft.to/lastmile_qr_scan"}, "lon": -77.05070133333334, "type": "electric_scooter"}, {"bike_id": "26ed4b66570440e21ab5b47802236a35", "is_reserved": 0, "fusion_lon": 0.0, "lat": 38.93769183333333, "is_disabled": 0, "name": "26ed4b66570440e21ab5b47802236a35", "fusion_lat": 0.0, "rental_uris": {"ios": "https://dc.lft.to/lastmile_qr_scan", "android": "https://dc.lft.to/lastmile_qr_scan"}, "lon": -77.02270183333333, "type": "electric_scooter"}, {"bike_id": "b796899817f9c4da6b4ec6f4b36950b1", "is_reserved": 0, "fusion_lon": 0.0, "lat": 38.91421416666667, "is_disabled": 0, "name": "b796899817f9c4da6b4ec6f4b36950b1", "fusion_lat": 0.0, "rental_uris": {"ios": "https://dc.lft.to/lastmile_qr_scan", "android": "https://dc.lft.to/lastmile_qr_scan"}, "lon": -77.0380895, "type": "electric_scooter"}, {"bike_id": "69b28e80e4c7a381949cfe441b2f0b16", "is_reserved": 0, "fusion_lon": 0.0, "lat": 38.90047933333334, "is_disabled": 0, "name": "69b28e80e4c7a381949cfe441b2f0b16", "fusion_lat": 0.0, "rental_uris": {"ios": "https://dc.lft.to/lastmile_qr_scan", "android": "https://dc.lft.to/lastmile_qr_scan"}, "lon": -77.05132333333333, "type": "electric_scooter"}, {"bike_id": "7606d02c666d5ca7e2514b80ec540781", "is_reserved": 0, "fusion_lon": 0.0, "lat": 38.93360216666667, "is_disabled": 0, "name": "7606d02c666d5ca7e2514b80ec540781", "fusion_lat": 0.0, "rental_uris": {"ios": "https://dc.lft.to/lastmile_qr_scan", "android": "https://dc.lft.to/lastmile_qr_scan"}, "lon": -77.05732783333333, "type": "electric_scooter"}, {"bike_id": "88b04fcc9cb09e7550a506d3f497dc7e", "is_reserved": 0, "fusion_lon": 0.0, "lat": 38.933591666666665, "is_disabled": 0, "name": "88b04fcc9cb09e7550a506d3f497dc7e", "fusion_lat": 0.0, "rental_uris": {"ios": "https://dc.lft.to/lastmile_qr_scan", "android": "https://dc.lft.to/lastmile_qr_scan"}, "lon": -77.03425583333333, "type": "electric_scooter"}, {"bike_id": "54f416d2176df75c2ba01158de4d28d0", "is_reserved": 0, "fusion_lon": 0.0, "lat": 38.903898166666664, "is_disabled": 0, "name": "54f416d2176df75c2ba01158de4d28d0", "fusion_lat": 0.0, "rental_uris": {"ios": "https://dc.lft.to/lastmile_qr_scan", "android": "https://dc.lft.to/lastmile_qr_scan"}, "lon": -77.04540733333333, "type": "electric_scooter"}, {"bike_id": "1aeed967582cbed83e0174276d49b68e", "is_reserved": 0, "fusion_lon": 0.0, "lat": 38.8830555, "is_disabled": 0, "name": "1aeed967582cbed83e0174276d49b68e", "fusion_lat": 0.0, "rental_uris": {"ios": "https://dc.lft.to/lastmile_qr_scan", "android": "https://dc.lft.to/lastmile_qr_scan"}, "lon": -77.0178115, "type": "electric_scooter"}, {"bike_id": "8e277301c92bf3a2d4e334417eadab81", "is_reserved": 0, "fusion_lon": 0.0, "lat": 38.8945545, "is_disabled": 0, "name": "8e277301c92bf3a2d4e334417eadab81", "fusion_lat": 0.0, "rental_uris": {"ios": "https://dc.lft.to/lastmile_qr_scan", "android": "https://dc.lft.to/lastmile_qr_scan"}, "lon": -76.9703425, "type": "electric_bike"}, {"bike_id": "15e0ee0a0f55731a415f31130aeca9a9", "is_reserved": 0, "fusion_lon": 0.0, "lat": 38.9005515, "is_disabled": 0, "name": "15e0ee0a0f55731a415f31130aeca9a9", "fusion_lat": 0.0, "rental_uris": {"ios": "https://dc.lft.to/lastmile_qr_scan", "android": "https://dc.lft.to/lastmile_qr_scan"}, "lon": -77.03181216666667, "type": "electric_scooter"}, {"bike_id": "499990cd115b745941037c2495c8f6f8", "is_reserved": 0, "fusion_lon": 0.0, "lat": 38.900781333333335, "is_disabled": 0, "name": "499990cd115b745941037c2495c8f6f8", "fusion_lat": 0.0, "rental_uris": {"ios": "https://dc.lft.to/lastmile_qr_scan", "android": "https://dc.lft.to/lastmile_qr_scan"}, "lon": -77.02049616666666, "type": "electric_scooter"}, {"bike_id": "e26cea0692f36046d58d82f7b6860ca1", "is_reserved": 0, "fusion_lon": 0.0, "lat": 38.9173645, "is_disabled": 0, "name": "e26cea0692f36046d58d82f7b6860ca1", "fusion_lat": 0.0, "rental_uris": {"ios": "https://dc.lft.to/lastmile_qr_scan", "android": "https://dc.lft.to/lastmile_qr_scan"}, "lon": -77.041706, "type": "electric_scooter"}, {"bike_id": "8e250567b8e7f2dd5aebcbd32fe396d7", "is_reserved": 0, "fusion_lon": 0.0, "lat": 38.913923833333335, "is_disabled": 0, "name": "8e250567b8e7f2dd5aebcbd32fe396d7", "fusion_lat": 0.0, "rental_uris": {"ios": "https://dc.lft.to/lastmile_qr_scan", "android": "https://dc.lft.to/lastmile_qr_scan"}, "lon": -77.046163, "type": "electric_scooter"}, {"bike_id": "1d690a775ee55b8e58d679cffc0c86a5", "is_reserved": 0, "fusion_lon": 0.0, "lat": 38.8226455, "is_disabled": 0, "name": "1d690a775ee55b8e58d679cffc0c86a5", "fusion_lat": 0.0, "rental_uris": {"ios": "https://dc.lft.to/lastmile_qr_scan", "android": "https://dc.lft.to/lastmile_qr_scan"}, "lon": -77.00560616666667, "type": "electric_bike"}, {"bike_id": "02d202a89f21172c630ef1603af94d30", "is_reserved": 0, "fusion_lon": 0.0, "lat": 38.893527166666665, "is_disabled": 0, "name": "02d202a89f21172c630ef1603af94d30", "fusion_lat": 0.0, "rental_uris": {"ios": "https://dc.lft.to/lastmile_qr_scan", "android": "https://dc.lft.to/lastmile_qr_scan"}, "lon": -77.0284515, "type": "electric_scooter"}, {"bike_id": "f09ecc1fc4e1606ab0c4a93acfded7bf", "is_reserved": 0, "fusion_lon": 0.0, "lat": 38.9259965, "is_disabled": 0, "name": "f09ecc1fc4e1606ab0c4a93acfded7bf", "fusion_lat": 0.0, "rental_uris": {"ios": "https://dc.lft.to/lastmile_qr_scan", "android": "https://dc.lft.to/lastmile_qr_scan"}, "lon": -77.02130216666667, "type": "electric_scooter"}, {"bike_id": "9e45ff9439ba5460d5d58641661dc990", "is_reserved": 0, "fusion_lon": 0.0, "lat": 38.90641516666667, "is_disabled": 0, "name": "9e45ff9439ba5460d5d58641661dc990", "fusion_lat": 0.0, "rental_uris": {"ios": "https://dc.lft.to/lastmile_qr_scan", "android": "https://dc.lft.to/lastmile_qr_scan"}, "lon": -77.034585, "type": "electric_scooter"}, {"bike_id": "36b446d2c9b6953474c1a5ce76c43fec", "is_reserved": 0, "fusion_lon": 0.0, "lat": 38.898749, "is_disabled": 0, "name": "36b446d2c9b6953474c1a5ce76c43fec", "fusion_lat": 0.0, "rental_uris": {"ios": "https://dc.lft.to/lastmile_qr_scan", "android": "https://dc.lft.to/lastmile_qr_scan"}, "lon": -77.0325825, "type": "electric_scooter"}, {"bike_id": "b5a1142923504c01b3a46efdb0ed5913", "is_reserved": 0, "fusion_lon": 0.0, "lat": 38.918027333333335, "is_disabled": 0, "name": "b5a1142923504c01b3a46efdb0ed5913", "fusion_lat": 0.0, "rental_uris": {"ios": "https://dc.lft.to/lastmile_qr_scan", "android": "https://dc.lft.to/lastmile_qr_scan"}, "lon": -77.031855, "type": "electric_scooter"}, {"bike_id": "fe3f4437d854c50bf4bbe85e98ff9993", "is_reserved": 0, "fusion_lon": 0.0, "lat": 38.910379, "is_disabled": 0, "name": "fe3f4437d854c50bf4bbe85e98ff9993", "fusion_lat": 0.0, "rental_uris": {"ios": "https://dc.lft.to/lastmile_qr_scan", "android": "https://dc.lft.to/lastmile_qr_scan"}, "lon": -77.03589316666667, "type": "electric_scooter"}, {"bike_id": "2a507f02002d856dc1e1660a727558b0", "is_reserved": 0, "fusion_lon": 0.0, "lat": 38.87840383333333, "is_disabled": 0, "name": "2a507f02002d856dc1e1660a727558b0", "fusion_lat": 0.0, "rental_uris": {"ios": "https://dc.lft.to/lastmile_qr_scan", "android": "https://dc.lft.to/lastmile_qr_scan"}, "lon": -76.9884365, "type": "electric_scooter"}, {"bike_id": "bcab4b7cd578bf23094a17bb47c620ad", "is_reserved": 0, "fusion_lon": 0.0, "lat": 38.906676166666664, "is_disabled": 0, "name": "bcab4b7cd578bf23094a17bb47c620ad", "fusion_lat": 0.0, "rental_uris": {"ios": "https://dc.lft.to/lastmile_qr_scan", "android": "https://dc.lft.to/lastmile_qr_scan"}, "lon": -77.034467, "type": "electric_scooter"}, {"bike_id": "ae3990df71a8c7abf9caf9e7466a1528", "is_reserved": 0, "fusion_lon": 0.0, "lat": 38.917017, "is_disabled": 0, "name": "ae3990df71a8c7abf9caf9e7466a1528", "fusion_lat": 0.0, "rental_uris": {"ios": "https://dc.lft.to/lastmile_qr_scan", "android": "https://dc.lft.to/lastmile_qr_scan"}, "lon": -77.024118, "type": "electric_scooter"}, {"bike_id": "af6d2b1c10b6e714e677575447fc893b", "is_reserved": 0, "fusion_lon": 0.0, "lat": 38.890890666666664, "is_disabled": 0, "name": "af6d2b1c10b6e714e677575447fc893b", "fusion_lat": 0.0, "rental_uris": {"ios": "https://dc.lft.to/lastmile_qr_scan", "android": "https://dc.lft.to/lastmile_qr_scan"}, "lon": -76.98747166666666, "type": "electric_scooter"}, {"bike_id": "a3071d7f044668af8258ec0cfebca07c", "is_reserved": 0, "fusion_lon": 0.0, "lat": 38.914910666666664, "is_disabled": 0, "name": "a3071d7f044668af8258ec0cfebca07c", "fusion_lat": 0.0, "rental_uris": {"ios": "https://dc.lft.to/lastmile_qr_scan", "android": "https://dc.lft.to/lastmile_qr_scan"}, "lon": -77.04077233333334, "type": "electric_scooter"}, {"bike_id": "16a67cc080b04e788ce475d24bc57d5b", "is_reserved": 0, "fusion_lon": 0.0, "lat": 38.92117983333333, "is_disabled": 0, "name": "16a67cc080b04e788ce475d24bc57d5b", "fusion_lat": 0.0, "rental_uris": {"ios": "https://dc.lft.to/lastmile_qr_scan", "android": "https://dc.lft.to/lastmile_qr_scan"}, "lon": -77.0365235, "type": "electric_scooter"}, {"bike_id": "5b7a60efe5de56a88c0720150094c066", "is_reserved": 0, "fusion_lon": 0.0, "lat": 38.94213766666667, "is_disabled": 0, "name": "5b7a60efe5de56a88c0720150094c066", "fusion_lat": 0.0, "rental_uris": {"ios": "https://dc.lft.to/lastmile_qr_scan", "android": "https://dc.lft.to/lastmile_qr_scan"}, "lon": -77.0358635, "type": "electric_scooter"}, {"bike_id": "d760ed30e3e3fa288c1f4e9cb3d392c7", "is_reserved": 0, "fusion_lon": 0.0, "lat": 38.901872166666664, "is_disabled": 0, "name": "d760ed30e3e3fa288c1f4e9cb3d392c7", "fusion_lat": 0.0, "rental_uris": {"ios": "https://dc.lft.to/lastmile_qr_scan", "android": "https://dc.lft.to/lastmile_qr_scan"}, "lon": -76.929979, "type": "electric_scooter"}, {"bike_id": "ad51585101c5f830a0ac9ab602225316", "is_reserved": 0, "fusion_lon": 0.0, "lat": 38.913421166666666, "is_disabled": 0, "name": "ad51585101c5f830a0ac9ab602225316", "fusion_lat": 0.0, "rental_uris": {"ios": "https://dc.lft.to/lastmile_qr_scan", "android": "https://dc.lft.to/lastmile_qr_scan"}, "lon": -77.04837, "type": "electric_scooter"}, {"bike_id": "2071807a9c45effbb6b9bcb40e80ac70", "is_reserved": 0, "fusion_lon": 0.0, "lat": 38.9165505, "is_disabled": 0, "name": "2071807a9c45effbb6b9bcb40e80ac70", "fusion_lat": 0.0, "rental_uris": {"ios": "https://dc.lft.to/lastmile_qr_scan", "android": "https://dc.lft.to/lastmile_qr_scan"}, "lon": -77.02278533333333, "type": "electric_scooter"}, {"bike_id": "847a6b2e84d72ebbe84437a0fd3814e0", "is_reserved": 0, "fusion_lon": 0.0, "lat": 38.87659516666667, "is_disabled": 0, "name": "847a6b2e84d72ebbe84437a0fd3814e0", "fusion_lat": 0.0, "rental_uris": {"ios": "https://dc.lft.to/lastmile_qr_scan", "android": "https://dc.lft.to/lastmile_qr_scan"}, "lon": -77.0042015, "type": "electric_scooter"}, {"bike_id": "dc4ad34bca8a5a3bfc5357c4b0dbc0ef", "is_reserved": 0, "fusion_lon": 0.0, "lat": 38.902452833333335, "is_disabled": 0, "name": "dc4ad34bca8a5a3bfc5357c4b0dbc0ef", "fusion_lat": 0.0, "rental_uris": {"ios": "https://dc.lft.to/lastmile_qr_scan", "android": "https://dc.lft.to/lastmile_qr_scan"}, "lon": -77.00202966666667, "type": "electric_scooter"}, {"bike_id": "c4a4c8fc841dda269111ea9a329a9e84", "is_reserved": 0, "fusion_lon": 0.0, "lat": 38.89548, "is_disabled": 0, "name": "c4a4c8fc841dda269111ea9a329a9e84", "fusion_lat": 0.0, "rental_uris": {"ios": "https://dc.lft.to/lastmile_qr_scan", "android": "https://dc.lft.to/lastmile_qr_scan"}, "lon": -77.02562683333333, "type": "electric_scooter"}, {"bike_id": "571a9e8eb5a6a2d640f1b3967035e76a", "is_reserved": 0, "fusion_lon": 0.0, "lat": 38.8870535, "is_disabled": 0, "name": "571a9e8eb5a6a2d640f1b3967035e76a", "fusion_lat": 0.0, "rental_uris": {"ios": "https://dc.lft.to/lastmile_qr_scan", "android": "https://dc.lft.to/lastmile_qr_scan"}, "lon": -77.00150483333333, "type": "electric_scooter"}, {"bike_id": "8f88c4123d0d25a0ff27fa9c0a9907fe", "is_reserved": 0, "fusion_lon": 0.0, "lat": 38.880046666666665, "is_disabled": 0, "name": "8f88c4123d0d25a0ff27fa9c0a9907fe", "fusion_lat": 0.0, "rental_uris": {"ios": "https://dc.lft.to/lastmile_qr_scan", "android": "https://dc.lft.to/lastmile_qr_scan"}, "lon": -76.98537566666667, "type": "electric_scooter"}, {"bike_id": "d55f04b1319154f515bc00823a8c6241", "is_reserved": 0, "fusion_lon": 0.0, "lat": 38.898290833333334, "is_disabled": 0, "name": "d55f04b1319154f515bc00823a8c6241", "fusion_lat": 0.0, "rental_uris": {"ios": "https://dc.lft.to/lastmile_qr_scan", "android": "https://dc.lft.to/lastmile_qr_scan"}, "lon": -76.980315, "type": "electric_scooter"}, {"bike_id": "c57ef778c8f95570d103c47f2d35835c", "is_reserved": 0, "fusion_lon": 0.0, "lat": 38.93165, "is_disabled": 0, "name": "c57ef778c8f95570d103c47f2d35835c", "fusion_lat": 0.0, "rental_uris": {"ios": "https://dc.lft.to/lastmile_qr_scan", "android": "https://dc.lft.to/lastmile_qr_scan"}, "lon": -76.99601116666666, "type": "electric_scooter"}, {"bike_id": "23b8754e6cb3e349a86002c3e30f36a3", "is_reserved": 0, "fusion_lon": 0.0, "lat": 38.902847666666666, "is_disabled": 0, "name": "23b8754e6cb3e349a86002c3e30f36a3", "fusion_lat": 0.0, "rental_uris": {"ios": "https://dc.lft.to/lastmile_qr_scan", "android": "https://dc.lft.to/lastmile_qr_scan"}, "lon": -77.0333005, "type": "electric_scooter"}, {"bike_id": "02939c193addc76318449e4be43eda9d", "is_reserved": 0, "fusion_lon": 0.0, "lat": 38.933445, "is_disabled": 0, "name": "02939c193addc76318449e4be43eda9d", "fusion_lat": 0.0, "rental_uris": {"ios": "https://dc.lft.to/lastmile_qr_scan", "android": "https://dc.lft.to/lastmile_qr_scan"}, "lon": -77.057104, "type": "electric_scooter"}, {"bike_id": "32bdb7cef1ea691ce69d9023b820de2d", "is_reserved": 0, "fusion_lon": 0.0, "lat": 38.908316, "is_disabled": 0, "name": "32bdb7cef1ea691ce69d9023b820de2d", "fusion_lat": 0.0, "rental_uris": {"ios": "https://dc.lft.to/lastmile_qr_scan", "android": "https://dc.lft.to/lastmile_qr_scan"}, "lon": -76.99698266666667, "type": "electric_scooter"}, {"bike_id": "762e31c46beb8e8ea19313ff7f837a1f", "is_reserved": 0, "fusion_lon": 0.0, "lat": 38.897166666666664, "is_disabled": 0, "name": "762e31c46beb8e8ea19313ff7f837a1f", "fusion_lat": 0.0, "rental_uris": {"ios": "https://dc.lft.to/lastmile_qr_scan", "android": "https://dc.lft.to/lastmile_qr_scan"}, "lon": -77.02688216666667, "type": "electric_scooter"}, {"bike_id": "18311422e19713f802e7b3444811aab8", "is_reserved": 0, "fusion_lon": 0.0, "lat": 38.88430816666666, "is_disabled": 0, "name": "18311422e19713f802e7b3444811aab8", "fusion_lat": 0.0, "rental_uris": {"ios": "https://dc.lft.to/lastmile_qr_scan", "android": "https://dc.lft.to/lastmile_qr_scan"}, "lon": -76.99593366666667, "type": "electric_scooter"}, {"bike_id": "562721a39c4aee2a6a4ccbf563e851b5", "is_reserved": 0, "fusion_lon": 0.0, "lat": 38.9192735, "is_disabled": 0, "name": "562721a39c4aee2a6a4ccbf563e851b5", "fusion_lat": 0.0, "rental_uris": {"ios": "https://dc.lft.to/lastmile_qr_scan", "android": "https://dc.lft.to/lastmile_qr_scan"}, "lon": -77.00070666666667, "type": "electric_scooter"}, {"bike_id": "7340d17f5e84dfc065dbc76dada72ee3", "is_reserved": 0, "fusion_lon": 0.0, "lat": 38.891993166666666, "is_disabled": 0, "name": "7340d17f5e84dfc065dbc76dada72ee3", "fusion_lat": 0.0, "rental_uris": {"ios": "https://dc.lft.to/lastmile_qr_scan", "android": "https://dc.lft.to/lastmile_qr_scan"}, "lon": -77.01550983333334, "type": "electric_scooter"}, {"bike_id": "dd6e6ea152cb018c4ff7285d5aa83381", "is_reserved": 0, "fusion_lon": 0.0, "lat": 39.0304655, "is_disabled": 0, "name": "dd6e6ea152cb018c4ff7285d5aa83381", "fusion_lat": 0.0, "rental_uris": {"ios": "https://dc.lft.to/lastmile_qr_scan", "android": "https://dc.lft.to/lastmile_qr_scan"}, "lon": -77.09484216666667, "type": "electric_bike"}, {"bike_id": "68c52255892e5621a88396eb787856c5", "is_reserved": 0, "fusion_lon": 0.0, "lat": 38.9076575, "is_disabled": 0, "name": "68c52255892e5621a88396eb787856c5", "fusion_lat": 0.0, "rental_uris": {"ios": "https://dc.lft.to/lastmile_qr_scan", "android": "https://dc.lft.to/lastmile_qr_scan"}, "lon": -77.03206933333334, "type": "electric_scooter"}, {"bike_id": "fd52bdcfc2002bc44a1482cd803a5ce9", "is_reserved": 0, "fusion_lon": 0.0, "lat": 38.920525833333336, "is_disabled": 0, "name": "fd52bdcfc2002bc44a1482cd803a5ce9", "fusion_lat": 0.0, "rental_uris": {"ios": "https://dc.lft.to/lastmile_qr_scan", "android": "https://dc.lft.to/lastmile_qr_scan"}, "lon": -77.041838, "type": "electric_scooter"}, {"bike_id": "dd8d2d819349d7dd70c898e795626b92", "is_reserved": 0, "fusion_lon": 0.0, "lat": 38.914198999999996, "is_disabled": 0, "name": "dd8d2d819349d7dd70c898e795626b92", "fusion_lat": 0.0, "rental_uris": {"ios": "https://dc.lft.to/lastmile_qr_scan", "android": "https://dc.lft.to/lastmile_qr_scan"}, "lon": -77.04485566666666, "type": "electric_scooter"}, {"bike_id": "1dfccccf626e68bf4eb29d668f597b6a", "is_reserved": 0, "fusion_lon": 0.0, "lat": 38.89506683333333, "is_disabled": 0, "name": "1dfccccf626e68bf4eb29d668f597b6a", "fusion_lat": 0.0, "rental_uris": {"ios": "https://dc.lft.to/lastmile_qr_scan", "android": "https://dc.lft.to/lastmile_qr_scan"}, "lon": -77.0277075, "type": "electric_scooter"}, {"bike_id": "a4585ba3ef9816f0897f3a8c9bdb8897", "is_reserved": 0, "fusion_lon": 0.0, "lat": 38.906097333333335, "is_disabled": 0, "name": "a4585ba3ef9816f0897f3a8c9bdb8897", "fusion_lat": 0.0, "rental_uris": {"ios": "https://dc.lft.to/lastmile_qr_scan", "android": "https://dc.lft.to/lastmile_qr_scan"}, "lon": -77.07491183333333, "type": "electric_scooter"}, {"bike_id": "2729e177326db9d2533820beaa0243de", "is_reserved": 0, "fusion_lon": 0.0, "lat": 38.9082825, "is_disabled": 0, "name": "2729e177326db9d2533820beaa0243de", "fusion_lat": 0.0, "rental_uris": {"ios": "https://dc.lft.to/lastmile_qr_scan", "android": "https://dc.lft.to/lastmile_qr_scan"}, "lon": -77.043477, "type": "electric_scooter"}, {"bike_id": "6f662a48d5eee9c8be052908e3e6c285", "is_reserved": 0, "fusion_lon": 0.0, "lat": 38.909697333333334, "is_disabled": 0, "name": "6f662a48d5eee9c8be052908e3e6c285", "fusion_lat": 0.0, "rental_uris": {"ios": "https://dc.lft.to/lastmile_qr_scan", "android": "https://dc.lft.to/lastmile_qr_scan"}, "lon": -77.023088, "type": "electric_scooter"}, {"bike_id": "16e28f90ea372cfb78547a5f8f86d98f", "is_reserved": 0, "fusion_lon": 0.0, "lat": 38.901172333333335, "is_disabled": 0, "name": "16e28f90ea372cfb78547a5f8f86d98f", "fusion_lat": 0.0, "rental_uris": {"ios": "https://dc.lft.to/lastmile_qr_scan", "android": "https://dc.lft.to/lastmile_qr_scan"}, "lon": -77.04331566666667, "type": "electric_scooter"}, {"bike_id": "a2db9c9c859a4d4a6c5fa6a30710a9e3", "is_reserved": 0, "fusion_lon": 0.0, "lat": 38.93952316666667, "is_disabled": 0, "name": "a2db9c9c859a4d4a6c5fa6a30710a9e3", "fusion_lat": 0.0, "rental_uris": {"ios": "https://dc.lft.to/lastmile_qr_scan", "android": "https://dc.lft.to/lastmile_qr_scan"}, "lon": -77.07243283333334, "type": "electric_scooter"}, {"bike_id": "599acdab50115f107e5571510185d771", "is_reserved": 0, "fusion_lon": 0.0, "lat": 38.90358716666667, "is_disabled": 0, "name": "599acdab50115f107e5571510185d771", "fusion_lat": 0.0, "rental_uris": {"ios": "https://dc.lft.to/lastmile_qr_scan", "android": "https://dc.lft.to/lastmile_qr_scan"}, "lon": -77.04167766666667, "type": "electric_scooter"}, {"bike_id": "87f3d71b461c5f415daf7e0d14098e27", "is_reserved": 0, "fusion_lon": 0.0, "lat": 38.90238033333333, "is_disabled": 0, "name": "87f3d71b461c5f415daf7e0d14098e27", "fusion_lat": 0.0, "rental_uris": {"ios": "https://dc.lft.to/lastmile_qr_scan", "android": "https://dc.lft.to/lastmile_qr_scan"}, "lon": -77.029763, "type": "electric_scooter"}, {"bike_id": "2a5c78eb717a69fbec3ed21cfa7f07d1", "is_reserved": 0, "fusion_lon": 0.0, "lat": 39.038834, "is_disabled": 0, "name": "2a5c78eb717a69fbec3ed21cfa7f07d1", "fusion_lat": 0.0, "rental_uris": {"ios": "https://dc.lft.to/lastmile_qr_scan", "android": "https://dc.lft.to/lastmile_qr_scan"}, "lon": -76.99044083333334, "type": "electric_bike"}, {"bike_id": "cd18fceb656699c57bc121c6ed1116b9", "is_reserved": 0, "fusion_lon": 0.0, "lat": 38.91665366666667, "is_disabled": 0, "name": "cd18fceb656699c57bc121c6ed1116b9", "fusion_lat": 0.0, "rental_uris": {"ios": "https://dc.lft.to/lastmile_qr_scan", "android": "https://dc.lft.to/lastmile_qr_scan"}, "lon": -77.03208583333333, "type": "electric_scooter"}, {"bike_id": "333a2de20ba2ad5f4ebc20def54bc940", "is_reserved": 0, "fusion_lon": 0.0, "lat": 38.89222133333333, "is_disabled": 0, "name": "333a2de20ba2ad5f4ebc20def54bc940", "fusion_lat": 0.0, "rental_uris": {"ios": "https://dc.lft.to/lastmile_qr_scan", "android": "https://dc.lft.to/lastmile_qr_scan"}, "lon": -77.024471, "type": "electric_scooter"}, {"bike_id": "8313ed1bf456c13d30c61cd5685fb985", "is_reserved": 0, "fusion_lon": 0.0, "lat": 38.92188133333333, "is_disabled": 0, "name": "8313ed1bf456c13d30c61cd5685fb985", "fusion_lat": 0.0, "rental_uris": {"ios": "https://dc.lft.to/lastmile_qr_scan", "android": "https://dc.lft.to/lastmile_qr_scan"}, "lon": -77.0424955, "type": "electric_scooter"}, {"bike_id": "25c418acdd8a686d9402a3edc76ba6ee", "is_reserved": 0, "fusion_lon": 0.0, "lat": 38.89904633333333, "is_disabled": 0, "name": "25c418acdd8a686d9402a3edc76ba6ee", "fusion_lat": 0.0, "rental_uris": {"ios": "https://dc.lft.to/lastmile_qr_scan", "android": "https://dc.lft.to/lastmile_qr_scan"}, "lon": -77.044874, "type": "electric_scooter"}, {"bike_id": "5bc78d1e7ffe893f42942f563d539ccc", "is_reserved": 0, "fusion_lon": 0.0, "lat": 38.942769, "is_disabled": 0, "name": "5bc78d1e7ffe893f42942f563d539ccc", "fusion_lat": 0.0, "rental_uris": {"ios": "https://dc.lft.to/lastmile_qr_scan", "android": "https://dc.lft.to/lastmile_qr_scan"}, "lon": -77.02498283333334, "type": "electric_scooter"}, {"bike_id": "10a769f17c830b48dbb9e06ef0c9b817", "is_reserved": 0, "fusion_lon": 0.0, "lat": 38.910450833333336, "is_disabled": 0, "name": "10a769f17c830b48dbb9e06ef0c9b817", "fusion_lat": 0.0, "rental_uris": {"ios": "https://dc.lft.to/lastmile_qr_scan", "android": "https://dc.lft.to/lastmile_qr_scan"}, "lon": -77.02814983333333, "type": "electric_scooter"}, {"bike_id": "cf53dc9b33a9d16457da36025d97d48e", "is_reserved": 0, "fusion_lon": 0.0, "lat": 38.9057165, "is_disabled": 0, "name": "cf53dc9b33a9d16457da36025d97d48e", "fusion_lat": 0.0, "rental_uris": {"ios": "https://dc.lft.to/lastmile_qr_scan", "android": "https://dc.lft.to/lastmile_qr_scan"}, "lon": -77.02188033333333, "type": "electric_scooter"}, {"bike_id": "41cbedbdef61b3b3ef5a85c7b0ce73d4", "is_reserved": 0, "fusion_lon": 0.0, "lat": 38.930641666666666, "is_disabled": 0, "name": "41cbedbdef61b3b3ef5a85c7b0ce73d4", "fusion_lat": 0.0, "rental_uris": {"ios": "https://dc.lft.to/lastmile_qr_scan", "android": "https://dc.lft.to/lastmile_qr_scan"}, "lon": -77.02970516666667, "type": "electric_scooter"}, {"bike_id": "893169011694b011b39037c033c01bf8", "is_reserved": 0, "fusion_lon": 0.0, "lat": 38.9095785, "is_disabled": 0, "name": "893169011694b011b39037c033c01bf8", "fusion_lat": 0.0, "rental_uris": {"ios": "https://dc.lft.to/lastmile_qr_scan", "android": "https://dc.lft.to/lastmile_qr_scan"}, "lon": -77.0200115, "type": "electric_scooter"}, {"bike_id": "f992cbb58eddce4de9bcff0a61575d72", "is_reserved": 0, "fusion_lon": 0.0, "lat": 38.93531633333333, "is_disabled": 0, "name": "f992cbb58eddce4de9bcff0a61575d72", "fusion_lat": 0.0, "rental_uris": {"ios": "https://dc.lft.to/lastmile_qr_scan", "android": "https://dc.lft.to/lastmile_qr_scan"}, "lon": -77.0340975, "type": "electric_scooter"}, {"bike_id": "61451700ed35c7facc58976bfadd6e2f", "is_reserved": 0, "fusion_lon": 0.0, "lat": 38.9072025, "is_disabled": 0, "name": "61451700ed35c7facc58976bfadd6e2f", "fusion_lat": 0.0, "rental_uris": {"ios": "https://dc.lft.to/lastmile_qr_scan", "android": "https://dc.lft.to/lastmile_qr_scan"}, "lon": -77.026561, "type": "electric_scooter"}, {"bike_id": "46af8833ca1dc3420ab7cb597f954363", "is_reserved": 0, "fusion_lon": 0.0, "lat": 38.921818, "is_disabled": 0, "name": "46af8833ca1dc3420ab7cb597f954363", "fusion_lat": 0.0, "rental_uris": {"ios": "https://dc.lft.to/lastmile_qr_scan", "android": "https://dc.lft.to/lastmile_qr_scan"}, "lon": -77.04281516666667, "type": "electric_scooter"}, {"bike_id": "743fe11c2e17b0814bb2a9baf6c05355", "is_reserved": 0, "fusion_lon": 0.0, "lat": 38.95912516666667, "is_disabled": 0, "name": "743fe11c2e17b0814bb2a9baf6c05355", "fusion_lat": 0.0, "rental_uris": {"ios": "https://dc.lft.to/lastmile_qr_scan", "android": "https://dc.lft.to/lastmile_qr_scan"}, "lon": -77.00152066666666, "type": "electric_bike"}, {"bike_id": "e50ea775063d544d6bea5f9a4e78b0b4", "is_reserved": 0, "fusion_lon": 0.0, "lat": 38.91875833333334, "is_disabled": 0, "name": "e50ea775063d544d6bea5f9a4e78b0b4", "fusion_lat": 0.0, "rental_uris": {"ios": "https://dc.lft.to/lastmile_qr_scan", "android": "https://dc.lft.to/lastmile_qr_scan"}, "lon": -77.043537, "type": "electric_scooter"}, {"bike_id": "fd6e2952620f8e086bc82054d28866ac", "is_reserved": 0, "fusion_lon": 0.0, "lat": 38.911036333333335, "is_disabled": 0, "name": "fd6e2952620f8e086bc82054d28866ac", "fusion_lat": 0.0, "rental_uris": {"ios": "https://dc.lft.to/lastmile_qr_scan", "android": "https://dc.lft.to/lastmile_qr_scan"}, "lon": -77.02719833333333, "type": "electric_scooter"}, {"bike_id": "ec3fa616fc6facb39b4a515168a2aac0", "is_reserved": 0, "fusion_lon": 0.0, "lat": 38.906083, "is_disabled": 0, "name": "ec3fa616fc6facb39b4a515168a2aac0", "fusion_lat": 0.0, "rental_uris": {"ios": "https://dc.lft.to/lastmile_qr_scan", "android": "https://dc.lft.to/lastmile_qr_scan"}, "lon": -77.0396125, "type": "electric_scooter"}, {"bike_id": "2097899fa75c382a2fd5fc0b01454a92", "is_reserved": 0, "fusion_lon": 0.0, "lat": 38.9127085, "is_disabled": 0, "name": "2097899fa75c382a2fd5fc0b01454a92", "fusion_lat": 0.0, "rental_uris": {"ios": "https://dc.lft.to/lastmile_qr_scan", "android": "https://dc.lft.to/lastmile_qr_scan"}, "lon": -77.02211916666667, "type": "electric_scooter"}, {"bike_id": "8368c7bdefc289fd8f6a14c0b96dddee", "is_reserved": 0, "fusion_lon": 0.0, "lat": 38.88739666666667, "is_disabled": 0, "name": "8368c7bdefc289fd8f6a14c0b96dddee", "fusion_lat": 0.0, "rental_uris": {"ios": "https://dc.lft.to/lastmile_qr_scan", "android": "https://dc.lft.to/lastmile_qr_scan"}, "lon": -77.01528533333334, "type": "electric_scooter"}, {"bike_id": "d7176e838d5e6f10aa6c4b9242ad67ad", "is_reserved": 0, "fusion_lon": 0.0, "lat": 38.899802333333334, "is_disabled": 0, "name": "d7176e838d5e6f10aa6c4b9242ad67ad", "fusion_lat": 0.0, "rental_uris": {"ios": "https://dc.lft.to/lastmile_qr_scan", "android": "https://dc.lft.to/lastmile_qr_scan"}, "lon": -77.0313195, "type": "electric_scooter"}, {"bike_id": "5fb08610ad039f85a0e7d2d99f5da9da", "is_reserved": 0, "fusion_lon": 0.0, "lat": 38.928839333333336, "is_disabled": 0, "name": "5fb08610ad039f85a0e7d2d99f5da9da", "fusion_lat": 0.0, "rental_uris": {"ios": "https://dc.lft.to/lastmile_qr_scan", "android": "https://dc.lft.to/lastmile_qr_scan"}, "lon": -77.037576, "type": "electric_scooter"}, {"bike_id": "2fff64f1e5a997ec5869e6b6c1cb43ba", "is_reserved": 0, "fusion_lon": 0.0, "lat": 38.92246566666667, "is_disabled": 0, "name": "2fff64f1e5a997ec5869e6b6c1cb43ba", "fusion_lat": 0.0, "rental_uris": {"ios": "https://dc.lft.to/lastmile_qr_scan", "android": "https://dc.lft.to/lastmile_qr_scan"}, "lon": -77.03664716666667, "type": "electric_scooter"}, {"bike_id": "04715c625e0ad42f3882d173d1209a35", "is_reserved": 0, "fusion_lon": 0.0, "lat": 38.903706666666665, "is_disabled": 0, "name": "04715c625e0ad42f3882d173d1209a35", "fusion_lat": 0.0, "rental_uris": {"ios": "https://dc.lft.to/lastmile_qr_scan", "android": "https://dc.lft.to/lastmile_qr_scan"}, "lon": -77.03977016666667, "type": "electric_scooter"}, {"bike_id": "e1f40d27d3fd5ee6787e7d659d27826a", "is_reserved": 0, "fusion_lon": 0.0, "lat": 38.874571333333336, "is_disabled": 0, "name": "e1f40d27d3fd5ee6787e7d659d27826a", "fusion_lat": 0.0, "rental_uris": {"ios": "https://dc.lft.to/lastmile_qr_scan", "android": "https://dc.lft.to/lastmile_qr_scan"}, "lon": -77.00546716666666, "type": "electric_scooter"}, {"bike_id": "c1a8a3a168df356734276dc9d017ce42", "is_reserved": 0, "fusion_lon": 0.0, "lat": 38.88502183333333, "is_disabled": 0, "name": "c1a8a3a168df356734276dc9d017ce42", "fusion_lat": 0.0, "rental_uris": {"ios": "https://dc.lft.to/lastmile_qr_scan", "android": "https://dc.lft.to/lastmile_qr_scan"}, "lon": -77.00570083333334, "type": "electric_scooter"}, {"bike_id": "e1f98e73bfb42492b21205d802698434", "is_reserved": 0, "fusion_lon": 0.0, "lat": 38.9389295, "is_disabled": 0, "name": "e1f98e73bfb42492b21205d802698434", "fusion_lat": 0.0, "rental_uris": {"ios": "https://dc.lft.to/lastmile_qr_scan", "android": "https://dc.lft.to/lastmile_qr_scan"}, "lon": -77.03328683333334, "type": "electric_scooter"}, {"bike_id": "a9eb786d3c1a80f0f2293acb133c043a", "is_reserved": 0, "fusion_lon": 0.0, "lat": 38.92153783333333, "is_disabled": 0, "name": "a9eb786d3c1a80f0f2293acb133c043a", "fusion_lat": 0.0, "rental_uris": {"ios": "https://dc.lft.to/lastmile_qr_scan", "android": "https://dc.lft.to/lastmile_qr_scan"}, "lon": -77.03528733333333, "type": "electric_scooter"}, {"bike_id": "8bf78d81715c5516a050d8e178de8d91", "is_reserved": 0, "fusion_lon": 0.0, "lat": 38.903330833333335, "is_disabled": 0, "name": "8bf78d81715c5516a050d8e178de8d91", "fusion_lat": 0.0, "rental_uris": {"ios": "https://dc.lft.to/lastmile_qr_scan", "android": "https://dc.lft.to/lastmile_qr_scan"}, "lon": -77.03777066666666, "type": "electric_scooter"}, {"bike_id": "72cd898cdc63d1e243b20ac3a3bd7a9b", "is_reserved": 0, "fusion_lon": 0.0, "lat": 38.9366955, "is_disabled": 0, "name": "72cd898cdc63d1e243b20ac3a3bd7a9b", "fusion_lat": 0.0, "rental_uris": {"ios": "https://dc.lft.to/lastmile_qr_scan", "android": "https://dc.lft.to/lastmile_qr_scan"}, "lon": -77.03633466666666, "type": "electric_scooter"}, {"bike_id": "a7c6316027118e0282f74afa6709a5ae", "is_reserved": 0, "fusion_lon": 0.0, "lat": 38.90432933333334, "is_disabled": 0, "name": "a7c6316027118e0282f74afa6709a5ae", "fusion_lat": 0.0, "rental_uris": {"ios": "https://dc.lft.to/lastmile_qr_scan", "android": "https://dc.lft.to/lastmile_qr_scan"}, "lon": -77.04856183333334, "type": "electric_scooter"}, {"bike_id": "5aab335ca7bc5af5da2b1320021be7dd", "is_reserved": 0, "fusion_lon": 0.0, "lat": 38.89869916666667, "is_disabled": 0, "name": "5aab335ca7bc5af5da2b1320021be7dd", "fusion_lat": 0.0, "rental_uris": {"ios": "https://dc.lft.to/lastmile_qr_scan", "android": "https://dc.lft.to/lastmile_qr_scan"}, "lon": -77.03271733333334, "type": "electric_scooter"}, {"bike_id": "4f675c1475747c3b1a6a2752ee103baa", "is_reserved": 0, "fusion_lon": 0.0, "lat": 38.913317666666664, "is_disabled": 0, "name": "4f675c1475747c3b1a6a2752ee103baa", "fusion_lat": 0.0, "rental_uris": {"ios": "https://dc.lft.to/lastmile_qr_scan", "android": "https://dc.lft.to/lastmile_qr_scan"}, "lon": -77.04875783333334, "type": "electric_scooter"}, {"bike_id": "922cd6a13e330d49b2809a0fb4b68afe", "is_reserved": 0, "fusion_lon": 0.0, "lat": 38.890318, "is_disabled": 0, "name": "922cd6a13e330d49b2809a0fb4b68afe", "fusion_lat": 0.0, "rental_uris": {"ios": "https://dc.lft.to/lastmile_qr_scan", "android": "https://dc.lft.to/lastmile_qr_scan"}, "lon": -76.93629066666666, "type": "electric_scooter"}, {"bike_id": "3ebb2769848e512e67da5be7b509237f", "is_reserved": 0, "fusion_lon": 0.0, "lat": 38.885190333333334, "is_disabled": 0, "name": "3ebb2769848e512e67da5be7b509237f", "fusion_lat": 0.0, "rental_uris": {"ios": "https://dc.lft.to/lastmile_qr_scan", "android": "https://dc.lft.to/lastmile_qr_scan"}, "lon": -77.0155135, "type": "electric_scooter"}, {"bike_id": "289c8fccae50708b6d46f65c9a5cdece", "is_reserved": 0, "fusion_lon": 0.0, "lat": 38.92374216666666, "is_disabled": 0, "name": "289c8fccae50708b6d46f65c9a5cdece", "fusion_lat": 0.0, "rental_uris": {"ios": "https://dc.lft.to/lastmile_qr_scan", "android": "https://dc.lft.to/lastmile_qr_scan"}, "lon": -77.2238285, "type": "electric_bike"}, {"bike_id": "b0ede62f2acc72b600a6608eda0b00fa", "is_reserved": 0, "fusion_lon": 0.0, "lat": 38.926302, "is_disabled": 0, "name": "b0ede62f2acc72b600a6608eda0b00fa", "fusion_lat": 0.0, "rental_uris": {"ios": "https://dc.lft.to/lastmile_qr_scan", "android": "https://dc.lft.to/lastmile_qr_scan"}, "lon": -77.03790433333333, "type": "electric_scooter"}, {"bike_id": "8e245aab5aa15ea616f0356b4e383a4f", "is_reserved": 0, "fusion_lon": 0.0, "lat": 38.85314116666667, "is_disabled": 0, "name": "8e245aab5aa15ea616f0356b4e383a4f", "fusion_lat": 0.0, "rental_uris": {"ios": "https://dc.lft.to/lastmile_qr_scan", "android": "https://dc.lft.to/lastmile_qr_scan"}, "lon": -76.98023366666666, "type": "electric_bike"}, {"bike_id": "fde64bd7d326a6d315af88e03fcef032", "is_reserved": 0, "fusion_lon": 0.0, "lat": 38.925849, "is_disabled": 0, "name": "fde64bd7d326a6d315af88e03fcef032", "fusion_lat": 0.0, "rental_uris": {"ios": "https://dc.lft.to/lastmile_qr_scan", "android": "https://dc.lft.to/lastmile_qr_scan"}, "lon": -77.00469716666667, "type": "electric_scooter"}, {"bike_id": "d49c58edf00b3c17b81cea23d4e75269", "is_reserved": 0, "fusion_lon": 0.0, "lat": 38.97091616666667, "is_disabled": 0, "name": "d49c58edf00b3c17b81cea23d4e75269", "fusion_lat": 0.0, "rental_uris": {"ios": "https://dc.lft.to/lastmile_qr_scan", "android": "https://dc.lft.to/lastmile_qr_scan"}, "lon": -77.06967516666667, "type": "electric_bike"}, {"bike_id": "95a29b7267d360b02e3e2eb9a185b7c2", "is_reserved": 0, "fusion_lon": 0.0, "lat": 38.893404, "is_disabled": 0, "name": "95a29b7267d360b02e3e2eb9a185b7c2", "fusion_lat": 0.0, "rental_uris": {"ios": "https://dc.lft.to/lastmile_qr_scan", "android": "https://dc.lft.to/lastmile_qr_scan"}, "lon": -76.98450366666667, "type": "electric_scooter"}, {"bike_id": "eb3df701b6c12f6011e51e5ff43e83ec", "is_reserved": 0, "fusion_lon": 0.0, "lat": 38.900113, "is_disabled": 0, "name": "eb3df701b6c12f6011e51e5ff43e83ec", "fusion_lat": 0.0, "rental_uris": {"ios": "https://dc.lft.to/lastmile_qr_scan", "android": "https://dc.lft.to/lastmile_qr_scan"}, "lon": -76.99123266666666, "type": "electric_scooter"}, {"bike_id": "31ad4c9f4847641b9b6badb2474379a0", "is_reserved": 0, "fusion_lon": 0.0, "lat": 38.91708066666666, "is_disabled": 0, "name": "31ad4c9f4847641b9b6badb2474379a0", "fusion_lat": 0.0, "rental_uris": {"ios": "https://dc.lft.to/lastmile_qr_scan", "android": "https://dc.lft.to/lastmile_qr_scan"}, "lon": -77.0346055, "type": "electric_scooter"}, {"bike_id": "3816f2d1f1a05190f82c7cd50f5446ca", "is_reserved": 0, "fusion_lon": 0.0, "lat": 38.93584283333333, "is_disabled": 0, "name": "3816f2d1f1a05190f82c7cd50f5446ca", "fusion_lat": 0.0, "rental_uris": {"ios": "https://dc.lft.to/lastmile_qr_scan", "android": "https://dc.lft.to/lastmile_qr_scan"}, "lon": -77.02768633333334, "type": "electric_scooter"}, {"bike_id": "cc01bfba03b3e8fb744989b4542c3a38", "is_reserved": 0, "fusion_lon": 0.0, "lat": 38.87627166666667, "is_disabled": 0, "name": "cc01bfba03b3e8fb744989b4542c3a38", "fusion_lat": 0.0, "rental_uris": {"ios": "https://dc.lft.to/lastmile_qr_scan", "android": "https://dc.lft.to/lastmile_qr_scan"}, "lon": -77.00427733333333, "type": "electric_scooter"}, {"bike_id": "caa0def2f49acfa2ed845b77e7e0cae5", "is_reserved": 0, "fusion_lon": 0.0, "lat": 38.92729416666667, "is_disabled": 0, "name": "caa0def2f49acfa2ed845b77e7e0cae5", "fusion_lat": 0.0, "rental_uris": {"ios": "https://dc.lft.to/lastmile_qr_scan", "android": "https://dc.lft.to/lastmile_qr_scan"}, "lon": -77.02962916666667, "type": "electric_scooter"}, {"bike_id": "bb0f489f35f56979e199ba38ae294103", "is_reserved": 0, "fusion_lon": 0.0, "lat": 38.913338, "is_disabled": 0, "name": "bb0f489f35f56979e199ba38ae294103", "fusion_lat": 0.0, "rental_uris": {"ios": "https://dc.lft.to/lastmile_qr_scan", "android": "https://dc.lft.to/lastmile_qr_scan"}, "lon": -77.04811783333334, "type": "electric_scooter"}, {"bike_id": "f3ec4bd080d9e0a54f95ea24b11780b7", "is_reserved": 0, "fusion_lon": 0.0, "lat": 38.9023585, "is_disabled": 0, "name": "f3ec4bd080d9e0a54f95ea24b11780b7", "fusion_lat": 0.0, "rental_uris": {"ios": "https://dc.lft.to/lastmile_qr_scan", "android": "https://dc.lft.to/lastmile_qr_scan"}, "lon": -77.00206766666666, "type": "electric_scooter"}, {"bike_id": "7761c795bd21bb7fbeabd57cf28fc57d", "is_reserved": 0, "fusion_lon": 0.0, "lat": 38.90026616666667, "is_disabled": 0, "name": "7761c795bd21bb7fbeabd57cf28fc57d", "fusion_lat": 0.0, "rental_uris": {"ios": "https://dc.lft.to/lastmile_qr_scan", "android": "https://dc.lft.to/lastmile_qr_scan"}, "lon": -77.033202, "type": "electric_scooter"}, {"bike_id": "1f7327f849499fa4c76b2825e062b365", "is_reserved": 0, "fusion_lon": 0.0, "lat": 38.898327333333334, "is_disabled": 0, "name": "1f7327f849499fa4c76b2825e062b365", "fusion_lat": 0.0, "rental_uris": {"ios": "https://dc.lft.to/lastmile_qr_scan", "android": "https://dc.lft.to/lastmile_qr_scan"}, "lon": -77.032102, "type": "electric_scooter"}, {"bike_id": "a99d517f794b5ebb89bcc8478457c0ea", "is_reserved": 0, "fusion_lon": 0.0, "lat": 38.903961333333335, "is_disabled": 0, "name": "a99d517f794b5ebb89bcc8478457c0ea", "fusion_lat": 0.0, "rental_uris": {"ios": "https://dc.lft.to/lastmile_qr_scan", "android": "https://dc.lft.to/lastmile_qr_scan"}, "lon": -77.04450066666666, "type": "electric_scooter"}, {"bike_id": "0e740bb30b47c2077dad9dc38148bc89", "is_reserved": 0, "fusion_lon": 0.0, "lat": 38.941777, "is_disabled": 0, "name": "0e740bb30b47c2077dad9dc38148bc89", "fusion_lat": 0.0, "rental_uris": {"ios": "https://dc.lft.to/lastmile_qr_scan", "android": "https://dc.lft.to/lastmile_qr_scan"}, "lon": -77.0365315, "type": "electric_scooter"}, {"bike_id": "4de2864ba17421a33e2134061bad1cf5", "is_reserved": 0, "fusion_lon": 0.0, "lat": 38.91744333333333, "is_disabled": 0, "name": "4de2864ba17421a33e2134061bad1cf5", "fusion_lat": 0.0, "rental_uris": {"ios": "https://dc.lft.to/lastmile_qr_scan", "android": "https://dc.lft.to/lastmile_qr_scan"}, "lon": -77.0440475, "type": "electric_scooter"}, {"bike_id": "a03e2a5b5eeefb261d5b5800af148187", "is_reserved": 0, "fusion_lon": 0.0, "lat": 38.919797833333334, "is_disabled": 0, "name": "a03e2a5b5eeefb261d5b5800af148187", "fusion_lat": 0.0, "rental_uris": {"ios": "https://dc.lft.to/lastmile_qr_scan", "android": "https://dc.lft.to/lastmile_qr_scan"}, "lon": -77.04443633333334, "type": "electric_scooter"}, {"bike_id": "535973955a655059aedb46ac34773e9c", "is_reserved": 0, "fusion_lon": 0.0, "lat": 38.88285416666667, "is_disabled": 0, "name": "535973955a655059aedb46ac34773e9c", "fusion_lat": 0.0, "rental_uris": {"ios": "https://dc.lft.to/lastmile_qr_scan", "android": "https://dc.lft.to/lastmile_qr_scan"}, "lon": -76.98617933333334, "type": "electric_scooter"}, {"bike_id": "7dcf07859c47345e68b6ea80cff6190b", "is_reserved": 0, "fusion_lon": 0.0, "lat": 38.90844833333333, "is_disabled": 0, "name": "7dcf07859c47345e68b6ea80cff6190b", "fusion_lat": 0.0, "rental_uris": {"ios": "https://dc.lft.to/lastmile_qr_scan", "android": "https://dc.lft.to/lastmile_qr_scan"}, "lon": -77.03204516666666, "type": "electric_scooter"}, {"bike_id": "a9d9c8284f6a8e6a34da31ca7badb3d3", "is_reserved": 0, "fusion_lon": 0.0, "lat": 38.90570266666667, "is_disabled": 0, "name": "a9d9c8284f6a8e6a34da31ca7badb3d3", "fusion_lat": 0.0, "rental_uris": {"ios": "https://dc.lft.to/lastmile_qr_scan", "android": "https://dc.lft.to/lastmile_qr_scan"}, "lon": -77.044709, "type": "electric_scooter"}, {"bike_id": "d509474df0c1cc5362c2c7f3f0f78986", "is_reserved": 0, "fusion_lon": 0.0, "lat": 38.8984945, "is_disabled": 0, "name": "d509474df0c1cc5362c2c7f3f0f78986", "fusion_lat": 0.0, "rental_uris": {"ios": "https://dc.lft.to/lastmile_qr_scan", "android": "https://dc.lft.to/lastmile_qr_scan"}, "lon": -76.98175633333334, "type": "electric_scooter"}, {"bike_id": "e7c026bb62f6fcaaa3e33331a7b445d1", "is_reserved": 0, "fusion_lon": 0.0, "lat": 39.05634366666666, "is_disabled": 0, "name": "e7c026bb62f6fcaaa3e33331a7b445d1", "fusion_lat": 0.0, "rental_uris": {"ios": "https://dc.lft.to/lastmile_qr_scan", "android": "https://dc.lft.to/lastmile_qr_scan"}, "lon": -77.12525966666666, "type": "electric_bike"}, {"bike_id": "2963b5b1fa89a3a922d4ffb930e431b9", "is_reserved": 0, "fusion_lon": 0.0, "lat": 38.90205266666667, "is_disabled": 0, "name": "2963b5b1fa89a3a922d4ffb930e431b9", "fusion_lat": 0.0, "rental_uris": {"ios": "https://dc.lft.to/lastmile_qr_scan", "android": "https://dc.lft.to/lastmile_qr_scan"}, "lon": -77.02327283333334, "type": "electric_scooter"}, {"bike_id": "ef6051be70cedf2eafcd66de07a784f1", "is_reserved": 0, "fusion_lon": 0.0, "lat": 38.9328005, "is_disabled": 0, "name": "ef6051be70cedf2eafcd66de07a784f1", "fusion_lat": 0.0, "rental_uris": {"ios": "https://dc.lft.to/lastmile_qr_scan", "android": "https://dc.lft.to/lastmile_qr_scan"}, "lon": -77.02972066666666, "type": "electric_scooter"}, {"bike_id": "ce1de86614f73e1603015656153b3394", "is_reserved": 0, "fusion_lon": 0.0, "lat": 38.9269915, "is_disabled": 0, "name": "ce1de86614f73e1603015656153b3394", "fusion_lat": 0.0, "rental_uris": {"ios": "https://dc.lft.to/lastmile_qr_scan", "android": "https://dc.lft.to/lastmile_qr_scan"}, "lon": -77.02085933333333, "type": "electric_scooter"}, {"bike_id": "f9f97186885458c14462e9072061b518", "is_reserved": 0, "fusion_lon": 0.0, "lat": 38.902647333333334, "is_disabled": 0, "name": "f9f97186885458c14462e9072061b518", "fusion_lat": 0.0, "rental_uris": {"ios": "https://dc.lft.to/lastmile_qr_scan", "android": "https://dc.lft.to/lastmile_qr_scan"}, "lon": -77.00327233333333, "type": "electric_scooter"}, {"bike_id": "4f828302d4d06b8395f58d3a7714b659", "is_reserved": 0, "fusion_lon": 0.0, "lat": 38.917245, "is_disabled": 0, "name": "4f828302d4d06b8395f58d3a7714b659", "fusion_lat": 0.0, "rental_uris": {"ios": "https://dc.lft.to/lastmile_qr_scan", "android": "https://dc.lft.to/lastmile_qr_scan"}, "lon": -77.0366215, "type": "electric_scooter"}, {"bike_id": "c128e00e285f7f97b263379f4a766120", "is_reserved": 0, "fusion_lon": 0.0, "lat": 38.8683065, "is_disabled": 0, "name": "c128e00e285f7f97b263379f4a766120", "fusion_lat": 0.0, "rental_uris": {"ios": "https://dc.lft.to/lastmile_qr_scan", "android": "https://dc.lft.to/lastmile_qr_scan"}, "lon": -76.986132, "type": "electric_scooter"}, {"bike_id": "6c918b53526d088c0dec1045f7971de0", "is_reserved": 0, "fusion_lon": 0.0, "lat": 38.88529066666667, "is_disabled": 0, "name": "6c918b53526d088c0dec1045f7971de0", "fusion_lat": 0.0, "rental_uris": {"ios": "https://dc.lft.to/lastmile_qr_scan", "android": "https://dc.lft.to/lastmile_qr_scan"}, "lon": -77.00585233333334, "type": "electric_scooter"}, {"bike_id": "2b200d6944b5056970c4ea3cf180c9a4", "is_reserved": 0, "fusion_lon": 0.0, "lat": 38.89782316666667, "is_disabled": 0, "name": "2b200d6944b5056970c4ea3cf180c9a4", "fusion_lat": 0.0, "rental_uris": {"ios": "https://dc.lft.to/lastmile_qr_scan", "android": "https://dc.lft.to/lastmile_qr_scan"}, "lon": -77.00755783333334, "type": "electric_bike"}, {"bike_id": "3e9ddcabbcdd2132b4bada1930eb247f", "is_reserved": 0, "fusion_lon": 0.0, "lat": 38.90856216666667, "is_disabled": 0, "name": "3e9ddcabbcdd2132b4bada1930eb247f", "fusion_lat": 0.0, "rental_uris": {"ios": "https://dc.lft.to/lastmile_qr_scan", "android": "https://dc.lft.to/lastmile_qr_scan"}, "lon": -77.02732066666667, "type": "electric_scooter"}, {"bike_id": "c3353040ffbd742a90d5a2a14b494fd3", "is_reserved": 0, "fusion_lon": 0.0, "lat": 38.91982983333333, "is_disabled": 0, "name": "c3353040ffbd742a90d5a2a14b494fd3", "fusion_lat": 0.0, "rental_uris": {"ios": "https://dc.lft.to/lastmile_qr_scan", "android": "https://dc.lft.to/lastmile_qr_scan"}, "lon": -77.04179733333334, "type": "electric_scooter"}, {"bike_id": "9a84e8ed6facbdde00812fdf9ce7536b", "is_reserved": 0, "fusion_lon": 0.0, "lat": 38.908986166666665, "is_disabled": 0, "name": "9a84e8ed6facbdde00812fdf9ce7536b", "fusion_lat": 0.0, "rental_uris": {"ios": "https://dc.lft.to/lastmile_qr_scan", "android": "https://dc.lft.to/lastmile_qr_scan"}, "lon": -77.0861985, "type": "electric_scooter"}, {"bike_id": "9bbc6a9e848630c78cf92271e5496f45", "is_reserved": 0, "fusion_lon": 0.0, "lat": 38.918529, "is_disabled": 0, "name": "9bbc6a9e848630c78cf92271e5496f45", "fusion_lat": 0.0, "rental_uris": {"ios": "https://dc.lft.to/lastmile_qr_scan", "android": "https://dc.lft.to/lastmile_qr_scan"}, "lon": -76.96090133333334, "type": "electric_bike"}, {"bike_id": "cc8a37e61972181b2ff7a6b174f699f3", "is_reserved": 0, "fusion_lon": 0.0, "lat": 38.892395666666665, "is_disabled": 0, "name": "cc8a37e61972181b2ff7a6b174f699f3", "fusion_lat": 0.0, "rental_uris": {"ios": "https://dc.lft.to/lastmile_qr_scan", "android": "https://dc.lft.to/lastmile_qr_scan"}, "lon": -77.03204183333334, "type": "electric_scooter"}, {"bike_id": "15ce2a7554033b2e8c1156e28f053376", "is_reserved": 0, "fusion_lon": 0.0, "lat": 38.903563166666665, "is_disabled": 0, "name": "15ce2a7554033b2e8c1156e28f053376", "fusion_lat": 0.0, "rental_uris": {"ios": "https://dc.lft.to/lastmile_qr_scan", "android": "https://dc.lft.to/lastmile_qr_scan"}, "lon": -77.03923166666667, "type": "electric_scooter"}, {"bike_id": "b42a6c26b55931c823722b37cc1ae6b3", "is_reserved": 0, "fusion_lon": 0.0, "lat": 38.906656, "is_disabled": 0, "name": "b42a6c26b55931c823722b37cc1ae6b3", "fusion_lat": 0.0, "rental_uris": {"ios": "https://dc.lft.to/lastmile_qr_scan", "android": "https://dc.lft.to/lastmile_qr_scan"}, "lon": -76.99956983333334, "type": "electric_bike"}, {"bike_id": "e1c822fa0dcfef535cf881fe23d34029", "is_reserved": 0, "fusion_lon": 0.0, "lat": 38.82442833333333, "is_disabled": 0, "name": "e1c822fa0dcfef535cf881fe23d34029", "fusion_lat": 0.0, "rental_uris": {"ios": "https://dc.lft.to/lastmile_qr_scan", "android": "https://dc.lft.to/lastmile_qr_scan"}, "lon": -77.07049233333333, "type": "electric_bike"}, {"bike_id": "68a6672791afaa50c7cf83fc31aa88a6", "is_reserved": 0, "fusion_lon": 0.0, "lat": 38.9240425, "is_disabled": 0, "name": "68a6672791afaa50c7cf83fc31aa88a6", "fusion_lat": 0.0, "rental_uris": {"ios": "https://dc.lft.to/lastmile_qr_scan", "android": "https://dc.lft.to/lastmile_qr_scan"}, "lon": -77.051696, "type": "electric_scooter"}, {"bike_id": "cc2a8ba099af32e90431dd249437191b", "is_reserved": 0, "fusion_lon": 0.0, "lat": 38.902796, "is_disabled": 0, "name": "cc2a8ba099af32e90431dd249437191b", "fusion_lat": 0.0, "rental_uris": {"ios": "https://dc.lft.to/lastmile_qr_scan", "android": "https://dc.lft.to/lastmile_qr_scan"}, "lon": -77.03653083333333, "type": "electric_scooter"}, {"bike_id": "046768da07bbfd5c00b6391462729ca6", "is_reserved": 0, "fusion_lon": 0.0, "lat": 38.880052166666665, "is_disabled": 0, "name": "046768da07bbfd5c00b6391462729ca6", "fusion_lat": 0.0, "rental_uris": {"ios": "https://dc.lft.to/lastmile_qr_scan", "android": "https://dc.lft.to/lastmile_qr_scan"}, "lon": -76.9159495, "type": "electric_bike"}, {"bike_id": "4eb91342d3f183496ca7f94f4755608a", "is_reserved": 0, "fusion_lon": 0.0, "lat": 38.9554955, "is_disabled": 0, "name": "4eb91342d3f183496ca7f94f4755608a", "fusion_lat": 0.0, "rental_uris": {"ios": "https://dc.lft.to/lastmile_qr_scan", "android": "https://dc.lft.to/lastmile_qr_scan"}, "lon": -76.940172, "type": "electric_bike"}, {"bike_id": "4812cef14fb1226681a22013c3806084", "is_reserved": 0, "fusion_lon": 0.0, "lat": 38.933279, "is_disabled": 0, "name": "4812cef14fb1226681a22013c3806084", "fusion_lat": 0.0, "rental_uris": {"ios": "https://dc.lft.to/lastmile_qr_scan", "android": "https://dc.lft.to/lastmile_qr_scan"}, "lon": -77.04202566666666, "type": "electric_bike"}, {"bike_id": "ebcb7838effbc674d9644521fca3fbc3", "is_reserved": 0, "fusion_lon": 0.0, "lat": 38.92226766666667, "is_disabled": 0, "name": "ebcb7838effbc674d9644521fca3fbc3", "fusion_lat": 0.0, "rental_uris": {"ios": "https://dc.lft.to/lastmile_qr_scan", "android": "https://dc.lft.to/lastmile_qr_scan"}, "lon": -77.04126133333334, "type": "electric_scooter"}, {"bike_id": "feee8102d0642135b05d1863ce3f53c3", "is_reserved": 0, "fusion_lon": 0.0, "lat": 38.880038166666665, "is_disabled": 0, "name": "feee8102d0642135b05d1863ce3f53c3", "fusion_lat": 0.0, "rental_uris": {"ios": "https://dc.lft.to/lastmile_qr_scan", "android": "https://dc.lft.to/lastmile_qr_scan"}, "lon": -76.99499833333333, "type": "electric_scooter"}, {"bike_id": "ccf0854d7a8cbf527fad4b17b3a3f1cb", "is_reserved": 0, "fusion_lon": 0.0, "lat": 38.908452, "is_disabled": 0, "name": "ccf0854d7a8cbf527fad4b17b3a3f1cb", "fusion_lat": 0.0, "rental_uris": {"ios": "https://dc.lft.to/lastmile_qr_scan", "android": "https://dc.lft.to/lastmile_qr_scan"}, "lon": -77.08532533333333, "type": "electric_scooter"}, {"bike_id": "17d4b502d8e8e5c978e84eabd8786234", "is_reserved": 0, "fusion_lon": 0.0, "lat": 38.90382316666667, "is_disabled": 0, "name": "17d4b502d8e8e5c978e84eabd8786234", "fusion_lat": 0.0, "rental_uris": {"ios": "https://dc.lft.to/lastmile_qr_scan", "android": "https://dc.lft.to/lastmile_qr_scan"}, "lon": -77.043681, "type": "electric_scooter"}, {"bike_id": "621eef2f6acd2dbf841799c97d9172ea", "is_reserved": 0, "fusion_lon": 0.0, "lat": 38.90244416666667, "is_disabled": 0, "name": "621eef2f6acd2dbf841799c97d9172ea", "fusion_lat": 0.0, "rental_uris": {"ios": "https://dc.lft.to/lastmile_qr_scan", "android": "https://dc.lft.to/lastmile_qr_scan"}, "lon": -77.060815, "type": "electric_scooter"}, {"bike_id": "64fdab97e25b96c678874e41b39da6ab", "is_reserved": 0, "fusion_lon": 0.0, "lat": 38.917027166666664, "is_disabled": 0, "name": "64fdab97e25b96c678874e41b39da6ab", "fusion_lat": 0.0, "rental_uris": {"ios": "https://dc.lft.to/lastmile_qr_scan", "android": "https://dc.lft.to/lastmile_qr_scan"}, "lon": -77.04173683333333, "type": "electric_scooter"}, {"bike_id": "a016aefb47eaf3789e4402c0607c5786", "is_reserved": 0, "fusion_lon": 0.0, "lat": 38.9001375, "is_disabled": 0, "name": "a016aefb47eaf3789e4402c0607c5786", "fusion_lat": 0.0, "rental_uris": {"ios": "https://dc.lft.to/lastmile_qr_scan", "android": "https://dc.lft.to/lastmile_qr_scan"}, "lon": -76.9731155, "type": "electric_scooter"}, {"bike_id": "101518244f8e016ef49281cef98e7519", "is_reserved": 0, "fusion_lon": 0.0, "lat": 38.900403833333336, "is_disabled": 0, "name": "101518244f8e016ef49281cef98e7519", "fusion_lat": 0.0, "rental_uris": {"ios": "https://dc.lft.to/lastmile_qr_scan", "android": "https://dc.lft.to/lastmile_qr_scan"}, "lon": -77.00216016666667, "type": "electric_scooter"}, {"bike_id": "38e1d7a93869a5ffbd80e592bfd03778", "is_reserved": 0, "fusion_lon": 0.0, "lat": 38.89943533333334, "is_disabled": 0, "name": "38e1d7a93869a5ffbd80e592bfd03778", "fusion_lat": 0.0, "rental_uris": {"ios": "https://dc.lft.to/lastmile_qr_scan", "android": "https://dc.lft.to/lastmile_qr_scan"}, "lon": -77.0035405, "type": "electric_scooter"}, {"bike_id": "c180a18a7206536144563b7a0eff3da6", "is_reserved": 0, "fusion_lon": 0.0, "lat": 38.914348333333336, "is_disabled": 0, "name": "c180a18a7206536144563b7a0eff3da6", "fusion_lat": 0.0, "rental_uris": {"ios": "https://dc.lft.to/lastmile_qr_scan", "android": "https://dc.lft.to/lastmile_qr_scan"}, "lon": -77.003434, "type": "electric_scooter"}, {"bike_id": "056423a35daa10fa0c6d43357fe83b5e", "is_reserved": 0, "fusion_lon": 0.0, "lat": 38.92874166666667, "is_disabled": 0, "name": "056423a35daa10fa0c6d43357fe83b5e", "fusion_lat": 0.0, "rental_uris": {"ios": "https://dc.lft.to/lastmile_qr_scan", "android": "https://dc.lft.to/lastmile_qr_scan"}, "lon": -77.05477033333334, "type": "electric_scooter"}, {"bike_id": "5b30f81cb556f52dcf1ed449790e9b89", "is_reserved": 0, "fusion_lon": 0.0, "lat": 38.95630533333333, "is_disabled": 0, "name": "5b30f81cb556f52dcf1ed449790e9b89", "fusion_lat": 0.0, "rental_uris": {"ios": "https://dc.lft.to/lastmile_qr_scan", "android": "https://dc.lft.to/lastmile_qr_scan"}, "lon": -76.96661883333333, "type": "electric_bike"}, {"bike_id": "53b87fd7bf27d8676a4396882267cb61", "is_reserved": 0, "fusion_lon": 0.0, "lat": 38.99819566666667, "is_disabled": 0, "name": "53b87fd7bf27d8676a4396882267cb61", "fusion_lat": 0.0, "rental_uris": {"ios": "https://dc.lft.to/lastmile_qr_scan", "android": "https://dc.lft.to/lastmile_qr_scan"}, "lon": -76.88371766666667, "type": "electric_bike"}, {"bike_id": "b351b0868802b1716a943423d7f02b8f", "is_reserved": 0, "fusion_lon": 0.0, "lat": 38.941734833333335, "is_disabled": 0, "name": "b351b0868802b1716a943423d7f02b8f", "fusion_lat": 0.0, "rental_uris": {"ios": "https://dc.lft.to/lastmile_qr_scan", "android": "https://dc.lft.to/lastmile_qr_scan"}, "lon": -77.04129383333333, "type": "electric_scooter"}, {"bike_id": "ae33e0a555ec2d1cb0d081709b8e898a", "is_reserved": 0, "fusion_lon": 0.0, "lat": 38.9033365, "is_disabled": 0, "name": "ae33e0a555ec2d1cb0d081709b8e898a", "fusion_lat": 0.0, "rental_uris": {"ios": "https://dc.lft.to/lastmile_qr_scan", "android": "https://dc.lft.to/lastmile_qr_scan"}, "lon": -77.0664295, "type": "electric_scooter"}, {"bike_id": "ed237ee88dda88e1c6aaed1ee6f1f5f1", "is_reserved": 0, "fusion_lon": 0.0, "lat": 38.92154416666666, "is_disabled": 0, "name": "ed237ee88dda88e1c6aaed1ee6f1f5f1", "fusion_lat": 0.0, "rental_uris": {"ios": "https://dc.lft.to/lastmile_qr_scan", "android": "https://dc.lft.to/lastmile_qr_scan"}, "lon": -77.03486183333334, "type": "electric_scooter"}, {"bike_id": "b0e0e30608e62c1bb1de6509ccb69499", "is_reserved": 0, "fusion_lon": 0.0, "lat": 38.91048816666667, "is_disabled": 0, "name": "b0e0e30608e62c1bb1de6509ccb69499", "fusion_lat": 0.0, "rental_uris": {"ios": "https://dc.lft.to/lastmile_qr_scan", "android": "https://dc.lft.to/lastmile_qr_scan"}, "lon": -77.04824866666667, "type": "electric_scooter"}, {"bike_id": "9d60d47c94adef62bcd1d64b4dac8b3a", "is_reserved": 0, "fusion_lon": 0.0, "lat": 38.92893883333333, "is_disabled": 0, "name": "9d60d47c94adef62bcd1d64b4dac8b3a", "fusion_lat": 0.0, "rental_uris": {"ios": "https://dc.lft.to/lastmile_qr_scan", "android": "https://dc.lft.to/lastmile_qr_scan"}, "lon": -77.05464233333333, "type": "electric_scooter"}, {"bike_id": "d018f3dc350cc5c9d00d8fd19325b567", "is_reserved": 0, "fusion_lon": 0.0, "lat": 38.8987765, "is_disabled": 0, "name": "d018f3dc350cc5c9d00d8fd19325b567", "fusion_lat": 0.0, "rental_uris": {"ios": "https://dc.lft.to/lastmile_qr_scan", "android": "https://dc.lft.to/lastmile_qr_scan"}, "lon": -76.931603, "type": "electric_scooter"}, {"bike_id": "c29cb8589f4e3efad4673dbbb763ba61", "is_reserved": 0, "fusion_lon": 0.0, "lat": 38.85632483333333, "is_disabled": 0, "name": "c29cb8589f4e3efad4673dbbb763ba61", "fusion_lat": 0.0, "rental_uris": {"ios": "https://dc.lft.to/lastmile_qr_scan", "android": "https://dc.lft.to/lastmile_qr_scan"}, "lon": -76.97455266666667, "type": "electric_scooter"}, {"bike_id": "db39f002394d51a55e487688c6737764", "is_reserved": 0, "fusion_lon": 0.0, "lat": 38.90361633333333, "is_disabled": 0, "name": "db39f002394d51a55e487688c6737764", "fusion_lat": 0.0, "rental_uris": {"ios": "https://dc.lft.to/lastmile_qr_scan", "android": "https://dc.lft.to/lastmile_qr_scan"}, "lon": -77.01102133333333, "type": "electric_scooter"}, {"bike_id": "7de65e12678c8ad5f9a14d9f67f86694", "is_reserved": 0, "fusion_lon": 0.0, "lat": 38.91272, "is_disabled": 0, "name": "7de65e12678c8ad5f9a14d9f67f86694", "fusion_lat": 0.0, "rental_uris": {"ios": "https://dc.lft.to/lastmile_qr_scan", "android": "https://dc.lft.to/lastmile_qr_scan"}, "lon": -77.0221155, "type": "electric_scooter"}, {"bike_id": "27a61b0a4286d22f9005b8d0f6509c2b", "is_reserved": 0, "fusion_lon": 0.0, "lat": 38.923056, "is_disabled": 0, "name": "27a61b0a4286d22f9005b8d0f6509c2b", "fusion_lat": 0.0, "rental_uris": {"ios": "https://dc.lft.to/lastmile_qr_scan", "android": "https://dc.lft.to/lastmile_qr_scan"}, "lon": -77.03860833333333, "type": "electric_scooter"}, {"bike_id": "d8ef6b80a35b7818216163904ce6ff99", "is_reserved": 0, "fusion_lon": 0.0, "lat": 38.90570116666667, "is_disabled": 0, "name": "d8ef6b80a35b7818216163904ce6ff99", "fusion_lat": 0.0, "rental_uris": {"ios": "https://dc.lft.to/lastmile_qr_scan", "android": "https://dc.lft.to/lastmile_qr_scan"}, "lon": -77.03635033333333, "type": "electric_scooter"}, {"bike_id": "3dfc9675a848858e15cde2aeb3dea401", "is_reserved": 0, "fusion_lon": 0.0, "lat": 38.9578135, "is_disabled": 0, "name": "3dfc9675a848858e15cde2aeb3dea401", "fusion_lat": 0.0, "rental_uris": {"ios": "https://dc.lft.to/lastmile_qr_scan", "android": "https://dc.lft.to/lastmile_qr_scan"}, "lon": -77.02748383333333, "type": "electric_bike"}, {"bike_id": "6f809634410565dcbc9f5bb4fe6f964a", "is_reserved": 0, "fusion_lon": 0.0, "lat": 38.907476833333334, "is_disabled": 0, "name": "6f809634410565dcbc9f5bb4fe6f964a", "fusion_lat": 0.0, "rental_uris": {"ios": "https://dc.lft.to/lastmile_qr_scan", "android": "https://dc.lft.to/lastmile_qr_scan"}, "lon": -76.99988216666667, "type": "electric_scooter"}, {"bike_id": "1be95ac108c358d12b1467603ade1030", "is_reserved": 0, "fusion_lon": 0.0, "lat": 38.89647, "is_disabled": 0, "name": "1be95ac108c358d12b1467603ade1030", "fusion_lat": 0.0, "rental_uris": {"ios": "https://dc.lft.to/lastmile_qr_scan", "android": "https://dc.lft.to/lastmile_qr_scan"}, "lon": -77.02947083333333, "type": "electric_scooter"}, {"bike_id": "67e82761c39bc513fe0b989fdc6f7727", "is_reserved": 0, "fusion_lon": 0.0, "lat": 38.91971516666667, "is_disabled": 0, "name": "67e82761c39bc513fe0b989fdc6f7727", "fusion_lat": 0.0, "rental_uris": {"ios": "https://dc.lft.to/lastmile_qr_scan", "android": "https://dc.lft.to/lastmile_qr_scan"}, "lon": -77.00105666666667, "type": "electric_scooter"}, {"bike_id": "03f67f59377d3e13abe09ab28b77610f", "is_reserved": 0, "fusion_lon": 0.0, "lat": 38.9233975, "is_disabled": 0, "name": "03f67f59377d3e13abe09ab28b77610f", "fusion_lat": 0.0, "rental_uris": {"ios": "https://dc.lft.to/lastmile_qr_scan", "android": "https://dc.lft.to/lastmile_qr_scan"}, "lon": -77.01903366666667, "type": "electric_scooter"}, {"bike_id": "61b5f0478770dfd67b4a7d2c2a933b2f", "is_reserved": 0, "fusion_lon": 0.0, "lat": 38.926314166666664, "is_disabled": 0, "name": "61b5f0478770dfd67b4a7d2c2a933b2f", "fusion_lat": 0.0, "rental_uris": {"ios": "https://dc.lft.to/lastmile_qr_scan", "android": "https://dc.lft.to/lastmile_qr_scan"}, "lon": -77.03510633333333, "type": "electric_scooter"}, {"bike_id": "7887b1ca98700280a29c955a7cd92fbd", "is_reserved": 0, "fusion_lon": 0.0, "lat": 38.920616833333334, "is_disabled": 0, "name": "7887b1ca98700280a29c955a7cd92fbd", "fusion_lat": 0.0, "rental_uris": {"ios": "https://dc.lft.to/lastmile_qr_scan", "android": "https://dc.lft.to/lastmile_qr_scan"}, "lon": -76.97805683333333, "type": "electric_scooter"}, {"bike_id": "3c649885e3bed40aa188b59317d68707", "is_reserved": 0, "fusion_lon": 0.0, "lat": 38.941539166666665, "is_disabled": 0, "name": "3c649885e3bed40aa188b59317d68707", "fusion_lat": 0.0, "rental_uris": {"ios": "https://dc.lft.to/lastmile_qr_scan", "android": "https://dc.lft.to/lastmile_qr_scan"}, "lon": -77.00193316666666, "type": "electric_bike"}, {"bike_id": "a450807bbff854ee05782de32729c8f3", "is_reserved": 0, "fusion_lon": 0.0, "lat": 38.905848, "is_disabled": 0, "name": "a450807bbff854ee05782de32729c8f3", "fusion_lat": 0.0, "rental_uris": {"ios": "https://dc.lft.to/lastmile_qr_scan", "android": "https://dc.lft.to/lastmile_qr_scan"}, "lon": -77.065225, "type": "electric_scooter"}, {"bike_id": "b1b671466817eeb4931185177a211a46", "is_reserved": 0, "fusion_lon": 0.0, "lat": 38.92333466666667, "is_disabled": 0, "name": "b1b671466817eeb4931185177a211a46", "fusion_lat": 0.0, "rental_uris": {"ios": "https://dc.lft.to/lastmile_qr_scan", "android": "https://dc.lft.to/lastmile_qr_scan"}, "lon": -77.043931, "type": "electric_scooter"}, {"bike_id": "446b900c2226a264fc995786caa1736c", "is_reserved": 0, "fusion_lon": 0.0, "lat": 38.9050735, "is_disabled": 0, "name": "446b900c2226a264fc995786caa1736c", "fusion_lat": 0.0, "rental_uris": {"ios": "https://dc.lft.to/lastmile_qr_scan", "android": "https://dc.lft.to/lastmile_qr_scan"}, "lon": -77.06382966666666, "type": "electric_scooter"}, {"bike_id": "d84b98997c4989fa34449bb46511e300", "is_reserved": 0, "fusion_lon": 0.0, "lat": 38.8977665, "is_disabled": 0, "name": "d84b98997c4989fa34449bb46511e300", "fusion_lat": 0.0, "rental_uris": {"ios": "https://dc.lft.to/lastmile_qr_scan", "android": "https://dc.lft.to/lastmile_qr_scan"}, "lon": -76.97731183333333, "type": "electric_scooter"}, {"bike_id": "b13e0fc6f7eafd78d3c224b4c38c7798", "is_reserved": 0, "fusion_lon": 0.0, "lat": 38.898759166666665, "is_disabled": 0, "name": "b13e0fc6f7eafd78d3c224b4c38c7798", "fusion_lat": 0.0, "rental_uris": {"ios": "https://dc.lft.to/lastmile_qr_scan", "android": "https://dc.lft.to/lastmile_qr_scan"}, "lon": -76.931614, "type": "electric_scooter"}, {"bike_id": "2d42845344803a5741a526914782c689", "is_reserved": 0, "fusion_lon": 0.0, "lat": 38.93331116666667, "is_disabled": 0, "name": "2d42845344803a5741a526914782c689", "fusion_lat": 0.0, "rental_uris": {"ios": "https://dc.lft.to/lastmile_qr_scan", "android": "https://dc.lft.to/lastmile_qr_scan"}, "lon": -77.03273333333334, "type": "electric_scooter"}, {"bike_id": "25518bf97237f11b9e803d23a2dbb2ed", "is_reserved": 0, "fusion_lon": 0.0, "lat": 38.86371583333333, "is_disabled": 0, "name": "25518bf97237f11b9e803d23a2dbb2ed", "fusion_lat": 0.0, "rental_uris": {"ios": "https://dc.lft.to/lastmile_qr_scan", "android": "https://dc.lft.to/lastmile_qr_scan"}, "lon": -76.990591, "type": "electric_scooter"}, {"bike_id": "3c7a5eab0d662be95bb5826d55efb4c9", "is_reserved": 0, "fusion_lon": 0.0, "lat": 38.920299166666666, "is_disabled": 0, "name": "3c7a5eab0d662be95bb5826d55efb4c9", "fusion_lat": 0.0, "rental_uris": {"ios": "https://dc.lft.to/lastmile_qr_scan", "android": "https://dc.lft.to/lastmile_qr_scan"}, "lon": -77.031225, "type": "electric_scooter"}, {"bike_id": "107ff9c9326e1e00f235e671ae3b814b", "is_reserved": 0, "fusion_lon": 0.0, "lat": 38.893640166666664, "is_disabled": 0, "name": "107ff9c9326e1e00f235e671ae3b814b", "fusion_lat": 0.0, "rental_uris": {"ios": "https://dc.lft.to/lastmile_qr_scan", "android": "https://dc.lft.to/lastmile_qr_scan"}, "lon": -76.9851695, "type": "electric_bike"}, {"bike_id": "f96fc1e95503c67945537c6695aeb5dc", "is_reserved": 0, "fusion_lon": 0.0, "lat": 38.899561, "is_disabled": 0, "name": "f96fc1e95503c67945537c6695aeb5dc", "fusion_lat": 0.0, "rental_uris": {"ios": "https://dc.lft.to/lastmile_qr_scan", "android": "https://dc.lft.to/lastmile_qr_scan"}, "lon": -77.033516, "type": "electric_scooter"}, {"bike_id": "54d32660e82f54cf7bec72631c853e2a", "is_reserved": 0, "fusion_lon": 0.0, "lat": 38.901321833333334, "is_disabled": 0, "name": "54d32660e82f54cf7bec72631c853e2a", "fusion_lat": 0.0, "rental_uris": {"ios": "https://dc.lft.to/lastmile_qr_scan", "android": "https://dc.lft.to/lastmile_qr_scan"}, "lon": -76.9807895, "type": "electric_scooter"}, {"bike_id": "04e3ecfad3a3e60b814e96406f03fb93", "is_reserved": 0, "fusion_lon": 0.0, "lat": 38.90256316666667, "is_disabled": 0, "name": "04e3ecfad3a3e60b814e96406f03fb93", "fusion_lat": 0.0, "rental_uris": {"ios": "https://dc.lft.to/lastmile_qr_scan", "android": "https://dc.lft.to/lastmile_qr_scan"}, "lon": -77.03848233333333, "type": "electric_scooter"}, {"bike_id": "305e463a6f9d50dc7e892c927be2e347", "is_reserved": 0, "fusion_lon": 0.0, "lat": 38.89879483333333, "is_disabled": 0, "name": "305e463a6f9d50dc7e892c927be2e347", "fusion_lat": 0.0, "rental_uris": {"ios": "https://dc.lft.to/lastmile_qr_scan", "android": "https://dc.lft.to/lastmile_qr_scan"}, "lon": -77.03930816666667, "type": "electric_scooter"}, {"bike_id": "9d9b89df0a5765fe49f658706965af9a", "is_reserved": 0, "fusion_lon": 0.0, "lat": 38.8972775, "is_disabled": 0, "name": "9d9b89df0a5765fe49f658706965af9a", "fusion_lat": 0.0, "rental_uris": {"ios": "https://dc.lft.to/lastmile_qr_scan", "android": "https://dc.lft.to/lastmile_qr_scan"}, "lon": -77.04330333333333, "type": "electric_scooter"}, {"bike_id": "6c145c440858cdb243ad053505663e0c", "is_reserved": 0, "fusion_lon": 0.0, "lat": 38.93354166666667, "is_disabled": 0, "name": "6c145c440858cdb243ad053505663e0c", "fusion_lat": 0.0, "rental_uris": {"ios": "https://dc.lft.to/lastmile_qr_scan", "android": "https://dc.lft.to/lastmile_qr_scan"}, "lon": -77.06936816666666, "type": "electric_scooter"}, {"bike_id": "a5d740cda48ee8ef9ba069146261a146", "is_reserved": 0, "fusion_lon": 0.0, "lat": 38.885293833333336, "is_disabled": 0, "name": "a5d740cda48ee8ef9ba069146261a146", "fusion_lat": 0.0, "rental_uris": {"ios": "https://dc.lft.to/lastmile_qr_scan", "android": "https://dc.lft.to/lastmile_qr_scan"}, "lon": -77.00581616666666, "type": "electric_scooter"}, {"bike_id": "6d2b8dccc98b233b3430834ea6f8e428", "is_reserved": 0, "fusion_lon": 0.0, "lat": 38.919935, "is_disabled": 0, "name": "6d2b8dccc98b233b3430834ea6f8e428", "fusion_lat": 0.0, "rental_uris": {"ios": "https://dc.lft.to/lastmile_qr_scan", "android": "https://dc.lft.to/lastmile_qr_scan"}, "lon": -77.03468816666667, "type": "electric_scooter"}, {"bike_id": "cab7e572e743e686de082c9b6bb470ba", "is_reserved": 0, "fusion_lon": 0.0, "lat": 38.900219166666666, "is_disabled": 0, "name": "cab7e572e743e686de082c9b6bb470ba", "fusion_lat": 0.0, "rental_uris": {"ios": "https://dc.lft.to/lastmile_qr_scan", "android": "https://dc.lft.to/lastmile_qr_scan"}, "lon": -76.99793416666667, "type": "electric_scooter"}, {"bike_id": "f054f0edf6de653072613717f587deaf", "is_reserved": 0, "fusion_lon": 0.0, "lat": 38.912167, "is_disabled": 0, "name": "f054f0edf6de653072613717f587deaf", "fusion_lat": 0.0, "rental_uris": {"ios": "https://dc.lft.to/lastmile_qr_scan", "android": "https://dc.lft.to/lastmile_qr_scan"}, "lon": -77.0279865, "type": "electric_scooter"}, {"bike_id": "1f0679e04eed8c31dcb8afc806170d39", "is_reserved": 0, "fusion_lon": 0.0, "lat": 38.8953975, "is_disabled": 0, "name": "1f0679e04eed8c31dcb8afc806170d39", "fusion_lat": 0.0, "rental_uris": {"ios": "https://dc.lft.to/lastmile_qr_scan", "android": "https://dc.lft.to/lastmile_qr_scan"}, "lon": -77.0334215, "type": "electric_scooter"}, {"bike_id": "46e5677d5858a1a3b6adcce8369b94da", "is_reserved": 0, "fusion_lon": 0.0, "lat": 38.89880633333333, "is_disabled": 0, "name": "46e5677d5858a1a3b6adcce8369b94da", "fusion_lat": 0.0, "rental_uris": {"ios": "https://dc.lft.to/lastmile_qr_scan", "android": "https://dc.lft.to/lastmile_qr_scan"}, "lon": -77.03928716666667, "type": "electric_scooter"}, {"bike_id": "9659d1cad151f5fd84470930c32ae732", "is_reserved": 0, "fusion_lon": 0.0, "lat": 38.96490816666667, "is_disabled": 0, "name": "9659d1cad151f5fd84470930c32ae732", "fusion_lat": 0.0, "rental_uris": {"ios": "https://dc.lft.to/lastmile_qr_scan", "android": "https://dc.lft.to/lastmile_qr_scan"}, "lon": -77.06485933333333, "type": "electric_bike"}, {"bike_id": "58572d5b05b361e2148c2ce77f411940", "is_reserved": 0, "fusion_lon": 0.0, "lat": 38.91773116666667, "is_disabled": 0, "name": "58572d5b05b361e2148c2ce77f411940", "fusion_lat": 0.0, "rental_uris": {"ios": "https://dc.lft.to/lastmile_qr_scan", "android": "https://dc.lft.to/lastmile_qr_scan"}, "lon": -77.015044, "type": "electric_scooter"}, {"bike_id": "321875f6acf3479f415d3c409c3ebee1", "is_reserved": 0, "fusion_lon": 0.0, "lat": 38.931491, "is_disabled": 0, "name": "321875f6acf3479f415d3c409c3ebee1", "fusion_lat": 0.0, "rental_uris": {"ios": "https://dc.lft.to/lastmile_qr_scan", "android": "https://dc.lft.to/lastmile_qr_scan"}, "lon": -77.05708433333334, "type": "electric_scooter"}, {"bike_id": "6ce80f50af4299454ed00ef9819a38b1", "is_reserved": 0, "fusion_lon": 0.0, "lat": 38.89059366666667, "is_disabled": 0, "name": "6ce80f50af4299454ed00ef9819a38b1", "fusion_lat": 0.0, "rental_uris": {"ios": "https://dc.lft.to/lastmile_qr_scan", "android": "https://dc.lft.to/lastmile_qr_scan"}, "lon": -77.0230325, "type": "electric_scooter"}, {"bike_id": "b1ce2320688c1a7235abb7b4f852206f", "is_reserved": 0, "fusion_lon": 0.0, "lat": 38.89852316666666, "is_disabled": 0, "name": "b1ce2320688c1a7235abb7b4f852206f", "fusion_lat": 0.0, "rental_uris": {"ios": "https://dc.lft.to/lastmile_qr_scan", "android": "https://dc.lft.to/lastmile_qr_scan"}, "lon": -77.0116015, "type": "electric_scooter"}, {"bike_id": "17f46188a5400895a8acacaef06c5fe3", "is_reserved": 0, "fusion_lon": 0.0, "lat": 38.88433333333333, "is_disabled": 0, "name": "17f46188a5400895a8acacaef06c5fe3", "fusion_lat": 0.0, "rental_uris": {"ios": "https://dc.lft.to/lastmile_qr_scan", "android": "https://dc.lft.to/lastmile_qr_scan"}, "lon": -76.95755533333333, "type": "electric_scooter"}, {"bike_id": "cc3b5f9c360fd3e55fdb6ec1183f9db6", "is_reserved": 0, "fusion_lon": 0.0, "lat": 38.91838716666667, "is_disabled": 0, "name": "cc3b5f9c360fd3e55fdb6ec1183f9db6", "fusion_lat": 0.0, "rental_uris": {"ios": "https://dc.lft.to/lastmile_qr_scan", "android": "https://dc.lft.to/lastmile_qr_scan"}, "lon": -77.03899183333333, "type": "electric_scooter"}, {"bike_id": "abfaabf357192b8f264251418b988334", "is_reserved": 0, "fusion_lon": 0.0, "lat": 38.864119333333335, "is_disabled": 0, "name": "abfaabf357192b8f264251418b988334", "fusion_lat": 0.0, "rental_uris": {"ios": "https://dc.lft.to/lastmile_qr_scan", "android": "https://dc.lft.to/lastmile_qr_scan"}, "lon": -77.0136035, "type": "electric_scooter"}, {"bike_id": "feb998a2e50ddaf0924070da4ee18d27", "is_reserved": 0, "fusion_lon": 0.0, "lat": 38.909668833333335, "is_disabled": 0, "name": "feb998a2e50ddaf0924070da4ee18d27", "fusion_lat": 0.0, "rental_uris": {"ios": "https://dc.lft.to/lastmile_qr_scan", "android": "https://dc.lft.to/lastmile_qr_scan"}, "lon": -77.0342755, "type": "electric_scooter"}, {"bike_id": "8b3ed0b2a5eade9c64f575a6df01001f", "is_reserved": 0, "fusion_lon": 0.0, "lat": 38.91679083333333, "is_disabled": 0, "name": "8b3ed0b2a5eade9c64f575a6df01001f", "fusion_lat": 0.0, "rental_uris": {"ios": "https://dc.lft.to/lastmile_qr_scan", "android": "https://dc.lft.to/lastmile_qr_scan"}, "lon": -77.036421, "type": "electric_scooter"}, {"bike_id": "66ead124307cc425d827d756600baa38", "is_reserved": 0, "fusion_lon": 0.0, "lat": 38.90168533333333, "is_disabled": 0, "name": "66ead124307cc425d827d756600baa38", "fusion_lat": 0.0, "rental_uris": {"ios": "https://dc.lft.to/lastmile_qr_scan", "android": "https://dc.lft.to/lastmile_qr_scan"}, "lon": -77.00007116666667, "type": "electric_scooter"}, {"bike_id": "e2ff97b981efa0cdc62e6b2b4308e9ce", "is_reserved": 0, "fusion_lon": 0.0, "lat": 38.958095166666666, "is_disabled": 0, "name": "e2ff97b981efa0cdc62e6b2b4308e9ce", "fusion_lat": 0.0, "rental_uris": {"ios": "https://dc.lft.to/lastmile_qr_scan", "android": "https://dc.lft.to/lastmile_qr_scan"}, "lon": -77.01378733333334, "type": "electric_bike"}, {"bike_id": "2a7fcdedac0918dd92da4f092393a896", "is_reserved": 0, "fusion_lon": 0.0, "lat": 38.86362183333333, "is_disabled": 0, "name": "2a7fcdedac0918dd92da4f092393a896", "fusion_lat": 0.0, "rental_uris": {"ios": "https://dc.lft.to/lastmile_qr_scan", "android": "https://dc.lft.to/lastmile_qr_scan"}, "lon": -76.99070383333333, "type": "electric_scooter"}, {"bike_id": "f1341457d530f5da9b90f4eead20d845", "is_reserved": 0, "fusion_lon": 0.0, "lat": 38.8842355, "is_disabled": 0, "name": "f1341457d530f5da9b90f4eead20d845", "fusion_lat": 0.0, "rental_uris": {"ios": "https://dc.lft.to/lastmile_qr_scan", "android": "https://dc.lft.to/lastmile_qr_scan"}, "lon": -77.03054333333333, "type": "electric_scooter"}, {"bike_id": "3cc746d1f2f6e0e1a47a71015277cd50", "is_reserved": 0, "fusion_lon": 0.0, "lat": 38.882122833333334, "is_disabled": 0, "name": "3cc746d1f2f6e0e1a47a71015277cd50", "fusion_lat": 0.0, "rental_uris": {"ios": "https://dc.lft.to/lastmile_qr_scan", "android": "https://dc.lft.to/lastmile_qr_scan"}, "lon": -77.11263333333333, "type": "electric_bike"}, {"bike_id": "b6ece116f743e8197a53243edfb5610c", "is_reserved": 0, "fusion_lon": 0.0, "lat": 38.90452366666667, "is_disabled": 0, "name": "b6ece116f743e8197a53243edfb5610c", "fusion_lat": 0.0, "rental_uris": {"ios": "https://dc.lft.to/lastmile_qr_scan", "android": "https://dc.lft.to/lastmile_qr_scan"}, "lon": -77.05921866666667, "type": "electric_scooter"}, {"bike_id": "5cd2371d8dcffc41efed2fbabc5bfe79", "is_reserved": 0, "fusion_lon": 0.0, "lat": 38.904224666666664, "is_disabled": 0, "name": "5cd2371d8dcffc41efed2fbabc5bfe79", "fusion_lat": 0.0, "rental_uris": {"ios": "https://dc.lft.to/lastmile_qr_scan", "android": "https://dc.lft.to/lastmile_qr_scan"}, "lon": -77.03648433333333, "type": "electric_scooter"}, {"bike_id": "da0ad5689d1f5f72d0f1959ec2da8cc4", "is_reserved": 0, "fusion_lon": 0.0, "lat": 38.8443065, "is_disabled": 0, "name": "da0ad5689d1f5f72d0f1959ec2da8cc4", "fusion_lat": 0.0, "rental_uris": {"ios": "https://dc.lft.to/lastmile_qr_scan", "android": "https://dc.lft.to/lastmile_qr_scan"}, "lon": -76.99777716666667, "type": "electric_scooter"}, {"bike_id": "fa0396538227bb8834b543dbdd0b574f", "is_reserved": 0, "fusion_lon": 0.0, "lat": 38.89299616666667, "is_disabled": 0, "name": "fa0396538227bb8834b543dbdd0b574f", "fusion_lat": 0.0, "rental_uris": {"ios": "https://dc.lft.to/lastmile_qr_scan", "android": "https://dc.lft.to/lastmile_qr_scan"}, "lon": -77.012375, "type": "electric_scooter"}, {"bike_id": "104ee9e19bf399fb077b6d14aa9d6db9", "is_reserved": 0, "fusion_lon": 0.0, "lat": 38.86920116666667, "is_disabled": 0, "name": "104ee9e19bf399fb077b6d14aa9d6db9", "fusion_lat": 0.0, "rental_uris": {"ios": "https://dc.lft.to/lastmile_qr_scan", "android": "https://dc.lft.to/lastmile_qr_scan"}, "lon": -76.9830225, "type": "electric_scooter"}, {"bike_id": "b2c618710e7450d3ce1838988238a398", "is_reserved": 0, "fusion_lon": 0.0, "lat": 38.888720666666664, "is_disabled": 0, "name": "b2c618710e7450d3ce1838988238a398", "fusion_lat": 0.0, "rental_uris": {"ios": "https://dc.lft.to/lastmile_qr_scan", "android": "https://dc.lft.to/lastmile_qr_scan"}, "lon": -76.9902995, "type": "electric_scooter"}, {"bike_id": "4fd02dffcd3e77cbc6143d8fd8f6ea0e", "is_reserved": 0, "fusion_lon": 0.0, "lat": 38.9158385, "is_disabled": 0, "name": "4fd02dffcd3e77cbc6143d8fd8f6ea0e", "fusion_lat": 0.0, "rental_uris": {"ios": "https://dc.lft.to/lastmile_qr_scan", "android": "https://dc.lft.to/lastmile_qr_scan"}, "lon": -76.983909, "type": "electric_scooter"}, {"bike_id": "261cd9530d3907a4a02dc6506103ae58", "is_reserved": 0, "fusion_lon": 0.0, "lat": 38.895076, "is_disabled": 0, "name": "261cd9530d3907a4a02dc6506103ae58", "fusion_lat": 0.0, "rental_uris": {"ios": "https://dc.lft.to/lastmile_qr_scan", "android": "https://dc.lft.to/lastmile_qr_scan"}, "lon": -77.00337133333333, "type": "electric_scooter"}, {"bike_id": "2c0ddd367226666c94595e37f3793b18", "is_reserved": 0, "fusion_lon": 0.0, "lat": 38.9155205, "is_disabled": 0, "name": "2c0ddd367226666c94595e37f3793b18", "fusion_lat": 0.0, "rental_uris": {"ios": "https://dc.lft.to/lastmile_qr_scan", "android": "https://dc.lft.to/lastmile_qr_scan"}, "lon": -77.031746, "type": "electric_scooter"}, {"bike_id": "5a24213764ea2e964f86094bc5087408", "is_reserved": 0, "fusion_lon": 0.0, "lat": 38.898864333333336, "is_disabled": 0, "name": "5a24213764ea2e964f86094bc5087408", "fusion_lat": 0.0, "rental_uris": {"ios": "https://dc.lft.to/lastmile_qr_scan", "android": "https://dc.lft.to/lastmile_qr_scan"}, "lon": -76.93174383333333, "type": "electric_scooter"}, {"bike_id": "0863fca3f239b0b05469f6b87eb5b72e", "is_reserved": 0, "fusion_lon": 0.0, "lat": 38.872129666666666, "is_disabled": 0, "name": "0863fca3f239b0b05469f6b87eb5b72e", "fusion_lat": 0.0, "rental_uris": {"ios": "https://dc.lft.to/lastmile_qr_scan", "android": "https://dc.lft.to/lastmile_qr_scan"}, "lon": -77.00573383333334, "type": "electric_scooter"}, {"bike_id": "52ed8effcad5c8fc4fc36510cd895b35", "is_reserved": 0, "fusion_lon": 0.0, "lat": 38.939533833333336, "is_disabled": 0, "name": "52ed8effcad5c8fc4fc36510cd895b35", "fusion_lat": 0.0, "rental_uris": {"ios": "https://dc.lft.to/lastmile_qr_scan", "android": "https://dc.lft.to/lastmile_qr_scan"}, "lon": -77.0326875, "type": "electric_scooter"}, {"bike_id": "f5d78940d6f1de3c28ff53acb8c223a0", "is_reserved": 0, "fusion_lon": 0.0, "lat": 38.87308316666667, "is_disabled": 0, "name": "f5d78940d6f1de3c28ff53acb8c223a0", "fusion_lat": 0.0, "rental_uris": {"ios": "https://dc.lft.to/lastmile_qr_scan", "android": "https://dc.lft.to/lastmile_qr_scan"}, "lon": -77.01098083333333, "type": "electric_bike"}, {"bike_id": "79f8e2ba9e6f2857b1339c835a5a61c8", "is_reserved": 0, "fusion_lon": 0.0, "lat": 38.929529333333335, "is_disabled": 0, "name": "79f8e2ba9e6f2857b1339c835a5a61c8", "fusion_lat": 0.0, "rental_uris": {"ios": "https://dc.lft.to/lastmile_qr_scan", "android": "https://dc.lft.to/lastmile_qr_scan"}, "lon": -77.03466033333333, "type": "electric_scooter"}, {"bike_id": "428bbd05aef0756f173903500031378a", "is_reserved": 0, "fusion_lon": 0.0, "lat": 38.99063816666666, "is_disabled": 0, "name": "428bbd05aef0756f173903500031378a", "fusion_lat": 0.0, "rental_uris": {"ios": "https://dc.lft.to/lastmile_qr_scan", "android": "https://dc.lft.to/lastmile_qr_scan"}, "lon": -77.10027483333333, "type": "electric_bike"}, {"bike_id": "1f36ceafc2c34ee6748fca0183ec1793", "is_reserved": 0, "fusion_lon": 0.0, "lat": 38.95279883333333, "is_disabled": 0, "name": "1f36ceafc2c34ee6748fca0183ec1793", "fusion_lat": 0.0, "rental_uris": {"ios": "https://dc.lft.to/lastmile_qr_scan", "android": "https://dc.lft.to/lastmile_qr_scan"}, "lon": -77.00790416666666, "type": "electric_scooter"}, {"bike_id": "7a8e54f219515eff045f8dd20352a92a", "is_reserved": 0, "fusion_lon": 0.0, "lat": 38.940450166666665, "is_disabled": 0, "name": "7a8e54f219515eff045f8dd20352a92a", "fusion_lat": 0.0, "rental_uris": {"ios": "https://dc.lft.to/lastmile_qr_scan", "android": "https://dc.lft.to/lastmile_qr_scan"}, "lon": -77.02978933333333, "type": "electric_scooter"}, {"bike_id": "e4cf62ff2fd912c53f1cc48ec2175df4", "is_reserved": 0, "fusion_lon": 0.0, "lat": 38.922671, "is_disabled": 0, "name": "e4cf62ff2fd912c53f1cc48ec2175df4", "fusion_lat": 0.0, "rental_uris": {"ios": "https://dc.lft.to/lastmile_qr_scan", "android": "https://dc.lft.to/lastmile_qr_scan"}, "lon": -77.04131666666666, "type": "electric_scooter"}, {"bike_id": "bec89afb6d9c1aae0ca9a15c301cd7c8", "is_reserved": 0, "fusion_lon": 0.0, "lat": 38.85318433333333, "is_disabled": 0, "name": "bec89afb6d9c1aae0ca9a15c301cd7c8", "fusion_lat": 0.0, "rental_uris": {"ios": "https://dc.lft.to/lastmile_qr_scan", "android": "https://dc.lft.to/lastmile_qr_scan"}, "lon": -76.98000766666667, "type": "electric_scooter"}, {"bike_id": "431fb5618af75afccec1e35b4fb941b6", "is_reserved": 0, "fusion_lon": 0.0, "lat": 38.920865666666664, "is_disabled": 0, "name": "431fb5618af75afccec1e35b4fb941b6", "fusion_lat": 0.0, "rental_uris": {"ios": "https://dc.lft.to/lastmile_qr_scan", "android": "https://dc.lft.to/lastmile_qr_scan"}, "lon": -76.999116, "type": "electric_scooter"}, {"bike_id": "a271e65ced7ad17b06b787e7e6bc491b", "is_reserved": 0, "fusion_lon": 0.0, "lat": 38.900274, "is_disabled": 0, "name": "a271e65ced7ad17b06b787e7e6bc491b", "fusion_lat": 0.0, "rental_uris": {"ios": "https://dc.lft.to/lastmile_qr_scan", "android": "https://dc.lft.to/lastmile_qr_scan"}, "lon": -76.99795683333333, "type": "electric_scooter"}, {"bike_id": "1f33c4d19cf126b2ae55bc1fbb7ec8bd", "is_reserved": 0, "fusion_lon": 0.0, "lat": 38.918811166666664, "is_disabled": 0, "name": "1f33c4d19cf126b2ae55bc1fbb7ec8bd", "fusion_lat": 0.0, "rental_uris": {"ios": "https://dc.lft.to/lastmile_qr_scan", "android": "https://dc.lft.to/lastmile_qr_scan"}, "lon": -77.0350695, "type": "electric_scooter"}, {"bike_id": "0ebc251a6ef52c602aa787978a8ef2a6", "is_reserved": 0, "fusion_lon": 0.0, "lat": 38.908420166666666, "is_disabled": 0, "name": "0ebc251a6ef52c602aa787978a8ef2a6", "fusion_lat": 0.0, "rental_uris": {"ios": "https://dc.lft.to/lastmile_qr_scan", "android": "https://dc.lft.to/lastmile_qr_scan"}, "lon": -77.038429, "type": "electric_scooter"}, {"bike_id": "f7e1bd25edc889f66bdda2e408bed988", "is_reserved": 0, "fusion_lon": 0.0, "lat": 38.92045183333333, "is_disabled": 0, "name": "f7e1bd25edc889f66bdda2e408bed988", "fusion_lat": 0.0, "rental_uris": {"ios": "https://dc.lft.to/lastmile_qr_scan", "android": "https://dc.lft.to/lastmile_qr_scan"}, "lon": -76.99819533333333, "type": "electric_scooter"}, {"bike_id": "c696c3e9375cc34ecf6915c19718a95d", "is_reserved": 0, "fusion_lon": 0.0, "lat": 38.9180655, "is_disabled": 0, "name": "c696c3e9375cc34ecf6915c19718a95d", "fusion_lat": 0.0, "rental_uris": {"ios": "https://dc.lft.to/lastmile_qr_scan", "android": "https://dc.lft.to/lastmile_qr_scan"}, "lon": -77.03437916666667, "type": "electric_scooter"}, {"bike_id": "b873f325fcd1f2b979b5e7bae51f5a27", "is_reserved": 0, "fusion_lon": 0.0, "lat": 38.872382333333334, "is_disabled": 0, "name": "b873f325fcd1f2b979b5e7bae51f5a27", "fusion_lat": 0.0, "rental_uris": {"ios": "https://dc.lft.to/lastmile_qr_scan", "android": "https://dc.lft.to/lastmile_qr_scan"}, "lon": -77.0115625, "type": "electric_bike"}, {"bike_id": "adb7e9196a9084f192a8ee1d0a47738c", "is_reserved": 0, "fusion_lon": 0.0, "lat": 38.900786, "is_disabled": 0, "name": "adb7e9196a9084f192a8ee1d0a47738c", "fusion_lat": 0.0, "rental_uris": {"ios": "https://dc.lft.to/lastmile_qr_scan", "android": "https://dc.lft.to/lastmile_qr_scan"}, "lon": -76.938681, "type": "electric_scooter"}, {"bike_id": "204a0252aacf5448b14926c4159371c2", "is_reserved": 0, "fusion_lon": 0.0, "lat": 38.887412, "is_disabled": 0, "name": "204a0252aacf5448b14926c4159371c2", "fusion_lat": 0.0, "rental_uris": {"ios": "https://dc.lft.to/lastmile_qr_scan", "android": "https://dc.lft.to/lastmile_qr_scan"}, "lon": -77.02973133333333, "type": "electric_scooter"}, {"bike_id": "37988a8f6896fe5f53c7ff6d0fec45f7", "is_reserved": 0, "fusion_lon": 0.0, "lat": 38.9010115, "is_disabled": 0, "name": "37988a8f6896fe5f53c7ff6d0fec45f7", "fusion_lat": 0.0, "rental_uris": {"ios": "https://dc.lft.to/lastmile_qr_scan", "android": "https://dc.lft.to/lastmile_qr_scan"}, "lon": -77.04986466666666, "type": "electric_scooter"}, {"bike_id": "92d729b17040ea25b854ada7b9530617", "is_reserved": 0, "fusion_lon": 0.0, "lat": 38.860074833333336, "is_disabled": 0, "name": "92d729b17040ea25b854ada7b9530617", "fusion_lat": 0.0, "rental_uris": {"ios": "https://dc.lft.to/lastmile_qr_scan", "android": "https://dc.lft.to/lastmile_qr_scan"}, "lon": -77.05771766666666, "type": "electric_bike"}, {"bike_id": "741709a52de65b6bc72be90152071381", "is_reserved": 0, "fusion_lon": 0.0, "lat": 38.897312666666664, "is_disabled": 0, "name": "741709a52de65b6bc72be90152071381", "fusion_lat": 0.0, "rental_uris": {"ios": "https://dc.lft.to/lastmile_qr_scan", "android": "https://dc.lft.to/lastmile_qr_scan"}, "lon": -77.05574916666667, "type": "electric_scooter"}, {"bike_id": "861f0ae3e2815d506557f5881dc46139", "is_reserved": 0, "fusion_lon": 0.0, "lat": 38.919564, "is_disabled": 0, "name": "861f0ae3e2815d506557f5881dc46139", "fusion_lat": 0.0, "rental_uris": {"ios": "https://dc.lft.to/lastmile_qr_scan", "android": "https://dc.lft.to/lastmile_qr_scan"}, "lon": -77.03193633333333, "type": "electric_scooter"}, {"bike_id": "c654d5dd0e77bc19d93b51f8f4e35944", "is_reserved": 0, "fusion_lon": 0.0, "lat": 38.949707333333336, "is_disabled": 0, "name": "c654d5dd0e77bc19d93b51f8f4e35944", "fusion_lat": 0.0, "rental_uris": {"ios": "https://dc.lft.to/lastmile_qr_scan", "android": "https://dc.lft.to/lastmile_qr_scan"}, "lon": -76.9728485, "type": "electric_bike"}, {"bike_id": "d97cef63d08442fa15c33ff7009abd6d", "is_reserved": 0, "fusion_lon": 0.0, "lat": 38.8967995, "is_disabled": 0, "name": "d97cef63d08442fa15c33ff7009abd6d", "fusion_lat": 0.0, "rental_uris": {"ios": "https://dc.lft.to/lastmile_qr_scan", "android": "https://dc.lft.to/lastmile_qr_scan"}, "lon": -76.99622316666667, "type": "electric_scooter"}, {"bike_id": "c22fdf4ea6f458fcc19a496130627131", "is_reserved": 0, "fusion_lon": 0.0, "lat": 38.90367333333333, "is_disabled": 0, "name": "c22fdf4ea6f458fcc19a496130627131", "fusion_lat": 0.0, "rental_uris": {"ios": "https://dc.lft.to/lastmile_qr_scan", "android": "https://dc.lft.to/lastmile_qr_scan"}, "lon": -77.04498333333333, "type": "electric_scooter"}, {"bike_id": "92c35f0f74763cde640fd712808926a6", "is_reserved": 0, "fusion_lon": 0.0, "lat": 38.888466333333334, "is_disabled": 0, "name": "92c35f0f74763cde640fd712808926a6", "fusion_lat": 0.0, "rental_uris": {"ios": "https://dc.lft.to/lastmile_qr_scan", "android": "https://dc.lft.to/lastmile_qr_scan"}, "lon": -76.92680866666667, "type": "electric_scooter"}, {"bike_id": "7a3a5640e66b4643eca4ea71c3851f38", "is_reserved": 0, "fusion_lon": 0.0, "lat": 38.934324333333336, "is_disabled": 0, "name": "7a3a5640e66b4643eca4ea71c3851f38", "fusion_lat": 0.0, "rental_uris": {"ios": "https://dc.lft.to/lastmile_qr_scan", "android": "https://dc.lft.to/lastmile_qr_scan"}, "lon": -77.072285, "type": "electric_scooter"}, {"bike_id": "b9a5666720b23ba6b330eaa9795de7a9", "is_reserved": 0, "fusion_lon": 0.0, "lat": 38.896679166666665, "is_disabled": 0, "name": "b9a5666720b23ba6b330eaa9795de7a9", "fusion_lat": 0.0, "rental_uris": {"ios": "https://dc.lft.to/lastmile_qr_scan", "android": "https://dc.lft.to/lastmile_qr_scan"}, "lon": -77.00580416666666, "type": "electric_bike"}, {"bike_id": "3e2161281cc6fb43e7f4e4459c44eb05", "is_reserved": 0, "fusion_lon": 0.0, "lat": 38.915765, "is_disabled": 0, "name": "3e2161281cc6fb43e7f4e4459c44eb05", "fusion_lat": 0.0, "rental_uris": {"ios": "https://dc.lft.to/lastmile_qr_scan", "android": "https://dc.lft.to/lastmile_qr_scan"}, "lon": -77.04672166666667, "type": "electric_scooter"}, {"bike_id": "0c61f0db0093b93413b30e04f6f5fc39", "is_reserved": 0, "fusion_lon": 0.0, "lat": 38.93562033333333, "is_disabled": 0, "name": "0c61f0db0093b93413b30e04f6f5fc39", "fusion_lat": 0.0, "rental_uris": {"ios": "https://dc.lft.to/lastmile_qr_scan", "android": "https://dc.lft.to/lastmile_qr_scan"}, "lon": -77.03706966666667, "type": "electric_bike"}, {"bike_id": "9235050dd9668cfc4e7e8c22ba4bc781", "is_reserved": 0, "fusion_lon": 0.0, "lat": 38.898768, "is_disabled": 0, "name": "9235050dd9668cfc4e7e8c22ba4bc781", "fusion_lat": 0.0, "rental_uris": {"ios": "https://dc.lft.to/lastmile_qr_scan", "android": "https://dc.lft.to/lastmile_qr_scan"}, "lon": -76.93161566666667, "type": "electric_scooter"}, {"bike_id": "34088c35ba545d36c922ee5846dc2f2e", "is_reserved": 0, "fusion_lon": 0.0, "lat": 38.919622, "is_disabled": 0, "name": "34088c35ba545d36c922ee5846dc2f2e", "fusion_lat": 0.0, "rental_uris": {"ios": "https://dc.lft.to/lastmile_qr_scan", "android": "https://dc.lft.to/lastmile_qr_scan"}, "lon": -76.97267416666666, "type": "electric_bike"}, {"bike_id": "c434f1c6d55d76ae19b3a0beb0459463", "is_reserved": 0, "fusion_lon": 0.0, "lat": 38.903003, "is_disabled": 0, "name": "c434f1c6d55d76ae19b3a0beb0459463", "fusion_lat": 0.0, "rental_uris": {"ios": "https://dc.lft.to/lastmile_qr_scan", "android": "https://dc.lft.to/lastmile_qr_scan"}, "lon": -77.03837916666667, "type": "electric_scooter"}, {"bike_id": "f6d34036fe387d75479842580395d04e", "is_reserved": 0, "fusion_lon": 0.0, "lat": 38.949458166666666, "is_disabled": 0, "name": "f6d34036fe387d75479842580395d04e", "fusion_lat": 0.0, "rental_uris": {"ios": "https://dc.lft.to/lastmile_qr_scan", "android": "https://dc.lft.to/lastmile_qr_scan"}, "lon": -77.01620583333333, "type": "electric_scooter"}, {"bike_id": "4fbc300dc673af010c83c47fddb5f1af", "is_reserved": 0, "fusion_lon": 0.0, "lat": 38.91695033333333, "is_disabled": 0, "name": "4fbc300dc673af010c83c47fddb5f1af", "fusion_lat": 0.0, "rental_uris": {"ios": "https://dc.lft.to/lastmile_qr_scan", "android": "https://dc.lft.to/lastmile_qr_scan"}, "lon": -77.0410845, "type": "electric_scooter"}, {"bike_id": "831f648bc914ecc0f7068365d7c6c0b8", "is_reserved": 0, "fusion_lon": 0.0, "lat": 38.91693883333333, "is_disabled": 0, "name": "831f648bc914ecc0f7068365d7c6c0b8", "fusion_lat": 0.0, "rental_uris": {"ios": "https://dc.lft.to/lastmile_qr_scan", "android": "https://dc.lft.to/lastmile_qr_scan"}, "lon": -77.03111266666667, "type": "electric_scooter"}, {"bike_id": "841830f644bdba10b4f4ed182eaf82bb", "is_reserved": 0, "fusion_lon": 0.0, "lat": 38.911042333333334, "is_disabled": 0, "name": "841830f644bdba10b4f4ed182eaf82bb", "fusion_lat": 0.0, "rental_uris": {"ios": "https://dc.lft.to/lastmile_qr_scan", "android": "https://dc.lft.to/lastmile_qr_scan"}, "lon": -77.04830766666667, "type": "electric_scooter"}, {"bike_id": "9d91a26970e403afbf17072fd093c3f5", "is_reserved": 0, "fusion_lon": 0.0, "lat": 38.902034666666665, "is_disabled": 0, "name": "9d91a26970e403afbf17072fd093c3f5", "fusion_lat": 0.0, "rental_uris": {"ios": "https://dc.lft.to/lastmile_qr_scan", "android": "https://dc.lft.to/lastmile_qr_scan"}, "lon": -77.0229935, "type": "electric_scooter"}, {"bike_id": "7664d42959fa62daa23b235038b43e85", "is_reserved": 0, "fusion_lon": 0.0, "lat": 38.90217766666667, "is_disabled": 0, "name": "7664d42959fa62daa23b235038b43e85", "fusion_lat": 0.0, "rental_uris": {"ios": "https://dc.lft.to/lastmile_qr_scan", "android": "https://dc.lft.to/lastmile_qr_scan"}, "lon": -77.02118583333333, "type": "electric_scooter"}, {"bike_id": "336a63569e24c25fd72b04da7144b826", "is_reserved": 0, "fusion_lon": 0.0, "lat": 38.90618966666667, "is_disabled": 0, "name": "336a63569e24c25fd72b04da7144b826", "fusion_lat": 0.0, "rental_uris": {"ios": "https://dc.lft.to/lastmile_qr_scan", "android": "https://dc.lft.to/lastmile_qr_scan"}, "lon": -77.02962916666667, "type": "electric_scooter"}, {"bike_id": "f82bf27683176d33e759cf17a12f5742", "is_reserved": 0, "fusion_lon": 0.0, "lat": 38.888594499999996, "is_disabled": 0, "name": "f82bf27683176d33e759cf17a12f5742", "fusion_lat": 0.0, "rental_uris": {"ios": "https://dc.lft.to/lastmile_qr_scan", "android": "https://dc.lft.to/lastmile_qr_scan"}, "lon": -76.9948035, "type": "electric_bike"}, {"bike_id": "a7aae4230e5bef2f47464ac820c9c14a", "is_reserved": 0, "fusion_lon": 0.0, "lat": 38.894816166666665, "is_disabled": 0, "name": "a7aae4230e5bef2f47464ac820c9c14a", "fusion_lat": 0.0, "rental_uris": {"ios": "https://dc.lft.to/lastmile_qr_scan", "android": "https://dc.lft.to/lastmile_qr_scan"}, "lon": -76.94871116666667, "type": "electric_scooter"}, {"bike_id": "90db08f4121b448669e03d78585e5b25", "is_reserved": 0, "fusion_lon": 0.0, "lat": 38.89998633333333, "is_disabled": 0, "name": "90db08f4121b448669e03d78585e5b25", "fusion_lat": 0.0, "rental_uris": {"ios": "https://dc.lft.to/lastmile_qr_scan", "android": "https://dc.lft.to/lastmile_qr_scan"}, "lon": -77.0522965, "type": "electric_scooter"}, {"bike_id": "6789a69b26f7ae499bf78d9946063bcb", "is_reserved": 0, "fusion_lon": 0.0, "lat": 38.887421, "is_disabled": 0, "name": "6789a69b26f7ae499bf78d9946063bcb", "fusion_lat": 0.0, "rental_uris": {"ios": "https://dc.lft.to/lastmile_qr_scan", "android": "https://dc.lft.to/lastmile_qr_scan"}, "lon": -77.0150995, "type": "electric_scooter"}, {"bike_id": "36616ea4962c2dc8e570c964fca082c8", "is_reserved": 0, "fusion_lon": 0.0, "lat": 38.8850325, "is_disabled": 0, "name": "36616ea4962c2dc8e570c964fca082c8", "fusion_lat": 0.0, "rental_uris": {"ios": "https://dc.lft.to/lastmile_qr_scan", "android": "https://dc.lft.to/lastmile_qr_scan"}, "lon": -77.02116133333334, "type": "electric_bike"}, {"bike_id": "5e208893d05f7b57d2a623ce43e46d3d", "is_reserved": 0, "fusion_lon": 0.0, "lat": 38.8922545, "is_disabled": 0, "name": "5e208893d05f7b57d2a623ce43e46d3d", "fusion_lat": 0.0, "rental_uris": {"ios": "https://dc.lft.to/lastmile_qr_scan", "android": "https://dc.lft.to/lastmile_qr_scan"}, "lon": -77.04372833333333, "type": "electric_scooter"}, {"bike_id": "6e27b1397c99ee2b3ee8bb916f5b9267", "is_reserved": 0, "fusion_lon": 0.0, "lat": 38.900225166666665, "is_disabled": 0, "name": "6e27b1397c99ee2b3ee8bb916f5b9267", "fusion_lat": 0.0, "rental_uris": {"ios": "https://dc.lft.to/lastmile_qr_scan", "android": "https://dc.lft.to/lastmile_qr_scan"}, "lon": -76.9876755, "type": "electric_scooter"}, {"bike_id": "df6f2519742defa74633ded3cc1ffb82", "is_reserved": 0, "fusion_lon": 0.0, "lat": 38.898152833333334, "is_disabled": 0, "name": "df6f2519742defa74633ded3cc1ffb82", "fusion_lat": 0.0, "rental_uris": {"ios": "https://dc.lft.to/lastmile_qr_scan", "android": "https://dc.lft.to/lastmile_qr_scan"}, "lon": -77.02423766666666, "type": "electric_scooter"}, {"bike_id": "1ae6d4a22f0f44ba44ea304ac3107b4f", "is_reserved": 0, "fusion_lon": 0.0, "lat": 38.875497333333335, "is_disabled": 0, "name": "1ae6d4a22f0f44ba44ea304ac3107b4f", "fusion_lat": 0.0, "rental_uris": {"ios": "https://dc.lft.to/lastmile_qr_scan", "android": "https://dc.lft.to/lastmile_qr_scan"}, "lon": -76.96491766666666, "type": "electric_scooter"}, {"bike_id": "2af96abdaab8f0f3831cceb84e4f81bf", "is_reserved": 0, "fusion_lon": 0.0, "lat": 38.91898616666667, "is_disabled": 0, "name": "2af96abdaab8f0f3831cceb84e4f81bf", "fusion_lat": 0.0, "rental_uris": {"ios": "https://dc.lft.to/lastmile_qr_scan", "android": "https://dc.lft.to/lastmile_qr_scan"}, "lon": -77.03202133333333, "type": "electric_scooter"}, {"bike_id": "5d6f8888b4cd743647491ba578d4d6d4", "is_reserved": 0, "fusion_lon": 0.0, "lat": 38.912639166666665, "is_disabled": 0, "name": "5d6f8888b4cd743647491ba578d4d6d4", "fusion_lat": 0.0, "rental_uris": {"ios": "https://dc.lft.to/lastmile_qr_scan", "android": "https://dc.lft.to/lastmile_qr_scan"}, "lon": -77.00366266666667, "type": "electric_scooter"}, {"bike_id": "18bf85de7b1fc6f387a1ad7da1b2b1d7", "is_reserved": 0, "fusion_lon": 0.0, "lat": 38.895343, "is_disabled": 0, "name": "18bf85de7b1fc6f387a1ad7da1b2b1d7", "fusion_lat": 0.0, "rental_uris": {"ios": "https://dc.lft.to/lastmile_qr_scan", "android": "https://dc.lft.to/lastmile_qr_scan"}, "lon": -77.048412, "type": "electric_scooter"}, {"bike_id": "c2a8303aefb14ef59d8d9967a515afe7", "is_reserved": 0, "fusion_lon": 0.0, "lat": 38.899557333333334, "is_disabled": 0, "name": "c2a8303aefb14ef59d8d9967a515afe7", "fusion_lat": 0.0, "rental_uris": {"ios": "https://dc.lft.to/lastmile_qr_scan", "android": "https://dc.lft.to/lastmile_qr_scan"}, "lon": -76.97546816666667, "type": "electric_scooter"}, {"bike_id": "54e1bf278bbddfa16702a1f60a165b8b", "is_reserved": 0, "fusion_lon": 0.0, "lat": 38.90753133333333, "is_disabled": 0, "name": "54e1bf278bbddfa16702a1f60a165b8b", "fusion_lat": 0.0, "rental_uris": {"ios": "https://dc.lft.to/lastmile_qr_scan", "android": "https://dc.lft.to/lastmile_qr_scan"}, "lon": -77.03601483333334, "type": "electric_scooter"}, {"bike_id": "60f92ef359b9a8d97ef8670348b6ada5", "is_reserved": 0, "fusion_lon": 0.0, "lat": 38.90954983333334, "is_disabled": 0, "name": "60f92ef359b9a8d97ef8670348b6ada5", "fusion_lat": 0.0, "rental_uris": {"ios": "https://dc.lft.to/lastmile_qr_scan", "android": "https://dc.lft.to/lastmile_qr_scan"}, "lon": -76.98474666666667, "type": "electric_scooter"}, {"bike_id": "e2270183bc157298c5d728b8711a3d9d", "is_reserved": 0, "fusion_lon": 0.0, "lat": 38.86159583333333, "is_disabled": 0, "name": "e2270183bc157298c5d728b8711a3d9d", "fusion_lat": 0.0, "rental_uris": {"ios": "https://dc.lft.to/lastmile_qr_scan", "android": "https://dc.lft.to/lastmile_qr_scan"}, "lon": -77.13094766666667, "type": "electric_bike"}, {"bike_id": "3faa19f84091b5ed1abf21d016fd8825", "is_reserved": 0, "fusion_lon": 0.0, "lat": 38.89185666666667, "is_disabled": 0, "name": "3faa19f84091b5ed1abf21d016fd8825", "fusion_lat": 0.0, "rental_uris": {"ios": "https://dc.lft.to/lastmile_qr_scan", "android": "https://dc.lft.to/lastmile_qr_scan"}, "lon": -77.01529983333333, "type": "electric_scooter"}, {"bike_id": "71517244a41f1320514c8f1db50e95ce", "is_reserved": 0, "fusion_lon": 0.0, "lat": 38.9096995, "is_disabled": 0, "name": "71517244a41f1320514c8f1db50e95ce", "fusion_lat": 0.0, "rental_uris": {"ios": "https://dc.lft.to/lastmile_qr_scan", "android": "https://dc.lft.to/lastmile_qr_scan"}, "lon": -77.02726033333333, "type": "electric_scooter"}, {"bike_id": "ca00eb6c1272b525d62fcbb4ffd17c8d", "is_reserved": 0, "fusion_lon": 0.0, "lat": 38.898229666666666, "is_disabled": 0, "name": "ca00eb6c1272b525d62fcbb4ffd17c8d", "fusion_lat": 0.0, "rental_uris": {"ios": "https://dc.lft.to/lastmile_qr_scan", "android": "https://dc.lft.to/lastmile_qr_scan"}, "lon": -77.00602466666666, "type": "electric_bike"}, {"bike_id": "70f20b48fdc60431d928abc007c67725", "is_reserved": 0, "fusion_lon": 0.0, "lat": 38.9023495, "is_disabled": 0, "name": "70f20b48fdc60431d928abc007c67725", "fusion_lat": 0.0, "rental_uris": {"ios": "https://dc.lft.to/lastmile_qr_scan", "android": "https://dc.lft.to/lastmile_qr_scan"}, "lon": -76.97411933333333, "type": "electric_scooter"}, {"bike_id": "8f0659e3599d22ae7c00c937a11f53b4", "is_reserved": 0, "fusion_lon": 0.0, "lat": 38.94190183333333, "is_disabled": 0, "name": "8f0659e3599d22ae7c00c937a11f53b4", "fusion_lat": 0.0, "rental_uris": {"ios": "https://dc.lft.to/lastmile_qr_scan", "android": "https://dc.lft.to/lastmile_qr_scan"}, "lon": -77.017004, "type": "electric_scooter"}, {"bike_id": "510f6f4756ef97cc40b7b44812200415", "is_reserved": 0, "fusion_lon": 0.0, "lat": 38.9159575, "is_disabled": 0, "name": "510f6f4756ef97cc40b7b44812200415", "fusion_lat": 0.0, "rental_uris": {"ios": "https://dc.lft.to/lastmile_qr_scan", "android": "https://dc.lft.to/lastmile_qr_scan"}, "lon": -77.04173966666667, "type": "electric_scooter"},