{"data": {"bikes": [{"bike_id": "db35f76061519b24a86b78280c55ce62", "fusion_lon": 0.0, "name": "db35f76061519b24a86b78280c55ce62", "lat": 38.910042, "is_disabled": 0, "is_reserved": 0, "lon": -76.9941305, "type": "electric_scooter", "fusion_lat": 0.0, "rental_uris": {"android": "https://dc.lft.to/lastmile_qr_scan", "ios": "https://dc.lft.to/lastmile_qr_scan"}}, {"bike_id": "3681bb35ee860d4d8cf2095fbaf80f7a", "fusion_lon": 0.0, "name": "3681bb35ee860d4d8cf2095fbaf80f7a", "lat": 38.912645833333336, "is_disabled": 0, "is_reserved": 0, "lon": -77.03832583333333, "type": "electric_scooter", "fusion_lat": 0.0, "rental_uris": {"android": "https://dc.lft.to/lastmile_qr_scan", "ios": "https://dc.lft.to/lastmile_qr_scan"}}, {"bike_id": "613bfd50f1169c7441388be07d7cf3dc", "fusion_lon": 0.0, "name": "613bfd50f1169c7441388be07d7cf3dc", "lat": 38.96143166666667, "is_disabled": 0, "is_reserved": 0, "lon": -77.02818633333334, "type": "electric_scooter", "fusion_lat": 0.0, "rental_uris": {"android": "https://dc.lft.to/lastmile_qr_scan", "ios": "https://dc.lft.to/lastmile_qr_scan"}}, {"bike_id": "08f693c38dc8a2207350dc9805f2a026", "fusion_lon": 0.0, "name": "08f693c38dc8a2207350dc9805f2a026", "lat": 38.905756833333335, "is_disabled": 0, "is_reserved": 0, "lon": -77.05141083333334, "type": "electric_scooter", "fusion_lat": 0.0, "rental_uris": {"android": "https://dc.lft.to/lastmile_qr_scan", "ios": "https://dc.lft.to/lastmile_qr_scan"}}, {"bike_id": "5c0f0dba06cffba28aed64f3b2ab98bf", "fusion_lon": 0.0, "name": "5c0f0dba06cffba28aed64f3b2ab98bf", "lat": 38.88522616666667, "is_disabled": 0, "is_reserved": 0, "lon": -77.01509833333333, "type": "electric_scooter", "fusion_lat": 0.0, "rental_uris": {"android": "https://dc.lft.to/lastmile_qr_scan", "ios": "https://dc.lft.to/lastmile_qr_scan"}}, {"bike_id": "ce7b06b67c94724294ebcff01101aa95", "fusion_lon": 0.0, "name": "ce7b06b67c94724294ebcff01101aa95", "lat": 38.902475, "is_disabled": 0, "is_reserved": 0, "lon": -77.05943066666667, "type": "electric_scooter", "fusion_lat": 0.0, "rental_uris": {"android": "https://dc.lft.to/lastmile_qr_scan", "ios": "https://dc.lft.to/lastmile_qr_scan"}}, {"bike_id": "aa785d56eb16ddc8c1188f3469d114d5", "fusion_lon": 0.0, "name": "aa785d56eb16ddc8c1188f3469d114d5", "lat": 38.887195, "is_disabled": 0, "is_reserved": 0, "lon": -76.99687433333334, "type": "electric_scooter", "fusion_lat": 0.0, "rental_uris": {"android": "https://dc.lft.to/lastmile_qr_scan", "ios": "https://dc.lft.to/lastmile_qr_scan"}}, {"bike_id": "54d43203631615cd9f2d908d76e9214d", "fusion_lon": 0.0, "name": "54d43203631615cd9f2d908d76e9214d", "lat": 38.923503333333336, "is_disabled": 0, "is_reserved": 0, "lon": -77.0505215, "type": "electric_scooter", "fusion_lat": 0.0, "rental_uris": {"android": "https://dc.lft.to/lastmile_qr_scan", "ios": "https://dc.lft.to/lastmile_qr_scan"}}, {"bike_id": "80b95a25f57eac0e92376a24c87bd93f", "fusion_lon": 0.0, "name": "80b95a25f57eac0e92376a24c87bd93f", "lat": 38.91761283333334, "is_disabled": 0, "is_reserved": 0, "lon": -77.01605416666666, "type": "electric_scooter", "fusion_lat": 0.0, "rental_uris": {"android": "https://dc.lft.to/lastmile_qr_scan", "ios": "https://dc.lft.to/lastmile_qr_scan"}}, {"bike_id": "0c343fe4e7748dbd34c9f7854708313d", "fusion_lon": 0.0, "name": "0c343fe4e7748dbd34c9f7854708313d", "lat": 38.90245516666667, "is_disabled": 0, "is_reserved": 0, "lon": -77.04834233333334, "type": "electric_scooter", "fusion_lat": 0.0, "rental_uris": {"android": "https://dc.lft.to/lastmile_qr_scan", "ios": "https://dc.lft.to/lastmile_qr_scan"}}, {"bike_id": "a0bfdcbf3ae61d76cf081447c6f1f898", "fusion_lon": 0.0, "name": "a0bfdcbf3ae61d76cf081447c6f1f898", "lat": 38.922733, "is_disabled": 0, "is_reserved": 0, "lon": -77.04236533333334, "type": "electric_scooter", "fusion_lat": 0.0, "rental_uris": {"android": "https://dc.lft.to/lastmile_qr_scan", "ios": "https://dc.lft.to/lastmile_qr_scan"}}, {"bike_id": "f41d4eb395e345259697587e3380de08", "fusion_lon": 0.0, "name": "f41d4eb395e345259697587e3380de08", "lat": 38.90575066666667, "is_disabled": 0, "is_reserved": 0, "lon": -77.04350833333334, "type": "electric_scooter", "fusion_lat": 0.0, "rental_uris": {"android": "https://dc.lft.to/lastmile_qr_scan", "ios": "https://dc.lft.to/lastmile_qr_scan"}}, {"bike_id": "20942fd4e41bd67e7363a8bf57139fa1", "fusion_lon": 0.0, "name": "20942fd4e41bd67e7363a8bf57139fa1", "lat": 38.89469783333333, "is_disabled": 0, "is_reserved": 0, "lon": -77.01658083333334, "type": "electric_scooter", "fusion_lat": 0.0, "rental_uris": {"android": "https://dc.lft.to/lastmile_qr_scan", "ios": "https://dc.lft.to/lastmile_qr_scan"}}, {"bike_id": "543ff90a78cd0dbfe75ce36af06b41a8", "fusion_lon": 0.0, "name": "543ff90a78cd0dbfe75ce36af06b41a8", "lat": 38.90065333333333, "is_disabled": 0, "is_reserved": 0, "lon": -77.05425966666667, "type": "electric_scooter", "fusion_lat": 0.0, "rental_uris": {"android": "https://dc.lft.to/lastmile_qr_scan", "ios": "https://dc.lft.to/lastmile_qr_scan"}}, {"bike_id": "7abfe248dc45d1d124f9215d6fba090d", "fusion_lon": 0.0, "name": "7abfe248dc45d1d124f9215d6fba090d", "lat": 38.91655983333333, "is_disabled": 0, "is_reserved": 0, "lon": -77.03222133333334, "type": "electric_scooter", "fusion_lat": 0.0, "rental_uris": {"android": "https://dc.lft.to/lastmile_qr_scan", "ios": "https://dc.lft.to/lastmile_qr_scan"}}, {"bike_id": "ae482b4924e27a015c19626026ca1566", "fusion_lon": 0.0, "name": "ae482b4924e27a015c19626026ca1566", "lat": 38.887469833333334, "is_disabled": 0, "is_reserved": 0, "lon": -76.97315633333334, "type": "electric_scooter", "fusion_lat": 0.0, "rental_uris": {"android": "https://dc.lft.to/lastmile_qr_scan", "ios": "https://dc.lft.to/lastmile_qr_scan"}}, {"bike_id": "012e171f778799a86a3e28db33c25bd3", "fusion_lon": 0.0, "name": "012e171f778799a86a3e28db33c25bd3", "lat": 38.906861166666665, "is_disabled": 0, "is_reserved": 0, "lon": -77.02388716666667, "type": "electric_scooter", "fusion_lat": 0.0, "rental_uris": {"android": "https://dc.lft.to/lastmile_qr_scan", "ios": "https://dc.lft.to/lastmile_qr_scan"}}, {"bike_id": "1f08ccc7e39d090170870684ecaebe85", "fusion_lon": 0.0, "name": "1f08ccc7e39d090170870684ecaebe85", "lat": 38.8814815, "is_disabled": 0, "is_reserved": 0, "lon": -77.02736366666667, "type": "electric_scooter", "fusion_lat": 0.0, "rental_uris": {"android": "https://dc.lft.to/lastmile_qr_scan", "ios": "https://dc.lft.to/lastmile_qr_scan"}}, {"bike_id": "c56c5ccbeae0269cc561fc85b60f4692", "fusion_lon": 0.0, "name": "c56c5ccbeae0269cc561fc85b60f4692", "lat": 38.92053216666667, "is_disabled": 0, "is_reserved": 0, "lon": -76.99585366666666, "type": "electric_scooter", "fusion_lat": 0.0, "rental_uris": {"android": "https://dc.lft.to/lastmile_qr_scan", "ios": "https://dc.lft.to/lastmile_qr_scan"}}, {"bike_id": "3b46bd2221d2ce475f2d02e4ae739128", "fusion_lon": 0.0, "name": "3b46bd2221d2ce475f2d02e4ae739128", "lat": 38.91710416666667, "is_disabled": 0, "is_reserved": 0, "lon": -77.0323605, "type": "electric_scooter", "fusion_lat": 0.0, "rental_uris": {"android": "https://dc.lft.to/lastmile_qr_scan", "ios": "https://dc.lft.to/lastmile_qr_scan"}}, {"bike_id": "e46f6fe6135a6c090f9bf8a88bce165f", "fusion_lon": 0.0, "name": "e46f6fe6135a6c090f9bf8a88bce165f", "lat": 38.905298333333334, "is_disabled": 0, "is_reserved": 0, "lon": -77.05130666666666, "type": "electric_scooter", "fusion_lat": 0.0, "rental_uris": {"android": "https://dc.lft.to/lastmile_qr_scan", "ios": "https://dc.lft.to/lastmile_qr_scan"}}, {"bike_id": "49652f737f163a53c7d90ff979778633", "fusion_lon": 0.0, "name": "49652f737f163a53c7d90ff979778633", "lat": 38.916529833333335, "is_disabled": 0, "is_reserved": 0, "lon": -77.02281583333334, "type": "electric_scooter", "fusion_lat": 0.0, "rental_uris": {"android": "https://dc.lft.to/lastmile_qr_scan", "ios": "https://dc.lft.to/lastmile_qr_scan"}}, {"bike_id": "0098db9bcb40d82d156993c41443c5db", "fusion_lon": 0.0, "name": "0098db9bcb40d82d156993c41443c5db", "lat": 38.9103735, "is_disabled": 0, "is_reserved": 0, "lon": -77.0757235, "type": "electric_scooter", "fusion_lat": 0.0, "rental_uris": {"android": "https://dc.lft.to/lastmile_qr_scan", "ios": "https://dc.lft.to/lastmile_qr_scan"}}, {"bike_id": "127769d117464a6e0fe43b127433095e", "fusion_lon": 0.0, "name": "127769d117464a6e0fe43b127433095e", "lat": 38.92313383333333, "is_disabled": 0, "is_reserved": 0, "lon": -77.0290185, "type": "electric_scooter", "fusion_lat": 0.0, "rental_uris": {"android": "https://dc.lft.to/lastmile_qr_scan", "ios": "https://dc.lft.to/lastmile_qr_scan"}}, {"bike_id": "cbb298f41e4040b747ba0ec451f4bd1c", "fusion_lon": 0.0, "name": "cbb298f41e4040b747ba0ec451f4bd1c", "lat": 38.8849525, "is_disabled": 0, "is_reserved": 0, "lon": -76.95660133333334, "type": "electric_bike", "fusion_lat": 0.0, "rental_uris": {"android": "https://dc.lft.to/lastmile_qr_scan", "ios": "https://dc.lft.to/lastmile_qr_scan"}}, {"bike_id": "2e3b33e38a69485f6c8e23a54b595d2e", "fusion_lon": 0.0, "name": "2e3b33e38a69485f6c8e23a54b595d2e", "lat": 38.8861465, "is_disabled": 0, "is_reserved": 0, "lon": -77.01252783333334, "type": "electric_scooter", "fusion_lat": 0.0, "rental_uris": {"android": "https://dc.lft.to/lastmile_qr_scan", "ios": "https://dc.lft.to/lastmile_qr_scan"}}, {"bike_id": "d4e6dae2d1e0ef83a1869d532eedb558", "fusion_lon": 0.0, "name": "d4e6dae2d1e0ef83a1869d532eedb558", "lat": 38.90213683333333, "is_disabled": 0, "is_reserved": 0, "lon": -77.03773366666667, "type": "electric_scooter", "fusion_lat": 0.0, "rental_uris": {"android": "https://dc.lft.to/lastmile_qr_scan", "ios": "https://dc.lft.to/lastmile_qr_scan"}}, {"bike_id": "350eaf579b89db035d83e606495b407b", "fusion_lon": 0.0, "name": "350eaf579b89db035d83e606495b407b", "lat": 38.92019233333333, "is_disabled": 0, "is_reserved": 0, "lon": -77.012574, "type": "electric_scooter", "fusion_lat": 0.0, "rental_uris": {"android": "https://dc.lft.to/lastmile_qr_scan", "ios": "https://dc.lft.to/lastmile_qr_scan"}}, {"bike_id": "ddf1e28da257be5d546b194bb9bfed3b", "fusion_lon": 0.0, "name": "ddf1e28da257be5d546b194bb9bfed3b", "lat": 38.8846725, "is_disabled": 0, "is_reserved": 0, "lon": -76.99838416666667, "type": "electric_scooter", "fusion_lat": 0.0, "rental_uris": {"android": "https://dc.lft.to/lastmile_qr_scan", "ios": "https://dc.lft.to/lastmile_qr_scan"}}, {"bike_id": "3bed96da7ff0bc265d17c291031048b2", "fusion_lon": 0.0, "name": "3bed96da7ff0bc265d17c291031048b2", "lat": 38.931730333333334, "is_disabled": 0, "is_reserved": 0, "lon": -77.04295083333334, "type": "electric_scooter", "fusion_lat": 0.0, "rental_uris": {"android": "https://dc.lft.to/lastmile_qr_scan", "ios": "https://dc.lft.to/lastmile_qr_scan"}}, {"bike_id": "1c2d54f86289fe70b54918304e06befa", "fusion_lon": 0.0, "name": "1c2d54f86289fe70b54918304e06befa", "lat": 38.908443166666665, "is_disabled": 0, "is_reserved": 0, "lon": -77.0549455, "type": "electric_bike", "fusion_lat": 0.0, "rental_uris": {"android": "https://dc.lft.to/lastmile_qr_scan", "ios": "https://dc.lft.to/lastmile_qr_scan"}}, {"bike_id": "a6866cfa2af82f8e26d30d2317576872", "fusion_lon": 0.0, "name": "a6866cfa2af82f8e26d30d2317576872", "lat": 38.913648333333335, "is_disabled": 0, "is_reserved": 0, "lon": -77.02001016666667, "type": "electric_scooter", "fusion_lat": 0.0, "rental_uris": {"android": "https://dc.lft.to/lastmile_qr_scan", "ios": "https://dc.lft.to/lastmile_qr_scan"}}, {"bike_id": "048c8eb9090884f87a41df09f51bc293", "fusion_lon": 0.0, "name": "048c8eb9090884f87a41df09f51bc293", "lat": 38.92909983333333, "is_disabled": 0, "is_reserved": 0, "lon": -77.03274, "type": "electric_scooter", "fusion_lat": 0.0, "rental_uris": {"android": "https://dc.lft.to/lastmile_qr_scan", "ios": "https://dc.lft.to/lastmile_qr_scan"}}, {"bike_id": "4b0373c8803c63b459bf5124cebd2ef0", "fusion_lon": 0.0, "name": "4b0373c8803c63b459bf5124cebd2ef0", "lat": 38.898803666666666, "is_disabled": 0, "is_reserved": 0, "lon": -77.02950816666667, "type": "electric_scooter", "fusion_lat": 0.0, "rental_uris": {"android": "https://dc.lft.to/lastmile_qr_scan", "ios": "https://dc.lft.to/lastmile_qr_scan"}}, {"bike_id": "9a5e6de76915c1a1483da6fd5166692d", "fusion_lon": 0.0, "name": "9a5e6de76915c1a1483da6fd5166692d", "lat": 38.92261216666667, "is_disabled": 0, "is_reserved": 0, "lon": -77.02036733333334, "type": "electric_scooter", "fusion_lat": 0.0, "rental_uris": {"android": "https://dc.lft.to/lastmile_qr_scan", "ios": "https://dc.lft.to/lastmile_qr_scan"}}, {"bike_id": "15835c9622dc98bc4bfa8b2a58efbbed", "fusion_lon": 0.0, "name": "15835c9622dc98bc4bfa8b2a58efbbed", "lat": 38.90823066666667, "is_disabled": 0, "is_reserved": 0, "lon": -77.05496133333334, "type": "electric_scooter", "fusion_lat": 0.0, "rental_uris": {"android": "https://dc.lft.to/lastmile_qr_scan", "ios": "https://dc.lft.to/lastmile_qr_scan"}}, {"bike_id": "5044cad56f632bb58549fad3f30e3e96", "fusion_lon": 0.0, "name": "5044cad56f632bb58549fad3f30e3e96", "lat": 38.9528455, "is_disabled": 0, "is_reserved": 0, "lon": -77.0179985, "type": "electric_scooter", "fusion_lat": 0.0, "rental_uris": {"android": "https://dc.lft.to/lastmile_qr_scan", "ios": "https://dc.lft.to/lastmile_qr_scan"}}, {"bike_id": "b514a3301323a2113c6fd6978dfca4d0", "fusion_lon": 0.0, "name": "b514a3301323a2113c6fd6978dfca4d0", "lat": 38.91715833333333, "is_disabled": 0, "is_reserved": 0, "lon": -77.01208466666667, "type": "electric_scooter", "fusion_lat": 0.0, "rental_uris": {"android": "https://dc.lft.to/lastmile_qr_scan", "ios": "https://dc.lft.to/lastmile_qr_scan"}}, {"bike_id": "94562084dc2dbd10fdf75ed4edfc12d8", "fusion_lon": 0.0, "name": "94562084dc2dbd10fdf75ed4edfc12d8", "lat": 38.903423833333335, "is_disabled": 0, "is_reserved": 0, "lon": -77.04477866666667, "type": "electric_scooter", "fusion_lat": 0.0, "rental_uris": {"android": "https://dc.lft.to/lastmile_qr_scan", "ios": "https://dc.lft.to/lastmile_qr_scan"}}, {"bike_id": "e651b64f941484c9479c7fe04ea3af81", "fusion_lon": 0.0, "name": "e651b64f941484c9479c7fe04ea3af81", "lat": 38.892329333333336, "is_disabled": 0, "is_reserved": 0, "lon": -77.04998416666666, "type": "electric_scooter", "fusion_lat": 0.0, "rental_uris": {"android": "https://dc.lft.to/lastmile_qr_scan", "ios": "https://dc.lft.to/lastmile_qr_scan"}}, {"bike_id": "af372d42553098d9dd5b61472a20a50e", "fusion_lon": 0.0, "name": "af372d42553098d9dd5b61472a20a50e", "lat": 38.920418166666664, "is_disabled": 0, "is_reserved": 0, "lon": -77.02452083333333, "type": "electric_scooter", "fusion_lat": 0.0, "rental_uris": {"android": "https://dc.lft.to/lastmile_qr_scan", "ios": "https://dc.lft.to/lastmile_qr_scan"}}, {"bike_id": "715d0955d03fa825fdcd75fb7e3e81ac", "fusion_lon": 0.0, "name": "715d0955d03fa825fdcd75fb7e3e81ac", "lat": 38.876807, "is_disabled": 0, "is_reserved": 0, "lon": -77.01787016666667, "type": "electric_scooter", "fusion_lat": 0.0, "rental_uris": {"android": "https://dc.lft.to/lastmile_qr_scan", "ios": "https://dc.lft.to/lastmile_qr_scan"}}, {"bike_id": "c1de168ad70aa3bc04a20951af0d8fa8", "fusion_lon": 0.0, "name": "c1de168ad70aa3bc04a20951af0d8fa8", "lat": 38.91866316666667, "is_disabled": 0, "is_reserved": 0, "lon": -77.04061533333334, "type": "electric_scooter", "fusion_lat": 0.0, "rental_uris": {"android": "https://dc.lft.to/lastmile_qr_scan", "ios": "https://dc.lft.to/lastmile_qr_scan"}}, {"bike_id": "db2ad8f6c1f66a9225a5a56babf27f89", "fusion_lon": 0.0, "name": "db2ad8f6c1f66a9225a5a56babf27f89", "lat": 38.8949305, "is_disabled": 0, "is_reserved": 0, "lon": -77.01536733333333, "type": "electric_scooter", "fusion_lat": 0.0, "rental_uris": {"android": "https://dc.lft.to/lastmile_qr_scan", "ios": "https://dc.lft.to/lastmile_qr_scan"}}, {"bike_id": "91f1c687ff606d62ad7547c36498ce76", "fusion_lon": 0.0, "name": "91f1c687ff606d62ad7547c36498ce76", "lat": 38.937853, "is_disabled": 0, "is_reserved": 0, "lon": -77.02475216666667, "type": "electric_scooter", "fusion_lat": 0.0, "rental_uris": {"android": "https://dc.lft.to/lastmile_qr_scan", "ios": "https://dc.lft.to/lastmile_qr_scan"}}, {"bike_id": "a22706ab2719e52d2ae933500d762e2a", "fusion_lon": 0.0, "name": "a22706ab2719e52d2ae933500d762e2a", "lat": 38.95269616666667, "is_disabled": 0, "is_reserved": 0, "lon": -77.00249316666667, "type": "electric_scooter", "fusion_lat": 0.0, "rental_uris": {"android": "https://dc.lft.to/lastmile_qr_scan", "ios": "https://dc.lft.to/lastmile_qr_scan"}}, {"bike_id": "b9a2856383cc22adbe43a345177ba23d", "fusion_lon": 0.0, "name": "b9a2856383cc22adbe43a345177ba23d", "lat": 38.9275475, "is_disabled": 0, "is_reserved": 0, "lon": -77.03089133333333, "type": "electric_scooter", "fusion_lat": 0.0, "rental_uris": {"android": "https://dc.lft.to/lastmile_qr_scan", "ios": "https://dc.lft.to/lastmile_qr_scan"}}, {"bike_id": "f251dac480d57f5fee667872ac2744bf", "fusion_lon": 0.0, "name": "f251dac480d57f5fee667872ac2744bf", "lat": 38.88488866666667, "is_disabled": 0, "is_reserved": 0, "lon": -77.00711833333334, "type": "electric_scooter", "fusion_lat": 0.0, "rental_uris": {"android": "https://dc.lft.to/lastmile_qr_scan", "ios": "https://dc.lft.to/lastmile_qr_scan"}}, {"bike_id": "133ed14150ddd35949881fd92221a336", "fusion_lon": 0.0, "name": "133ed14150ddd35949881fd92221a336", "lat": 38.92839383333333, "is_disabled": 0, "is_reserved": 0, "lon": -77.032731, "type": "electric_scooter", "fusion_lat": 0.0, "rental_uris": {"android": "https://dc.lft.to/lastmile_qr_scan", "ios": "https://dc.lft.to/lastmile_qr_scan"}}, {"bike_id": "6a3d041113f7d0cac6c8937182f769f9", "fusion_lon": 0.0, "name": "6a3d041113f7d0cac6c8937182f769f9", "lat": 38.910988333333336, "is_disabled": 0, "is_reserved": 0, "lon": -77.0384265, "type": "electric_scooter", "fusion_lat": 0.0, "rental_uris": {"android": "https://dc.lft.to/lastmile_qr_scan", "ios": "https://dc.lft.to/lastmile_qr_scan"}}, {"bike_id": "5177f5355e7aa8e6b16f0b6de5c620ae", "fusion_lon": 0.0, "name": "5177f5355e7aa8e6b16f0b6de5c620ae", "lat": 38.89860183333333, "is_disabled": 0, "is_reserved": 0, "lon": -76.94636983333334, "type": "electric_scooter", "fusion_lat": 0.0, "rental_uris": {"android": "https://dc.lft.to/lastmile_qr_scan", "ios": "https://dc.lft.to/lastmile_qr_scan"}}, {"bike_id": "b9713bfb86cf84dfc91ee5204d7fd0a8", "fusion_lon": 0.0, "name": "b9713bfb86cf84dfc91ee5204d7fd0a8", "lat": 38.842816166666665, "is_disabled": 0, "is_reserved": 0, "lon": -77.04502683333334, "type": "electric_bike", "fusion_lat": 0.0, "rental_uris": {"android": "https://dc.lft.to/lastmile_qr_scan", "ios": "https://dc.lft.to/lastmile_qr_scan"}}, {"bike_id": "d91bff79ebf042a788b74e9130201317", "fusion_lon": 0.0, "name": "d91bff79ebf042a788b74e9130201317", "lat": 38.8973085, "is_disabled": 0, "is_reserved": 0, "lon": -77.04357466666667, "type": "electric_scooter", "fusion_lat": 0.0, "rental_uris": {"android": "https://dc.lft.to/lastmile_qr_scan", "ios": "https://dc.lft.to/lastmile_qr_scan"}}, {"bike_id": "c68aee10007aec172904664e3e70bb57", "fusion_lon": 0.0, "name": "c68aee10007aec172904664e3e70bb57", "lat": 38.86683816666667, "is_disabled": 0, "is_reserved": 0, "lon": -76.985647, "type": "electric_scooter", "fusion_lat": 0.0, "rental_uris": {"android": "https://dc.lft.to/lastmile_qr_scan", "ios": "https://dc.lft.to/lastmile_qr_scan"}}, {"bike_id": "49384441ea4a8b8c78fefefbda057fd7", "fusion_lon": 0.0, "name": "49384441ea4a8b8c78fefefbda057fd7", "lat": 38.8998985, "is_disabled": 0, "is_reserved": 0, "lon": -77.00671566666666, "type": "electric_scooter", "fusion_lat": 0.0, "rental_uris": {"android": "https://dc.lft.to/lastmile_qr_scan", "ios": "https://dc.lft.to/lastmile_qr_scan"}}, {"bike_id": "ea33f16b21b22a70a2493389cab24ddc", "fusion_lon": 0.0, "name": "ea33f16b21b22a70a2493389cab24ddc", "lat": 38.928693333333335, "is_disabled": 0, "is_reserved": 0, "lon": -77.03378216666667, "type": "electric_scooter", "fusion_lat": 0.0, "rental_uris": {"android": "https://dc.lft.to/lastmile_qr_scan", "ios": "https://dc.lft.to/lastmile_qr_scan"}}, {"bike_id": "81652305a66b0b0295db76b51766aa9d", "fusion_lon": 0.0, "name": "81652305a66b0b0295db76b51766aa9d", "lat": 38.93461516666667, "is_disabled": 0, "is_reserved": 0, "lon": -77.04122783333334, "type": "electric_scooter", "fusion_lat": 0.0, "rental_uris": {"android": "https://dc.lft.to/lastmile_qr_scan", "ios": "https://dc.lft.to/lastmile_qr_scan"}}, {"bike_id": "b677bf31402cd1ac3f2980f9afa97ab4", "fusion_lon": 0.0, "name": "b677bf31402cd1ac3f2980f9afa97ab4", "lat": 38.911227333333336, "is_disabled": 0, "is_reserved": 0, "lon": -77.00934666666667, "type": "electric_scooter", "fusion_lat": 0.0, "rental_uris": {"android": "https://dc.lft.to/lastmile_qr_scan", "ios": "https://dc.lft.to/lastmile_qr_scan"}}, {"bike_id": "fc6b8e7785a7e675ab3ea5b3b3f5a971", "fusion_lon": 0.0, "name": "fc6b8e7785a7e675ab3ea5b3b3f5a971", "lat": 38.8934835, "is_disabled": 0, "is_reserved": 0, "lon": -77.02813616666667, "type": "electric_scooter", "fusion_lat": 0.0, "rental_uris": {"android": "https://dc.lft.to/lastmile_qr_scan", "ios": "https://dc.lft.to/lastmile_qr_scan"}}, {"bike_id": "9a0c3424e304a576b64a928b7c1ac03a", "fusion_lon": 0.0, "name": "9a0c3424e304a576b64a928b7c1ac03a", "lat": 38.91639633333333, "is_disabled": 0, "is_reserved": 0, "lon": -76.9829055, "type": "electric_scooter", "fusion_lat": 0.0, "rental_uris": {"android": "https://dc.lft.to/lastmile_qr_scan", "ios": "https://dc.lft.to/lastmile_qr_scan"}}, {"bike_id": "c46f1ae730c9af7bfe637ae5edcbd986", "fusion_lon": 0.0, "name": "c46f1ae730c9af7bfe637ae5edcbd986", "lat": 38.91696233333333, "is_disabled": 0, "is_reserved": 0, "lon": -77.02959333333334, "type": "electric_scooter", "fusion_lat": 0.0, "rental_uris": {"android": "https://dc.lft.to/lastmile_qr_scan", "ios": "https://dc.lft.to/lastmile_qr_scan"}}, {"bike_id": "ad21b9c662a93756faf95a1dfad88c80", "fusion_lon": 0.0, "name": "ad21b9c662a93756faf95a1dfad88c80", "lat": 38.94176216666666, "is_disabled": 0, "is_reserved": 0, "lon": -77.02523933333333, "type": "electric_scooter", "fusion_lat": 0.0, "rental_uris": {"android": "https://dc.lft.to/lastmile_qr_scan", "ios": "https://dc.lft.to/lastmile_qr_scan"}}, {"bike_id": "956debf4657feac110340d7bdccc73eb", "fusion_lon": 0.0, "name": "956debf4657feac110340d7bdccc73eb", "lat": 38.92039116666667, "is_disabled": 0, "is_reserved": 0, "lon": -76.99532183333334, "type": "electric_scooter", "fusion_lat": 0.0, "rental_uris": {"android": "https://dc.lft.to/lastmile_qr_scan", "ios": "https://dc.lft.to/lastmile_qr_scan"}}, {"bike_id": "59fddcbefe37b13ca5e04f2457d9a99b", "fusion_lon": 0.0, "name": "59fddcbefe37b13ca5e04f2457d9a99b", "lat": 38.900336333333335, "is_disabled": 0, "is_reserved": 0, "lon": -77.00222533333333, "type": "electric_scooter", "fusion_lat": 0.0, "rental_uris": {"android": "https://dc.lft.to/lastmile_qr_scan", "ios": "https://dc.lft.to/lastmile_qr_scan"}}, {"bike_id": "dadfc40888abf5bfe71de1e7bf7e6137", "fusion_lon": 0.0, "name": "dadfc40888abf5bfe71de1e7bf7e6137", "lat": 38.93026716666667, "is_disabled": 0, "is_reserved": 0, "lon": -77.03278166666666, "type": "electric_scooter", "fusion_lat": 0.0, "rental_uris": {"android": "https://dc.lft.to/lastmile_qr_scan", "ios": "https://dc.lft.to/lastmile_qr_scan"}}, {"bike_id": "f3f112be763b4b1df494c9767d0844be", "fusion_lon": 0.0, "name": "f3f112be763b4b1df494c9767d0844be", "lat": 38.888138833333336, "is_disabled": 0, "is_reserved": 0, "lon": -76.983548, "type": "electric_scooter", "fusion_lat": 0.0, "rental_uris": {"android": "https://dc.lft.to/lastmile_qr_scan", "ios": "https://dc.lft.to/lastmile_qr_scan"}}, {"bike_id": "f82febbbee25808b953925f3aaedac55", "fusion_lon": 0.0, "name": "f82febbbee25808b953925f3aaedac55", "lat": 38.8565125, "is_disabled": 0, "is_reserved": 0, "lon": -77.08529166666666, "type": "electric_bike", "fusion_lat": 0.0, "rental_uris": {"android": "https://dc.lft.to/lastmile_qr_scan", "ios": "https://dc.lft.to/lastmile_qr_scan"}}, {"bike_id": "fab58896dae1e8847bf5e6770b661196", "fusion_lon": 0.0, "name": "fab58896dae1e8847bf5e6770b661196", "lat": 38.91531966666667, "is_disabled": 0, "is_reserved": 0, "lon": -77.012261, "type": "electric_scooter", "fusion_lat": 0.0, "rental_uris": {"android": "https://dc.lft.to/lastmile_qr_scan", "ios": "https://dc.lft.to/lastmile_qr_scan"}}, {"bike_id": "87af33e688b08a1c1cb8b482e6fda189", "fusion_lon": 0.0, "name": "87af33e688b08a1c1cb8b482e6fda189", "lat": 38.89700416666667, "is_disabled": 0, "is_reserved": 0, "lon": -77.01615533333333, "type": "electric_scooter", "fusion_lat": 0.0, "rental_uris": {"android": "https://dc.lft.to/lastmile_qr_scan", "ios": "https://dc.lft.to/lastmile_qr_scan"}}, {"bike_id": "0e21074125a18b95fc68cfe16dc6fd6c", "fusion_lon": 0.0, "name": "0e21074125a18b95fc68cfe16dc6fd6c", "lat": 38.8664975, "is_disabled": 0, "is_reserved": 0, "lon": -76.98305583333334, "type": "electric_scooter", "fusion_lat": 0.0, "rental_uris": {"android": "https://dc.lft.to/lastmile_qr_scan", "ios": "https://dc.lft.to/lastmile_qr_scan"}}, {"bike_id": "3bac19b0b29015bc8b871e01b35e8631", "fusion_lon": 0.0, "name": "3bac19b0b29015bc8b871e01b35e8631", "lat": 38.91120633333333, "is_disabled": 0, "is_reserved": 0, "lon": -77.03831233333334, "type": "electric_scooter", "fusion_lat": 0.0, "rental_uris": {"android": "https://dc.lft.to/lastmile_qr_scan", "ios": "https://dc.lft.to/lastmile_qr_scan"}}, {"bike_id": "fd67e6b275e2a58e7b25890483cd1136", "fusion_lon": 0.0, "name": "fd67e6b275e2a58e7b25890483cd1136", "lat": 38.9203395, "is_disabled": 0, "is_reserved": 0, "lon": -77.0260525, "type": "electric_scooter", "fusion_lat": 0.0, "rental_uris": {"android": "https://dc.lft.to/lastmile_qr_scan", "ios": "https://dc.lft.to/lastmile_qr_scan"}}, {"bike_id": "69a82715a4967ad552cef6422ce78d15", "fusion_lon": 0.0, "name": "69a82715a4967ad552cef6422ce78d15", "lat": 38.92456933333333, "is_disabled": 0, "is_reserved": 0, "lon": -77.05233333333334, "type": "electric_scooter", "fusion_lat": 0.0, "rental_uris": {"android": "https://dc.lft.to/lastmile_qr_scan", "ios": "https://dc.lft.to/lastmile_qr_scan"}}, {"bike_id": "b410f5706c456d3438bc7112b75f7202", "fusion_lon": 0.0, "name": "b410f5706c456d3438bc7112b75f7202", "lat": 38.86556933333333, "is_disabled": 0, "is_reserved": 0, "lon": -76.9785835, "type": "electric_scooter", "fusion_lat": 0.0, "rental_uris": {"android": "https://dc.lft.to/lastmile_qr_scan", "ios": "https://dc.lft.to/lastmile_qr_scan"}}, {"bike_id": "8d7d717dfb40f6841bb73fe855f0c75b", "fusion_lon": 0.0, "name": "8d7d717dfb40f6841bb73fe855f0c75b", "lat": 38.892195, "is_disabled": 0, "is_reserved": 0, "lon": -77.031309, "type": "electric_scooter", "fusion_lat": 0.0, "rental_uris": {"android": "https://dc.lft.to/lastmile_qr_scan", "ios": "https://dc.lft.to/lastmile_qr_scan"}}, {"bike_id": "71d482474ef919a298c1118ca2f6b780", "fusion_lon": 0.0, "name": "71d482474ef919a298c1118ca2f6b780", "lat": 38.88404116666667, "is_disabled": 0, "is_reserved": 0, "lon": -76.98613283333333, "type": "electric_scooter", "fusion_lat": 0.0, "rental_uris": {"android": "https://dc.lft.to/lastmile_qr_scan", "ios": "https://dc.lft.to/lastmile_qr_scan"}}, {"bike_id": "508419e6088f2715a2f2633b7f72f1b6", "fusion_lon": 0.0, "name": "508419e6088f2715a2f2633b7f72f1b6", "lat": 38.887186166666666, "is_disabled": 0, "is_reserved": 0, "lon": -76.99686366666667, "type": "electric_scooter", "fusion_lat": 0.0, "rental_uris": {"android": "https://dc.lft.to/lastmile_qr_scan", "ios": "https://dc.lft.to/lastmile_qr_scan"}}, {"bike_id": "965abe532ece654b7b85a395dd9abc40", "fusion_lon": 0.0, "name": "965abe532ece654b7b85a395dd9abc40", "lat": 38.797000833333335, "is_disabled": 0, "is_reserved": 0, "lon": -77.00369416666666, "type": "electric_bike", "fusion_lat": 0.0, "rental_uris": {"android": "https://dc.lft.to/lastmile_qr_scan", "ios": "https://dc.lft.to/lastmile_qr_scan"}}, {"bike_id": "acec347ce2bf5173c158beacfed1ab77", "fusion_lon": 0.0, "name": "acec347ce2bf5173c158beacfed1ab77", "lat": 38.92425983333333, "is_disabled": 0, "is_reserved": 0, "lon": -77.019513, "type": "electric_scooter", "fusion_lat": 0.0, "rental_uris": {"android": "https://dc.lft.to/lastmile_qr_scan", "ios": "https://dc.lft.to/lastmile_qr_scan"}}, {"bike_id": "f10d74184c24d553b328e9e6bc0e0295", "fusion_lon": 0.0, "name": "f10d74184c24d553b328e9e6bc0e0295", "lat": 38.899415833333336, "is_disabled": 0, "is_reserved": 0, "lon": -76.98165016666667, "type": "electric_scooter", "fusion_lat": 0.0, "rental_uris": {"android": "https://dc.lft.to/lastmile_qr_scan", "ios": "https://dc.lft.to/lastmile_qr_scan"}}, {"bike_id": "bd75a12454238e6761d430eee30686ee", "fusion_lon": 0.0, "name": "bd75a12454238e6761d430eee30686ee", "lat": 38.924368666666666, "is_disabled": 0, "is_reserved": 0, "lon": -77.03410316666667, "type": "electric_scooter", "fusion_lat": 0.0, "rental_uris": {"android": "https://dc.lft.to/lastmile_qr_scan", "ios": "https://dc.lft.to/lastmile_qr_scan"}}, {"bike_id": "d9ee357e9b76f0fe260285669c02b364", "fusion_lon": 0.0, "name": "d9ee357e9b76f0fe260285669c02b364", "lat": 38.918602, "is_disabled": 0, "is_reserved": 0, "lon": -77.02593633333333, "type": "electric_scooter", "fusion_lat": 0.0, "rental_uris": {"android": "https://dc.lft.to/lastmile_qr_scan", "ios": "https://dc.lft.to/lastmile_qr_scan"}}, {"bike_id": "2cbcd1c98299e937114ceef28e495931", "fusion_lon": 0.0, "name": "2cbcd1c98299e937114ceef28e495931", "lat": 38.89217633333333, "is_disabled": 0, "is_reserved": 0, "lon": -77.0314385, "type": "electric_scooter", "fusion_lat": 0.0, "rental_uris": {"android": "https://dc.lft.to/lastmile_qr_scan", "ios": "https://dc.lft.to/lastmile_qr_scan"}}, {"bike_id": "857b1430b5a94ed3b1a6a87004452eb6", "fusion_lon": 0.0, "name": "857b1430b5a94ed3b1a6a87004452eb6", "lat": 38.9176805, "is_disabled": 0, "is_reserved": 0, "lon": -77.04764416666667, "type": "electric_bike", "fusion_lat": 0.0, "rental_uris": {"android": "https://dc.lft.to/lastmile_qr_scan", "ios": "https://dc.lft.to/lastmile_qr_scan"}}, {"bike_id": "3da7f2d85d720a5237907511e9960137", "fusion_lon": 0.0, "name": "3da7f2d85d720a5237907511e9960137", "lat": 38.846146, "is_disabled": 0, "is_reserved": 0, "lon": -76.96914933333333, "type": "electric_bike", "fusion_lat": 0.0, "rental_uris": {"android": "https://dc.lft.to/lastmile_qr_scan", "ios": "https://dc.lft.to/lastmile_qr_scan"}}, {"bike_id": "5014449b771b3fbb7490ac022fb8cb6e", "fusion_lon": 0.0, "name": "5014449b771b3fbb7490ac022fb8cb6e", "lat": 38.89219933333333, "is_disabled": 0, "is_reserved": 0, "lon": -77.043139, "type": "electric_scooter", "fusion_lat": 0.0, "rental_uris": {"android": "https://dc.lft.to/lastmile_qr_scan", "ios": "https://dc.lft.to/lastmile_qr_scan"}}, {"bike_id": "00a0339e76abe192c7713acd405a9973", "fusion_lon": 0.0, "name": "00a0339e76abe192c7713acd405a9973", "lat": 38.897126166666666, "is_disabled": 0, "is_reserved": 0, "lon": -77.04544283333334, "type": "electric_scooter", "fusion_lat": 0.0, "rental_uris": {"android": "https://dc.lft.to/lastmile_qr_scan", "ios": "https://dc.lft.to/lastmile_qr_scan"}}, {"bike_id": "2de74fe93e5fda3d9b3bb4125ce581f5", "fusion_lon": 0.0, "name": "2de74fe93e5fda3d9b3bb4125ce581f5", "lat": 38.9057215, "is_disabled": 0, "is_reserved": 0, "lon": -77.00593966666666, "type": "electric_scooter", "fusion_lat": 0.0, "rental_uris": {"android": "https://dc.lft.to/lastmile_qr_scan", "ios": "https://dc.lft.to/lastmile_qr_scan"}}, {"bike_id": "65911adf6defb298baeb65e8fdccda78", "fusion_lon": 0.0, "name": "65911adf6defb298baeb65e8fdccda78", "lat": 38.901856, "is_disabled": 0, "is_reserved": 0, "lon": -77.023034, "type": "electric_scooter", "fusion_lat": 0.0, "rental_uris": {"android": "https://dc.lft.to/lastmile_qr_scan", "ios": "https://dc.lft.to/lastmile_qr_scan"}}, {"bike_id": "f4909cc5e9f38c8ed6df365fa4558960", "fusion_lon": 0.0, "name": "f4909cc5e9f38c8ed6df365fa4558960", "lat": 38.90546966666667, "is_disabled": 0, "is_reserved": 0, "lon": -77.04912733333333, "type": "electric_scooter", "fusion_lat": 0.0, "rental_uris": {"android": "https://dc.lft.to/lastmile_qr_scan", "ios": "https://dc.lft.to/lastmile_qr_scan"}}, {"bike_id": "4c186750a459105d4d23d1dfc2703914", "fusion_lon": 0.0, "name": "4c186750a459105d4d23d1dfc2703914", "lat": 38.942271, "is_disabled": 0, "is_reserved": 0, "lon": -77.07679583333334, "type": "electric_scooter", "fusion_lat": 0.0, "rental_uris": {"android": "https://dc.lft.to/lastmile_qr_scan", "ios": "https://dc.lft.to/lastmile_qr_scan"}}, {"bike_id": "8681d7476b09b1c4f5560d51fc32c44a", "fusion_lon": 0.0, "name": "8681d7476b09b1c4f5560d51fc32c44a", "lat": 38.90400483333333, "is_disabled": 0, "is_reserved": 0, "lon": -77.0436995, "type": "electric_scooter", "fusion_lat": 0.0, "rental_uris": {"android": "https://dc.lft.to/lastmile_qr_scan", "ios": "https://dc.lft.to/lastmile_qr_scan"}}, {"bike_id": "71e19c3ba9a84d4b1e48c55d3c474d19", "fusion_lon": 0.0, "name": "71e19c3ba9a84d4b1e48c55d3c474d19", "lat": 38.874906833333334, "is_disabled": 0, "is_reserved": 0, "lon": -77.21124983333333, "type": "electric_bike", "fusion_lat": 0.0, "rental_uris": {"android": "https://dc.lft.to/lastmile_qr_scan", "ios": "https://dc.lft.to/lastmile_qr_scan"}}, {"bike_id": "82a7812f39d8acc8a56f5bf6ead14628", "fusion_lon": 0.0, "name": "82a7812f39d8acc8a56f5bf6ead14628", "lat": 38.89611033333333, "is_disabled": 0, "is_reserved": 0, "lon": -76.90737266666666, "type": "electric_bike", "fusion_lat": 0.0, "rental_uris": {"android": "https://dc.lft.to/lastmile_qr_scan", "ios": "https://dc.lft.to/lastmile_qr_scan"}}, {"bike_id": "a086373ee3187b708da607e2e8f2187b", "fusion_lon": 0.0, "name": "a086373ee3187b708da607e2e8f2187b", "lat": 38.91884483333333, "is_disabled": 0, "is_reserved": 0, "lon": -77.029606, "type": "electric_scooter", "fusion_lat": 0.0, "rental_uris": {"android": "https://dc.lft.to/lastmile_qr_scan", "ios": "https://dc.lft.to/lastmile_qr_scan"}}, {"bike_id": "9048ae783a8c59cfa3217d1c9ce34351", "fusion_lon": 0.0, "name": "9048ae783a8c59cfa3217d1c9ce34351", "lat": 38.876601666666666, "is_disabled": 0, "is_reserved": 0, "lon": -77.00511633333333, "type": "electric_scooter", "fusion_lat": 0.0, "rental_uris": {"android": "https://dc.lft.to/lastmile_qr_scan", "ios": "https://dc.lft.to/lastmile_qr_scan"}}, {"bike_id": "4982fa4324985c860060e0507be6247e", "fusion_lon": 0.0, "name": "4982fa4324985c860060e0507be6247e", "lat": 38.92612283333333, "is_disabled": 0, "is_reserved": 0, "lon": -77.05712133333333, "type": "electric_scooter", "fusion_lat": 0.0, "rental_uris": {"android": "https://dc.lft.to/lastmile_qr_scan", "ios": "https://dc.lft.to/lastmile_qr_scan"}}, {"bike_id": "04fecd0c950adb0e704d4216312da1a6", "fusion_lon": 0.0, "name": "04fecd0c950adb0e704d4216312da1a6", "lat": 38.915533333333336, "is_disabled": 0, "is_reserved": 0, "lon": -77.0377225, "type": "electric_scooter", "fusion_lat": 0.0, "rental_uris": {"android": "https://dc.lft.to/lastmile_qr_scan", "ios": "https://dc.lft.to/lastmile_qr_scan"}}, {"bike_id": "00f2d21a421ff4199680953156bcb33b", "fusion_lon": 0.0, "name": "00f2d21a421ff4199680953156bcb33b", "lat": 38.8965485, "is_disabled": 0, "is_reserved": 0, "lon": -77.0261495, "type": "electric_scooter", "fusion_lat": 0.0, "rental_uris": {"android": "https://dc.lft.to/lastmile_qr_scan", "ios": "https://dc.lft.to/lastmile_qr_scan"}}, {"bike_id": "48c7fd78c3bb950e890aca0a9e49393b", "fusion_lon": 0.0, "name": "48c7fd78c3bb950e890aca0a9e49393b", "lat": 38.923599833333334, "is_disabled": 0, "is_reserved": 0, "lon": -77.050339, "type": "electric_scooter", "fusion_lat": 0.0, "rental_uris": {"android": "https://dc.lft.to/lastmile_qr_scan", "ios": "https://dc.lft.to/lastmile_qr_scan"}}, {"bike_id": "2efb709bcf6f3fffa6e5c8d6557cfa2a", "fusion_lon": 0.0, "name": "2efb709bcf6f3fffa6e5c8d6557cfa2a", "lat": 38.908831666666664, "is_disabled": 0, "is_reserved": 0, "lon": -77.06429316666667, "type": "electric_scooter", "fusion_lat": 0.0, "rental_uris": {"android": "https://dc.lft.to/lastmile_qr_scan", "ios": "https://dc.lft.to/lastmile_qr_scan"}}, {"bike_id": "ea55cb83ab2fde2da09e1e7158de32b0", "fusion_lon": 0.0, "name": "ea55cb83ab2fde2da09e1e7158de32b0", "lat": 38.886429166666666, "is_disabled": 0, "is_reserved": 0, "lon": -77.01546116666667, "type": "electric_scooter", "fusion_lat": 0.0, "rental_uris": {"android": "https://dc.lft.to/lastmile_qr_scan", "ios": "https://dc.lft.to/lastmile_qr_scan"}}, {"bike_id": "46da3e2ffc19fdfb86559b82beea54c8", "fusion_lon": 0.0, "name": "46da3e2ffc19fdfb86559b82beea54c8", "lat": 38.897434833333335, "is_disabled": 0, "is_reserved": 0, "lon": -77.04527916666666, "type": "electric_scooter", "fusion_lat": 0.0, "rental_uris": {"android": "https://dc.lft.to/lastmile_qr_scan", "ios": "https://dc.lft.to/lastmile_qr_scan"}}, {"bike_id": "d327692b4f6b3c363c84da23891df757", "fusion_lon": 0.0, "name": "d327692b4f6b3c363c84da23891df757", "lat": 38.91266266666667, "is_disabled": 0, "is_reserved": 0, "lon": -77.01435566666666, "type": "electric_scooter", "fusion_lat": 0.0, "rental_uris": {"android": "https://dc.lft.to/lastmile_qr_scan", "ios": "https://dc.lft.to/lastmile_qr_scan"}}, {"bike_id": "e78d16daa203eb572e1da1253934b85e", "fusion_lon": 0.0, "name": "e78d16daa203eb572e1da1253934b85e", "lat": 38.894974500000004, "is_disabled": 0, "is_reserved": 0, "lon": -77.00208616666667, "type": "electric_scooter", "fusion_lat": 0.0, "rental_uris": {"android": "https://dc.lft.to/lastmile_qr_scan", "ios": "https://dc.lft.to/lastmile_qr_scan"}}, {"bike_id": "ebccbf4d276f7bdf93d8a5f30d7a8516", "fusion_lon": 0.0, "name": "ebccbf4d276f7bdf93d8a5f30d7a8516", "lat": 38.89172283333333, "is_disabled": 0, "is_reserved": 0, "lon": -77.01534033333333, "type": "electric_scooter", "fusion_lat": 0.0, "rental_uris": {"android": "https://dc.lft.to/lastmile_qr_scan", "ios": "https://dc.lft.to/lastmile_qr_scan"}}, {"bike_id": "d5b82ac86eb9a2231434ff55f60b842c", "fusion_lon": 0.0, "name": "d5b82ac86eb9a2231434ff55f60b842c", "lat": 38.912645499999996, "is_disabled": 0, "is_reserved": 0, "lon": -77.03832883333334, "type": "electric_scooter", "fusion_lat": 0.0, "rental_uris": {"android": "https://dc.lft.to/lastmile_qr_scan", "ios": "https://dc.lft.to/lastmile_qr_scan"}}, {"bike_id": "e963c5649ab65a82ee46290f5bbf57ec", "fusion_lon": 0.0, "name": "e963c5649ab65a82ee46290f5bbf57ec", "lat": 38.935601, "is_disabled": 0, "is_reserved": 0, "lon": -77.074547, "type": "electric_scooter", "fusion_lat": 0.0, "rental_uris": {"android": "https://dc.lft.to/lastmile_qr_scan", "ios": "https://dc.lft.to/lastmile_qr_scan"}}, {"bike_id": "1d3d08cd089266dbf843002b615686ab", "fusion_lon": 0.0, "name": "1d3d08cd089266dbf843002b615686ab", "lat": 38.896084, "is_disabled": 0, "is_reserved": 0, "lon": -76.99278966666667, "type": "electric_scooter", "fusion_lat": 0.0, "rental_uris": {"android": "https://dc.lft.to/lastmile_qr_scan", "ios": "https://dc.lft.to/lastmile_qr_scan"}}, {"bike_id": "d3bc57ea76171c953edff168fb1bf453", "fusion_lon": 0.0, "name": "d3bc57ea76171c953edff168fb1bf453", "lat": 38.92459733333333, "is_disabled": 0, "is_reserved": 0, "lon": -77.02137733333333, "type": "electric_scooter", "fusion_lat": 0.0, "rental_uris": {"android": "https://dc.lft.to/lastmile_qr_scan", "ios": "https://dc.lft.to/lastmile_qr_scan"}}, {"bike_id": "c743fd5f3465c617be938c9d13f0d0d2", "fusion_lon": 0.0, "name": "c743fd5f3465c617be938c9d13f0d0d2", "lat": 38.90149683333333, "is_disabled": 0, "is_reserved": 0, "lon": -77.0092185, "type": "electric_scooter", "fusion_lat": 0.0, "rental_uris": {"android": "https://dc.lft.to/lastmile_qr_scan", "ios": "https://dc.lft.to/lastmile_qr_scan"}}, {"bike_id": "6f55e14baa7b8b235bc68b9fbcf30183", "fusion_lon": 0.0, "name": "6f55e14baa7b8b235bc68b9fbcf30183", "lat": 38.90839966666667, "is_disabled": 0, "is_reserved": 0, "lon": -76.99972766666667, "type": "electric_scooter", "fusion_lat": 0.0, "rental_uris": {"android": "https://dc.lft.to/lastmile_qr_scan", "ios": "https://dc.lft.to/lastmile_qr_scan"}}, {"bike_id": "d879db4acf11d0988758502e1c360a2f", "fusion_lon": 0.0, "name": "d879db4acf11d0988758502e1c360a2f", "lat": 38.904128666666665, "is_disabled": 0, "is_reserved": 0, "lon": -76.99287233333334, "type": "electric_scooter", "fusion_lat": 0.0, "rental_uris": {"android": "https://dc.lft.to/lastmile_qr_scan", "ios": "https://dc.lft.to/lastmile_qr_scan"}}, {"bike_id": "3df976599eee1fc59a444cc2efbd4322", "fusion_lon": 0.0, "name": "3df976599eee1fc59a444cc2efbd4322", "lat": 38.9008885, "is_disabled": 0, "is_reserved": 0, "lon": -77.04997233333333, "type": "electric_scooter", "fusion_lat": 0.0, "rental_uris": {"android": "https://dc.lft.to/lastmile_qr_scan", "ios": "https://dc.lft.to/lastmile_qr_scan"}}, {"bike_id": "02fd1c2a0e1c1e9044a8d495d9270241", "fusion_lon": 0.0, "name": "02fd1c2a0e1c1e9044a8d495d9270241", "lat": 38.90448966666666, "is_disabled": 0, "is_reserved": 0, "lon": -76.974294, "type": "electric_scooter", "fusion_lat": 0.0, "rental_uris": {"android": "https://dc.lft.to/lastmile_qr_scan", "ios": "https://dc.lft.to/lastmile_qr_scan"}}, {"bike_id": "e5334ebb2f4e7441fe572f400c9d471e", "fusion_lon": 0.0, "name": "e5334ebb2f4e7441fe572f400c9d471e", "lat": 38.90836066666667, "is_disabled": 0, "is_reserved": 0, "lon": -76.991887, "type": "electric_scooter", "fusion_lat": 0.0, "rental_uris": {"android": "https://dc.lft.to/lastmile_qr_scan", "ios": "https://dc.lft.to/lastmile_qr_scan"}}, {"bike_id": "059d2133cec87d5004e39e79eb5b50cc", "fusion_lon": 0.0, "name": "059d2133cec87d5004e39e79eb5b50cc", "lat": 38.88953383333333, "is_disabled": 0, "is_reserved": 0, "lon": -77.07642533333333, "type": "electric_bike", "fusion_lat": 0.0, "rental_uris": {"android": "https://dc.lft.to/lastmile_qr_scan", "ios": "https://dc.lft.to/lastmile_qr_scan"}}, {"bike_id": "3d22cf8a52bd49f837074cfe084c9df2", "fusion_lon": 0.0, "name": "3d22cf8a52bd49f837074cfe084c9df2", "lat": 38.92614833333333, "is_disabled": 0, "is_reserved": 0, "lon": -77.0216145, "type": "electric_scooter", "fusion_lat": 0.0, "rental_uris": {"android": "https://dc.lft.to/lastmile_qr_scan", "ios": "https://dc.lft.to/lastmile_qr_scan"}}, {"bike_id": "adfa925499ae58c3ef8aed9116897196", "fusion_lon": 0.0, "name": "adfa925499ae58c3ef8aed9116897196", "lat": 38.918244333333334, "is_disabled": 0, "is_reserved": 0, "lon": -77.041798, "type": "electric_scooter", "fusion_lat": 0.0, "rental_uris": {"android": "https://dc.lft.to/lastmile_qr_scan", "ios": "https://dc.lft.to/lastmile_qr_scan"}}, {"bike_id": "ec03338baac7e8dbdb0db559d260898c", "fusion_lon": 0.0, "name": "ec03338baac7e8dbdb0db559d260898c", "lat": 38.899078, "is_disabled": 0, "is_reserved": 0, "lon": -77.03944716666666, "type": "electric_scooter", "fusion_lat": 0.0, "rental_uris": {"android": "https://dc.lft.to/lastmile_qr_scan", "ios": "https://dc.lft.to/lastmile_qr_scan"}}, {"bike_id": "f459f79ad68e43ac6b639066ab531ebc", "fusion_lon": 0.0, "name": "f459f79ad68e43ac6b639066ab531ebc", "lat": 38.9249265, "is_disabled": 0, "is_reserved": 0, "lon": -77.05111483333333, "type": "electric_scooter", "fusion_lat": 0.0, "rental_uris": {"android": "https://dc.lft.to/lastmile_qr_scan", "ios": "https://dc.lft.to/lastmile_qr_scan"}}, {"bike_id": "785817618319aad1bc18bccdc4ca0675", "fusion_lon": 0.0, "name": "785817618319aad1bc18bccdc4ca0675", "lat": 38.93256083333333, "is_disabled": 0, "is_reserved": 0, "lon": -77.0310015, "type": "electric_scooter", "fusion_lat": 0.0, "rental_uris": {"android": "https://dc.lft.to/lastmile_qr_scan", "ios": "https://dc.lft.to/lastmile_qr_scan"}}, {"bike_id": "c15d23149bb94c530c8fb4a021d4d668", "fusion_lon": 0.0, "name": "c15d23149bb94c530c8fb4a021d4d668", "lat": 38.9286665, "is_disabled": 0, "is_reserved": 0, "lon": -77.03219816666666, "type": "electric_scooter", "fusion_lat": 0.0, "rental_uris": {"android": "https://dc.lft.to/lastmile_qr_scan", "ios": "https://dc.lft.to/lastmile_qr_scan"}}, {"bike_id": "b866a8885333e2b0118f862ac68813f0", "fusion_lon": 0.0, "name": "b866a8885333e2b0118f862ac68813f0", "lat": 38.933953333333335, "is_disabled": 0, "is_reserved": 0, "lon": -77.05770216666667, "type": "electric_scooter", "fusion_lat": 0.0, "rental_uris": {"android": "https://dc.lft.to/lastmile_qr_scan", "ios": "https://dc.lft.to/lastmile_qr_scan"}}, {"bike_id": "cd5a4f6509e659d33ddf0fa45f8f5d9c", "fusion_lon": 0.0, "name": "cd5a4f6509e659d33ddf0fa45f8f5d9c", "lat": 38.9017245, "is_disabled": 0, "is_reserved": 0, "lon": -77.049108, "type": "electric_scooter", "fusion_lat": 0.0, "rental_uris": {"android": "https://dc.lft.to/lastmile_qr_scan", "ios": "https://dc.lft.to/lastmile_qr_scan"}}, {"bike_id": "774110c91cf3db873e76aa6662a3d468", "fusion_lon": 0.0, "name": "774110c91cf3db873e76aa6662a3d468", "lat": 38.923137, "is_disabled": 0, "is_reserved": 0, "lon": -77.04215966666666, "type": "electric_scooter", "fusion_lat": 0.0, "rental_uris": {"android": "https://dc.lft.to/lastmile_qr_scan", "ios": "https://dc.lft.to/lastmile_qr_scan"}}, {"bike_id": "d3e2016073fbfb78b2d923944ea47e42", "fusion_lon": 0.0, "name": "d3e2016073fbfb78b2d923944ea47e42", "lat": 38.91116816666667, "is_disabled": 0, "is_reserved": 0, "lon": -77.04239533333333, "type": "electric_scooter", "fusion_lat": 0.0, "rental_uris": {"android": "https://dc.lft.to/lastmile_qr_scan", "ios": "https://dc.lft.to/lastmile_qr_scan"}}, {"bike_id": "1b065bf736f9e7987b1a64f03b4b2fce", "fusion_lon": 0.0, "name": "1b065bf736f9e7987b1a64f03b4b2fce", "lat": 38.887934666666666, "is_disabled": 0, "is_reserved": 0, "lon": -76.923409, "type": "electric_bike", "fusion_lat": 0.0, "rental_uris": {"android": "https://dc.lft.to/lastmile_qr_scan", "ios": "https://dc.lft.to/lastmile_qr_scan"}}, {"bike_id": "8bec2d5daa71bbbcff2c5d99985496be", "fusion_lon": 0.0, "name": "8bec2d5daa71bbbcff2c5d99985496be", "lat": 38.935831, "is_disabled": 0, "is_reserved": 0, "lon": -77.07344333333333, "type": "electric_scooter", "fusion_lat": 0.0, "rental_uris": {"android": "https://dc.lft.to/lastmile_qr_scan", "ios": "https://dc.lft.to/lastmile_qr_scan"}}, {"bike_id": "0cceff7871c19decb8e65c7b6fa85622", "fusion_lon": 0.0, "name": "0cceff7871c19decb8e65c7b6fa85622", "lat": 38.8902325, "is_disabled": 0, "is_reserved": 0, "lon": -77.0150655, "type": "electric_scooter", "fusion_lat": 0.0, "rental_uris": {"android": "https://dc.lft.to/lastmile_qr_scan", "ios": "https://dc.lft.to/lastmile_qr_scan"}}, {"bike_id": "fda8ab1a525ed443cd5ab5fb56321c68", "fusion_lon": 0.0, "name": "fda8ab1a525ed443cd5ab5fb56321c68", "lat": 38.904008166666664, "is_disabled": 0, "is_reserved": 0, "lon": -77.02481216666666, "type": "electric_scooter", "fusion_lat": 0.0, "rental_uris": {"android": "https://dc.lft.to/lastmile_qr_scan", "ios": "https://dc.lft.to/lastmile_qr_scan"}}, {"bike_id": "af7412ea6c806bd0ecc54122c5ff2af3", "fusion_lon": 0.0, "name": "af7412ea6c806bd0ecc54122c5ff2af3", "lat": 38.883603, "is_disabled": 0, "is_reserved": 0, "lon": -76.98217016666666, "type": "electric_scooter", "fusion_lat": 0.0, "rental_uris": {"android": "https://dc.lft.to/lastmile_qr_scan", "ios": "https://dc.lft.to/lastmile_qr_scan"}}, {"bike_id": "e170b0b41b783747eef16bbbaf93f2ae", "fusion_lon": 0.0, "name": "e170b0b41b783747eef16bbbaf93f2ae", "lat": 38.90490166666667, "is_disabled": 0, "is_reserved": 0, "lon": -76.97427016666667, "type": "electric_bike", "fusion_lat": 0.0, "rental_uris": {"android": "https://dc.lft.to/lastmile_qr_scan", "ios": "https://dc.lft.to/lastmile_qr_scan"}}, {"bike_id": "b5ddb5f2259ccffb6466a356dd8731a7", "fusion_lon": 0.0, "name": "b5ddb5f2259ccffb6466a356dd8731a7", "lat": 38.91690116666667, "is_disabled": 0, "is_reserved": 0, "lon": -77.037644, "type": "electric_scooter", "fusion_lat": 0.0, "rental_uris": {"android": "https://dc.lft.to/lastmile_qr_scan", "ios": "https://dc.lft.to/lastmile_qr_scan"}}, {"bike_id": "bd348572cc347761891bf1fc211178cc", "fusion_lon": 0.0, "name": "bd348572cc347761891bf1fc211178cc", "lat": 38.9960965, "is_disabled": 0, "is_reserved": 0, "lon": -77.0780095, "type": "electric_bike", "fusion_lat": 0.0, "rental_uris": {"android": "https://dc.lft.to/lastmile_qr_scan", "ios": "https://dc.lft.to/lastmile_qr_scan"}}, {"bike_id": "16575ee68aee6ece56ef386f35c03c02", "fusion_lon": 0.0, "name": "16575ee68aee6ece56ef386f35c03c02", "lat": 38.9224365, "is_disabled": 0, "is_reserved": 0, "lon": -77.02994433333333, "type": "electric_scooter", "fusion_lat": 0.0, "rental_uris": {"android": "https://dc.lft.to/lastmile_qr_scan", "ios": "https://dc.lft.to/lastmile_qr_scan"}}, {"bike_id": "22919c861bdf1b894b6fb40fdbadf299", "fusion_lon": 0.0, "name": "22919c861bdf1b894b6fb40fdbadf299", "lat": 38.842823333333335, "is_disabled": 0, "is_reserved": 0, "lon": -76.98838, "type": "electric_bike", "fusion_lat": 0.0, "rental_uris": {"android": "https://dc.lft.to/lastmile_qr_scan", "ios": "https://dc.lft.to/lastmile_qr_scan"}}, {"bike_id": "31bd7b8d60a41609ba48b14d823bbfce", "fusion_lon": 0.0, "name": "31bd7b8d60a41609ba48b14d823bbfce", "lat": 38.946604666666666, "is_disabled": 0, "is_reserved": 0, "lon": -77.00698983333334, "type": "electric_bike", "fusion_lat": 0.0, "rental_uris": {"android": "https://dc.lft.to/lastmile_qr_scan", "ios": "https://dc.lft.to/lastmile_qr_scan"}}, {"bike_id": "5cc65344947e42ba17e0eb399ee76c70", "fusion_lon": 0.0, "name": "5cc65344947e42ba17e0eb399ee76c70", "lat": 38.89931816666667, "is_disabled": 0, "is_reserved": 0, "lon": -77.027308, "type": "electric_scooter", "fusion_lat": 0.0, "rental_uris": {"android": "https://dc.lft.to/lastmile_qr_scan", "ios": "https://dc.lft.to/lastmile_qr_scan"}}, {"bike_id": "4f66142400dd5deb2abc1df114aff971", "fusion_lon": 0.0, "name": "4f66142400dd5deb2abc1df114aff971", "lat": 38.8872455, "is_disabled": 0, "is_reserved": 0, "lon": -77.01331266666666, "type": "electric_scooter", "fusion_lat": 0.0, "rental_uris": {"android": "https://dc.lft.to/lastmile_qr_scan", "ios": "https://dc.lft.to/lastmile_qr_scan"}}, {"bike_id": "00e504352e69ee59bc3f9b94a9594970", "fusion_lon": 0.0, "name": "00e504352e69ee59bc3f9b94a9594970", "lat": 38.91812616666667, "is_disabled": 0, "is_reserved": 0, "lon": -77.0269905, "type": "electric_scooter", "fusion_lat": 0.0, "rental_uris": {"android": "https://dc.lft.to/lastmile_qr_scan", "ios": "https://dc.lft.to/lastmile_qr_scan"}}, {"bike_id": "58d5afb8b19b2a6d50b48872c826af74", "fusion_lon": 0.0, "name": "58d5afb8b19b2a6d50b48872c826af74", "lat": 38.91771, "is_disabled": 0, "is_reserved": 0, "lon": -77.02288666666666, "type": "electric_scooter", "fusion_lat": 0.0, "rental_uris": {"android": "https://dc.lft.to/lastmile_qr_scan", "ios": "https://dc.lft.to/lastmile_qr_scan"}}, {"bike_id": "af245302668b7e940939bfa90eb86856", "fusion_lon": 0.0, "name": "af245302668b7e940939bfa90eb86856", "lat": 38.893219333333334, "is_disabled": 0, "is_reserved": 0, "lon": -77.0221805, "type": "electric_scooter", "fusion_lat": 0.0, "rental_uris": {"android": "https://dc.lft.to/lastmile_qr_scan", "ios": "https://dc.lft.to/lastmile_qr_scan"}}, {"bike_id": "cfb952b015bca7bb1ebd2d506561f284", "fusion_lon": 0.0, "name": "cfb952b015bca7bb1ebd2d506561f284", "lat": 38.936739333333335, "is_disabled": 0, "is_reserved": 0, "lon": -77.035946, "type": "electric_scooter", "fusion_lat": 0.0, "rental_uris": {"android": "https://dc.lft.to/lastmile_qr_scan", "ios": "https://dc.lft.to/lastmile_qr_scan"}}, {"bike_id": "95e74cfea4b59714014d5f106342c678", "fusion_lon": 0.0, "name": "95e74cfea4b59714014d5f106342c678", "lat": 38.86508383333333, "is_disabled": 0, "is_reserved": 0, "lon": -76.9900095, "type": "electric_scooter", "fusion_lat": 0.0, "rental_uris": {"android": "https://dc.lft.to/lastmile_qr_scan", "ios": "https://dc.lft.to/lastmile_qr_scan"}}, {"bike_id": "9140048ed7ef3054ba63ce19675eeab4", "fusion_lon": 0.0, "name": "9140048ed7ef3054ba63ce19675eeab4", "lat": 38.892523, "is_disabled": 0, "is_reserved": 0, "lon": -77.04658666666667, "type": "electric_scooter", "fusion_lat": 0.0, "rental_uris": {"android": "https://dc.lft.to/lastmile_qr_scan", "ios": "https://dc.lft.to/lastmile_qr_scan"}}, {"bike_id": "c37b95d47390d872dc2d83f146a772c2", "fusion_lon": 0.0, "name": "c37b95d47390d872dc2d83f146a772c2", "lat": 38.9288055, "is_disabled": 0, "is_reserved": 0, "lon": -77.02708116666666, "type": "electric_scooter", "fusion_lat": 0.0, "rental_uris": {"android": "https://dc.lft.to/lastmile_qr_scan", "ios": "https://dc.lft.to/lastmile_qr_scan"}}, {"bike_id": "ab4b8408f65e2fdc1ada63fe7c9e7957", "fusion_lon": 0.0, "name": "ab4b8408f65e2fdc1ada63fe7c9e7957", "lat": 38.91316233333333, "is_disabled": 0, "is_reserved": 0, "lon": -77.01514333333333, "type": "electric_scooter", "fusion_lat": 0.0, "rental_uris": {"android": "https://dc.lft.to/lastmile_qr_scan", "ios": "https://dc.lft.to/lastmile_qr_scan"}}, {"bike_id": "f1eb9eaa44525365c6b8b3f011ac8f59", "fusion_lon": 0.0, "name": "f1eb9eaa44525365c6b8b3f011ac8f59", "lat": 38.90143066666667, "is_disabled": 0, "is_reserved": 0, "lon": -77.03984516666667, "type": "electric_scooter", "fusion_lat": 0.0, "rental_uris": {"android": "https://dc.lft.to/lastmile_qr_scan", "ios": "https://dc.lft.to/lastmile_qr_scan"}}, {"bike_id": "d576b85caf5ab421e6d8b2f14fe09b9e", "fusion_lon": 0.0, "name": "d576b85caf5ab421e6d8b2f14fe09b9e", "lat": 38.91118816666667, "is_disabled": 0, "is_reserved": 0, "lon": -77.04552433333333, "type": "electric_scooter", "fusion_lat": 0.0, "rental_uris": {"android": "https://dc.lft.to/lastmile_qr_scan", "ios": "https://dc.lft.to/lastmile_qr_scan"}}, {"bike_id": "18b2e4e9cf4980f6eff81b378546920e", "fusion_lon": 0.0, "name": "18b2e4e9cf4980f6eff81b378546920e", "lat": 38.907802333333336, "is_disabled": 0, "is_reserved": 0, "lon": -77.04009116666667, "type": "electric_scooter", "fusion_lat": 0.0, "rental_uris": {"android": "https://dc.lft.to/lastmile_qr_scan", "ios": "https://dc.lft.to/lastmile_qr_scan"}}, {"bike_id": "a10f662711c83221ad109588e204d801", "fusion_lon": 0.0, "name": "a10f662711c83221ad109588e204d801", "lat": 38.90409, "is_disabled": 0, "is_reserved": 0, "lon": -76.973306, "type": "electric_scooter", "fusion_lat": 0.0, "rental_uris": {"android": "https://dc.lft.to/lastmile_qr_scan", "ios": "https://dc.lft.to/lastmile_qr_scan"}}, {"bike_id": "65354ccb6f7334d6aae7b9b1e603a7d8", "fusion_lon": 0.0, "name": "65354ccb6f7334d6aae7b9b1e603a7d8", "lat": 38.902006, "is_disabled": 0, "is_reserved": 0, "lon": -77.02147383333333, "type": "electric_scooter", "fusion_lat": 0.0, "rental_uris": {"android": "https://dc.lft.to/lastmile_qr_scan", "ios": "https://dc.lft.to/lastmile_qr_scan"}}, {"bike_id": "8ae0541cb48fe4f8ceefeda102799994", "fusion_lon": 0.0, "name": "8ae0541cb48fe4f8ceefeda102799994", "lat": 38.908561, "is_disabled": 0, "is_reserved": 0, "lon": -76.99796833333333, "type": "electric_scooter", "fusion_lat": 0.0, "rental_uris": {"android": "https://dc.lft.to/lastmile_qr_scan", "ios": "https://dc.lft.to/lastmile_qr_scan"}}, {"bike_id": "21537dad77e30dd13d40844c9483ce25", "fusion_lon": 0.0, "name": "21537dad77e30dd13d40844c9483ce25", "lat": 38.90256683333333, "is_disabled": 0, "is_reserved": 0, "lon": -76.97460066666666, "type": "electric_scooter", "fusion_lat": 0.0, "rental_uris": {"android": "https://dc.lft.to/lastmile_qr_scan", "ios": "https://dc.lft.to/lastmile_qr_scan"}}, {"bike_id": "ac7475d188b5c435c2f15cd59aebef88", "fusion_lon": 0.0, "name": "ac7475d188b5c435c2f15cd59aebef88", "lat": 38.9170815, "is_disabled": 0, "is_reserved": 0, "lon": -77.03470266666666, "type": "electric_scooter", "fusion_lat": 0.0, "rental_uris": {"android": "https://dc.lft.to/lastmile_qr_scan", "ios": "https://dc.lft.to/lastmile_qr_scan"}}, {"bike_id": "34ea02c303837aeee7ddba733af44622", "fusion_lon": 0.0, "name": "34ea02c303837aeee7ddba733af44622", "lat": 38.93023783333334, "is_disabled": 0, "is_reserved": 0, "lon": -77.03286983333334, "type": "electric_scooter", "fusion_lat": 0.0, "rental_uris": {"android": "https://dc.lft.to/lastmile_qr_scan", "ios": "https://dc.lft.to/lastmile_qr_scan"}}, {"bike_id": "36ac44abd4bb6f6dc21838b5debc98e7", "fusion_lon": 0.0, "name": "36ac44abd4bb6f6dc21838b5debc98e7", "lat": 38.949911666666665, "is_disabled": 0, "is_reserved": 0, "lon": -77.02707616666666, "type": "electric_scooter", "fusion_lat": 0.0, "rental_uris": {"android": "https://dc.lft.to/lastmile_qr_scan", "ios": "https://dc.lft.to/lastmile_qr_scan"}}, {"bike_id": "08524e57641066e39bc031393d106097", "fusion_lon": 0.0, "name": "08524e57641066e39bc031393d106097", "lat": 38.899190833333336, "is_disabled": 0, "is_reserved": 0, "lon": -77.00356616666667, "type": "electric_scooter", "fusion_lat": 0.0, "rental_uris": {"android": "https://dc.lft.to/lastmile_qr_scan", "ios": "https://dc.lft.to/lastmile_qr_scan"}}, {"bike_id": "d0d04068a411ec53e7c689d505857b53", "fusion_lon": 0.0, "name": "d0d04068a411ec53e7c689d505857b53", "lat": 38.91402733333334, "is_disabled": 0, "is_reserved": 0, "lon": -77.02661633333334, "type": "electric_scooter", "fusion_lat": 0.0, "rental_uris": {"android": "https://dc.lft.to/lastmile_qr_scan", "ios": "https://dc.lft.to/lastmile_qr_scan"}}, {"bike_id": "525d8500faa1c637b824fdd8a0dc8bd4", "fusion_lon": 0.0, "name": "525d8500faa1c637b824fdd8a0dc8bd4", "lat": 38.897651, "is_disabled": 0, "is_reserved": 0, "lon": -76.98549033333333, "type": "electric_scooter", "fusion_lat": 0.0, "rental_uris": {"android": "https://dc.lft.to/lastmile_qr_scan", "ios": "https://dc.lft.to/lastmile_qr_scan"}}, {"bike_id": "630dee042b085945947ad251dd04720b", "fusion_lon": 0.0, "name": "630dee042b085945947ad251dd04720b", "lat": 38.921216666666666, "is_disabled": 0, "is_reserved": 0, "lon": -77.03179933333334, "type": "electric_scooter", "fusion_lat": 0.0, "rental_uris": {"android": "https://dc.lft.to/lastmile_qr_scan", "ios": "https://dc.lft.to/lastmile_qr_scan"}}, {"bike_id": "c1b0ec4d86d3779ae45ca8b5bc3298a1", "fusion_lon": 0.0, "name": "c1b0ec4d86d3779ae45ca8b5bc3298a1", "lat": 38.93605133333333, "is_disabled": 0, "is_reserved": 0, "lon": -77.05863416666666, "type": "electric_scooter", "fusion_lat": 0.0, "rental_uris": {"android": "https://dc.lft.to/lastmile_qr_scan", "ios": "https://dc.lft.to/lastmile_qr_scan"}}, {"bike_id": "36f3fe99c55246b0a14098981d056aa5", "fusion_lon": 0.0, "name": "36f3fe99c55246b0a14098981d056aa5", "lat": 38.8405275, "is_disabled": 0, "is_reserved": 0, "lon": -76.97668633333333, "type": "electric_scooter", "fusion_lat": 0.0, "rental_uris": {"android": "https://dc.lft.to/lastmile_qr_scan", "ios": "https://dc.lft.to/lastmile_qr_scan"}}, {"bike_id": "2b7395929dae17abd42f9c40c1febd69", "fusion_lon": 0.0, "name": "2b7395929dae17abd42f9c40c1febd69", "lat": 38.9234645, "is_disabled": 0, "is_reserved": 0, "lon": -77.0354245, "type": "electric_scooter", "fusion_lat": 0.0, "rental_uris": {"android": "https://dc.lft.to/lastmile_qr_scan", "ios": "https://dc.lft.to/lastmile_qr_scan"}}, {"bike_id": "c34f0f5ea23307b6382b628972b2e81e", "fusion_lon": 0.0, "name": "c34f0f5ea23307b6382b628972b2e81e", "lat": 38.89838866666667, "is_disabled": 0, "is_reserved": 0, "lon": -76.93169083333333, "type": "electric_scooter", "fusion_lat": 0.0, "rental_uris": {"android": "https://dc.lft.to/lastmile_qr_scan", "ios": "https://dc.lft.to/lastmile_qr_scan"}}, {"bike_id": "55510f91150c52818132c397104de11a", "fusion_lon": 0.0, "name": "55510f91150c52818132c397104de11a", "lat": 38.91307466666667, "is_disabled": 0, "is_reserved": 0, "lon": -77.0453725, "type": "electric_scooter", "fusion_lat": 0.0, "rental_uris": {"android": "https://dc.lft.to/lastmile_qr_scan", "ios": "https://dc.lft.to/lastmile_qr_scan"}}, {"bike_id": "3fd7030c7dfe16ab283b5762901e6239", "fusion_lon": 0.0, "name": "3fd7030c7dfe16ab283b5762901e6239", "lat": 38.948977666666664, "is_disabled": 0, "is_reserved": 0, "lon": -76.9637865, "type": "electric_bike", "fusion_lat": 0.0, "rental_uris": {"android": "https://dc.lft.to/lastmile_qr_scan", "ios": "https://dc.lft.to/lastmile_qr_scan"}}, {"bike_id": "2a0a888d31a00170fde5d5446ad383df", "fusion_lon": 0.0, "name": "2a0a888d31a00170fde5d5446ad383df", "lat": 38.914479666666665, "is_disabled": 0, "is_reserved": 0, "lon": -77.02184616666666, "type": "electric_scooter", "fusion_lat": 0.0, "rental_uris": {"android": "https://dc.lft.to/lastmile_qr_scan", "ios": "https://dc.lft.to/lastmile_qr_scan"}}, {"bike_id": "e045b8d2386d7299f061b67ed9fe58d1", "fusion_lon": 0.0, "name": "e045b8d2386d7299f061b67ed9fe58d1", "lat": 38.882465, "is_disabled": 0, "is_reserved": 0, "lon": -76.9626215, "type": "electric_bike", "fusion_lat": 0.0, "rental_uris": {"android": "https://dc.lft.to/lastmile_qr_scan", "ios": "https://dc.lft.to/lastmile_qr_scan"}}, {"bike_id": "1fedf28272fc49382b1153a890c9f4f7", "fusion_lon": 0.0, "name": "1fedf28272fc49382b1153a890c9f4f7", "lat": 38.8756345, "is_disabled": 0, "is_reserved": 0, "lon": -77.00941416666667, "type": "electric_scooter", "fusion_lat": 0.0, "rental_uris": {"android": "https://dc.lft.to/lastmile_qr_scan", "ios": "https://dc.lft.to/lastmile_qr_scan"}}, {"bike_id": "64e5690ca7238bbd8badb1b71371cc14", "fusion_lon": 0.0, "name": "64e5690ca7238bbd8badb1b71371cc14", "lat": 38.922282833333334, "is_disabled": 0, "is_reserved": 0, "lon": -77.04309833333333, "type": "electric_scooter", "fusion_lat": 0.0, "rental_uris": {"android": "https://dc.lft.to/lastmile_qr_scan", "ios": "https://dc.lft.to/lastmile_qr_scan"}}, {"bike_id": "95f458f2256ac82aee5687ffa80b85cf", "fusion_lon": 0.0, "name": "95f458f2256ac82aee5687ffa80b85cf", "lat": 38.927952166666664, "is_disabled": 0, "is_reserved": 0, "lon": -76.95558433333333, "type": "electric_scooter", "fusion_lat": 0.0, "rental_uris": {"android": "https://dc.lft.to/lastmile_qr_scan", "ios": "https://dc.lft.to/lastmile_qr_scan"}}, {"bike_id": "3affda7175de71fc85b7649e46cb48cd", "fusion_lon": 0.0, "name": "3affda7175de71fc85b7649e46cb48cd", "lat": 38.920443, "is_disabled": 0, "is_reserved": 0, "lon": -77.0797795, "type": "electric_scooter", "fusion_lat": 0.0, "rental_uris": {"android": "https://dc.lft.to/lastmile_qr_scan", "ios": "https://dc.lft.to/lastmile_qr_scan"}}, {"bike_id": "b7d42e90b9ebc27c2070e3ddc2e3a69c", "fusion_lon": 0.0, "name": "b7d42e90b9ebc27c2070e3ddc2e3a69c", "lat": 38.9048765, "is_disabled": 0, "is_reserved": 0, "lon": -76.94965116666667, "type": "electric_scooter", "fusion_lat": 0.0, "rental_uris": {"android": "https://dc.lft.to/lastmile_qr_scan", "ios": "https://dc.lft.to/lastmile_qr_scan"}}, {"bike_id": "cf216d5522f14b21b6bee8e9924575f8", "fusion_lon": 0.0, "name": "cf216d5522f14b21b6bee8e9924575f8", "lat": 38.9015625, "is_disabled": 0, "is_reserved": 0, "lon": -76.97628733333333, "type": "electric_scooter", "fusion_lat": 0.0, "rental_uris": {"android": "https://dc.lft.to/lastmile_qr_scan", "ios": "https://dc.lft.to/lastmile_qr_scan"}}, {"bike_id": "2646be3be610a29d619f0a0d10f13eb0", "fusion_lon": 0.0, "name": "2646be3be610a29d619f0a0d10f13eb0", "lat": 38.9154945, "is_disabled": 0, "is_reserved": 0, "lon": -77.03280466666666, "type": "electric_scooter", "fusion_lat": 0.0, "rental_uris": {"android": "https://dc.lft.to/lastmile_qr_scan", "ios": "https://dc.lft.to/lastmile_qr_scan"}}, {"bike_id": "d65043b2e254c1f298ed3bc1d1adeb19", "fusion_lon": 0.0, "name": "d65043b2e254c1f298ed3bc1d1adeb19", "lat": 38.919351166666665, "is_disabled": 0, "is_reserved": 0, "lon": -77.07089066666667, "type": "electric_scooter", "fusion_lat": 0.0, "rental_uris": {"android": "https://dc.lft.to/lastmile_qr_scan", "ios": "https://dc.lft.to/lastmile_qr_scan"}}, {"bike_id": "492c0c1c2ced9a243226bf14a8becdae", "fusion_lon": 0.0, "name": "492c0c1c2ced9a243226bf14a8becdae", "lat": 38.902794166666666, "is_disabled": 0, "is_reserved": 0, "lon": -77.038528, "type": "electric_scooter", "fusion_lat": 0.0, "rental_uris": {"android": "https://dc.lft.to/lastmile_qr_scan", "ios": "https://dc.lft.to/lastmile_qr_scan"}}, {"bike_id": "d6116ded29a15d0dc17f7561467b8e85", "fusion_lon": 0.0, "name": "d6116ded29a15d0dc17f7561467b8e85", "lat": 38.878273, "is_disabled": 0, "is_reserved": 0, "lon": -77.00570066666667, "type": "electric_scooter", "fusion_lat": 0.0, "rental_uris": {"android": "https://dc.lft.to/lastmile_qr_scan", "ios": "https://dc.lft.to/lastmile_qr_scan"}}, {"bike_id": "9bd89500fb8f3a282673fe017e2585e5", "fusion_lon": 0.0, "name": "9bd89500fb8f3a282673fe017e2585e5", "lat": 38.94920366666667, "is_disabled": 0, "is_reserved": 0, "lon": -77.01853833333334, "type": "electric_scooter", "fusion_lat": 0.0, "rental_uris": {"android": "https://dc.lft.to/lastmile_qr_scan", "ios": "https://dc.lft.to/lastmile_qr_scan"}}, {"bike_id": "9736879355858e88c20805e8dbfa68e5", "fusion_lon": 0.0, "name": "9736879355858e88c20805e8dbfa68e5", "lat": 38.9244865, "is_disabled": 0, "is_reserved": 0, "lon": -77.052482, "type": "electric_scooter", "fusion_lat": 0.0, "rental_uris": {"android": "https://dc.lft.to/lastmile_qr_scan", "ios": "https://dc.lft.to/lastmile_qr_scan"}}, {"bike_id": "2ae0ff64d15b42104dcfd747a8850e5d", "fusion_lon": 0.0, "name": "2ae0ff64d15b42104dcfd747a8850e5d", "lat": 38.895871, "is_disabled": 0, "is_reserved": 0, "lon": -77.02632, "type": "electric_scooter", "fusion_lat": 0.0, "rental_uris": {"android": "https://dc.lft.to/lastmile_qr_scan", "ios": "https://dc.lft.to/lastmile_qr_scan"}}, {"bike_id": "1c184dd3891a840491c5b05e993938d9", "fusion_lon": 0.0, "name": "1c184dd3891a840491c5b05e993938d9", "lat": 38.898444, "is_disabled": 0, "is_reserved": 0, "lon": -77.02872516666666, "type": "electric_scooter", "fusion_lat": 0.0, "rental_uris": {"android": "https://dc.lft.to/lastmile_qr_scan", "ios": "https://dc.lft.to/lastmile_qr_scan"}}, {"bike_id": "88a7393d5f82205ac603e4b397ab3213", "fusion_lon": 0.0, "name": "88a7393d5f82205ac603e4b397ab3213", "lat": 38.89919733333333, "is_disabled": 0, "is_reserved": 0, "lon": -76.98535666666666, "type": "electric_scooter", "fusion_lat": 0.0, "rental_uris": {"android": "https://dc.lft.to/lastmile_qr_scan", "ios": "https://dc.lft.to/lastmile_qr_scan"}}, {"bike_id": "759cf37a442f06e9cbfa94ac423f13c6", "fusion_lon": 0.0, "name": "759cf37a442f06e9cbfa94ac423f13c6", "lat": 38.855754833333336, "is_disabled": 0, "is_reserved": 0, "lon": -76.96654266666667, "type": "electric_scooter", "fusion_lat": 0.0, "rental_uris": {"android": "https://dc.lft.to/lastmile_qr_scan", "ios": "https://dc.lft.to/lastmile_qr_scan"}}, {"bike_id": "4c1a75fd13ee115e6dc57cfeed3b19a3", "fusion_lon": 0.0, "name": "4c1a75fd13ee115e6dc57cfeed3b19a3", "lat": 38.913756166666666, "is_disabled": 0, "is_reserved": 0, "lon": -77.03847866666666, "type": "electric_scooter", "fusion_lat": 0.0, "rental_uris": {"android": "https://dc.lft.to/lastmile_qr_scan", "ios": "https://dc.lft.to/lastmile_qr_scan"}}, {"bike_id": "e8dc439170b26bd3c353eb61f28fcaaa", "fusion_lon": 0.0, "name": "e8dc439170b26bd3c353eb61f28fcaaa", "lat": 38.903539, "is_disabled": 0, "is_reserved": 0, "lon": -77.0448385, "type": "electric_scooter", "fusion_lat": 0.0, "rental_uris": {"android": "https://dc.lft.to/lastmile_qr_scan", "ios": "https://dc.lft.to/lastmile_qr_scan"}}, {"bike_id": "93b3e9ec513f6e872bf0635e3189b655", "fusion_lon": 0.0, "name": "93b3e9ec513f6e872bf0635e3189b655", "lat": 38.904411, "is_disabled": 0, "is_reserved": 0, "lon": -77.040723, "type": "electric_scooter", "fusion_lat": 0.0, "rental_uris": {"android": "https://dc.lft.to/lastmile_qr_scan", "ios": "https://dc.lft.to/lastmile_qr_scan"}}, {"bike_id": "731342457ebfe2295af8bd3de488bfbf", "fusion_lon": 0.0, "name": "731342457ebfe2295af8bd3de488bfbf", "lat": 38.92040466666667, "is_disabled": 0, "is_reserved": 0, "lon": -77.04085816666667, "type": "electric_scooter", "fusion_lat": 0.0, "rental_uris": {"android": "https://dc.lft.to/lastmile_qr_scan", "ios": "https://dc.lft.to/lastmile_qr_scan"}}, {"bike_id": "01ba0a5d32a1fe77070128157314ae49", "fusion_lon": 0.0, "name": "01ba0a5d32a1fe77070128157314ae49", "lat": 38.89218366666667, "is_disabled": 0, "is_reserved": 0, "lon": -77.02012866666666, "type": "electric_scooter", "fusion_lat": 0.0, "rental_uris": {"android": "https://dc.lft.to/lastmile_qr_scan", "ios": "https://dc.lft.to/lastmile_qr_scan"}}, {"bike_id": "e282cf553e88e2472d111654163b58bf", "fusion_lon": 0.0, "name": "e282cf553e88e2472d111654163b58bf", "lat": 38.92365616666667, "is_disabled": 0, "is_reserved": 0, "lon": -77.05027766666667, "type": "electric_scooter", "fusion_lat": 0.0, "rental_uris": {"android": "https://dc.lft.to/lastmile_qr_scan", "ios": "https://dc.lft.to/lastmile_qr_scan"}}, {"bike_id": "23ffd3912766a837b5f8b2235e32cce7", "fusion_lon": 0.0, "name": "23ffd3912766a837b5f8b2235e32cce7", "lat": 38.91730783333333, "is_disabled": 0, "is_reserved": 0, "lon": -77.04168983333334, "type": "electric_scooter", "fusion_lat": 0.0, "rental_uris": {"android": "https://dc.lft.to/lastmile_qr_scan", "ios": "https://dc.lft.to/lastmile_qr_scan"}}, {"bike_id": "f8bc67eea9d2bbabbab9daec8c937c5e", "fusion_lon": 0.0, "name": "f8bc67eea9d2bbabbab9daec8c937c5e", "lat": 38.9181875, "is_disabled": 0, "is_reserved": 0, "lon": -77.0326705, "type": "electric_scooter", "fusion_lat": 0.0, "rental_uris": {"android": "https://dc.lft.to/lastmile_qr_scan", "ios": "https://dc.lft.to/lastmile_qr_scan"}}, {"bike_id": "d1cbc4f943905d5c2474cbd69af9b400", "fusion_lon": 0.0, "name": "d1cbc4f943905d5c2474cbd69af9b400", "lat": 38.926717333333336, "is_disabled": 0, "is_reserved": 0, "lon": -77.01511033333334, "type": "electric_scooter", "fusion_lat": 0.0, "rental_uris": {"android": "https://dc.lft.to/lastmile_qr_scan", "ios": "https://dc.lft.to/lastmile_qr_scan"}}, {"bike_id": "4d44f520e71f44034d20d933952f3ac6", "fusion_lon": 0.0, "name": "4d44f520e71f44034d20d933952f3ac6", "lat": 38.90468383333334, "is_disabled": 0, "is_reserved": 0, "lon": -77.040539, "type": "electric_scooter", "fusion_lat": 0.0, "rental_uris": {"android": "https://dc.lft.to/lastmile_qr_scan", "ios": "https://dc.lft.to/lastmile_qr_scan"}}, {"bike_id": "e47a9bb3794ea46e15cc32c75668cacb", "fusion_lon": 0.0, "name": "e47a9bb3794ea46e15cc32c75668cacb", "lat": 38.857699833333335, "is_disabled": 0, "is_reserved": 0, "lon": -76.98757783333333, "type": "electric_bike", "fusion_lat": 0.0, "rental_uris": {"android": "https://dc.lft.to/lastmile_qr_scan", "ios": "https://dc.lft.to/lastmile_qr_scan"}}, {"bike_id": "cba5b2dbd866c5de0d6c9823e2a634d1", "fusion_lon": 0.0, "name": "cba5b2dbd866c5de0d6c9823e2a634d1", "lat": 38.90456116666667, "is_disabled": 0, "is_reserved": 0, "lon": -77.0319195, "type": "electric_scooter", "fusion_lat": 0.0, "rental_uris": {"android": "https://dc.lft.to/lastmile_qr_scan", "ios": "https://dc.lft.to/lastmile_qr_scan"}}, {"bike_id": "ed9f3964a0d28e4bba57835201a7f526", "fusion_lon": 0.0, "name": "ed9f3964a0d28e4bba57835201a7f526", "lat": 38.897309166666666, "is_disabled": 0, "is_reserved": 0, "lon": -77.039633, "type": "electric_scooter", "fusion_lat": 0.0, "rental_uris": {"android": "https://dc.lft.to/lastmile_qr_scan", "ios": "https://dc.lft.to/lastmile_qr_scan"}}, {"bike_id": "0a2c1444edd4fe4ac6cbb0154225ebca", "fusion_lon": 0.0, "name": "0a2c1444edd4fe4ac6cbb0154225ebca", "lat": 38.86196833333333, "is_disabled": 0, "is_reserved": 0, "lon": -77.05986033333333, "type": "electric_bike", "fusion_lat": 0.0, "rental_uris": {"android": "https://dc.lft.to/lastmile_qr_scan", "ios": "https://dc.lft.to/lastmile_qr_scan"}}, {"bike_id": "022aaaf8ddbc211d451d8c1705ab929f", "fusion_lon": 0.0, "name": "022aaaf8ddbc211d451d8c1705ab929f", "lat": 38.91243133333333, "is_disabled": 0, "is_reserved": 0, "lon": -77.04874466666666, "type": "electric_scooter", "fusion_lat": 0.0, "rental_uris": {"android": "https://dc.lft.to/lastmile_qr_scan", "ios": "https://dc.lft.to/lastmile_qr_scan"}}, {"bike_id": "bba95d457388b38fc4de4b06ed2e7950", "fusion_lon": 0.0, "name": "bba95d457388b38fc4de4b06ed2e7950", "lat": 38.91098016666667, "is_disabled": 0, "is_reserved": 0, "lon": -77.044094, "type": "electric_scooter", "fusion_lat": 0.0, "rental_uris": {"android": "https://dc.lft.to/lastmile_qr_scan", "ios": "https://dc.lft.to/lastmile_qr_scan"}}, {"bike_id": "a2318b311ece65db7efb031054ba74a5", "fusion_lon": 0.0, "name": "a2318b311ece65db7efb031054ba74a5", "lat": 38.8868885, "is_disabled": 0, "is_reserved": 0, "lon": -76.97637733333333, "type": "electric_scooter", "fusion_lat": 0.0, "rental_uris": {"android": "https://dc.lft.to/lastmile_qr_scan", "ios": "https://dc.lft.to/lastmile_qr_scan"}}, {"bike_id": "68b8a2b7f55aaa5d16e85a8f15f31e91", "fusion_lon": 0.0, "name": "68b8a2b7f55aaa5d16e85a8f15f31e91", "lat": 38.905728, "is_disabled": 0, "is_reserved": 0, "lon": -77.02396716666667, "type": "electric_scooter", "fusion_lat": 0.0, "rental_uris": {"android": "https://dc.lft.to/lastmile_qr_scan", "ios": "https://dc.lft.to/lastmile_qr_scan"}}, {"bike_id": "cccf710e513b6ddda11fe828d0ccd810", "fusion_lon": 0.0, "name": "cccf710e513b6ddda11fe828d0ccd810", "lat": 38.926934333333335, "is_disabled": 0, "is_reserved": 0, "lon": -77.02303183333333, "type": "electric_scooter", "fusion_lat": 0.0, "rental_uris": {"android": "https://dc.lft.to/lastmile_qr_scan", "ios": "https://dc.lft.to/lastmile_qr_scan"}}, {"bike_id": "1a8006a01cc65e4f0cbdf654c859531d", "fusion_lon": 0.0, "name": "1a8006a01cc65e4f0cbdf654c859531d", "lat": 38.89864766666667, "is_disabled": 0, "is_reserved": 0, "lon": -76.94638, "type": "electric_scooter", "fusion_lat": 0.0, "rental_uris": {"android": "https://dc.lft.to/lastmile_qr_scan", "ios": "https://dc.lft.to/lastmile_qr_scan"}}, {"bike_id": "5313646d5fa35f033c03fcba10091103", "fusion_lon": 0.0, "name": "5313646d5fa35f033c03fcba10091103", "lat": 38.8934425, "is_disabled": 0, "is_reserved": 0, "lon": -76.93970716666666, "type": "electric_scooter", "fusion_lat": 0.0, "rental_uris": {"android": "https://dc.lft.to/lastmile_qr_scan", "ios": "https://dc.lft.to/lastmile_qr_scan"}}, {"bike_id": "f36a3cd1fba11851b2898fc9d87e46bc", "fusion_lon": 0.0, "name": "f36a3cd1fba11851b2898fc9d87e46bc", "lat": 38.91539733333333, "is_disabled": 0, "is_reserved": 0, "lon": -77.00548483333333, "type": "electric_scooter", "fusion_lat": 0.0, "rental_uris": {"android": "https://dc.lft.to/lastmile_qr_scan", "ios": "https://dc.lft.to/lastmile_qr_scan"}}, {"bike_id": "5fb97ce55c0da82c6ad29dddd87a1f06", "fusion_lon": 0.0, "name": "5fb97ce55c0da82c6ad29dddd87a1f06", "lat": 38.90029916666667, "is_disabled": 0, "is_reserved": 0, "lon": -77.036781, "type": "electric_scooter", "fusion_lat": 0.0, "rental_uris": {"android": "https://dc.lft.to/lastmile_qr_scan", "ios": "https://dc.lft.to/lastmile_qr_scan"}}, {"bike_id": "4e6c05e4e07d5d9510e494ac7f8991d4", "fusion_lon": 0.0, "name": "4e6c05e4e07d5d9510e494ac7f8991d4", "lat": 38.88732866666667, "is_disabled": 0, "is_reserved": 0, "lon": -77.02578966666667, "type": "electric_scooter", "fusion_lat": 0.0, "rental_uris": {"android": "https://dc.lft.to/lastmile_qr_scan", "ios": "https://dc.lft.to/lastmile_qr_scan"}}, {"bike_id": "a4b605c86eeac9f1c56b0e08e737607a", "fusion_lon": 0.0, "name": "a4b605c86eeac9f1c56b0e08e737607a", "lat": 38.9047315, "is_disabled": 0, "is_reserved": 0, "lon": -77.03587566666667, "type": "electric_scooter", "fusion_lat": 0.0, "rental_uris": {"android": "https://dc.lft.to/lastmile_qr_scan", "ios": "https://dc.lft.to/lastmile_qr_scan"}}, {"bike_id": "fbbff30ad9d2ce9b7b2edfea8c841533", "fusion_lon": 0.0, "name": "fbbff30ad9d2ce9b7b2edfea8c841533", "lat": 38.932519166666665, "is_disabled": 0, "is_reserved": 0, "lon": -77.02845016666667, "type": "electric_scooter", "fusion_lat": 0.0, "rental_uris": {"android": "https://dc.lft.to/lastmile_qr_scan", "ios": "https://dc.lft.to/lastmile_qr_scan"}}, {"bike_id": "02492ba9ebbb5e3ba4e46faee7a03b41", "fusion_lon": 0.0, "name": "02492ba9ebbb5e3ba4e46faee7a03b41", "lat": 38.91489683333333, "is_disabled": 0, "is_reserved": 0, "lon": -77.048383, "type": "electric_scooter", "fusion_lat": 0.0, "rental_uris": {"android": "https://dc.lft.to/lastmile_qr_scan", "ios": "https://dc.lft.to/lastmile_qr_scan"}}, {"bike_id": "f6e950abc8e0cf315b6b6274104b525e", "fusion_lon": 0.0, "name": "f6e950abc8e0cf315b6b6274104b525e", "lat": 38.94916333333333, "is_disabled": 0, "is_reserved": 0, "lon": -77.06621583333333, "type": "electric_scooter", "fusion_lat": 0.0, "rental_uris": {"android": "https://dc.lft.to/lastmile_qr_scan", "ios": "https://dc.lft.to/lastmile_qr_scan"}}, {"bike_id": "95453733c5b96dc59a734fd427e6b7ff", "fusion_lon": 0.0, "name": "95453733c5b96dc59a734fd427e6b7ff", "lat": 38.91268316666667, "is_disabled": 0, "is_reserved": 0, "lon": -77.048444, "type": "electric_scooter", "fusion_lat": 0.0, "rental_uris": {"android": "https://dc.lft.to/lastmile_qr_scan", "ios": "https://dc.lft.to/lastmile_qr_scan"}}, {"bike_id": "6f5cdf6b70f21f43c4fde3808566effe", "fusion_lon": 0.0, "name": "6f5cdf6b70f21f43c4fde3808566effe", "lat": 38.91298316666666, "is_disabled": 0, "is_reserved": 0, "lon": -76.98470383333333, "type": "electric_scooter", "fusion_lat": 0.0, "rental_uris": {"android": "https://dc.lft.to/lastmile_qr_scan", "ios": "https://dc.lft.to/lastmile_qr_scan"}}, {"bike_id": "4e957aa9f80816578ddab73731d989fd", "fusion_lon": 0.0, "name": "4e957aa9f80816578ddab73731d989fd", "lat": 38.92310033333333, "is_disabled": 0, "is_reserved": 0, "lon": -77.04116883333333, "type": "electric_scooter", "fusion_lat": 0.0, "rental_uris": {"android": "https://dc.lft.to/lastmile_qr_scan", "ios": "https://dc.lft.to/lastmile_qr_scan"}}, {"bike_id": "2beb4b39a70fc26a30b2aedc3d80391e", "fusion_lon": 0.0, "name": "2beb4b39a70fc26a30b2aedc3d80391e", "lat": 38.893607333333335, "is_disabled": 0, "is_reserved": 0, "lon": -76.92595716666666, "type": "electric_scooter", "fusion_lat": 0.0, "rental_uris": {"android": "https://dc.lft.to/lastmile_qr_scan", "ios": "https://dc.lft.to/lastmile_qr_scan"}}, {"bike_id": "44bc6ff5285532b1b386648b36fa7718", "fusion_lon": 0.0, "name": "44bc6ff5285532b1b386648b36fa7718", "lat": 38.9095035, "is_disabled": 0, "is_reserved": 0, "lon": -76.98544616666666, "type": "electric_scooter", "fusion_lat": 0.0, "rental_uris": {"android": "https://dc.lft.to/lastmile_qr_scan", "ios": "https://dc.lft.to/lastmile_qr_scan"}}, {"bike_id": "7c64126f3efad82e88270ca05db6769d", "fusion_lon": 0.0, "name": "7c64126f3efad82e88270ca05db6769d", "lat": 38.865192666666665, "is_disabled": 0, "is_reserved": 0, "lon": -77.1293425, "type": "electric_bike", "fusion_lat": 0.0, "rental_uris": {"android": "https://dc.lft.to/lastmile_qr_scan", "ios": "https://dc.lft.to/lastmile_qr_scan"}}, {"bike_id": "6b33dd1b5e188047231d46a19c05541e", "fusion_lon": 0.0, "name": "6b33dd1b5e188047231d46a19c05541e", "lat": 38.91695133333333, "is_disabled": 0, "is_reserved": 0, "lon": -77.04213766666666, "type": "electric_scooter", "fusion_lat": 0.0, "rental_uris": {"android": "https://dc.lft.to/lastmile_qr_scan", "ios": "https://dc.lft.to/lastmile_qr_scan"}}, {"bike_id": "0774ccc242a38f219c8ac8b4e0348b8f", "fusion_lon": 0.0, "name": "0774ccc242a38f219c8ac8b4e0348b8f", "lat": 38.82458716666667, "is_disabled": 0, "is_reserved": 0, "lon": -77.0078685, "type": "electric_bike", "fusion_lat": 0.0, "rental_uris": {"android": "https://dc.lft.to/lastmile_qr_scan", "ios": "https://dc.lft.to/lastmile_qr_scan"}}, {"bike_id": "a08d8fbe30248fb17d955b94f8a3cb14", "fusion_lon": 0.0, "name": "a08d8fbe30248fb17d955b94f8a3cb14", "lat": 38.9057765, "is_disabled": 0, "is_reserved": 0, "lon": -77.04075816666666, "type": "electric_scooter", "fusion_lat": 0.0, "rental_uris": {"android": "https://dc.lft.to/lastmile_qr_scan", "ios": "https://dc.lft.to/lastmile_qr_scan"}}, {"bike_id": "c94a7b7497483e6edaa18d2c5f67dd7d", "fusion_lon": 0.0, "name": "c94a7b7497483e6edaa18d2c5f67dd7d", "lat": 38.923607833333335, "is_disabled": 0, "is_reserved": 0, "lon": -77.05047533333334, "type": "electric_scooter", "fusion_lat": 0.0, "rental_uris": {"android": "https://dc.lft.to/lastmile_qr_scan", "ios": "https://dc.lft.to/lastmile_qr_scan"}}, {"bike_id": "a392482a4bc7656163ef49ef0fc8d5d6", "fusion_lon": 0.0, "name": "a392482a4bc7656163ef49ef0fc8d5d6", "lat": 38.89593216666667, "is_disabled": 0, "is_reserved": 0, "lon": -77.02590033333334, "type": "electric_scooter", "fusion_lat": 0.0, "rental_uris": {"android": "https://dc.lft.to/lastmile_qr_scan", "ios": "https://dc.lft.to/lastmile_qr_scan"}}, {"bike_id": "26a237ef17af3a928066ba2d65deabd8", "fusion_lon": 0.0, "name": "26a237ef17af3a928066ba2d65deabd8", "lat": 38.918828166666664, "is_disabled": 0, "is_reserved": 0, "lon": -77.04302233333334, "type": "electric_scooter", "fusion_lat": 0.0, "rental_uris": {"android": "https://dc.lft.to/lastmile_qr_scan", "ios": "https://dc.lft.to/lastmile_qr_scan"}}, {"bike_id": "fd3070bdeb32d50d811d998076462d1d", "fusion_lon": 0.0, "name": "fd3070bdeb32d50d811d998076462d1d", "lat": 38.909818333333334, "is_disabled": 0, "is_reserved": 0, "lon": -77.03463216666667, "type": "electric_scooter", "fusion_lat": 0.0, "rental_uris": {"android": "https://dc.lft.to/lastmile_qr_scan", "ios": "https://dc.lft.to/lastmile_qr_scan"}}, {"bike_id": "11037fbea0e27cddd0f26a11d17523cf", "fusion_lon": 0.0, "name": "11037fbea0e27cddd0f26a11d17523cf", "lat": 38.90037983333333, "is_disabled": 0, "is_reserved": 0, "lon": -77.013047, "type": "electric_scooter", "fusion_lat": 0.0, "rental_uris": {"android": "https://dc.lft.to/lastmile_qr_scan", "ios": "https://dc.lft.to/lastmile_qr_scan"}}, {"bike_id": "4c2b38b17775c356bdb5017c2584ecaa", "fusion_lon": 0.0, "name": "4c2b38b17775c356bdb5017c2584ecaa", "lat": 38.876858166666665, "is_disabled": 0, "is_reserved": 0, "lon": -77.0075265, "type": "electric_scooter", "fusion_lat": 0.0, "rental_uris": {"android": "https://dc.lft.to/lastmile_qr_scan", "ios": "https://dc.lft.to/lastmile_qr_scan"}}, {"bike_id": "292bfb2fda857420169b652d1c96e882", "fusion_lon": 0.0, "name": "292bfb2fda857420169b652d1c96e882", "lat": 38.88765583333333, "is_disabled": 0, "is_reserved": 0, "lon": -76.97752533333333, "type": "electric_scooter", "fusion_lat": 0.0, "rental_uris": {"android": "https://dc.lft.to/lastmile_qr_scan", "ios": "https://dc.lft.to/lastmile_qr_scan"}}, {"bike_id": "2bacbf46c4fb14140d76ee25713fdc24", "fusion_lon": 0.0, "name": "2bacbf46c4fb14140d76ee25713fdc24", "lat": 38.905544166666665, "is_disabled": 0, "is_reserved": 0, "lon": -77.04344383333333, "type": "electric_scooter", "fusion_lat": 0.0, "rental_uris": {"android": "https://dc.lft.to/lastmile_qr_scan", "ios": "https://dc.lft.to/lastmile_qr_scan"}}, {"bike_id": "374b03ef8675d97bfc2877c61e4944c2", "fusion_lon": 0.0, "name": "374b03ef8675d97bfc2877c61e4944c2", "lat": 38.900438666666666, "is_disabled": 0, "is_reserved": 0, "lon": -77.006871, "type": "electric_scooter", "fusion_lat": 0.0, "rental_uris": {"android": "https://dc.lft.to/lastmile_qr_scan", "ios": "https://dc.lft.to/lastmile_qr_scan"}}, {"bike_id": "f8b451a075a55000cc360e0f4bb5a291", "fusion_lon": 0.0, "name": "f8b451a075a55000cc360e0f4bb5a291", "lat": 38.89099683333333, "is_disabled": 0, "is_reserved": 0, "lon": -77.18415666666667, "type": "electric_bike", "fusion_lat": 0.0, "rental_uris": {"android": "https://dc.lft.to/lastmile_qr_scan", "ios": "https://dc.lft.to/lastmile_qr_scan"}}, {"bike_id": "f952d1061c7b875d668cbbcaa0218be3", "fusion_lon": 0.0, "name": "f952d1061c7b875d668cbbcaa0218be3", "lat": 38.856995833333336, "is_disabled": 0, "is_reserved": 0, "lon": -76.99594583333334, "type": "electric_scooter", "fusion_lat": 0.0, "rental_uris": {"android": "https://dc.lft.to/lastmile_qr_scan", "ios": "https://dc.lft.to/lastmile_qr_scan"}}, {"bike_id": "4f3a5ca2d38c7e4a235cf977328cb51f", "fusion_lon": 0.0, "name": "4f3a5ca2d38c7e4a235cf977328cb51f", "lat": 38.8962605, "is_disabled": 0, "is_reserved": 0, "lon": -76.9883655, "type": "electric_scooter", "fusion_lat": 0.0, "rental_uris": {"android": "https://dc.lft.to/lastmile_qr_scan", "ios": "https://dc.lft.to/lastmile_qr_scan"}}, {"bike_id": "88d7fd41b7d874baa0a1e7b69da99f66", "fusion_lon": 0.0, "name": "88d7fd41b7d874baa0a1e7b69da99f66", "lat": 38.8871105, "is_disabled": 0, "is_reserved": 0, "lon": -77.02207533333333, "type": "electric_scooter", "fusion_lat": 0.0, "rental_uris": {"android": "https://dc.lft.to/lastmile_qr_scan", "ios": "https://dc.lft.to/lastmile_qr_scan"}}, {"bike_id": "3ee682472f2ad67a8b05e5649145c70a", "fusion_lon": 0.0, "name": "3ee682472f2ad67a8b05e5649145c70a", "lat": 38.915302, "is_disabled": 0, "is_reserved": 0, "lon": -77.012287, "type": "electric_scooter", "fusion_lat": 0.0, "rental_uris": {"android": "https://dc.lft.to/lastmile_qr_scan", "ios": "https://dc.lft.to/lastmile_qr_scan"}}, {"bike_id": "bcce543efecc471dc15acbdafd1d924e", "fusion_lon": 0.0, "name": "bcce543efecc471dc15acbdafd1d924e", "lat": 38.91707316666667, "is_disabled": 0, "is_reserved": 0, "lon": -77.02897416666667, "type": "electric_scooter", "fusion_lat": 0.0, "rental_uris": {"android": "https://dc.lft.to/lastmile_qr_scan", "ios": "https://dc.lft.to/lastmile_qr_scan"}}, {"bike_id": "39172345b432e825a4c6f3eb729d6478", "fusion_lon": 0.0, "name": "39172345b432e825a4c6f3eb729d6478", "lat": 38.898366833333334, "is_disabled": 0, "is_reserved": 0, "lon": -77.02857283333333, "type": "electric_scooter", "fusion_lat": 0.0, "rental_uris": {"android": "https://dc.lft.to/lastmile_qr_scan", "ios": "https://dc.lft.to/lastmile_qr_scan"}}, {"bike_id": "c6759b9ca5c7714de9c109d57410f892", "fusion_lon": 0.0, "name": "c6759b9ca5c7714de9c109d57410f892", "lat": 38.91587483333333, "is_disabled": 0, "is_reserved": 0, "lon": -76.97968333333333, "type": "electric_scooter", "fusion_lat": 0.0, "rental_uris": {"android": "https://dc.lft.to/lastmile_qr_scan", "ios": "https://dc.lft.to/lastmile_qr_scan"}}, {"bike_id": "c8021bbb6af742f818bb2b26799b75b1", "fusion_lon": 0.0, "name": "c8021bbb6af742f818bb2b26799b75b1", "lat": 38.928595, "is_disabled": 0, "is_reserved": 0, "lon": -77.03517233333334, "type": "electric_scooter", "fusion_lat": 0.0, "rental_uris": {"android": "https://dc.lft.to/lastmile_qr_scan", "ios": "https://dc.lft.to/lastmile_qr_scan"}}, {"bike_id": "127dc1246818ed5fb4725529763bd99b", "fusion_lon": 0.0, "name": "127dc1246818ed5fb4725529763bd99b", "lat": 38.898544, "is_disabled": 0, "is_reserved": 0, "lon": -77.04168516666667, "type": "electric_scooter", "fusion_lat": 0.0, "rental_uris": {"android": "https://dc.lft.to/lastmile_qr_scan", "ios": "https://dc.lft.to/lastmile_qr_scan"}}, {"bike_id": "bb3b6bc54991bacb3a61532d1542c8b8", "fusion_lon": 0.0, "name": "bb3b6bc54991bacb3a61532d1542c8b8", "lat": 38.93109, "is_disabled": 0, "is_reserved": 0, "lon": -77.03019966666666, "type": "electric_scooter", "fusion_lat": 0.0, "rental_uris": {"android": "https://dc.lft.to/lastmile_qr_scan", "ios": "https://dc.lft.to/lastmile_qr_scan"}}, {"bike_id": "dd7a91f27a554d15d0f435b76d8e525e", "fusion_lon": 0.0, "name": "dd7a91f27a554d15d0f435b76d8e525e", "lat": 38.90183833333333, "is_disabled": 0, "is_reserved": 0, "lon": -77.01612766666666, "type": "electric_scooter", "fusion_lat": 0.0, "rental_uris": {"android": "https://dc.lft.to/lastmile_qr_scan", "ios": "https://dc.lft.to/lastmile_qr_scan"}}, {"bike_id": "0de08f6a31a550d90e4d93694867c725", "fusion_lon": 0.0, "name": "0de08f6a31a550d90e4d93694867c725", "lat": 38.923176166666664, "is_disabled": 0, "is_reserved": 0, "lon": -77.04401383333334, "type": "electric_scooter", "fusion_lat": 0.0, "rental_uris": {"android": "https://dc.lft.to/lastmile_qr_scan", "ios": "https://dc.lft.to/lastmile_qr_scan"}}, {"bike_id": "640d982a944a3e5ad1207ab61908bd15", "fusion_lon": 0.0, "name": "640d982a944a3e5ad1207ab61908bd15", "lat": 38.89614533333334, "is_disabled": 0, "is_reserved": 0, "lon": -76.907437, "type": "electric_bike", "fusion_lat": 0.0, "rental_uris": {"android": "https://dc.lft.to/lastmile_qr_scan", "ios": "https://dc.lft.to/lastmile_qr_scan"}}, {"bike_id": "5c9fff4475c7e98f7c83d0b199a2a28d", "fusion_lon": 0.0, "name": "5c9fff4475c7e98f7c83d0b199a2a28d", "lat": 38.92671816666667, "is_disabled": 0, "is_reserved": 0, "lon": -77.014961, "type": "electric_scooter", "fusion_lat": 0.0, "rental_uris": {"android": "https://dc.lft.to/lastmile_qr_scan", "ios": "https://dc.lft.to/lastmile_qr_scan"}}, {"bike_id": "b264e97a48a1742c8668dea25ec31bfc", "fusion_lon": 0.0, "name": "b264e97a48a1742c8668dea25ec31bfc", "lat": 38.924041333333335, "is_disabled": 0, "is_reserved": 0, "lon": -77.0194345, "type": "electric_scooter", "fusion_lat": 0.0, "rental_uris": {"android": "https://dc.lft.to/lastmile_qr_scan", "ios": "https://dc.lft.to/lastmile_qr_scan"}}, {"bike_id": "e59506b882cdfd5ec48a3cb21d2d6341", "fusion_lon": 0.0, "name": "e59506b882cdfd5ec48a3cb21d2d6341", "lat": 38.887189166666666, "is_disabled": 0, "is_reserved": 0, "lon": -76.996879, "type": "electric_scooter", "fusion_lat": 0.0, "rental_uris": {"android": "https://dc.lft.to/lastmile_qr_scan", "ios": "https://dc.lft.to/lastmile_qr_scan"}}, {"bike_id": "dafdf21d11e7a540e91456fb723afaf1", "fusion_lon": 0.0, "name": "dafdf21d11e7a540e91456fb723afaf1", "lat": 38.92408916666667, "is_disabled": 0, "is_reserved": 0, "lon": -77.04462283333334, "type": "electric_scooter", "fusion_lat": 0.0, "rental_uris": {"android": "https://dc.lft.to/lastmile_qr_scan", "ios": "https://dc.lft.to/lastmile_qr_scan"}}, {"bike_id": "ccb5f99b09e91ef367380fe2162064c2", "fusion_lon": 0.0, "name": "ccb5f99b09e91ef367380fe2162064c2", "lat": 38.91034366666667, "is_disabled": 0, "is_reserved": 0, "lon": -77.029213, "type": "electric_scooter", "fusion_lat": 0.0, "rental_uris": {"android": "https://dc.lft.to/lastmile_qr_scan", "ios": "https://dc.lft.to/lastmile_qr_scan"}}, {"bike_id": "c36787e8c7b49fba6f017c2169095484", "fusion_lon": 0.0, "name": "c36787e8c7b49fba6f017c2169095484", "lat": 38.903361833333335, "is_disabled": 0, "is_reserved": 0, "lon": -77.05279866666666, "type": "electric_scooter", "fusion_lat": 0.0, "rental_uris": {"android": "https://dc.lft.to/lastmile_qr_scan", "ios": "https://dc.lft.to/lastmile_qr_scan"}}, {"bike_id": "90fd834a59232d1eac41177ff37f7e55", "fusion_lon": 0.0, "name": "90fd834a59232d1eac41177ff37f7e55", "lat": 38.92463866666667, "is_disabled": 0, "is_reserved": 0, "lon": -77.02254866666667, "type": "electric_scooter", "fusion_lat": 0.0, "rental_uris": {"android": "https://dc.lft.to/lastmile_qr_scan", "ios": "https://dc.lft.to/lastmile_qr_scan"}}, {"bike_id": "7110d9159871ba048aa68c8c1260a738", "fusion_lon": 0.0, "name": "7110d9159871ba048aa68c8c1260a738", "lat": 38.91821783333333, "is_disabled": 0, "is_reserved": 0, "lon": -77.03651283333333, "type": "electric_scooter", "fusion_lat": 0.0, "rental_uris": {"android": "https://dc.lft.to/lastmile_qr_scan", "ios": "https://dc.lft.to/lastmile_qr_scan"}}, {"bike_id": "6e50e666c77df005eb0a3f59d9f5e740", "fusion_lon": 0.0, "name": "6e50e666c77df005eb0a3f59d9f5e740", "lat": 38.99779566666667, "is_disabled": 0, "is_reserved": 0, "lon": -77.047159, "type": "electric_bike", "fusion_lat": 0.0, "rental_uris": {"android": "https://dc.lft.to/lastmile_qr_scan", "ios": "https://dc.lft.to/lastmile_qr_scan"}}, {"bike_id": "9e4eb51351bdb896dad6f9a665380a2b", "fusion_lon": 0.0, "name": "9e4eb51351bdb896dad6f9a665380a2b", "lat": 38.934697166666666, "is_disabled": 0, "is_reserved": 0, "lon": -77.02392966666666, "type": "electric_scooter", "fusion_lat": 0.0, "rental_uris": {"android": "https://dc.lft.to/lastmile_qr_scan", "ios": "https://dc.lft.to/lastmile_qr_scan"}}, {"bike_id": "56b4fb226066e5f9645f1f5782b79387", "fusion_lon": 0.0, "name": "56b4fb226066e5f9645f1f5782b79387", "lat": 38.904651666666666, "is_disabled": 0, "is_reserved": 0, "lon": -77.06525883333333, "type": "electric_scooter", "fusion_lat": 0.0, "rental_uris": {"android": "https://dc.lft.to/lastmile_qr_scan", "ios": "https://dc.lft.to/lastmile_qr_scan"}}, {"bike_id": "0c1b43cea1bc63e0712e7702bb6675c9", "fusion_lon": 0.0, "name": "0c1b43cea1bc63e0712e7702bb6675c9", "lat": 38.9405115, "is_disabled": 0, "is_reserved": 0, "lon": -77.02978433333334, "type": "electric_scooter", "fusion_lat": 0.0, "rental_uris": {"android": "https://dc.lft.to/lastmile_qr_scan", "ios": "https://dc.lft.to/lastmile_qr_scan"}}, {"bike_id": "089e01abe558417f52e0d40272ad5d49", "fusion_lon": 0.0, "name": "089e01abe558417f52e0d40272ad5d49", "lat": 38.908414666666665, "is_disabled": 0, "is_reserved": 0, "lon": -77.04359483333333, "type": "electric_scooter", "fusion_lat": 0.0, "rental_uris": {"android": "https://dc.lft.to/lastmile_qr_scan", "ios": "https://dc.lft.to/lastmile_qr_scan"}}, {"bike_id": "da8a3330a0184cb0071a53835558c9e1", "fusion_lon": 0.0, "name": "da8a3330a0184cb0071a53835558c9e1", "lat": 38.901119333333334, "is_disabled": 0, "is_reserved": 0, "lon": -77.04237266666667, "type": "electric_scooter", "fusion_lat": 0.0, "rental_uris": {"android": "https://dc.lft.to/lastmile_qr_scan", "ios": "https://dc.lft.to/lastmile_qr_scan"}}, {"bike_id": "492282bf2a7415d7b3880217bd5f34f4", "fusion_lon": 0.0, "name": "492282bf2a7415d7b3880217bd5f34f4", "lat": 38.933985666666665, "is_disabled": 0, "is_reserved": 0, "lon": -77.05744516666667, "type": "electric_scooter", "fusion_lat": 0.0, "rental_uris": {"android": "https://dc.lft.to/lastmile_qr_scan", "ios": "https://dc.lft.to/lastmile_qr_scan"}}, {"bike_id": "32a139af9de86bb313bbad925776599e", "fusion_lon": 0.0, "name": "32a139af9de86bb313bbad925776599e", "lat": 38.914633333333335, "is_disabled": 0, "is_reserved": 0, "lon": -77.02288666666666, "type": "electric_scooter", "fusion_lat": 0.0, "rental_uris": {"android": "https://dc.lft.to/lastmile_qr_scan", "ios": "https://dc.lft.to/lastmile_qr_scan"}}, {"bike_id": "22c0b367e173717eb07482c3863b5aa6", "fusion_lon": 0.0, "name": "22c0b367e173717eb07482c3863b5aa6", "lat": 38.96203883333333, "is_disabled": 0, "is_reserved": 0, "lon": -77.02231083333334, "type": "electric_scooter", "fusion_lat": 0.0, "rental_uris": {"android": "https://dc.lft.to/lastmile_qr_scan", "ios": "https://dc.lft.to/lastmile_qr_scan"}}, {"bike_id": "9d69d61cb12ad4f42ea04948e3639afe", "fusion_lon": 0.0, "name": "9d69d61cb12ad4f42ea04948e3639afe", "lat": 38.903035833333334, "is_disabled": 0, "is_reserved": 0, "lon": -76.97654883333334, "type": "electric_bike", "fusion_lat": 0.0, "rental_uris": {"android": "https://dc.lft.to/lastmile_qr_scan", "ios": "https://dc.lft.to/lastmile_qr_scan"}}, {"bike_id": "2968a4f9287ebb0f28a1b1316259b9da", "fusion_lon": 0.0, "name": "2968a4f9287ebb0f28a1b1316259b9da", "lat": 38.920514, "is_disabled": 0, "is_reserved": 0, "lon": -77.02427883333333, "type": "electric_scooter", "fusion_lat": 0.0, "rental_uris": {"android": "https://dc.lft.to/lastmile_qr_scan", "ios": "https://dc.lft.to/lastmile_qr_scan"}}, {"bike_id": "da84326fa27b630eae2f7ffe7b34fb6a", "fusion_lon": 0.0, "name": "da84326fa27b630eae2f7ffe7b34fb6a", "lat": 38.892241, "is_disabled": 0, "is_reserved": 0, "lon": -77.03973016666667, "type": "electric_scooter", "fusion_lat": 0.0, "rental_uris": {"android": "https://dc.lft.to/lastmile_qr_scan", "ios": "https://dc.lft.to/lastmile_qr_scan"}}, {"bike_id": "1f9e3ccd86ad314553e6d873d6b3fce5", "fusion_lon": 0.0, "name": "1f9e3ccd86ad314553e6d873d6b3fce5", "lat": 38.902919, "is_disabled": 0, "is_reserved": 0, "lon": -76.97635516666666, "type": "electric_scooter", "fusion_lat": 0.0, "rental_uris": {"android": "https://dc.lft.to/lastmile_qr_scan", "ios": "https://dc.lft.to/lastmile_qr_scan"}}, {"bike_id": "2b8fd5cf7b7258a584e690f13a354c7c", "fusion_lon": 0.0, "name": "2b8fd5cf7b7258a584e690f13a354c7c", "lat": 38.90038466666667, "is_disabled": 0, "is_reserved": 0, "lon": -76.972267, "type": "electric_bike", "fusion_lat": 0.0, "rental_uris": {"android": "https://dc.lft.to/lastmile_qr_scan", "ios": "https://dc.lft.to/lastmile_qr_scan"}}, {"bike_id": "ae197c782e66bd6d8f5d122cc157e8a4", "fusion_lon": 0.0, "name": "ae197c782e66bd6d8f5d122cc157e8a4", "lat": 38.877235166666665, "is_disabled": 0, "is_reserved": 0, "lon": -77.00423416666666, "type": "electric_scooter", "fusion_lat": 0.0, "rental_uris": {"android": "https://dc.lft.to/lastmile_qr_scan", "ios": "https://dc.lft.to/lastmile_qr_scan"}}, {"bike_id": "e451f476af245534497d53f3b308f04c", "fusion_lon": 0.0, "name": "e451f476af245534497d53f3b308f04c", "lat": 38.9139815, "is_disabled": 0, "is_reserved": 0, "lon": -77.04176083333333, "type": "electric_scooter", "fusion_lat": 0.0, "rental_uris": {"android": "https://dc.lft.to/lastmile_qr_scan", "ios": "https://dc.lft.to/lastmile_qr_scan"}}, {"bike_id": "dec6e2618f9a2126f6596efe8bac7b4d", "fusion_lon": 0.0, "name": "dec6e2618f9a2126f6596efe8bac7b4d", "lat": 38.90566783333333, "is_disabled": 0, "is_reserved": 0, "lon": -77.04342333333334, "type": "electric_scooter", "fusion_lat": 0.0, "rental_uris": {"android": "https://dc.lft.to/lastmile_qr_scan", "ios": "https://dc.lft.to/lastmile_qr_scan"}}, {"bike_id": "09672de9d82977e8fbc55c016c22817e", "fusion_lon": 0.0, "name": "09672de9d82977e8fbc55c016c22817e", "lat": 38.9225915, "is_disabled": 0, "is_reserved": 0, "lon": -77.0091225, "type": "electric_scooter", "fusion_lat": 0.0, "rental_uris": {"android": "https://dc.lft.to/lastmile_qr_scan", "ios": "https://dc.lft.to/lastmile_qr_scan"}}, {"bike_id": "8906fca5ca6790719f426e4e6119b3dc", "fusion_lon": 0.0, "name": "8906fca5ca6790719f426e4e6119b3dc", "lat": 38.91447683333333, "is_disabled": 0, "is_reserved": 0, "lon": -76.98823083333333, "type": "electric_scooter", "fusion_lat": 0.0, "rental_uris": {"android": "https://dc.lft.to/lastmile_qr_scan", "ios": "https://dc.lft.to/lastmile_qr_scan"}}, {"bike_id": "d856c880851edf40f42f7b98f9da841a", "fusion_lon": 0.0, "name": "d856c880851edf40f42f7b98f9da841a", "lat": 38.89222433333333, "is_disabled": 0, "is_reserved": 0, "lon": -77.03145033333334, "type": "electric_scooter", "fusion_lat": 0.0, "rental_uris": {"android": "https://dc.lft.to/lastmile_qr_scan", "ios": "https://dc.lft.to/lastmile_qr_scan"}}, {"bike_id": "f5d804a262c2d7762faba4e54bfdca2a", "fusion_lon": 0.0, "name": "f5d804a262c2d7762faba4e54bfdca2a", "lat": 38.831587, "is_disabled": 0, "is_reserved": 0, "lon": -76.99546066666667, "type": "electric_bike", "fusion_lat": 0.0, "rental_uris": {"android": "https://dc.lft.to/lastmile_qr_scan", "ios": "https://dc.lft.to/lastmile_qr_scan"}}, {"bike_id": "7ee92b35f8144961979f22d5a9875363", "fusion_lon": 0.0, "name": "7ee92b35f8144961979f22d5a9875363", "lat": 38.90567383333333, "is_disabled": 0, "is_reserved": 0, "lon": -77.00598016666666, "type": "electric_scooter", "fusion_lat": 0.0, "rental_uris": {"android": "https://dc.lft.to/lastmile_qr_scan", "ios": "https://dc.lft.to/lastmile_qr_scan"}}, {"bike_id": "2cb9860cead61346404fcaf0707bfff1", "fusion_lon": 0.0, "name": "2cb9860cead61346404fcaf0707bfff1", "lat": 38.93863283333334, "is_disabled": 0, "is_reserved": 0, "lon": -77.02556583333333, "type": "electric_scooter", "fusion_lat": 0.0, "rental_uris": {"android": "https://dc.lft.to/lastmile_qr_scan", "ios": "https://dc.lft.to/lastmile_qr_scan"}}, {"bike_id": "b880e3361e569c8ab68687281672c5f2", "fusion_lon": 0.0, "name": "b880e3361e569c8ab68687281672c5f2", "lat": 38.948225, "is_disabled": 0, "is_reserved": 0, "lon": -77.0294565, "type": "electric_bike", "fusion_lat": 0.0, "rental_uris": {"android": "https://dc.lft.to/lastmile_qr_scan", "ios": "https://dc.lft.to/lastmile_qr_scan"}}, {"bike_id": "5c476f91906e04dbd5d8059dd42dc421", "fusion_lon": 0.0, "name": "5c476f91906e04dbd5d8059dd42dc421", "lat": 38.9141285, "is_disabled": 0, "is_reserved": 0, "lon": -77.0222935, "type": "electric_scooter", "fusion_lat": 0.0, "rental_uris": {"android": "https://dc.lft.to/lastmile_qr_scan", "ios": "https://dc.lft.to/lastmile_qr_scan"}}, {"bike_id": "ff769ab2225167d147341430c034779e", "fusion_lon": 0.0, "name": "ff769ab2225167d147341430c034779e", "lat": 38.898450833333335, "is_disabled": 0, "is_reserved": 0, "lon": -77.01901066666667, "type": "electric_scooter", "fusion_lat": 0.0, "rental_uris": {"android": "https://dc.lft.to/lastmile_qr_scan", "ios": "https://dc.lft.to/lastmile_qr_scan"}}, {"bike_id": "f53c89cd1671742e77924a7dcc62222a", "fusion_lon": 0.0, "name": "f53c89cd1671742e77924a7dcc62222a", "lat": 38.90198016666667, "is_disabled": 0, "is_reserved": 0, "lon": -77.02234766666666, "type": "electric_scooter", "fusion_lat": 0.0, "rental_uris": {"android": "https://dc.lft.to/lastmile_qr_scan", "ios": "https://dc.lft.to/lastmile_qr_scan"}}, {"bike_id": "f7d08dceca7433068290b8c3237fd8f2", "fusion_lon": 0.0, "name": "f7d08dceca7433068290b8c3237fd8f2", "lat": 38.9350495, "is_disabled": 0, "is_reserved": 0, "lon": -77.05829216666666, "type": "electric_scooter", "fusion_lat": 0.0, "rental_uris": {"android": "https://dc.lft.to/lastmile_qr_scan", "ios": "https://dc.lft.to/lastmile_qr_scan"}},