{"data": {"bikes": [{"fusion_lat": 0.0, "lon": -77.04101433333334, "is_reserved": 0, "bike_id": "7f7017fb1490ccdac4dfc6f4b7f069bc", "fusion_lon": 0.0, "rental_uris": {"android": "https://dc.lft.to/lastmile_qr_scan", "ios": "https://dc.lft.to/lastmile_qr_scan"}, "name": "7f7017fb1490ccdac4dfc6f4b7f069bc", "type": "electric_scooter", "lat": 38.910676, "is_disabled": 0}, {"fusion_lat": 0.0, "lon": -77.04000716666667, "is_reserved": 0, "bike_id": "743b887c5c73d017cd9baff01d2c6923", "fusion_lon": 0.0, "rental_uris": {"android": "https://dc.lft.to/lastmile_qr_scan", "ios": "https://dc.lft.to/lastmile_qr_scan"}, "name": "743b887c5c73d017cd9baff01d2c6923", "type": "electric_scooter", "lat": 38.912598333333335, "is_disabled": 0}, {"fusion_lat": 0.0, "lon": -77.0111115, "is_reserved": 0, "bike_id": "933a6e2509987a8b992fd88a7963b962", "fusion_lon": 0.0, "rental_uris": {"android": "https://dc.lft.to/lastmile_qr_scan", "ios": "https://dc.lft.to/lastmile_qr_scan"}, "name": "933a6e2509987a8b992fd88a7963b962", "type": "electric_scooter", "lat": 38.8948445, "is_disabled": 0}, {"fusion_lat": 0.0, "lon": -77.03193866666666, "is_reserved": 0, "bike_id": "4e5d5f240b04e13af2e52ac5aace0a45", "fusion_lon": 0.0, "rental_uris": {"android": "https://dc.lft.to/lastmile_qr_scan", "ios": "https://dc.lft.to/lastmile_qr_scan"}, "name": "4e5d5f240b04e13af2e52ac5aace0a45", "type": "electric_scooter", "lat": 38.91418933333333, "is_disabled": 0}, {"fusion_lat": 0.0, "lon": -77.04005916666667, "is_reserved": 0, "bike_id": "25d4755ef56d99feb8e439af1809e8cb", "fusion_lon": 0.0, "rental_uris": {"android": "https://dc.lft.to/lastmile_qr_scan", "ios": "https://dc.lft.to/lastmile_qr_scan"}, "name": "25d4755ef56d99feb8e439af1809e8cb", "type": "electric_scooter", "lat": 38.91317883333333, "is_disabled": 0}, {"fusion_lat": 0.0, "lon": -77.00242016666667, "is_reserved": 0, "bike_id": "e184f96493c17f8ccb854c61cb56c071", "fusion_lon": 0.0, "rental_uris": {"android": "https://dc.lft.to/lastmile_qr_scan", "ios": "https://dc.lft.to/lastmile_qr_scan"}, "name": "e184f96493c17f8ccb854c61cb56c071", "type": "electric_scooter", "lat": 38.9572195, "is_disabled": 0}, {"fusion_lat": 0.0, "lon": -77.03217333333333, "is_reserved": 0, "bike_id": "fa9248584efa7b22f269af3d0e0dd9de", "fusion_lon": 0.0, "rental_uris": {"android": "https://dc.lft.to/lastmile_qr_scan", "ios": "https://dc.lft.to/lastmile_qr_scan"}, "name": "fa9248584efa7b22f269af3d0e0dd9de", "type": "electric_scooter", "lat": 38.917827333333335, "is_disabled": 0}, {"fusion_lat": 0.0, "lon": -76.9882065, "is_reserved": 0, "bike_id": "2ca0149afc7db5ced7ede4c64fbc12b1", "fusion_lon": 0.0, "rental_uris": {"android": "https://dc.lft.to/lastmile_qr_scan", "ios": "https://dc.lft.to/lastmile_qr_scan"}, "name": "2ca0149afc7db5ced7ede4c64fbc12b1", "type": "electric_scooter", "lat": 38.8907295, "is_disabled": 0}, {"fusion_lat": 0.0, "lon": -76.99548983333334, "is_reserved": 0, "bike_id": "a38377c19e3b2cffe0bac3eb72a272ca", "fusion_lon": 0.0, "rental_uris": {"android": "https://dc.lft.to/lastmile_qr_scan", "ios": "https://dc.lft.to/lastmile_qr_scan"}, "name": "a38377c19e3b2cffe0bac3eb72a272ca", "type": "electric_scooter", "lat": 38.862548, "is_disabled": 0}, {"fusion_lat": 0.0, "lon": -77.03865733333333, "is_reserved": 0, "bike_id": "2e1e0f1062d8cc16148c29a7c9cb6297", "fusion_lon": 0.0, "rental_uris": {"android": "https://dc.lft.to/lastmile_qr_scan", "ios": "https://dc.lft.to/lastmile_qr_scan"}, "name": "2e1e0f1062d8cc16148c29a7c9cb6297", "type": "electric_scooter", "lat": 38.91258916666666, "is_disabled": 0}, {"fusion_lat": 0.0, "lon": -77.04282466666666, "is_reserved": 0, "bike_id": "819746a56da4eb7280c6c649431f0a19", "fusion_lon": 0.0, "rental_uris": {"android": "https://dc.lft.to/lastmile_qr_scan", "ios": "https://dc.lft.to/lastmile_qr_scan"}, "name": "819746a56da4eb7280c6c649431f0a19", "type": "electric_scooter", "lat": 38.90559483333333, "is_disabled": 0}, {"fusion_lat": 0.0, "lon": -77.0169285, "is_reserved": 0, "bike_id": "6ef896ec089f5851fe71a5662fd74186", "fusion_lon": 0.0, "rental_uris": {"android": "https://dc.lft.to/lastmile_qr_scan", "ios": "https://dc.lft.to/lastmile_qr_scan"}, "name": "6ef896ec089f5851fe71a5662fd74186", "type": "electric_scooter", "lat": 38.974995666666665, "is_disabled": 0}, {"fusion_lat": 0.0, "lon": -76.99407466666666, "is_reserved": 0, "bike_id": "94564bae4fa4f6ed058501a7ee8ffca0", "fusion_lon": 0.0, "rental_uris": {"android": "https://dc.lft.to/lastmile_qr_scan", "ios": "https://dc.lft.to/lastmile_qr_scan"}, "name": "94564bae4fa4f6ed058501a7ee8ffca0", "type": "electric_scooter", "lat": 38.921038833333334, "is_disabled": 0}, {"fusion_lat": 0.0, "lon": -77.023874, "is_reserved": 0, "bike_id": "a1b833fd9661acbedee2fbbacb32cf1a", "fusion_lon": 0.0, "rental_uris": {"android": "https://dc.lft.to/lastmile_qr_scan", "ios": "https://dc.lft.to/lastmile_qr_scan"}, "name": "a1b833fd9661acbedee2fbbacb32cf1a", "type": "electric_scooter", "lat": 38.920717833333335, "is_disabled": 0}, {"fusion_lat": 0.0, "lon": -76.969032, "is_reserved": 0, "bike_id": "9a2879b77709325e13a11c2f3f8002e4", "fusion_lon": 0.0, "rental_uris": {"android": "https://dc.lft.to/lastmile_qr_scan", "ios": "https://dc.lft.to/lastmile_qr_scan"}, "name": "9a2879b77709325e13a11c2f3f8002e4", "type": "electric_bike", "lat": 38.951217166666666, "is_disabled": 0}, {"fusion_lat": 0.0, "lon": -76.98684616666667, "is_reserved": 0, "bike_id": "f0f6a8176fda2324f499ee98409f8b4a", "fusion_lon": 0.0, "rental_uris": {"android": "https://dc.lft.to/lastmile_qr_scan", "ios": "https://dc.lft.to/lastmile_qr_scan"}, "name": "f0f6a8176fda2324f499ee98409f8b4a", "type": "electric_scooter", "lat": 38.90698666666667, "is_disabled": 0}, {"fusion_lat": 0.0, "lon": -77.22808616666667, "is_reserved": 0, "bike_id": "4885def392ba6fb8d22d6551fafc7721", "fusion_lon": 0.0, "rental_uris": {"android": "https://dc.lft.to/lastmile_qr_scan", "ios": "https://dc.lft.to/lastmile_qr_scan"}, "name": "4885def392ba6fb8d22d6551fafc7721", "type": "electric_bike", "lat": 38.91009783333333, "is_disabled": 0}, {"fusion_lat": 0.0, "lon": -77.08340733333333, "is_reserved": 0, "bike_id": "d3aab693670275558148edaa9bdb3822", "fusion_lon": 0.0, "rental_uris": {"android": "https://dc.lft.to/lastmile_qr_scan", "ios": "https://dc.lft.to/lastmile_qr_scan"}, "name": "d3aab693670275558148edaa9bdb3822", "type": "electric_bike", "lat": 38.9125085, "is_disabled": 0}, {"fusion_lat": 0.0, "lon": -76.93000466666666, "is_reserved": 0, "bike_id": "d975564bcd2e3ac4fa040e0cc476ff5d", "fusion_lon": 0.0, "rental_uris": {"android": "https://dc.lft.to/lastmile_qr_scan", "ios": "https://dc.lft.to/lastmile_qr_scan"}, "name": "d975564bcd2e3ac4fa040e0cc476ff5d", "type": "electric_scooter", "lat": 38.90183483333333, "is_disabled": 0}, {"fusion_lat": 0.0, "lon": -76.9975115, "is_reserved": 0, "bike_id": "779d4b8adc4589f0ba93893604018419", "fusion_lon": 0.0, "rental_uris": {"android": "https://dc.lft.to/lastmile_qr_scan", "ios": "https://dc.lft.to/lastmile_qr_scan"}, "name": "779d4b8adc4589f0ba93893604018419", "type": "electric_scooter", "lat": 38.92181316666667, "is_disabled": 0}, {"fusion_lat": 0.0, "lon": -77.03238133333333, "is_reserved": 0, "bike_id": "0450076d4781ff4aed33ca45daee513f", "fusion_lon": 0.0, "rental_uris": {"android": "https://dc.lft.to/lastmile_qr_scan", "ios": "https://dc.lft.to/lastmile_qr_scan"}, "name": "0450076d4781ff4aed33ca45daee513f", "type": "electric_scooter", "lat": 38.92523533333333, "is_disabled": 0}, {"fusion_lat": 0.0, "lon": -77.04677666666667, "is_reserved": 0, "bike_id": "e8fd6d625f1d27d7a47c6d026fcecd08", "fusion_lon": 0.0, "rental_uris": {"android": "https://dc.lft.to/lastmile_qr_scan", "ios": "https://dc.lft.to/lastmile_qr_scan"}, "name": "e8fd6d625f1d27d7a47c6d026fcecd08", "type": "electric_scooter", "lat": 38.90348916666667, "is_disabled": 0}, {"fusion_lat": 0.0, "lon": -77.02833383333333, "is_reserved": 0, "bike_id": "fdb3f80f224644e118e099d7e5e00159", "fusion_lon": 0.0, "rental_uris": {"android": "https://dc.lft.to/lastmile_qr_scan", "ios": "https://dc.lft.to/lastmile_qr_scan"}, "name": "fdb3f80f224644e118e099d7e5e00159", "type": "electric_scooter", "lat": 38.93186733333334, "is_disabled": 0}, {"fusion_lat": 0.0, "lon": -77.00591416666667, "is_reserved": 0, "bike_id": "bb319b71b454126426722e3e13a95e50", "fusion_lon": 0.0, "rental_uris": {"android": "https://dc.lft.to/lastmile_qr_scan", "ios": "https://dc.lft.to/lastmile_qr_scan"}, "name": "bb319b71b454126426722e3e13a95e50", "type": "electric_bike", "lat": 38.897903666666664, "is_disabled": 0}, {"fusion_lat": 0.0, "lon": -77.10911133333333, "is_reserved": 0, "bike_id": "1a5c1f67883cc71f76758b80e91fc4b7", "fusion_lon": 0.0, "rental_uris": {"android": "https://dc.lft.to/lastmile_qr_scan", "ios": "https://dc.lft.to/lastmile_qr_scan"}, "name": "1a5c1f67883cc71f76758b80e91fc4b7", "type": "electric_bike", "lat": 39.052002333333334, "is_disabled": 0}, {"fusion_lat": 0.0, "lon": -77.032729, "is_reserved": 0, "bike_id": "ba8be9b95e8efc6edc7f3523d3a628fd", "fusion_lon": 0.0, "rental_uris": {"android": "https://dc.lft.to/lastmile_qr_scan", "ios": "https://dc.lft.to/lastmile_qr_scan"}, "name": "ba8be9b95e8efc6edc7f3523d3a628fd", "type": "electric_scooter", "lat": 38.928916666666666, "is_disabled": 0}, {"fusion_lat": 0.0, "lon": -77.041755, "is_reserved": 0, "bike_id": "5cb6142dc91c96f6d6556ed9347c6fb2", "fusion_lon": 0.0, "rental_uris": {"android": "https://dc.lft.to/lastmile_qr_scan", "ios": "https://dc.lft.to/lastmile_qr_scan"}, "name": "5cb6142dc91c96f6d6556ed9347c6fb2", "type": "electric_scooter", "lat": 38.925495, "is_disabled": 0}, {"fusion_lat": 0.0, "lon": -77.05951966666667, "is_reserved": 0, "bike_id": "d6dd4c851a3df0edd1f18a26a3931efe", "fusion_lon": 0.0, "rental_uris": {"android": "https://dc.lft.to/lastmile_qr_scan", "ios": "https://dc.lft.to/lastmile_qr_scan"}, "name": "d6dd4c851a3df0edd1f18a26a3931efe", "type": "electric_scooter", "lat": 38.905357333333335, "is_disabled": 0}, {"fusion_lat": 0.0, "lon": -77.01418816666667, "is_reserved": 0, "bike_id": "72bef8f9169306e9a06ceafa20bc4077", "fusion_lon": 0.0, "rental_uris": {"android": "https://dc.lft.to/lastmile_qr_scan", "ios": "https://dc.lft.to/lastmile_qr_scan"}, "name": "72bef8f9169306e9a06ceafa20bc4077", "type": "electric_scooter", "lat": 38.928165666666665, "is_disabled": 0}, {"fusion_lat": 0.0, "lon": -77.03401716666667, "is_reserved": 0, "bike_id": "2e065c2d77d05da5d83b3454967df114", "fusion_lon": 0.0, "rental_uris": {"android": "https://dc.lft.to/lastmile_qr_scan", "ios": "https://dc.lft.to/lastmile_qr_scan"}, "name": "2e065c2d77d05da5d83b3454967df114", "type": "electric_scooter", "lat": 38.909605166666665, "is_disabled": 0}, {"fusion_lat": 0.0, "lon": -77.01971883333333, "is_reserved": 0, "bike_id": "098c3c095d664f67407af5b6107fda4b", "fusion_lon": 0.0, "rental_uris": {"android": "https://dc.lft.to/lastmile_qr_scan", "ios": "https://dc.lft.to/lastmile_qr_scan"}, "name": "098c3c095d664f67407af5b6107fda4b", "type": "electric_scooter", "lat": 38.92325666666667, "is_disabled": 0}, {"fusion_lat": 0.0, "lon": -77.04300116666667, "is_reserved": 0, "bike_id": "930fd546684bf370eb591e974ea296ab", "fusion_lon": 0.0, "rental_uris": {"android": "https://dc.lft.to/lastmile_qr_scan", "ios": "https://dc.lft.to/lastmile_qr_scan"}, "name": "930fd546684bf370eb591e974ea296ab", "type": "electric_scooter", "lat": 38.922997333333335, "is_disabled": 0}, {"fusion_lat": 0.0, "lon": -77.03256566666667, "is_reserved": 0, "bike_id": "ce95227e7b7a555e4e54f010949f9265", "fusion_lon": 0.0, "rental_uris": {"android": "https://dc.lft.to/lastmile_qr_scan", "ios": "https://dc.lft.to/lastmile_qr_scan"}, "name": "ce95227e7b7a555e4e54f010949f9265", "type": "electric_scooter", "lat": 38.929264, "is_disabled": 0}, {"fusion_lat": 0.0, "lon": -77.03294883333334, "is_reserved": 0, "bike_id": "bdf5eb78031c31357e577f18f845b463", "fusion_lon": 0.0, "rental_uris": {"android": "https://dc.lft.to/lastmile_qr_scan", "ios": "https://dc.lft.to/lastmile_qr_scan"}, "name": "bdf5eb78031c31357e577f18f845b463", "type": "electric_scooter", "lat": 38.9073625, "is_disabled": 0}, {"fusion_lat": 0.0, "lon": -77.02096333333333, "is_reserved": 0, "bike_id": "bd53cc46e32ee690659fbbb499f66f18", "fusion_lon": 0.0, "rental_uris": {"android": "https://dc.lft.to/lastmile_qr_scan", "ios": "https://dc.lft.to/lastmile_qr_scan"}, "name": "bd53cc46e32ee690659fbbb499f66f18", "type": "electric_scooter", "lat": 38.91425866666667, "is_disabled": 0}, {"fusion_lat": 0.0, "lon": -77.05434683333333, "is_reserved": 0, "bike_id": "70d52f07c960b9c714ae7759ac289422", "fusion_lon": 0.0, "rental_uris": {"android": "https://dc.lft.to/lastmile_qr_scan", "ios": "https://dc.lft.to/lastmile_qr_scan"}, "name": "70d52f07c960b9c714ae7759ac289422", "type": "electric_scooter", "lat": 38.923489000000004, "is_disabled": 0}, {"fusion_lat": 0.0, "lon": -77.01899766666666, "is_reserved": 0, "bike_id": "e7b7758a9eae562df333d3ae420e973d", "fusion_lon": 0.0, "rental_uris": {"android": "https://dc.lft.to/lastmile_qr_scan", "ios": "https://dc.lft.to/lastmile_qr_scan"}, "name": "e7b7758a9eae562df333d3ae420e973d", "type": "electric_scooter", "lat": 38.913866166666665, "is_disabled": 0}, {"fusion_lat": 0.0, "lon": -77.0315425, "is_reserved": 0, "bike_id": "48f6539b89e87820886c7e0b93529da6", "fusion_lon": 0.0, "rental_uris": {"android": "https://dc.lft.to/lastmile_qr_scan", "ios": "https://dc.lft.to/lastmile_qr_scan"}, "name": "48f6539b89e87820886c7e0b93529da6", "type": "electric_scooter", "lat": 38.91615616666667, "is_disabled": 0}, {"fusion_lat": 0.0, "lon": -77.01011316666667, "is_reserved": 0, "bike_id": "178463488ac0d2e1a49abf9e0db5857f", "fusion_lon": 0.0, "rental_uris": {"android": "https://dc.lft.to/lastmile_qr_scan", "ios": "https://dc.lft.to/lastmile_qr_scan"}, "name": "178463488ac0d2e1a49abf9e0db5857f", "type": "electric_bike", "lat": 38.87964816666667, "is_disabled": 0}, {"fusion_lat": 0.0, "lon": -77.04241016666667, "is_reserved": 0, "bike_id": "5c05c5ae6d8feb66793407549f952d03", "fusion_lon": 0.0, "rental_uris": {"android": "https://dc.lft.to/lastmile_qr_scan", "ios": "https://dc.lft.to/lastmile_qr_scan"}, "name": "5c05c5ae6d8feb66793407549f952d03", "type": "electric_scooter", "lat": 38.9064475, "is_disabled": 0}, {"fusion_lat": 0.0, "lon": -77.04663933333333, "is_reserved": 0, "bike_id": "9ed14ab6a1d9d07945ec633241ad1342", "fusion_lon": 0.0, "rental_uris": {"android": "https://dc.lft.to/lastmile_qr_scan", "ios": "https://dc.lft.to/lastmile_qr_scan"}, "name": "9ed14ab6a1d9d07945ec633241ad1342", "type": "electric_scooter", "lat": 38.913445333333335, "is_disabled": 0}, {"fusion_lat": 0.0, "lon": -77.028837, "is_reserved": 0, "bike_id": "0906e571655deabc3ac85679dc0a6ebb", "fusion_lon": 0.0, "rental_uris": {"android": "https://dc.lft.to/lastmile_qr_scan", "ios": "https://dc.lft.to/lastmile_qr_scan"}, "name": "0906e571655deabc3ac85679dc0a6ebb", "type": "electric_scooter", "lat": 38.90326483333333, "is_disabled": 0}, {"fusion_lat": 0.0, "lon": -77.04073883333334, "is_reserved": 0, "bike_id": "74c19a3f7d33b797843110586b7a3b9d", "fusion_lon": 0.0, "rental_uris": {"android": "https://dc.lft.to/lastmile_qr_scan", "ios": "https://dc.lft.to/lastmile_qr_scan"}, "name": "74c19a3f7d33b797843110586b7a3b9d", "type": "electric_scooter", "lat": 38.91705816666666, "is_disabled": 0}, {"fusion_lat": 0.0, "lon": -77.03486283333334, "is_reserved": 0, "bike_id": "ce7d9ff73901a317760a32cb25044c00", "fusion_lon": 0.0, "rental_uris": {"android": "https://dc.lft.to/lastmile_qr_scan", "ios": "https://dc.lft.to/lastmile_qr_scan"}, "name": "ce7d9ff73901a317760a32cb25044c00", "type": "electric_scooter", "lat": 38.932708833333336, "is_disabled": 0}, {"fusion_lat": 0.0, "lon": -77.027411, "is_reserved": 0, "bike_id": "750d7decb26714e473f4530d26a9342b", "fusion_lon": 0.0, "rental_uris": {"android": "https://dc.lft.to/lastmile_qr_scan", "ios": "https://dc.lft.to/lastmile_qr_scan"}, "name": "750d7decb26714e473f4530d26a9342b", "type": "electric_scooter", "lat": 38.924035, "is_disabled": 0}, {"fusion_lat": 0.0, "lon": -77.03421266666666, "is_reserved": 0, "bike_id": "7762f48749e3679e06024ca6b61430fb", "fusion_lon": 0.0, "rental_uris": {"android": "https://dc.lft.to/lastmile_qr_scan", "ios": "https://dc.lft.to/lastmile_qr_scan"}, "name": "7762f48749e3679e06024ca6b61430fb", "type": "electric_scooter", "lat": 38.907903833333336, "is_disabled": 0}, {"fusion_lat": 0.0, "lon": -77.0317485, "is_reserved": 0, "bike_id": "23091b311fe6935e3232401f49a4959d", "fusion_lon": 0.0, "rental_uris": {"android": "https://dc.lft.to/lastmile_qr_scan", "ios": "https://dc.lft.to/lastmile_qr_scan"}, "name": "23091b311fe6935e3232401f49a4959d", "type": "electric_scooter", "lat": 38.908842666666665, "is_disabled": 0}, {"fusion_lat": 0.0, "lon": -77.03603416666667, "is_reserved": 0, "bike_id": "13fc4b2e2933c7820a64124dcc58eae7", "fusion_lon": 0.0, "rental_uris": {"android": "https://dc.lft.to/lastmile_qr_scan", "ios": "https://dc.lft.to/lastmile_qr_scan"}, "name": "13fc4b2e2933c7820a64124dcc58eae7", "type": "electric_scooter", "lat": 38.917512333333335, "is_disabled": 0}, {"fusion_lat": 0.0, "lon": -77.05179116666666, "is_reserved": 0, "bike_id": "d38ad195019b95fd521a5c2a9b550180", "fusion_lon": 0.0, "rental_uris": {"android": "https://dc.lft.to/lastmile_qr_scan", "ios": "https://dc.lft.to/lastmile_qr_scan"}, "name": "d38ad195019b95fd521a5c2a9b550180", "type": "electric_scooter", "lat": 38.92375283333333, "is_disabled": 0}, {"fusion_lat": 0.0, "lon": -76.99947183333333, "is_reserved": 0, "bike_id": "03ada21e65996642640d8d358c3abe30", "fusion_lon": 0.0, "rental_uris": {"android": "https://dc.lft.to/lastmile_qr_scan", "ios": "https://dc.lft.to/lastmile_qr_scan"}, "name": "03ada21e65996642640d8d358c3abe30", "type": "electric_scooter", "lat": 38.89642, "is_disabled": 0}, {"fusion_lat": 0.0, "lon": -76.98886283333333, "is_reserved": 0, "bike_id": "6061c5eba18d9df61fab7706ae97b394", "fusion_lon": 0.0, "rental_uris": {"android": "https://dc.lft.to/lastmile_qr_scan", "ios": "https://dc.lft.to/lastmile_qr_scan"}, "name": "6061c5eba18d9df61fab7706ae97b394", "type": "electric_scooter", "lat": 38.866536333333336, "is_disabled": 0}, {"fusion_lat": 0.0, "lon": -77.04499316666667, "is_reserved": 0, "bike_id": "98aa029a578b80b9dccdb227caf86d27", "fusion_lon": 0.0, "rental_uris": {"android": "https://dc.lft.to/lastmile_qr_scan", "ios": "https://dc.lft.to/lastmile_qr_scan"}, "name": "98aa029a578b80b9dccdb227caf86d27", "type": "electric_scooter", "lat": 38.914157, "is_disabled": 0}, {"fusion_lat": 0.0, "lon": -76.99771416666667, "is_reserved": 0, "bike_id": "c40d765d3405f06e671eed50e28dc3d8", "fusion_lon": 0.0, "rental_uris": {"android": "https://dc.lft.to/lastmile_qr_scan", "ios": "https://dc.lft.to/lastmile_qr_scan"}, "name": "c40d765d3405f06e671eed50e28dc3d8", "type": "electric_bike", "lat": 38.95308883333333, "is_disabled": 0}, {"fusion_lat": 0.0, "lon": -77.04313183333333, "is_reserved": 0, "bike_id": "c4ebd2816f838644f4a96071e6bd23ee", "fusion_lon": 0.0, "rental_uris": {"android": "https://dc.lft.to/lastmile_qr_scan", "ios": "https://dc.lft.to/lastmile_qr_scan"}, "name": "c4ebd2816f838644f4a96071e6bd23ee", "type": "electric_scooter", "lat": 38.926527166666666, "is_disabled": 0}, {"fusion_lat": 0.0, "lon": -77.029592, "is_reserved": 0, "bike_id": "b63ea873f5e207bacc431f831d0e02d5", "fusion_lon": 0.0, "rental_uris": {"android": "https://dc.lft.to/lastmile_qr_scan", "ios": "https://dc.lft.to/lastmile_qr_scan"}, "name": "b63ea873f5e207bacc431f831d0e02d5", "type": "electric_scooter", "lat": 38.8993535, "is_disabled": 0}, {"fusion_lat": 0.0, "lon": -77.00738183333333, "is_reserved": 0, "bike_id": "1713d560e1269137ab452c517995af21", "fusion_lon": 0.0, "rental_uris": {"android": "https://dc.lft.to/lastmile_qr_scan", "ios": "https://dc.lft.to/lastmile_qr_scan"}, "name": "1713d560e1269137ab452c517995af21", "type": "electric_scooter", "lat": 38.9035895, "is_disabled": 0}, {"fusion_lat": 0.0, "lon": -76.99713183333333, "is_reserved": 0, "bike_id": "30581eb4cc73f871dd98bd9804a523be", "fusion_lon": 0.0, "rental_uris": {"android": "https://dc.lft.to/lastmile_qr_scan", "ios": "https://dc.lft.to/lastmile_qr_scan"}, "name": "30581eb4cc73f871dd98bd9804a523be", "type": "electric_scooter", "lat": 38.907777333333335, "is_disabled": 0}, {"fusion_lat": 0.0, "lon": -77.007348, "is_reserved": 0, "bike_id": "7436c15ff1e8d73eee4f2e0c99c1f9d9", "fusion_lon": 0.0, "rental_uris": {"android": "https://dc.lft.to/lastmile_qr_scan", "ios": "https://dc.lft.to/lastmile_qr_scan"}, "name": "7436c15ff1e8d73eee4f2e0c99c1f9d9", "type": "electric_scooter", "lat": 38.876439833333336, "is_disabled": 0}, {"fusion_lat": 0.0, "lon": -76.987084, "is_reserved": 0, "bike_id": "1e74829f468d3bd81904d2bc457b17d7", "fusion_lon": 0.0, "rental_uris": {"android": "https://dc.lft.to/lastmile_qr_scan", "ios": "https://dc.lft.to/lastmile_qr_scan"}, "name": "1e74829f468d3bd81904d2bc457b17d7", "type": "electric_scooter", "lat": 38.867022666666664, "is_disabled": 0}, {"fusion_lat": 0.0, "lon": -77.00211033333333, "is_reserved": 0, "bike_id": "276fc9b199578a7c2104aeb976ed373f", "fusion_lon": 0.0, "rental_uris": {"android": "https://dc.lft.to/lastmile_qr_scan", "ios": "https://dc.lft.to/lastmile_qr_scan"}, "name": "276fc9b199578a7c2104aeb976ed373f", "type": "electric_scooter", "lat": 38.90032183333334, "is_disabled": 0}, {"fusion_lat": 0.0, "lon": -76.9487595, "is_reserved": 0, "bike_id": "2ef56d89db9ebe0b1c1ab8b96a75cf2b", "fusion_lon": 0.0, "rental_uris": {"android": "https://dc.lft.to/lastmile_qr_scan", "ios": "https://dc.lft.to/lastmile_qr_scan"}, "name": "2ef56d89db9ebe0b1c1ab8b96a75cf2b", "type": "electric_scooter", "lat": 38.895504333333335, "is_disabled": 0}, {"fusion_lat": 0.0, "lon": -76.95020216666667, "is_reserved": 0, "bike_id": "81798d0b10fcea901656a4a1b94f7154", "fusion_lon": 0.0, "rental_uris": {"android": "https://dc.lft.to/lastmile_qr_scan", "ios": "https://dc.lft.to/lastmile_qr_scan"}, "name": "81798d0b10fcea901656a4a1b94f7154", "type": "electric_scooter", "lat": 38.89388833333334, "is_disabled": 0}, {"fusion_lat": 0.0, "lon": -76.99058566666666, "is_reserved": 0, "bike_id": "150843b0e9e5b387f1650a0b4bd6339b", "fusion_lon": 0.0, "rental_uris": {"android": "https://dc.lft.to/lastmile_qr_scan", "ios": "https://dc.lft.to/lastmile_qr_scan"}, "name": "150843b0e9e5b387f1650a0b4bd6339b", "type": "electric_scooter", "lat": 38.8635755, "is_disabled": 0}, {"fusion_lat": 0.0, "lon": -77.038649, "is_reserved": 0, "bike_id": "943f4b043fa9216d671a43eba20ffa13", "fusion_lon": 0.0, "rental_uris": {"android": "https://dc.lft.to/lastmile_qr_scan", "ios": "https://dc.lft.to/lastmile_qr_scan"}, "name": "943f4b043fa9216d671a43eba20ffa13", "type": "electric_scooter", "lat": 38.94503366666667, "is_disabled": 0}, {"fusion_lat": 0.0, "lon": -76.99125583333333, "is_reserved": 0, "bike_id": "f19bd015f8421c906dffc2ac7a6b7e11", "fusion_lon": 0.0, "rental_uris": {"android": "https://dc.lft.to/lastmile_qr_scan", "ios": "https://dc.lft.to/lastmile_qr_scan"}, "name": "f19bd015f8421c906dffc2ac7a6b7e11", "type": "electric_scooter", "lat": 38.920598, "is_disabled": 0}, {"fusion_lat": 0.0, "lon": -76.9837025, "is_reserved": 0, "bike_id": "9e8c204236f7bbe4521d5d8b0aa7f540", "fusion_lon": 0.0, "rental_uris": {"android": "https://dc.lft.to/lastmile_qr_scan", "ios": "https://dc.lft.to/lastmile_qr_scan"}, "name": "9e8c204236f7bbe4521d5d8b0aa7f540", "type": "electric_scooter", "lat": 38.915402, "is_disabled": 0}, {"fusion_lat": 0.0, "lon": -77.04866916666667, "is_reserved": 0, "bike_id": "e80e50258e9d00a4200fc4a9c54cc742", "fusion_lon": 0.0, "rental_uris": {"android": "https://dc.lft.to/lastmile_qr_scan", "ios": "https://dc.lft.to/lastmile_qr_scan"}, "name": "e80e50258e9d00a4200fc4a9c54cc742", "type": "electric_scooter", "lat": 38.905317833333335, "is_disabled": 0}, {"fusion_lat": 0.0, "lon": -77.03091566666667, "is_reserved": 0, "bike_id": "c18557ffb021166bdd021d1ad1b1b265", "fusion_lon": 0.0, "rental_uris": {"android": "https://dc.lft.to/lastmile_qr_scan", "ios": "https://dc.lft.to/lastmile_qr_scan"}, "name": "c18557ffb021166bdd021d1ad1b1b265", "type": "electric_scooter", "lat": 38.92246516666667, "is_disabled": 0}, {"fusion_lat": 0.0, "lon": -77.0209605, "is_reserved": 0, "bike_id": "f1e1bd21b3678704e6bc7f44af996be0", "fusion_lon": 0.0, "rental_uris": {"android": "https://dc.lft.to/lastmile_qr_scan", "ios": "https://dc.lft.to/lastmile_qr_scan"}, "name": "f1e1bd21b3678704e6bc7f44af996be0", "type": "electric_scooter", "lat": 38.92709466666667, "is_disabled": 0}, {"fusion_lat": 0.0, "lon": -77.03188883333333, "is_reserved": 0, "bike_id": "7dc939a4c9dea3309c5f67e5d99b0ccd", "fusion_lon": 0.0, "rental_uris": {"android": "https://dc.lft.to/lastmile_qr_scan", "ios": "https://dc.lft.to/lastmile_qr_scan"}, "name": "7dc939a4c9dea3309c5f67e5d99b0ccd", "type": "electric_scooter", "lat": 38.916495, "is_disabled": 0}, {"fusion_lat": 0.0, "lon": -77.0279235, "is_reserved": 0, "bike_id": "e11746bd9804fc843573128695d3715d", "fusion_lon": 0.0, "rental_uris": {"android": "https://dc.lft.to/lastmile_qr_scan", "ios": "https://dc.lft.to/lastmile_qr_scan"}, "name": "e11746bd9804fc843573128695d3715d", "type": "electric_scooter", "lat": 38.95393583333333, "is_disabled": 0}, {"fusion_lat": 0.0, "lon": -76.98112916666666, "is_reserved": 0, "bike_id": "5d9707da4cc98c517a4e14c545d45e41", "fusion_lon": 0.0, "rental_uris": {"android": "https://dc.lft.to/lastmile_qr_scan", "ios": "https://dc.lft.to/lastmile_qr_scan"}, "name": "5d9707da4cc98c517a4e14c545d45e41", "type": "electric_scooter", "lat": 38.90404016666667, "is_disabled": 0}, {"fusion_lat": 0.0, "lon": -77.11572616666666, "is_reserved": 0, "bike_id": "48927d23f6a6be6195f59074cad0df05", "fusion_lon": 0.0, "rental_uris": {"android": "https://dc.lft.to/lastmile_qr_scan", "ios": "https://dc.lft.to/lastmile_qr_scan"}, "name": "48927d23f6a6be6195f59074cad0df05", "type": "electric_bike", "lat": 38.993478833333334, "is_disabled": 0}, {"fusion_lat": 0.0, "lon": -77.04401733333333, "is_reserved": 0, "bike_id": "f3175cc6032907f6248b51c3fdd8005b", "fusion_lon": 0.0, "rental_uris": {"android": "https://dc.lft.to/lastmile_qr_scan", "ios": "https://dc.lft.to/lastmile_qr_scan"}, "name": "f3175cc6032907f6248b51c3fdd8005b", "type": "electric_scooter", "lat": 38.921261, "is_disabled": 0}, {"fusion_lat": 0.0, "lon": -77.024414, "is_reserved": 0, "bike_id": "de279efc06c39d1e1cd98414095a3361", "fusion_lon": 0.0, "rental_uris": {"android": "https://dc.lft.to/lastmile_qr_scan", "ios": "https://dc.lft.to/lastmile_qr_scan"}, "name": "de279efc06c39d1e1cd98414095a3361", "type": "electric_scooter", "lat": 38.916889166666664, "is_disabled": 0}, {"fusion_lat": 0.0, "lon": -76.98885616666666, "is_reserved": 0, "bike_id": "d208d5462a2dcf406cf75682d51f1907", "fusion_lon": 0.0, "rental_uris": {"android": "https://dc.lft.to/lastmile_qr_scan", "ios": "https://dc.lft.to/lastmile_qr_scan"}, "name": "d208d5462a2dcf406cf75682d51f1907", "type": "electric_scooter", "lat": 38.866485833333336, "is_disabled": 0}, {"fusion_lat": 0.0, "lon": -77.013063, "is_reserved": 0, "bike_id": "74d707d2339d546a49eddf366a8a7cf8", "fusion_lon": 0.0, "rental_uris": {"android": "https://dc.lft.to/lastmile_qr_scan", "ios": "https://dc.lft.to/lastmile_qr_scan"}, "name": "74d707d2339d546a49eddf366a8a7cf8", "type": "electric_scooter", "lat": 38.89467966666667, "is_disabled": 0}, {"fusion_lat": 0.0, "lon": -77.04873833333333, "is_reserved": 0, "bike_id": "93a7aba2c97fe7f34fa793c3884eff0b", "fusion_lon": 0.0, "rental_uris": {"android": "https://dc.lft.to/lastmile_qr_scan", "ios": "https://dc.lft.to/lastmile_qr_scan"}, "name": "93a7aba2c97fe7f34fa793c3884eff0b", "type": "electric_scooter", "lat": 38.89269983333333, "is_disabled": 0}, {"fusion_lat": 0.0, "lon": -77.04136316666667, "is_reserved": 0, "bike_id": "92c2bb966deab3017f0a34f2bb48cba7", "fusion_lon": 0.0, "rental_uris": {"android": "https://dc.lft.to/lastmile_qr_scan", "ios": "https://dc.lft.to/lastmile_qr_scan"}, "name": "92c2bb966deab3017f0a34f2bb48cba7", "type": "electric_scooter", "lat": 38.90588116666667, "is_disabled": 0}, {"fusion_lat": 0.0, "lon": -77.02707016666666, "is_reserved": 0, "bike_id": "2f8ff66cd1e8dba7d7447161ad20d0f0", "fusion_lon": 0.0, "rental_uris": {"android": "https://dc.lft.to/lastmile_qr_scan", "ios": "https://dc.lft.to/lastmile_qr_scan"}, "name": "2f8ff66cd1e8dba7d7447161ad20d0f0", "type": "electric_scooter", "lat": 38.91811466666667, "is_disabled": 0}, {"fusion_lat": 0.0, "lon": -77.0320515, "is_reserved": 0, "bike_id": "4fef8f04c9c6f389f7c3405c59e5b193", "fusion_lon": 0.0, "rental_uris": {"android": "https://dc.lft.to/lastmile_qr_scan", "ios": "https://dc.lft.to/lastmile_qr_scan"}, "name": "4fef8f04c9c6f389f7c3405c59e5b193", "type": "electric_scooter", "lat": 38.916431833333334, "is_disabled": 0}, {"fusion_lat": 0.0, "lon": -77.019654, "is_reserved": 0, "bike_id": "3a33ca9c67f75a849e34daea00a93ddf", "fusion_lon": 0.0, "rental_uris": {"android": "https://dc.lft.to/lastmile_qr_scan", "ios": "https://dc.lft.to/lastmile_qr_scan"}, "name": "3a33ca9c67f75a849e34daea00a93ddf", "type": "electric_scooter", "lat": 38.95652466666667, "is_disabled": 0}, {"fusion_lat": 0.0, "lon": -77.04612766666666, "is_reserved": 0, "bike_id": "6a8deed0fb9360b4259e198dcd407918", "fusion_lon": 0.0, "rental_uris": {"android": "https://dc.lft.to/lastmile_qr_scan", "ios": "https://dc.lft.to/lastmile_qr_scan"}, "name": "6a8deed0fb9360b4259e198dcd407918", "type": "electric_scooter", "lat": 38.92332566666666, "is_disabled": 0}, {"fusion_lat": 0.0, "lon": -77.00893116666667, "is_reserved": 0, "bike_id": "173158d0f110b4876d413baa14b74efd", "fusion_lon": 0.0, "rental_uris": {"android": "https://dc.lft.to/lastmile_qr_scan", "ios": "https://dc.lft.to/lastmile_qr_scan"}, "name": "173158d0f110b4876d413baa14b74efd", "type": "electric_scooter", "lat": 38.968179, "is_disabled": 0}, {"fusion_lat": 0.0, "lon": -77.02203283333333, "is_reserved": 0, "bike_id": "926e4e5fd2eb1d22a51ef23d03cf9c83", "fusion_lon": 0.0, "rental_uris": {"android": "https://dc.lft.to/lastmile_qr_scan", "ios": "https://dc.lft.to/lastmile_qr_scan"}, "name": "926e4e5fd2eb1d22a51ef23d03cf9c83", "type": "electric_scooter", "lat": 38.91614633333333, "is_disabled": 0}, {"fusion_lat": 0.0, "lon": -77.13897466666667, "is_reserved": 0, "bike_id": "750aadaaf489c1883614eda860789f67", "fusion_lon": 0.0, "rental_uris": {"android": "https://dc.lft.to/lastmile_qr_scan", "ios": "https://dc.lft.to/lastmile_qr_scan"}, "name": "750aadaaf489c1883614eda860789f67", "type": "electric_bike", "lat": 38.896726, "is_disabled": 0}, {"fusion_lat": 0.0, "lon": -77.04516366666667, "is_reserved": 0, "bike_id": "8ca5d6166c3bc0ae9895a99164eca938", "fusion_lon": 0.0, "rental_uris": {"android": "https://dc.lft.to/lastmile_qr_scan", "ios": "https://dc.lft.to/lastmile_qr_scan"}, "name": "8ca5d6166c3bc0ae9895a99164eca938", "type": "electric_scooter", "lat": 38.923137833333335, "is_disabled": 0}, {"fusion_lat": 0.0, "lon": -77.015319, "is_reserved": 0, "bike_id": "e2331fd303fca50255920656ddc222f4", "fusion_lon": 0.0, "rental_uris": {"android": "https://dc.lft.to/lastmile_qr_scan", "ios": "https://dc.lft.to/lastmile_qr_scan"}, "name": "e2331fd303fca50255920656ddc222f4", "type": "electric_scooter", "lat": 38.88737916666667, "is_disabled": 0}, {"fusion_lat": 0.0, "lon": -77.04185166666667, "is_reserved": 0, "bike_id": "b264e9231541713c5c181355d59b2bf1", "fusion_lon": 0.0, "rental_uris": {"android": "https://dc.lft.to/lastmile_qr_scan", "ios": "https://dc.lft.to/lastmile_qr_scan"}, "name": "b264e9231541713c5c181355d59b2bf1", "type": "electric_scooter", "lat": 38.8918275, "is_disabled": 0}, {"fusion_lat": 0.0, "lon": -77.00471916666666, "is_reserved": 0, "bike_id": "ab5c9d3663706e6c80f0c03282b9c11b", "fusion_lon": 0.0, "rental_uris": {"android": "https://dc.lft.to/lastmile_qr_scan", "ios": "https://dc.lft.to/lastmile_qr_scan"}, "name": "ab5c9d3663706e6c80f0c03282b9c11b", "type": "electric_scooter", "lat": 38.8766385, "is_disabled": 0}, {"fusion_lat": 0.0, "lon": -77.0349985, "is_reserved": 0, "bike_id": "5fbcdc28e4d0ceb270271ea82bf7911f", "fusion_lon": 0.0, "rental_uris": {"android": "https://dc.lft.to/lastmile_qr_scan", "ios": "https://dc.lft.to/lastmile_qr_scan"}, "name": "5fbcdc28e4d0ceb270271ea82bf7911f", "type": "electric_scooter", "lat": 38.96385816666667, "is_disabled": 0}, {"fusion_lat": 0.0, "lon": -77.02834083333333, "is_reserved": 0, "bike_id": "89c98080eb0a40a580c77a91e9f4ccf6", "fusion_lon": 0.0, "rental_uris": {"android": "https://dc.lft.to/lastmile_qr_scan", "ios": "https://dc.lft.to/lastmile_qr_scan"}, "name": "89c98080eb0a40a580c77a91e9f4ccf6", "type": "electric_scooter", "lat": 38.924643, "is_disabled": 0}, {"fusion_lat": 0.0, "lon": -77.04094, "is_reserved": 0, "bike_id": "33ce957eb9e7642c5b09df097a710722", "fusion_lon": 0.0, "rental_uris": {"android": "https://dc.lft.to/lastmile_qr_scan", "ios": "https://dc.lft.to/lastmile_qr_scan"}, "name": "33ce957eb9e7642c5b09df097a710722", "type": "electric_scooter", "lat": 38.917740333333334, "is_disabled": 0}, {"fusion_lat": 0.0, "lon": -76.99760266666667, "is_reserved": 0, "bike_id": "bf3165720ea6d6df53f75449e80b902e", "fusion_lon": 0.0, "rental_uris": {"android": "https://dc.lft.to/lastmile_qr_scan", "ios": "https://dc.lft.to/lastmile_qr_scan"}, "name": "bf3165720ea6d6df53f75449e80b902e", "type": "electric_scooter", "lat": 38.887724666666664, "is_disabled": 0}, {"fusion_lat": 0.0, "lon": -77.02220133333333, "is_reserved": 0, "bike_id": "d5d88ad3c3de33563551797db6c4c6b3", "fusion_lon": 0.0, "rental_uris": {"android": "https://dc.lft.to/lastmile_qr_scan", "ios": "https://dc.lft.to/lastmile_qr_scan"}, "name": "d5d88ad3c3de33563551797db6c4c6b3", "type": "electric_scooter", "lat": 38.89974266666667, "is_disabled": 0}, {"fusion_lat": 0.0, "lon": -77.11237133333333, "is_reserved": 0, "bike_id": "ce0c143be6e8d697cb0044c7cd097738", "fusion_lon": 0.0, "rental_uris": {"android": "https://dc.lft.to/lastmile_qr_scan", "ios": "https://dc.lft.to/lastmile_qr_scan"}, "name": "ce0c143be6e8d697cb0044c7cd097738", "type": "electric_bike", "lat": 38.812620333333335, "is_disabled": 0}, {"fusion_lat": 0.0, "lon": -76.94194833333333, "is_reserved": 0, "bike_id": "e7c356e45e6fa38d4b66e315aedc4dc1", "fusion_lon": 0.0, "rental_uris": {"android": "https://dc.lft.to/lastmile_qr_scan", "ios": "https://dc.lft.to/lastmile_qr_scan"}, "name": "e7c356e45e6fa38d4b66e315aedc4dc1", "type": "electric_scooter", "lat": 38.8937665, "is_disabled": 0}, {"fusion_lat": 0.0, "lon": -77.031477, "is_reserved": 0, "bike_id": "ec2e7a1424a7a12636e4e116ca4d3bf6", "fusion_lon": 0.0, "rental_uris": {"android": "https://dc.lft.to/lastmile_qr_scan", "ios": "https://dc.lft.to/lastmile_qr_scan"}, "name": "ec2e7a1424a7a12636e4e116ca4d3bf6", "type": "electric_scooter", "lat": 38.927942333333334, "is_disabled": 0}, {"fusion_lat": 0.0, "lon": -77.038499, "is_reserved": 0, "bike_id": "52433b87af32708a85b82196a8f30c58", "fusion_lon": 0.0, "rental_uris": {"android": "https://dc.lft.to/lastmile_qr_scan", "ios": "https://dc.lft.to/lastmile_qr_scan"}, "name": "52433b87af32708a85b82196a8f30c58", "type": "electric_scooter", "lat": 38.925266666666666, "is_disabled": 0}, {"fusion_lat": 0.0, "lon": -76.94683016666667, "is_reserved": 0, "bike_id": "0a726480600205b7ccfce30093d65b84", "fusion_lon": 0.0, "rental_uris": {"android": "https://dc.lft.to/lastmile_qr_scan", "ios": "https://dc.lft.to/lastmile_qr_scan"}, "name": "0a726480600205b7ccfce30093d65b84", "type": "electric_scooter", "lat": 38.886332333333335, "is_disabled": 0}, {"fusion_lat": 0.0, "lon": -77.04160316666666, "is_reserved": 0, "bike_id": "621203756151ac90adf5f6806aa3fdea", "fusion_lon": 0.0, "rental_uris": {"android": "https://dc.lft.to/lastmile_qr_scan", "ios": "https://dc.lft.to/lastmile_qr_scan"}, "name": "621203756151ac90adf5f6806aa3fdea", "type": "electric_scooter", "lat": 38.905057666666664, "is_disabled": 0}, {"fusion_lat": 0.0, "lon": -77.03248566666667, "is_reserved": 0, "bike_id": "bf05c03139e8ebd2a0056482843c6d62", "fusion_lon": 0.0, "rental_uris": {"android": "https://dc.lft.to/lastmile_qr_scan", "ios": "https://dc.lft.to/lastmile_qr_scan"}, "name": "bf05c03139e8ebd2a0056482843c6d62", "type": "electric_scooter", "lat": 38.91566516666666, "is_disabled": 0}, {"fusion_lat": 0.0, "lon": -77.03996233333334, "is_reserved": 0, "bike_id": "50a234d3884a67866dd97da6b047e013", "fusion_lon": 0.0, "rental_uris": {"android": "https://dc.lft.to/lastmile_qr_scan", "ios": "https://dc.lft.to/lastmile_qr_scan"}, "name": "50a234d3884a67866dd97da6b047e013", "type": "electric_bike", "lat": 38.88868016666667, "is_disabled": 0}, {"fusion_lat": 0.0, "lon": -77.04736333333334, "is_reserved": 0, "bike_id": "6e91cbf3333fe805dcf2672d219e073d", "fusion_lon": 0.0, "rental_uris": {"android": "https://dc.lft.to/lastmile_qr_scan", "ios": "https://dc.lft.to/lastmile_qr_scan"}, "name": "6e91cbf3333fe805dcf2672d219e073d", "type": "electric_scooter", "lat": 38.90978483333333, "is_disabled": 0}, {"fusion_lat": 0.0, "lon": -77.00273866666667, "is_reserved": 0, "bike_id": "3352e7d8a7e1e5ba4c4047fc4d8a3d58", "fusion_lon": 0.0, "rental_uris": {"android": "https://dc.lft.to/lastmile_qr_scan", "ios": "https://dc.lft.to/lastmile_qr_scan"}, "name": "3352e7d8a7e1e5ba4c4047fc4d8a3d58", "type": "electric_scooter", "lat": 38.887181166666664, "is_disabled": 0}, {"fusion_lat": 0.0, "lon": -77.02882616666666, "is_reserved": 0, "bike_id": "e90454d45a10b6c4268063b2b87ccb26", "fusion_lon": 0.0, "rental_uris": {"android": "https://dc.lft.to/lastmile_qr_scan", "ios": "https://dc.lft.to/lastmile_qr_scan"}, "name": "e90454d45a10b6c4268063b2b87ccb26", "type": "electric_scooter", "lat": 38.9172905, "is_disabled": 0}, {"fusion_lat": 0.0, "lon": -76.98878683333334, "is_reserved": 0, "bike_id": "2d6226ed4a5f698fdbaf94bdc9721e1c", "fusion_lon": 0.0, "rental_uris": {"android": "https://dc.lft.to/lastmile_qr_scan", "ios": "https://dc.lft.to/lastmile_qr_scan"}, "name": "2d6226ed4a5f698fdbaf94bdc9721e1c", "type": "electric_scooter", "lat": 38.9002945, "is_disabled": 0}, {"fusion_lat": 0.0, "lon": -76.999038, "is_reserved": 0, "bike_id": "8df77ab4a14f2dc20474492ef7c52505", "fusion_lon": 0.0, "rental_uris": {"android": "https://dc.lft.to/lastmile_qr_scan", "ios": "https://dc.lft.to/lastmile_qr_scan"}, "name": "8df77ab4a14f2dc20474492ef7c52505", "type": "electric_scooter", "lat": 38.94812966666667, "is_disabled": 0}, {"fusion_lat": 0.0, "lon": -77.0316165, "is_reserved": 0, "bike_id": "4c68508afa4341eb5a9d1744c594f164", "fusion_lon": 0.0, "rental_uris": {"android": "https://dc.lft.to/lastmile_qr_scan", "ios": "https://dc.lft.to/lastmile_qr_scan"}, "name": "4c68508afa4341eb5a9d1744c594f164", "type": "electric_scooter", "lat": 38.930582333333334, "is_disabled": 0}, {"fusion_lat": 0.0, "lon": -77.13938033333334, "is_reserved": 0, "bike_id": "8f9e2c09bb689294af4b2cc222643ab8", "fusion_lon": 0.0, "rental_uris": {"android": "https://dc.lft.to/lastmile_qr_scan", "ios": "https://dc.lft.to/lastmile_qr_scan"}, "name": "8f9e2c09bb689294af4b2cc222643ab8", "type": "electric_bike", "lat": 38.872975833333335, "is_disabled": 0}, {"fusion_lat": 0.0, "lon": -76.9307625, "is_reserved": 0, "bike_id": "dac7708f4bbde1e7f2d17f365b260f57", "fusion_lon": 0.0, "rental_uris": {"android": "https://dc.lft.to/lastmile_qr_scan", "ios": "https://dc.lft.to/lastmile_qr_scan"}, "name": "dac7708f4bbde1e7f2d17f365b260f57", "type": "electric_scooter", "lat": 38.90165616666667, "is_disabled": 0}, {"fusion_lat": 0.0, "lon": -77.022064, "is_reserved": 0, "bike_id": "da99f9df54dbce0ef10efec021799ad4", "fusion_lon": 0.0, "rental_uris": {"android": "https://dc.lft.to/lastmile_qr_scan", "ios": "https://dc.lft.to/lastmile_qr_scan"}, "name": "da99f9df54dbce0ef10efec021799ad4", "type": "electric_scooter", "lat": 38.878930833333335, "is_disabled": 0}, {"fusion_lat": 0.0, "lon": -77.03190283333333, "is_reserved": 0, "bike_id": "c20bae596e7b90d9bb04fc50afa3ddfc", "fusion_lon": 0.0, "rental_uris": {"android": "https://dc.lft.to/lastmile_qr_scan", "ios": "https://dc.lft.to/lastmile_qr_scan"}, "name": "c20bae596e7b90d9bb04fc50afa3ddfc", "type": "electric_scooter", "lat": 38.91044183333333, "is_disabled": 0}, {"fusion_lat": 0.0, "lon": -77.12731083333334, "is_reserved": 0, "bike_id": "fe9af16323aa36be6793e605ebd5eaa1", "fusion_lon": 0.0, "rental_uris": {"android": "https://dc.lft.to/lastmile_qr_scan", "ios": "https://dc.lft.to/lastmile_qr_scan"}, "name": "fe9af16323aa36be6793e605ebd5eaa1", "type": "electric_bike", "lat": 38.895613, "is_disabled": 0}, {"fusion_lat": 0.0, "lon": -77.0703575, "is_reserved": 0, "bike_id": "d241df6ad6968bfcc1c837ddd7a70ca6", "fusion_lon": 0.0, "rental_uris": {"android": "https://dc.lft.to/lastmile_qr_scan", "ios": "https://dc.lft.to/lastmile_qr_scan"}, "name": "d241df6ad6968bfcc1c837ddd7a70ca6", "type": "electric_scooter", "lat": 38.906307, "is_disabled": 0}, {"fusion_lat": 0.0, "lon": -77.036371, "is_reserved": 0, "bike_id": "49ebf2c91601ed29752b471b6b1d1de4", "fusion_lon": 0.0, "rental_uris": {"android": "https://dc.lft.to/lastmile_qr_scan", "ios": "https://dc.lft.to/lastmile_qr_scan"}, "name": "49ebf2c91601ed29752b471b6b1d1de4", "type": "electric_scooter", "lat": 38.927458, "is_disabled": 0}, {"fusion_lat": 0.0, "lon": -77.02177133333333, "is_reserved": 0, "bike_id": "5932afde3d32a2a4ed8409f8b6424d9c", "fusion_lon": 0.0, "rental_uris": {"android": "https://dc.lft.to/lastmile_qr_scan", "ios": "https://dc.lft.to/lastmile_qr_scan"}, "name": "5932afde3d32a2a4ed8409f8b6424d9c", "type": "electric_scooter", "lat": 38.905511833333335, "is_disabled": 0}, {"fusion_lat": 0.0, "lon": -77.03724066666666, "is_reserved": 0, "bike_id": "775e268596ea4e05aa62497e0291dcaa", "fusion_lon": 0.0, "rental_uris": {"android": "https://dc.lft.to/lastmile_qr_scan", "ios": "https://dc.lft.to/lastmile_qr_scan"}, "name": "775e268596ea4e05aa62497e0291dcaa", "type": "electric_scooter", "lat": 38.91692066666667, "is_disabled": 0}, {"fusion_lat": 0.0, "lon": -76.99157766666667, "is_reserved": 0, "bike_id": "b58fb9c308128cff24c6a0cceab6a2d7", "fusion_lon": 0.0, "rental_uris": {"android": "https://dc.lft.to/lastmile_qr_scan", "ios": "https://dc.lft.to/lastmile_qr_scan"}, "name": "b58fb9c308128cff24c6a0cceab6a2d7", "type": "electric_scooter", "lat": 38.90038366666667, "is_disabled": 0}, {"fusion_lat": 0.0, "lon": -76.951288, "is_reserved": 0, "bike_id": "9a671f94814b240fdf699a8a242290c0", "fusion_lon": 0.0, "rental_uris": {"android": "https://dc.lft.to/lastmile_qr_scan", "ios": "https://dc.lft.to/lastmile_qr_scan"}, "name": "9a671f94814b240fdf699a8a242290c0", "type": "electric_scooter", "lat": 38.890277833333336, "is_disabled": 0}, {"fusion_lat": 0.0, "lon": -77.05064883333333, "is_reserved": 0, "bike_id": "8642b3f0d9166a126ae32e189aadfb59", "fusion_lon": 0.0, "rental_uris": {"android": "https://dc.lft.to/lastmile_qr_scan", "ios": "https://dc.lft.to/lastmile_qr_scan"}, "name": "8642b3f0d9166a126ae32e189aadfb59", "type": "electric_scooter", "lat": 38.90385233333333, "is_disabled": 0}, {"fusion_lat": 0.0, "lon": -77.03214383333334, "is_reserved": 0, "bike_id": "b4996ef55c04d661b6681f1ecffed390", "fusion_lon": 0.0, "rental_uris": {"android": "https://dc.lft.to/lastmile_qr_scan", "ios": "https://dc.lft.to/lastmile_qr_scan"}, "name": "b4996ef55c04d661b6681f1ecffed390", "type": "electric_scooter", "lat": 38.912586166666664, "is_disabled": 0}, {"fusion_lat": 0.0, "lon": -77.02180816666667, "is_reserved": 0, "bike_id": "e2d7e31485ad40a4dd822101d92944c5", "fusion_lon": 0.0, "rental_uris": {"android": "https://dc.lft.to/lastmile_qr_scan", "ios": "https://dc.lft.to/lastmile_qr_scan"}, "name": "e2d7e31485ad40a4dd822101d92944c5", "type": "electric_scooter", "lat": 38.89577933333333, "is_disabled": 0}, {"fusion_lat": 0.0, "lon": -77.01706533333333, "is_reserved": 0, "bike_id": "a5ba969c7d5882e71e1eb139a8184baa", "fusion_lon": 0.0, "rental_uris": {"android": "https://dc.lft.to/lastmile_qr_scan", "ios": "https://dc.lft.to/lastmile_qr_scan"}, "name": "a5ba969c7d5882e71e1eb139a8184baa", "type": "electric_scooter", "lat": 38.879342, "is_disabled": 0}, {"fusion_lat": 0.0, "lon": -76.9496575, "is_reserved": 0, "bike_id": "fc966073d4e82645fde905b49e080e4d", "fusion_lon": 0.0, "rental_uris": {"android": "https://dc.lft.to/lastmile_qr_scan", "ios": "https://dc.lft.to/lastmile_qr_scan"}, "name": "fc966073d4e82645fde905b49e080e4d", "type": "electric_scooter", "lat": 38.904979, "is_disabled": 0}, {"fusion_lat": 0.0, "lon": -77.08957966666667, "is_reserved": 0, "bike_id": "7ea92b70a69046a31e2826411b6cc35c", "fusion_lon": 0.0, "rental_uris": {"android": "https://dc.lft.to/lastmile_qr_scan", "ios": "https://dc.lft.to/lastmile_qr_scan"}, "name": "7ea92b70a69046a31e2826411b6cc35c", "type": "electric_bike", "lat": 38.8429375, "is_disabled": 0}, {"fusion_lat": 0.0, "lon": -76.98795683333333, "is_reserved": 0, "bike_id": "8a1e91b4424c6d7b1b0d9e51eeb9c31b", "fusion_lon": 0.0, "rental_uris": {"android": "https://dc.lft.to/lastmile_qr_scan", "ios": "https://dc.lft.to/lastmile_qr_scan"}, "name": "8a1e91b4424c6d7b1b0d9e51eeb9c31b", "type": "electric_bike", "lat": 38.906067666666665, "is_disabled": 0}, {"fusion_lat": 0.0, "lon": -77.03127366666666, "is_reserved": 0, "bike_id": "1c6331885e6e1a9c1e759879a3a1c836", "fusion_lon": 0.0, "rental_uris": {"android": "https://dc.lft.to/lastmile_qr_scan", "ios": "https://dc.lft.to/lastmile_qr_scan"}, "name": "1c6331885e6e1a9c1e759879a3a1c836", "type": "electric_scooter", "lat": 38.914938, "is_disabled": 0}, {"fusion_lat": 0.0, "lon": -77.03214983333334, "is_reserved": 0, "bike_id": "95fc73bc5e0871cc6d1b48cefccd9afc", "fusion_lon": 0.0, "rental_uris": {"android": "https://dc.lft.to/lastmile_qr_scan", "ios": "https://dc.lft.to/lastmile_qr_scan"}, "name": "95fc73bc5e0871cc6d1b48cefccd9afc", "type": "electric_scooter", "lat": 38.91555, "is_disabled": 0}, {"fusion_lat": 0.0, "lon": -77.050593, "is_reserved": 0, "bike_id": "1af98f552ac51ed0f2667a11828783ca", "fusion_lon": 0.0, "rental_uris": {"android": "https://dc.lft.to/lastmile_qr_scan", "ios": "https://dc.lft.to/lastmile_qr_scan"}, "name": "1af98f552ac51ed0f2667a11828783ca", "type": "electric_scooter", "lat": 38.92418, "is_disabled": 0}, {"fusion_lat": 0.0, "lon": -77.02730966666667, "is_reserved": 0, "bike_id": "526f094f68d6d0eecf550b1210eff734", "fusion_lon": 0.0, "rental_uris": {"android": "https://dc.lft.to/lastmile_qr_scan", "ios": "https://dc.lft.to/lastmile_qr_scan"}, "name": "526f094f68d6d0eecf550b1210eff734", "type": "electric_scooter", "lat": 38.940861166666664, "is_disabled": 0}, {"fusion_lat": 0.0, "lon": -77.042086, "is_reserved": 0, "bike_id": "41fef276e506bf0add28b5ee3e97d5fb", "fusion_lon": 0.0, "rental_uris": {"android": "https://dc.lft.to/lastmile_qr_scan", "ios": "https://dc.lft.to/lastmile_qr_scan"}, "name": "41fef276e506bf0add28b5ee3e97d5fb", "type": "electric_scooter", "lat": 38.9231725, "is_disabled": 0}, {"fusion_lat": 0.0, "lon": -77.03458533333334, "is_reserved": 0, "bike_id": "0ae9c91c23a55e0ddb6b98659d5d6ae5", "fusion_lon": 0.0, "rental_uris": {"android": "https://dc.lft.to/lastmile_qr_scan", "ios": "https://dc.lft.to/lastmile_qr_scan"}, "name": "0ae9c91c23a55e0ddb6b98659d5d6ae5", "type": "electric_scooter", "lat": 38.917327666666665, "is_disabled": 0}, {"fusion_lat": 0.0, "lon": -77.02563316666667, "is_reserved": 0, "bike_id": "c22f1ffa8a124824c8b9fb3475ae05e3", "fusion_lon": 0.0, "rental_uris": {"android": "https://dc.lft.to/lastmile_qr_scan", "ios": "https://dc.lft.to/lastmile_qr_scan"}, "name": "c22f1ffa8a124824c8b9fb3475ae05e3", "type": "electric_scooter", "lat": 38.918152666666664, "is_disabled": 0}, {"fusion_lat": 0.0, "lon": -76.89535416666666, "is_reserved": 0, "bike_id": "0845e53a773f08390dc9c8f703e656d5", "fusion_lon": 0.0, "rental_uris": {"android": "https://dc.lft.to/lastmile_qr_scan", "ios": "https://dc.lft.to/lastmile_qr_scan"}, "name": "0845e53a773f08390dc9c8f703e656d5", "type": "electric_bike", "lat": 38.94552233333334, "is_disabled": 0}, {"fusion_lat": 0.0, "lon": -77.01515433333333, "is_reserved": 0, "bike_id": "5457d05609daa2b7d656d3f70b02b79e", "fusion_lon": 0.0, "rental_uris": {"android": "https://dc.lft.to/lastmile_qr_scan", "ios": "https://dc.lft.to/lastmile_qr_scan"}, "name": "5457d05609daa2b7d656d3f70b02b79e", "type": "electric_scooter", "lat": 38.8924045, "is_disabled": 0}, {"fusion_lat": 0.0, "lon": -77.0633215, "is_reserved": 0, "bike_id": "f403435b57cd8aa805df1f9c1ed76ab8", "fusion_lon": 0.0, "rental_uris": {"android": "https://dc.lft.to/lastmile_qr_scan", "ios": "https://dc.lft.to/lastmile_qr_scan"}, "name": "f403435b57cd8aa805df1f9c1ed76ab8", "type": "electric_scooter", "lat": 38.944208333333336, "is_disabled": 0}, {"fusion_lat": 0.0, "lon": -77.0457745, "is_reserved": 0, "bike_id": "436f1fccae6ead7a9a543ae14b844978", "fusion_lon": 0.0, "rental_uris": {"android": "https://dc.lft.to/lastmile_qr_scan", "ios": "https://dc.lft.to/lastmile_qr_scan"}, "name": "436f1fccae6ead7a9a543ae14b844978", "type": "electric_scooter", "lat": 38.90389016666666, "is_disabled": 0}, {"fusion_lat": 0.0, "lon": -77.010753, "is_reserved": 0, "bike_id": "256d8942f9bf3e25eb70abd0eaaa6285", "fusion_lon": 0.0, "rental_uris": {"android": "https://dc.lft.to/lastmile_qr_scan", "ios": "https://dc.lft.to/lastmile_qr_scan"}, "name": "256d8942f9bf3e25eb70abd0eaaa6285", "type": "electric_scooter", "lat": 38.89802183333333, "is_disabled": 0}, {"fusion_lat": 0.0, "lon": -77.0318595, "is_reserved": 0, "bike_id": "1ac86f71a247eccffb30c08df0fdb912", "fusion_lon": 0.0, "rental_uris": {"android": "https://dc.lft.to/lastmile_qr_scan", "ios": "https://dc.lft.to/lastmile_qr_scan"}, "name": "1ac86f71a247eccffb30c08df0fdb912", "type": "electric_scooter", "lat": 38.91569766666667, "is_disabled": 0}, {"fusion_lat": 0.0, "lon": -77.04521033333333, "is_reserved": 0, "bike_id": "ae5d010e738759997879c42de1350f49", "fusion_lon": 0.0, "rental_uris": {"android": "https://dc.lft.to/lastmile_qr_scan", "ios": "https://dc.lft.to/lastmile_qr_scan"}, "name": "ae5d010e738759997879c42de1350f49", "type": "electric_scooter", "lat": 38.90239016666666, "is_disabled": 0}, {"fusion_lat": 0.0, "lon": -76.99144216666667, "is_reserved": 0, "bike_id": "7b82c732e1d8e8ba6d05bc1b1fff5f1e", "fusion_lon": 0.0, "rental_uris": {"android": "https://dc.lft.to/lastmile_qr_scan", "ios": "https://dc.lft.to/lastmile_qr_scan"}, "name": "7b82c732e1d8e8ba6d05bc1b1fff5f1e", "type": "electric_scooter", "lat": 38.8934445, "is_disabled": 0}, {"fusion_lat": 0.0, "lon": -77.09469416666667, "is_reserved": 0, "bike_id": "d6fa3460404c3b4de2af22e156393215", "fusion_lon": 0.0, "rental_uris": {"android": "https://dc.lft.to/lastmile_qr_scan", "ios": "https://dc.lft.to/lastmile_qr_scan"}, "name": "d6fa3460404c3b4de2af22e156393215", "type": "electric_bike", "lat": 38.807609166666666, "is_disabled": 0}, {"fusion_lat": 0.0, "lon": -76.97437266666667, "is_reserved": 0, "bike_id": "36571d9fe277ec262715911fba113671", "fusion_lon": 0.0, "rental_uris": {"android": "https://dc.lft.to/lastmile_qr_scan", "ios": "https://dc.lft.to/lastmile_qr_scan"}, "name": "36571d9fe277ec262715911fba113671", "type": "electric_bike", "lat": 38.86421466666667, "is_disabled": 0}, {"fusion_lat": 0.0, "lon": -76.93732183333333, "is_reserved": 0, "bike_id": "2748105f4683800d6e69798e1a47680f", "fusion_lon": 0.0, "rental_uris": {"android": "https://dc.lft.to/lastmile_qr_scan", "ios": "https://dc.lft.to/lastmile_qr_scan"}, "name": "2748105f4683800d6e69798e1a47680f", "type": "electric_scooter", "lat": 38.89014683333333, "is_disabled": 0}, {"fusion_lat": 0.0, "lon": -77.06865783333333, "is_reserved": 0, "bike_id": "4fa5c038501003a283feb35b1e9ef5a3", "fusion_lon": 0.0, "rental_uris": {"android": "https://dc.lft.to/lastmile_qr_scan", "ios": "https://dc.lft.to/lastmile_qr_scan"}, "name": "4fa5c038501003a283feb35b1e9ef5a3", "type": "electric_bike", "lat": 38.805752, "is_disabled": 0}, {"fusion_lat": 0.0, "lon": -77.03325583333333, "is_reserved": 0, "bike_id": "290013fdd0fb80eddf17c92c4e92ba89", "fusion_lon": 0.0, "rental_uris": {"android": "https://dc.lft.to/lastmile_qr_scan", "ios": "https://dc.lft.to/lastmile_qr_scan"}, "name": "290013fdd0fb80eddf17c92c4e92ba89", "type": "electric_scooter", "lat": 38.91273783333333, "is_disabled": 0}, {"fusion_lat": 0.0, "lon": -77.03547883333333, "is_reserved": 0, "bike_id": "f81debba86d9b772ebc1595217a317d8", "fusion_lon": 0.0, "rental_uris": {"android": "https://dc.lft.to/lastmile_qr_scan", "ios": "https://dc.lft.to/lastmile_qr_scan"}, "name": "f81debba86d9b772ebc1595217a317d8", "type": "electric_scooter", "lat": 38.917080166666665, "is_disabled": 0}, {"fusion_lat": 0.0, "lon": -77.04298616666667, "is_reserved": 0, "bike_id": "8b605f4bf619c3e99756f230c95a7d7a", "fusion_lon": 0.0, "rental_uris": {"android": "https://dc.lft.to/lastmile_qr_scan", "ios": "https://dc.lft.to/lastmile_qr_scan"}, "name": "8b605f4bf619c3e99756f230c95a7d7a", "type": "electric_scooter", "lat": 38.923314166666664, "is_disabled": 0}, {"fusion_lat": 0.0, "lon": -76.99542266666667, "is_reserved": 0, "bike_id": "3fd62f6eab4e74983957a60e0cd82e03", "fusion_lon": 0.0, "rental_uris": {"android": "https://dc.lft.to/lastmile_qr_scan", "ios": "https://dc.lft.to/lastmile_qr_scan"}, "name": "3fd62f6eab4e74983957a60e0cd82e03", "type": "electric_scooter", "lat": 38.862593833333335, "is_disabled": 0}, {"fusion_lat": 0.0, "lon": -77.0348395, "is_reserved": 0, "bike_id": "2c04e2ecf3cc58c9e83b0fac32e861d8", "fusion_lon": 0.0, "rental_uris": {"android": "https://dc.lft.to/lastmile_qr_scan", "ios": "https://dc.lft.to/lastmile_qr_scan"}, "name": "2c04e2ecf3cc58c9e83b0fac32e861d8", "type": "electric_scooter", "lat": 38.92529566666666, "is_disabled": 0}, {"fusion_lat": 0.0, "lon": -76.99456466666666, "is_reserved": 0, "bike_id": "0c76814563622980995356bfa4f6836a", "fusion_lon": 0.0, "rental_uris": {"android": "https://dc.lft.to/lastmile_qr_scan", "ios": "https://dc.lft.to/lastmile_qr_scan"}, "name": "0c76814563622980995356bfa4f6836a", "type": "electric_bike", "lat": 38.966227833333335, "is_disabled": 0}, {"fusion_lat": 0.0, "lon": -76.99813733333333, "is_reserved": 0, "bike_id": "03cd01a8b77e04e995c83ce2f6e5f643", "fusion_lon": 0.0, "rental_uris": {"android": "https://dc.lft.to/lastmile_qr_scan", "ios": "https://dc.lft.to/lastmile_qr_scan"}, "name": "03cd01a8b77e04e995c83ce2f6e5f643", "type": "electric_scooter", "lat": 38.844323833333334, "is_disabled": 0}, {"fusion_lat": 0.0, "lon": -77.03852083333334, "is_reserved": 0, "bike_id": "fe65c2fc25190b435316d4aaca176f0e", "fusion_lon": 0.0, "rental_uris": {"android": "https://dc.lft.to/lastmile_qr_scan", "ios": "https://dc.lft.to/lastmile_qr_scan"}, "name": "fe65c2fc25190b435316d4aaca176f0e", "type": "electric_scooter", "lat": 38.911726333333334, "is_disabled": 0}, {"fusion_lat": 0.0, "lon": -77.0304485, "is_reserved": 0, "bike_id": "f8693f25f6b7be7f813a9cf86cc8e679", "fusion_lon": 0.0, "rental_uris": {"android": "https://dc.lft.to/lastmile_qr_scan", "ios": "https://dc.lft.to/lastmile_qr_scan"}, "name": "f8693f25f6b7be7f813a9cf86cc8e679", "type": "electric_scooter", "lat": 38.88408366666667, "is_disabled": 0}, {"fusion_lat": 0.0, "lon": -77.02282033333333, "is_reserved": 0, "bike_id": "f1f661b45bf9d251db19fa8cc2cb53d1", "fusion_lon": 0.0, "rental_uris": {"android": "https://dc.lft.to/lastmile_qr_scan", "ios": "https://dc.lft.to/lastmile_qr_scan"}, "name": "f1f661b45bf9d251db19fa8cc2cb53d1", "type": "electric_scooter", "lat": 38.9167225, "is_disabled": 0}, {"fusion_lat": 0.0, "lon": -77.086553, "is_reserved": 0, "bike_id": "e0af64751c69d1059f08327fdc2dc8c5", "fusion_lon": 0.0, "rental_uris": {"android": "https://dc.lft.to/lastmile_qr_scan", "ios": "https://dc.lft.to/lastmile_qr_scan"}, "name": "e0af64751c69d1059f08327fdc2dc8c5", "type": "electric_bike", "lat": 38.86248833333333, "is_disabled": 0}, {"fusion_lat": 0.0, "lon": -77.017515, "is_reserved": 0, "bike_id": "47e62ddbed879a2dd917fe9975cb0129", "fusion_lon": 0.0, "rental_uris": {"android": "https://dc.lft.to/lastmile_qr_scan", "ios": "https://dc.lft.to/lastmile_qr_scan"}, "name": "47e62ddbed879a2dd917fe9975cb0129", "type": "electric_scooter", "lat": 38.8832305, "is_disabled": 0}, {"fusion_lat": 0.0, "lon": -77.02423383333333, "is_reserved": 0, "bike_id": "3b8fa3e318a181e87abd9fbbd63f9f0d", "fusion_lon": 0.0, "rental_uris": {"android": "https://dc.lft.to/lastmile_qr_scan", "ios": "https://dc.lft.to/lastmile_qr_scan"}, "name": "3b8fa3e318a181e87abd9fbbd63f9f0d", "type": "electric_scooter", "lat": 38.89520816666667, "is_disabled": 0}, {"fusion_lat": 0.0, "lon": -77.01165683333333, "is_reserved": 0, "bike_id": "2adc5335123332129cd70b54876fe8ae", "fusion_lon": 0.0, "rental_uris": {"android": "https://dc.lft.to/lastmile_qr_scan", "ios": "https://dc.lft.to/lastmile_qr_scan"}, "name": "2adc5335123332129cd70b54876fe8ae", "type": "electric_scooter", "lat": 38.91561466666667, "is_disabled": 0}, {"fusion_lat": 0.0, "lon": -76.99647133333333, "is_reserved": 0, "bike_id": "bad644b81ae10d50ccbb15b35c9f48d0", "fusion_lon": 0.0, "rental_uris": {"android": "https://dc.lft.to/lastmile_qr_scan", "ios": "https://dc.lft.to/lastmile_qr_scan"}, "name": "bad644b81ae10d50ccbb15b35c9f48d0", "type": "electric_scooter", "lat": 38.887190333333336, "is_disabled": 0}, {"fusion_lat": 0.0, "lon": -77.04697366666667, "is_reserved": 0, "bike_id": "3810a935044c349d287b4adcba70960d", "fusion_lon": 0.0, "rental_uris": {"android": "https://dc.lft.to/lastmile_qr_scan", "ios": "https://dc.lft.to/lastmile_qr_scan"}, "name": "3810a935044c349d287b4adcba70960d", "type": "electric_scooter", "lat": 38.921571666666665, "is_disabled": 0}, {"fusion_lat": 0.0, "lon": -77.00376716666666, "is_reserved": 0, "bike_id": "fd847afbbda9b6934ca4caf0dbc951dc", "fusion_lon": 0.0, "rental_uris": {"android": "https://dc.lft.to/lastmile_qr_scan", "ios": "https://dc.lft.to/lastmile_qr_scan"}, "name": "fd847afbbda9b6934ca4caf0dbc951dc", "type": "electric_scooter", "lat": 38.8972725, "is_disabled": 0}, {"fusion_lat": 0.0, "lon": -76.99086883333334, "is_reserved": 0, "bike_id": "c45f5849413cebf7ce502fb5c15a3339", "fusion_lon": 0.0, "rental_uris": {"android": "https://dc.lft.to/lastmile_qr_scan", "ios": "https://dc.lft.to/lastmile_qr_scan"}, "name": "c45f5849413cebf7ce502fb5c15a3339", "type": "electric_bike", "lat": 38.862336666666664, "is_disabled": 0}, {"fusion_lat": 0.0, "lon": -77.0092765, "is_reserved": 0, "bike_id": "6807d9bd4e5f37b787e7973779b82a4a", "fusion_lon": 0.0, "rental_uris": {"android": "https://dc.lft.to/lastmile_qr_scan", "ios": "https://dc.lft.to/lastmile_qr_scan"}, "name": "6807d9bd4e5f37b787e7973779b82a4a", "type": "electric_scooter", "lat": 38.91807633333333, "is_disabled": 0}, {"fusion_lat": 0.0, "lon": -77.038401, "is_reserved": 0, "bike_id": "ff4ab04601b096e7596296e6c05a3c20", "fusion_lon": 0.0, "rental_uris": {"android": "https://dc.lft.to/lastmile_qr_scan", "ios": "https://dc.lft.to/lastmile_qr_scan"}, "name": "ff4ab04601b096e7596296e6c05a3c20", "type": "electric_scooter", "lat": 38.91278783333333, "is_disabled": 0}, {"fusion_lat": 0.0, "lon": -76.97797416666667, "is_reserved": 0, "bike_id": "5b2ca1c94959c7f0cd5991a427a3d570", "fusion_lon": 0.0, "rental_uris": {"android": "https://dc.lft.to/lastmile_qr_scan", "ios": "https://dc.lft.to/lastmile_qr_scan"}, "name": "5b2ca1c94959c7f0cd5991a427a3d570", "type": "electric_scooter", "lat": 38.903166666666664, "is_disabled": 0}, {"fusion_lat": 0.0, "lon": -77.0253395, "is_reserved": 0, "bike_id": "cda1d93537504d37b024073da649e55b", "fusion_lon": 0.0, "rental_uris": {"android": "https://dc.lft.to/lastmile_qr_scan", "ios": "https://dc.lft.to/lastmile_qr_scan"}, "name": "cda1d93537504d37b024073da649e55b", "type": "electric_scooter", "lat": 38.92079533333333, "is_disabled": 0}, {"fusion_lat": 0.0, "lon": -77.02099983333333, "is_reserved": 0, "bike_id": "e8856f91ddb718e2a65aa0c46b60fdf2", "fusion_lon": 0.0, "rental_uris": {"android": "https://dc.lft.to/lastmile_qr_scan", "ios": "https://dc.lft.to/lastmile_qr_scan"}, "name": "e8856f91ddb718e2a65aa0c46b60fdf2", "type": "electric_scooter", "lat": 38.894819, "is_disabled": 0}, {"fusion_lat": 0.0, "lon": -77.03447066666666, "is_reserved": 0, "bike_id": "76b7ba97758b6110b190ab3e9ef7982a", "fusion_lon": 0.0, "rental_uris": {"android": "https://dc.lft.to/lastmile_qr_scan", "ios": "https://dc.lft.to/lastmile_qr_scan"}, "name": "76b7ba97758b6110b190ab3e9ef7982a", "type": "electric_scooter", "lat": 38.909690166666664, "is_disabled": 0}, {"fusion_lat": 0.0, "lon": -77.0330255, "is_reserved": 0, "bike_id": "aff9d19104fd9719edbe31f242873ed3", "fusion_lon": 0.0, "rental_uris": {"android": "https://dc.lft.to/lastmile_qr_scan", "ios": "https://dc.lft.to/lastmile_qr_scan"}, "name": "aff9d19104fd9719edbe31f242873ed3", "type": "electric_scooter", "lat": 38.95638783333333, "is_disabled": 0}, {"fusion_lat": 0.0, "lon": -77.05886066666666, "is_reserved": 0, "bike_id": "0a459e880e02ae82d521a827ae96c30b", "fusion_lon": 0.0, "rental_uris": {"android": "https://dc.lft.to/lastmile_qr_scan", "ios": "https://dc.lft.to/lastmile_qr_scan"}, "name": "0a459e880e02ae82d521a827ae96c30b", "type": "electric_scooter", "lat": 38.94296116666666, "is_disabled": 0}, {"fusion_lat": 0.0, "lon": -77.02768683333333, "is_reserved": 0, "bike_id": "fb3ddc552d63ff155f24416849c0aa00", "fusion_lon": 0.0, "rental_uris": {"android": "https://dc.lft.to/lastmile_qr_scan", "ios": "https://dc.lft.to/lastmile_qr_scan"}, "name": "fb3ddc552d63ff155f24416849c0aa00", "type": "electric_scooter", "lat": 38.95424033333333, "is_disabled": 0}, {"fusion_lat": 0.0, "lon": -77.0306625, "is_reserved": 0, "bike_id": "d3765b25f8af40cff654b96820a4a559", "fusion_lon": 0.0, "rental_uris": {"android": "https://dc.lft.to/lastmile_qr_scan", "ios": "https://dc.lft.to/lastmile_qr_scan"}, "name": "d3765b25f8af40cff654b96820a4a559", "type": "electric_scooter", "lat": 38.91752616666667, "is_disabled": 0}, {"fusion_lat": 0.0, "lon": -77.0340965, "is_reserved": 0, "bike_id": "c3538a4197e2356ba910e150c58c282d", "fusion_lon": 0.0, "rental_uris": {"android": "https://dc.lft.to/lastmile_qr_scan", "ios": "https://dc.lft.to/lastmile_qr_scan"}, "name": "c3538a4197e2356ba910e150c58c282d", "type": "electric_scooter", "lat": 38.92308716666667, "is_disabled": 0}, {"fusion_lat": 0.0, "lon": -77.03091066666667, "is_reserved": 0, "bike_id": "f1738c08668f7b7c1ec407db0b42db45", "fusion_lon": 0.0, "rental_uris": {"android": "https://dc.lft.to/lastmile_qr_scan", "ios": "https://dc.lft.to/lastmile_qr_scan"}, "name": "f1738c08668f7b7c1ec407db0b42db45", "type": "electric_scooter", "lat": 38.91051866666667, "is_disabled": 0}, {"fusion_lat": 0.0, "lon": -77.0531165, "is_reserved": 0, "bike_id": "ada2ed2d91e0ac70974886945a71bfa0", "fusion_lon": 0.0, "rental_uris": {"android": "https://dc.lft.to/lastmile_qr_scan", "ios": "https://dc.lft.to/lastmile_qr_scan"}, "name": "ada2ed2d91e0ac70974886945a71bfa0", "type": "electric_scooter", "lat": 38.926561, "is_disabled": 0}, {"fusion_lat": 0.0, "lon": -77.01606916666667, "is_reserved": 0, "bike_id": "213877035aed9a33e75d646996a690d9", "fusion_lon": 0.0, "rental_uris": {"android": "https://dc.lft.to/lastmile_qr_scan", "ios": "https://dc.lft.to/lastmile_qr_scan"}, "name": "213877035aed9a33e75d646996a690d9", "type": "electric_scooter", "lat": 38.89503916666666, "is_disabled": 0}, {"fusion_lat": 0.0, "lon": -76.99388416666666, "is_reserved": 0, "bike_id": "ff5a41ecfc536838245cc1ff82138060", "fusion_lon": 0.0, "rental_uris": {"android": "https://dc.lft.to/lastmile_qr_scan", "ios": "https://dc.lft.to/lastmile_qr_scan"}, "name": "ff5a41ecfc536838245cc1ff82138060", "type": "electric_scooter", "lat": 38.897256166666665, "is_disabled": 0}, {"fusion_lat": 0.0, "lon": -76.93729666666667, "is_reserved": 0, "bike_id": "6aa2dc95252e5301f9e99497544f0e9b", "fusion_lon": 0.0, "rental_uris": {"android": "https://dc.lft.to/lastmile_qr_scan", "ios": "https://dc.lft.to/lastmile_qr_scan"}, "name": "6aa2dc95252e5301f9e99497544f0e9b", "type": "electric_scooter", "lat": 38.8901585, "is_disabled": 0}, {"fusion_lat": 0.0, "lon": -76.98780616666667, "is_reserved": 0, "bike_id": "961f8b3479ed28736a2306ec3d4276b8", "fusion_lon": 0.0, "rental_uris": {"android": "https://dc.lft.to/lastmile_qr_scan", "ios": "https://dc.lft.to/lastmile_qr_scan"}, "name": "961f8b3479ed28736a2306ec3d4276b8", "type": "electric_scooter", "lat": 38.8446905, "is_disabled": 0}, {"fusion_lat": 0.0, "lon": -77.10323866666667, "is_reserved": 0, "bike_id": "61e350e212cfd0af629318d19e112078", "fusion_lon": 0.0, "rental_uris": {"android": "https://dc.lft.to/lastmile_qr_scan", "ios": "https://dc.lft.to/lastmile_qr_scan"}, "name": "61e350e212cfd0af629318d19e112078", "type": "electric_bike", "lat": 38.874194, "is_disabled": 0}, {"fusion_lat": 0.0, "lon": -77.026083, "is_reserved": 0, "bike_id": "d6a8bcba2fe2a6a61269a74ad96d89f0", "fusion_lon": 0.0, "rental_uris": {"android": "https://dc.lft.to/lastmile_qr_scan", "ios": "https://dc.lft.to/lastmile_qr_scan"}, "name": "d6a8bcba2fe2a6a61269a74ad96d89f0", "type": "electric_scooter", "lat": 38.89728066666667, "is_disabled": 0}, {"fusion_lat": 0.0, "lon": -77.03763, "is_reserved": 0, "bike_id": "6c95a028a38ee0687e71c8fd45e05f7e", "fusion_lon": 0.0, "rental_uris": {"android": "https://dc.lft.to/lastmile_qr_scan", "ios": "https://dc.lft.to/lastmile_qr_scan"}, "name": "6c95a028a38ee0687e71c8fd45e05f7e", "type": "electric_scooter", "lat": 38.916880666666664, "is_disabled": 0}, {"fusion_lat": 0.0, "lon": -77.02402283333333, "is_reserved": 0, "bike_id": "75f97f14d5b0f25665b2d232a4016398", "fusion_lon": 0.0, "rental_uris": {"android": "https://dc.lft.to/lastmile_qr_scan", "ios": "https://dc.lft.to/lastmile_qr_scan"}, "name": "75f97f14d5b0f25665b2d232a4016398", "type": "electric_scooter", "lat": 38.9570745, "is_disabled": 0}, {"fusion_lat": 0.0, "lon": -76.99749633333333, "is_reserved": 0, "bike_id": "a73384c68f29650335659736756f0ae0", "fusion_lon": 0.0, "rental_uris": {"android": "https://dc.lft.to/lastmile_qr_scan", "ios": "https://dc.lft.to/lastmile_qr_scan"}, "name": "a73384c68f29650335659736756f0ae0", "type": "electric_scooter", "lat": 38.9217625, "is_disabled": 0}, {"fusion_lat": 0.0, "lon": -77.03089166666666, "is_reserved": 0, "bike_id": "10751977190efa46a9f29d747a7995b6", "fusion_lon": 0.0, "rental_uris": {"android": "https://dc.lft.to/lastmile_qr_scan", "ios": "https://dc.lft.to/lastmile_qr_scan"}, "name": "10751977190efa46a9f29d747a7995b6", "type": "electric_scooter", "lat": 38.923733666666664, "is_disabled": 0}, {"fusion_lat": 0.0, "lon": -77.074786, "is_reserved": 0, "bike_id": "811aa023ca6f5a936def801fa0ecf4da", "fusion_lon": 0.0, "rental_uris": {"android": "https://dc.lft.to/lastmile_qr_scan", "ios": "https://dc.lft.to/lastmile_qr_scan"}, "name": "811aa023ca6f5a936def801fa0ecf4da", "type": "electric_scooter", "lat": 38.96377233333333, "is_disabled": 0}, {"fusion_lat": 0.0, "lon": -77.02405033333334, "is_reserved": 0, "bike_id": "6a3fa2003d3e158adb38a3cac87b80fa", "fusion_lon": 0.0, "rental_uris": {"android": "https://dc.lft.to/lastmile_qr_scan", "ios": "https://dc.lft.to/lastmile_qr_scan"}, "name": "6a3fa2003d3e158adb38a3cac87b80fa", "type": "electric_scooter", "lat": 38.957300333333336, "is_disabled": 0}, {"fusion_lat": 0.0, "lon": -76.94873616666666, "is_reserved": 0, "bike_id": "b3884f5cb5675fb5b951b30485b0554d", "fusion_lon": 0.0, "rental_uris": {"android": "https://dc.lft.to/lastmile_qr_scan", "ios": "https://dc.lft.to/lastmile_qr_scan"}, "name": "b3884f5cb5675fb5b951b30485b0554d", "type": "electric_scooter", "lat": 38.8954865, "is_disabled": 0}, {"fusion_lat": 0.0, "lon": -76.98107866666666, "is_reserved": 0, "bike_id": "133f138d3270d4d0b646ab6f404dba9b", "fusion_lon": 0.0, "rental_uris": {"android": "https://dc.lft.to/lastmile_qr_scan", "ios": "https://dc.lft.to/lastmile_qr_scan"}, "name": "133f138d3270d4d0b646ab6f404dba9b", "type": "electric_scooter", "lat": 38.90393916666667, "is_disabled": 0}, {"fusion_lat": 0.0, "lon": -77.00724916666667, "is_reserved": 0, "bike_id": "e05931a31a980f440225364b13de8e9d", "fusion_lon": 0.0, "rental_uris": {"android": "https://dc.lft.to/lastmile_qr_scan", "ios": "https://dc.lft.to/lastmile_qr_scan"}, "name": "e05931a31a980f440225364b13de8e9d", "type": "electric_scooter", "lat": 38.8849435, "is_disabled": 0}, {"fusion_lat": 0.0, "lon": -77.03203033333334, "is_reserved": 0, "bike_id": "4b4e479a31c35d8b94a5ca8456141518", "fusion_lon": 0.0, "rental_uris": {"android": "https://dc.lft.to/lastmile_qr_scan", "ios": "https://dc.lft.to/lastmile_qr_scan"}, "name": "4b4e479a31c35d8b94a5ca8456141518", "type": "electric_scooter", "lat": 38.915280333333335, "is_disabled": 0}, {"fusion_lat": 0.0, "lon": -77.04308383333333, "is_reserved": 0, "bike_id": "5df964b944c30d862c90e2c8af66d471", "fusion_lon": 0.0, "rental_uris": {"android": "https://dc.lft.to/lastmile_qr_scan", "ios": "https://dc.lft.to/lastmile_qr_scan"}, "name": "5df964b944c30d862c90e2c8af66d471", "type": "electric_scooter", "lat": 38.893661, "is_disabled": 0}, {"fusion_lat": 0.0, "lon": -76.9463515, "is_reserved": 0, "bike_id": "de03dcf0ac62b6eea778de0b238ed406", "fusion_lon": 0.0, "rental_uris": {"android": "https://dc.lft.to/lastmile_qr_scan", "ios": "https://dc.lft.to/lastmile_qr_scan"}, "name": "de03dcf0ac62b6eea778de0b238ed406", "type": "electric_scooter", "lat": 38.898431333333335, "is_disabled": 0}, {"fusion_lat": 0.0, "lon": -77.03751383333334, "is_reserved": 0, "bike_id": "7742f62acef4929c1879011854ae22e3", "fusion_lon": 0.0, "rental_uris": {"android": "https://dc.lft.to/lastmile_qr_scan", "ios": "https://dc.lft.to/lastmile_qr_scan"}, "name": "7742f62acef4929c1879011854ae22e3", "type": "electric_scooter", "lat": 38.929184666666664, "is_disabled": 0}, {"fusion_lat": 0.0, "lon": -77.084578, "is_reserved": 0, "bike_id": "3ef0567e30e3428bded9ce5a840afdc4", "fusion_lon": 0.0, "rental_uris": {"android": "https://dc.lft.to/lastmile_qr_scan", "ios": "https://dc.lft.to/lastmile_qr_scan"}, "name": "3ef0567e30e3428bded9ce5a840afdc4", "type": "electric_bike", "lat": 38.848177666666665, "is_disabled": 0}, {"fusion_lat": 0.0, "lon": -77.04003066666667, "is_reserved": 0, "bike_id": "ec28e710d1bd50e8b760422d42736dd8", "fusion_lon": 0.0, "rental_uris": {"android": "https://dc.lft.to/lastmile_qr_scan", "ios": "https://dc.lft.to/lastmile_qr_scan"}, "name": "ec28e710d1bd50e8b760422d42736dd8", "type": "electric_scooter", "lat": 38.9181615, "is_disabled": 0}, {"fusion_lat": 0.0, "lon": -77.02712016666666, "is_reserved": 0, "bike_id": "815ec1c9cc713d8f4e16bd8a173f57c1", "fusion_lon": 0.0, "rental_uris": {"android": "https://dc.lft.to/lastmile_qr_scan", "ios": "https://dc.lft.to/lastmile_qr_scan"}, "name": "815ec1c9cc713d8f4e16bd8a173f57c1", "type": "electric_scooter", "lat": 38.93693416666667, "is_disabled": 0}, {"fusion_lat": 0.0, "lon": -77.00771183333333, "is_reserved": 0, "bike_id": "4a5d92067e417505f1bd0d6317bf0529", "fusion_lon": 0.0, "rental_uris": {"android": "https://dc.lft.to/lastmile_qr_scan", "ios": "https://dc.lft.to/lastmile_qr_scan"}, "name": "4a5d92067e417505f1bd0d6317bf0529", "type": "electric_scooter", "lat": 38.926766666666666, "is_disabled": 0}, {"fusion_lat": 0.0, "lon": -76.99067033333333, "is_reserved": 0, "bike_id": "c52a528436e871d7b97c198bf24394a4", "fusion_lon": 0.0, "rental_uris": {"android": "https://dc.lft.to/lastmile_qr_scan", "ios": "https://dc.lft.to/lastmile_qr_scan"}, "name": "c52a528436e871d7b97c198bf24394a4", "type": "electric_bike", "lat": 38.898126833333336, "is_disabled": 0}, {"fusion_lat": 0.0, "lon": -77.1074195, "is_reserved": 0, "bike_id": "c44bc95b9422140c543a56db86d60ceb", "fusion_lon": 0.0, "rental_uris": {"android": "https://dc.lft.to/lastmile_qr_scan", "ios": "https://dc.lft.to/lastmile_qr_scan"}, "name": "c44bc95b9422140c543a56db86d60ceb", "type": "electric_bike", "lat": 38.85537583333333, "is_disabled": 0}, {"fusion_lat": 0.0, "lon": -77.18740716666667, "is_reserved": 0, "bike_id": "62b23f3acbf16a1baca9ea34263767b1", "fusion_lon": 0.0, "rental_uris": {"android": "https://dc.lft.to/lastmile_qr_scan", "ios": "https://dc.lft.to/lastmile_qr_scan"}, "name": "62b23f3acbf16a1baca9ea34263767b1", "type": "electric_bike", "lat": 38.89350016666667, "is_disabled": 0}, {"fusion_lat": 0.0, "lon": -77.023172, "is_reserved": 0, "bike_id": "486f32f984d12eaada11f46503ece465", "fusion_lon": 0.0, "rental_uris": {"android": "https://dc.lft.to/lastmile_qr_scan", "ios": "https://dc.lft.to/lastmile_qr_scan"}, "name": "486f32f984d12eaada11f46503ece465", "type": "electric_scooter", "lat": 38.94090516666667, "is_disabled": 0}, {"fusion_lat": 0.0, "lon": -77.02460433333333, "is_reserved": 0, "bike_id": "d95c8273d323676bac89ffcc46d2618c", "fusion_lon": 0.0, "rental_uris": {"android": "https://dc.lft.to/lastmile_qr_scan", "ios": "https://dc.lft.to/lastmile_qr_scan"}, "name": "d95c8273d323676bac89ffcc46d2618c", "type": "electric_scooter", "lat": 38.937456166666664, "is_disabled": 0}, {"fusion_lat": 0.0, "lon": -77.029868, "is_reserved": 0, "bike_id": "64e6182fa5465bc3e15433ca73927fed", "fusion_lon": 0.0, "rental_uris": {"android": "https://dc.lft.to/lastmile_qr_scan", "ios": "https://dc.lft.to/lastmile_qr_scan"}, "name": "64e6182fa5465bc3e15433ca73927fed", "type": "electric_scooter", "lat": 38.907253833333336, "is_disabled": 0}, {"fusion_lat": 0.0, "lon": -77.00742416666667, "is_reserved": 0, "bike_id": "c20d96462051c1b8d99b976c2ebc5ad6", "fusion_lon": 0.0, "rental_uris": {"android": "https://dc.lft.to/lastmile_qr_scan", "ios": "https://dc.lft.to/lastmile_qr_scan"}, "name": "c20d96462051c1b8d99b976c2ebc5ad6", "type": "electric_scooter", "lat": 38.91695566666667, "is_disabled": 0}, {"fusion_lat": 0.0, "lon": -77.01329833333334, "is_reserved": 0, "bike_id": "a41735afe857fddbe990ecc32ac70692", "fusion_lon": 0.0, "rental_uris": {"android": "https://dc.lft.to/lastmile_qr_scan", "ios": "https://dc.lft.to/lastmile_qr_scan"}, "name": "a41735afe857fddbe990ecc32ac70692", "type": "electric_scooter", "lat": 38.879230166666666, "is_disabled": 0}, {"fusion_lat": 0.0, "lon": -77.03747816666667, "is_reserved": 0, "bike_id": "ffbb77ea614237f44e7b1d424b2b2769", "fusion_lon": 0.0, "rental_uris": {"android": "https://dc.lft.to/lastmile_qr_scan", "ios": "https://dc.lft.to/lastmile_qr_scan"}, "name": "ffbb77ea614237f44e7b1d424b2b2769", "type": "electric_scooter", "lat": 38.9167925, "is_disabled": 0}, {"fusion_lat": 0.0, "lon": -77.02287683333333, "is_reserved": 0, "bike_id": "ef3b4de5219a645a220f0948b4f1f80f", "fusion_lon": 0.0, "rental_uris": {"android": "https://dc.lft.to/lastmile_qr_scan", "ios": "https://dc.lft.to/lastmile_qr_scan"}, "name": "ef3b4de5219a645a220f0948b4f1f80f", "type": "electric_scooter", "lat": 38.916423333333334, "is_disabled": 0}, {"fusion_lat": 0.0, "lon": -77.037621, "is_reserved": 0, "bike_id": "b06534eb5ab93bd0c75a4463e5f3524f", "fusion_lon": 0.0, "rental_uris": {"android": "https://dc.lft.to/lastmile_qr_scan", "ios": "https://dc.lft.to/lastmile_qr_scan"}, "name": "b06534eb5ab93bd0c75a4463e5f3524f", "type": "electric_scooter", "lat": 38.929513166666666, "is_disabled": 0}, {"fusion_lat": 0.0, "lon": -77.05318883333334, "is_reserved": 0, "bike_id": "cac6a6173ea5e5139f477b8f1cb1befc", "fusion_lon": 0.0, "rental_uris": {"android": "https://dc.lft.to/lastmile_qr_scan", "ios": "https://dc.lft.to/lastmile_qr_scan"}, "name": "cac6a6173ea5e5139f477b8f1cb1befc", "type": "electric_scooter", "lat": 38.9155535, "is_disabled": 0}, {"fusion_lat": 0.0, "lon": -77.04351166666666, "is_reserved": 0, "bike_id": "64a3592a809362f61a1148b5bf757d76", "fusion_lon": 0.0, "rental_uris": {"android": "https://dc.lft.to/lastmile_qr_scan", "ios": "https://dc.lft.to/lastmile_qr_scan"}, "name": "64a3592a809362f61a1148b5bf757d76", "type": "electric_scooter", "lat": 38.9022885, "is_disabled": 0}, {"fusion_lat": 0.0, "lon": -77.04183216666667, "is_reserved": 0, "bike_id": "ea03d4b3fe86376a46f2714a680c7282", "fusion_lon": 0.0, "rental_uris": {"android": "https://dc.lft.to/lastmile_qr_scan", "ios": "https://dc.lft.to/lastmile_qr_scan"}, "name": "ea03d4b3fe86376a46f2714a680c7282", "type": "electric_scooter", "lat": 38.91732066666667, "is_disabled": 0}, {"fusion_lat": 0.0, "lon": -77.04343333333334, "is_reserved": 0, "bike_id": "48e29cb0fc22dd3eb5a6c01425b1f036", "fusion_lon": 0.0, "rental_uris": {"android": "https://dc.lft.to/lastmile_qr_scan", "ios": "https://dc.lft.to/lastmile_qr_scan"}, "name": "48e29cb0fc22dd3eb5a6c01425b1f036", "type": "electric_scooter", "lat": 38.903277833333334, "is_disabled": 0}, {"fusion_lat": 0.0, "lon": -77.00931166666666, "is_reserved": 0, "bike_id": "0312fa3a456411951f30c5b2a01bf4ea", "fusion_lon": 0.0, "rental_uris": {"android": "https://dc.lft.to/lastmile_qr_scan", "ios": "https://dc.lft.to/lastmile_qr_scan"}, "name": "0312fa3a456411951f30c5b2a01bf4ea", "type": "electric_scooter", "lat": 38.89605066666667, "is_disabled": 0}, {"fusion_lat": 0.0, "lon": -76.99515, "is_reserved": 0, "bike_id": "14a5be4d05724add7d681d83d7d598ef", "fusion_lon": 0.0, "rental_uris": {"android": "https://dc.lft.to/lastmile_qr_scan", "ios": "https://dc.lft.to/lastmile_qr_scan"}, "name": "14a5be4d05724add7d681d83d7d598ef", "type": "electric_scooter", "lat": 38.8837035, "is_disabled": 0}, {"fusion_lat": 0.0, "lon": -77.0328575, "is_reserved": 0, "bike_id": "ffef6d0d7c17d41667f8c21782a8c763", "fusion_lon": 0.0, "rental_uris": {"android": "https://dc.lft.to/lastmile_qr_scan", "ios": "https://dc.lft.to/lastmile_qr_scan"}, "name": "ffef6d0d7c17d41667f8c21782a8c763", "type": "electric_scooter", "lat": 38.92948916666667, "is_disabled": 0}, {"fusion_lat": 0.0, "lon": -76.99929183333333, "is_reserved": 0, "bike_id": "e180706e0cb0ad95c78590aca61e0a08", "fusion_lon": 0.0, "rental_uris": {"android": "https://dc.lft.to/lastmile_qr_scan", "ios": "https://dc.lft.to/lastmile_qr_scan"}, "name": "e180706e0cb0ad95c78590aca61e0a08", "type": "electric_scooter", "lat": 38.9075735, "is_disabled": 0}, {"fusion_lat": 0.0, "lon": -77.076986, "is_reserved": 0, "bike_id": "c526c484dd50d0ccb32101378b48158f", "fusion_lon": 0.0, "rental_uris": {"android": "https://dc.lft.to/lastmile_qr_scan", "ios": "https://dc.lft.to/lastmile_qr_scan"}, "name": "c526c484dd50d0ccb32101378b48158f", "type": "electric_bike", "lat": 38.84088233333333, "is_disabled": 0}, {"fusion_lat": 0.0, "lon": -76.99514166666667, "is_reserved": 0, "bike_id": "bdf0c9cd62b6ab246ecf9927c6821a38", "fusion_lon": 0.0, "rental_uris": {"android": "https://dc.lft.to/lastmile_qr_scan", "ios": "https://dc.lft.to/lastmile_qr_scan"}, "name": "bdf0c9cd62b6ab246ecf9927c6821a38", "type": "electric_scooter", "lat": 38.89729233333333, "is_disabled": 0}, {"fusion_lat": 0.0, "lon": -77.02281316666667, "is_reserved": 0, "bike_id": "f2e738c6811ed78290bc3832e1aa2137", "fusion_lon": 0.0, "rental_uris": {"android": "https://dc.lft.to/lastmile_qr_scan", "ios": "https://dc.lft.to/lastmile_qr_scan"}, "name": "f2e738c6811ed78290bc3832e1aa2137", "type": "electric_scooter", "lat": 38.92725133333333, "is_disabled": 0}, {"fusion_lat": 0.0, "lon": -77.04332916666667, "is_reserved": 0, "bike_id": "958fa185a4e5dec78d71c6eb914243bf", "fusion_lon": 0.0, "rental_uris": {"android": "https://dc.lft.to/lastmile_qr_scan", "ios": "https://dc.lft.to/lastmile_qr_scan"}, "name": "958fa185a4e5dec78d71c6eb914243bf", "type": "electric_scooter", "lat": 38.8922125, "is_disabled": 0}, {"fusion_lat": 0.0, "lon": -76.9950495, "is_reserved": 0, "bike_id": "2b582400afb81200140b3be97dad1e71", "fusion_lon": 0.0, "rental_uris": {"android": "https://dc.lft.to/lastmile_qr_scan", "ios": "https://dc.lft.to/lastmile_qr_scan"}, "name": "2b582400afb81200140b3be97dad1e71", "type": "electric_scooter", "lat": 38.88258166666667, "is_disabled": 0}, {"fusion_lat": 0.0, "lon": -77.03002983333333, "is_reserved": 0, "bike_id": "eaec059f6f4299ba3c5222f9e1dac7c9", "fusion_lon": 0.0, "rental_uris": {"android": "https://dc.lft.to/lastmile_qr_scan", "ios": "https://dc.lft.to/lastmile_qr_scan"}, "name": "eaec059f6f4299ba3c5222f9e1dac7c9", "type": "electric_scooter", "lat": 38.92030716666667, "is_disabled": 0}, {"fusion_lat": 0.0, "lon": -77.0295625, "is_reserved": 0, "bike_id": "39e1610a703b27462e452d4f74db710a", "fusion_lon": 0.0, "rental_uris": {"android": "https://dc.lft.to/lastmile_qr_scan", "ios": "https://dc.lft.to/lastmile_qr_scan"}, "name": "39e1610a703b27462e452d4f74db710a", "type": "electric_scooter", "lat": 38.91689083333333, "is_disabled": 0}, {"fusion_lat": 0.0, "lon": -77.03199983333333, "is_reserved": 0, "bike_id": "cf5c757f7d701a99311cafdab8b33bef", "fusion_lon": 0.0, "rental_uris": {"android": "https://dc.lft.to/lastmile_qr_scan", "ios": "https://dc.lft.to/lastmile_qr_scan"}, "name": "cf5c757f7d701a99311cafdab8b33bef", "type": "electric_scooter", "lat": 38.90937233333333, "is_disabled": 0}, {"fusion_lat": 0.0, "lon": -77.03283833333333, "is_reserved": 0, "bike_id": "ae457bd97571ea9488ce3079c57c5e25", "fusion_lon": 0.0, "rental_uris": {"android": "https://dc.lft.to/lastmile_qr_scan", "ios": "https://dc.lft.to/lastmile_qr_scan"}, "name": "ae457bd97571ea9488ce3079c57c5e25", "type": "electric_scooter", "lat": 38.93669883333333, "is_disabled": 0}, {"fusion_lat": 0.0, "lon": -77.06299033333333, "is_reserved": 0, "bike_id": "79ba48fbb3ae867ec89d3dce4f51b1a8", "fusion_lon": 0.0, "rental_uris": {"android": "https://dc.lft.to/lastmile_qr_scan", "ios": "https://dc.lft.to/lastmile_qr_scan"}, "name": "79ba48fbb3ae867ec89d3dce4f51b1a8", "type": "electric_scooter", "lat": 38.903977833333336, "is_disabled": 0}, {"fusion_lat": 0.0, "lon": -77.027621, "is_reserved": 0, "bike_id": "991b96d88febc612c4f27539e97c31b3", "fusion_lon": 0.0, "rental_uris": {"android": "https://dc.lft.to/lastmile_qr_scan", "ios": "https://dc.lft.to/lastmile_qr_scan"}, "name": "991b96d88febc612c4f27539e97c31b3", "type": "electric_scooter", "lat": 38.9542475, "is_disabled": 0}, {"fusion_lat": 0.0, "lon": -77.0632775, "is_reserved": 0, "bike_id": "121288a4ab6d27bfeff26dd3697e3bae", "fusion_lon": 0.0, "rental_uris": {"android": "https://dc.lft.to/lastmile_qr_scan", "ios": "https://dc.lft.to/lastmile_qr_scan"}, "name": "121288a4ab6d27bfeff26dd3697e3bae", "type": "electric_scooter", "lat": 38.907671, "is_disabled": 0}, {"fusion_lat": 0.0, "lon": -77.00895633333333, "is_reserved": 0, "bike_id": "4b464860edcceef6ec6e9e3d08505811", "fusion_lon": 0.0, "rental_uris": {"android": "https://dc.lft.to/lastmile_qr_scan", "ios": "https://dc.lft.to/lastmile_qr_scan"}, "name": "4b464860edcceef6ec6e9e3d08505811", "type": "electric_bike", "lat": 38.89929383333333, "is_disabled": 0}, {"fusion_lat": 0.0, "lon": -77.01192366666666, "is_reserved": 0, "bike_id": "e3b5573327387f4b68064cac907d7baa", "fusion_lon": 0.0, "rental_uris": {"android": "https://dc.lft.to/lastmile_qr_scan", "ios": "https://dc.lft.to/lastmile_qr_scan"}, "name": "e3b5573327387f4b68064cac907d7baa", "type": "electric_scooter", "lat": 38.90645816666667, "is_disabled": 0}, {"fusion_lat": 0.0, "lon": -77.021393, "is_reserved": 0, "bike_id": "94543b80043a460392d8172ce8512346", "fusion_lon": 0.0, "rental_uris": {"android": "https://dc.lft.to/lastmile_qr_scan", "ios": "https://dc.lft.to/lastmile_qr_scan"}, "name": "94543b80043a460392d8172ce8512346", "type": "electric_scooter", "lat": 38.92321583333333, "is_disabled": 0}, {"fusion_lat": 0.0, "lon": -77.05337733333333, "is_reserved": 0, "bike_id": "557470495d524cbcc3408ab938438ca0", "fusion_lon": 0.0, "rental_uris": {"android": "https://dc.lft.to/lastmile_qr_scan", "ios": "https://dc.lft.to/lastmile_qr_scan"}, "name": "557470495d524cbcc3408ab938438ca0", "type": "electric_scooter", "lat": 38.92356016666667, "is_disabled": 0}, {"fusion_lat": 0.0, "lon": -77.04171833333334, "is_reserved": 0, "bike_id": "8640b860d70d9e0e1272c7c62da11198", "fusion_lon": 0.0, "rental_uris": {"android": "https://dc.lft.to/lastmile_qr_scan", "ios": "https://dc.lft.to/lastmile_qr_scan"}, "name": "8640b860d70d9e0e1272c7c62da11198", "type": "electric_scooter", "lat": 38.919535333333336, "is_disabled": 0}, {"fusion_lat": 0.0, "lon": -77.02743616666666, "is_reserved": 0, "bike_id": "28963fa28425787fb1f71b6c0a405d06", "fusion_lon": 0.0, "rental_uris": {"android": "https://dc.lft.to/lastmile_qr_scan", "ios": "https://dc.lft.to/lastmile_qr_scan"}, "name": "28963fa28425787fb1f71b6c0a405d06", "type": "electric_scooter", "lat": 38.93579183333333, "is_disabled": 0}, {"fusion_lat": 0.0, "lon": -76.9819625, "is_reserved": 0, "bike_id": "f58ef802d3b438bc07e7797d164300d3", "fusion_lon": 0.0, "rental_uris": {"android": "https://dc.lft.to/lastmile_qr_scan", "ios": "https://dc.lft.to/lastmile_qr_scan"}, "name": "f58ef802d3b438bc07e7797d164300d3", "type": "electric_scooter", "lat": 38.90279566666667, "is_disabled": 0}, {"fusion_lat": 0.0, "lon": -77.01166583333334, "is_reserved": 0, "bike_id": "39855fb4dc9b8a3c7f9e6ad5242bb4d3", "fusion_lon": 0.0, "rental_uris": {"android": "https://dc.lft.to/lastmile_qr_scan", "ios": "https://dc.lft.to/lastmile_qr_scan"}, "name": "39855fb4dc9b8a3c7f9e6ad5242bb4d3", "type": "electric_scooter", "lat": 38.900096166666664, "is_disabled": 0}, {"fusion_lat": 0.0, "lon": -77.041604, "is_reserved": 0, "bike_id": "e7b0f772e8f9b903117aef3ae4985872", "fusion_lon": 0.0, "rental_uris": {"android": "https://dc.lft.to/lastmile_qr_scan", "ios": "https://dc.lft.to/lastmile_qr_scan"}, "name": "e7b0f772e8f9b903117aef3ae4985872", "type": "electric_scooter", "lat": 38.919883, "is_disabled": 0}, {"fusion_lat": 0.0, "lon": -77.021712, "is_reserved": 0, "bike_id": "59ae4f9fd82a6d2b0b2c2ccbb28adcf0", "fusion_lon": 0.0, "rental_uris": {"android": "https://dc.lft.to/lastmile_qr_scan", "ios": "https://dc.lft.to/lastmile_qr_scan"}, "name": "59ae4f9fd82a6d2b0b2c2ccbb28adcf0", "type": "electric_scooter", "lat": 38.897339, "is_disabled": 0}, {"fusion_lat": 0.0, "lon": -76.98694833333333, "is_reserved": 0, "bike_id": "d6b865448a7de82d77e03b7ef25a042f", "fusion_lon": 0.0, "rental_uris": {"android": "https://dc.lft.to/lastmile_qr_scan", "ios": "https://dc.lft.to/lastmile_qr_scan"}, "name": "d6b865448a7de82d77e03b7ef25a042f", "type": "electric_scooter", "lat": 38.862512333333335, "is_disabled": 0}, {"fusion_lat": 0.0, "lon": -76.97356816666667, "is_reserved": 0, "bike_id": "ab2feb35becc33af7271758141695d28", "fusion_lon": 0.0, "rental_uris": {"android": "https://dc.lft.to/lastmile_qr_scan", "ios": "https://dc.lft.to/lastmile_qr_scan"}, "name": "ab2feb35becc33af7271758141695d28", "type": "electric_scooter", "lat": 38.849731166666665, "is_disabled": 0}, {"fusion_lat": 0.0, "lon": -76.9683815, "is_reserved": 0, "bike_id": "348150326a9c2e34052d4ac301a71f79", "fusion_lon": 0.0, "rental_uris": {"android": "https://dc.lft.to/lastmile_qr_scan", "ios": "https://dc.lft.to/lastmile_qr_scan"}, "name": "348150326a9c2e34052d4ac301a71f79", "type": "electric_bike", "lat": 38.943229, "is_disabled": 0}, {"fusion_lat": 0.0, "lon": -77.05759366666666, "is_reserved": 0, "bike_id": "21ca24bdc2969c2afe139d107daa5cb8", "fusion_lon": 0.0, "rental_uris": {"android": "https://dc.lft.to/lastmile_qr_scan", "ios": "https://dc.lft.to/lastmile_qr_scan"}, "name": "21ca24bdc2969c2afe139d107daa5cb8", "type": "electric_bike", "lat": 38.924563666666664, "is_disabled": 0}, {"fusion_lat": 0.0, "lon": -77.04650016666666, "is_reserved": 0, "bike_id": "b84ba1d1c2189da2c77d4aff1f68fc1f", "fusion_lon": 0.0, "rental_uris": {"android": "https://dc.lft.to/lastmile_qr_scan", "ios": "https://dc.lft.to/lastmile_qr_scan"}, "name": "b84ba1d1c2189da2c77d4aff1f68fc1f", "type": "electric_scooter", "lat": 38.90379816666667, "is_disabled": 0}, {"fusion_lat": 0.0, "lon": -77.016829, "is_reserved": 0, "bike_id": "99772037df5737c3a5eb71970a33c76a", "fusion_lon": 0.0, "rental_uris": {"android": "https://dc.lft.to/lastmile_qr_scan", "ios": "https://dc.lft.to/lastmile_qr_scan"}, "name": "99772037df5737c3a5eb71970a33c76a", "type": "electric_scooter", "lat": 38.8720885, "is_disabled": 0}, {"fusion_lat": 0.0, "lon": -77.04731833333334, "is_reserved": 0, "bike_id": "963be8ad772fc72f7e00e7c4fb319c5e", "fusion_lon": 0.0, "rental_uris": {"android": "https://dc.lft.to/lastmile_qr_scan", "ios": "https://dc.lft.to/lastmile_qr_scan"}, "name": "963be8ad772fc72f7e00e7c4fb319c5e", "type": "electric_scooter", "lat": 38.9133465, "is_disabled": 0}, {"fusion_lat": 0.0, "lon": -77.04647933333334, "is_reserved": 0, "bike_id": "d4cc6d1e768dab1870e38bdeeb09bb68", "fusion_lon": 0.0, "rental_uris": {"android": "https://dc.lft.to/lastmile_qr_scan", "ios": "https://dc.lft.to/lastmile_qr_scan"}, "name": "d4cc6d1e768dab1870e38bdeeb09bb68", "type": "electric_bike", "lat": 39.05497916666667, "is_disabled": 0}, {"fusion_lat": 0.0, "lon": -76.98821833333334, "is_reserved": 0, "bike_id": "6f1ca659e0d53d62a99dcbc79479e4a7", "fusion_lon": 0.0, "rental_uris": {"android": "https://dc.lft.to/lastmile_qr_scan", "ios": "https://dc.lft.to/lastmile_qr_scan"}, "name": "6f1ca659e0d53d62a99dcbc79479e4a7", "type": "electric_scooter", "lat": 38.8907635, "is_disabled": 0}, {"fusion_lat": 0.0, "lon": -77.03438683333333, "is_reserved": 0, "bike_id": "23c5f36fcfaa9b21083bd7e37cb9c108", "fusion_lon": 0.0, "rental_uris": {"android": "https://dc.lft.to/lastmile_qr_scan", "ios": "https://dc.lft.to/lastmile_qr_scan"}, "name": "23c5f36fcfaa9b21083bd7e37cb9c108", "type": "electric_scooter", "lat": 38.9179965, "is_disabled": 0}, {"fusion_lat": 0.0, "lon": -76.95651883333333, "is_reserved": 0, "bike_id": "c238cfe14c1cbe627b4b208fb546e6bd", "fusion_lon": 0.0, "rental_uris": {"android": "https://dc.lft.to/lastmile_qr_scan", "ios": "https://dc.lft.to/lastmile_qr_scan"}, "name": "c238cfe14c1cbe627b4b208fb546e6bd", "type": "electric_scooter", "lat": 38.89604966666667, "is_disabled": 0}, {"fusion_lat": 0.0, "lon": -77.01763, "is_reserved": 0, "bike_id": "61adf95c033df5ca81ef69d1a3468143", "fusion_lon": 0.0, "rental_uris": {"android": "https://dc.lft.to/lastmile_qr_scan", "ios": "https://dc.lft.to/lastmile_qr_scan"}, "name": "61adf95c033df5ca81ef69d1a3468143", "type": "electric_scooter", "lat": 38.87683283333333, "is_disabled": 0}, {"fusion_lat": 0.0, "lon": -77.01785666666666, "is_reserved": 0, "bike_id": "b77d9f5eaed63758529601a1cfb7d288", "fusion_lon": 0.0, "rental_uris": {"android": "https://dc.lft.to/lastmile_qr_scan", "ios": "https://dc.lft.to/lastmile_qr_scan"}, "name": "b77d9f5eaed63758529601a1cfb7d288", "type": "electric_scooter", "lat": 38.919901333333335, "is_disabled": 0}, {"fusion_lat": 0.0, "lon": -76.88405716666666, "is_reserved": 0, "bike_id": "b256a033e1d89d4afc597af668884aad", "fusion_lon": 0.0, "rental_uris": {"android": "https://dc.lft.to/lastmile_qr_scan", "ios": "https://dc.lft.to/lastmile_qr_scan"}, "name": "b256a033e1d89d4afc597af668884aad", "type": "electric_bike", "lat": 38.931699333333334, "is_disabled": 0}, {"fusion_lat": 0.0, "lon": -77.01691666666666, "is_reserved": 0, "bike_id": "52fd87f5d2f8d25a900d689a0aef5e9d", "fusion_lon": 0.0, "rental_uris": {"android": "https://dc.lft.to/lastmile_qr_scan", "ios": "https://dc.lft.to/lastmile_qr_scan"}, "name": "52fd87f5d2f8d25a900d689a0aef5e9d", "type": "electric_scooter", "lat": 38.97500566666667, "is_disabled": 0}, {"fusion_lat": 0.0, "lon": -77.03855583333333, "is_reserved": 0, "bike_id": "b5d07df38296b17d9e04cf2e043e3752", "fusion_lon": 0.0, "rental_uris": {"android": "https://dc.lft.to/lastmile_qr_scan", "ios": "https://dc.lft.to/lastmile_qr_scan"}, "name": "b5d07df38296b17d9e04cf2e043e3752", "type": "electric_scooter", "lat": 38.916018666666666, "is_disabled": 0}, {"fusion_lat": 0.0, "lon": -76.983488, "is_reserved": 0, "bike_id": "f8f6e234b00214b1309796e993632dda", "fusion_lon": 0.0, "rental_uris": {"android": "https://dc.lft.to/lastmile_qr_scan", "ios": "https://dc.lft.to/lastmile_qr_scan"}, "name": "f8f6e234b00214b1309796e993632dda", "type": "electric_bike", "lat": 38.93517966666667, "is_disabled": 0}, {"fusion_lat": 0.0, "lon": -77.0797825, "is_reserved": 0, "bike_id": "466f592d5d2353e74be1fd953ae304f3", "fusion_lon": 0.0, "rental_uris": {"android": "https://dc.lft.to/lastmile_qr_scan", "ios": "https://dc.lft.to/lastmile_qr_scan"}, "name": "466f592d5d2353e74be1fd953ae304f3", "type": "electric_scooter", "lat": 38.919488333333334, "is_disabled": 0}, {"fusion_lat": 0.0, "lon": -76.996059, "is_reserved": 0, "bike_id": "277fd6a806578a4118499971265d6051", "fusion_lon": 0.0, "rental_uris": {"android": "https://dc.lft.to/lastmile_qr_scan", "ios": "https://dc.lft.to/lastmile_qr_scan"}, "name": "277fd6a806578a4118499971265d6051", "type": "electric_scooter", "lat": 38.856959333333336, "is_disabled": 0}, {"fusion_lat": 0.0, "lon": -77.0092225, "is_reserved": 0, "bike_id": "8d20553c51578c7b0601ef0a2c7d1ca6", "fusion_lon": 0.0, "rental_uris": {"android": "https://dc.lft.to/lastmile_qr_scan", "ios": "https://dc.lft.to/lastmile_qr_scan"}, "name": "8d20553c51578c7b0601ef0a2c7d1ca6", "type": "electric_scooter", "lat": 38.8964795, "is_disabled": 0}, {"fusion_lat": 0.0, "lon": -77.03207833333333, "is_reserved": 0, "bike_id": "d7c56694cecc1f2141fa16b8d8b683f1", "fusion_lon": 0.0, "rental_uris": {"android": "https://dc.lft.to/lastmile_qr_scan", "ios": "https://dc.lft.to/lastmile_qr_scan"}, "name": "d7c56694cecc1f2141fa16b8d8b683f1", "type": "electric_scooter", "lat": 38.91551366666667, "is_disabled": 0}, {"fusion_lat": 0.0, "lon": -77.07887383333333, "is_reserved": 0, "bike_id": "caa21502cf9a81d9339ee3b25e5f25a6", "fusion_lon": 0.0, "rental_uris": {"android": "https://dc.lft.to/lastmile_qr_scan", "ios": "https://dc.lft.to/lastmile_qr_scan"}, "name": "caa21502cf9a81d9339ee3b25e5f25a6", "type": "electric_scooter", "lat": 38.948034, "is_disabled": 0}, {"fusion_lat": 0.0, "lon": -76.98822566666666, "is_reserved": 0, "bike_id": "e5d2d86886a61cd9fec8cc60c9452562", "fusion_lon": 0.0, "rental_uris": {"android": "https://dc.lft.to/lastmile_qr_scan", "ios": "https://dc.lft.to/lastmile_qr_scan"}, "name": "e5d2d86886a61cd9fec8cc60c9452562", "type": "electric_scooter", "lat": 38.89076766666667, "is_disabled": 0}, {"fusion_lat": 0.0, "lon": -77.0013415, "is_reserved": 0, "bike_id": "be4d1b1b8d532139088c5c10a9d6df81", "fusion_lon": 0.0, "rental_uris": {"android": "https://dc.lft.to/lastmile_qr_scan", "ios": "https://dc.lft.to/lastmile_qr_scan"}, "name": "be4d1b1b8d532139088c5c10a9d6df81", "type": "electric_scooter", "lat": 38.90784633333333, "is_disabled": 0}, {"fusion_lat": 0.0, "lon": -77.01343783333333, "is_reserved": 0, "bike_id": "7326cf12e157987cd9e32c2a2d7eb64a", "fusion_lon": 0.0, "rental_uris": {"android": "https://dc.lft.to/lastmile_qr_scan", "ios": "https://dc.lft.to/lastmile_qr_scan"}, "name": "7326cf12e157987cd9e32c2a2d7eb64a", "type": "electric_scooter", "lat": 38.926448666666666, "is_disabled": 0}, {"fusion_lat": 0.0, "lon": -77.041528, "is_reserved": 0, "bike_id": "f805dac43c99d54b6cbfd91ab3a4c639", "fusion_lon": 0.0, "rental_uris": {"android": "https://dc.lft.to/lastmile_qr_scan", "ios": "https://dc.lft.to/lastmile_qr_scan"}, "name": "f805dac43c99d54b6cbfd91ab3a4c639", "type": "electric_scooter", "lat": 38.9195335, "is_disabled": 0}, {"fusion_lat": 0.0, "lon": -76.98686466666666, "is_reserved": 0, "bike_id": "98e072e8698c24c142bae26fe664b7cb", "fusion_lon": 0.0, "rental_uris": {"android": "https://dc.lft.to/lastmile_qr_scan", "ios": "https://dc.lft.to/lastmile_qr_scan"}, "name": "98e072e8698c24c142bae26fe664b7cb", "type": "electric_bike", "lat": 38.94470466666667, "is_disabled": 0}, {"fusion_lat": 0.0, "lon": -77.01369466666667, "is_reserved": 0, "bike_id": "bc7d622df9e3e82b3474e8561130bc95", "fusion_lon": 0.0, "rental_uris": {"android": "https://dc.lft.to/lastmile_qr_scan", "ios": "https://dc.lft.to/lastmile_qr_scan"}, "name": "bc7d622df9e3e82b3474e8561130bc95", "type": "electric_scooter", "lat": 38.88703983333333, "is_disabled": 0}, {"fusion_lat": 0.0, "lon": -77.032074, "is_reserved": 0, "bike_id": "5c1ff9292b727a4e1e19d352b7fac1b8", "fusion_lon": 0.0, "rental_uris": {"android": "https://dc.lft.to/lastmile_qr_scan", "ios": "https://dc.lft.to/lastmile_qr_scan"}, "name": "5c1ff9292b727a4e1e19d352b7fac1b8", "type": "electric_scooter", "lat": 38.92347983333333, "is_disabled": 0}, {"fusion_lat": 0.0, "lon": -77.02707783333334, "is_reserved": 0, "bike_id": "a77678dd25dcb4df832d10434a3117b3", "fusion_lon": 0.0, "rental_uris": {"android": "https://dc.lft.to/lastmile_qr_scan", "ios": "https://dc.lft.to/lastmile_qr_scan"}, "name": "a77678dd25dcb4df832d10434a3117b3", "type": "electric_scooter", "lat": 38.90671116666667, "is_disabled": 0}, {"fusion_lat": 0.0, "lon": -77.0351175, "is_reserved": 0, "bike_id": "8f6492ca6cbc055376b7e54e00b3b6bb", "fusion_lon": 0.0, "rental_uris": {"android": "https://dc.lft.to/lastmile_qr_scan", "ios": "https://dc.lft.to/lastmile_qr_scan"}, "name": "8f6492ca6cbc055376b7e54e00b3b6bb", "type": "electric_scooter", "lat": 38.96625266666667, "is_disabled": 0}, {"fusion_lat": 0.0, "lon": -76.98538016666667, "is_reserved": 0, "bike_id": "9454c4d8b30c73f642f8fc31cf4a1c63", "fusion_lon": 0.0, "rental_uris": {"android": "https://dc.lft.to/lastmile_qr_scan", "ios": "https://dc.lft.to/lastmile_qr_scan"}, "name": "9454c4d8b30c73f642f8fc31cf4a1c63", "type": "electric_scooter", "lat": 38.9102655, "is_disabled": 0}, {"fusion_lat": 0.0, "lon": -77.03977116666667, "is_reserved": 0, "bike_id": "ee97e12efde7ec666989a82cacc6c3b1", "fusion_lon": 0.0, "rental_uris": {"android": "https://dc.lft.to/lastmile_qr_scan", "ios": "https://dc.lft.to/lastmile_qr_scan"}, "name": "ee97e12efde7ec666989a82cacc6c3b1", "type": "electric_scooter", "lat": 38.892202166666664, "is_disabled": 0}, {"fusion_lat": 0.0, "lon": -77.06095, "is_reserved": 0, "bike_id": "97661f98a9fec96515b36ad03eaa3c52", "fusion_lon": 0.0, "rental_uris": {"android": "https://dc.lft.to/lastmile_qr_scan", "ios": "https://dc.lft.to/lastmile_qr_scan"}, "name": "97661f98a9fec96515b36ad03eaa3c52", "type": "electric_scooter", "lat": 38.911698, "is_disabled": 0}, {"fusion_lat": 0.0, "lon": -76.99642033333333, "is_reserved": 0, "bike_id": "b35d2d7a663d19e8ef944a6335fc7358", "fusion_lon": 0.0, "rental_uris": {"android": "https://dc.lft.to/lastmile_qr_scan", "ios": "https://dc.lft.to/lastmile_qr_scan"}, "name": "b35d2d7a663d19e8ef944a6335fc7358", "type": "electric_scooter", "lat": 38.900278166666666, "is_disabled": 0}, {"fusion_lat": 0.0, "lon": -77.02222, "is_reserved": 0, "bike_id": "83ad4e6acf88bf6978279250b73754ba", "fusion_lon": 0.0, "rental_uris": {"android": "https://dc.lft.to/lastmile_qr_scan", "ios": "https://dc.lft.to/lastmile_qr_scan"}, "name": "83ad4e6acf88bf6978279250b73754ba", "type": "electric_scooter", "lat": 38.89213083333333, "is_disabled": 0}, {"fusion_lat": 0.0, "lon": -77.034667, "is_reserved": 0, "bike_id": "2563539e413fa584aea564089f54011e", "fusion_lon": 0.0, "rental_uris": {"android": "https://dc.lft.to/lastmile_qr_scan", "ios": "https://dc.lft.to/lastmile_qr_scan"}, "name": "2563539e413fa584aea564089f54011e", "type": "electric_scooter", "lat": 38.91810183333333, "is_disabled": 0}, {"fusion_lat": 0.0, "lon": -77.03127283333333, "is_reserved": 0, "bike_id": "900ee5af3337f43a2a4c6c4cc5de2c3c", "fusion_lon": 0.0, "rental_uris": {"android": "https://dc.lft.to/lastmile_qr_scan", "ios": "https://dc.lft.to/lastmile_qr_scan"}, "name": "900ee5af3337f43a2a4c6c4cc5de2c3c", "type": "electric_scooter", "lat": 38.912582666666665, "is_disabled": 0}, {"fusion_lat": 0.0, "lon": -77.0270905, "is_reserved": 0, "bike_id": "2e551f3dc2c0eeadc3eaba968a2c7167", "fusion_lon": 0.0, "rental_uris": {"android": "https://dc.lft.to/lastmile_qr_scan", "ios": "https://dc.lft.to/lastmile_qr_scan"}, "name": "2e551f3dc2c0eeadc3eaba968a2c7167", "type": "electric_scooter", "lat": 38.906712, "is_disabled": 0}, {"fusion_lat": 0.0, "lon": -77.00979133333334, "is_reserved": 0, "bike_id": "c50154bc6d0a08bba10d809a6b2804c4", "fusion_lon": 0.0, "rental_uris": {"android": "https://dc.lft.to/lastmile_qr_scan", "ios": "https://dc.lft.to/lastmile_qr_scan"}, "name": "c50154bc6d0a08bba10d809a6b2804c4", "type": "electric_scooter", "lat": 38.91412833333333, "is_disabled": 0}, {"fusion_lat": 0.0, "lon": -77.02496116666667, "is_reserved": 0, "bike_id": "6bbf8a0cd664e2091c1b28b0aecf01a5", "fusion_lon": 0.0, "rental_uris": {"android": "https://dc.lft.to/lastmile_qr_scan", "ios": "https://dc.lft.to/lastmile_qr_scan"}, "name": "6bbf8a0cd664e2091c1b28b0aecf01a5", "type": "electric_scooter", "lat": 38.91805166666666, "is_disabled": 0},