{"data": {"bikes": [{"lat": 38.890875666666666, "is_disabled": 0, "type": "electric_scooter", "lon": -76.95265766666667, "bike_id": "6777e37f0fd0e650acf71bedc070c2dd", "fusion_lat": 0.0, "name": "6777e37f0fd0e650acf71bedc070c2dd", "is_reserved": 0, "rental_uris": {"android": "https://dc.lft.to/lastmile_qr_scan", "ios": "https://dc.lft.to/lastmile_qr_scan"}, "fusion_lon": 0.0}, {"lat": 38.911165, "is_disabled": 0, "type": "electric_scooter", "lon": -77.03730516666667, "bike_id": "66c910fdd3aa45cf5bbd8bbccf557383", "fusion_lat": 0.0, "name": "66c910fdd3aa45cf5bbd8bbccf557383", "is_reserved": 0, "rental_uris": {"android": "https://dc.lft.to/lastmile_qr_scan", "ios": "https://dc.lft.to/lastmile_qr_scan"}, "fusion_lon": 0.0}, {"lat": 38.95213616666667, "is_disabled": 0, "type": "electric_scooter", "lon": -77.08597516666667, "bike_id": "22aeb1b3fb630e35eb26c0c832902bd2", "fusion_lat": 0.0, "name": "22aeb1b3fb630e35eb26c0c832902bd2", "is_reserved": 0, "rental_uris": {"android": "https://dc.lft.to/lastmile_qr_scan", "ios": "https://dc.lft.to/lastmile_qr_scan"}, "fusion_lon": 0.0}, {"lat": 38.915422166666666, "is_disabled": 0, "type": "electric_scooter", "lon": -77.031981, "bike_id": "40da188ce2c64c01737028ec1cc5a236", "fusion_lat": 0.0, "name": "40da188ce2c64c01737028ec1cc5a236", "is_reserved": 0, "rental_uris": {"android": "https://dc.lft.to/lastmile_qr_scan", "ios": "https://dc.lft.to/lastmile_qr_scan"}, "fusion_lon": 0.0}, {"lat": 38.93087116666667, "is_disabled": 0, "type": "electric_scooter", "lon": -77.031179, "bike_id": "79e04a0fb9576f9647ca755b67141c02", "fusion_lat": 0.0, "name": "79e04a0fb9576f9647ca755b67141c02", "is_reserved": 0, "rental_uris": {"android": "https://dc.lft.to/lastmile_qr_scan", "ios": "https://dc.lft.to/lastmile_qr_scan"}, "fusion_lon": 0.0}, {"lat": 38.913117, "is_disabled": 0, "type": "electric_scooter", "lon": -77.03185966666666, "bike_id": "9906ef671ab1f8fb77cff60ff736808e", "fusion_lat": 0.0, "name": "9906ef671ab1f8fb77cff60ff736808e", "is_reserved": 0, "rental_uris": {"android": "https://dc.lft.to/lastmile_qr_scan", "ios": "https://dc.lft.to/lastmile_qr_scan"}, "fusion_lon": 0.0}, {"lat": 38.999941, "is_disabled": 0, "type": "electric_bike", "lon": -76.924939, "bike_id": "af46cbda2938d4ee977b830ad2a4d431", "fusion_lat": 0.0, "name": "af46cbda2938d4ee977b830ad2a4d431", "is_reserved": 0, "rental_uris": {"android": "https://dc.lft.to/lastmile_qr_scan", "ios": "https://dc.lft.to/lastmile_qr_scan"}, "fusion_lon": 0.0}, {"lat": 38.9163415, "is_disabled": 0, "type": "electric_scooter", "lon": -77.02240566666667, "bike_id": "718b5abf82b07dd43ca8d2b1db5236c8", "fusion_lat": 0.0, "name": "718b5abf82b07dd43ca8d2b1db5236c8", "is_reserved": 0, "rental_uris": {"android": "https://dc.lft.to/lastmile_qr_scan", "ios": "https://dc.lft.to/lastmile_qr_scan"}, "fusion_lon": 0.0}, {"lat": 38.91695133333333, "is_disabled": 0, "type": "electric_scooter", "lon": -77.03770883333334, "bike_id": "29f06b0778d9c0586e58ce47d55340c8", "fusion_lat": 0.0, "name": "29f06b0778d9c0586e58ce47d55340c8", "is_reserved": 0, "rental_uris": {"android": "https://dc.lft.to/lastmile_qr_scan", "ios": "https://dc.lft.to/lastmile_qr_scan"}, "fusion_lon": 0.0}, {"lat": 38.91816766666667, "is_disabled": 0, "type": "electric_scooter", "lon": -77.03912033333333, "bike_id": "7bd7ea179a5353fa823aadae2699f0c7", "fusion_lat": 0.0, "name": "7bd7ea179a5353fa823aadae2699f0c7", "is_reserved": 0, "rental_uris": {"android": "https://dc.lft.to/lastmile_qr_scan", "ios": "https://dc.lft.to/lastmile_qr_scan"}, "fusion_lon": 0.0}, {"lat": 38.9727515, "is_disabled": 0, "type": "electric_bike", "lon": -77.03620566666666, "bike_id": "d11b460cf51aed7c1d9f05dad7f71100", "fusion_lat": 0.0, "name": "d11b460cf51aed7c1d9f05dad7f71100", "is_reserved": 0, "rental_uris": {"android": "https://dc.lft.to/lastmile_qr_scan", "ios": "https://dc.lft.to/lastmile_qr_scan"}, "fusion_lon": 0.0}, {"lat": 38.91422266666667, "is_disabled": 0, "type": "electric_scooter", "lon": -77.02202083333333, "bike_id": "00da2eee4159241083ebbe0f25b9b411", "fusion_lat": 0.0, "name": "00da2eee4159241083ebbe0f25b9b411", "is_reserved": 0, "rental_uris": {"android": "https://dc.lft.to/lastmile_qr_scan", "ios": "https://dc.lft.to/lastmile_qr_scan"}, "fusion_lon": 0.0}, {"lat": 38.903743666666664, "is_disabled": 0, "type": "electric_scooter", "lon": -77.03990483333334, "bike_id": "d9ffddd63a79588f47b1ba21e163ab83", "fusion_lat": 0.0, "name": "d9ffddd63a79588f47b1ba21e163ab83", "is_reserved": 0, "rental_uris": {"android": "https://dc.lft.to/lastmile_qr_scan", "ios": "https://dc.lft.to/lastmile_qr_scan"}, "fusion_lon": 0.0}, {"lat": 38.90863433333333, "is_disabled": 0, "type": "electric_scooter", "lon": -77.02285983333333, "bike_id": "8bcb80db26f10f30c81cf3f4ed38b75d", "fusion_lat": 0.0, "name": "8bcb80db26f10f30c81cf3f4ed38b75d", "is_reserved": 0, "rental_uris": {"android": "https://dc.lft.to/lastmile_qr_scan", "ios": "https://dc.lft.to/lastmile_qr_scan"}, "fusion_lon": 0.0}, {"lat": 38.9073555, "is_disabled": 0, "type": "electric_scooter", "lon": -77.0280055, "bike_id": "97a8bd0774d6c00aa5f559b4fd1e08fe", "fusion_lat": 0.0, "name": "97a8bd0774d6c00aa5f559b4fd1e08fe", "is_reserved": 0, "rental_uris": {"android": "https://dc.lft.to/lastmile_qr_scan", "ios": "https://dc.lft.to/lastmile_qr_scan"}, "fusion_lon": 0.0}, {"lat": 38.900586833333335, "is_disabled": 0, "type": "electric_scooter", "lon": -77.007655, "bike_id": "7e7ce8182d11d733d2d44688aae43b03", "fusion_lat": 0.0, "name": "7e7ce8182d11d733d2d44688aae43b03", "is_reserved": 0, "rental_uris": {"android": "https://dc.lft.to/lastmile_qr_scan", "ios": "https://dc.lft.to/lastmile_qr_scan"}, "fusion_lon": 0.0}, {"lat": 38.91690583333333, "is_disabled": 0, "type": "electric_scooter", "lon": -77.0259725, "bike_id": "a8a1ff6762af4f665654fb7c79f3791a", "fusion_lat": 0.0, "name": "a8a1ff6762af4f665654fb7c79f3791a", "is_reserved": 0, "rental_uris": {"android": "https://dc.lft.to/lastmile_qr_scan", "ios": "https://dc.lft.to/lastmile_qr_scan"}, "fusion_lon": 0.0}, {"lat": 38.932295833333335, "is_disabled": 0, "type": "electric_scooter", "lon": -77.04413366666667, "bike_id": "b09211d912808d4c7471ddcd88a74831", "fusion_lat": 0.0, "name": "b09211d912808d4c7471ddcd88a74831", "is_reserved": 0, "rental_uris": {"android": "https://dc.lft.to/lastmile_qr_scan", "ios": "https://dc.lft.to/lastmile_qr_scan"}, "fusion_lon": 0.0}, {"lat": 38.865941, "is_disabled": 0, "type": "electric_bike", "lon": -76.9322215, "bike_id": "9aac1f71f63d4561b260639f4f60379b", "fusion_lat": 0.0, "name": "9aac1f71f63d4561b260639f4f60379b", "is_reserved": 0, "rental_uris": {"android": "https://dc.lft.to/lastmile_qr_scan", "ios": "https://dc.lft.to/lastmile_qr_scan"}, "fusion_lon": 0.0}, {"lat": 38.885336833333334, "is_disabled": 0, "type": "electric_scooter", "lon": -77.01503816666667, "bike_id": "187daffb1266c7b7a6671b63649a088d", "fusion_lat": 0.0, "name": "187daffb1266c7b7a6671b63649a088d", "is_reserved": 0, "rental_uris": {"android": "https://dc.lft.to/lastmile_qr_scan", "ios": "https://dc.lft.to/lastmile_qr_scan"}, "fusion_lon": 0.0}, {"lat": 38.95746183333333, "is_disabled": 0, "type": "electric_bike", "lon": -77.02166516666666, "bike_id": "bdc782d2d013c6ca13a49b6b53a5e489", "fusion_lat": 0.0, "name": "bdc782d2d013c6ca13a49b6b53a5e489", "is_reserved": 0, "rental_uris": {"android": "https://dc.lft.to/lastmile_qr_scan", "ios": "https://dc.lft.to/lastmile_qr_scan"}, "fusion_lon": 0.0}, {"lat": 38.9217195, "is_disabled": 0, "type": "electric_scooter", "lon": -77.05133833333333, "bike_id": "d4a2ef9b01bade1e9f4b7982834a2ce1", "fusion_lat": 0.0, "name": "d4a2ef9b01bade1e9f4b7982834a2ce1", "is_reserved": 0, "rental_uris": {"android": "https://dc.lft.to/lastmile_qr_scan", "ios": "https://dc.lft.to/lastmile_qr_scan"}, "fusion_lon": 0.0}, {"lat": 38.917617, "is_disabled": 0, "type": "electric_scooter", "lon": -77.00448433333334, "bike_id": "58473637c1dcf6d5b2160ddd3dd61ea9", "fusion_lat": 0.0, "name": "58473637c1dcf6d5b2160ddd3dd61ea9", "is_reserved": 0, "rental_uris": {"android": "https://dc.lft.to/lastmile_qr_scan", "ios": "https://dc.lft.to/lastmile_qr_scan"}, "fusion_lon": 0.0}, {"lat": 38.86525283333334, "is_disabled": 0, "type": "electric_scooter", "lon": -76.990268, "bike_id": "2405fb3f2bc76c3a347674c88a1f22f2", "fusion_lat": 0.0, "name": "2405fb3f2bc76c3a347674c88a1f22f2", "is_reserved": 0, "rental_uris": {"android": "https://dc.lft.to/lastmile_qr_scan", "ios": "https://dc.lft.to/lastmile_qr_scan"}, "fusion_lon": 0.0}, {"lat": 38.89224083333333, "is_disabled": 0, "type": "electric_scooter", "lon": -77.04864083333334, "bike_id": "e013f0f283bcf602ef3c760953293f96", "fusion_lat": 0.0, "name": "e013f0f283bcf602ef3c760953293f96", "is_reserved": 0, "rental_uris": {"android": "https://dc.lft.to/lastmile_qr_scan", "ios": "https://dc.lft.to/lastmile_qr_scan"}, "fusion_lon": 0.0}, {"lat": 38.8521875, "is_disabled": 0, "type": "electric_bike", "lon": -77.12955333333333, "bike_id": "73019c8291fc6f88a66554d820e139e1", "fusion_lat": 0.0, "name": "73019c8291fc6f88a66554d820e139e1", "is_reserved": 0, "rental_uris": {"android": "https://dc.lft.to/lastmile_qr_scan", "ios": "https://dc.lft.to/lastmile_qr_scan"}, "fusion_lon": 0.0}, {"lat": 38.92468816666667, "is_disabled": 0, "type": "electric_scooter", "lon": -77.0353595, "bike_id": "fdca9b0af0611f22f592d0413a7c19f0", "fusion_lat": 0.0, "name": "fdca9b0af0611f22f592d0413a7c19f0", "is_reserved": 0, "rental_uris": {"android": "https://dc.lft.to/lastmile_qr_scan", "ios": "https://dc.lft.to/lastmile_qr_scan"}, "fusion_lon": 0.0}, {"lat": 38.92170983333333, "is_disabled": 0, "type": "electric_scooter", "lon": -77.04002133333333, "bike_id": "075625d3f4d91231cbcd0f66ef4d72b4", "fusion_lat": 0.0, "name": "075625d3f4d91231cbcd0f66ef4d72b4", "is_reserved": 0, "rental_uris": {"android": "https://dc.lft.to/lastmile_qr_scan", "ios": "https://dc.lft.to/lastmile_qr_scan"}, "fusion_lon": 0.0}, {"lat": 38.91006083333333, "is_disabled": 0, "type": "electric_scooter", "lon": -77.04004616666667, "bike_id": "84745846d42f821ccfc6720ed14340b8", "fusion_lat": 0.0, "name": "84745846d42f821ccfc6720ed14340b8", "is_reserved": 0, "rental_uris": {"android": "https://dc.lft.to/lastmile_qr_scan", "ios": "https://dc.lft.to/lastmile_qr_scan"}, "fusion_lon": 0.0}, {"lat": 38.900452666666666, "is_disabled": 0, "type": "electric_scooter", "lon": -77.0271905, "bike_id": "933588b818c195b5b191fc69c038d1be", "fusion_lat": 0.0, "name": "933588b818c195b5b191fc69c038d1be", "is_reserved": 0, "rental_uris": {"android": "https://dc.lft.to/lastmile_qr_scan", "ios": "https://dc.lft.to/lastmile_qr_scan"}, "fusion_lon": 0.0}, {"lat": 38.866793333333334, "is_disabled": 0, "type": "electric_scooter", "lon": -76.98538883333333, "bike_id": "699d7631e801147b74a5f641530d84b4", "fusion_lat": 0.0, "name": "699d7631e801147b74a5f641530d84b4", "is_reserved": 0, "rental_uris": {"android": "https://dc.lft.to/lastmile_qr_scan", "ios": "https://dc.lft.to/lastmile_qr_scan"}, "fusion_lon": 0.0}, {"lat": 38.87728833333333, "is_disabled": 0, "type": "electric_bike", "lon": -76.98103866666666, "bike_id": "ec66d2e54d8199ae637865450667d76f", "fusion_lat": 0.0, "name": "ec66d2e54d8199ae637865450667d76f", "is_reserved": 0, "rental_uris": {"android": "https://dc.lft.to/lastmile_qr_scan", "ios": "https://dc.lft.to/lastmile_qr_scan"}, "fusion_lon": 0.0}, {"lat": 38.91177416666667, "is_disabled": 0, "type": "electric_scooter", "lon": -77.03184716666667, "bike_id": "3f7088b21ec784253312cb7cac8cb99c", "fusion_lat": 0.0, "name": "3f7088b21ec784253312cb7cac8cb99c", "is_reserved": 0, "rental_uris": {"android": "https://dc.lft.to/lastmile_qr_scan", "ios": "https://dc.lft.to/lastmile_qr_scan"}, "fusion_lon": 0.0}, {"lat": 38.897435333333334, "is_disabled": 0, "type": "electric_scooter", "lon": -77.00074883333333, "bike_id": "1f6a47674ddaa14a0f61157efd269e7f", "fusion_lat": 0.0, "name": "1f6a47674ddaa14a0f61157efd269e7f", "is_reserved": 0, "rental_uris": {"android": "https://dc.lft.to/lastmile_qr_scan", "ios": "https://dc.lft.to/lastmile_qr_scan"}, "fusion_lon": 0.0}, {"lat": 38.91410583333333, "is_disabled": 0, "type": "electric_scooter", "lon": -77.0386255, "bike_id": "66dee5dddfd465ba5b2e02d12843b276", "fusion_lat": 0.0, "name": "66dee5dddfd465ba5b2e02d12843b276", "is_reserved": 0, "rental_uris": {"android": "https://dc.lft.to/lastmile_qr_scan", "ios": "https://dc.lft.to/lastmile_qr_scan"}, "fusion_lon": 0.0}, {"lat": 38.905329, "is_disabled": 0, "type": "electric_scooter", "lon": -77.05711216666667, "bike_id": "4719a417316933fe592ea8fa5d3bed25", "fusion_lat": 0.0, "name": "4719a417316933fe592ea8fa5d3bed25", "is_reserved": 0, "rental_uris": {"android": "https://dc.lft.to/lastmile_qr_scan", "ios": "https://dc.lft.to/lastmile_qr_scan"}, "fusion_lon": 0.0}, {"lat": 38.900137666666666, "is_disabled": 0, "type": "electric_scooter", "lon": -77.01197016666667, "bike_id": "4e58ca27eea52aaddf6a25069ff1b958", "fusion_lat": 0.0, "name": "4e58ca27eea52aaddf6a25069ff1b958", "is_reserved": 0, "rental_uris": {"android": "https://dc.lft.to/lastmile_qr_scan", "ios": "https://dc.lft.to/lastmile_qr_scan"}, "fusion_lon": 0.0}, {"lat": 38.91693716666666, "is_disabled": 0, "type": "electric_scooter", "lon": -77.03768666666667, "bike_id": "b45c6c08f1dea715a2e4cf76d1c91dd5", "fusion_lat": 0.0, "name": "b45c6c08f1dea715a2e4cf76d1c91dd5", "is_reserved": 0, "rental_uris": {"android": "https://dc.lft.to/lastmile_qr_scan", "ios": "https://dc.lft.to/lastmile_qr_scan"}, "fusion_lon": 0.0}, {"lat": 38.9331695, "is_disabled": 0, "type": "electric_scooter", "lon": -77.04517883333334, "bike_id": "05f017a9672bd02eda7853b36699981c", "fusion_lat": 0.0, "name": "05f017a9672bd02eda7853b36699981c", "is_reserved": 0, "rental_uris": {"android": "https://dc.lft.to/lastmile_qr_scan", "ios": "https://dc.lft.to/lastmile_qr_scan"}, "fusion_lon": 0.0}, {"lat": 38.89880866666667, "is_disabled": 0, "type": "electric_scooter", "lon": -77.020112, "bike_id": "2e61c1f17194902105d266abb6aacbb4", "fusion_lat": 0.0, "name": "2e61c1f17194902105d266abb6aacbb4", "is_reserved": 0, "rental_uris": {"android": "https://dc.lft.to/lastmile_qr_scan", "ios": "https://dc.lft.to/lastmile_qr_scan"}, "fusion_lon": 0.0}, {"lat": 38.892376666666664, "is_disabled": 0, "type": "electric_scooter", "lon": -77.02606466666667, "bike_id": "ee3f1fc63f18d0c800b0cb3d82dd9c99", "fusion_lat": 0.0, "name": "ee3f1fc63f18d0c800b0cb3d82dd9c99", "is_reserved": 0, "rental_uris": {"android": "https://dc.lft.to/lastmile_qr_scan", "ios": "https://dc.lft.to/lastmile_qr_scan"}, "fusion_lon": 0.0}, {"lat": 38.878731333333334, "is_disabled": 0, "type": "electric_scooter", "lon": -77.00747, "bike_id": "4bbe086a9120bef548dc92d31a2ed989", "fusion_lat": 0.0, "name": "4bbe086a9120bef548dc92d31a2ed989", "is_reserved": 0, "rental_uris": {"android": "https://dc.lft.to/lastmile_qr_scan", "ios": "https://dc.lft.to/lastmile_qr_scan"}, "fusion_lon": 0.0}, {"lat": 38.908525, "is_disabled": 0, "type": "electric_scooter", "lon": -77.04765266666666, "bike_id": "1d9a9b47b20da4ded08a74be60cfd013", "fusion_lat": 0.0, "name": "1d9a9b47b20da4ded08a74be60cfd013", "is_reserved": 0, "rental_uris": {"android": "https://dc.lft.to/lastmile_qr_scan", "ios": "https://dc.lft.to/lastmile_qr_scan"}, "fusion_lon": 0.0}, {"lat": 38.9005665, "is_disabled": 0, "type": "electric_scooter", "lon": -77.00210666666666, "bike_id": "3c190a3a5fe76a217c599b71151ddbfb", "fusion_lat": 0.0, "name": "3c190a3a5fe76a217c599b71151ddbfb", "is_reserved": 0, "rental_uris": {"android": "https://dc.lft.to/lastmile_qr_scan", "ios": "https://dc.lft.to/lastmile_qr_scan"}, "fusion_lon": 0.0}, {"lat": 38.90860633333333, "is_disabled": 0, "type": "electric_scooter", "lon": -77.04589333333334, "bike_id": "f8882764839d58bc92348bd146df6ee3", "fusion_lat": 0.0, "name": "f8882764839d58bc92348bd146df6ee3", "is_reserved": 0, "rental_uris": {"android": "https://dc.lft.to/lastmile_qr_scan", "ios": "https://dc.lft.to/lastmile_qr_scan"}, "fusion_lon": 0.0}, {"lat": 38.912541, "is_disabled": 0, "type": "electric_scooter", "lon": -77.02208866666666, "bike_id": "f0af14744f08b6d902779f3d31e4e3d1", "fusion_lat": 0.0, "name": "f0af14744f08b6d902779f3d31e4e3d1", "is_reserved": 0, "rental_uris": {"android": "https://dc.lft.to/lastmile_qr_scan", "ios": "https://dc.lft.to/lastmile_qr_scan"}, "fusion_lon": 0.0}, {"lat": 38.83672883333333, "is_disabled": 0, "type": "electric_scooter", "lon": -77.00574716666667, "bike_id": "aed9344bdc72d13fd988dcc11c9aed91", "fusion_lat": 0.0, "name": "aed9344bdc72d13fd988dcc11c9aed91", "is_reserved": 0, "rental_uris": {"android": "https://dc.lft.to/lastmile_qr_scan", "ios": "https://dc.lft.to/lastmile_qr_scan"}, "fusion_lon": 0.0}, {"lat": 38.90759116666667, "is_disabled": 0, "type": "electric_scooter", "lon": -77.0344265, "bike_id": "330501510ce6d1b3ff8d8ae8f90273d9", "fusion_lat": 0.0, "name": "330501510ce6d1b3ff8d8ae8f90273d9", "is_reserved": 0, "rental_uris": {"android": "https://dc.lft.to/lastmile_qr_scan", "ios": "https://dc.lft.to/lastmile_qr_scan"}, "fusion_lon": 0.0}, {"lat": 38.908236, "is_disabled": 0, "type": "electric_scooter", "lon": -77.017898, "bike_id": "46690bef83c587a27a17d5aa7c1c0c96", "fusion_lat": 0.0, "name": "46690bef83c587a27a17d5aa7c1c0c96", "is_reserved": 0, "rental_uris": {"android": "https://dc.lft.to/lastmile_qr_scan", "ios": "https://dc.lft.to/lastmile_qr_scan"}, "fusion_lon": 0.0}, {"lat": 38.8999255, "is_disabled": 0, "type": "electric_scooter", "lon": -76.99486366666666, "bike_id": "e41fd1290e34c155dc5fb5f751037aec", "fusion_lat": 0.0, "name": "e41fd1290e34c155dc5fb5f751037aec", "is_reserved": 0, "rental_uris": {"android": "https://dc.lft.to/lastmile_qr_scan", "ios": "https://dc.lft.to/lastmile_qr_scan"}, "fusion_lon": 0.0}, {"lat": 38.9178525, "is_disabled": 0, "type": "electric_scooter", "lon": -77.04337, "bike_id": "452ce1443168893e27a13dc65c8a79b1", "fusion_lat": 0.0, "name": "452ce1443168893e27a13dc65c8a79b1", "is_reserved": 0, "rental_uris": {"android": "https://dc.lft.to/lastmile_qr_scan", "ios": "https://dc.lft.to/lastmile_qr_scan"}, "fusion_lon": 0.0}, {"lat": 38.89735866666667, "is_disabled": 0, "type": "electric_scooter", "lon": -77.0453075, "bike_id": "46dab322639012732354cff1ac9e547b", "fusion_lat": 0.0, "name": "46dab322639012732354cff1ac9e547b", "is_reserved": 0, "rental_uris": {"android": "https://dc.lft.to/lastmile_qr_scan", "ios": "https://dc.lft.to/lastmile_qr_scan"}, "fusion_lon": 0.0}, {"lat": 38.9258115, "is_disabled": 0, "type": "electric_scooter", "lon": -77.05769616666667, "bike_id": "b6e467a94ba136f06936965ed42524a1", "fusion_lat": 0.0, "name": "b6e467a94ba136f06936965ed42524a1", "is_reserved": 0, "rental_uris": {"android": "https://dc.lft.to/lastmile_qr_scan", "ios": "https://dc.lft.to/lastmile_qr_scan"}, "fusion_lon": 0.0}, {"lat": 38.866558833333336, "is_disabled": 0, "type": "electric_scooter", "lon": -76.98883666666667, "bike_id": "39cd6b83cf3988dbd5b5c9f07cc8c7cd", "fusion_lat": 0.0, "name": "39cd6b83cf3988dbd5b5c9f07cc8c7cd", "is_reserved": 0, "rental_uris": {"android": "https://dc.lft.to/lastmile_qr_scan", "ios": "https://dc.lft.to/lastmile_qr_scan"}, "fusion_lon": 0.0}, {"lat": 38.903338833333336, "is_disabled": 0, "type": "electric_scooter", "lon": -76.9759485, "bike_id": "b18d116b025853efded8115d3e1fb001", "fusion_lat": 0.0, "name": "b18d116b025853efded8115d3e1fb001", "is_reserved": 0, "rental_uris": {"android": "https://dc.lft.to/lastmile_qr_scan", "ios": "https://dc.lft.to/lastmile_qr_scan"}, "fusion_lon": 0.0}, {"lat": 38.921413, "is_disabled": 0, "type": "electric_scooter", "lon": -77.0435385, "bike_id": "2aa5a0bdce8cc27b7224700399f96c85", "fusion_lat": 0.0, "name": "2aa5a0bdce8cc27b7224700399f96c85", "is_reserved": 0, "rental_uris": {"android": "https://dc.lft.to/lastmile_qr_scan", "ios": "https://dc.lft.to/lastmile_qr_scan"}, "fusion_lon": 0.0}, {"lat": 38.907657666666665, "is_disabled": 0, "type": "electric_scooter", "lon": -77.07025216666666, "bike_id": "b56c0c3ee094928c9673512c7ad233d7", "fusion_lat": 0.0, "name": "b56c0c3ee094928c9673512c7ad233d7", "is_reserved": 0, "rental_uris": {"android": "https://dc.lft.to/lastmile_qr_scan", "ios": "https://dc.lft.to/lastmile_qr_scan"}, "fusion_lon": 0.0}, {"lat": 38.90361033333333, "is_disabled": 0, "type": "electric_scooter", "lon": -77.02510883333333, "bike_id": "2b42b2a313997ea2b4589254716fe9a8", "fusion_lat": 0.0, "name": "2b42b2a313997ea2b4589254716fe9a8", "is_reserved": 0, "rental_uris": {"android": "https://dc.lft.to/lastmile_qr_scan", "ios": "https://dc.lft.to/lastmile_qr_scan"}, "fusion_lon": 0.0}, {"lat": 38.90728083333333, "is_disabled": 0, "type": "electric_scooter", "lon": -76.935494, "bike_id": "054b56d08ec524d65ff6f97613a3c9b1", "fusion_lat": 0.0, "name": "054b56d08ec524d65ff6f97613a3c9b1", "is_reserved": 0, "rental_uris": {"android": "https://dc.lft.to/lastmile_qr_scan", "ios": "https://dc.lft.to/lastmile_qr_scan"}, "fusion_lon": 0.0}, {"lat": 38.91673883333333, "is_disabled": 0, "type": "electric_scooter", "lon": -77.03653533333333, "bike_id": "74cf1ccc9067af823527c0769961c4fc", "fusion_lat": 0.0, "name": "74cf1ccc9067af823527c0769961c4fc", "is_reserved": 0, "rental_uris": {"android": "https://dc.lft.to/lastmile_qr_scan", "ios": "https://dc.lft.to/lastmile_qr_scan"}, "fusion_lon": 0.0}, {"lat": 38.80681466666667, "is_disabled": 0, "type": "electric_bike", "lon": -77.08118283333333, "bike_id": "643acc9550507f56ef94aad3557fde1e", "fusion_lat": 0.0, "name": "643acc9550507f56ef94aad3557fde1e", "is_reserved": 0, "rental_uris": {"android": "https://dc.lft.to/lastmile_qr_scan", "ios": "https://dc.lft.to/lastmile_qr_scan"}, "fusion_lon": 0.0}, {"lat": 38.932445, "is_disabled": 0, "type": "electric_scooter", "lon": -77.0284425, "bike_id": "04577879dd20e494136b3f6f70e6b407", "fusion_lat": 0.0, "name": "04577879dd20e494136b3f6f70e6b407", "is_reserved": 0, "rental_uris": {"android": "https://dc.lft.to/lastmile_qr_scan", "ios": "https://dc.lft.to/lastmile_qr_scan"}, "fusion_lon": 0.0}, {"lat": 38.91327366666667, "is_disabled": 0, "type": "electric_scooter", "lon": -77.031887, "bike_id": "aea0323827af72d3192d6c40f53361a5", "fusion_lat": 0.0, "name": "aea0323827af72d3192d6c40f53361a5", "is_reserved": 0, "rental_uris": {"android": "https://dc.lft.to/lastmile_qr_scan", "ios": "https://dc.lft.to/lastmile_qr_scan"}, "fusion_lon": 0.0}, {"lat": 38.85736466666667, "is_disabled": 0, "type": "electric_scooter", "lon": -76.99426383333333, "bike_id": "e094ce110556ae56bdec1023b24484b9", "fusion_lat": 0.0, "name": "e094ce110556ae56bdec1023b24484b9", "is_reserved": 0, "rental_uris": {"android": "https://dc.lft.to/lastmile_qr_scan", "ios": "https://dc.lft.to/lastmile_qr_scan"}, "fusion_lon": 0.0}, {"lat": 38.903947333333335, "is_disabled": 0, "type": "electric_scooter", "lon": -77.0480485, "bike_id": "28b8b01b299daedf77400592f65a879c", "fusion_lat": 0.0, "name": "28b8b01b299daedf77400592f65a879c", "is_reserved": 0, "rental_uris": {"android": "https://dc.lft.to/lastmile_qr_scan", "ios": "https://dc.lft.to/lastmile_qr_scan"}, "fusion_lon": 0.0}, {"lat": 38.9443855, "is_disabled": 0, "type": "electric_scooter", "lon": -77.023379, "bike_id": "1c5ce84588ae295ff4729b92decc95a9", "fusion_lat": 0.0, "name": "1c5ce84588ae295ff4729b92decc95a9", "is_reserved": 0, "rental_uris": {"android": "https://dc.lft.to/lastmile_qr_scan", "ios": "https://dc.lft.to/lastmile_qr_scan"}, "fusion_lon": 0.0}, {"lat": 38.904545166666665, "is_disabled": 0, "type": "electric_scooter", "lon": -77.06279233333333, "bike_id": "3a9d129ca567872b194b55f231f64af2", "fusion_lat": 0.0, "name": "3a9d129ca567872b194b55f231f64af2", "is_reserved": 0, "rental_uris": {"android": "https://dc.lft.to/lastmile_qr_scan", "ios": "https://dc.lft.to/lastmile_qr_scan"}, "fusion_lon": 0.0}, {"lat": 38.903796, "is_disabled": 0, "type": "electric_scooter", "lon": -77.036567, "bike_id": "6987e2c0122bd697476e293856fb0cc0", "fusion_lat": 0.0, "name": "6987e2c0122bd697476e293856fb0cc0", "is_reserved": 0, "rental_uris": {"android": "https://dc.lft.to/lastmile_qr_scan", "ios": "https://dc.lft.to/lastmile_qr_scan"}, "fusion_lon": 0.0}, {"lat": 38.9045595, "is_disabled": 0, "type": "electric_scooter", "lon": -76.99457216666667, "bike_id": "5f754c792626251e3ac8d4c577f42c21", "fusion_lat": 0.0, "name": "5f754c792626251e3ac8d4c577f42c21", "is_reserved": 0, "rental_uris": {"android": "https://dc.lft.to/lastmile_qr_scan", "ios": "https://dc.lft.to/lastmile_qr_scan"}, "fusion_lon": 0.0}, {"lat": 38.969250833333334, "is_disabled": 0, "type": "electric_bike", "lon": -77.026192, "bike_id": "7dac42bc52be8f02a6bdb79dc48ec343", "fusion_lat": 0.0, "name": "7dac42bc52be8f02a6bdb79dc48ec343", "is_reserved": 0, "rental_uris": {"android": "https://dc.lft.to/lastmile_qr_scan", "ios": "https://dc.lft.to/lastmile_qr_scan"}, "fusion_lon": 0.0}, {"lat": 38.90604883333334, "is_disabled": 0, "type": "electric_scooter", "lon": -77.06346616666667, "bike_id": "b40d6d0ff80a5e33cda4762e00b31c28", "fusion_lat": 0.0, "name": "b40d6d0ff80a5e33cda4762e00b31c28", "is_reserved": 0, "rental_uris": {"android": "https://dc.lft.to/lastmile_qr_scan", "ios": "https://dc.lft.to/lastmile_qr_scan"}, "fusion_lon": 0.0}, {"lat": 38.89252, "is_disabled": 0, "type": "electric_scooter", "lon": -77.04894433333334, "bike_id": "f5396576a4faad3c7ef2c02d16c351e2", "fusion_lat": 0.0, "name": "f5396576a4faad3c7ef2c02d16c351e2", "is_reserved": 0, "rental_uris": {"android": "https://dc.lft.to/lastmile_qr_scan", "ios": "https://dc.lft.to/lastmile_qr_scan"}, "fusion_lon": 0.0}, {"lat": 38.933666, "is_disabled": 0, "type": "electric_scooter", "lon": -77.0574825, "bike_id": "5096231296c8b7383dbb1e0d4e806f91", "fusion_lat": 0.0, "name": "5096231296c8b7383dbb1e0d4e806f91", "is_reserved": 0, "rental_uris": {"android": "https://dc.lft.to/lastmile_qr_scan", "ios": "https://dc.lft.to/lastmile_qr_scan"}, "fusion_lon": 0.0}, {"lat": 38.93083133333333, "is_disabled": 0, "type": "electric_scooter", "lon": -77.02559816666667, "bike_id": "e8c567fc06549793f45ba354e93b693f", "fusion_lat": 0.0, "name": "e8c567fc06549793f45ba354e93b693f", "is_reserved": 0, "rental_uris": {"android": "https://dc.lft.to/lastmile_qr_scan", "ios": "https://dc.lft.to/lastmile_qr_scan"}, "fusion_lon": 0.0}, {"lat": 38.9056555, "is_disabled": 0, "type": "electric_scooter", "lon": -77.024919, "bike_id": "cbfd2200023dcae935be7c9fae306fdc", "fusion_lat": 0.0, "name": "cbfd2200023dcae935be7c9fae306fdc", "is_reserved": 0, "rental_uris": {"android": "https://dc.lft.to/lastmile_qr_scan", "ios": "https://dc.lft.to/lastmile_qr_scan"}, "fusion_lon": 0.0}, {"lat": 38.898301333333336, "is_disabled": 0, "type": "electric_scooter", "lon": -76.93103933333333, "bike_id": "cbd26da8fbf185b4bacea5468a87db1e", "fusion_lat": 0.0, "name": "cbd26da8fbf185b4bacea5468a87db1e", "is_reserved": 0, "rental_uris": {"android": "https://dc.lft.to/lastmile_qr_scan", "ios": "https://dc.lft.to/lastmile_qr_scan"}, "fusion_lon": 0.0}, {"lat": 38.92505583333333, "is_disabled": 0, "type": "electric_bike", "lon": -76.98229566666667, "bike_id": "0167870342404285e7a82d70c613c9df", "fusion_lat": 0.0, "name": "0167870342404285e7a82d70c613c9df", "is_reserved": 0, "rental_uris": {"android": "https://dc.lft.to/lastmile_qr_scan", "ios": "https://dc.lft.to/lastmile_qr_scan"}, "fusion_lon": 0.0}, {"lat": 38.91181266666667, "is_disabled": 0, "type": "electric_scooter", "lon": -77.00651616666667, "bike_id": "34d81579ec6bc65ff83468d7ffa8ded8", "fusion_lat": 0.0, "name": "34d81579ec6bc65ff83468d7ffa8ded8", "is_reserved": 0, "rental_uris": {"android": "https://dc.lft.to/lastmile_qr_scan", "ios": "https://dc.lft.to/lastmile_qr_scan"}, "fusion_lon": 0.0}, {"lat": 38.92745733333334, "is_disabled": 0, "type": "electric_bike", "lon": -77.03635016666667, "bike_id": "247ae14d23864f8a33b1e88e4333507d", "fusion_lat": 0.0, "name": "247ae14d23864f8a33b1e88e4333507d", "is_reserved": 0, "rental_uris": {"android": "https://dc.lft.to/lastmile_qr_scan", "ios": "https://dc.lft.to/lastmile_qr_scan"}, "fusion_lon": 0.0}, {"lat": 38.909607333333334, "is_disabled": 0, "type": "electric_scooter", "lon": -77.048259, "bike_id": "1a0b98821aa377ae1790ec82a98d804d", "fusion_lat": 0.0, "name": "1a0b98821aa377ae1790ec82a98d804d", "is_reserved": 0, "rental_uris": {"android": "https://dc.lft.to/lastmile_qr_scan", "ios": "https://dc.lft.to/lastmile_qr_scan"}, "fusion_lon": 0.0}, {"lat": 38.90367883333333, "is_disabled": 0, "type": "electric_scooter", "lon": -77.04245466666667, "bike_id": "715ce99b98e935152f71f170a83e9484", "fusion_lat": 0.0, "name": "715ce99b98e935152f71f170a83e9484", "is_reserved": 0, "rental_uris": {"android": "https://dc.lft.to/lastmile_qr_scan", "ios": "https://dc.lft.to/lastmile_qr_scan"}, "fusion_lon": 0.0}, {"lat": 38.91691733333333, "is_disabled": 0, "type": "electric_scooter", "lon": -77.026839, "bike_id": "cb3298c74333807113b4fd6e8be12367", "fusion_lat": 0.0, "name": "cb3298c74333807113b4fd6e8be12367", "is_reserved": 0, "rental_uris": {"android": "https://dc.lft.to/lastmile_qr_scan", "ios": "https://dc.lft.to/lastmile_qr_scan"}, "fusion_lon": 0.0}, {"lat": 38.876270833333336, "is_disabled": 0, "type": "electric_scooter", "lon": -76.96524483333333, "bike_id": "979b4aa4f348da22f3d0a52d80054c46", "fusion_lat": 0.0, "name": "979b4aa4f348da22f3d0a52d80054c46", "is_reserved": 0, "rental_uris": {"android": "https://dc.lft.to/lastmile_qr_scan", "ios": "https://dc.lft.to/lastmile_qr_scan"}, "fusion_lon": 0.0}, {"lat": 38.924129, "is_disabled": 0, "type": "electric_scooter", "lon": -77.02743716666667, "bike_id": "35068cfd5c27d7853b58fdfcc61e8343", "fusion_lat": 0.0, "name": "35068cfd5c27d7853b58fdfcc61e8343", "is_reserved": 0, "rental_uris": {"android": "https://dc.lft.to/lastmile_qr_scan", "ios": "https://dc.lft.to/lastmile_qr_scan"}, "fusion_lon": 0.0}, {"lat": 38.8940575, "is_disabled": 0, "type": "electric_scooter", "lon": -76.98667516666667, "bike_id": "f7f951e94a3a736b3e3d55df9c206b2a", "fusion_lat": 0.0, "name": "f7f951e94a3a736b3e3d55df9c206b2a", "is_reserved": 0, "rental_uris": {"android": "https://dc.lft.to/lastmile_qr_scan", "ios": "https://dc.lft.to/lastmile_qr_scan"}, "fusion_lon": 0.0}, {"lat": 38.8699735, "is_disabled": 0, "type": "electric_bike", "lon": -77.06567516666667, "bike_id": "5832462bb9c9b5a45710044b2d4e61e3", "fusion_lat": 0.0, "name": "5832462bb9c9b5a45710044b2d4e61e3", "is_reserved": 0, "rental_uris": {"android": "https://dc.lft.to/lastmile_qr_scan", "ios": "https://dc.lft.to/lastmile_qr_scan"}, "fusion_lon": 0.0}, {"lat": 38.9013355, "is_disabled": 0, "type": "electric_scooter", "lon": -77.031753, "bike_id": "493960ddcb2da3b48359513cc0e94203", "fusion_lat": 0.0, "name": "493960ddcb2da3b48359513cc0e94203", "is_reserved": 0, "rental_uris": {"android": "https://dc.lft.to/lastmile_qr_scan", "ios": "https://dc.lft.to/lastmile_qr_scan"}, "fusion_lon": 0.0}, {"lat": 38.90525733333333, "is_disabled": 0, "type": "electric_scooter", "lon": -77.0624195, "bike_id": "411c6e489197e2dede0678cffb2bcbe5", "fusion_lat": 0.0, "name": "411c6e489197e2dede0678cffb2bcbe5", "is_reserved": 0, "rental_uris": {"android": "https://dc.lft.to/lastmile_qr_scan", "ios": "https://dc.lft.to/lastmile_qr_scan"}, "fusion_lon": 0.0}, {"lat": 38.9060865, "is_disabled": 0, "type": "electric_scooter", "lon": -76.98977666666667, "bike_id": "51e3bedf89a093692e69a8c665a1579f", "fusion_lat": 0.0, "name": "51e3bedf89a093692e69a8c665a1579f", "is_reserved": 0, "rental_uris": {"android": "https://dc.lft.to/lastmile_qr_scan", "ios": "https://dc.lft.to/lastmile_qr_scan"}, "fusion_lon": 0.0}, {"lat": 38.85930716666667, "is_disabled": 0, "type": "electric_scooter", "lon": -76.99714733333333, "bike_id": "1f6653cf26c2dd11790eba52867cf342", "fusion_lat": 0.0, "name": "1f6653cf26c2dd11790eba52867cf342", "is_reserved": 0, "rental_uris": {"android": "https://dc.lft.to/lastmile_qr_scan", "ios": "https://dc.lft.to/lastmile_qr_scan"}, "fusion_lon": 0.0}, {"lat": 38.86522883333333, "is_disabled": 0, "type": "electric_scooter", "lon": -76.990272, "bike_id": "a5566b3b17d28377ff110f8fdd0784fd", "fusion_lat": 0.0, "name": "a5566b3b17d28377ff110f8fdd0784fd", "is_reserved": 0, "rental_uris": {"android": "https://dc.lft.to/lastmile_qr_scan", "ios": "https://dc.lft.to/lastmile_qr_scan"}, "fusion_lon": 0.0}, {"lat": 38.934518833333335, "is_disabled": 0, "type": "electric_scooter", "lon": -77.030726, "bike_id": "1f47f8cd4c4791e3607c0b42742ad750", "fusion_lat": 0.0, "name": "1f47f8cd4c4791e3607c0b42742ad750", "is_reserved": 0, "rental_uris": {"android": "https://dc.lft.to/lastmile_qr_scan", "ios": "https://dc.lft.to/lastmile_qr_scan"}, "fusion_lon": 0.0}, {"lat": 38.91306083333333, "is_disabled": 0, "type": "electric_scooter", "lon": -77.02404866666667, "bike_id": "04507f9ae2b28f6129fca662d465327b", "fusion_lat": 0.0, "name": "04507f9ae2b28f6129fca662d465327b", "is_reserved": 0, "rental_uris": {"android": "https://dc.lft.to/lastmile_qr_scan", "ios": "https://dc.lft.to/lastmile_qr_scan"}, "fusion_lon": 0.0}, {"lat": 38.8815085, "is_disabled": 0, "type": "electric_scooter", "lon": -77.02735566666667, "bike_id": "6656799c255e29d166e7be278274cb6c", "fusion_lat": 0.0, "name": "6656799c255e29d166e7be278274cb6c", "is_reserved": 0, "rental_uris": {"android": "https://dc.lft.to/lastmile_qr_scan", "ios": "https://dc.lft.to/lastmile_qr_scan"}, "fusion_lon": 0.0}, {"lat": 38.9036465, "is_disabled": 0, "type": "electric_scooter", "lon": -77.04467733333334, "bike_id": "1c7f2d6782a12a6d5c65ea3bfd562fc2", "fusion_lat": 0.0, "name": "1c7f2d6782a12a6d5c65ea3bfd562fc2", "is_reserved": 0, "rental_uris": {"android": "https://dc.lft.to/lastmile_qr_scan", "ios": "https://dc.lft.to/lastmile_qr_scan"}, "fusion_lon": 0.0}, {"lat": 38.9024405, "is_disabled": 0, "type": "electric_scooter", "lon": -77.0394565, "bike_id": "ac8d016a7610d0f23123a639dc05e8d4", "fusion_lat": 0.0, "name": "ac8d016a7610d0f23123a639dc05e8d4", "is_reserved": 0, "rental_uris": {"android": "https://dc.lft.to/lastmile_qr_scan", "ios": "https://dc.lft.to/lastmile_qr_scan"}, "fusion_lon": 0.0}, {"lat": 38.91124883333333, "is_disabled": 0, "type": "electric_scooter", "lon": -77.032038, "bike_id": "3c7373c05fa32375092314c739a53348", "fusion_lat": 0.0, "name": "3c7373c05fa32375092314c739a53348", "is_reserved": 0, "rental_uris": {"android": "https://dc.lft.to/lastmile_qr_scan", "ios": "https://dc.lft.to/lastmile_qr_scan"}, "fusion_lon": 0.0}, {"lat": 38.93361133333333, "is_disabled": 0, "type": "electric_bike", "lon": -77.0996085, "bike_id": "093484b90c458cd9dff639d28586c0bc", "fusion_lat": 0.0, "name": "093484b90c458cd9dff639d28586c0bc", "is_reserved": 0, "rental_uris": {"android": "https://dc.lft.to/lastmile_qr_scan", "ios": "https://dc.lft.to/lastmile_qr_scan"}, "fusion_lon": 0.0}, {"lat": 38.95171216666667, "is_disabled": 0, "type": "electric_bike", "lon": -76.96900066666667, "bike_id": "3e1864b8acc02e5e1f21a423af95b2b5", "fusion_lat": 0.0, "name": "3e1864b8acc02e5e1f21a423af95b2b5", "is_reserved": 0, "rental_uris": {"android": "https://dc.lft.to/lastmile_qr_scan", "ios": "https://dc.lft.to/lastmile_qr_scan"}, "fusion_lon": 0.0}, {"lat": 38.92853316666667, "is_disabled": 0, "type": "electric_scooter", "lon": -77.0137335, "bike_id": "cd4170c34444a80b062217beb0711f43", "fusion_lat": 0.0, "name": "cd4170c34444a80b062217beb0711f43", "is_reserved": 0, "rental_uris": {"android": "https://dc.lft.to/lastmile_qr_scan", "ios": "https://dc.lft.to/lastmile_qr_scan"}, "fusion_lon": 0.0}, {"lat": 38.9187475, "is_disabled": 0, "type": "electric_scooter", "lon": -77.01207466666666, "bike_id": "96da334cb81e41d67190dc8817695327", "fusion_lat": 0.0, "name": "96da334cb81e41d67190dc8817695327", "is_reserved": 0, "rental_uris": {"android": "https://dc.lft.to/lastmile_qr_scan", "ios": "https://dc.lft.to/lastmile_qr_scan"}, "fusion_lon": 0.0}, {"lat": 38.90066366666667, "is_disabled": 0, "type": "electric_scooter", "lon": -77.00212283333333, "bike_id": "79289653ab5403b878d6294a174f943a", "fusion_lat": 0.0, "name": "79289653ab5403b878d6294a174f943a", "is_reserved": 0, "rental_uris": {"android": "https://dc.lft.to/lastmile_qr_scan", "ios": "https://dc.lft.to/lastmile_qr_scan"}, "fusion_lon": 0.0}, {"lat": 38.8427335, "is_disabled": 0, "type": "electric_bike", "lon": -76.9884435, "bike_id": "de1ac85c995b208d370df8ac542bb220", "fusion_lat": 0.0, "name": "de1ac85c995b208d370df8ac542bb220", "is_reserved": 0, "rental_uris": {"android": "https://dc.lft.to/lastmile_qr_scan", "ios": "https://dc.lft.to/lastmile_qr_scan"}, "fusion_lon": 0.0}, {"lat": 38.856800666666665, "is_disabled": 0, "type": "electric_scooter", "lon": -76.98170166666667, "bike_id": "891b6cfd7acf16258d9365602320cab6", "fusion_lat": 0.0, "name": "891b6cfd7acf16258d9365602320cab6", "is_reserved": 0, "rental_uris": {"android": "https://dc.lft.to/lastmile_qr_scan", "ios": "https://dc.lft.to/lastmile_qr_scan"}, "fusion_lon": 0.0}, {"lat": 38.83728, "is_disabled": 0, "type": "electric_bike", "lon": -76.99762066666666, "bike_id": "6b5e945b8c5888b5ae3a23d7373955b3", "fusion_lat": 0.0, "name": "6b5e945b8c5888b5ae3a23d7373955b3", "is_reserved": 0, "rental_uris": {"android": "https://dc.lft.to/lastmile_qr_scan", "ios": "https://dc.lft.to/lastmile_qr_scan"}, "fusion_lon": 0.0}, {"lat": 38.89547233333333, "is_disabled": 0, "type": "electric_scooter", "lon": -77.004382, "bike_id": "80cb11bd5c54314e5d68d33bdf2da049", "fusion_lat": 0.0, "name": "80cb11bd5c54314e5d68d33bdf2da049", "is_reserved": 0, "rental_uris": {"android": "https://dc.lft.to/lastmile_qr_scan", "ios": "https://dc.lft.to/lastmile_qr_scan"}, "fusion_lon": 0.0}, {"lat": 38.9360265, "is_disabled": 0, "type": "electric_scooter", "lon": -77.02528833333334, "bike_id": "00b8948c419c79888ca6fe7593e8a504", "fusion_lat": 0.0, "name": "00b8948c419c79888ca6fe7593e8a504", "is_reserved": 0, "rental_uris": {"android": "https://dc.lft.to/lastmile_qr_scan", "ios": "https://dc.lft.to/lastmile_qr_scan"}, "fusion_lon": 0.0}, {"lat": 38.934091, "is_disabled": 0, "type": "electric_scooter", "lon": -77.0246065, "bike_id": "57c4e43089df37a547d661eead26bc8a", "fusion_lat": 0.0, "name": "57c4e43089df37a547d661eead26bc8a", "is_reserved": 0, "rental_uris": {"android": "https://dc.lft.to/lastmile_qr_scan", "ios": "https://dc.lft.to/lastmile_qr_scan"}, "fusion_lon": 0.0}, {"lat": 38.9014065, "is_disabled": 0, "type": "electric_scooter", "lon": -77.02939333333333, "bike_id": "c193b84e1e31d5006d348dfa1ae2d928", "fusion_lat": 0.0, "name": "c193b84e1e31d5006d348dfa1ae2d928", "is_reserved": 0, "rental_uris": {"android": "https://dc.lft.to/lastmile_qr_scan", "ios": "https://dc.lft.to/lastmile_qr_scan"}, "fusion_lon": 0.0}, {"lat": 38.90984566666667, "is_disabled": 0, "type": "electric_scooter", "lon": -77.031894, "bike_id": "a40aba0b97babc7d7f82a942d3689315", "fusion_lat": 0.0, "name": "a40aba0b97babc7d7f82a942d3689315", "is_reserved": 0, "rental_uris": {"android": "https://dc.lft.to/lastmile_qr_scan", "ios": "https://dc.lft.to/lastmile_qr_scan"}, "fusion_lon": 0.0}, {"lat": 38.916646, "is_disabled": 0, "type": "electric_scooter", "lon": -77.04717083333334, "bike_id": "ba772705e4c19c4d368e7a16fe1b9fa6", "fusion_lat": 0.0, "name": "ba772705e4c19c4d368e7a16fe1b9fa6", "is_reserved": 0, "rental_uris": {"android": "https://dc.lft.to/lastmile_qr_scan", "ios": "https://dc.lft.to/lastmile_qr_scan"}, "fusion_lon": 0.0}, {"lat": 38.881076666666665, "is_disabled": 0, "type": "electric_scooter", "lon": -77.02637916666667, "bike_id": "6d58010965893517bc7242f1c30bc2a4", "fusion_lat": 0.0, "name": "6d58010965893517bc7242f1c30bc2a4", "is_reserved": 0, "rental_uris": {"android": "https://dc.lft.to/lastmile_qr_scan", "ios": "https://dc.lft.to/lastmile_qr_scan"}, "fusion_lon": 0.0}, {"lat": 38.920350166666665, "is_disabled": 0, "type": "electric_scooter", "lon": -76.9933075, "bike_id": "db5019caa94d1982377fde2f0da836aa", "fusion_lat": 0.0, "name": "db5019caa94d1982377fde2f0da836aa", "is_reserved": 0, "rental_uris": {"android": "https://dc.lft.to/lastmile_qr_scan", "ios": "https://dc.lft.to/lastmile_qr_scan"}, "fusion_lon": 0.0}, {"lat": 38.86508083333333, "is_disabled": 0, "type": "electric_scooter", "lon": -76.99005616666666, "bike_id": "ef89d4d6e74f5f53152824328b7e7a20", "fusion_lat": 0.0, "name": "ef89d4d6e74f5f53152824328b7e7a20", "is_reserved": 0, "rental_uris": {"android": "https://dc.lft.to/lastmile_qr_scan", "ios": "https://dc.lft.to/lastmile_qr_scan"}, "fusion_lon": 0.0}, {"lat": 38.89342383333333, "is_disabled": 0, "type": "electric_scooter", "lon": -77.0122525, "bike_id": "08a2f41c77685aa300e1314fba269519", "fusion_lat": 0.0, "name": "08a2f41c77685aa300e1314fba269519", "is_reserved": 0, "rental_uris": {"android": "https://dc.lft.to/lastmile_qr_scan", "ios": "https://dc.lft.to/lastmile_qr_scan"}, "fusion_lon": 0.0}, {"lat": 38.9032735, "is_disabled": 0, "type": "electric_scooter", "lon": -77.02887033333333, "bike_id": "9e367ba8c07057fefa4def4f71cc547c", "fusion_lat": 0.0, "name": "9e367ba8c07057fefa4def4f71cc547c", "is_reserved": 0, "rental_uris": {"android": "https://dc.lft.to/lastmile_qr_scan", "ios": "https://dc.lft.to/lastmile_qr_scan"}, "fusion_lon": 0.0}, {"lat": 38.84293916666667, "is_disabled": 0, "type": "electric_scooter", "lon": -76.99946933333334, "bike_id": "e2b1eeaae7d9cd114a4bf2873af39b05", "fusion_lat": 0.0, "name": "e2b1eeaae7d9cd114a4bf2873af39b05", "is_reserved": 0, "rental_uris": {"android": "https://dc.lft.to/lastmile_qr_scan", "ios": "https://dc.lft.to/lastmile_qr_scan"}, "fusion_lon": 0.0}, {"lat": 38.90248, "is_disabled": 0, "type": "electric_scooter", "lon": -77.05401733333333, "bike_id": "8c9c69d2d56f1dbd480fa74b0f9651a4", "fusion_lat": 0.0, "name": "8c9c69d2d56f1dbd480fa74b0f9651a4", "is_reserved": 0, "rental_uris": {"android": "https://dc.lft.to/lastmile_qr_scan", "ios": "https://dc.lft.to/lastmile_qr_scan"}, "fusion_lon": 0.0}, {"lat": 38.87996316666667, "is_disabled": 0, "type": "electric_scooter", "lon": -77.03737216666667, "bike_id": "4ca92e17dfb0a71adce7922c199d7a25", "fusion_lat": 0.0, "name": "4ca92e17dfb0a71adce7922c199d7a25", "is_reserved": 0, "rental_uris": {"android": "https://dc.lft.to/lastmile_qr_scan", "ios": "https://dc.lft.to/lastmile_qr_scan"}, "fusion_lon": 0.0}, {"lat": 38.884877833333334, "is_disabled": 0, "type": "electric_scooter", "lon": -77.00706433333333, "bike_id": "0e4a9738c99060c32560ae14bdddde49", "fusion_lat": 0.0, "name": "0e4a9738c99060c32560ae14bdddde49", "is_reserved": 0, "rental_uris": {"android": "https://dc.lft.to/lastmile_qr_scan", "ios": "https://dc.lft.to/lastmile_qr_scan"}, "fusion_lon": 0.0}, {"lat": 38.87963083333333, "is_disabled": 0, "type": "electric_scooter", "lon": -76.987434, "bike_id": "edfddd13afa516edcb3425837ad0f9ce", "fusion_lat": 0.0, "name": "edfddd13afa516edcb3425837ad0f9ce", "is_reserved": 0, "rental_uris": {"android": "https://dc.lft.to/lastmile_qr_scan", "ios": "https://dc.lft.to/lastmile_qr_scan"}, "fusion_lon": 0.0}, {"lat": 38.99399716666667, "is_disabled": 0, "type": "electric_bike", "lon": -77.03199516666666, "bike_id": "a53aa6844218700fb88a79287ae81c6d", "fusion_lat": 0.0, "name": "a53aa6844218700fb88a79287ae81c6d", "is_reserved": 0, "rental_uris": {"android": "https://dc.lft.to/lastmile_qr_scan", "ios": "https://dc.lft.to/lastmile_qr_scan"}, "fusion_lon": 0.0}, {"lat": 38.90013833333333, "is_disabled": 0, "type": "electric_scooter", "lon": -77.0119755, "bike_id": "201bd1eb4df792874ee0407cec3dfe6f", "fusion_lat": 0.0, "name": "201bd1eb4df792874ee0407cec3dfe6f", "is_reserved": 0, "rental_uris": {"android": "https://dc.lft.to/lastmile_qr_scan", "ios": "https://dc.lft.to/lastmile_qr_scan"}, "fusion_lon": 0.0}, {"lat": 38.9167835, "is_disabled": 0, "type": "electric_scooter", "lon": -77.02593516666667, "bike_id": "cf6345ae189e0181063b706c3263b272", "fusion_lat": 0.0, "name": "cf6345ae189e0181063b706c3263b272", "is_reserved": 0, "rental_uris": {"android": "https://dc.lft.to/lastmile_qr_scan", "ios": "https://dc.lft.to/lastmile_qr_scan"}, "fusion_lon": 0.0}, {"lat": 38.925724833333334, "is_disabled": 0, "type": "electric_scooter", "lon": -76.98606016666666, "bike_id": "840e08700fb05a8d53ccda3772dcb1e1", "fusion_lat": 0.0, "name": "840e08700fb05a8d53ccda3772dcb1e1", "is_reserved": 0, "rental_uris": {"android": "https://dc.lft.to/lastmile_qr_scan", "ios": "https://dc.lft.to/lastmile_qr_scan"}, "fusion_lon": 0.0}, {"lat": 38.92369766666667, "is_disabled": 0, "type": "electric_scooter", "lon": -77.0291905, "bike_id": "6cedb43d57d614c7f6ba3f7dffa98dfd", "fusion_lat": 0.0, "name": "6cedb43d57d614c7f6ba3f7dffa98dfd", "is_reserved": 0, "rental_uris": {"android": "https://dc.lft.to/lastmile_qr_scan", "ios": "https://dc.lft.to/lastmile_qr_scan"}, "fusion_lon": 0.0}, {"lat": 38.92143166666666, "is_disabled": 0, "type": "electric_scooter", "lon": -77.03506483333334, "bike_id": "54c0e748a4d04028d71ebd8c8d6546a8", "fusion_lat": 0.0, "name": "54c0e748a4d04028d71ebd8c8d6546a8", "is_reserved": 0, "rental_uris": {"android": "https://dc.lft.to/lastmile_qr_scan", "ios": "https://dc.lft.to/lastmile_qr_scan"}, "fusion_lon": 0.0}, {"lat": 38.927612, "is_disabled": 0, "type": "electric_scooter", "lon": -77.02778133333334, "bike_id": "31436d1f5af9b2783cc5385f6a3bfe33", "fusion_lat": 0.0, "name": "31436d1f5af9b2783cc5385f6a3bfe33", "is_reserved": 0, "rental_uris": {"android": "https://dc.lft.to/lastmile_qr_scan", "ios": "https://dc.lft.to/lastmile_qr_scan"}, "fusion_lon": 0.0}, {"lat": 38.91615566666667, "is_disabled": 0, "type": "electric_scooter", "lon": -77.03265883333333, "bike_id": "f670a2b71a5330b9651f7d8c361474a1", "fusion_lat": 0.0, "name": "f670a2b71a5330b9651f7d8c361474a1", "is_reserved": 0, "rental_uris": {"android": "https://dc.lft.to/lastmile_qr_scan", "ios": "https://dc.lft.to/lastmile_qr_scan"}, "fusion_lon": 0.0}, {"lat": 38.8811655, "is_disabled": 0, "type": "electric_scooter", "lon": -76.98334216666666, "bike_id": "ad8747f6f148db7bb43f7c2920c102d0", "fusion_lat": 0.0, "name": "ad8747f6f148db7bb43f7c2920c102d0", "is_reserved": 0, "rental_uris": {"android": "https://dc.lft.to/lastmile_qr_scan", "ios": "https://dc.lft.to/lastmile_qr_scan"}, "fusion_lon": 0.0}, {"lat": 38.868328, "is_disabled": 0, "type": "electric_scooter", "lon": -76.97739766666666, "bike_id": "5b9326272adac6ed846644d58caf8f9b", "fusion_lat": 0.0, "name": "5b9326272adac6ed846644d58caf8f9b", "is_reserved": 0, "rental_uris": {"android": "https://dc.lft.to/lastmile_qr_scan", "ios": "https://dc.lft.to/lastmile_qr_scan"}, "fusion_lon": 0.0}, {"lat": 38.871409666666665, "is_disabled": 0, "type": "electric_bike", "lon": -76.93702183333333, "bike_id": "ea32120b4751f1f8b0d5309758fa1457", "fusion_lat": 0.0, "name": "ea32120b4751f1f8b0d5309758fa1457", "is_reserved": 0, "rental_uris": {"android": "https://dc.lft.to/lastmile_qr_scan", "ios": "https://dc.lft.to/lastmile_qr_scan"}, "fusion_lon": 0.0}, {"lat": 38.9271425, "is_disabled": 0, "type": "electric_scooter", "lon": -77.0209005, "bike_id": "c00e8b8f05b6c65bffe343282aaa6f76", "fusion_lat": 0.0, "name": "c00e8b8f05b6c65bffe343282aaa6f76", "is_reserved": 0, "rental_uris": {"android": "https://dc.lft.to/lastmile_qr_scan", "ios": "https://dc.lft.to/lastmile_qr_scan"}, "fusion_lon": 0.0}, {"lat": 38.924671333333336, "is_disabled": 0, "type": "electric_scooter", "lon": -77.05233033333333, "bike_id": "a5c674baaac4644ab72957798db82594", "fusion_lat": 0.0, "name": "a5c674baaac4644ab72957798db82594", "is_reserved": 0, "rental_uris": {"android": "https://dc.lft.to/lastmile_qr_scan", "ios": "https://dc.lft.to/lastmile_qr_scan"}, "fusion_lon": 0.0}, {"lat": 38.906356333333335, "is_disabled": 0, "type": "electric_scooter", "lon": -77.0249455, "bike_id": "de4bcc009ba642d15fb5b86d6f44dc1a", "fusion_lat": 0.0, "name": "de4bcc009ba642d15fb5b86d6f44dc1a", "is_reserved": 0, "rental_uris": {"android": "https://dc.lft.to/lastmile_qr_scan", "ios": "https://dc.lft.to/lastmile_qr_scan"}, "fusion_lon": 0.0}, {"lat": 38.900527333333336, "is_disabled": 0, "type": "electric_scooter", "lon": -77.0506185, "bike_id": "b22e476176cab23056f14ebfba533d96", "fusion_lat": 0.0, "name": "b22e476176cab23056f14ebfba533d96", "is_reserved": 0, "rental_uris": {"android": "https://dc.lft.to/lastmile_qr_scan", "ios": "https://dc.lft.to/lastmile_qr_scan"}, "fusion_lon": 0.0}, {"lat": 38.8369165, "is_disabled": 0, "type": "electric_scooter", "lon": -77.10304983333333, "bike_id": "12e0a12600badb81b0c185b79b954a7c", "fusion_lat": 0.0, "name": "12e0a12600badb81b0c185b79b954a7c", "is_reserved": 0, "rental_uris": {"android": "https://dc.lft.to/lastmile_qr_scan", "ios": "https://dc.lft.to/lastmile_qr_scan"}, "fusion_lon": 0.0}, {"lat": 38.904190166666666, "is_disabled": 0, "type": "electric_scooter", "lon": -77.06887616666667, "bike_id": "cf1082ea386b7a017543c955680d0911", "fusion_lat": 0.0, "name": "cf1082ea386b7a017543c955680d0911", "is_reserved": 0, "rental_uris": {"android": "https://dc.lft.to/lastmile_qr_scan", "ios": "https://dc.lft.to/lastmile_qr_scan"}, "fusion_lon": 0.0}, {"lat": 38.88741016666667, "is_disabled": 0, "type": "electric_scooter", "lon": -77.015309, "bike_id": "e19fb0ed1225c0362754ba8340ca6fd6", "fusion_lat": 0.0, "name": "e19fb0ed1225c0362754ba8340ca6fd6", "is_reserved": 0, "rental_uris": {"android": "https://dc.lft.to/lastmile_qr_scan", "ios": "https://dc.lft.to/lastmile_qr_scan"}, "fusion_lon": 0.0}, {"lat": 38.91291366666667, "is_disabled": 0, "type": "electric_scooter", "lon": -77.02383966666666, "bike_id": "4a97975df5c7ae55e6789389165bf67e", "fusion_lat": 0.0, "name": "4a97975df5c7ae55e6789389165bf67e", "is_reserved": 0, "rental_uris": {"android": "https://dc.lft.to/lastmile_qr_scan", "ios": "https://dc.lft.to/lastmile_qr_scan"}, "fusion_lon": 0.0}, {"lat": 38.88659366666667, "is_disabled": 0, "type": "electric_bike", "lon": -77.16231366666666, "bike_id": "1a14256be39d86395e428a65e5275b63", "fusion_lat": 0.0, "name": "1a14256be39d86395e428a65e5275b63", "is_reserved": 0, "rental_uris": {"android": "https://dc.lft.to/lastmile_qr_scan", "ios": "https://dc.lft.to/lastmile_qr_scan"}, "fusion_lon": 0.0}, {"lat": 38.91137483333333, "is_disabled": 0, "type": "electric_scooter", "lon": -77.02688233333333, "bike_id": "e3b6937e69cbd2a77154738e81d39466", "fusion_lat": 0.0, "name": "e3b6937e69cbd2a77154738e81d39466", "is_reserved": 0, "rental_uris": {"android": "https://dc.lft.to/lastmile_qr_scan", "ios": "https://dc.lft.to/lastmile_qr_scan"}, "fusion_lon": 0.0}, {"lat": 38.915407333333334, "is_disabled": 0, "type": "electric_scooter", "lon": -77.0379595, "bike_id": "a060ec2fe83ff7153b4f5637a734b50a", "fusion_lat": 0.0, "name": "a060ec2fe83ff7153b4f5637a734b50a", "is_reserved": 0, "rental_uris": {"android": "https://dc.lft.to/lastmile_qr_scan", "ios": "https://dc.lft.to/lastmile_qr_scan"}, "fusion_lon": 0.0}, {"lat": 38.924024833333334, "is_disabled": 0, "type": "electric_scooter", "lon": -77.03540933333333, "bike_id": "ac1169d8f7400495a736c6dd76b5d50c", "fusion_lat": 0.0, "name": "ac1169d8f7400495a736c6dd76b5d50c", "is_reserved": 0, "rental_uris": {"android": "https://dc.lft.to/lastmile_qr_scan", "ios": "https://dc.lft.to/lastmile_qr_scan"}, "fusion_lon": 0.0}, {"lat": 38.93885216666666, "is_disabled": 0, "type": "electric_scooter", "lon": -77.032805, "bike_id": "1ca11686cb59c66478555f4775b68862", "fusion_lat": 0.0, "name": "1ca11686cb59c66478555f4775b68862", "is_reserved": 0, "rental_uris": {"android": "https://dc.lft.to/lastmile_qr_scan", "ios": "https://dc.lft.to/lastmile_qr_scan"}, "fusion_lon": 0.0}, {"lat": 38.90113266666667, "is_disabled": 0, "type": "electric_scooter", "lon": -76.99552816666667, "bike_id": "67f69a7ffe3bf870ae4acd54ff8ca631", "fusion_lat": 0.0, "name": "67f69a7ffe3bf870ae4acd54ff8ca631", "is_reserved": 0, "rental_uris": {"android": "https://dc.lft.to/lastmile_qr_scan", "ios": "https://dc.lft.to/lastmile_qr_scan"}, "fusion_lon": 0.0}, {"lat": 38.9006045, "is_disabled": 0, "type": "electric_scooter", "lon": -77.00203966666666, "bike_id": "b0a219b57b9745974c97ed1bf8c4eaed", "fusion_lat": 0.0, "name": "b0a219b57b9745974c97ed1bf8c4eaed", "is_reserved": 0, "rental_uris": {"android": "https://dc.lft.to/lastmile_qr_scan", "ios": "https://dc.lft.to/lastmile_qr_scan"}, "fusion_lon": 0.0}, {"lat": 38.91889466666667, "is_disabled": 0, "type": "electric_scooter", "lon": -77.03907133333334, "bike_id": "79fd9b470a6a4c6cdff860b7c5b91c1a", "fusion_lat": 0.0, "name": "79fd9b470a6a4c6cdff860b7c5b91c1a", "is_reserved": 0, "rental_uris": {"android": "https://dc.lft.to/lastmile_qr_scan", "ios": "https://dc.lft.to/lastmile_qr_scan"}, "fusion_lon": 0.0}, {"lat": 38.904552333333335, "is_disabled": 0, "type": "electric_scooter", "lon": -76.994574, "bike_id": "3adfa9cdef50baae911d5c2138cadfb5", "fusion_lat": 0.0, "name": "3adfa9cdef50baae911d5c2138cadfb5", "is_reserved": 0, "rental_uris": {"android": "https://dc.lft.to/lastmile_qr_scan", "ios": "https://dc.lft.to/lastmile_qr_scan"}, "fusion_lon": 0.0}, {"lat": 38.916046333333334, "is_disabled": 0, "type": "electric_scooter", "lon": -77.03851583333334, "bike_id": "88e4e17c29c2d1005f50d2012d400077", "fusion_lat": 0.0, "name": "88e4e17c29c2d1005f50d2012d400077", "is_reserved": 0, "rental_uris": {"android": "https://dc.lft.to/lastmile_qr_scan", "ios": "https://dc.lft.to/lastmile_qr_scan"}, "fusion_lon": 0.0}, {"lat": 38.917259, "is_disabled": 0, "type": "electric_scooter", "lon": -77.02295216666667, "bike_id": "a809e877963fa17f8f9fc051d2bef49d", "fusion_lat": 0.0, "name": "a809e877963fa17f8f9fc051d2bef49d", "is_reserved": 0, "rental_uris": {"android": "https://dc.lft.to/lastmile_qr_scan", "ios": "https://dc.lft.to/lastmile_qr_scan"}, "fusion_lon": 0.0}, {"lat": 38.9047445, "is_disabled": 0, "type": "electric_scooter", "lon": -77.04070733333333, "bike_id": "adbf17bbe69d81bf5fabdab167149c3e", "fusion_lat": 0.0, "name": "adbf17bbe69d81bf5fabdab167149c3e", "is_reserved": 0, "rental_uris": {"android": "https://dc.lft.to/lastmile_qr_scan", "ios": "https://dc.lft.to/lastmile_qr_scan"}, "fusion_lon": 0.0}, {"lat": 38.920644, "is_disabled": 0, "type": "electric_scooter", "lon": -77.03186433333333, "bike_id": "b8000bad1e4462c54f6ba7c2035462be", "fusion_lat": 0.0, "name": "b8000bad1e4462c54f6ba7c2035462be", "is_reserved": 0, "rental_uris": {"android": "https://dc.lft.to/lastmile_qr_scan", "ios": "https://dc.lft.to/lastmile_qr_scan"}, "fusion_lon": 0.0}, {"lat": 38.930641, "is_disabled": 0, "type": "electric_scooter", "lon": -77.04018783333333, "bike_id": "4c5e8c2956eb91c662ed5c2807937068", "fusion_lat": 0.0, "name": "4c5e8c2956eb91c662ed5c2807937068", "is_reserved": 0, "rental_uris": {"android": "https://dc.lft.to/lastmile_qr_scan", "ios": "https://dc.lft.to/lastmile_qr_scan"}, "fusion_lon": 0.0}, {"lat": 38.85924766666667, "is_disabled": 0, "type": "electric_scooter", "lon": -76.98978966666667, "bike_id": "4124ed02a66436be8a66d47526caa91d", "fusion_lat": 0.0, "name": "4124ed02a66436be8a66d47526caa91d", "is_reserved": 0, "rental_uris": {"android": "https://dc.lft.to/lastmile_qr_scan", "ios": "https://dc.lft.to/lastmile_qr_scan"}, "fusion_lon": 0.0}, {"lat": 38.92314366666667, "is_disabled": 0, "type": "electric_scooter", "lon": -77.03968016666667, "bike_id": "3d17ae6c55b69412cc52f6679e510038", "fusion_lat": 0.0, "name": "3d17ae6c55b69412cc52f6679e510038", "is_reserved": 0, "rental_uris": {"android": "https://dc.lft.to/lastmile_qr_scan", "ios": "https://dc.lft.to/lastmile_qr_scan"}, "fusion_lon": 0.0}, {"lat": 38.90533516666667, "is_disabled": 0, "type": "electric_scooter", "lon": -77.05713433333334, "bike_id": "4ba9f6625ae887ee7f7ecb32988d938c", "fusion_lat": 0.0, "name": "4ba9f6625ae887ee7f7ecb32988d938c", "is_reserved": 0, "rental_uris": {"android": "https://dc.lft.to/lastmile_qr_scan", "ios": "https://dc.lft.to/lastmile_qr_scan"}, "fusion_lon": 0.0}, {"lat": 38.90108166666667, "is_disabled": 0, "type": "electric_scooter", "lon": -76.996166, "bike_id": "95d495203ba411870c52df966648f5e9", "fusion_lat": 0.0, "name": "95d495203ba411870c52df966648f5e9", "is_reserved": 0, "rental_uris": {"android": "https://dc.lft.to/lastmile_qr_scan", "ios": "https://dc.lft.to/lastmile_qr_scan"}, "fusion_lon": 0.0}, {"lat": 38.92747766666667, "is_disabled": 0, "type": "electric_scooter", "lon": -77.02413016666667, "bike_id": "9539aac00a8b6b65a64f1f84794765d0", "fusion_lat": 0.0, "name": "9539aac00a8b6b65a64f1f84794765d0", "is_reserved": 0, "rental_uris": {"android": "https://dc.lft.to/lastmile_qr_scan", "ios": "https://dc.lft.to/lastmile_qr_scan"}, "fusion_lon": 0.0}, {"lat": 38.905331833333335, "is_disabled": 0, "type": "electric_scooter", "lon": -77.0515805, "bike_id": "cff017bed2c1e120fcb45275547ade11", "fusion_lat": 0.0, "name": "cff017bed2c1e120fcb45275547ade11", "is_reserved": 0, "rental_uris": {"android": "https://dc.lft.to/lastmile_qr_scan", "ios": "https://dc.lft.to/lastmile_qr_scan"}, "fusion_lon": 0.0}, {"lat": 38.897343666666664, "is_disabled": 0, "type": "electric_scooter", "lon": -77.04908016666667, "bike_id": "c6d684643cf81d9e3d270839bf630d02", "fusion_lat": 0.0, "name": "c6d684643cf81d9e3d270839bf630d02", "is_reserved": 0, "rental_uris": {"android": "https://dc.lft.to/lastmile_qr_scan", "ios": "https://dc.lft.to/lastmile_qr_scan"}, "fusion_lon": 0.0}, {"lat": 38.92182666666667, "is_disabled": 0, "type": "electric_scooter", "lon": -77.047082, "bike_id": "4a70e8c3f345c03f58620ae2fc469a01", "fusion_lat": 0.0, "name": "4a70e8c3f345c03f58620ae2fc469a01", "is_reserved": 0, "rental_uris": {"android": "https://dc.lft.to/lastmile_qr_scan", "ios": "https://dc.lft.to/lastmile_qr_scan"}, "fusion_lon": 0.0}, {"lat": 38.914118, "is_disabled": 0, "type": "electric_scooter", "lon": -77.013301, "bike_id": "3351c150e4aadb857da5cea3ab6c8889", "fusion_lat": 0.0, "name": "3351c150e4aadb857da5cea3ab6c8889", "is_reserved": 0, "rental_uris": {"android": "https://dc.lft.to/lastmile_qr_scan", "ios": "https://dc.lft.to/lastmile_qr_scan"}, "fusion_lon": 0.0}, {"lat": 38.94791433333333, "is_disabled": 0, "type": "electric_scooter", "lon": -77.02168316666666, "bike_id": "819651855e462d9bf6186534c4a1db27", "fusion_lat": 0.0, "name": "819651855e462d9bf6186534c4a1db27", "is_reserved": 0, "rental_uris": {"android": "https://dc.lft.to/lastmile_qr_scan", "ios": "https://dc.lft.to/lastmile_qr_scan"}, "fusion_lon": 0.0}, {"lat": 38.92612583333333, "is_disabled": 0, "type": "electric_scooter", "lon": -77.05694766666667, "bike_id": "24e03ab298e0590dfd1f2e711659a38a", "fusion_lat": 0.0, "name": "24e03ab298e0590dfd1f2e711659a38a", "is_reserved": 0, "rental_uris": {"android": "https://dc.lft.to/lastmile_qr_scan", "ios": "https://dc.lft.to/lastmile_qr_scan"}, "fusion_lon": 0.0}, {"lat": 38.93741216666667, "is_disabled": 0, "type": "electric_scooter", "lon": -77.03474483333333, "bike_id": "104c284c6565dfcf02294197c0567db1", "fusion_lat": 0.0, "name": "104c284c6565dfcf02294197c0567db1", "is_reserved": 0, "rental_uris": {"android": "https://dc.lft.to/lastmile_qr_scan", "ios": "https://dc.lft.to/lastmile_qr_scan"}, "fusion_lon": 0.0}, {"lat": 38.885789333333335, "is_disabled": 0, "type": "electric_scooter", "lon": -76.91908, "bike_id": "4fb18f64f49918bbb4e1cd9b2c445f9c", "fusion_lat": 0.0, "name": "4fb18f64f49918bbb4e1cd9b2c445f9c", "is_reserved": 0, "rental_uris": {"android": "https://dc.lft.to/lastmile_qr_scan", "ios": "https://dc.lft.to/lastmile_qr_scan"}, "fusion_lon": 0.0}, {"lat": 38.916480666666665, "is_disabled": 0, "type": "electric_scooter", "lon": -77.02177633333334, "bike_id": "e45695821d843b7fbbce7cc0ee99d3b7", "fusion_lat": 0.0, "name": "e45695821d843b7fbbce7cc0ee99d3b7", "is_reserved": 0, "rental_uris": {"android": "https://dc.lft.to/lastmile_qr_scan", "ios": "https://dc.lft.to/lastmile_qr_scan"}, "fusion_lon": 0.0}, {"lat": 38.888843, "is_disabled": 0, "type": "electric_scooter", "lon": -76.93152916666666, "bike_id": "bb1cec8f935b8e864c6718f161c1d365", "fusion_lat": 0.0, "name": "bb1cec8f935b8e864c6718f161c1d365", "is_reserved": 0, "rental_uris": {"android": "https://dc.lft.to/lastmile_qr_scan", "ios": "https://dc.lft.to/lastmile_qr_scan"}, "fusion_lon": 0.0}, {"lat": 38.887357333333334, "is_disabled": 0, "type": "electric_scooter", "lon": -77.01526716666666, "bike_id": "fe6272ddafe13f91076a1b543d03c2ee", "fusion_lat": 0.0, "name": "fe6272ddafe13f91076a1b543d03c2ee", "is_reserved": 0, "rental_uris": {"android": "https://dc.lft.to/lastmile_qr_scan", "ios": "https://dc.lft.to/lastmile_qr_scan"}, "fusion_lon": 0.0}, {"lat": 38.88410416666667, "is_disabled": 0, "type": "electric_bike", "lon": -76.95405666666667, "bike_id": "c60b911ba014f8a61c5bc72a5be67fa7", "fusion_lat": 0.0, "name": "c60b911ba014f8a61c5bc72a5be67fa7", "is_reserved": 0, "rental_uris": {"android": "https://dc.lft.to/lastmile_qr_scan", "ios": "https://dc.lft.to/lastmile_qr_scan"}, "fusion_lon": 0.0}, {"lat": 38.911919166666664, "is_disabled": 0, "type": "electric_scooter", "lon": -77.0429275, "bike_id": "67d24551a5e237cbdb98ea4299067007", "fusion_lat": 0.0, "name": "67d24551a5e237cbdb98ea4299067007", "is_reserved": 0, "rental_uris": {"android": "https://dc.lft.to/lastmile_qr_scan", "ios": "https://dc.lft.to/lastmile_qr_scan"}, "fusion_lon": 0.0}, {"lat": 38.9197025, "is_disabled": 0, "type": "electric_scooter", "lon": -77.01213083333333, "bike_id": "b30bcb5b0a0bc872fac6ddd2136a90c9", "fusion_lat": 0.0, "name": "b30bcb5b0a0bc872fac6ddd2136a90c9", "is_reserved": 0, "rental_uris": {"android": "https://dc.lft.to/lastmile_qr_scan", "ios": "https://dc.lft.to/lastmile_qr_scan"}, "fusion_lon": 0.0}, {"lat": 38.91168833333333, "is_disabled": 0, "type": "electric_scooter", "lon": -77.046647, "bike_id": "e10e4bdc3c74cf30b03b5292c92979dc", "fusion_lat": 0.0, "name": "e10e4bdc3c74cf30b03b5292c92979dc", "is_reserved": 0, "rental_uris": {"android": "https://dc.lft.to/lastmile_qr_scan", "ios": "https://dc.lft.to/lastmile_qr_scan"}, "fusion_lon": 0.0}, {"lat": 38.89816783333333, "is_disabled": 0, "type": "electric_scooter", "lon": -77.031017, "bike_id": "504815ad1251bf30cc6980a0914fa3bf", "fusion_lat": 0.0, "name": "504815ad1251bf30cc6980a0914fa3bf", "is_reserved": 0, "rental_uris": {"android": "https://dc.lft.to/lastmile_qr_scan", "ios": "https://dc.lft.to/lastmile_qr_scan"}, "fusion_lon": 0.0}, {"lat": 38.9556055, "is_disabled": 0, "type": "electric_scooter", "lon": -77.02231716666667, "bike_id": "ba784faeebb03647038fdd81a861a910", "fusion_lat": 0.0, "name": "ba784faeebb03647038fdd81a861a910", "is_reserved": 0, "rental_uris": {"android": "https://dc.lft.to/lastmile_qr_scan", "ios": "https://dc.lft.to/lastmile_qr_scan"}, "fusion_lon": 0.0}, {"lat": 39.0563585, "is_disabled": 0, "type": "electric_bike", "lon": -77.12526933333334, "bike_id": "e5a4c1e31d4b15fba885dc212276f1a8", "fusion_lat": 0.0, "name": "e5a4c1e31d4b15fba885dc212276f1a8", "is_reserved": 0, "rental_uris": {"android": "https://dc.lft.to/lastmile_qr_scan", "ios": "https://dc.lft.to/lastmile_qr_scan"}, "fusion_lon": 0.0}, {"lat": 38.902731, "is_disabled": 0, "type": "electric_scooter", "lon": -77.043821, "bike_id": "e2197a7b74eb5adae32ad65d33349df4", "fusion_lat": 0.0, "name": "e2197a7b74eb5adae32ad65d33349df4", "is_reserved": 0, "rental_uris": {"android": "https://dc.lft.to/lastmile_qr_scan", "ios": "https://dc.lft.to/lastmile_qr_scan"}, "fusion_lon": 0.0}, {"lat": 38.89040166666667, "is_disabled": 0, "type": "electric_scooter", "lon": -76.95244583333333, "bike_id": "f0266e3ae53241ccf7830e20b10a73dd", "fusion_lat": 0.0, "name": "f0266e3ae53241ccf7830e20b10a73dd", "is_reserved": 0, "rental_uris": {"android": "https://dc.lft.to/lastmile_qr_scan", "ios": "https://dc.lft.to/lastmile_qr_scan"}, "fusion_lon": 0.0}, {"lat": 38.932102666666665, "is_disabled": 0, "type": "electric_scooter", "lon": -77.02244783333333, "bike_id": "86defbcded9d830b8a1c19ccc5f89600", "fusion_lat": 0.0, "name": "86defbcded9d830b8a1c19ccc5f89600", "is_reserved": 0, "rental_uris": {"android": "https://dc.lft.to/lastmile_qr_scan", "ios": "https://dc.lft.to/lastmile_qr_scan"}, "fusion_lon": 0.0}, {"lat": 38.911217, "is_disabled": 0, "type": "electric_scooter", "lon": -77.03834016666667, "bike_id": "800fc019d9a5f15d4409c33144ab37e7", "fusion_lat": 0.0, "name": "800fc019d9a5f15d4409c33144ab37e7", "is_reserved": 0, "rental_uris": {"android": "https://dc.lft.to/lastmile_qr_scan", "ios": "https://dc.lft.to/lastmile_qr_scan"}, "fusion_lon": 0.0}, {"lat": 38.89398966666667, "is_disabled": 0, "type": "electric_scooter", "lon": -77.049958, "bike_id": "c7cbcb85a9e0f3315631d994e87fd645", "fusion_lat": 0.0, "name": "c7cbcb85a9e0f3315631d994e87fd645", "is_reserved": 0, "rental_uris": {"android": "https://dc.lft.to/lastmile_qr_scan", "ios": "https://dc.lft.to/lastmile_qr_scan"}, "fusion_lon": 0.0}, {"lat": 38.90063116666666, "is_disabled": 0, "type": "electric_scooter", "lon": -77.00205016666666, "bike_id": "7d1314be7bbab14856048eefb12e8a0f", "fusion_lat": 0.0, "name": "7d1314be7bbab14856048eefb12e8a0f", "is_reserved": 0, "rental_uris": {"android": "https://dc.lft.to/lastmile_qr_scan", "ios": "https://dc.lft.to/lastmile_qr_scan"}, "fusion_lon": 0.0}, {"lat": 39.0047935, "is_disabled": 0, "type": "electric_bike", "lon": -76.90128483333334, "bike_id": "dfd5ae27b03c245ef17ad258e059068e", "fusion_lat": 0.0, "name": "dfd5ae27b03c245ef17ad258e059068e", "is_reserved": 0, "rental_uris": {"android": "https://dc.lft.to/lastmile_qr_scan", "ios": "https://dc.lft.to/lastmile_qr_scan"}, "fusion_lon": 0.0}, {"lat": 38.90944966666667, "is_disabled": 0, "type": "electric_scooter", "lon": -77.03369966666666, "bike_id": "d4d7c47c819adb030d7a007417a14e8a", "fusion_lat": 0.0, "name": "d4d7c47c819adb030d7a007417a14e8a", "is_reserved": 0, "rental_uris": {"android": "https://dc.lft.to/lastmile_qr_scan", "ios": "https://dc.lft.to/lastmile_qr_scan"}, "fusion_lon": 0.0}, {"lat": 38.9154555, "is_disabled": 0, "type": "electric_scooter", "lon": -77.03443883333334, "bike_id": "08d930edd3a4232722040a6d1e3a1c4e", "fusion_lat": 0.0, "name": "08d930edd3a4232722040a6d1e3a1c4e", "is_reserved": 0, "rental_uris": {"android": "https://dc.lft.to/lastmile_qr_scan", "ios": "https://dc.lft.to/lastmile_qr_scan"}, "fusion_lon": 0.0}, {"lat": 38.932817166666666, "is_disabled": 0, "type": "electric_scooter", "lon": -77.03258066666666, "bike_id": "0ac41c7b3d93844ec6e1b656686848a4", "fusion_lat": 0.0, "name": "0ac41c7b3d93844ec6e1b656686848a4", "is_reserved": 0, "rental_uris": {"android": "https://dc.lft.to/lastmile_qr_scan", "ios": "https://dc.lft.to/lastmile_qr_scan"}, "fusion_lon": 0.0}, {"lat": 38.91037933333333, "is_disabled": 0, "type": "electric_scooter", "lon": -77.03535483333333, "bike_id": "1fdf6c903195a950c33088094dc36389", "fusion_lat": 0.0, "name": "1fdf6c903195a950c33088094dc36389", "is_reserved": 0, "rental_uris": {"android": "https://dc.lft.to/lastmile_qr_scan", "ios": "https://dc.lft.to/lastmile_qr_scan"}, "fusion_lon": 0.0}, {"lat": 38.930212, "is_disabled": 0, "type": "electric_scooter", "lon": -77.04449, "bike_id": "b41edfaa2ad9688e6642004865f38ca4", "fusion_lat": 0.0, "name": "b41edfaa2ad9688e6642004865f38ca4", "is_reserved": 0, "rental_uris": {"android": "https://dc.lft.to/lastmile_qr_scan", "ios": "https://dc.lft.to/lastmile_qr_scan"}, "fusion_lon": 0.0}, {"lat": 38.923226, "is_disabled": 0, "type": "electric_scooter", "lon": -77.0280185, "bike_id": "56e728133df70f885626e0949039b8da", "fusion_lat": 0.0, "name": "56e728133df70f885626e0949039b8da", "is_reserved": 0, "rental_uris": {"android": "https://dc.lft.to/lastmile_qr_scan", "ios": "https://dc.lft.to/lastmile_qr_scan"}, "fusion_lon": 0.0}, {"lat": 38.82875283333333, "is_disabled": 0, "type": "electric_bike", "lon": -77.11218733333334, "bike_id": "fe9bd133d9f829b0278dc8de56c6b921", "fusion_lat": 0.0, "name": "fe9bd133d9f829b0278dc8de56c6b921", "is_reserved": 0, "rental_uris": {"android": "https://dc.lft.to/lastmile_qr_scan", "ios": "https://dc.lft.to/lastmile_qr_scan"}, "fusion_lon": 0.0}, {"lat": 38.909908, "is_disabled": 0, "type": "electric_scooter", "lon": -76.99737033333334, "bike_id": "2cf3a10cd1ce1f574c860bf98bfa67b9", "fusion_lat": 0.0, "name": "2cf3a10cd1ce1f574c860bf98bfa67b9", "is_reserved": 0, "rental_uris": {"android": "https://dc.lft.to/lastmile_qr_scan", "ios": "https://dc.lft.to/lastmile_qr_scan"}, "fusion_lon": 0.0}, {"lat": 38.917444333333336, "is_disabled": 0, "type": "electric_scooter", "lon": -77.03181933333333, "bike_id": "a20bdbebcbffe948af7cb5c68f440234", "fusion_lat": 0.0, "name": "a20bdbebcbffe948af7cb5c68f440234", "is_reserved": 0, "rental_uris": {"android": "https://dc.lft.to/lastmile_qr_scan", "ios": "https://dc.lft.to/lastmile_qr_scan"}, "fusion_lon": 0.0}, {"lat": 38.9178975, "is_disabled": 0, "type": "electric_bike", "lon": -76.97186333333333, "bike_id": "36675e09b8c1143b653ec61cad5b7809", "fusion_lat": 0.0, "name": "36675e09b8c1143b653ec61cad5b7809", "is_reserved": 0, "rental_uris": {"android": "https://dc.lft.to/lastmile_qr_scan", "ios": "https://dc.lft.to/lastmile_qr_scan"}, "fusion_lon": 0.0}, {"lat": 38.91706716666667, "is_disabled": 0, "type": "electric_scooter", "lon": -77.03216233333333, "bike_id": "75cbb9d28a2ffffa1dbaa787781da5c1", "fusion_lat": 0.0, "name": "75cbb9d28a2ffffa1dbaa787781da5c1", "is_reserved": 0, "rental_uris": {"android": "https://dc.lft.to/lastmile_qr_scan", "ios": "https://dc.lft.to/lastmile_qr_scan"}, "fusion_lon": 0.0}, {"lat": 38.8670315, "is_disabled": 0, "type": "electric_scooter", "lon": -76.98707333333333, "bike_id": "a49c7f18fe42d3a3268146bcc0806f40", "fusion_lat": 0.0, "name": "a49c7f18fe42d3a3268146bcc0806f40", "is_reserved": 0, "rental_uris": {"android": "https://dc.lft.to/lastmile_qr_scan", "ios": "https://dc.lft.to/lastmile_qr_scan"}, "fusion_lon": 0.0}, {"lat": 38.905617166666666, "is_disabled": 0, "type": "electric_scooter", "lon": -77.01768966666667, "bike_id": "95af6d59bfa485633ce416c39d4ce30e", "fusion_lat": 0.0, "name": "95af6d59bfa485633ce416c39d4ce30e", "is_reserved": 0, "rental_uris": {"android": "https://dc.lft.to/lastmile_qr_scan", "ios": "https://dc.lft.to/lastmile_qr_scan"}, "fusion_lon": 0.0}, {"lat": 38.90676066666666, "is_disabled": 0, "type": "electric_scooter", "lon": -77.0271805, "bike_id": "93c260df8db7e33ca74bfa4ba58fcd11", "fusion_lat": 0.0, "name": "93c260df8db7e33ca74bfa4ba58fcd11", "is_reserved": 0, "rental_uris": {"android": "https://dc.lft.to/lastmile_qr_scan", "ios": "https://dc.lft.to/lastmile_qr_scan"}, "fusion_lon": 0.0}, {"lat": 38.90052083333333, "is_disabled": 0, "type": "electric_scooter", "lon": -76.99711966666666, "bike_id": "26df4eca095403de8bd330ce0ec0bc92", "fusion_lat": 0.0, "name": "26df4eca095403de8bd330ce0ec0bc92", "is_reserved": 0, "rental_uris": {"android": "https://dc.lft.to/lastmile_qr_scan", "ios": "https://dc.lft.to/lastmile_qr_scan"}, "fusion_lon": 0.0}, {"lat": 38.8852545, "is_disabled": 0, "type": "electric_scooter", "lon": -77.01132916666667, "bike_id": "94bac41292f703fd6415ca507342809f", "fusion_lat": 0.0, "name": "94bac41292f703fd6415ca507342809f", "is_reserved": 0, "rental_uris": {"android": "https://dc.lft.to/lastmile_qr_scan", "ios": "https://dc.lft.to/lastmile_qr_scan"}, "fusion_lon": 0.0}, {"lat": 38.861701333333336, "is_disabled": 0, "type": "electric_bike", "lon": -77.13141716666667, "bike_id": "ba0969ae597f416b03bbb6e78b2bb554", "fusion_lat": 0.0, "name": "ba0969ae597f416b03bbb6e78b2bb554", "is_reserved": 0, "rental_uris": {"android": "https://dc.lft.to/lastmile_qr_scan", "ios": "https://dc.lft.to/lastmile_qr_scan"}, "fusion_lon": 0.0}, {"lat": 38.906023833333336, "is_disabled": 0, "type": "electric_scooter", "lon": -77.0634545, "bike_id": "21e2f1631e9c5036f1549043262ff765", "fusion_lat": 0.0, "name": "21e2f1631e9c5036f1549043262ff765", "is_reserved": 0, "rental_uris": {"android": "https://dc.lft.to/lastmile_qr_scan", "ios": "https://dc.lft.to/lastmile_qr_scan"}, "fusion_lon": 0.0}, {"lat": 38.992551666666664, "is_disabled": 0, "type": "electric_scooter", "lon": -77.03652833333334, "bike_id": "a1b6fbe5ef4c6232a6041dbfdeb64935", "fusion_lat": 0.0, "name": "a1b6fbe5ef4c6232a6041dbfdeb64935", "is_reserved": 0, "rental_uris": {"android": "https://dc.lft.to/lastmile_qr_scan", "ios": "https://dc.lft.to/lastmile_qr_scan"}, "fusion_lon": 0.0}, {"lat": 38.85713633333334, "is_disabled": 0, "type": "electric_scooter", "lon": -76.98673916666667, "bike_id": "971bd2eb5ce721229e753abd38fb405a", "fusion_lat": 0.0, "name": "971bd2eb5ce721229e753abd38fb405a", "is_reserved": 0, "rental_uris": {"android": "https://dc.lft.to/lastmile_qr_scan", "ios": "https://dc.lft.to/lastmile_qr_scan"}, "fusion_lon": 0.0}, {"lat": 38.925891, "is_disabled": 0, "type": "electric_scooter", "lon": -77.04406066666667, "bike_id": "801380a319f331c030f3bf79c021bd06", "fusion_lat": 0.0, "name": "801380a319f331c030f3bf79c021bd06", "is_reserved": 0, "rental_uris": {"android": "https://dc.lft.to/lastmile_qr_scan", "ios": "https://dc.lft.to/lastmile_qr_scan"}, "fusion_lon": 0.0}, {"lat": 38.917226666666664, "is_disabled": 0, "type": "electric_scooter", "lon": -77.02294883333333, "bike_id": "dfe777fbf4988c25a86d8e0f065bd26f", "fusion_lat": 0.0, "name": "dfe777fbf4988c25a86d8e0f065bd26f", "is_reserved": 0, "rental_uris": {"android": "https://dc.lft.to/lastmile_qr_scan", "ios": "https://dc.lft.to/lastmile_qr_scan"}, "fusion_lon": 0.0}, {"lat": 38.89351666666666, "is_disabled": 0, "type": "electric_scooter", "lon": -77.04140216666667, "bike_id": "8502de6f44dd4a21ce2a3b50de671175", "fusion_lat": 0.0, "name": "8502de6f44dd4a21ce2a3b50de671175", "is_reserved": 0, "rental_uris": {"android": "https://dc.lft.to/lastmile_qr_scan", "ios": "https://dc.lft.to/lastmile_qr_scan"}, "fusion_lon": 0.0}, {"lat": 38.89071066666666, "is_disabled": 0, "type": "electric_scooter", "lon": -76.988349, "bike_id": "340eabea793a19043c35425dce974f21", "fusion_lat": 0.0, "name": "340eabea793a19043c35425dce974f21", "is_reserved": 0, "rental_uris": {"android": "https://dc.lft.to/lastmile_qr_scan", "ios": "https://dc.lft.to/lastmile_qr_scan"}, "fusion_lon": 0.0}, {"lat": 38.93739466666667, "is_disabled": 0, "type": "electric_scooter", "lon": -77.03622383333334, "bike_id": "4356cfd738500fd867c6fa0e24c52e97", "fusion_lat": 0.0, "name": "4356cfd738500fd867c6fa0e24c52e97", "is_reserved": 0, "rental_uris": {"android": "https://dc.lft.to/lastmile_qr_scan", "ios": "https://dc.lft.to/lastmile_qr_scan"}, "fusion_lon": 0.0}, {"lat": 38.851865333333336, "is_disabled": 0, "type": "electric_scooter", "lon": -76.97617766666667, "bike_id": "19f37fe85030f1ff5f579894db7518cf", "fusion_lat": 0.0, "name": "19f37fe85030f1ff5f579894db7518cf", "is_reserved": 0, "rental_uris": {"android": "https://dc.lft.to/lastmile_qr_scan", "ios": "https://dc.lft.to/lastmile_qr_scan"}, "fusion_lon": 0.0}, {"lat": 38.844341, "is_disabled": 0, "type": "electric_scooter", "lon": -76.9965435, "bike_id": "0621453ac8dbb9f197624a4c3adb178e", "fusion_lat": 0.0, "name": "0621453ac8dbb9f197624a4c3adb178e", "is_reserved": 0, "rental_uris": {"android": "https://dc.lft.to/lastmile_qr_scan", "ios": "https://dc.lft.to/lastmile_qr_scan"}, "fusion_lon": 0.0}, {"lat": 38.9455375, "is_disabled": 0, "type": "electric_bike", "lon": -76.8953655, "bike_id": "3776c660a2a69e889610d44a04b9895a", "fusion_lat": 0.0, "name": "3776c660a2a69e889610d44a04b9895a", "is_reserved": 0, "rental_uris": {"android": "https://dc.lft.to/lastmile_qr_scan", "ios": "https://dc.lft.to/lastmile_qr_scan"}, "fusion_lon": 0.0}, {"lat": 38.905324, "is_disabled": 0, "type": "electric_scooter", "lon": -77.05714833333333, "bike_id": "e56e981507ebc3106bfb31d429f9af58", "fusion_lat": 0.0, "name": "e56e981507ebc3106bfb31d429f9af58", "is_reserved": 0, "rental_uris": {"android": "https://dc.lft.to/lastmile_qr_scan", "ios": "https://dc.lft.to/lastmile_qr_scan"}, "fusion_lon": 0.0}, {"lat": 38.936542333333335, "is_disabled": 0, "type": "electric_bike", "lon": -76.95218183333333, "bike_id": "a383cff80872589c6fe16ff2c36e9bde", "fusion_lat": 0.0, "name": "a383cff80872589c6fe16ff2c36e9bde", "is_reserved": 0, "rental_uris": {"android": "https://dc.lft.to/lastmile_qr_scan", "ios": "https://dc.lft.to/lastmile_qr_scan"}, "fusion_lon": 0.0}, {"lat": 39.034201333333336, "is_disabled": 0, "type": "electric_bike", "lon": -77.04306566666666, "bike_id": "10b1e42f6a3619b7fda361a028ef6058", "fusion_lat": 0.0, "name": "10b1e42f6a3619b7fda361a028ef6058", "is_reserved": 0, "rental_uris": {"android": "https://dc.lft.to/lastmile_qr_scan", "ios": "https://dc.lft.to/lastmile_qr_scan"}, "fusion_lon": 0.0}, {"lat": 38.901302666666666, "is_disabled": 0, "type": "electric_scooter", "lon": -77.04357766666666, "bike_id": "cd315ab3f9617e872c23c1c2df416723", "fusion_lat": 0.0, "name": "cd315ab3f9617e872c23c1c2df416723", "is_reserved": 0, "rental_uris": {"android": "https://dc.lft.to/lastmile_qr_scan", "ios": "https://dc.lft.to/lastmile_qr_scan"}, "fusion_lon": 0.0}, {"lat": 38.9111495, "is_disabled": 0, "type": "electric_scooter", "lon": -77.04356366666667, "bike_id": "15d1f4cb8212e050877d6cc3a8abcca8", "fusion_lat": 0.0, "name": "15d1f4cb8212e050877d6cc3a8abcca8", "is_reserved": 0, "rental_uris": {"android": "https://dc.lft.to/lastmile_qr_scan", "ios": "https://dc.lft.to/lastmile_qr_scan"}, "fusion_lon": 0.0}, {"lat": 38.900668333333336, "is_disabled": 0, "type": "electric_scooter", "lon": -77.04892316666667, "bike_id": "c1c9f059cbb527ce120b6d77ef0fe4cd", "fusion_lat": 0.0, "name": "c1c9f059cbb527ce120b6d77ef0fe4cd", "is_reserved": 0, "rental_uris": {"android": "https://dc.lft.to/lastmile_qr_scan", "ios": "https://dc.lft.to/lastmile_qr_scan"}, "fusion_lon": 0.0}, {"lat": 38.914231, "is_disabled": 0, "type": "electric_scooter", "lon": -77.00503783333333, "bike_id": "cfbd11c25e4320724298b77b2421b785", "fusion_lat": 0.0, "name": "cfbd11c25e4320724298b77b2421b785", "is_reserved": 0, "rental_uris": {"android": "https://dc.lft.to/lastmile_qr_scan", "ios": "https://dc.lft.to/lastmile_qr_scan"}, "fusion_lon": 0.0}, {"lat": 38.928534166666665, "is_disabled": 0, "type": "electric_scooter", "lon": -77.03728116666667, "bike_id": "fd55a97c9b5a13f8e931e50a50c7ddc8", "fusion_lat": 0.0, "name": "fd55a97c9b5a13f8e931e50a50c7ddc8", "is_reserved": 0, "rental_uris": {"android": "https://dc.lft.to/lastmile_qr_scan", "ios": "https://dc.lft.to/lastmile_qr_scan"}, "fusion_lon": 0.0}, {"lat": 38.9021945, "is_disabled": 0, "type": "electric_scooter", "lon": -76.945901, "bike_id": "27cc348aa3236c403badde6f26f4b849", "fusion_lat": 0.0, "name": "27cc348aa3236c403badde6f26f4b849", "is_reserved": 0, "rental_uris": {"android": "https://dc.lft.to/lastmile_qr_scan", "ios": "https://dc.lft.to/lastmile_qr_scan"}, "fusion_lon": 0.0}, {"lat": 38.901410166666665, "is_disabled": 0, "type": "electric_scooter", "lon": -77.0399035, "bike_id": "f0205cb893cc35d49333f9c13c5fd078", "fusion_lat": 0.0, "name": "f0205cb893cc35d49333f9c13c5fd078", "is_reserved": 0, "rental_uris": {"android": "https://dc.lft.to/lastmile_qr_scan", "ios": "https://dc.lft.to/lastmile_qr_scan"}, "fusion_lon": 0.0}, {"lat": 38.9237305, "is_disabled": 0, "type": "electric_scooter", "lon": -77.05174983333333, "bike_id": "e38b6e49e534ab283c5ef52cf1691934", "fusion_lat": 0.0, "name": "e38b6e49e534ab283c5ef52cf1691934", "is_reserved": 0, "rental_uris": {"android": "https://dc.lft.to/lastmile_qr_scan", "ios": "https://dc.lft.to/lastmile_qr_scan"}, "fusion_lon": 0.0}, {"lat": 38.947191, "is_disabled": 0, "type": "electric_scooter", "lon": -77.02259383333333, "bike_id": "4c734a7504cc338488ac061b3d40019e", "fusion_lat": 0.0, "name": "4c734a7504cc338488ac061b3d40019e", "is_reserved": 0, "rental_uris": {"android": "https://dc.lft.to/lastmile_qr_scan", "ios": "https://dc.lft.to/lastmile_qr_scan"}, "fusion_lon": 0.0}, {"lat": 38.91959683333333, "is_disabled": 0, "type": "electric_bike", "lon": -76.97274116666667, "bike_id": "55e5116726abfa744d79c2c08baaac82", "fusion_lat": 0.0, "name": "55e5116726abfa744d79c2c08baaac82", "is_reserved": 0, "rental_uris": {"android": "https://dc.lft.to/lastmile_qr_scan", "ios": "https://dc.lft.to/lastmile_qr_scan"}, "fusion_lon": 0.0}, {"lat": 38.930124166666666, "is_disabled": 0, "type": "electric_bike", "lon": -77.21646183333333, "bike_id": "d812a39ef5e035ef2ff4b8bd8cab37e9", "fusion_lat": 0.0, "name": "d812a39ef5e035ef2ff4b8bd8cab37e9", "is_reserved": 0, "rental_uris": {"android": "https://dc.lft.to/lastmile_qr_scan", "ios": "https://dc.lft.to/lastmile_qr_scan"}, "fusion_lon": 0.0}, {"lat": 38.912049, "is_disabled": 0, "type": "electric_scooter", "lon": -77.02758733333333, "bike_id": "9bb82d2c0ccd825b2d3e22535f5d95d1", "fusion_lat": 0.0, "name": "9bb82d2c0ccd825b2d3e22535f5d95d1", "is_reserved": 0, "rental_uris": {"android": "https://dc.lft.to/lastmile_qr_scan", "ios": "https://dc.lft.to/lastmile_qr_scan"}, "fusion_lon": 0.0}, {"lat": 38.88470916666667, "is_disabled": 0, "type": "electric_scooter", "lon": -76.99275733333333, "bike_id": "4d7eb793a0800108f5b8ff986e11f4b5", "fusion_lat": 0.0, "name": "4d7eb793a0800108f5b8ff986e11f4b5", "is_reserved": 0, "rental_uris": {"android": "https://dc.lft.to/lastmile_qr_scan", "ios": "https://dc.lft.to/lastmile_qr_scan"}, "fusion_lon": 0.0}, {"lat": 38.9112585, "is_disabled": 0, "type": "electric_scooter", "lon": -77.04351166666666, "bike_id": "1313cb498f7c1670cc109c8c6cf09527", "fusion_lat": 0.0, "name": "1313cb498f7c1670cc109c8c6cf09527", "is_reserved": 0, "rental_uris": {"android": "https://dc.lft.to/lastmile_qr_scan", "ios": "https://dc.lft.to/lastmile_qr_scan"}, "fusion_lon": 0.0}, {"lat": 38.88489, "is_disabled": 0, "type": "electric_scooter", "lon": -77.0071355, "bike_id": "4c23f4532a1189cfba6d828df7190eac", "fusion_lat": 0.0, "name": "4c23f4532a1189cfba6d828df7190eac", "is_reserved": 0, "rental_uris": {"android": "https://dc.lft.to/lastmile_qr_scan", "ios": "https://dc.lft.to/lastmile_qr_scan"}, "fusion_lon": 0.0}, {"lat": 38.91542966666667, "is_disabled": 0, "type": "electric_scooter", "lon": -77.02199166666666, "bike_id": "b308cf3b7223eb7ab6330229da5c04c8", "fusion_lat": 0.0, "name": "b308cf3b7223eb7ab6330229da5c04c8", "is_reserved": 0, "rental_uris": {"android": "https://dc.lft.to/lastmile_qr_scan", "ios": "https://dc.lft.to/lastmile_qr_scan"}, "fusion_lon": 0.0}, {"lat": 38.929322166666665, "is_disabled": 0, "type": "electric_bike", "lon": -77.032608, "bike_id": "87f683fa8533010be9c25c2065429477", "fusion_lat": 0.0, "name": "87f683fa8533010be9c25c2065429477", "is_reserved": 0, "rental_uris": {"android": "https://dc.lft.to/lastmile_qr_scan", "ios": "https://dc.lft.to/lastmile_qr_scan"}, "fusion_lon": 0.0}, {"lat": 38.913895833333335, "is_disabled": 0, "type": "electric_scooter", "lon": -77.032058, "bike_id": "b50215b5f69ad5c5c050a7bd87335493", "fusion_lat": 0.0, "name": "b50215b5f69ad5c5c050a7bd87335493", "is_reserved": 0, "rental_uris": {"android": "https://dc.lft.to/lastmile_qr_scan", "ios": "https://dc.lft.to/lastmile_qr_scan"}, "fusion_lon": 0.0}, {"lat": 38.95326516666667, "is_disabled": 0, "type": "electric_scooter", "lon": -77.027532, "bike_id": "f2769e0fd6b87b3459ab31a8fb7bf8a3", "fusion_lat": 0.0, "name": "f2769e0fd6b87b3459ab31a8fb7bf8a3", "is_reserved": 0, "rental_uris": {"android": "https://dc.lft.to/lastmile_qr_scan", "ios": "https://dc.lft.to/lastmile_qr_scan"}, "fusion_lon": 0.0}, {"lat": 39.03695616666667, "is_disabled": 0, "type": "electric_bike", "lon": -77.05142766666667, "bike_id": "63757decb3c4796e126419f37713249b", "fusion_lat": 0.0, "name": "63757decb3c4796e126419f37713249b", "is_reserved": 0, "rental_uris": {"android": "https://dc.lft.to/lastmile_qr_scan", "ios": "https://dc.lft.to/lastmile_qr_scan"}, "fusion_lon": 0.0}, {"lat": 38.807511, "is_disabled": 0, "type": "electric_bike", "lon": -77.09449466666666, "bike_id": "603aa5d499d91a1e903c5ff58ea14816", "fusion_lat": 0.0, "name": "603aa5d499d91a1e903c5ff58ea14816", "is_reserved": 0, "rental_uris": {"android": "https://dc.lft.to/lastmile_qr_scan", "ios": "https://dc.lft.to/lastmile_qr_scan"}, "fusion_lon": 0.0}, {"lat": 38.88601716666667, "is_disabled": 0, "type": "electric_scooter", "lon": -76.992502, "bike_id": "a6e5286b67338107bc9f31a642107b7f", "fusion_lat": 0.0, "name": "a6e5286b67338107bc9f31a642107b7f", "is_reserved": 0, "rental_uris": {"android": "https://dc.lft.to/lastmile_qr_scan", "ios": "https://dc.lft.to/lastmile_qr_scan"}, "fusion_lon": 0.0}, {"lat": 38.90284066666667, "is_disabled": 0, "type": "electric_bike", "lon": -77.03230316666667, "bike_id": "2973456d1bee3316d8fdeaa18aeeab69", "fusion_lat": 0.0, "name": "2973456d1bee3316d8fdeaa18aeeab69", "is_reserved": 0, "rental_uris": {"android": "https://dc.lft.to/lastmile_qr_scan", "ios": "https://dc.lft.to/lastmile_qr_scan"}, "fusion_lon": 0.0}, {"lat": 38.924791166666665, "is_disabled": 0, "type": "electric_bike", "lon": -76.990386, "bike_id": "24da4cc72ee9a46fe7f5301fe30df75c", "fusion_lat": 0.0, "name": "24da4cc72ee9a46fe7f5301fe30df75c", "is_reserved": 0, "rental_uris": {"android": "https://dc.lft.to/lastmile_qr_scan", "ios": "https://dc.lft.to/lastmile_qr_scan"}, "fusion_lon": 0.0}, {"lat": 39.088525833333335, "is_disabled": 0, "type": "electric_bike", "lon": -77.17842116666667, "bike_id": "17e3a7f98553e66a5810cb8bc896a88b", "fusion_lat": 0.0, "name": "17e3a7f98553e66a5810cb8bc896a88b", "is_reserved": 0, "rental_uris": {"android": "https://dc.lft.to/lastmile_qr_scan", "ios": "https://dc.lft.to/lastmile_qr_scan"}, "fusion_lon": 0.0}, {"lat": 38.8927885, "is_disabled": 0, "type": "electric_scooter", "lon": -77.0502465, "bike_id": "c262b1ffb80f996e793be25b5f6bc316", "fusion_lat": 0.0, "name": "c262b1ffb80f996e793be25b5f6bc316", "is_reserved": 0, "rental_uris": {"android": "https://dc.lft.to/lastmile_qr_scan", "ios": "https://dc.lft.to/lastmile_qr_scan"}, "fusion_lon": 0.0}, {"lat": 38.9285355, "is_disabled": 0, "type": "electric_bike", "lon": -77.22212716666667, "bike_id": "e2966f05b4712d2e2023bef94fcd3be8", "fusion_lat": 0.0, "name": "e2966f05b4712d2e2023bef94fcd3be8", "is_reserved": 0, "rental_uris": {"android": "https://dc.lft.to/lastmile_qr_scan", "ios": "https://dc.lft.to/lastmile_qr_scan"}, "fusion_lon": 0.0}, {"lat": 38.870910333333335, "is_disabled": 0, "type": "electric_bike", "lon": -77.01217833333334, "bike_id": "ce5ad8457be11d362ad6de5ab8cf07dc", "fusion_lat": 0.0, "name": "ce5ad8457be11d362ad6de5ab8cf07dc", "is_reserved": 0, "rental_uris": {"android": "https://dc.lft.to/lastmile_qr_scan", "ios": "https://dc.lft.to/lastmile_qr_scan"}, "fusion_lon": 0.0}, {"lat": 38.9031675, "is_disabled": 0, "type": "electric_scooter", "lon": -77.02887933333334, "bike_id": "e60b9373fcf6417b2f02fd7a0bd2493e", "fusion_lat": 0.0, "name": "e60b9373fcf6417b2f02fd7a0bd2493e", "is_reserved": 0, "rental_uris": {"android": "https://dc.lft.to/lastmile_qr_scan", "ios": "https://dc.lft.to/lastmile_qr_scan"}, "fusion_lon": 0.0}, {"lat": 38.906349166666665, "is_disabled": 0, "type": "electric_scooter", "lon": -77.03138366666667, "bike_id": "3d6345facbc340fad012a51e932c1a0c", "fusion_lat": 0.0, "name": "3d6345facbc340fad012a51e932c1a0c", "is_reserved": 0, "rental_uris": {"android": "https://dc.lft.to/lastmile_qr_scan", "ios": "https://dc.lft.to/lastmile_qr_scan"}, "fusion_lon": 0.0}, {"lat": 38.92389633333333, "is_disabled": 0, "type": "electric_scooter", "lon": -77.0006185, "bike_id": "6f3ccf742f2a1398834cfccc13ae66cf", "fusion_lat": 0.0, "name": "6f3ccf742f2a1398834cfccc13ae66cf", "is_reserved": 0, "rental_uris": {"android": "https://dc.lft.to/lastmile_qr_scan", "ios": "https://dc.lft.to/lastmile_qr_scan"}, "fusion_lon": 0.0}, {"lat": 38.8804305, "is_disabled": 0, "type": "electric_scooter", "lon": -77.0035725, "bike_id": "45622bfe94815237dce409736c34fd95", "fusion_lat": 0.0, "name": "45622bfe94815237dce409736c34fd95", "is_reserved": 0, "rental_uris": {"android": "https://dc.lft.to/lastmile_qr_scan", "ios": "https://dc.lft.to/lastmile_qr_scan"}, "fusion_lon": 0.0}, {"lat": 38.914263166666665, "is_disabled": 0, "type": "electric_scooter", "lon": -77.03182483333333, "bike_id": "1cd6d73ac6eefc4a1c2db4d5c5c37d1b", "fusion_lat": 0.0, "name": "1cd6d73ac6eefc4a1c2db4d5c5c37d1b", "is_reserved": 0, "rental_uris": {"android": "https://dc.lft.to/lastmile_qr_scan", "ios": "https://dc.lft.to/lastmile_qr_scan"}, "fusion_lon": 0.0}, {"lat": 38.90708683333333, "is_disabled": 0, "type": "electric_scooter", "lon": -77.06307016666666, "bike_id": "02f658ed01c96692e2ffe147ef35e640", "fusion_lat": 0.0, "name": "02f658ed01c96692e2ffe147ef35e640", "is_reserved": 0, "rental_uris": {"android": "https://dc.lft.to/lastmile_qr_scan", "ios": "https://dc.lft.to/lastmile_qr_scan"}, "fusion_lon": 0.0}, {"lat": 38.918099, "is_disabled": 0, "type": "electric_scooter", "lon": -77.03436733333334, "bike_id": "2af1c4ea160d694490d223f2075fa163", "fusion_lat": 0.0, "name": "2af1c4ea160d694490d223f2075fa163", "is_reserved": 0, "rental_uris": {"android": "https://dc.lft.to/lastmile_qr_scan", "ios": "https://dc.lft.to/lastmile_qr_scan"}, "fusion_lon": 0.0}, {"lat": 38.85806316666667, "is_disabled": 0, "type": "electric_scooter", "lon": -76.98732033333333, "bike_id": "bad6af7aa7e26f94c4a824afdd668a49", "fusion_lat": 0.0, "name": "bad6af7aa7e26f94c4a824afdd668a49", "is_reserved": 0, "rental_uris": {"android": "https://dc.lft.to/lastmile_qr_scan", "ios": "https://dc.lft.to/lastmile_qr_scan"}, "fusion_lon": 0.0}, {"lat": 38.91867766666667, "is_disabled": 0, "type": "electric_scooter", "lon": -77.04051566666666, "bike_id": "a19292a12d74a86f91ef08105de7a459", "fusion_lat": 0.0, "name": "a19292a12d74a86f91ef08105de7a459", "is_reserved": 0, "rental_uris": {"android": "https://dc.lft.to/lastmile_qr_scan", "ios": "https://dc.lft.to/lastmile_qr_scan"}, "fusion_lon": 0.0}, {"lat": 38.911054166666666, "is_disabled": 0, "type": "electric_scooter", "lon": -77.032108, "bike_id": "383c7d2941d7c35db89ad68f3ff03185", "fusion_lat": 0.0, "name": "383c7d2941d7c35db89ad68f3ff03185", "is_reserved": 0, "rental_uris": {"android": "https://dc.lft.to/lastmile_qr_scan", "ios": "https://dc.lft.to/lastmile_qr_scan"}, "fusion_lon": 0.0}, {"lat": 38.88337333333333, "is_disabled": 0, "type": "electric_scooter", "lon": -77.0314875, "bike_id": "cf6022051b33164c0ecd51bd625c9232", "fusion_lat": 0.0, "name": "cf6022051b33164c0ecd51bd625c9232", "is_reserved": 0, "rental_uris": {"android": "https://dc.lft.to/lastmile_qr_scan", "ios": "https://dc.lft.to/lastmile_qr_scan"}, "fusion_lon": 0.0}, {"lat": 38.92243933333334, "is_disabled": 0, "type": "electric_scooter", "lon": -77.04248833333334, "bike_id": "f2e605acb51432ed45a021973417cc13", "fusion_lat": 0.0, "name": "f2e605acb51432ed45a021973417cc13", "is_reserved": 0, "rental_uris": {"android": "https://dc.lft.to/lastmile_qr_scan", "ios": "https://dc.lft.to/lastmile_qr_scan"}, "fusion_lon": 0.0}, {"lat": 38.86113316666667, "is_disabled": 0, "type": "electric_scooter", "lon": -76.96755316666666, "bike_id": "dd4819f471cd5c1e492fb3cebb1e8eba", "fusion_lat": 0.0, "name": "dd4819f471cd5c1e492fb3cebb1e8eba", "is_reserved": 0, "rental_uris": {"android": "https://dc.lft.to/lastmile_qr_scan", "ios": "https://dc.lft.to/lastmile_qr_scan"}, "fusion_lon": 0.0}, {"lat": 38.908789, "is_disabled": 0, "type": "electric_scooter", "lon": -76.9852, "bike_id": "b8dd088df154e72a69198e244ab77731", "fusion_lat": 0.0, "name": "b8dd088df154e72a69198e244ab77731", "is_reserved": 0, "rental_uris": {"android": "https://dc.lft.to/lastmile_qr_scan", "ios": "https://dc.lft.to/lastmile_qr_scan"}, "fusion_lon": 0.0}, {"lat": 38.92089983333334, "is_disabled": 0, "type": "electric_scooter", "lon": -77.02546316666667, "bike_id": "ceab5a960186cbc9e9826220ee020a62", "fusion_lat": 0.0, "name": "ceab5a960186cbc9e9826220ee020a62", "is_reserved": 0, "rental_uris": {"android": "https://dc.lft.to/lastmile_qr_scan", "ios": "https://dc.lft.to/lastmile_qr_scan"}, "fusion_lon": 0.0}, {"lat": 38.930927, "is_disabled": 0, "type": "electric_scooter", "lon": -77.02363566666666, "bike_id": "c77626c5827b21ed66934638d3e9baa3", "fusion_lat": 0.0, "name": "c77626c5827b21ed66934638d3e9baa3", "is_reserved": 0, "rental_uris": {"android": "https://dc.lft.to/lastmile_qr_scan", "ios": "https://dc.lft.to/lastmile_qr_scan"}, "fusion_lon": 0.0}, {"lat": 38.89522483333333, "is_disabled": 0, "type": "electric_scooter", "lon": -77.00054216666666, "bike_id": "0ce1c8c1f2f9388004f560b40ab53fa8", "fusion_lat": 0.0, "name": "0ce1c8c1f2f9388004f560b40ab53fa8", "is_reserved": 0, "rental_uris": {"android": "https://dc.lft.to/lastmile_qr_scan", "ios": "https://dc.lft.to/lastmile_qr_scan"}, "fusion_lon": 0.0}, {"lat": 38.8636345, "is_disabled": 0, "type": "electric_scooter", "lon": -76.99029916666667, "bike_id": "fca40414da1ce65217b97d57d2869bd6", "fusion_lat": 0.0, "name": "fca40414da1ce65217b97d57d2869bd6", "is_reserved": 0, "rental_uris": {"android": "https://dc.lft.to/lastmile_qr_scan", "ios": "https://dc.lft.to/lastmile_qr_scan"}, "fusion_lon": 0.0}, {"lat": 38.87147683333333, "is_disabled": 0, "type": "electric_bike", "lon": -76.936631, "bike_id": "b64466d0b1d9af4f57f8ab74912481ad", "fusion_lat": 0.0, "name": "b64466d0b1d9af4f57f8ab74912481ad", "is_reserved": 0, "rental_uris": {"android": "https://dc.lft.to/lastmile_qr_scan", "ios": "https://dc.lft.to/lastmile_qr_scan"}, "fusion_lon": 0.0}, {"lat": 38.923094166666665, "is_disabled": 0, "type": "electric_scooter", "lon": -77.04208983333334, "bike_id": "fa98a5695ee88db3a8ac2238728579b3", "fusion_lat": 0.0, "name": "fa98a5695ee88db3a8ac2238728579b3", "is_reserved": 0, "rental_uris": {"android": "https://dc.lft.to/lastmile_qr_scan", "ios": "https://dc.lft.to/lastmile_qr_scan"}, "fusion_lon": 0.0}, {"lat": 38.921259666666664, "is_disabled": 0, "type": "electric_scooter", "lon": -77.03655, "bike_id": "64eb95fac292566da30a369a84f15ee5", "fusion_lat": 0.0, "name": "64eb95fac292566da30a369a84f15ee5", "is_reserved": 0, "rental_uris": {"android": "https://dc.lft.to/lastmile_qr_scan", "ios": "https://dc.lft.to/lastmile_qr_scan"}, "fusion_lon": 0.0}, {"lat": 38.935824833333335, "is_disabled": 0, "type": "electric_bike", "lon": -77.10681083333333, "bike_id": "e6f3628981efc946675315790a817cd7", "fusion_lat": 0.0, "name": "e6f3628981efc946675315790a817cd7", "is_reserved": 0, "rental_uris": {"android": "https://dc.lft.to/lastmile_qr_scan", "ios": "https://dc.lft.to/lastmile_qr_scan"}, "fusion_lon": 0.0}, {"lat": 38.90332466666667, "is_disabled": 0, "type": "electric_scooter", "lon": -76.9759295, "bike_id": "3f8f031f220fe9ce6ba9b85328fbc330", "fusion_lat": 0.0, "name": "3f8f031f220fe9ce6ba9b85328fbc330", "is_reserved": 0, "rental_uris": {"android": "https://dc.lft.to/lastmile_qr_scan", "ios": "https://dc.lft.to/lastmile_qr_scan"}, "fusion_lon": 0.0}, {"lat": 38.9494955, "is_disabled": 0, "type": "electric_scooter", "lon": -77.01578433333333, "bike_id": "372030b76b36481be1fc60c0a9012fa8", "fusion_lat": 0.0, "name": "372030b76b36481be1fc60c0a9012fa8", "is_reserved": 0, "rental_uris": {"android": "https://dc.lft.to/lastmile_qr_scan", "ios": "https://dc.lft.to/lastmile_qr_scan"}, "fusion_lon": 0.0}, {"lat": 38.9095005, "is_disabled": 0, "type": "electric_scooter", "lon": -77.04657233333333, "bike_id": "45ebd0e46eb9dd585d9d0d442dc046f7", "fusion_lat": 0.0, "name": "45ebd0e46eb9dd585d9d0d442dc046f7", "is_reserved": 0, "rental_uris": {"android": "https://dc.lft.to/lastmile_qr_scan", "ios": "https://dc.lft.to/lastmile_qr_scan"}, "fusion_lon": 0.0}, {"lat": 38.90283266666667, "is_disabled": 0, "type": "electric_scooter", "lon": -77.02311116666667, "bike_id": "b4150f8978101f80ebd5a9ea5dbdc220", "fusion_lat": 0.0, "name": "b4150f8978101f80ebd5a9ea5dbdc220", "is_reserved": 0, "rental_uris": {"android": "https://dc.lft.to/lastmile_qr_scan", "ios": "https://dc.lft.to/lastmile_qr_scan"}, "fusion_lon": 0.0}, {"lat": 38.89424533333333, "is_disabled": 0, "type": "electric_scooter", "lon": -77.02196116666667, "bike_id": "6ac52237882d339cef607f7231a2e3a4", "fusion_lat": 0.0, "name": "6ac52237882d339cef607f7231a2e3a4", "is_reserved": 0, "rental_uris": {"android": "https://dc.lft.to/lastmile_qr_scan", "ios": "https://dc.lft.to/lastmile_qr_scan"}, "fusion_lon": 0.0}, {"lat": 38.912657, "is_disabled": 0, "type": "electric_scooter", "lon": -77.0225065, "bike_id": "cc7859b75fe90f9c14e5ce77a9153523", "fusion_lat": 0.0, "name": "cc7859b75fe90f9c14e5ce77a9153523", "is_reserved": 0, "rental_uris": {"android": "https://dc.lft.to/lastmile_qr_scan", "ios": "https://dc.lft.to/lastmile_qr_scan"}, "fusion_lon": 0.0}, {"lat": 38.91744033333333, "is_disabled": 0, "type": "electric_scooter", "lon": -77.03187533333333, "bike_id": "f7defdd7787a926a03ad897bafd3199f", "fusion_lat": 0.0, "name": "f7defdd7787a926a03ad897bafd3199f", "is_reserved": 0, "rental_uris": {"android": "https://dc.lft.to/lastmile_qr_scan", "ios": "https://dc.lft.to/lastmile_qr_scan"}, "fusion_lon": 0.0}, {"lat": 38.89981783333333, "is_disabled": 0, "type": "electric_scooter", "lon": -76.92761466666667, "bike_id": "7320e07d42378837e6945a3ce55db330", "fusion_lat": 0.0, "name": "7320e07d42378837e6945a3ce55db330", "is_reserved": 0, "rental_uris": {"android": "https://dc.lft.to/lastmile_qr_scan", "ios": "https://dc.lft.to/lastmile_qr_scan"}, "fusion_lon": 0.0}, {"lat": 38.949987, "is_disabled": 0, "type": "electric_scooter", "lon": -77.0819265, "bike_id": "a261fcb4afc241fd8583ef2c1dd0df00", "fusion_lat": 0.0, "name": "a261fcb4afc241fd8583ef2c1dd0df00", "is_reserved": 0, "rental_uris": {"android": "https://dc.lft.to/lastmile_qr_scan", "ios": "https://dc.lft.to/lastmile_qr_scan"}, "fusion_lon": 0.0}, {"lat": 38.906254, "is_disabled": 0, "type": "electric_scooter", "lon": -77.02183483333333, "bike_id": "72802015edf4907ee60f0d49547b273f", "fusion_lat": 0.0, "name": "72802015edf4907ee60f0d49547b273f", "is_reserved": 0, "rental_uris": {"android": "https://dc.lft.to/lastmile_qr_scan", "ios": "https://dc.lft.to/lastmile_qr_scan"}, "fusion_lon": 0.0}, {"lat": 38.915662, "is_disabled": 0, "type": "electric_scooter", "lon": -77.02001066666666, "bike_id": "8e2e2442bb0b7c4802157d753fb7f0a0", "fusion_lat": 0.0, "name": "8e2e2442bb0b7c4802157d753fb7f0a0", "is_reserved": 0, "rental_uris": {"android": "https://dc.lft.to/lastmile_qr_scan", "ios": "https://dc.lft.to/lastmile_qr_scan"}, "fusion_lon": 0.0}, {"lat": 38.9001875, "is_disabled": 0, "type": "electric_scooter", "lon": -77.04424083333333, "bike_id": "0c60f3f146cbc45242517b5e9bd15d0f", "fusion_lat": 0.0, "name": "0c60f3f146cbc45242517b5e9bd15d0f", "is_reserved": 0, "rental_uris": {"android": "https://dc.lft.to/lastmile_qr_scan", "ios": "https://dc.lft.to/lastmile_qr_scan"}, "fusion_lon": 0.0}, {"lat": 38.9541075, "is_disabled": 0, "type": "electric_bike", "lon": -76.98057516666667, "bike_id": "602396b03d0ff3aa1579b5e659a1a682", "fusion_lat": 0.0, "name": "602396b03d0ff3aa1579b5e659a1a682", "is_reserved": 0, "rental_uris": {"android": "https://dc.lft.to/lastmile_qr_scan", "ios": "https://dc.lft.to/lastmile_qr_scan"}, "fusion_lon": 0.0}, {"lat": 38.901255, "is_disabled": 0, "type": "electric_scooter", "lon": -77.03312166666667, "bike_id": "3fe4c63930acea5fbdceaba1deeddca3", "fusion_lat": 0.0, "name": "3fe4c63930acea5fbdceaba1deeddca3", "is_reserved": 0, "rental_uris": {"android": "https://dc.lft.to/lastmile_qr_scan", "ios": "https://dc.lft.to/lastmile_qr_scan"}, "fusion_lon": 0.0}, {"lat": 38.87344733333333, "is_disabled": 0, "type": "electric_scooter", "lon": -76.99163983333334, "bike_id": "38ec739b16dfef18e579971786527626", "fusion_lat": 0.0, "name": "38ec739b16dfef18e579971786527626", "is_reserved": 0, "rental_uris": {"android": "https://dc.lft.to/lastmile_qr_scan", "ios": "https://dc.lft.to/lastmile_qr_scan"}, "fusion_lon": 0.0}, {"lat": 38.8762855, "is_disabled": 0, "type": "electric_scooter", "lon": -76.965231, "bike_id": "373f8b556ebbbd577339b206224edef3", "fusion_lat": 0.0, "name": "373f8b556ebbbd577339b206224edef3", "is_reserved": 0, "rental_uris": {"android": "https://dc.lft.to/lastmile_qr_scan", "ios": "https://dc.lft.to/lastmile_qr_scan"}, "fusion_lon": 0.0}, {"lat": 38.9072355, "is_disabled": 0, "type": "electric_scooter", "lon": -77.02749816666666, "bike_id": "661f59922f4acab4326c61d44ded6b9b", "fusion_lat": 0.0, "name": "661f59922f4acab4326c61d44ded6b9b", "is_reserved": 0, "rental_uris": {"android": "https://dc.lft.to/lastmile_qr_scan", "ios": "https://dc.lft.to/lastmile_qr_scan"}, "fusion_lon": 0.0},