{"data": {"bikes": [{"is_reserved": 0, "type": "electric_scooter", "bike_id": "f2a5266df8867456e10f6b5af20e78a0", "lat": 38.916521333333336, "lon": -77.0238215, "rental_uris": {"android": "https://dc.lft.to/lastmile_qr_scan", "ios": "https://dc.lft.to/lastmile_qr_scan"}, "is_disabled": 0, "fusion_lat": 0.0, "name": "f2a5266df8867456e10f6b5af20e78a0", "fusion_lon": 0.0}, {"is_reserved": 0, "type": "electric_bike", "bike_id": "f2da35e50852e588a7400027b8860835", "lat": 38.88603883333333, "lon": -77.14234466666667, "rental_uris": {"android": "https://dc.lft.to/lastmile_qr_scan", "ios": "https://dc.lft.to/lastmile_qr_scan"}, "is_disabled": 0, "fusion_lat": 0.0, "name": "f2da35e50852e588a7400027b8860835", "fusion_lon": 0.0}, {"is_reserved": 0, "type": "electric_scooter", "bike_id": "90d43c0cb47bc33597567e8586083328", "lat": 38.9155695, "lon": -77.03996633333334, "rental_uris": {"android": "https://dc.lft.to/lastmile_qr_scan", "ios": "https://dc.lft.to/lastmile_qr_scan"}, "is_disabled": 0, "fusion_lat": 0.0, "name": "90d43c0cb47bc33597567e8586083328", "fusion_lon": 0.0}, {"is_reserved": 0, "type": "electric_scooter", "bike_id": "d8adbd6c1046efcedbe671777b715e86", "lat": 38.89899033333333, "lon": -77.0328355, "rental_uris": {"android": "https://dc.lft.to/lastmile_qr_scan", "ios": "https://dc.lft.to/lastmile_qr_scan"}, "is_disabled": 0, "fusion_lat": 0.0, "name": "d8adbd6c1046efcedbe671777b715e86", "fusion_lon": 0.0}, {"is_reserved": 0, "type": "electric_scooter", "bike_id": "64089b8eeaef84fe8082e47cddfb6ac9", "lat": 38.918707833333336, "lon": -77.036538, "rental_uris": {"android": "https://dc.lft.to/lastmile_qr_scan", "ios": "https://dc.lft.to/lastmile_qr_scan"}, "is_disabled": 0, "fusion_lat": 0.0, "name": "64089b8eeaef84fe8082e47cddfb6ac9", "fusion_lon": 0.0}, {"is_reserved": 0, "type": "electric_scooter", "bike_id": "99fa7553389503a3f254cb982888854e", "lat": 38.912591166666665, "lon": -77.00776783333333, "rental_uris": {"android": "https://dc.lft.to/lastmile_qr_scan", "ios": "https://dc.lft.to/lastmile_qr_scan"}, "is_disabled": 0, "fusion_lat": 0.0, "name": "99fa7553389503a3f254cb982888854e", "fusion_lon": 0.0}, {"is_reserved": 0, "type": "electric_bike", "bike_id": "18f406d0bd84512668b5a18de10c6208", "lat": 38.94666383333333, "lon": -76.99337433333334, "rental_uris": {"android": "https://dc.lft.to/lastmile_qr_scan", "ios": "https://dc.lft.to/lastmile_qr_scan"}, "is_disabled": 0, "fusion_lat": 0.0, "name": "18f406d0bd84512668b5a18de10c6208", "fusion_lon": 0.0}, {"is_reserved": 0, "type": "electric_scooter", "bike_id": "7ae3f6f6e6305859af0037c50ef3bba2", "lat": 38.897516333333336, "lon": -76.9976905, "rental_uris": {"android": "https://dc.lft.to/lastmile_qr_scan", "ios": "https://dc.lft.to/lastmile_qr_scan"}, "is_disabled": 0, "fusion_lat": 0.0, "name": "7ae3f6f6e6305859af0037c50ef3bba2", "fusion_lon": 0.0}, {"is_reserved": 0, "type": "electric_scooter", "bike_id": "1d9c00aa1ffdac2afd2e084fbc384c1a", "lat": 38.89459683333333, "lon": -77.018999, "rental_uris": {"android": "https://dc.lft.to/lastmile_qr_scan", "ios": "https://dc.lft.to/lastmile_qr_scan"}, "is_disabled": 0, "fusion_lat": 0.0, "name": "1d9c00aa1ffdac2afd2e084fbc384c1a", "fusion_lon": 0.0}, {"is_reserved": 0, "type": "electric_scooter", "bike_id": "9ce2e3d228dda110cba9f3f6813d79f6", "lat": 38.9265945, "lon": -77.03708083333333, "rental_uris": {"android": "https://dc.lft.to/lastmile_qr_scan", "ios": "https://dc.lft.to/lastmile_qr_scan"}, "is_disabled": 0, "fusion_lat": 0.0, "name": "9ce2e3d228dda110cba9f3f6813d79f6", "fusion_lon": 0.0}, {"is_reserved": 0, "type": "electric_bike", "bike_id": "e35f51d6361eaeb7a28f054dadd5b87c", "lat": 38.803832666666665, "lon": -76.98817983333333, "rental_uris": {"android": "https://dc.lft.to/lastmile_qr_scan", "ios": "https://dc.lft.to/lastmile_qr_scan"}, "is_disabled": 0, "fusion_lat": 0.0, "name": "e35f51d6361eaeb7a28f054dadd5b87c", "fusion_lon": 0.0}, {"is_reserved": 0, "type": "electric_scooter", "bike_id": "a142321b29dca21654d89f51e5a1c28d", "lat": 38.90387616666667, "lon": -77.03200783333334, "rental_uris": {"android": "https://dc.lft.to/lastmile_qr_scan", "ios": "https://dc.lft.to/lastmile_qr_scan"}, "is_disabled": 0, "fusion_lat": 0.0, "name": "a142321b29dca21654d89f51e5a1c28d", "fusion_lon": 0.0}, {"is_reserved": 0, "type": "electric_scooter", "bike_id": "53509f454b71d164acadec987a60022e", "lat": 38.902662666666664, "lon": -77.03967766666666, "rental_uris": {"android": "https://dc.lft.to/lastmile_qr_scan", "ios": "https://dc.lft.to/lastmile_qr_scan"}, "is_disabled": 0, "fusion_lat": 0.0, "name": "53509f454b71d164acadec987a60022e", "fusion_lon": 0.0}, {"is_reserved": 0, "type": "electric_bike", "bike_id": "aa44034efe0188e0d311c88116c555fd", "lat": 38.930741, "lon": -77.021742, "rental_uris": {"android": "https://dc.lft.to/lastmile_qr_scan", "ios": "https://dc.lft.to/lastmile_qr_scan"}, "is_disabled": 0, "fusion_lat": 0.0, "name": "aa44034efe0188e0d311c88116c555fd", "fusion_lon": 0.0}, {"is_reserved": 0, "type": "electric_scooter", "bike_id": "e48ec99c293df90a4c7536320993d8fa", "lat": 38.902605666666666, "lon": -77.0396055, "rental_uris": {"android": "https://dc.lft.to/lastmile_qr_scan", "ios": "https://dc.lft.to/lastmile_qr_scan"}, "is_disabled": 0, "fusion_lat": 0.0, "name": "e48ec99c293df90a4c7536320993d8fa", "fusion_lon": 0.0}, {"is_reserved": 0, "type": "electric_scooter", "bike_id": "c240b8fc1718b59ed7ec9ef729cf96d0", "lat": 38.932600666666666, "lon": -77.03275816666667, "rental_uris": {"android": "https://dc.lft.to/lastmile_qr_scan", "ios": "https://dc.lft.to/lastmile_qr_scan"}, "is_disabled": 0, "fusion_lat": 0.0, "name": "c240b8fc1718b59ed7ec9ef729cf96d0", "fusion_lon": 0.0}, {"is_reserved": 0, "type": "electric_scooter", "bike_id": "9e22a5bccce8f31069462984ef1618c6", "lat": 38.889366, "lon": -76.99384883333333, "rental_uris": {"android": "https://dc.lft.to/lastmile_qr_scan", "ios": "https://dc.lft.to/lastmile_qr_scan"}, "is_disabled": 0, "fusion_lat": 0.0, "name": "9e22a5bccce8f31069462984ef1618c6", "fusion_lon": 0.0}, {"is_reserved": 0, "type": "electric_scooter", "bike_id": "39de6c08b33b7a2bd08d87a618bea97a", "lat": 38.8942435, "lon": -77.05588016666667, "rental_uris": {"android": "https://dc.lft.to/lastmile_qr_scan", "ios": "https://dc.lft.to/lastmile_qr_scan"}, "is_disabled": 0, "fusion_lat": 0.0, "name": "39de6c08b33b7a2bd08d87a618bea97a", "fusion_lon": 0.0}, {"is_reserved": 0, "type": "electric_scooter", "bike_id": "6c7663c35e7582969f5c7bb81e7fd331", "lat": 38.88365016666667, "lon": -76.94155683333334, "rental_uris": {"android": "https://dc.lft.to/lastmile_qr_scan", "ios": "https://dc.lft.to/lastmile_qr_scan"}, "is_disabled": 0, "fusion_lat": 0.0, "name": "6c7663c35e7582969f5c7bb81e7fd331", "fusion_lon": 0.0}, {"is_reserved": 0, "type": "electric_scooter", "bike_id": "757b56bffea4506e5cbe92eeeae707e0", "lat": 38.895037333333335, "lon": -76.93477066666667, "rental_uris": {"android": "https://dc.lft.to/lastmile_qr_scan", "ios": "https://dc.lft.to/lastmile_qr_scan"}, "is_disabled": 0, "fusion_lat": 0.0, "name": "757b56bffea4506e5cbe92eeeae707e0", "fusion_lon": 0.0}, {"is_reserved": 0, "type": "electric_scooter", "bike_id": "b585492699b052b2607395e91c568b1c", "lat": 38.9221705, "lon": -77.02287316666667, "rental_uris": {"android": "https://dc.lft.to/lastmile_qr_scan", "ios": "https://dc.lft.to/lastmile_qr_scan"}, "is_disabled": 0, "fusion_lat": 0.0, "name": "b585492699b052b2607395e91c568b1c", "fusion_lon": 0.0}, {"is_reserved": 0, "type": "electric_scooter", "bike_id": "e8cd11ac944c8f06f3c246bddec1ee09", "lat": 38.89787233333333, "lon": -77.05004216666667, "rental_uris": {"android": "https://dc.lft.to/lastmile_qr_scan", "ios": "https://dc.lft.to/lastmile_qr_scan"}, "is_disabled": 0, "fusion_lat": 0.0, "name": "e8cd11ac944c8f06f3c246bddec1ee09", "fusion_lon": 0.0}, {"is_reserved": 0, "type": "electric_scooter", "bike_id": "0d3a98136d32879c10c79af82aee9a50", "lat": 38.86688566666667, "lon": -76.97902483333333, "rental_uris": {"android": "https://dc.lft.to/lastmile_qr_scan", "ios": "https://dc.lft.to/lastmile_qr_scan"}, "is_disabled": 0, "fusion_lat": 0.0, "name": "0d3a98136d32879c10c79af82aee9a50", "fusion_lon": 0.0}, {"is_reserved": 0, "type": "electric_scooter", "bike_id": "3128aeea1d9ee91a8a3d38b392b57116", "lat": 38.89364483333333, "lon": -76.93598683333333, "rental_uris": {"android": "https://dc.lft.to/lastmile_qr_scan", "ios": "https://dc.lft.to/lastmile_qr_scan"}, "is_disabled": 0, "fusion_lat": 0.0, "name": "3128aeea1d9ee91a8a3d38b392b57116", "fusion_lon": 0.0}, {"is_reserved": 0, "type": "electric_scooter", "bike_id": "fd5b82f664cea4b859dc5904bbdf11b3", "lat": 38.90382016666667, "lon": -77.04721683333334, "rental_uris": {"android": "https://dc.lft.to/lastmile_qr_scan", "ios": "https://dc.lft.to/lastmile_qr_scan"}, "is_disabled": 0, "fusion_lat": 0.0, "name": "fd5b82f664cea4b859dc5904bbdf11b3", "fusion_lon": 0.0}, {"is_reserved": 0, "type": "electric_scooter", "bike_id": "d236135c4a0d3dbd89acde0a11df4684", "lat": 38.984330166666666, "lon": -77.02672166666666, "rental_uris": {"android": "https://dc.lft.to/lastmile_qr_scan", "ios": "https://dc.lft.to/lastmile_qr_scan"}, "is_disabled": 0, "fusion_lat": 0.0, "name": "d236135c4a0d3dbd89acde0a11df4684", "fusion_lon": 0.0}, {"is_reserved": 0, "type": "electric_scooter", "bike_id": "2ff646e03be61d76678a0a70267f8333", "lat": 38.89908233333333, "lon": -77.033579, "rental_uris": {"android": "https://dc.lft.to/lastmile_qr_scan", "ios": "https://dc.lft.to/lastmile_qr_scan"}, "is_disabled": 0, "fusion_lat": 0.0, "name": "2ff646e03be61d76678a0a70267f8333", "fusion_lon": 0.0}, {"is_reserved": 0, "type": "electric_scooter", "bike_id": "3b5b9644424cb49551d2308ecdaeb471", "lat": 38.91817183333333, "lon": -77.02478916666666, "rental_uris": {"android": "https://dc.lft.to/lastmile_qr_scan", "ios": "https://dc.lft.to/lastmile_qr_scan"}, "is_disabled": 0, "fusion_lat": 0.0, "name": "3b5b9644424cb49551d2308ecdaeb471", "fusion_lon": 0.0}, {"is_reserved": 0, "type": "electric_scooter", "bike_id": "c5e4e61c8826369510d263d9aa39db9c", "lat": 38.923101833333334, "lon": -77.02970166666667, "rental_uris": {"android": "https://dc.lft.to/lastmile_qr_scan", "ios": "https://dc.lft.to/lastmile_qr_scan"}, "is_disabled": 0, "fusion_lat": 0.0, "name": "c5e4e61c8826369510d263d9aa39db9c", "fusion_lon": 0.0}, {"is_reserved": 0, "type": "electric_bike", "bike_id": "ac0d5bf4ecef2a15fb5d45cbb3263b0a", "lat": 38.942590833333334, "lon": -76.99071833333333, "rental_uris": {"android": "https://dc.lft.to/lastmile_qr_scan", "ios": "https://dc.lft.to/lastmile_qr_scan"}, "is_disabled": 0, "fusion_lat": 0.0, "name": "ac0d5bf4ecef2a15fb5d45cbb3263b0a", "fusion_lon": 0.0}, {"is_reserved": 0, "type": "electric_scooter", "bike_id": "623d6eb9147349cc878e8435bdc3997d", "lat": 38.91578783333333, "lon": -77.01239766666667, "rental_uris": {"android": "https://dc.lft.to/lastmile_qr_scan", "ios": "https://dc.lft.to/lastmile_qr_scan"}, "is_disabled": 0, "fusion_lat": 0.0, "name": "623d6eb9147349cc878e8435bdc3997d", "fusion_lon": 0.0}, {"is_reserved": 0, "type": "electric_scooter", "bike_id": "58f06281652244a19d671ab7638c07d8", "lat": 38.923898666666666, "lon": -77.05063866666667, "rental_uris": {"android": "https://dc.lft.to/lastmile_qr_scan", "ios": "https://dc.lft.to/lastmile_qr_scan"}, "is_disabled": 0, "fusion_lat": 0.0, "name": "58f06281652244a19d671ab7638c07d8", "fusion_lon": 0.0}, {"is_reserved": 0, "type": "electric_scooter", "bike_id": "c8f3437592a01beb06c1a81478f19a02", "lat": 38.932558666666665, "lon": -77.03281, "rental_uris": {"android": "https://dc.lft.to/lastmile_qr_scan", "ios": "https://dc.lft.to/lastmile_qr_scan"}, "is_disabled": 0, "fusion_lat": 0.0, "name": "c8f3437592a01beb06c1a81478f19a02", "fusion_lon": 0.0}, {"is_reserved": 0, "type": "electric_scooter", "bike_id": "d2fe5fb7a5d65716a38ca99b06af66a0", "lat": 38.918436166666666, "lon": -77.0318975, "rental_uris": {"android": "https://dc.lft.to/lastmile_qr_scan", "ios": "https://dc.lft.to/lastmile_qr_scan"}, "is_disabled": 0, "fusion_lat": 0.0, "name": "d2fe5fb7a5d65716a38ca99b06af66a0", "fusion_lon": 0.0}, {"is_reserved": 0, "type": "electric_scooter", "bike_id": "6ce17216a7f7a864f9c69e43fa13e38b", "lat": 38.92784483333333, "lon": -77.03245566666666, "rental_uris": {"android": "https://dc.lft.to/lastmile_qr_scan", "ios": "https://dc.lft.to/lastmile_qr_scan"}, "is_disabled": 0, "fusion_lat": 0.0, "name": "6ce17216a7f7a864f9c69e43fa13e38b", "fusion_lon": 0.0}, {"is_reserved": 0, "type": "electric_scooter", "bike_id": "c2a026c1e9f86d7d90a21a5a66e232d1", "lat": 38.8922945, "lon": -77.0500335, "rental_uris": {"android": "https://dc.lft.to/lastmile_qr_scan", "ios": "https://dc.lft.to/lastmile_qr_scan"}, "is_disabled": 0, "fusion_lat": 0.0, "name": "c2a026c1e9f86d7d90a21a5a66e232d1", "fusion_lon": 0.0}, {"is_reserved": 0, "type": "electric_scooter", "bike_id": "9fc3f1ee1ec5ea10d66dfbae00a589f2", "lat": 38.9275565, "lon": -77.03278533333334, "rental_uris": {"android": "https://dc.lft.to/lastmile_qr_scan", "ios": "https://dc.lft.to/lastmile_qr_scan"}, "is_disabled": 0, "fusion_lat": 0.0, "name": "9fc3f1ee1ec5ea10d66dfbae00a589f2", "fusion_lon": 0.0}, {"is_reserved": 0, "type": "electric_scooter", "bike_id": "e8819f4b05f7ddf8650b85b25f6c7f2c", "lat": 38.91388366666666, "lon": -76.98419633333333, "rental_uris": {"android": "https://dc.lft.to/lastmile_qr_scan", "ios": "https://dc.lft.to/lastmile_qr_scan"}, "is_disabled": 0, "fusion_lat": 0.0, "name": "e8819f4b05f7ddf8650b85b25f6c7f2c", "fusion_lon": 0.0}, {"is_reserved": 0, "type": "electric_scooter", "bike_id": "97ca0f1e6ec50159d2690fad4b69a962", "lat": 38.91200366666666, "lon": -77.00253166666667, "rental_uris": {"android": "https://dc.lft.to/lastmile_qr_scan", "ios": "https://dc.lft.to/lastmile_qr_scan"}, "is_disabled": 0, "fusion_lat": 0.0, "name": "97ca0f1e6ec50159d2690fad4b69a962", "fusion_lon": 0.0}, {"is_reserved": 0, "type": "electric_scooter", "bike_id": "24110f82125dd6457c3feb44e2239d62", "lat": 38.92553433333333, "lon": -76.9815515, "rental_uris": {"android": "https://dc.lft.to/lastmile_qr_scan", "ios": "https://dc.lft.to/lastmile_qr_scan"}, "is_disabled": 0, "fusion_lat": 0.0, "name": "24110f82125dd6457c3feb44e2239d62", "fusion_lon": 0.0}, {"is_reserved": 0, "type": "electric_scooter", "bike_id": "61f2caac0284e08b6b32a9fcc494fac0", "lat": 38.94328083333333, "lon": -77.06527316666667, "rental_uris": {"android": "https://dc.lft.to/lastmile_qr_scan", "ios": "https://dc.lft.to/lastmile_qr_scan"}, "is_disabled": 0, "fusion_lat": 0.0, "name": "61f2caac0284e08b6b32a9fcc494fac0", "fusion_lon": 0.0}, {"is_reserved": 0, "type": "electric_scooter", "bike_id": "3ce7be50384e07fef39f09f26d4eeb11", "lat": 38.933763166666665, "lon": -77.02035133333334, "rental_uris": {"android": "https://dc.lft.to/lastmile_qr_scan", "ios": "https://dc.lft.to/lastmile_qr_scan"}, "is_disabled": 0, "fusion_lat": 0.0, "name": "3ce7be50384e07fef39f09f26d4eeb11", "fusion_lon": 0.0}, {"is_reserved": 0, "type": "electric_scooter", "bike_id": "4a7cb037a59d34d269f6f17944380ec5", "lat": 38.8729255, "lon": -77.0098795, "rental_uris": {"android": "https://dc.lft.to/lastmile_qr_scan", "ios": "https://dc.lft.to/lastmile_qr_scan"}, "is_disabled": 0, "fusion_lat": 0.0, "name": "4a7cb037a59d34d269f6f17944380ec5", "fusion_lon": 0.0}, {"is_reserved": 0, "type": "electric_scooter", "bike_id": "4f09f97397770a37b2041b8ecde678d0", "lat": 38.9044345, "lon": -77.06273333333333, "rental_uris": {"android": "https://dc.lft.to/lastmile_qr_scan", "ios": "https://dc.lft.to/lastmile_qr_scan"}, "is_disabled": 0, "fusion_lat": 0.0, "name": "4f09f97397770a37b2041b8ecde678d0", "fusion_lon": 0.0}, {"is_reserved": 0, "type": "electric_scooter", "bike_id": "8d2b4cf0f26a935820b00cf6af8f139e", "lat": 38.9038935, "lon": -77.018514, "rental_uris": {"android": "https://dc.lft.to/lastmile_qr_scan", "ios": "https://dc.lft.to/lastmile_qr_scan"}, "is_disabled": 0, "fusion_lat": 0.0, "name": "8d2b4cf0f26a935820b00cf6af8f139e", "fusion_lon": 0.0}, {"is_reserved": 0, "type": "electric_scooter", "bike_id": "46c4eba370eecc8886a8dcffad4cc228", "lat": 38.927936, "lon": -77.03086383333333, "rental_uris": {"android": "https://dc.lft.to/lastmile_qr_scan", "ios": "https://dc.lft.to/lastmile_qr_scan"}, "is_disabled": 0, "fusion_lat": 0.0, "name": "46c4eba370eecc8886a8dcffad4cc228", "fusion_lon": 0.0}, {"is_reserved": 0, "type": "electric_scooter", "bike_id": "72d2ccb841a3eceeb35bb67490fca374", "lat": 38.892259333333335, "lon": -77.05003683333334, "rental_uris": {"android": "https://dc.lft.to/lastmile_qr_scan", "ios": "https://dc.lft.to/lastmile_qr_scan"}, "is_disabled": 0, "fusion_lat": 0.0, "name": "72d2ccb841a3eceeb35bb67490fca374", "fusion_lon": 0.0}, {"is_reserved": 0, "type": "electric_scooter", "bike_id": "d82227df7f4b35168f4927a5a9c5829f", "lat": 38.920675833333334, "lon": -77.02497266666667, "rental_uris": {"android": "https://dc.lft.to/lastmile_qr_scan", "ios": "https://dc.lft.to/lastmile_qr_scan"}, "is_disabled": 0, "fusion_lat": 0.0, "name": "d82227df7f4b35168f4927a5a9c5829f", "fusion_lon": 0.0}, {"is_reserved": 0, "type": "electric_scooter", "bike_id": "c8416caab1f497e7a85a6c2400788831", "lat": 38.91036666666667, "lon": -77.0097265, "rental_uris": {"android": "https://dc.lft.to/lastmile_qr_scan", "ios": "https://dc.lft.to/lastmile_qr_scan"}, "is_disabled": 0, "fusion_lat": 0.0, "name": "c8416caab1f497e7a85a6c2400788831", "fusion_lon": 0.0}, {"is_reserved": 0, "type": "electric_scooter", "bike_id": "4ee642895b568803d54f110b4d81cbea", "lat": 38.89750333333333, "lon": -77.03378783333334, "rental_uris": {"android": "https://dc.lft.to/lastmile_qr_scan", "ios": "https://dc.lft.to/lastmile_qr_scan"}, "is_disabled": 0, "fusion_lat": 0.0, "name": "4ee642895b568803d54f110b4d81cbea", "fusion_lon": 0.0}, {"is_reserved": 0, "type": "electric_scooter", "bike_id": "8e73a4fa677258c7597718e2be5f780f", "lat": 38.91711316666667, "lon": -77.03221883333333, "rental_uris": {"android": "https://dc.lft.to/lastmile_qr_scan", "ios": "https://dc.lft.to/lastmile_qr_scan"}, "is_disabled": 0, "fusion_lat": 0.0, "name": "8e73a4fa677258c7597718e2be5f780f", "fusion_lon": 0.0}, {"is_reserved": 0, "type": "electric_scooter", "bike_id": "fb4a5accc02a13d0adfe18c4dca9cf43", "lat": 38.9282565, "lon": -77.022594, "rental_uris": {"android": "https://dc.lft.to/lastmile_qr_scan", "ios": "https://dc.lft.to/lastmile_qr_scan"}, "is_disabled": 0, "fusion_lat": 0.0, "name": "fb4a5accc02a13d0adfe18c4dca9cf43", "fusion_lon": 0.0}, {"is_reserved": 0, "type": "electric_scooter", "bike_id": "2ddbfd9bcfbefd326ae14fba18fd9f3d", "lat": 38.918281, "lon": -77.04171883333333, "rental_uris": {"android": "https://dc.lft.to/lastmile_qr_scan", "ios": "https://dc.lft.to/lastmile_qr_scan"}, "is_disabled": 0, "fusion_lat": 0.0, "name": "2ddbfd9bcfbefd326ae14fba18fd9f3d", "fusion_lon": 0.0}, {"is_reserved": 0, "type": "electric_scooter", "bike_id": "4224cfd8623b04853ccffa0fb080ce54", "lat": 38.9294995, "lon": -77.0040955, "rental_uris": {"android": "https://dc.lft.to/lastmile_qr_scan", "ios": "https://dc.lft.to/lastmile_qr_scan"}, "is_disabled": 0, "fusion_lat": 0.0, "name": "4224cfd8623b04853ccffa0fb080ce54", "fusion_lon": 0.0}, {"is_reserved": 0, "type": "electric_scooter", "bike_id": "35db636d73d5279f927a16c99dad4ab7", "lat": 38.934140666666664, "lon": -77.03290816666667, "rental_uris": {"android": "https://dc.lft.to/lastmile_qr_scan", "ios": "https://dc.lft.to/lastmile_qr_scan"}, "is_disabled": 0, "fusion_lat": 0.0, "name": "35db636d73d5279f927a16c99dad4ab7", "fusion_lon": 0.0}, {"is_reserved": 0, "type": "electric_scooter", "bike_id": "18ac1eb38876ed7bca16a71cebaf0317", "lat": 38.90948783333333, "lon": -77.06441883333333, "rental_uris": {"android": "https://dc.lft.to/lastmile_qr_scan", "ios": "https://dc.lft.to/lastmile_qr_scan"}, "is_disabled": 0, "fusion_lat": 0.0, "name": "18ac1eb38876ed7bca16a71cebaf0317", "fusion_lon": 0.0}, {"is_reserved": 0, "type": "electric_scooter", "bike_id": "8c34253c67001b107932c81b2aafbad4", "lat": 38.88397, "lon": -77.03048266666667, "rental_uris": {"android": "https://dc.lft.to/lastmile_qr_scan", "ios": "https://dc.lft.to/lastmile_qr_scan"}, "is_disabled": 0, "fusion_lat": 0.0, "name": "8c34253c67001b107932c81b2aafbad4", "fusion_lon": 0.0}, {"is_reserved": 0, "type": "electric_scooter", "bike_id": "f98271f1c9fa58c6c0adfe7172a5bbed", "lat": 38.91651233333333, "lon": -77.02247833333334, "rental_uris": {"android": "https://dc.lft.to/lastmile_qr_scan", "ios": "https://dc.lft.to/lastmile_qr_scan"}, "is_disabled": 0, "fusion_lat": 0.0, "name": "f98271f1c9fa58c6c0adfe7172a5bbed", "fusion_lon": 0.0}, {"is_reserved": 0, "type": "electric_scooter", "bike_id": "9034dbeb571546b9925c76e99c00acde", "lat": 38.8934925, "lon": -77.01174133333333, "rental_uris": {"android": "https://dc.lft.to/lastmile_qr_scan", "ios": "https://dc.lft.to/lastmile_qr_scan"}, "is_disabled": 0, "fusion_lat": 0.0, "name": "9034dbeb571546b9925c76e99c00acde", "fusion_lon": 0.0}, {"is_reserved": 0, "type": "electric_scooter", "bike_id": "4d3518701a6c98c4baef9b23fb9b1bc0", "lat": 38.8922675, "lon": -77.0416355, "rental_uris": {"android": "https://dc.lft.to/lastmile_qr_scan", "ios": "https://dc.lft.to/lastmile_qr_scan"}, "is_disabled": 0, "fusion_lat": 0.0, "name": "4d3518701a6c98c4baef9b23fb9b1bc0", "fusion_lon": 0.0}, {"is_reserved": 0, "type": "electric_scooter", "bike_id": "c220c123ee8971d0b3870d8fd09469a8", "lat": 38.94189683333333, "lon": -77.02345416666667, "rental_uris": {"android": "https://dc.lft.to/lastmile_qr_scan", "ios": "https://dc.lft.to/lastmile_qr_scan"}, "is_disabled": 0, "fusion_lat": 0.0, "name": "c220c123ee8971d0b3870d8fd09469a8", "fusion_lon": 0.0}, {"is_reserved": 0, "type": "electric_scooter", "bike_id": "90606fefed3dca2fd2ff69a5bc2da441", "lat": 38.923536, "lon": -76.999515, "rental_uris": {"android": "https://dc.lft.to/lastmile_qr_scan", "ios": "https://dc.lft.to/lastmile_qr_scan"}, "is_disabled": 0, "fusion_lat": 0.0, "name": "90606fefed3dca2fd2ff69a5bc2da441", "fusion_lon": 0.0}, {"is_reserved": 0, "type": "electric_scooter", "bike_id": "d73aaabf6a8027f69d97408fbeef1c8c", "lat": 38.89959966666667, "lon": -77.031602, "rental_uris": {"android": "https://dc.lft.to/lastmile_qr_scan", "ios": "https://dc.lft.to/lastmile_qr_scan"}, "is_disabled": 0, "fusion_lat": 0.0, "name": "d73aaabf6a8027f69d97408fbeef1c8c", "fusion_lon": 0.0}, {"is_reserved": 0, "type": "electric_scooter", "bike_id": "8b7d4c7cd03a2edac4ea60971d534717", "lat": 38.917096, "lon": -77.03161883333334, "rental_uris": {"android": "https://dc.lft.to/lastmile_qr_scan", "ios": "https://dc.lft.to/lastmile_qr_scan"}, "is_disabled": 0, "fusion_lat": 0.0, "name": "8b7d4c7cd03a2edac4ea60971d534717", "fusion_lon": 0.0}, {"is_reserved": 0, "type": "electric_scooter", "bike_id": "391ed77f7aae08a8dab5424d1b7529b9", "lat": 38.924591666666664, "lon": -77.0089275, "rental_uris": {"android": "https://dc.lft.to/lastmile_qr_scan", "ios": "https://dc.lft.to/lastmile_qr_scan"}, "is_disabled": 0, "fusion_lat": 0.0, "name": "391ed77f7aae08a8dab5424d1b7529b9", "fusion_lon": 0.0}, {"is_reserved": 0, "type": "electric_scooter", "bike_id": "7061a431430a2fa50d4898a61e3b5b45", "lat": 38.906744333333336, "lon": -77.07508566666667, "rental_uris": {"android": "https://dc.lft.to/lastmile_qr_scan", "ios": "https://dc.lft.to/lastmile_qr_scan"}, "is_disabled": 0, "fusion_lat": 0.0, "name": "7061a431430a2fa50d4898a61e3b5b45", "fusion_lon": 0.0}, {"is_reserved": 0, "type": "electric_scooter", "bike_id": "5f57166f025c04962a604fd1cf1e738f", "lat": 38.918715, "lon": -77.0448315, "rental_uris": {"android": "https://dc.lft.to/lastmile_qr_scan", "ios": "https://dc.lft.to/lastmile_qr_scan"}, "is_disabled": 0, "fusion_lat": 0.0, "name": "5f57166f025c04962a604fd1cf1e738f", "fusion_lon": 0.0}, {"is_reserved": 0, "type": "electric_scooter", "bike_id": "578765f7bf7e1e1d2a16d9acaf56c48c", "lat": 38.92069083333333, "lon": -77.023914, "rental_uris": {"android": "https://dc.lft.to/lastmile_qr_scan", "ios": "https://dc.lft.to/lastmile_qr_scan"}, "is_disabled": 0, "fusion_lat": 0.0, "name": "578765f7bf7e1e1d2a16d9acaf56c48c", "fusion_lon": 0.0}, {"is_reserved": 0, "type": "electric_scooter", "bike_id": "628467e6a45c1bdd145ff0e23831159c", "lat": 38.9369435, "lon": -77.02715516666666, "rental_uris": {"android": "https://dc.lft.to/lastmile_qr_scan", "ios": "https://dc.lft.to/lastmile_qr_scan"}, "is_disabled": 0, "fusion_lat": 0.0, "name": "628467e6a45c1bdd145ff0e23831159c", "fusion_lon": 0.0}, {"is_reserved": 0, "type": "electric_scooter", "bike_id": "90eb9337c858cc5ebc7a60e32694205e", "lat": 38.89965816666667, "lon": -77.01624633333333, "rental_uris": {"android": "https://dc.lft.to/lastmile_qr_scan", "ios": "https://dc.lft.to/lastmile_qr_scan"}, "is_disabled": 0, "fusion_lat": 0.0, "name": "90eb9337c858cc5ebc7a60e32694205e", "fusion_lon": 0.0}, {"is_reserved": 0, "type": "electric_scooter", "bike_id": "b2425c8ee42bc2eed38f3e303e4ca53a", "lat": 38.9166495, "lon": -76.9806725, "rental_uris": {"android": "https://dc.lft.to/lastmile_qr_scan", "ios": "https://dc.lft.to/lastmile_qr_scan"}, "is_disabled": 0, "fusion_lat": 0.0, "name": "b2425c8ee42bc2eed38f3e303e4ca53a", "fusion_lon": 0.0}, {"is_reserved": 0, "type": "electric_scooter", "bike_id": "909a98b1b7ae93dbb1515a621567311c", "lat": 38.912216666666666, "lon": -77.0272085, "rental_uris": {"android": "https://dc.lft.to/lastmile_qr_scan", "ios": "https://dc.lft.to/lastmile_qr_scan"}, "is_disabled": 0, "fusion_lat": 0.0, "name": "909a98b1b7ae93dbb1515a621567311c", "fusion_lon": 0.0}, {"is_reserved": 0, "type": "electric_scooter", "bike_id": "94f3fcc30781b87d3742a7fdbb5af2ba", "lat": 38.898532, "lon": -76.927541, "rental_uris": {"android": "https://dc.lft.to/lastmile_qr_scan", "ios": "https://dc.lft.to/lastmile_qr_scan"}, "is_disabled": 0, "fusion_lat": 0.0, "name": "94f3fcc30781b87d3742a7fdbb5af2ba", "fusion_lon": 0.0}, {"is_reserved": 0, "type": "electric_scooter", "bike_id": "18c62406aeedd3c2a179b2cae02d628c", "lat": 38.925631833333334, "lon": -76.97016216666667, "rental_uris": {"android": "https://dc.lft.to/lastmile_qr_scan", "ios": "https://dc.lft.to/lastmile_qr_scan"}, "is_disabled": 0, "fusion_lat": 0.0, "name": "18c62406aeedd3c2a179b2cae02d628c", "fusion_lon": 0.0}, {"is_reserved": 0, "type": "electric_bike", "bike_id": "ad3e1ac7daf667a05061daac4d90ad28", "lat": 38.955556, "lon": -76.9690685, "rental_uris": {"android": "https://dc.lft.to/lastmile_qr_scan", "ios": "https://dc.lft.to/lastmile_qr_scan"}, "is_disabled": 0, "fusion_lat": 0.0, "name": "ad3e1ac7daf667a05061daac4d90ad28", "fusion_lon": 0.0}, {"is_reserved": 0, "type": "electric_scooter", "bike_id": "c0db19aa5c33cef44b9312d92778e1c1", "lat": 38.944412, "lon": -77.02914533333333, "rental_uris": {"android": "https://dc.lft.to/lastmile_qr_scan", "ios": "https://dc.lft.to/lastmile_qr_scan"}, "is_disabled": 0, "fusion_lat": 0.0, "name": "c0db19aa5c33cef44b9312d92778e1c1", "fusion_lon": 0.0}, {"is_reserved": 0, "type": "electric_scooter", "bike_id": "a7d699d4e857fe9252fb438e7c039769", "lat": 38.906657, "lon": -76.98022416666667, "rental_uris": {"android": "https://dc.lft.to/lastmile_qr_scan", "ios": "https://dc.lft.to/lastmile_qr_scan"}, "is_disabled": 0, "fusion_lat": 0.0, "name": "a7d699d4e857fe9252fb438e7c039769", "fusion_lon": 0.0}, {"is_reserved": 0, "type": "electric_scooter", "bike_id": "4417efdbfb59b234f481c8a948ef46a8", "lat": 38.871614, "lon": -77.0135255, "rental_uris": {"android": "https://dc.lft.to/lastmile_qr_scan", "ios": "https://dc.lft.to/lastmile_qr_scan"}, "is_disabled": 0, "fusion_lat": 0.0, "name": "4417efdbfb59b234f481c8a948ef46a8", "fusion_lon": 0.0}, {"is_reserved": 0, "type": "electric_scooter", "bike_id": "a93b2253866556b82a73b8987c86a503", "lat": 38.907142666666665, "lon": -77.02552516666667, "rental_uris": {"android": "https://dc.lft.to/lastmile_qr_scan", "ios": "https://dc.lft.to/lastmile_qr_scan"}, "is_disabled": 0, "fusion_lat": 0.0, "name": "a93b2253866556b82a73b8987c86a503", "fusion_lon": 0.0}, {"is_reserved": 0, "type": "electric_scooter", "bike_id": "64260c8f22072ae6dda8ced378528bc3", "lat": 38.89142733333333, "lon": -76.999468, "rental_uris": {"android": "https://dc.lft.to/lastmile_qr_scan", "ios": "https://dc.lft.to/lastmile_qr_scan"}, "is_disabled": 0, "fusion_lat": 0.0, "name": "64260c8f22072ae6dda8ced378528bc3", "fusion_lon": 0.0}, {"is_reserved": 0, "type": "electric_scooter", "bike_id": "85578b660166ab8b80ebd988706111c6", "lat": 38.905796, "lon": -77.02715383333333, "rental_uris": {"android": "https://dc.lft.to/lastmile_qr_scan", "ios": "https://dc.lft.to/lastmile_qr_scan"}, "is_disabled": 0, "fusion_lat": 0.0, "name": "85578b660166ab8b80ebd988706111c6", "fusion_lon": 0.0}, {"is_reserved": 0, "type": "electric_scooter", "bike_id": "4f7ad2fce63cd7d9ddd9c2a26c829797", "lat": 38.872975833333335, "lon": -77.0023145, "rental_uris": {"android": "https://dc.lft.to/lastmile_qr_scan", "ios": "https://dc.lft.to/lastmile_qr_scan"}, "is_disabled": 0, "fusion_lat": 0.0, "name": "4f7ad2fce63cd7d9ddd9c2a26c829797", "fusion_lon": 0.0}, {"is_reserved": 0, "type": "electric_scooter", "bike_id": "f86a8ba62ac7e0a9455718c999f546da", "lat": 38.9279775, "lon": -77.025404, "rental_uris": {"android": "https://dc.lft.to/lastmile_qr_scan", "ios": "https://dc.lft.to/lastmile_qr_scan"}, "is_disabled": 0, "fusion_lat": 0.0, "name": "f86a8ba62ac7e0a9455718c999f546da", "fusion_lon": 0.0}, {"is_reserved": 0, "type": "electric_scooter", "bike_id": "1ab05f3c05c85a39a72197057e519382", "lat": 38.926529, "lon": -77.03468466666666, "rental_uris": {"android": "https://dc.lft.to/lastmile_qr_scan", "ios": "https://dc.lft.to/lastmile_qr_scan"}, "is_disabled": 0, "fusion_lat": 0.0, "name": "1ab05f3c05c85a39a72197057e519382", "fusion_lon": 0.0}, {"is_reserved": 0, "type": "electric_scooter", "bike_id": "2f5dcbd38da01dd597409d9801f37882", "lat": 38.926950166666664, "lon": -77.02578483333333, "rental_uris": {"android": "https://dc.lft.to/lastmile_qr_scan", "ios": "https://dc.lft.to/lastmile_qr_scan"}, "is_disabled": 0, "fusion_lat": 0.0, "name": "2f5dcbd38da01dd597409d9801f37882", "fusion_lon": 0.0}, {"is_reserved": 0, "type": "electric_scooter", "bike_id": "04336612fd14cfa4115f5063ae761976", "lat": 38.920710666666665, "lon": -77.02390183333333, "rental_uris": {"android": "https://dc.lft.to/lastmile_qr_scan", "ios": "https://dc.lft.to/lastmile_qr_scan"}, "is_disabled": 0, "fusion_lat": 0.0, "name": "04336612fd14cfa4115f5063ae761976", "fusion_lon": 0.0}, {"is_reserved": 0, "type": "electric_bike", "bike_id": "797061a177f0faab7fee98391a659f36", "lat": 38.882505, "lon": -76.96261216666667, "rental_uris": {"android": "https://dc.lft.to/lastmile_qr_scan", "ios": "https://dc.lft.to/lastmile_qr_scan"}, "is_disabled": 0, "fusion_lat": 0.0, "name": "797061a177f0faab7fee98391a659f36", "fusion_lon": 0.0}, {"is_reserved": 0, "type": "electric_scooter", "bike_id": "fd9b4c964b1d11a95dedaea1725d4357", "lat": 38.900748, "lon": -77.0486995, "rental_uris": {"android": "https://dc.lft.to/lastmile_qr_scan", "ios": "https://dc.lft.to/lastmile_qr_scan"}, "is_disabled": 0, "fusion_lat": 0.0, "name": "fd9b4c964b1d11a95dedaea1725d4357", "fusion_lon": 0.0}, {"is_reserved": 0, "type": "electric_scooter", "bike_id": "6feb9e6d4a3fe3d3b49df867805db387", "lat": 38.896969666666664, "lon": -77.004996, "rental_uris": {"android": "https://dc.lft.to/lastmile_qr_scan", "ios": "https://dc.lft.to/lastmile_qr_scan"}, "is_disabled": 0, "fusion_lat": 0.0, "name": "6feb9e6d4a3fe3d3b49df867805db387", "fusion_lon": 0.0}, {"is_reserved": 0, "type": "electric_scooter", "bike_id": "805455c142fe4f06ed6fa37f88688f85", "lat": 38.9259675, "lon": -77.02494133333333, "rental_uris": {"android": "https://dc.lft.to/lastmile_qr_scan", "ios": "https://dc.lft.to/lastmile_qr_scan"}, "is_disabled": 0, "fusion_lat": 0.0, "name": "805455c142fe4f06ed6fa37f88688f85", "fusion_lon": 0.0}, {"is_reserved": 0, "type": "electric_scooter", "bike_id": "6e6fa7afc1411f569ef2041cd5819d77", "lat": 38.896763166666666, "lon": -77.05046316666666, "rental_uris": {"android": "https://dc.lft.to/lastmile_qr_scan", "ios": "https://dc.lft.to/lastmile_qr_scan"}, "is_disabled": 0, "fusion_lat": 0.0, "name": "6e6fa7afc1411f569ef2041cd5819d77", "fusion_lon": 0.0}, {"is_reserved": 0, "type": "electric_scooter", "bike_id": "1d8b2478db063b0bffe0e4da59b2dc63", "lat": 38.900166, "lon": -77.0464905, "rental_uris": {"android": "https://dc.lft.to/lastmile_qr_scan", "ios": "https://dc.lft.to/lastmile_qr_scan"}, "is_disabled": 0, "fusion_lat": 0.0, "name": "1d8b2478db063b0bffe0e4da59b2dc63", "fusion_lon": 0.0}, {"is_reserved": 0, "type": "electric_scooter", "bike_id": "6f230007cfb91862da1d3f03631d5438", "lat": 38.92405433333333, "lon": -77.03668433333333, "rental_uris": {"android": "https://dc.lft.to/lastmile_qr_scan", "ios": "https://dc.lft.to/lastmile_qr_scan"}, "is_disabled": 0, "fusion_lat": 0.0, "name": "6f230007cfb91862da1d3f03631d5438", "fusion_lon": 0.0}, {"is_reserved": 0, "type": "electric_scooter", "bike_id": "d8b2c78bd20538fa3e1fbd7d447b02fe", "lat": 38.8844295, "lon": -77.02471066666666, "rental_uris": {"android": "https://dc.lft.to/lastmile_qr_scan", "ios": "https://dc.lft.to/lastmile_qr_scan"}, "is_disabled": 0, "fusion_lat": 0.0, "name": "d8b2c78bd20538fa3e1fbd7d447b02fe", "fusion_lon": 0.0}, {"is_reserved": 0, "type": "electric_scooter", "bike_id": "1dcbbb6aff8a286771ced83d9816c5b3", "lat": 38.92110383333333, "lon": -77.03657366666667, "rental_uris": {"android": "https://dc.lft.to/lastmile_qr_scan", "ios": "https://dc.lft.to/lastmile_qr_scan"}, "is_disabled": 0, "fusion_lat": 0.0, "name": "1dcbbb6aff8a286771ced83d9816c5b3", "fusion_lon": 0.0}, {"is_reserved": 0, "type": "electric_scooter", "bike_id": "d4e55e03a37ce13935d439302dd0893d", "lat": 38.927409, "lon": -77.053604, "rental_uris": {"android": "https://dc.lft.to/lastmile_qr_scan", "ios": "https://dc.lft.to/lastmile_qr_scan"}, "is_disabled": 0, "fusion_lat": 0.0, "name": "d4e55e03a37ce13935d439302dd0893d", "fusion_lon": 0.0}, {"is_reserved": 0, "type": "electric_scooter", "bike_id": "fd8f8658884905d291d138cdab984056", "lat": 38.89965316666667, "lon": -76.9385235, "rental_uris": {"android": "https://dc.lft.to/lastmile_qr_scan", "ios": "https://dc.lft.to/lastmile_qr_scan"}, "is_disabled": 0, "fusion_lat": 0.0, "name": "fd8f8658884905d291d138cdab984056", "fusion_lon": 0.0}, {"is_reserved": 0, "type": "electric_scooter", "bike_id": "c531c19fbd387a0b31cced77e4a9520e", "lat": 38.9174435, "lon": -77.01716933333333, "rental_uris": {"android": "https://dc.lft.to/lastmile_qr_scan", "ios": "https://dc.lft.to/lastmile_qr_scan"}, "is_disabled": 0, "fusion_lat": 0.0, "name": "c531c19fbd387a0b31cced77e4a9520e", "fusion_lon": 0.0}, {"is_reserved": 0, "type": "electric_scooter", "bike_id": "5c1ae019382c5ebd94955e5dcca9449d", "lat": 38.892226666666666, "lon": -77.043363, "rental_uris": {"android": "https://dc.lft.to/lastmile_qr_scan", "ios": "https://dc.lft.to/lastmile_qr_scan"}, "is_disabled": 0, "fusion_lat": 0.0, "name": "5c1ae019382c5ebd94955e5dcca9449d", "fusion_lon": 0.0}, {"is_reserved": 0, "type": "electric_scooter", "bike_id": "3f5e9b6676332d37d6d4165573cd7068", "lat": 38.92230033333333, "lon": -77.022382, "rental_uris": {"android": "https://dc.lft.to/lastmile_qr_scan", "ios": "https://dc.lft.to/lastmile_qr_scan"}, "is_disabled": 0, "fusion_lat": 0.0, "name": "3f5e9b6676332d37d6d4165573cd7068", "fusion_lon": 0.0}, {"is_reserved": 0, "type": "electric_scooter", "bike_id": "00e602bb84a2c292d81d191a1220aefb", "lat": 38.9210325, "lon": -77.043638, "rental_uris": {"android": "https://dc.lft.to/lastmile_qr_scan", "ios": "https://dc.lft.to/lastmile_qr_scan"}, "is_disabled": 0, "fusion_lat": 0.0, "name": "00e602bb84a2c292d81d191a1220aefb", "fusion_lon": 0.0}, {"is_reserved": 0, "type": "electric_scooter", "bike_id": "cbda517f75dfe5c4c2649c541bb1e931", "lat": 38.909524166666664, "lon": -77.04888283333334, "rental_uris": {"android": "https://dc.lft.to/lastmile_qr_scan", "ios": "https://dc.lft.to/lastmile_qr_scan"}, "is_disabled": 0, "fusion_lat": 0.0, "name": "cbda517f75dfe5c4c2649c541bb1e931", "fusion_lon": 0.0}, {"is_reserved": 0, "type": "electric_scooter", "bike_id": "60b5f3a10189f5d937ade8966d69d1f1", "lat": 38.8873645, "lon": -77.02204033333334, "rental_uris": {"android": "https://dc.lft.to/lastmile_qr_scan", "ios": "https://dc.lft.to/lastmile_qr_scan"}, "is_disabled": 0, "fusion_lat": 0.0, "name": "60b5f3a10189f5d937ade8966d69d1f1", "fusion_lon": 0.0}, {"is_reserved": 0, "type": "electric_scooter", "bike_id": "d9dd6f6e12c587c916155bb9e54633ee", "lat": 38.913421, "lon": -77.03208866666667, "rental_uris": {"android": "https://dc.lft.to/lastmile_qr_scan", "ios": "https://dc.lft.to/lastmile_qr_scan"}, "is_disabled": 0, "fusion_lat": 0.0, "name": "d9dd6f6e12c587c916155bb9e54633ee", "fusion_lon": 0.0}, {"is_reserved": 0, "type": "electric_scooter", "bike_id": "73fb7246db163c01f3fbc06a210788f6", "lat": 38.886377833333334, "lon": -77.01285783333333, "rental_uris": {"android": "https://dc.lft.to/lastmile_qr_scan", "ios": "https://dc.lft.to/lastmile_qr_scan"}, "is_disabled": 0, "fusion_lat": 0.0, "name": "73fb7246db163c01f3fbc06a210788f6", "fusion_lon": 0.0}, {"is_reserved": 0, "type": "electric_scooter", "bike_id": "e5bd00b38a4cf4fa68a7f4dcc794ce85", "lat": 38.91931533333333, "lon": -77.01975916666666, "rental_uris": {"android": "https://dc.lft.to/lastmile_qr_scan", "ios": "https://dc.lft.to/lastmile_qr_scan"}, "is_disabled": 0, "fusion_lat": 0.0, "name": "e5bd00b38a4cf4fa68a7f4dcc794ce85", "fusion_lon": 0.0}, {"is_reserved": 0, "type": "electric_scooter", "bike_id": "b37995428c01b3972dd8e38133a0583f", "lat": 38.927237, "lon": -77.016371, "rental_uris": {"android": "https://dc.lft.to/lastmile_qr_scan", "ios": "https://dc.lft.to/lastmile_qr_scan"}, "is_disabled": 0, "fusion_lat": 0.0, "name": "b37995428c01b3972dd8e38133a0583f", "fusion_lon": 0.0}, {"is_reserved": 0, "type": "electric_scooter", "bike_id": "8f1cedf310e71f8ce463a577d52cdeb1", "lat": 38.89819583333333, "lon": -77.03243033333334, "rental_uris": {"android": "https://dc.lft.to/lastmile_qr_scan", "ios": "https://dc.lft.to/lastmile_qr_scan"}, "is_disabled": 0, "fusion_lat": 0.0, "name": "8f1cedf310e71f8ce463a577d52cdeb1", "fusion_lon": 0.0}, {"is_reserved": 0, "type": "electric_scooter", "bike_id": "877f942f1d87dc9457e31262d710e896", "lat": 38.90117866666667, "lon": -77.02725866666667, "rental_uris": {"android": "https://dc.lft.to/lastmile_qr_scan", "ios": "https://dc.lft.to/lastmile_qr_scan"}, "is_disabled": 0, "fusion_lat": 0.0, "name": "877f942f1d87dc9457e31262d710e896", "fusion_lon": 0.0}, {"is_reserved": 0, "type": "electric_scooter", "bike_id": "e9df30e9e949a7c0a94d5098d730e05b", "lat": 38.90144433333333, "lon": -77.0418455, "rental_uris": {"android": "https://dc.lft.to/lastmile_qr_scan", "ios": "https://dc.lft.to/lastmile_qr_scan"}, "is_disabled": 0, "fusion_lat": 0.0, "name": "e9df30e9e949a7c0a94d5098d730e05b", "fusion_lon": 0.0}, {"is_reserved": 0, "type": "electric_scooter", "bike_id": "265879cb60b07e4942ec752f8ee66332", "lat": 38.89500183333333, "lon": -77.04636216666667, "rental_uris": {"android": "https://dc.lft.to/lastmile_qr_scan", "ios": "https://dc.lft.to/lastmile_qr_scan"}, "is_disabled": 0, "fusion_lat": 0.0, "name": "265879cb60b07e4942ec752f8ee66332", "fusion_lon": 0.0}, {"is_reserved": 0, "type": "electric_scooter", "bike_id": "e30d50f02440d3527556645ac57369ae", "lat": 38.89717366666667, "lon": -77.00796516666666, "rental_uris": {"android": "https://dc.lft.to/lastmile_qr_scan", "ios": "https://dc.lft.to/lastmile_qr_scan"}, "is_disabled": 0, "fusion_lat": 0.0, "name": "e30d50f02440d3527556645ac57369ae", "fusion_lon": 0.0}, {"is_reserved": 0, "type": "electric_scooter", "bike_id": "dbbf1e7894d0d092ff744a436a0e68dd", "lat": 38.92055283333333, "lon": -77.0418645, "rental_uris": {"android": "https://dc.lft.to/lastmile_qr_scan", "ios": "https://dc.lft.to/lastmile_qr_scan"}, "is_disabled": 0, "fusion_lat": 0.0, "name": "dbbf1e7894d0d092ff744a436a0e68dd", "fusion_lon": 0.0}, {"is_reserved": 0, "type": "electric_scooter", "bike_id": "e8bce4bc275d6ee7ff9f597d502c6a93", "lat": 38.90273883333333, "lon": -77.03969416666666, "rental_uris": {"android": "https://dc.lft.to/lastmile_qr_scan", "ios": "https://dc.lft.to/lastmile_qr_scan"}, "is_disabled": 0, "fusion_lat": 0.0, "name": "e8bce4bc275d6ee7ff9f597d502c6a93", "fusion_lon": 0.0}, {"is_reserved": 0, "type": "electric_scooter", "bike_id": "a76497ed019956cecd8b066af9d636d8", "lat": 38.895473333333335, "lon": -76.983387, "rental_uris": {"android": "https://dc.lft.to/lastmile_qr_scan", "ios": "https://dc.lft.to/lastmile_qr_scan"}, "is_disabled": 0, "fusion_lat": 0.0, "name": "a76497ed019956cecd8b066af9d636d8", "fusion_lon": 0.0}, {"is_reserved": 0, "type": "electric_scooter", "bike_id": "68c628084eefaae893ed4f33c2687e4d", "lat": 38.89886816666667, "lon": -76.98835133333333, "rental_uris": {"android": "https://dc.lft.to/lastmile_qr_scan", "ios": "https://dc.lft.to/lastmile_qr_scan"}, "is_disabled": 0, "fusion_lat": 0.0, "name": "68c628084eefaae893ed4f33c2687e4d", "fusion_lon": 0.0}, {"is_reserved": 0, "type": "electric_scooter", "bike_id": "a0c6782a6060bd8a29fc7c1b313a68d3", "lat": 38.90504283333333, "lon": -77.02948666666667, "rental_uris": {"android": "https://dc.lft.to/lastmile_qr_scan", "ios": "https://dc.lft.to/lastmile_qr_scan"}, "is_disabled": 0, "fusion_lat": 0.0, "name": "a0c6782a6060bd8a29fc7c1b313a68d3", "fusion_lon": 0.0}, {"is_reserved": 0, "type": "electric_scooter", "bike_id": "347655aaf374540a0265a0aff00498d0", "lat": 38.914949666666665, "lon": -77.0122605, "rental_uris": {"android": "https://dc.lft.to/lastmile_qr_scan", "ios": "https://dc.lft.to/lastmile_qr_scan"}, "is_disabled": 0, "fusion_lat": 0.0, "name": "347655aaf374540a0265a0aff00498d0", "fusion_lon": 0.0}, {"is_reserved": 0, "type": "electric_scooter", "bike_id": "5d8ac9210df5cf99da88f01cbe8a069b", "lat": 38.916251333333335, "lon": -77.02810533333333, "rental_uris": {"android": "https://dc.lft.to/lastmile_qr_scan", "ios": "https://dc.lft.to/lastmile_qr_scan"}, "is_disabled": 0, "fusion_lat": 0.0, "name": "5d8ac9210df5cf99da88f01cbe8a069b", "fusion_lon": 0.0}, {"is_reserved": 0, "type": "electric_scooter", "bike_id": "ecbbe8ef192ae2e5ad89e3db6fe08fca", "lat": 38.921249, "lon": -77.01798533333333, "rental_uris": {"android": "https://dc.lft.to/lastmile_qr_scan", "ios": "https://dc.lft.to/lastmile_qr_scan"}, "is_disabled": 0, "fusion_lat": 0.0, "name": "ecbbe8ef192ae2e5ad89e3db6fe08fca", "fusion_lon": 0.0}, {"is_reserved": 0, "type": "electric_scooter", "bike_id": "6165c41092bcb89d8f4e7d8c78921d0f", "lat": 38.924200166666665, "lon": -77.01945283333333, "rental_uris": {"android": "https://dc.lft.to/lastmile_qr_scan", "ios": "https://dc.lft.to/lastmile_qr_scan"}, "is_disabled": 0, "fusion_lat": 0.0, "name": "6165c41092bcb89d8f4e7d8c78921d0f", "fusion_lon": 0.0}, {"is_reserved": 0, "type": "electric_scooter", "bike_id": "958f2d9cf99740a1f2319416eca5e7d0", "lat": 38.88342333333333, "lon": -77.0203115, "rental_uris": {"android": "https://dc.lft.to/lastmile_qr_scan", "ios": "https://dc.lft.to/lastmile_qr_scan"}, "is_disabled": 0, "fusion_lat": 0.0, "name": "958f2d9cf99740a1f2319416eca5e7d0", "fusion_lon": 0.0}, {"is_reserved": 0, "type": "electric_scooter", "bike_id": "2a746d0727ffba9431c098faca326662", "lat": 38.940362666666665, "lon": -77.02495483333334, "rental_uris": {"android": "https://dc.lft.to/lastmile_qr_scan", "ios": "https://dc.lft.to/lastmile_qr_scan"}, "is_disabled": 0, "fusion_lat": 0.0, "name": "2a746d0727ffba9431c098faca326662", "fusion_lon": 0.0}, {"is_reserved": 0, "type": "electric_scooter", "bike_id": "942127d323ff89a5c947276473958f6d", "lat": 38.917063666666664, "lon": -77.02679283333333, "rental_uris": {"android": "https://dc.lft.to/lastmile_qr_scan", "ios": "https://dc.lft.to/lastmile_qr_scan"}, "is_disabled": 0, "fusion_lat": 0.0, "name": "942127d323ff89a5c947276473958f6d", "fusion_lon": 0.0}, {"is_reserved": 0, "type": "electric_scooter", "bike_id": "c190e7e47e0e2c1c3988d50a6c1b8de6", "lat": 38.935469499999996, "lon": -77.07279866666667, "rental_uris": {"android": "https://dc.lft.to/lastmile_qr_scan", "ios": "https://dc.lft.to/lastmile_qr_scan"}, "is_disabled": 0, "fusion_lat": 0.0, "name": "c190e7e47e0e2c1c3988d50a6c1b8de6", "fusion_lon": 0.0}, {"is_reserved": 0, "type": "electric_scooter", "bike_id": "5d2a1b0540c9bcf09c93505f1daae8ed", "lat": 38.938571, "lon": -77.0758405, "rental_uris": {"android": "https://dc.lft.to/lastmile_qr_scan", "ios": "https://dc.lft.to/lastmile_qr_scan"}, "is_disabled": 0, "fusion_lat": 0.0, "name": "5d2a1b0540c9bcf09c93505f1daae8ed", "fusion_lon": 0.0}, {"is_reserved": 0, "type": "electric_scooter", "bike_id": "a4df47d204b0133ed3b9a6e34a40a40d", "lat": 38.916403833333334, "lon": -77.02104983333334, "rental_uris": {"android": "https://dc.lft.to/lastmile_qr_scan", "ios": "https://dc.lft.to/lastmile_qr_scan"}, "is_disabled": 0, "fusion_lat": 0.0, "name": "a4df47d204b0133ed3b9a6e34a40a40d", "fusion_lon": 0.0}, {"is_reserved": 0, "type": "electric_bike", "bike_id": "887c9e20f2248d081b406b225c3d45cc", "lat": 38.802622, "lon": -77.12175833333333, "rental_uris": {"android": "https://dc.lft.to/lastmile_qr_scan", "ios": "https://dc.lft.to/lastmile_qr_scan"}, "is_disabled": 0, "fusion_lat": 0.0, "name": "887c9e20f2248d081b406b225c3d45cc", "fusion_lon": 0.0}, {"is_reserved": 0, "type": "electric_scooter", "bike_id": "f6cd38d1ceb12d3b3a175f9f9c71ade0", "lat": 38.92604433333333, "lon": -77.05709133333333, "rental_uris": {"android": "https://dc.lft.to/lastmile_qr_scan", "ios": "https://dc.lft.to/lastmile_qr_scan"}, "is_disabled": 0, "fusion_lat": 0.0, "name": "f6cd38d1ceb12d3b3a175f9f9c71ade0", "fusion_lon": 0.0}, {"is_reserved": 0, "type": "electric_scooter", "bike_id": "48158b68ef6825bbd2647150f339718f", "lat": 38.90620633333333, "lon": -77.0515375, "rental_uris": {"android": "https://dc.lft.to/lastmile_qr_scan", "ios": "https://dc.lft.to/lastmile_qr_scan"}, "is_disabled": 0, "fusion_lat": 0.0, "name": "48158b68ef6825bbd2647150f339718f", "fusion_lon": 0.0}, {"is_reserved": 0, "type": "electric_scooter", "bike_id": "fbc45a1ccd9a9d4aee0bd513fc6b9408", "lat": 38.900188166666666, "lon": -76.99685483333333, "rental_uris": {"android": "https://dc.lft.to/lastmile_qr_scan", "ios": "https://dc.lft.to/lastmile_qr_scan"}, "is_disabled": 0, "fusion_lat": 0.0, "name": "fbc45a1ccd9a9d4aee0bd513fc6b9408", "fusion_lon": 0.0}, {"is_reserved": 0, "type": "electric_bike", "bike_id": "8fa7872d734501ca0f2a13494a63e16c", "lat": 38.88756133333333, "lon": -77.089285, "rental_uris": {"android": "https://dc.lft.to/lastmile_qr_scan", "ios": "https://dc.lft.to/lastmile_qr_scan"}, "is_disabled": 0, "fusion_lat": 0.0, "name": "8fa7872d734501ca0f2a13494a63e16c", "fusion_lon": 0.0}, {"is_reserved": 0, "type": "electric_scooter", "bike_id": "55a900da12a08eef68030b3ee75f24eb", "lat": 38.92677716666667, "lon": -77.03028783333333, "rental_uris": {"android": "https://dc.lft.to/lastmile_qr_scan", "ios": "https://dc.lft.to/lastmile_qr_scan"}, "is_disabled": 0, "fusion_lat": 0.0, "name": "55a900da12a08eef68030b3ee75f24eb", "fusion_lon": 0.0}, {"is_reserved": 0, "type": "electric_scooter", "bike_id": "fb512f3e0e749011895f47b7c9f2449b", "lat": 38.9215295, "lon": -77.03356466666666, "rental_uris": {"android": "https://dc.lft.to/lastmile_qr_scan", "ios": "https://dc.lft.to/lastmile_qr_scan"}, "is_disabled": 0, "fusion_lat": 0.0, "name": "fb512f3e0e749011895f47b7c9f2449b", "fusion_lon": 0.0}, {"is_reserved": 0, "type": "electric_scooter", "bike_id": "8455c5d189d028573450aa742a1579cd", "lat": 38.912193, "lon": -77.0760635, "rental_uris": {"android": "https://dc.lft.to/lastmile_qr_scan", "ios": "https://dc.lft.to/lastmile_qr_scan"}, "is_disabled": 0, "fusion_lat": 0.0, "name": "8455c5d189d028573450aa742a1579cd", "fusion_lon": 0.0}, {"is_reserved": 0, "type": "electric_scooter", "bike_id": "ac6bc01493e099a61a5d95a5437deff1", "lat": 38.926079, "lon": -77.0215385, "rental_uris": {"android": "https://dc.lft.to/lastmile_qr_scan", "ios": "https://dc.lft.to/lastmile_qr_scan"}, "is_disabled": 0, "fusion_lat": 0.0, "name": "ac6bc01493e099a61a5d95a5437deff1", "fusion_lon": 0.0}, {"is_reserved": 0, "type": "electric_scooter", "bike_id": "b5e55d0f1d45b34d73938670da63e26f", "lat": 38.92682416666667, "lon": -77.03200483333333, "rental_uris": {"android": "https://dc.lft.to/lastmile_qr_scan", "ios": "https://dc.lft.to/lastmile_qr_scan"}, "is_disabled": 0, "fusion_lat": 0.0, "name": "b5e55d0f1d45b34d73938670da63e26f", "fusion_lon": 0.0}, {"is_reserved": 0, "type": "electric_scooter", "bike_id": "1eaad0d9d336f182f12bf527b3a62d57", "lat": 38.89594233333333, "lon": -77.030118, "rental_uris": {"android": "https://dc.lft.to/lastmile_qr_scan", "ios": "https://dc.lft.to/lastmile_qr_scan"}, "is_disabled": 0, "fusion_lat": 0.0, "name": "1eaad0d9d336f182f12bf527b3a62d57", "fusion_lon": 0.0}, {"is_reserved": 0, "type": "electric_scooter", "bike_id": "cf717cb1a2b1706bd6123dead10059f2", "lat": 38.945987833333334, "lon": -77.02033166666666, "rental_uris": {"android": "https://dc.lft.to/lastmile_qr_scan", "ios": "https://dc.lft.to/lastmile_qr_scan"}, "is_disabled": 0, "fusion_lat": 0.0, "name": "cf717cb1a2b1706bd6123dead10059f2", "fusion_lon": 0.0}, {"is_reserved": 0, "type": "electric_scooter", "bike_id": "465dbe6e4a4f71916a42326bc29dbcf9", "lat": 38.88738433333333, "lon": -77.00347833333333, "rental_uris": {"android": "https://dc.lft.to/lastmile_qr_scan", "ios": "https://dc.lft.to/lastmile_qr_scan"}, "is_disabled": 0, "fusion_lat": 0.0, "name": "465dbe6e4a4f71916a42326bc29dbcf9", "fusion_lon": 0.0}, {"is_reserved": 0, "type": "electric_scooter", "bike_id": "08dd069ca15708598e0a64240fd7fcb6", "lat": 38.93457133333333, "lon": -77.02919816666666, "rental_uris": {"android": "https://dc.lft.to/lastmile_qr_scan", "ios": "https://dc.lft.to/lastmile_qr_scan"}, "is_disabled": 0, "fusion_lat": 0.0, "name": "08dd069ca15708598e0a64240fd7fcb6", "fusion_lon": 0.0}, {"is_reserved": 0, "type": "electric_scooter", "bike_id": "c7c9e421d2d028e2feae137795d9c4a1", "lat": 38.89636516666667, "lon": -76.92804083333333, "rental_uris": {"android": "https://dc.lft.to/lastmile_qr_scan", "ios": "https://dc.lft.to/lastmile_qr_scan"}, "is_disabled": 0, "fusion_lat": 0.0, "name": "c7c9e421d2d028e2feae137795d9c4a1", "fusion_lon": 0.0}, {"is_reserved": 0, "type": "electric_scooter", "bike_id": "12436c48d1541ebc424b9c3424fd5597", "lat": 38.923308666666664, "lon": -77.03499333333333, "rental_uris": {"android": "https://dc.lft.to/lastmile_qr_scan", "ios": "https://dc.lft.to/lastmile_qr_scan"}, "is_disabled": 0, "fusion_lat": 0.0, "name": "12436c48d1541ebc424b9c3424fd5597", "fusion_lon": 0.0}, {"is_reserved": 0, "type": "electric_scooter", "bike_id": "fbbe4817d454dc6564d31062db687aa2", "lat": 38.8765155, "lon": -77.01571783333333, "rental_uris": {"android": "https://dc.lft.to/lastmile_qr_scan", "ios": "https://dc.lft.to/lastmile_qr_scan"}, "is_disabled": 0, "fusion_lat": 0.0, "name": "fbbe4817d454dc6564d31062db687aa2", "fusion_lon": 0.0}, {"is_reserved": 0, "type": "electric_scooter", "bike_id": "4e804858bb9c7fad5e24e140b6208430", "lat": 38.90032566666667, "lon": -76.99638833333333, "rental_uris": {"android": "https://dc.lft.to/lastmile_qr_scan", "ios": "https://dc.lft.to/lastmile_qr_scan"}, "is_disabled": 0, "fusion_lat": 0.0, "name": "4e804858bb9c7fad5e24e140b6208430", "fusion_lon": 0.0}, {"is_reserved": 0, "type": "electric_bike", "bike_id": "9cf65f671b91d58337e6379e1da254fa", "lat": 38.942599333333334, "lon": -76.99073566666667, "rental_uris": {"android": "https://dc.lft.to/lastmile_qr_scan", "ios": "https://dc.lft.to/lastmile_qr_scan"}, "is_disabled": 0, "fusion_lat": 0.0, "name": "9cf65f671b91d58337e6379e1da254fa", "fusion_lon": 0.0}, {"is_reserved": 0, "type": "electric_scooter", "bike_id": "f16018e6371fef19f231ba9feb8c6b98", "lat": 38.901971833333334, "lon": -77.02180516666667, "rental_uris": {"android": "https://dc.lft.to/lastmile_qr_scan", "ios": "https://dc.lft.to/lastmile_qr_scan"}, "is_disabled": 0, "fusion_lat": 0.0, "name": "f16018e6371fef19f231ba9feb8c6b98", "fusion_lon": 0.0}, {"is_reserved": 0, "type": "electric_scooter", "bike_id": "6c615c5302ec47f1297c66ddfb59d9c3", "lat": 38.897074, "lon": -77.0434505, "rental_uris": {"android": "https://dc.lft.to/lastmile_qr_scan", "ios": "https://dc.lft.to/lastmile_qr_scan"}, "is_disabled": 0, "fusion_lat": 0.0, "name": "6c615c5302ec47f1297c66ddfb59d9c3", "fusion_lon": 0.0}, {"is_reserved": 0, "type": "electric_scooter", "bike_id": "18f9c9e268be6a85351340f11e12457c", "lat": 38.8947035, "lon": -76.99710566666667, "rental_uris": {"android": "https://dc.lft.to/lastmile_qr_scan", "ios": "https://dc.lft.to/lastmile_qr_scan"}, "is_disabled": 0, "fusion_lat": 0.0, "name": "18f9c9e268be6a85351340f11e12457c", "fusion_lon": 0.0}, {"is_reserved": 0, "type": "electric_scooter", "bike_id": "69f9b8805ea9c4d34fcf97420cb5b304", "lat": 38.9590675, "lon": -77.0003155, "rental_uris": {"android": "https://dc.lft.to/lastmile_qr_scan", "ios": "https://dc.lft.to/lastmile_qr_scan"}, "is_disabled": 0, "fusion_lat": 0.0, "name": "69f9b8805ea9c4d34fcf97420cb5b304", "fusion_lon": 0.0}, {"is_reserved": 0, "type": "electric_scooter", "bike_id": "64634e861793fc001fe9691aecfc9999", "lat": 38.901179166666665, "lon": -77.0417655, "rental_uris": {"android": "https://dc.lft.to/lastmile_qr_scan", "ios": "https://dc.lft.to/lastmile_qr_scan"}, "is_disabled": 0, "fusion_lat": 0.0, "name": "64634e861793fc001fe9691aecfc9999", "fusion_lon": 0.0}, {"is_reserved": 0, "type": "electric_bike", "bike_id": "83286b1ba54faedf355d58d446807f19", "lat": 38.894624, "lon": -77.191368, "rental_uris": {"android": "https://dc.lft.to/lastmile_qr_scan", "ios": "https://dc.lft.to/lastmile_qr_scan"}, "is_disabled": 0, "fusion_lat": 0.0, "name": "83286b1ba54faedf355d58d446807f19", "fusion_lon": 0.0}, {"is_reserved": 0, "type": "electric_scooter", "bike_id": "2f8d454a87f87db1b957c4973ae4691b", "lat": 38.906374166666666, "lon": -77.04858283333333, "rental_uris": {"android": "https://dc.lft.to/lastmile_qr_scan", "ios": "https://dc.lft.to/lastmile_qr_scan"}, "is_disabled": 0, "fusion_lat": 0.0, "name": "2f8d454a87f87db1b957c4973ae4691b", "fusion_lon": 0.0}, {"is_reserved": 0, "type": "electric_scooter", "bike_id": "c1b98dce189d600b81bf222a322a37ba", "lat": 38.88395, "lon": -76.93042366666667, "rental_uris": {"android": "https://dc.lft.to/lastmile_qr_scan", "ios": "https://dc.lft.to/lastmile_qr_scan"}, "is_disabled": 0, "fusion_lat": 0.0, "name": "c1b98dce189d600b81bf222a322a37ba", "fusion_lon": 0.0}, {"is_reserved": 0, "type": "electric_scooter", "bike_id": "3122fb0a678adcb2cba45cd442be82d5", "lat": 38.9233005, "lon": -77.03675383333334, "rental_uris": {"android": "https://dc.lft.to/lastmile_qr_scan", "ios": "https://dc.lft.to/lastmile_qr_scan"}, "is_disabled": 0, "fusion_lat": 0.0, "name": "3122fb0a678adcb2cba45cd442be82d5", "fusion_lon": 0.0}, {"is_reserved": 0, "type": "electric_scooter", "bike_id": "d0f4e5d75353763f9c78b07011caf335", "lat": 38.90639916666667, "lon": -77.01136516666666, "rental_uris": {"android": "https://dc.lft.to/lastmile_qr_scan", "ios": "https://dc.lft.to/lastmile_qr_scan"}, "is_disabled": 0, "fusion_lat": 0.0, "name": "d0f4e5d75353763f9c78b07011caf335", "fusion_lon": 0.0}, {"is_reserved": 0, "type": "electric_scooter", "bike_id": "2122c88306cda659df4117140295a6dd", "lat": 38.91410183333333, "lon": -77.02609483333333, "rental_uris": {"android": "https://dc.lft.to/lastmile_qr_scan", "ios": "https://dc.lft.to/lastmile_qr_scan"}, "is_disabled": 0, "fusion_lat": 0.0, "name": "2122c88306cda659df4117140295a6dd", "fusion_lon": 0.0}, {"is_reserved": 0, "type": "electric_scooter", "bike_id": "df949dc611dd135df8bbb49be5ba1116", "lat": 38.944406, "lon": -77.06359583333334, "rental_uris": {"android": "https://dc.lft.to/lastmile_qr_scan", "ios": "https://dc.lft.to/lastmile_qr_scan"}, "is_disabled": 0, "fusion_lat": 0.0, "name": "df949dc611dd135df8bbb49be5ba1116", "fusion_lon": 0.0}, {"is_reserved": 0, "type": "electric_scooter", "bike_id": "5a862f550138dd3eb01bc1e68099b53c", "lat": 38.9323845, "lon": -77.02962716666667, "rental_uris": {"android": "https://dc.lft.to/lastmile_qr_scan", "ios": "https://dc.lft.to/lastmile_qr_scan"}, "is_disabled": 0, "fusion_lat": 0.0, "name": "5a862f550138dd3eb01bc1e68099b53c", "fusion_lon": 0.0}, {"is_reserved": 0, "type": "electric_scooter", "bike_id": "c295abb7394f7baf0476dd11dfc5c6a4", "lat": 38.90594166666666, "lon": -76.9505795, "rental_uris": {"android": "https://dc.lft.to/lastmile_qr_scan", "ios": "https://dc.lft.to/lastmile_qr_scan"}, "is_disabled": 0, "fusion_lat": 0.0, "name": "c295abb7394f7baf0476dd11dfc5c6a4", "fusion_lon": 0.0}, {"is_reserved": 0, "type": "electric_scooter", "bike_id": "6457a63a3cfb233d881cf5efd7be2e6c", "lat": 38.944931, "lon": -77.007409, "rental_uris": {"android": "https://dc.lft.to/lastmile_qr_scan", "ios": "https://dc.lft.to/lastmile_qr_scan"}, "is_disabled": 0, "fusion_lat": 0.0, "name": "6457a63a3cfb233d881cf5efd7be2e6c", "fusion_lon": 0.0}, {"is_reserved": 0, "type": "electric_bike", "bike_id": "3e4fe53faed81a5abba3ef0b9305f56c", "lat": 38.83239566666666, "lon": -76.94622633333333, "rental_uris": {"android": "https://dc.lft.to/lastmile_qr_scan", "ios": "https://dc.lft.to/lastmile_qr_scan"}, "is_disabled": 0, "fusion_lat": 0.0, "name": "3e4fe53faed81a5abba3ef0b9305f56c", "fusion_lon": 0.0}, {"is_reserved": 0, "type": "electric_scooter", "bike_id": "6fbb9fc41f05fd88b7f88920a70b6c87", "lat": 38.904851, "lon": -77.041874, "rental_uris": {"android": "https://dc.lft.to/lastmile_qr_scan", "ios": "https://dc.lft.to/lastmile_qr_scan"}, "is_disabled": 0, "fusion_lat": 0.0, "name": "6fbb9fc41f05fd88b7f88920a70b6c87", "fusion_lon": 0.0}, {"is_reserved": 0, "type": "electric_scooter", "bike_id": "de53d9465ca6490fe129b5e1e5cf964e", "lat": 38.93340716666667, "lon": -77.02423866666666, "rental_uris": {"android": "https://dc.lft.to/lastmile_qr_scan", "ios": "https://dc.lft.to/lastmile_qr_scan"}, "is_disabled": 0, "fusion_lat": 0.0, "name": "de53d9465ca6490fe129b5e1e5cf964e", "fusion_lon": 0.0}, {"is_reserved": 0, "type": "electric_scooter", "bike_id": "c805319db547ba26c32a64d52aca14f3", "lat": 38.927135, "lon": -77.02106483333333, "rental_uris": {"android": "https://dc.lft.to/lastmile_qr_scan", "ios": "https://dc.lft.to/lastmile_qr_scan"}, "is_disabled": 0, "fusion_lat": 0.0, "name": "c805319db547ba26c32a64d52aca14f3", "fusion_lon": 0.0}, {"is_reserved": 0, "type": "electric_bike", "bike_id": "3240f950a66f0b3edd644a4f3e0ea81b", "lat": 38.9449395, "lon": -77.00682866666666, "rental_uris": {"android": "https://dc.lft.to/lastmile_qr_scan", "ios": "https://dc.lft.to/lastmile_qr_scan"}, "is_disabled": 0, "fusion_lat": 0.0, "name": "3240f950a66f0b3edd644a4f3e0ea81b", "fusion_lon": 0.0}, {"is_reserved": 0, "type": "electric_bike", "bike_id": "350bc787a6d56acaef48a02f7c7489dd", "lat": 38.82337883333334, "lon": -77.05824133333333, "rental_uris": {"android": "https://dc.lft.to/lastmile_qr_scan", "ios": "https://dc.lft.to/lastmile_qr_scan"}, "is_disabled": 0, "fusion_lat": 0.0, "name": "350bc787a6d56acaef48a02f7c7489dd", "fusion_lon": 0.0}, {"is_reserved": 0, "type": "electric_scooter", "bike_id": "c0175d346e989d906345b414e007126d", "lat": 38.911266833333336, "lon": -77.02197633333333, "rental_uris": {"android": "https://dc.lft.to/lastmile_qr_scan", "ios": "https://dc.lft.to/lastmile_qr_scan"}, "is_disabled": 0, "fusion_lat": 0.0, "name": "c0175d346e989d906345b414e007126d", "fusion_lon": 0.0}, {"is_reserved": 0, "type": "electric_scooter", "bike_id": "6329f45fa44ca2202d2d19a14c27fa9b", "lat": 38.905204166666664, "lon": -77.026048, "rental_uris": {"android": "https://dc.lft.to/lastmile_qr_scan", "ios": "https://dc.lft.to/lastmile_qr_scan"}, "is_disabled": 0, "fusion_lat": 0.0, "name": "6329f45fa44ca2202d2d19a14c27fa9b", "fusion_lon": 0.0}, {"is_reserved": 0, "type": "electric_bike", "bike_id": "cb81a2ecc3214504bdcbb90a69e2f7d3", "lat": 38.883895, "lon": -76.95453566666667, "rental_uris": {"android": "https://dc.lft.to/lastmile_qr_scan", "ios": "https://dc.lft.to/lastmile_qr_scan"}, "is_disabled": 0, "fusion_lat": 0.0, "name": "cb81a2ecc3214504bdcbb90a69e2f7d3", "fusion_lon": 0.0}, {"is_reserved": 0, "type": "electric_scooter", "bike_id": "bb130ae284b8d7051664cc5c4e8235dc", "lat": 38.89863833333333, "lon": -77.039336, "rental_uris": {"android": "https://dc.lft.to/lastmile_qr_scan", "ios": "https://dc.lft.to/lastmile_qr_scan"}, "is_disabled": 0, "fusion_lat": 0.0, "name": "bb130ae284b8d7051664cc5c4e8235dc", "fusion_lon": 0.0}, {"is_reserved": 0, "type": "electric_scooter", "bike_id": "7d2dad08016fa64170af83a97d8604d4", "lat": 38.918477833333334, "lon": -77.02311516666667, "rental_uris": {"android": "https://dc.lft.to/lastmile_qr_scan", "ios": "https://dc.lft.to/lastmile_qr_scan"}, "is_disabled": 0, "fusion_lat": 0.0, "name": "7d2dad08016fa64170af83a97d8604d4", "fusion_lon": 0.0}, {"is_reserved": 0, "type": "electric_scooter", "bike_id": "e05c7d6e5980fc6985efad9cb9940d63", "lat": 38.905614166666666, "lon": -77.00743283333334, "rental_uris": {"android": "https://dc.lft.to/lastmile_qr_scan", "ios": "https://dc.lft.to/lastmile_qr_scan"}, "is_disabled": 0, "fusion_lat": 0.0, "name": "e05c7d6e5980fc6985efad9cb9940d63", "fusion_lon": 0.0}, {"is_reserved": 0, "type": "electric_scooter", "bike_id": "307a18ad4db88d3585599726b35d5b17", "lat": 38.9140305, "lon": -77.02207783333333, "rental_uris": {"android": "https://dc.lft.to/lastmile_qr_scan", "ios": "https://dc.lft.to/lastmile_qr_scan"}, "is_disabled": 0, "fusion_lat": 0.0, "name": "307a18ad4db88d3585599726b35d5b17", "fusion_lon": 0.0}, {"is_reserved": 0, "type": "electric_scooter", "bike_id": "1364119e5726a91c8dbba23abc6bc83e", "lat": 38.89963566666667, "lon": -77.0164075, "rental_uris": {"android": "https://dc.lft.to/lastmile_qr_scan", "ios": "https://dc.lft.to/lastmile_qr_scan"}, "is_disabled": 0, "fusion_lat": 0.0, "name": "1364119e5726a91c8dbba23abc6bc83e", "fusion_lon": 0.0}, {"is_reserved": 0, "type": "electric_scooter", "bike_id": "9dfb6fe7b67331e3aac395dab3757cbf", "lat": 38.862205333333335, "lon": -76.97917216666667, "rental_uris": {"android": "https://dc.lft.to/lastmile_qr_scan", "ios": "https://dc.lft.to/lastmile_qr_scan"}, "is_disabled": 0, "fusion_lat": 0.0, "name": "9dfb6fe7b67331e3aac395dab3757cbf", "fusion_lon": 0.0}, {"is_reserved": 0, "type": "electric_scooter", "bike_id": "f1df6cf2a7efbe86f91d6fccca015c2f", "lat": 38.884433333333334, "lon": -76.95771866666666, "rental_uris": {"android": "https://dc.lft.to/lastmile_qr_scan", "ios": "https://dc.lft.to/lastmile_qr_scan"}, "is_disabled": 0, "fusion_lat": 0.0, "name": "f1df6cf2a7efbe86f91d6fccca015c2f", "fusion_lon": 0.0}, {"is_reserved": 0, "type": "electric_scooter", "bike_id": "bc4bcbbacc3e7058e5bb2aa2387f3c46", "lat": 38.915668333333336, "lon": -77.03092016666666, "rental_uris": {"android": "https://dc.lft.to/lastmile_qr_scan", "ios": "https://dc.lft.to/lastmile_qr_scan"}, "is_disabled": 0, "fusion_lat": 0.0, "name": "bc4bcbbacc3e7058e5bb2aa2387f3c46", "fusion_lon": 0.0}, {"is_reserved": 0, "type": "electric_scooter", "bike_id": "8cca9d437801f655941bb95ef0980d7f", "lat": 38.878443, "lon": -77.00128766666667, "rental_uris": {"android": "https://dc.lft.to/lastmile_qr_scan", "ios": "https://dc.lft.to/lastmile_qr_scan"}, "is_disabled": 0, "fusion_lat": 0.0, "name": "8cca9d437801f655941bb95ef0980d7f", "fusion_lon": 0.0}, {"is_reserved": 0, "type": "electric_scooter", "bike_id": "6412015e217c4f3d2edbe13bf01ac81a", "lat": 38.93716333333333, "lon": -77.03267083333333, "rental_uris": {"android": "https://dc.lft.to/lastmile_qr_scan", "ios": "https://dc.lft.to/lastmile_qr_scan"}, "is_disabled": 0, "fusion_lat": 0.0, "name": "6412015e217c4f3d2edbe13bf01ac81a", "fusion_lon": 0.0}, {"is_reserved": 0, "type": "electric_scooter", "bike_id": "a45d57e5850c28e0f7c3c5d8b86a6e51", "lat": 38.89611266666667, "lon": -77.044168, "rental_uris": {"android": "https://dc.lft.to/lastmile_qr_scan", "ios": "https://dc.lft.to/lastmile_qr_scan"}, "is_disabled": 0, "fusion_lat": 0.0, "name": "a45d57e5850c28e0f7c3c5d8b86a6e51", "fusion_lon": 0.0}, {"is_reserved": 0, "type": "electric_scooter", "bike_id": "62c13627bd401b4641593c02f4cc76d6", "lat": 38.886049666666665, "lon": -76.98821083333333, "rental_uris": {"android": "https://dc.lft.to/lastmile_qr_scan", "ios": "https://dc.lft.to/lastmile_qr_scan"}, "is_disabled": 0, "fusion_lat": 0.0, "name": "62c13627bd401b4641593c02f4cc76d6", "fusion_lon": 0.0}, {"is_reserved": 0, "type": "electric_scooter", "bike_id": "6cf90dd75b7ee644d5db8fe1878622f2", "lat": 38.924571, "lon": -77.0522845, "rental_uris": {"android": "https://dc.lft.to/lastmile_qr_scan", "ios": "https://dc.lft.to/lastmile_qr_scan"}, "is_disabled": 0, "fusion_lat": 0.0, "name": "6cf90dd75b7ee644d5db8fe1878622f2", "fusion_lon": 0.0}, {"is_reserved": 0, "type": "electric_scooter", "bike_id": "be52870968cf6dc8a65e44cc7f44a14b", "lat": 38.928374, "lon": -77.00606966666666, "rental_uris": {"android": "https://dc.lft.to/lastmile_qr_scan", "ios": "https://dc.lft.to/lastmile_qr_scan"}, "is_disabled": 0, "fusion_lat": 0.0, "name": "be52870968cf6dc8a65e44cc7f44a14b", "fusion_lon": 0.0}, {"is_reserved": 0, "type": "electric_scooter", "bike_id": "0cd0802a0c3bc948fa8b68fc608ee4a6", "lat": 38.92603966666667, "lon": -77.02156333333333, "rental_uris": {"android": "https://dc.lft.to/lastmile_qr_scan", "ios": "https://dc.lft.to/lastmile_qr_scan"}, "is_disabled": 0, "fusion_lat": 0.0, "name": "0cd0802a0c3bc948fa8b68fc608ee4a6", "fusion_lon": 0.0}, {"is_reserved": 0, "type": "electric_scooter", "bike_id": "5747b6376b19b778eb18ab371ee4ede0", "lat": 38.952450666666664, "lon": -77.023966, "rental_uris": {"android": "https://dc.lft.to/lastmile_qr_scan", "ios": "https://dc.lft.to/lastmile_qr_scan"}, "is_disabled": 0, "fusion_lat": 0.0, "name": "5747b6376b19b778eb18ab371ee4ede0", "fusion_lon": 0.0}, {"is_reserved": 0, "type": "electric_scooter", "bike_id": "b7469ae35be11085f5142dc19f941a31", "lat": 38.91711866666667, "lon": -77.03227066666666, "rental_uris": {"android": "https://dc.lft.to/lastmile_qr_scan", "ios": "https://dc.lft.to/lastmile_qr_scan"}, "is_disabled": 0, "fusion_lat": 0.0, "name": "b7469ae35be11085f5142dc19f941a31", "fusion_lon": 0.0}, {"is_reserved": 0, "type": "electric_scooter", "bike_id": "36bbbaae604011a2cc280294ba063f56", "lat": 38.905879, "lon": -77.03675866666667, "rental_uris": {"android": "https://dc.lft.to/lastmile_qr_scan", "ios": "https://dc.lft.to/lastmile_qr_scan"}, "is_disabled": 0, "fusion_lat": 0.0, "name": "36bbbaae604011a2cc280294ba063f56", "fusion_lon": 0.0}, {"is_reserved": 0, "type": "electric_scooter", "bike_id": "10676825bd094c3a68814c6043042d2c", "lat": 38.91865466666667, "lon": -77.0135365, "rental_uris": {"android": "https://dc.lft.to/lastmile_qr_scan", "ios": "https://dc.lft.to/lastmile_qr_scan"}, "is_disabled": 0, "fusion_lat": 0.0, "name": "10676825bd094c3a68814c6043042d2c", "fusion_lon": 0.0}, {"is_reserved": 0, "type": "electric_scooter", "bike_id": "5bb08dc6cedf8b1e9ad9b97c2e253a92", "lat": 38.93871333333333, "lon": -77.02557866666666, "rental_uris": {"android": "https://dc.lft.to/lastmile_qr_scan", "ios": "https://dc.lft.to/lastmile_qr_scan"}, "is_disabled": 0, "fusion_lat": 0.0, "name": "5bb08dc6cedf8b1e9ad9b97c2e253a92", "fusion_lon": 0.0}, {"is_reserved": 0, "type": "electric_scooter", "bike_id": "e086e2f747030575166eeaa05bda21c0", "lat": 38.966475333333335, "lon": -77.00892816666666, "rental_uris": {"android": "https://dc.lft.to/lastmile_qr_scan", "ios": "https://dc.lft.to/lastmile_qr_scan"}, "is_disabled": 0, "fusion_lat": 0.0, "name": "e086e2f747030575166eeaa05bda21c0", "fusion_lon": 0.0}, {"is_reserved": 0, "type": "electric_scooter", "bike_id": "8b60f914ddbb43ee5a3cd7cc59911fea", "lat": 38.926139166666665, "lon": -77.02159383333333, "rental_uris": {"android": "https://dc.lft.to/lastmile_qr_scan", "ios": "https://dc.lft.to/lastmile_qr_scan"}, "is_disabled": 0, "fusion_lat": 0.0, "name": "8b60f914ddbb43ee5a3cd7cc59911fea", "fusion_lon": 0.0}, {"is_reserved": 0, "type": "electric_scooter", "bike_id": "413346137bae08e37d55b9f0341677dc", "lat": 38.905779833333334, "lon": -77.0061245, "rental_uris": {"android": "https://dc.lft.to/lastmile_qr_scan", "ios": "https://dc.lft.to/lastmile_qr_scan"}, "is_disabled": 0, "fusion_lat": 0.0, "name": "413346137bae08e37d55b9f0341677dc", "fusion_lon": 0.0}, {"is_reserved": 0, "type": "electric_bike", "bike_id": "dfc995d42971ace7ab6f1abd3e6deebe", "lat": 38.99539516666667, "lon": -77.07506083333334, "rental_uris": {"android": "https://dc.lft.to/lastmile_qr_scan", "ios": "https://dc.lft.to/lastmile_qr_scan"}, "is_disabled": 0, "fusion_lat": 0.0, "name": "dfc995d42971ace7ab6f1abd3e6deebe", "fusion_lon": 0.0}, {"is_reserved": 0, "type": "electric_scooter", "bike_id": "006d4765495eb8cf656aa99ee9dc1ddc", "lat": 38.90010083333333, "lon": -77.04484066666667, "rental_uris": {"android": "https://dc.lft.to/lastmile_qr_scan", "ios": "https://dc.lft.to/lastmile_qr_scan"}, "is_disabled": 0, "fusion_lat": 0.0, "name": "006d4765495eb8cf656aa99ee9dc1ddc", "fusion_lon": 0.0}, {"is_reserved": 0, "type": "electric_scooter", "bike_id": "6097d5e2f9bcf41ea5f15fbac3894685", "lat": 38.886596833333336, "lon": -76.93677316666667, "rental_uris": {"android": "https://dc.lft.to/lastmile_qr_scan", "ios": "https://dc.lft.to/lastmile_qr_scan"}, "is_disabled": 0, "fusion_lat": 0.0, "name": "6097d5e2f9bcf41ea5f15fbac3894685", "fusion_lon": 0.0}, {"is_reserved": 0, "type": "electric_scooter", "bike_id": "6f77c79bc497199f2a2dc8da71d353a5", "lat": 38.905302, "lon": -77.04029183333333, "rental_uris": {"android": "https://dc.lft.to/lastmile_qr_scan", "ios": "https://dc.lft.to/lastmile_qr_scan"}, "is_disabled": 0, "fusion_lat": 0.0, "name": "6f77c79bc497199f2a2dc8da71d353a5", "fusion_lon": 0.0}, {"is_reserved": 0, "type": "electric_scooter", "bike_id": "f4f92d12fdc5d567dbe1e17ceec4cf23", "lat": 38.892482333333334, "lon": -77.039629, "rental_uris": {"android": "https://dc.lft.to/lastmile_qr_scan", "ios": "https://dc.lft.to/lastmile_qr_scan"}, "is_disabled": 0, "fusion_lat": 0.0, "name": "f4f92d12fdc5d567dbe1e17ceec4cf23", "fusion_lon": 0.0}, {"is_reserved": 0, "type": "electric_scooter", "bike_id": "0b48515cc91051e8b5d4be19b4474497", "lat": 38.8999765, "lon": -76.99010983333334, "rental_uris": {"android": "https://dc.lft.to/lastmile_qr_scan", "ios": "https://dc.lft.to/lastmile_qr_scan"}, "is_disabled": 0, "fusion_lat": 0.0, "name": "0b48515cc91051e8b5d4be19b4474497", "fusion_lon": 0.0}, {"is_reserved": 0, "type": "electric_bike", "bike_id": "8da04b4420ba6098955e3d0e8c32f863", "lat": 39.08435466666667, "lon": -76.95150783333334, "rental_uris": {"android": "https://dc.lft.to/lastmile_qr_scan", "ios": "https://dc.lft.to/lastmile_qr_scan"}, "is_disabled": 0, "fusion_lat": 0.0, "name": "8da04b4420ba6098955e3d0e8c32f863", "fusion_lon": 0.0}, {"is_reserved": 0, "type": "electric_scooter", "bike_id": "4b3add9429b66944dd06ccaf69ba1428", "lat": 38.9245655, "lon": -77.021651, "rental_uris": {"android": "https://dc.lft.to/lastmile_qr_scan", "ios": "https://dc.lft.to/lastmile_qr_scan"}, "is_disabled": 0, "fusion_lat": 0.0, "name": "4b3add9429b66944dd06ccaf69ba1428", "fusion_lon": 0.0}, {"is_reserved": 0, "type": "electric_scooter", "bike_id": "402c2037582b768fac1d55e8e54db5f0", "lat": 38.9254585, "lon": -77.03370966666667, "rental_uris": {"android": "https://dc.lft.to/lastmile_qr_scan", "ios": "https://dc.lft.to/lastmile_qr_scan"}, "is_disabled": 0, "fusion_lat": 0.0, "name": "402c2037582b768fac1d55e8e54db5f0", "fusion_lon": 0.0}, {"is_reserved": 0, "type": "electric_scooter", "bike_id": "6ce94a41bf250ad4bfbb8ce8f7255ff4", "lat": 38.8611865, "lon": -76.98381266666667, "rental_uris": {"android": "https://dc.lft.to/lastmile_qr_scan", "ios": "https://dc.lft.to/lastmile_qr_scan"}, "is_disabled": 0, "fusion_lat": 0.0, "name": "6ce94a41bf250ad4bfbb8ce8f7255ff4", "fusion_lon": 0.0}, {"is_reserved": 0, "type": "electric_bike", "bike_id": "9cdd52e50f0097ee4ec5a2e4d6326ca9", "lat": 38.835512, "lon": -77.00752183333333, "rental_uris": {"android": "https://dc.lft.to/lastmile_qr_scan", "ios": "https://dc.lft.to/lastmile_qr_scan"}, "is_disabled": 0, "fusion_lat": 0.0, "name": "9cdd52e50f0097ee4ec5a2e4d6326ca9", "fusion_lon": 0.0}, {"is_reserved": 0, "type": "electric_bike", "bike_id": "99b51e25c067e615e0127b22d0bc48c0", "lat": 38.94537066666667, "lon": -77.34461866666666, "rental_uris": {"android": "https://dc.lft.to/lastmile_qr_scan", "ios": "https://dc.lft.to/lastmile_qr_scan"}, "is_disabled": 0, "fusion_lat": 0.0, "name": "99b51e25c067e615e0127b22d0bc48c0", "fusion_lon": 0.0}, {"is_reserved": 0, "type": "electric_scooter", "bike_id": "eb4c23aa1cbe15f269608fb936bce458", "lat": 38.9111125, "lon": -77.0481745, "rental_uris": {"android": "https://dc.lft.to/lastmile_qr_scan", "ios": "https://dc.lft.to/lastmile_qr_scan"}, "is_disabled": 0, "fusion_lat": 0.0, "name": "eb4c23aa1cbe15f269608fb936bce458", "fusion_lon": 0.0}, {"is_reserved": 0, "type": "electric_scooter", "bike_id": "88c458c6f9b351c3155c3ae7d0836294", "lat": 38.896097, "lon": -77.00930416666667, "rental_uris": {"android": "https://dc.lft.to/lastmile_qr_scan", "ios": "https://dc.lft.to/lastmile_qr_scan"}, "is_disabled": 0, "fusion_lat": 0.0, "name": "88c458c6f9b351c3155c3ae7d0836294", "fusion_lon": 0.0}, {"is_reserved": 0, "type": "electric_scooter", "bike_id": "615eac65972678729af13124b43f8ffa", "lat": 38.87545516666667, "lon": -77.00542566666667, "rental_uris": {"android": "https://dc.lft.to/lastmile_qr_scan", "ios": "https://dc.lft.to/lastmile_qr_scan"}, "is_disabled": 0, "fusion_lat": 0.0, "name": "615eac65972678729af13124b43f8ffa", "fusion_lon": 0.0}, {"is_reserved": 0, "type": "electric_scooter", "bike_id": "3731ab3c679dcc29cfa3fdb91dbe15aa", "lat": 38.9241665, "lon": -77.02247933333334, "rental_uris": {"android": "https://dc.lft.to/lastmile_qr_scan", "ios": "https://dc.lft.to/lastmile_qr_scan"}, "is_disabled": 0, "fusion_lat": 0.0, "name": "3731ab3c679dcc29cfa3fdb91dbe15aa", "fusion_lon": 0.0}, {"is_reserved": 0, "type": "electric_scooter", "bike_id": "588b38f2a55729fe6cc7e9a1a4d42b3c", "lat": 38.91948416666666, "lon": -77.02496633333334, "rental_uris": {"android": "https://dc.lft.to/lastmile_qr_scan", "ios": "https://dc.lft.to/lastmile_qr_scan"}, "is_disabled": 0, "fusion_lat": 0.0, "name": "588b38f2a55729fe6cc7e9a1a4d42b3c", "fusion_lon": 0.0}, {"is_reserved": 0, "type": "electric_scooter", "bike_id": "ca495a242398634580697192139b6003", "lat": 38.90843666666667, "lon": -77.02592883333334, "rental_uris": {"android": "https://dc.lft.to/lastmile_qr_scan", "ios": "https://dc.lft.to/lastmile_qr_scan"}, "is_disabled": 0, "fusion_lat": 0.0, "name": "ca495a242398634580697192139b6003", "fusion_lon": 0.0}, {"is_reserved": 0, "type": "electric_scooter", "bike_id": "11bd2022aaac599868110fb64e0d425f", "lat": 38.89620033333333, "lon": -76.9768935, "rental_uris": {"android": "https://dc.lft.to/lastmile_qr_scan", "ios": "https://dc.lft.to/lastmile_qr_scan"}, "is_disabled": 0, "fusion_lat": 0.0, "name": "11bd2022aaac599868110fb64e0d425f", "fusion_lon": 0.0}, {"is_reserved": 0, "type": "electric_scooter", "bike_id": "0508466fee84612846730f86c4547257", "lat": 38.93533633333333, "lon": -77.02357, "rental_uris": {"android": "https://dc.lft.to/lastmile_qr_scan", "ios": "https://dc.lft.to/lastmile_qr_scan"}, "is_disabled": 0, "fusion_lat": 0.0, "name": "0508466fee84612846730f86c4547257", "fusion_lon": 0.0}, {"is_reserved": 0, "type": "electric_scooter", "bike_id": "ae9378a87951b96144bc143a8c8801df", "lat": 38.9078045, "lon": -77.00231616666666, "rental_uris": {"android": "https://dc.lft.to/lastmile_qr_scan", "ios": "https://dc.lft.to/lastmile_qr_scan"}, "is_disabled": 0, "fusion_lat": 0.0, "name": "ae9378a87951b96144bc143a8c8801df", "fusion_lon": 0.0}, {"is_reserved": 0, "type": "electric_scooter", "bike_id": "cf076f86ea62a0a68416dfa7373bf5e6", "lat": 38.89651766666667, "lon": -76.99035183333334, "rental_uris": {"android": "https://dc.lft.to/lastmile_qr_scan", "ios": "https://dc.lft.to/lastmile_qr_scan"}, "is_disabled": 0, "fusion_lat": 0.0, "name": "cf076f86ea62a0a68416dfa7373bf5e6", "fusion_lon": 0.0}, {"is_reserved": 0, "type": "electric_scooter", "bike_id": "5a072115105e556b097a56dfe1f811f3", "lat": 38.8840095, "lon": -76.9304435, "rental_uris": {"android": "https://dc.lft.to/lastmile_qr_scan", "ios": "https://dc.lft.to/lastmile_qr_scan"}, "is_disabled": 0, "fusion_lat": 0.0, "name": "5a072115105e556b097a56dfe1f811f3", "fusion_lon": 0.0}, {"is_reserved": 0, "type": "electric_scooter", "bike_id": "eba9108ef6e5f3050921a7bf64b9d835", "lat": 38.920671666666664, "lon": -77.0249455, "rental_uris": {"android": "https://dc.lft.to/lastmile_qr_scan", "ios": "https://dc.lft.to/lastmile_qr_scan"}, "is_disabled": 0, "fusion_lat": 0.0, "name": "eba9108ef6e5f3050921a7bf64b9d835", "fusion_lon": 0.0}, {"is_reserved": 0, "type": "electric_scooter", "bike_id": "bd38a308b10673a94cbc76c3738ce327", "lat": 38.923175666666666, "lon": -77.02978716666667, "rental_uris": {"android": "https://dc.lft.to/lastmile_qr_scan", "ios": "https://dc.lft.to/lastmile_qr_scan"}, "is_disabled": 0, "fusion_lat": 0.0, "name": "bd38a308b10673a94cbc76c3738ce327", "fusion_lon": 0.0}, {"is_reserved": 0, "type": "electric_scooter", "bike_id": "71fecb0efa1c08d8d845d4c21b3e68fc", "lat": 38.899478, "lon": -77.02023783333334, "rental_uris": {"android": "https://dc.lft.to/lastmile_qr_scan", "ios": "https://dc.lft.to/lastmile_qr_scan"}, "is_disabled": 0, "fusion_lat": 0.0, "name": "71fecb0efa1c08d8d845d4c21b3e68fc", "fusion_lon": 0.0}, {"is_reserved": 0, "type": "electric_scooter", "bike_id": "9cff604259f9536e64faa2f6b2ff9ff7", "lat": 38.906483, "lon": -77.07036866666667, "rental_uris": {"android": "https://dc.lft.to/lastmile_qr_scan", "ios": "https://dc.lft.to/lastmile_qr_scan"}, "is_disabled": 0, "fusion_lat": 0.0, "name": "9cff604259f9536e64faa2f6b2ff9ff7", "fusion_lon": 0.0}, {"is_reserved": 0, "type": "electric_scooter", "bike_id": "534dd04c0df383d829e9ba5bd69dec6a", "lat": 38.917455, "lon": -77.00919266666666, "rental_uris": {"android": "https://dc.lft.to/lastmile_qr_scan", "ios": "https://dc.lft.to/lastmile_qr_scan"}, "is_disabled": 0, "fusion_lat": 0.0, "name": "534dd04c0df383d829e9ba5bd69dec6a", "fusion_lon": 0.0}, {"is_reserved": 0, "type": "electric_scooter", "bike_id": "ba2fc90617383e631a3985b473257ad2", "lat": 38.89265366666667, "lon": -76.92999533333334, "rental_uris": {"android": "https://dc.lft.to/lastmile_qr_scan", "ios": "https://dc.lft.to/lastmile_qr_scan"}, "is_disabled": 0, "fusion_lat": 0.0, "name": "ba2fc90617383e631a3985b473257ad2", "fusion_lon": 0.0}, {"is_reserved": 0, "type": "electric_scooter", "bike_id": "8cb28b60c8e01e7c896622b72f8c13a0", "lat": 38.916908166666666, "lon": -77.025989, "rental_uris": {"android": "https://dc.lft.to/lastmile_qr_scan", "ios": "https://dc.lft.to/lastmile_qr_scan"}, "is_disabled": 0, "fusion_lat": 0.0, "name": "8cb28b60c8e01e7c896622b72f8c13a0", "fusion_lon": 0.0}, {"is_reserved": 0, "type": "electric_scooter", "bike_id": "fae2d32470e0b1e39b07abb2438c5202", "lat": 38.930138, "lon": -77.01825533333333, "rental_uris": {"android": "https://dc.lft.to/lastmile_qr_scan", "ios": "https://dc.lft.to/lastmile_qr_scan"}, "is_disabled": 0, "fusion_lat": 0.0, "name": "fae2d32470e0b1e39b07abb2438c5202", "fusion_lon": 0.0}, {"is_reserved": 0, "type": "electric_bike", "bike_id": "2ae7b7c3a8c34f57be85a227edaf2061", "lat": 38.92131883333333, "lon": -77.00404383333333, "rental_uris": {"android": "https://dc.lft.to/lastmile_qr_scan", "ios": "https://dc.lft.to/lastmile_qr_scan"}, "is_disabled": 0, "fusion_lat": 0.0, "name": "2ae7b7c3a8c34f57be85a227edaf2061", "fusion_lon": 0.0}, {"is_reserved": 0, "type": "electric_scooter", "bike_id": "84b48b0a5c604bda937d39a478570263", "lat": 38.90073366666667, "lon": -77.04870966666667, "rental_uris": {"android": "https://dc.lft.to/lastmile_qr_scan", "ios": "https://dc.lft.to/lastmile_qr_scan"}, "is_disabled": 0, "fusion_lat": 0.0, "name": "84b48b0a5c604bda937d39a478570263", "fusion_lon": 0.0}, {"is_reserved": 0, "type": "electric_scooter", "bike_id": "c1a0b4487c1e21fb87e7b08474368133", "lat": 38.899811166666666, "lon": -77.03084633333333, "rental_uris": {"android": "https://dc.lft.to/lastmile_qr_scan", "ios": "https://dc.lft.to/lastmile_qr_scan"}, "is_disabled": 0, "fusion_lat": 0.0, "name": "c1a0b4487c1e21fb87e7b08474368133", "fusion_lon": 0.0}, {"is_reserved": 0, "type": "electric_scooter", "bike_id": "1ce43d44d76dcb4ccc1c22a9670404e4", "lat": 38.9498005, "lon": -77.024459, "rental_uris": {"android": "https://dc.lft.to/lastmile_qr_scan", "ios": "https://dc.lft.to/lastmile_qr_scan"}, "is_disabled": 0, "fusion_lat": 0.0, "name": "1ce43d44d76dcb4ccc1c22a9670404e4", "fusion_lon": 0.0}, {"is_reserved": 0, "type": "electric_scooter", "bike_id": "e5a01e76ec03f675cbce22efec4d065e", "lat": 38.911191, "lon": -77.038323, "rental_uris": {"android": "https://dc.lft.to/lastmile_qr_scan", "ios": "https://dc.lft.to/lastmile_qr_scan"}, "is_disabled": 0, "fusion_lat": 0.0, "name": "e5a01e76ec03f675cbce22efec4d065e", "fusion_lon": 0.0}, {"is_reserved": 0, "type": "electric_scooter", "bike_id": "1b77f04ea0fd7ea071dbb3c64340eba4", "lat": 38.937158, "lon": -77.03270383333333, "rental_uris": {"android": "https://dc.lft.to/lastmile_qr_scan", "ios": "https://dc.lft.to/lastmile_qr_scan"}, "is_disabled": 0, "fusion_lat": 0.0, "name": "1b77f04ea0fd7ea071dbb3c64340eba4", "fusion_lon": 0.0}, {"is_reserved": 0, "type": "electric_scooter", "bike_id": "d6872f5e4defa0651e321de83c607b66", "lat": 38.95469083333333, "lon": -77.07765716666667, "rental_uris": {"android": "https://dc.lft.to/lastmile_qr_scan", "ios": "https://dc.lft.to/lastmile_qr_scan"}, "is_disabled": 0, "fusion_lat": 0.0, "name": "d6872f5e4defa0651e321de83c607b66", "fusion_lon": 0.0}, {"is_reserved": 0, "type": "electric_bike", "bike_id": "84f0467fd25ca7698e322f69d08ed01b", "lat": 38.98830316666667, "lon": -77.02655383333334, "rental_uris": {"android": "https://dc.lft.to/lastmile_qr_scan", "ios": "https://dc.lft.to/lastmile_qr_scan"}, "is_disabled": 0, "fusion_lat": 0.0, "name": "84f0467fd25ca7698e322f69d08ed01b", "fusion_lon": 0.0}, {"is_reserved": 0, "type": "electric_scooter", "bike_id": "4d63d797584a7d56b99cc40e0937071f", "lat": 38.917151833333335, "lon": -77.02969133333333, "rental_uris": {"android": "https://dc.lft.to/lastmile_qr_scan", "ios": "https://dc.lft.to/lastmile_qr_scan"}, "is_disabled": 0, "fusion_lat": 0.0, "name": "4d63d797584a7d56b99cc40e0937071f", "fusion_lon": 0.0}, {"is_reserved": 0, "type": "electric_scooter", "bike_id": "b9132318218f901d4c3fab62a13760d1", "lat": 38.91470366666667, "lon": -77.02604733333334, "rental_uris": {"android": "https://dc.lft.to/lastmile_qr_scan", "ios": "https://dc.lft.to/lastmile_qr_scan"}, "is_disabled": 0, "fusion_lat": 0.0, "name": "b9132318218f901d4c3fab62a13760d1", "fusion_lon": 0.0}, {"is_reserved": 0, "type": "electric_scooter", "bike_id": "036309a4f8d842ffe6e6d9c1026119cc", "lat": 38.907858833333336, "lon": -77.00976483333334, "rental_uris": {"android": "https://dc.lft.to/lastmile_qr_scan", "ios": "https://dc.lft.to/lastmile_qr_scan"}, "is_disabled": 0, "fusion_lat": 0.0, "name": "036309a4f8d842ffe6e6d9c1026119cc", "fusion_lon": 0.0}, {"is_reserved": 0, "type": "electric_scooter", "bike_id": "e8210831bb8e0543f81394423675857e", "lat": 38.91915433333333, "lon": -77.03181866666667, "rental_uris": {"android": "https://dc.lft.to/lastmile_qr_scan", "ios": "https://dc.lft.to/lastmile_qr_scan"}, "is_disabled": 0, "fusion_lat": 0.0, "name": "e8210831bb8e0543f81394423675857e", "fusion_lon": 0.0}, {"is_reserved": 0, "type": "electric_scooter", "bike_id": "af4a8c1727cc8c66121cd570a870bfbb", "lat": 38.89961566666667, "lon": -77.022034, "rental_uris": {"android": "https://dc.lft.to/lastmile_qr_scan", "ios": "https://dc.lft.to/lastmile_qr_scan"}, "is_disabled": 0, "fusion_lat": 0.0, "name": "af4a8c1727cc8c66121cd570a870bfbb", "fusion_lon": 0.0}, {"is_reserved": 0, "type": "electric_bike", "bike_id": "77271e3b6323a2f7b5811f1deb5ddf20", "lat": 38.981335333333334, "lon": -77.007709, "rental_uris": {"android": "https://dc.lft.to/lastmile_qr_scan", "ios": "https://dc.lft.to/lastmile_qr_scan"}, "is_disabled": 0, "fusion_lat": 0.0, "name": "77271e3b6323a2f7b5811f1deb5ddf20", "fusion_lon": 0.0}, {"is_reserved": 0, "type": "electric_scooter", "bike_id": "9c4e3112c52cd5253e64a0a8bddbb165", "lat": 38.898663, "lon": -76.94640083333333, "rental_uris": {"android": "https://dc.lft.to/lastmile_qr_scan", "ios": "https://dc.lft.to/lastmile_qr_scan"}, "is_disabled": 0, "fusion_lat": 0.0, "name": "9c4e3112c52cd5253e64a0a8bddbb165", "fusion_lon": 0.0}, {"is_reserved": 0, "type": "electric_scooter", "bike_id": "6d2434e13d9596425d0e926553b2a046", "lat": 38.88611083333333, "lon": -77.00343383333333, "rental_uris": {"android": "https://dc.lft.to/lastmile_qr_scan", "ios": "https://dc.lft.to/lastmile_qr_scan"}, "is_disabled": 0, "fusion_lat": 0.0, "name": "6d2434e13d9596425d0e926553b2a046", "fusion_lon": 0.0}, {"is_reserved": 0, "type": "electric_scooter", "bike_id": "9107463475ee9fa5a84cb5d9a73d312d", "lat": 38.91816983333333, "lon": -77.0400225, "rental_uris": {"android": "https://dc.lft.to/lastmile_qr_scan", "ios": "https://dc.lft.to/lastmile_qr_scan"}, "is_disabled": 0, "fusion_lat": 0.0, "name": "9107463475ee9fa5a84cb5d9a73d312d", "fusion_lon": 0.0}, {"is_reserved": 0, "type": "electric_scooter", "bike_id": "b625c0ef2ad573fe813ca99862c17813", "lat": 38.899111, "lon": -76.93369066666666, "rental_uris": {"android": "https://dc.lft.to/lastmile_qr_scan", "ios": "https://dc.lft.to/lastmile_qr_scan"}, "is_disabled": 0, "fusion_lat": 0.0, "name": "b625c0ef2ad573fe813ca99862c17813", "fusion_lon": 0.0}, {"is_reserved": 0, "type": "electric_scooter", "bike_id": "87366b07011caef83360b26abe7b3503", "lat": 38.92116266666667, "lon": -77.0421415, "rental_uris": {"android": "https://dc.lft.to/lastmile_qr_scan", "ios": "https://dc.lft.to/lastmile_qr_scan"}, "is_disabled": 0, "fusion_lat": 0.0, "name": "87366b07011caef83360b26abe7b3503", "fusion_lon": 0.0}, {"is_reserved": 0, "type": "electric_scooter", "bike_id": "3bd8be4e4f1b38002dae58b6020f0bce", "lat": 38.91817183333333, "lon": -77.024793, "rental_uris": {"android": "https://dc.lft.to/lastmile_qr_scan", "ios": "https://dc.lft.to/lastmile_qr_scan"}, "is_disabled": 0, "fusion_lat": 0.0, "name": "3bd8be4e4f1b38002dae58b6020f0bce", "fusion_lon": 0.0}, {"is_reserved": 0, "type": "electric_scooter", "bike_id": "07cb90f30bdc4e0bd03beeee3e7ce3f8", "lat": 38.898821833333336, "lon": -76.98839, "rental_uris": {"android": "https://dc.lft.to/lastmile_qr_scan", "ios": "https://dc.lft.to/lastmile_qr_scan"}, "is_disabled": 0, "fusion_lat": 0.0, "name": "07cb90f30bdc4e0bd03beeee3e7ce3f8", "fusion_lon": 0.0}, {"is_reserved": 0, "type": "electric_scooter", "bike_id": "ba510cfb6d0d8e9f98a1d8ac1127efec", "lat": 38.93495466666667, "lon": -77.04458766666667, "rental_uris": {"android": "https://dc.lft.to/lastmile_qr_scan", "ios": "https://dc.lft.to/lastmile_qr_scan"}, "is_disabled": 0, "fusion_lat": 0.0, "name": "ba510cfb6d0d8e9f98a1d8ac1127efec", "fusion_lon": 0.0}, {"is_reserved": 0, "type": "electric_scooter", "bike_id": "1659748305f66e27acf429d7decd0475", "lat": 38.913853333333336, "lon": -77.04606166666667, "rental_uris": {"android": "https://dc.lft.to/lastmile_qr_scan", "ios": "https://dc.lft.to/lastmile_qr_scan"}, "is_disabled": 0, "fusion_lat": 0.0, "name": "1659748305f66e27acf429d7decd0475", "fusion_lon": 0.0}, {"is_reserved": 0, "type": "electric_scooter", "bike_id": "54a7a081ddbcaba2a845f62bd4219200", "lat": 38.92646166666667, "lon": -77.02509216666667, "rental_uris": {"android": "https://dc.lft.to/lastmile_qr_scan", "ios": "https://dc.lft.to/lastmile_qr_scan"}, "is_disabled": 0, "fusion_lat": 0.0, "name": "54a7a081ddbcaba2a845f62bd4219200", "fusion_lon": 0.0}, {"is_reserved": 0, "type": "electric_scooter", "bike_id": "3855b6ca73b5264b16a40b9c0af11ef5", "lat": 38.897733833333334, "lon": -76.99272966666666, "rental_uris": {"android": "https://dc.lft.to/lastmile_qr_scan", "ios": "https://dc.lft.to/lastmile_qr_scan"}, "is_disabled": 0, "fusion_lat": 0.0, "name": "3855b6ca73b5264b16a40b9c0af11ef5", "fusion_lon": 0.0}, {"is_reserved": 0, "type": "electric_scooter", "bike_id": "48bf29042ca8a0a3f43367e11729fc1e", "lat": 38.8626475, "lon": -76.98195033333333, "rental_uris": {"android": "https://dc.lft.to/lastmile_qr_scan", "ios": "https://dc.lft.to/lastmile_qr_scan"}, "is_disabled": 0, "fusion_lat": 0.0, "name": "48bf29042ca8a0a3f43367e11729fc1e", "fusion_lon": 0.0}, {"is_reserved": 0, "type": "electric_scooter", "bike_id": "890b741660251af3354342b1d3c2e6bc", "lat": 38.927373333333335, "lon": -77.02251016666666, "rental_uris": {"android": "https://dc.lft.to/lastmile_qr_scan", "ios": "https://dc.lft.to/lastmile_qr_scan"}, "is_disabled": 0, "fusion_lat": 0.0, "name": "890b741660251af3354342b1d3c2e6bc", "fusion_lon": 0.0}, {"is_reserved": 0, "type": "electric_scooter", "bike_id": "999e2bea23e95879ab9caf2c8ec7d151", "lat": 38.925546833333335, "lon": -77.053209, "rental_uris": {"android": "https://dc.lft.to/lastmile_qr_scan", "ios": "https://dc.lft.to/lastmile_qr_scan"}, "is_disabled": 0, "fusion_lat": 0.0, "name": "999e2bea23e95879ab9caf2c8ec7d151", "fusion_lon": 0.0}, {"is_reserved": 0, "type": "electric_scooter", "bike_id": "017e130223d0b13368481f9af65d2247", "lat": 38.910678833333336, "lon": -77.00455583333333, "rental_uris": {"android": "https://dc.lft.to/lastmile_qr_scan", "ios": "https://dc.lft.to/lastmile_qr_scan"}, "is_disabled": 0, "fusion_lat": 0.0, "name": "017e130223d0b13368481f9af65d2247", "fusion_lon": 0.0}, {"is_reserved": 0, "type": "electric_scooter", "bike_id": "bef066c2dc80cbf34170b9cec0aaf043", "lat": 38.98993266666667, "lon": -77.03364183333333, "rental_uris": {"android": "https://dc.lft.to/lastmile_qr_scan", "ios": "https://dc.lft.to/lastmile_qr_scan"}, "is_disabled": 0, "fusion_lat": 0.0, "name": "bef066c2dc80cbf34170b9cec0aaf043", "fusion_lon": 0.0}, {"is_reserved": 0, "type": "electric_scooter", "bike_id": "4693e0a2891bd86df88084ce034a1ff3", "lat": 38.90627933333333, "lon": -77.02501216666667, "rental_uris": {"android": "https://dc.lft.to/lastmile_qr_scan", "ios": "https://dc.lft.to/lastmile_qr_scan"}, "is_disabled": 0, "fusion_lat": 0.0, "name": "4693e0a2891bd86df88084ce034a1ff3", "fusion_lon": 0.0}, {"is_reserved": 0, "type": "electric_scooter", "bike_id": "99cd4c89448a496b9d51f5f8881a6958", "lat": 38.925384333333334, "lon": -77.03827516666666, "rental_uris": {"android": "https://dc.lft.to/lastmile_qr_scan", "ios": "https://dc.lft.to/lastmile_qr_scan"}, "is_disabled": 0, "fusion_lat": 0.0, "name": "99cd4c89448a496b9d51f5f8881a6958", "fusion_lon": 0.0}, {"is_reserved": 0, "type": "electric_bike", "bike_id": "1e20d95597f1199f89cd4fa2d660f4e3", "lat": 39.00010983333333, "lon": -76.91805, "rental_uris": {"android": "https://dc.lft.to/lastmile_qr_scan", "ios": "https://dc.lft.to/lastmile_qr_scan"}, "is_disabled": 0, "fusion_lat": 0.0, "name": "1e20d95597f1199f89cd4fa2d660f4e3", "fusion_lon": 0.0}, {"is_reserved": 0, "type": "electric_scooter", "bike_id": "27c40ea570e1e81de28b30b33d50f4dd", "lat": 38.907759, "lon": -77.00239466666666, "rental_uris": {"android": "https://dc.lft.to/lastmile_qr_scan", "ios": "https://dc.lft.to/lastmile_qr_scan"}, "is_disabled": 0, "fusion_lat": 0.0, "name": "27c40ea570e1e81de28b30b33d50f4dd", "fusion_lon": 0.0}, {"is_reserved": 0, "type": "electric_scooter", "bike_id": "e3c47391dcd1dcf5448b80c395b74974", "lat": 38.92441, "lon": -76.996638, "rental_uris": {"android": "https://dc.lft.to/lastmile_qr_scan", "ios": "https://dc.lft.to/lastmile_qr_scan"}, "is_disabled": 0, "fusion_lat": 0.0, "name": "e3c47391dcd1dcf5448b80c395b74974", "fusion_lon": 0.0}, {"is_reserved": 0, "type": "electric_scooter", "bike_id": "5e2762146157f770ee42a7c8e40ad247", "lat": 38.918194, "lon": -77.01209266666666, "rental_uris": {"android": "https://dc.lft.to/lastmile_qr_scan", "ios": "https://dc.lft.to/lastmile_qr_scan"}, "is_disabled": 0, "fusion_lat": 0.0, "name": "5e2762146157f770ee42a7c8e40ad247", "fusion_lon": 0.0}, {"is_reserved": 0, "type": "electric_bike", "bike_id": "905c15d59352f9e43f4e85da65a64056", "lat": 38.92114483333334, "lon": -76.9888155, "rental_uris": {"android": "https://dc.lft.to/lastmile_qr_scan", "ios": "https://dc.lft.to/lastmile_qr_scan"}, "is_disabled": 0, "fusion_lat": 0.0, "name": "905c15d59352f9e43f4e85da65a64056", "fusion_lon": 0.0}, {"is_reserved": 0, "type": "electric_bike", "bike_id": "26aff47af9b8ab1e66e19393cde99401", "lat": 39.01092083333333, "lon": -77.0496065, "rental_uris": {"android": "https://dc.lft.to/lastmile_qr_scan", "ios": "https://dc.lft.to/lastmile_qr_scan"}, "is_disabled": 0, "fusion_lat": 0.0, "name": "26aff47af9b8ab1e66e19393cde99401", "fusion_lon": 0.0}, {"is_reserved": 0, "type": "electric_bike", "bike_id": "2fc1a3f54b2540adcf22a29f249c6f06", "lat": 38.86288066666667, "lon": -76.98010716666667, "rental_uris": {"android": "https://dc.lft.to/lastmile_qr_scan", "ios": "https://dc.lft.to/lastmile_qr_scan"}, "is_disabled": 0, "fusion_lat": 0.0, "name": "2fc1a3f54b2540adcf22a29f249c6f06", "fusion_lon": 0.0}, {"is_reserved": 0, "type": "electric_scooter", "bike_id": "e99748b41391b92a52fe83f8a31ce18a", "lat": 38.894268333333336, "lon": -77.05598, "rental_uris": {"android": "https://dc.lft.to/lastmile_qr_scan", "ios": "https://dc.lft.to/lastmile_qr_scan"}, "is_disabled": 0, "fusion_lat": 0.0, "name": "e99748b41391b92a52fe83f8a31ce18a", "fusion_lon": 0.0}, {"is_reserved": 0, "type": "electric_scooter", "bike_id": "81a6123ae87212ed5f50eb52df37f21f", "lat": 38.925039166666664, "lon": -77.03880266666667, "rental_uris": {"android": "https://dc.lft.to/lastmile_qr_scan", "ios": "https://dc.lft.to/lastmile_qr_scan"}, "is_disabled": 0, "fusion_lat": 0.0, "name": "81a6123ae87212ed5f50eb52df37f21f", "fusion_lon": 0.0}, {"is_reserved": 0, "type": "electric_scooter", "bike_id": "9c57bc0c1f53795ade0576b9a4006a64", "lat": 38.931917, "lon": -77.028351, "rental_uris": {"android": "https://dc.lft.to/lastmile_qr_scan", "ios": "https://dc.lft.to/lastmile_qr_scan"}, "is_disabled": 0, "fusion_lat": 0.0, "name": "9c57bc0c1f53795ade0576b9a4006a64", "fusion_lon": 0.0}, {"is_reserved": 0, "type": "electric_bike", "bike_id": "127293a0a671ee5efc4a0dda901f48ab", "lat": 38.80252133333333, "lon": -77.11443166666666, "rental_uris": {"android": "https://dc.lft.to/lastmile_qr_scan", "ios": "https://dc.lft.to/lastmile_qr_scan"}, "is_disabled": 0, "fusion_lat": 0.0, "name": "127293a0a671ee5efc4a0dda901f48ab", "fusion_lon": 0.0}, {"is_reserved": 0, "type": "electric_scooter", "bike_id": "56da0e0b513891f2ea5267b0e9391896", "lat": 38.923795, "lon": -77.019169, "rental_uris": {"android": "https://dc.lft.to/lastmile_qr_scan", "ios": "https://dc.lft.to/lastmile_qr_scan"}, "is_disabled": 0, "fusion_lat": 0.0, "name": "56da0e0b513891f2ea5267b0e9391896", "fusion_lon": 0.0}, {"is_reserved": 0, "type": "electric_scooter", "bike_id": "8a63451bbc25982b02b94512c01426cc", "lat": 38.920709, "lon": -77.02317383333333, "rental_uris": {"android": "https://dc.lft.to/lastmile_qr_scan", "ios": "https://dc.lft.to/lastmile_qr_scan"}, "is_disabled": 0, "fusion_lat": 0.0, "name": "8a63451bbc25982b02b94512c01426cc", "fusion_lon": 0.0}, {"is_reserved": 0, "type": "electric_scooter", "bike_id": "67cc812447d4f6ce4d427b7007b52b6c", "lat": 38.92249433333333, "lon": -77.031086, "rental_uris": {"android": "https://dc.lft.to/lastmile_qr_scan", "ios": "https://dc.lft.to/lastmile_qr_scan"}, "is_disabled": 0, "fusion_lat": 0.0, "name": "67cc812447d4f6ce4d427b7007b52b6c", "fusion_lon": 0.0}, {"is_reserved": 0, "type": "electric_scooter", "bike_id": "a5b9563c3754c4d72203538f3b17e966", "lat": 38.9155475, "lon": -77.03119983333333, "rental_uris": {"android": "https://dc.lft.to/lastmile_qr_scan", "ios": "https://dc.lft.to/lastmile_qr_scan"}, "is_disabled": 0, "fusion_lat": 0.0, "name": "a5b9563c3754c4d72203538f3b17e966", "fusion_lon": 0.0}, {"is_reserved": 0, "type": "electric_scooter", "bike_id": "a478360a74a8d78de45e697561d796c6", "lat": 38.865236833333334, "lon": -76.96908433333333, "rental_uris": {"android": "https://dc.lft.to/lastmile_qr_scan", "ios": "https://dc.lft.to/lastmile_qr_scan"}, "is_disabled": 0, "fusion_lat": 0.0, "name": "a478360a74a8d78de45e697561d796c6", "fusion_lon": 0.0}, {"is_reserved": 0, "type": "electric_scooter", "bike_id": "9a8b1f1a0dd7d87c764bb02cc260a1ee", "lat": 38.8962, "lon": -77.04413966666667, "rental_uris": {"android": "https://dc.lft.to/lastmile_qr_scan", "ios": "https://dc.lft.to/lastmile_qr_scan"}, "is_disabled": 0, "fusion_lat": 0.0, "name": "9a8b1f1a0dd7d87c764bb02cc260a1ee", "fusion_lon": 0.0}, {"is_reserved": 0, "type": "electric_scooter", "bike_id": "219b810832f8181dcee9fd6b48d2e29e", "lat": 38.918584333333335, "lon": -77.03659616666667, "rental_uris": {"android": "https://dc.lft.to/lastmile_qr_scan", "ios": "https://dc.lft.to/lastmile_qr_scan"}, "is_disabled": 0, "fusion_lat": 0.0, "name": "219b810832f8181dcee9fd6b48d2e29e", "fusion_lon": 0.0}, {"is_reserved": 0, "type": "electric_scooter", "bike_id": "48f041ba1704067dff11c7817ce6add1", "lat": 38.88738016666667, "lon": -77.02618366666667, "rental_uris": {"android": "https://dc.lft.to/lastmile_qr_scan", "ios": "https://dc.lft.to/lastmile_qr_scan"}, "is_disabled": 0, "fusion_lat": 0.0, "name": "48f041ba1704067dff11c7817ce6add1", "fusion_lon": 0.0}, {"is_reserved": 0, "type": "electric_scooter", "bike_id": "804cc0deeabc9cc6e12a41119cdf4173", "lat": 38.9109505, "lon": -76.98478316666667, "rental_uris": {"android": "https://dc.lft.to/lastmile_qr_scan", "ios": "https://dc.lft.to/lastmile_qr_scan"}, "is_disabled": 0, "fusion_lat": 0.0, "name": "804cc0deeabc9cc6e12a41119cdf4173", "fusion_lon": 0.0}, {"is_reserved": 0, "type": "electric_scooter", "bike_id": "dcbb3147720cbffb20a9f5aa2ebfc5f1", "lat": 38.923285166666666, "lon": -77.02970066666667, "rental_uris": {"android": "https://dc.lft.to/lastmile_qr_scan", "ios": "https://dc.lft.to/lastmile_qr_scan"}, "is_disabled": 0, "fusion_lat": 0.0, "name": "dcbb3147720cbffb20a9f5aa2ebfc5f1", "fusion_lon": 0.0}, {"is_reserved": 0, "type": "electric_scooter", "bike_id": "aaa6ad59f8838b14d31431a2b1c668a6", "lat": 38.91606616666667, "lon": -76.9838145, "rental_uris": {"android": "https://dc.lft.to/lastmile_qr_scan", "ios": "https://dc.lft.to/lastmile_qr_scan"}, "is_disabled": 0, "fusion_lat": 0.0, "name": "aaa6ad59f8838b14d31431a2b1c668a6", "fusion_lon": 0.0}, {"is_reserved": 0, "type": "electric_scooter", "bike_id": "2f0a4ab87769d116fc8c7d302fddecc8", "lat": 38.94925333333333, "lon": -77.02698533333333, "rental_uris": {"android": "https://dc.lft.to/lastmile_qr_scan", "ios": "https://dc.lft.to/lastmile_qr_scan"}, "is_disabled": 0, "fusion_lat": 0.0, "name": "2f0a4ab87769d116fc8c7d302fddecc8", "fusion_lon": 0.0}, {"is_reserved": 0, "type": "electric_bike", "bike_id": "bd3307a9beb5fc7d7c4b1b2a826f1879", "lat": 38.92121383333333, "lon": -77.01216883333333, "rental_uris": {"android": "https://dc.lft.to/lastmile_qr_scan", "ios": "https://dc.lft.to/lastmile_qr_scan"}, "is_disabled": 0, "fusion_lat": 0.0, "name": "bd3307a9beb5fc7d7c4b1b2a826f1879", "fusion_lon": 0.0}, {"is_reserved": 0, "type": "electric_scooter", "bike_id": "93365c5f251a3ee6e217ca7edca1eac6", "lat": 38.916929, "lon": -77.02809316666666, "rental_uris": {"android": "https://dc.lft.to/lastmile_qr_scan", "ios": "https://dc.lft.to/lastmile_qr_scan"}, "is_disabled": 0, "fusion_lat": 0.0, "name": "93365c5f251a3ee6e217ca7edca1eac6", "fusion_lon": 0.0}, {"is_reserved": 0, "type": "electric_scooter", "bike_id": "cc56ea0f01eb7e80e820e266bd588102", "lat": 38.893412166666664, "lon": -76.99381483333333, "rental_uris": {"android": "https://dc.lft.to/lastmile_qr_scan", "ios": "https://dc.lft.to/lastmile_qr_scan"}, "is_disabled": 0, "fusion_lat": 0.0, "name": "cc56ea0f01eb7e80e820e266bd588102", "fusion_lon": 0.0},