{"data": {"bikes": [{"rental_uris": {"ios": "https://dc.lft.to/lastmile_qr_scan", "android": "https://dc.lft.to/lastmile_qr_scan"}, "lon": -77.03302516666666, "type": "electric_scooter", "fusion_lat": 0.0, "lat": 38.90558583333333, "name": "5336ac9763a4d131c403033e99efffae", "fusion_lon": 0.0, "bike_id": "5336ac9763a4d131c403033e99efffae", "is_disabled": 0, "is_reserved": 0}, {"rental_uris": {"ios": "https://dc.lft.to/lastmile_qr_scan", "android": "https://dc.lft.to/lastmile_qr_scan"}, "lon": -77.021884, "type": "electric_scooter", "fusion_lat": 0.0, "lat": 38.914904, "name": "4a740dd26ca6b290ba85c2a407fe1ccb", "fusion_lon": 0.0, "bike_id": "4a740dd26ca6b290ba85c2a407fe1ccb", "is_disabled": 0, "is_reserved": 0}, {"rental_uris": {"ios": "https://dc.lft.to/lastmile_qr_scan", "android": "https://dc.lft.to/lastmile_qr_scan"}, "lon": -77.01604483333334, "type": "electric_scooter", "fusion_lat": 0.0, "lat": 38.90006116666667, "name": "5b90ab804355713972fbc7afdcc84830", "fusion_lon": 0.0, "bike_id": "5b90ab804355713972fbc7afdcc84830", "is_disabled": 0, "is_reserved": 0}, {"rental_uris": {"ios": "https://dc.lft.to/lastmile_qr_scan", "android": "https://dc.lft.to/lastmile_qr_scan"}, "lon": -77.01103666666667, "type": "electric_scooter", "fusion_lat": 0.0, "lat": 38.9035095, "name": "0ccc2cf01ba5333cad3992cd8be61ef3", "fusion_lon": 0.0, "bike_id": "0ccc2cf01ba5333cad3992cd8be61ef3", "is_disabled": 0, "is_reserved": 0}, {"rental_uris": {"ios": "https://dc.lft.to/lastmile_qr_scan", "android": "https://dc.lft.to/lastmile_qr_scan"}, "lon": -77.027145, "type": "electric_scooter", "fusion_lat": 0.0, "lat": 38.9095605, "name": "934e2b78415a7579a235725e3b79604d", "fusion_lon": 0.0, "bike_id": "934e2b78415a7579a235725e3b79604d", "is_disabled": 0, "is_reserved": 0}, {"rental_uris": {"ios": "https://dc.lft.to/lastmile_qr_scan", "android": "https://dc.lft.to/lastmile_qr_scan"}, "lon": -76.96526433333334, "type": "electric_scooter", "fusion_lat": 0.0, "lat": 38.87634666666667, "name": "63402d23ffe8c5a10b6f158b2b044d03", "fusion_lon": 0.0, "bike_id": "63402d23ffe8c5a10b6f158b2b044d03", "is_disabled": 0, "is_reserved": 0}, {"rental_uris": {"ios": "https://dc.lft.to/lastmile_qr_scan", "android": "https://dc.lft.to/lastmile_qr_scan"}, "lon": -77.0400285, "type": "electric_scooter", "fusion_lat": 0.0, "lat": 38.921831833333336, "name": "4dbc0e24aa706c4d84e81050e39a7f56", "fusion_lon": 0.0, "bike_id": "4dbc0e24aa706c4d84e81050e39a7f56", "is_disabled": 0, "is_reserved": 0}, {"rental_uris": {"ios": "https://dc.lft.to/lastmile_qr_scan", "android": "https://dc.lft.to/lastmile_qr_scan"}, "lon": -77.01149583333333, "type": "electric_scooter", "fusion_lat": 0.0, "lat": 38.95675816666667, "name": "ae3847690c9ac85dde137c9a017cbbd2", "fusion_lon": 0.0, "bike_id": "ae3847690c9ac85dde137c9a017cbbd2", "is_disabled": 0, "is_reserved": 0}, {"rental_uris": {"ios": "https://dc.lft.to/lastmile_qr_scan", "android": "https://dc.lft.to/lastmile_qr_scan"}, "lon": -76.98994133333333, "type": "electric_scooter", "fusion_lat": 0.0, "lat": 38.864368999999996, "name": "aaefc2a9bf6e352610e360a87652bd07", "fusion_lon": 0.0, "bike_id": "aaefc2a9bf6e352610e360a87652bd07", "is_disabled": 0, "is_reserved": 0}, {"rental_uris": {"ios": "https://dc.lft.to/lastmile_qr_scan", "android": "https://dc.lft.to/lastmile_qr_scan"}, "lon": -77.03474533333333, "type": "electric_scooter", "fusion_lat": 0.0, "lat": 38.918281666666665, "name": "c1c406226d5d8675f14fc93fd35f7c15", "fusion_lon": 0.0, "bike_id": "c1c406226d5d8675f14fc93fd35f7c15", "is_disabled": 0, "is_reserved": 0}, {"rental_uris": {"ios": "https://dc.lft.to/lastmile_qr_scan", "android": "https://dc.lft.to/lastmile_qr_scan"}, "lon": -77.04412766666667, "type": "electric_scooter", "fusion_lat": 0.0, "lat": 38.910804166666665, "name": "eb8a75af8bdcc8d2ad079c849a847c72", "fusion_lon": 0.0, "bike_id": "eb8a75af8bdcc8d2ad079c849a847c72", "is_disabled": 0, "is_reserved": 0}, {"rental_uris": {"ios": "https://dc.lft.to/lastmile_qr_scan", "android": "https://dc.lft.to/lastmile_qr_scan"}, "lon": -77.002062, "type": "electric_scooter", "fusion_lat": 0.0, "lat": 38.822643, "name": "227af4204e1b04c964d1581dae14eb24", "fusion_lon": 0.0, "bike_id": "227af4204e1b04c964d1581dae14eb24", "is_disabled": 0, "is_reserved": 0}, {"rental_uris": {"ios": "https://dc.lft.to/lastmile_qr_scan", "android": "https://dc.lft.to/lastmile_qr_scan"}, "lon": -77.03750866666667, "type": "electric_scooter", "fusion_lat": 0.0, "lat": 38.9291095, "name": "4814d7af497b23695163b580459ded7e", "fusion_lon": 0.0, "bike_id": "4814d7af497b23695163b580459ded7e", "is_disabled": 0, "is_reserved": 0}, {"rental_uris": {"ios": "https://dc.lft.to/lastmile_qr_scan", "android": "https://dc.lft.to/lastmile_qr_scan"}, "lon": -77.019584, "type": "electric_scooter", "fusion_lat": 0.0, "lat": 38.88388666666667, "name": "cf50ef82fc3240e2311467f3fc57a1ff", "fusion_lon": 0.0, "bike_id": "cf50ef82fc3240e2311467f3fc57a1ff", "is_disabled": 0, "is_reserved": 0}, {"rental_uris": {"ios": "https://dc.lft.to/lastmile_qr_scan", "android": "https://dc.lft.to/lastmile_qr_scan"}, "lon": -77.03908866666667, "type": "electric_scooter", "fusion_lat": 0.0, "lat": 38.9141935, "name": "bf25ca87bfda97a68bad3d1028948692", "fusion_lon": 0.0, "bike_id": "bf25ca87bfda97a68bad3d1028948692", "is_disabled": 0, "is_reserved": 0}, {"rental_uris": {"ios": "https://dc.lft.to/lastmile_qr_scan", "android": "https://dc.lft.to/lastmile_qr_scan"}, "lon": -77.03638416666666, "type": "electric_scooter", "fusion_lat": 0.0, "lat": 38.92495366666667, "name": "6f7fc6165cf775015032dfac4ac7bb94", "fusion_lon": 0.0, "bike_id": "6f7fc6165cf775015032dfac4ac7bb94", "is_disabled": 0, "is_reserved": 0}, {"rental_uris": {"ios": "https://dc.lft.to/lastmile_qr_scan", "android": "https://dc.lft.to/lastmile_qr_scan"}, "lon": -76.9933525, "type": "electric_bike", "fusion_lat": 0.0, "lat": 38.9619465, "name": "36ae976575c412a69984366ef06a5f46", "fusion_lon": 0.0, "bike_id": "36ae976575c412a69984366ef06a5f46", "is_disabled": 0, "is_reserved": 0}, {"rental_uris": {"ios": "https://dc.lft.to/lastmile_qr_scan", "android": "https://dc.lft.to/lastmile_qr_scan"}, "lon": -77.02978916666666, "type": "electric_bike", "fusion_lat": 0.0, "lat": 38.937043, "name": "83db860f64cc7ca6cfba11f600539262", "fusion_lon": 0.0, "bike_id": "83db860f64cc7ca6cfba11f600539262", "is_disabled": 0, "is_reserved": 0}, {"rental_uris": {"ios": "https://dc.lft.to/lastmile_qr_scan", "android": "https://dc.lft.to/lastmile_qr_scan"}, "lon": -77.0293, "type": "electric_scooter", "fusion_lat": 0.0, "lat": 38.882260333333335, "name": "5b325b34a945ff5f6abacee607d84a58", "fusion_lon": 0.0, "bike_id": "5b325b34a945ff5f6abacee607d84a58", "is_disabled": 0, "is_reserved": 0}, {"rental_uris": {"ios": "https://dc.lft.to/lastmile_qr_scan", "android": "https://dc.lft.to/lastmile_qr_scan"}, "lon": -77.02697966666666, "type": "electric_scooter", "fusion_lat": 0.0, "lat": 38.899302666666664, "name": "7ec68e04a4df0f8b61a90ace34f9195d", "fusion_lon": 0.0, "bike_id": "7ec68e04a4df0f8b61a90ace34f9195d", "is_disabled": 0, "is_reserved": 0}, {"rental_uris": {"ios": "https://dc.lft.to/lastmile_qr_scan", "android": "https://dc.lft.to/lastmile_qr_scan"}, "lon": -77.01870183333334, "type": "electric_scooter", "fusion_lat": 0.0, "lat": 38.949032, "name": "10ad8224f908f4b2232c242122946d59", "fusion_lon": 0.0, "bike_id": "10ad8224f908f4b2232c242122946d59", "is_disabled": 0, "is_reserved": 0}, {"rental_uris": {"ios": "https://dc.lft.to/lastmile_qr_scan", "android": "https://dc.lft.to/lastmile_qr_scan"}, "lon": -77.07363833333334, "type": "electric_scooter", "fusion_lat": 0.0, "lat": 38.937471333333335, "name": "2255b19bfa33e702825209e7e2b4c359", "fusion_lon": 0.0, "bike_id": "2255b19bfa33e702825209e7e2b4c359", "is_disabled": 0, "is_reserved": 0}, {"rental_uris": {"ios": "https://dc.lft.to/lastmile_qr_scan", "android": "https://dc.lft.to/lastmile_qr_scan"}, "lon": -77.0664485, "type": "electric_scooter", "fusion_lat": 0.0, "lat": 38.9138115, "name": "fac006e506b635ce54bab4c10db86a54", "fusion_lon": 0.0, "bike_id": "fac006e506b635ce54bab4c10db86a54", "is_disabled": 0, "is_reserved": 0}, {"rental_uris": {"ios": "https://dc.lft.to/lastmile_qr_scan", "android": "https://dc.lft.to/lastmile_qr_scan"}, "lon": -77.03806566666667, "type": "electric_scooter", "fusion_lat": 0.0, "lat": 38.91568183333333, "name": "c1573ce8e80ba26daa0938d885739697", "fusion_lon": 0.0, "bike_id": "c1573ce8e80ba26daa0938d885739697", "is_disabled": 0, "is_reserved": 0}, {"rental_uris": {"ios": "https://dc.lft.to/lastmile_qr_scan", "android": "https://dc.lft.to/lastmile_qr_scan"}, "lon": -77.0019705, "type": "electric_scooter", "fusion_lat": 0.0, "lat": 38.89449333333334, "name": "6503f7ff282e55b4f1f6439bd67e2b88", "fusion_lon": 0.0, "bike_id": "6503f7ff282e55b4f1f6439bd67e2b88", "is_disabled": 0, "is_reserved": 0}, {"rental_uris": {"ios": "https://dc.lft.to/lastmile_qr_scan", "android": "https://dc.lft.to/lastmile_qr_scan"}, "lon": -76.96524266666667, "type": "electric_scooter", "fusion_lat": 0.0, "lat": 38.87628733333333, "name": "97f0f4b25c90821ed976356e7c1de906", "fusion_lon": 0.0, "bike_id": "97f0f4b25c90821ed976356e7c1de906", "is_disabled": 0, "is_reserved": 0}, {"rental_uris": {"ios": "https://dc.lft.to/lastmile_qr_scan", "android": "https://dc.lft.to/lastmile_qr_scan"}, "lon": -77.0320955, "type": "electric_scooter", "fusion_lat": 0.0, "lat": 38.9084105, "name": "6dc1c2a1199879a263363f6ab1050524", "fusion_lon": 0.0, "bike_id": "6dc1c2a1199879a263363f6ab1050524", "is_disabled": 0, "is_reserved": 0}, {"rental_uris": {"ios": "https://dc.lft.to/lastmile_qr_scan", "android": "https://dc.lft.to/lastmile_qr_scan"}, "lon": -77.0460535, "type": "electric_scooter", "fusion_lat": 0.0, "lat": 38.90266283333333, "name": "da5b351abded810db8d4f0d80d99a4b1", "fusion_lon": 0.0, "bike_id": "da5b351abded810db8d4f0d80d99a4b1", "is_disabled": 0, "is_reserved": 0}, {"rental_uris": {"ios": "https://dc.lft.to/lastmile_qr_scan", "android": "https://dc.lft.to/lastmile_qr_scan"}, "lon": -77.05567316666666, "type": "electric_scooter", "fusion_lat": 0.0, "lat": 38.89978, "name": "3ff7ea446d6d171dd0f8d5ae5f17672f", "fusion_lon": 0.0, "bike_id": "3ff7ea446d6d171dd0f8d5ae5f17672f", "is_disabled": 0, "is_reserved": 0}, {"rental_uris": {"ios": "https://dc.lft.to/lastmile_qr_scan", "android": "https://dc.lft.to/lastmile_qr_scan"}, "lon": -77.0251285, "type": "electric_scooter", "fusion_lat": 0.0, "lat": 38.9192765, "name": "8c08f6a3212d1bb727d86de93223b11b", "fusion_lon": 0.0, "bike_id": "8c08f6a3212d1bb727d86de93223b11b", "is_disabled": 0, "is_reserved": 0}, {"rental_uris": {"ios": "https://dc.lft.to/lastmile_qr_scan", "android": "https://dc.lft.to/lastmile_qr_scan"}, "lon": -77.03349166666666, "type": "electric_scooter", "fusion_lat": 0.0, "lat": 38.92452383333333, "name": "e80cc39b69a1c17a2c22abcf80ec6401", "fusion_lon": 0.0, "bike_id": "e80cc39b69a1c17a2c22abcf80ec6401", "is_disabled": 0, "is_reserved": 0}, {"rental_uris": {"ios": "https://dc.lft.to/lastmile_qr_scan", "android": "https://dc.lft.to/lastmile_qr_scan"}, "lon": -76.93540716666666, "type": "electric_bike", "fusion_lat": 0.0, "lat": 38.955599, "name": "573e48c0d4d9ff55eb703c5a7172f5f4", "fusion_lon": 0.0, "bike_id": "573e48c0d4d9ff55eb703c5a7172f5f4", "is_disabled": 0, "is_reserved": 0}, {"rental_uris": {"ios": "https://dc.lft.to/lastmile_qr_scan", "android": "https://dc.lft.to/lastmile_qr_scan"}, "lon": -77.0473045, "type": "electric_scooter", "fusion_lat": 0.0, "lat": 38.90247733333333, "name": "7f600875aedfe366dfe3b07fa8c39d45", "fusion_lon": 0.0, "bike_id": "7f600875aedfe366dfe3b07fa8c39d45", "is_disabled": 0, "is_reserved": 0}, {"rental_uris": {"ios": "https://dc.lft.to/lastmile_qr_scan", "android": "https://dc.lft.to/lastmile_qr_scan"}, "lon": -77.07686966666667, "type": "electric_bike", "fusion_lat": 0.0, "lat": 38.83198866666667, "name": "fee7ce724850d220ed09305cd3d6153d", "fusion_lon": 0.0, "bike_id": "fee7ce724850d220ed09305cd3d6153d", "is_disabled": 0, "is_reserved": 0}, {"rental_uris": {"ios": "https://dc.lft.to/lastmile_qr_scan", "android": "https://dc.lft.to/lastmile_qr_scan"}, "lon": -77.0230735, "type": "electric_bike", "fusion_lat": 0.0, "lat": 38.97232016666667, "name": "9aeb3779265b78a0e41be4a7f8baf1f2", "fusion_lon": 0.0, "bike_id": "9aeb3779265b78a0e41be4a7f8baf1f2", "is_disabled": 0, "is_reserved": 0}, {"rental_uris": {"ios": "https://dc.lft.to/lastmile_qr_scan", "android": "https://dc.lft.to/lastmile_qr_scan"}, "lon": -77.04999983333333, "type": "electric_scooter", "fusion_lat": 0.0, "lat": 38.899034666666665, "name": "afabd59f7e75879151048f1dba220897", "fusion_lon": 0.0, "bike_id": "afabd59f7e75879151048f1dba220897", "is_disabled": 0, "is_reserved": 0}, {"rental_uris": {"ios": "https://dc.lft.to/lastmile_qr_scan", "android": "https://dc.lft.to/lastmile_qr_scan"}, "lon": -77.026753, "type": "electric_scooter", "fusion_lat": 0.0, "lat": 38.899367, "name": "f0a6ee1339060b26ebc8076ce0f68b7a", "fusion_lon": 0.0, "bike_id": "f0a6ee1339060b26ebc8076ce0f68b7a", "is_disabled": 0, "is_reserved": 0}, {"rental_uris": {"ios": "https://dc.lft.to/lastmile_qr_scan", "android": "https://dc.lft.to/lastmile_qr_scan"}, "lon": -77.12263083333333, "type": "electric_bike", "fusion_lat": 0.0, "lat": 38.89195816666667, "name": "efabe055876ba4789e42a7e2980234e9", "fusion_lon": 0.0, "bike_id": "efabe055876ba4789e42a7e2980234e9", "is_disabled": 0, "is_reserved": 0}, {"rental_uris": {"ios": "https://dc.lft.to/lastmile_qr_scan", "android": "https://dc.lft.to/lastmile_qr_scan"}, "lon": -77.02395266666667, "type": "electric_scooter", "fusion_lat": 0.0, "lat": 38.91606066666667, "name": "86341432baaad64b481c30af21fd2d82", "fusion_lon": 0.0, "bike_id": "86341432baaad64b481c30af21fd2d82", "is_disabled": 0, "is_reserved": 0}, {"rental_uris": {"ios": "https://dc.lft.to/lastmile_qr_scan", "android": "https://dc.lft.to/lastmile_qr_scan"}, "lon": -77.04150766666666, "type": "electric_scooter", "fusion_lat": 0.0, "lat": 38.919313333333335, "name": "28e549b9dbf90c348a22e6a91236d61b", "fusion_lon": 0.0, "bike_id": "28e549b9dbf90c348a22e6a91236d61b", "is_disabled": 0, "is_reserved": 0}, {"rental_uris": {"ios": "https://dc.lft.to/lastmile_qr_scan", "android": "https://dc.lft.to/lastmile_qr_scan"}, "lon": -77.11219983333334, "type": "electric_bike", "fusion_lat": 0.0, "lat": 38.8287355, "name": "35f3c4bd1b358aa682620ffc79eb3c0f", "fusion_lon": 0.0, "bike_id": "35f3c4bd1b358aa682620ffc79eb3c0f", "is_disabled": 0, "is_reserved": 0}, {"rental_uris": {"ios": "https://dc.lft.to/lastmile_qr_scan", "android": "https://dc.lft.to/lastmile_qr_scan"}, "lon": -77.0417945, "type": "electric_scooter", "fusion_lat": 0.0, "lat": 38.90733566666667, "name": "33ffbe42b46bb2c8996c7beddc5782b0", "fusion_lon": 0.0, "bike_id": "33ffbe42b46bb2c8996c7beddc5782b0", "is_disabled": 0, "is_reserved": 0}, {"rental_uris": {"ios": "https://dc.lft.to/lastmile_qr_scan", "android": "https://dc.lft.to/lastmile_qr_scan"}, "lon": -77.036579, "type": "electric_scooter", "fusion_lat": 0.0, "lat": 38.93083633333333, "name": "7fa9949e5bddcc613e808bc1a5a1afa2", "fusion_lon": 0.0, "bike_id": "7fa9949e5bddcc613e808bc1a5a1afa2", "is_disabled": 0, "is_reserved": 0}, {"rental_uris": {"ios": "https://dc.lft.to/lastmile_qr_scan", "android": "https://dc.lft.to/lastmile_qr_scan"}, "lon": -76.98852583333333, "type": "electric_scooter", "fusion_lat": 0.0, "lat": 38.90347716666667, "name": "d88c9a9021684fa617fb4a11fecda9d3", "fusion_lon": 0.0, "bike_id": "d88c9a9021684fa617fb4a11fecda9d3", "is_disabled": 0, "is_reserved": 0}, {"rental_uris": {"ios": "https://dc.lft.to/lastmile_qr_scan", "android": "https://dc.lft.to/lastmile_qr_scan"}, "lon": -77.02300533333333, "type": "electric_scooter", "fusion_lat": 0.0, "lat": 38.90908016666667, "name": "429a10eb3e1f1dd10e1b251c3c474a2a", "fusion_lon": 0.0, "bike_id": "429a10eb3e1f1dd10e1b251c3c474a2a", "is_disabled": 0, "is_reserved": 0}, {"rental_uris": {"ios": "https://dc.lft.to/lastmile_qr_scan", "android": "https://dc.lft.to/lastmile_qr_scan"}, "lon": -77.03842083333333, "type": "electric_scooter", "fusion_lat": 0.0, "lat": 38.9128395, "name": "085c506fe97cb5d1e036c2d58c4ef7c7", "fusion_lon": 0.0, "bike_id": "085c506fe97cb5d1e036c2d58c4ef7c7", "is_disabled": 0, "is_reserved": 0}, {"rental_uris": {"ios": "https://dc.lft.to/lastmile_qr_scan", "android": "https://dc.lft.to/lastmile_qr_scan"}, "lon": -77.02783433333333, "type": "electric_scooter", "fusion_lat": 0.0, "lat": 38.923803666666664, "name": "ed9799cca3c47ea833f2b2bfccce8cf4", "fusion_lon": 0.0, "bike_id": "ed9799cca3c47ea833f2b2bfccce8cf4", "is_disabled": 0, "is_reserved": 0}, {"rental_uris": {"ios": "https://dc.lft.to/lastmile_qr_scan", "android": "https://dc.lft.to/lastmile_qr_scan"}, "lon": -77.0471335, "type": "electric_scooter", "fusion_lat": 0.0, "lat": 38.90979133333333, "name": "86e12b6b6b59c5c1a09403bf376ac522", "fusion_lon": 0.0, "bike_id": "86e12b6b6b59c5c1a09403bf376ac522", "is_disabled": 0, "is_reserved": 0}, {"rental_uris": {"ios": "https://dc.lft.to/lastmile_qr_scan", "android": "https://dc.lft.to/lastmile_qr_scan"}, "lon": -77.028088, "type": "electric_scooter", "fusion_lat": 0.0, "lat": 38.930858666666666, "name": "cce6da09fc8629ecc68dcb441bfd858b", "fusion_lon": 0.0, "bike_id": "cce6da09fc8629ecc68dcb441bfd858b", "is_disabled": 0, "is_reserved": 0}, {"rental_uris": {"ios": "https://dc.lft.to/lastmile_qr_scan", "android": "https://dc.lft.to/lastmile_qr_scan"}, "lon": -77.03303583333333, "type": "electric_scooter", "fusion_lat": 0.0, "lat": 38.901473833333334, "name": "78715bf079a36cbaff43b7152227b7f2", "fusion_lon": 0.0, "bike_id": "78715bf079a36cbaff43b7152227b7f2", "is_disabled": 0, "is_reserved": 0}, {"rental_uris": {"ios": "https://dc.lft.to/lastmile_qr_scan", "android": "https://dc.lft.to/lastmile_qr_scan"}, "lon": -77.02153016666666, "type": "electric_scooter", "fusion_lat": 0.0, "lat": 38.9282755, "name": "169abf573063be14b59490959a8b5700", "fusion_lon": 0.0, "bike_id": "169abf573063be14b59490959a8b5700", "is_disabled": 0, "is_reserved": 0}, {"rental_uris": {"ios": "https://dc.lft.to/lastmile_qr_scan", "android": "https://dc.lft.to/lastmile_qr_scan"}, "lon": -76.96551233333334, "type": "electric_scooter", "fusion_lat": 0.0, "lat": 38.8787485, "name": "b79712879e1cc16a79dc96cdf9429843", "fusion_lon": 0.0, "bike_id": "b79712879e1cc16a79dc96cdf9429843", "is_disabled": 0, "is_reserved": 0}, {"rental_uris": {"ios": "https://dc.lft.to/lastmile_qr_scan", "android": "https://dc.lft.to/lastmile_qr_scan"}, "lon": -77.04181283333334, "type": "electric_scooter", "fusion_lat": 0.0, "lat": 38.9034405, "name": "62073f9823ff57483fe28d2e6c6d6dd8", "fusion_lon": 0.0, "bike_id": "62073f9823ff57483fe28d2e6c6d6dd8", "is_disabled": 0, "is_reserved": 0}, {"rental_uris": {"ios": "https://dc.lft.to/lastmile_qr_scan", "android": "https://dc.lft.to/lastmile_qr_scan"}, "lon": -77.02477966666666, "type": "electric_scooter", "fusion_lat": 0.0, "lat": 38.897193, "name": "72e8a0e8093d76179abb0e6230415828", "fusion_lon": 0.0, "bike_id": "72e8a0e8093d76179abb0e6230415828", "is_disabled": 0, "is_reserved": 0}, {"rental_uris": {"ios": "https://dc.lft.to/lastmile_qr_scan", "android": "https://dc.lft.to/lastmile_qr_scan"}, "lon": -76.99847, "type": "electric_scooter", "fusion_lat": 0.0, "lat": 38.900460333333335, "name": "7ce24e6d8f7c1e85b3c3c1a1c6a4eaf6", "fusion_lon": 0.0, "bike_id": "7ce24e6d8f7c1e85b3c3c1a1c6a4eaf6", "is_disabled": 0, "is_reserved": 0}, {"rental_uris": {"ios": "https://dc.lft.to/lastmile_qr_scan", "android": "https://dc.lft.to/lastmile_qr_scan"}, "lon": -77.03844333333333, "type": "electric_scooter", "fusion_lat": 0.0, "lat": 38.903708, "name": "a96e3377027c4a411b47d22a57483ca1", "fusion_lon": 0.0, "bike_id": "a96e3377027c4a411b47d22a57483ca1", "is_disabled": 0, "is_reserved": 0}, {"rental_uris": {"ios": "https://dc.lft.to/lastmile_qr_scan", "android": "https://dc.lft.to/lastmile_qr_scan"}, "lon": -76.99912616666667, "type": "electric_scooter", "fusion_lat": 0.0, "lat": 38.90947283333333, "name": "656bb2dddc50fb6acd9f7fb9f4170cc7", "fusion_lon": 0.0, "bike_id": "656bb2dddc50fb6acd9f7fb9f4170cc7", "is_disabled": 0, "is_reserved": 0}, {"rental_uris": {"ios": "https://dc.lft.to/lastmile_qr_scan", "android": "https://dc.lft.to/lastmile_qr_scan"}, "lon": -76.97027566666667, "type": "electric_scooter", "fusion_lat": 0.0, "lat": 38.903146166666666, "name": "035aeb23c7838dd7b488eb1beb06def3", "fusion_lon": 0.0, "bike_id": "035aeb23c7838dd7b488eb1beb06def3", "is_disabled": 0, "is_reserved": 0}, {"rental_uris": {"ios": "https://dc.lft.to/lastmile_qr_scan", "android": "https://dc.lft.to/lastmile_qr_scan"}, "lon": -77.01184766666667, "type": "electric_scooter", "fusion_lat": 0.0, "lat": 38.900361, "name": "688495f9a40f6016d7793d59bd310482", "fusion_lon": 0.0, "bike_id": "688495f9a40f6016d7793d59bd310482", "is_disabled": 0, "is_reserved": 0}, {"rental_uris": {"ios": "https://dc.lft.to/lastmile_qr_scan", "android": "https://dc.lft.to/lastmile_qr_scan"}, "lon": -77.028188, "type": "electric_scooter", "fusion_lat": 0.0, "lat": 38.909335666666664, "name": "dc7ccf028b290631a382b7ac6ea19830", "fusion_lon": 0.0, "bike_id": "dc7ccf028b290631a382b7ac6ea19830", "is_disabled": 0, "is_reserved": 0}, {"rental_uris": {"ios": "https://dc.lft.to/lastmile_qr_scan", "android": "https://dc.lft.to/lastmile_qr_scan"}, "lon": -77.02744016666666, "type": "electric_scooter", "fusion_lat": 0.0, "lat": 38.96630433333333, "name": "bd7c4b0d46dc357c2430929ef5655aac", "fusion_lon": 0.0, "bike_id": "bd7c4b0d46dc357c2430929ef5655aac", "is_disabled": 0, "is_reserved": 0}, {"rental_uris": {"ios": "https://dc.lft.to/lastmile_qr_scan", "android": "https://dc.lft.to/lastmile_qr_scan"}, "lon": -76.98494, "type": "electric_scooter", "fusion_lat": 0.0, "lat": 38.86047583333333, "name": "3ad77f017d2fd28eed41774b8e127c13", "fusion_lon": 0.0, "bike_id": "3ad77f017d2fd28eed41774b8e127c13", "is_disabled": 0, "is_reserved": 0}, {"rental_uris": {"ios": "https://dc.lft.to/lastmile_qr_scan", "android": "https://dc.lft.to/lastmile_qr_scan"}, "lon": -76.9883915, "type": "electric_bike", "fusion_lat": 0.0, "lat": 38.84276066666666, "name": "0429c0d3b9866e8f39808d7885107761", "fusion_lon": 0.0, "bike_id": "0429c0d3b9866e8f39808d7885107761", "is_disabled": 0, "is_reserved": 0}, {"rental_uris": {"ios": "https://dc.lft.to/lastmile_qr_scan", "android": "https://dc.lft.to/lastmile_qr_scan"}, "lon": -76.9688075, "type": "electric_bike", "fusion_lat": 0.0, "lat": 38.8460045, "name": "a4413738f31bb68f6eac24a4f769ef31", "fusion_lon": 0.0, "bike_id": "a4413738f31bb68f6eac24a4f769ef31", "is_disabled": 0, "is_reserved": 0}, {"rental_uris": {"ios": "https://dc.lft.to/lastmile_qr_scan", "android": "https://dc.lft.to/lastmile_qr_scan"}, "lon": -76.99516383333334, "type": "electric_scooter", "fusion_lat": 0.0, "lat": 38.84475616666667, "name": "73773a4be7795c3ef58531b6af3ace40", "fusion_lon": 0.0, "bike_id": "73773a4be7795c3ef58531b6af3ace40", "is_disabled": 0, "is_reserved": 0}, {"rental_uris": {"ios": "https://dc.lft.to/lastmile_qr_scan", "android": "https://dc.lft.to/lastmile_qr_scan"}, "lon": -77.00722733333333, "type": "electric_scooter", "fusion_lat": 0.0, "lat": 38.87648183333334, "name": "7e36ad5db893252b31953d90348a0d09", "fusion_lon": 0.0, "bike_id": "7e36ad5db893252b31953d90348a0d09", "is_disabled": 0, "is_reserved": 0}, {"rental_uris": {"ios": "https://dc.lft.to/lastmile_qr_scan", "android": "https://dc.lft.to/lastmile_qr_scan"}, "lon": -77.03177616666666, "type": "electric_scooter", "fusion_lat": 0.0, "lat": 38.893488833333336, "name": "ead7b3023db121c70809897756b61785", "fusion_lon": 0.0, "bike_id": "ead7b3023db121c70809897756b61785", "is_disabled": 0, "is_reserved": 0}, {"rental_uris": {"ios": "https://dc.lft.to/lastmile_qr_scan", "android": "https://dc.lft.to/lastmile_qr_scan"}, "lon": -77.02688733333333, "type": "electric_scooter", "fusion_lat": 0.0, "lat": 38.914198166666665, "name": "f6b5520092fe40d59eaa85bef93780af", "fusion_lon": 0.0, "bike_id": "f6b5520092fe40d59eaa85bef93780af", "is_disabled": 0, "is_reserved": 0}, {"rental_uris": {"ios": "https://dc.lft.to/lastmile_qr_scan", "android": "https://dc.lft.to/lastmile_qr_scan"}, "lon": -76.99545566666667, "type": "electric_scooter", "fusion_lat": 0.0, "lat": 38.92667616666667, "name": "0c3dfa466c8e4c51c83ad64b780e8ce6", "fusion_lon": 0.0, "bike_id": "0c3dfa466c8e4c51c83ad64b780e8ce6", "is_disabled": 0, "is_reserved": 0}, {"rental_uris": {"ios": "https://dc.lft.to/lastmile_qr_scan", "android": "https://dc.lft.to/lastmile_qr_scan"}, "lon": -76.975986, "type": "electric_scooter", "fusion_lat": 0.0, "lat": 38.90209133333333, "name": "13c38e680ee61634afef13fd49ab5e82", "fusion_lon": 0.0, "bike_id": "13c38e680ee61634afef13fd49ab5e82", "is_disabled": 0, "is_reserved": 0}, {"rental_uris": {"ios": "https://dc.lft.to/lastmile_qr_scan", "android": "https://dc.lft.to/lastmile_qr_scan"}, "lon": -77.04632933333333, "type": "electric_scooter", "fusion_lat": 0.0, "lat": 38.90972516666667, "name": "6b0a602c908848c1b0f4e49c35b7d625", "fusion_lon": 0.0, "bike_id": "6b0a602c908848c1b0f4e49c35b7d625", "is_disabled": 0, "is_reserved": 0}, {"rental_uris": {"ios": "https://dc.lft.to/lastmile_qr_scan", "android": "https://dc.lft.to/lastmile_qr_scan"}, "lon": -76.970153, "type": "electric_bike", "fusion_lat": 0.0, "lat": 38.863715, "name": "33995f7619a0066712639617d0ed545e", "fusion_lon": 0.0, "bike_id": "33995f7619a0066712639617d0ed545e", "is_disabled": 0, "is_reserved": 0}, {"rental_uris": {"ios": "https://dc.lft.to/lastmile_qr_scan", "android": "https://dc.lft.to/lastmile_qr_scan"}, "lon": -77.02713433333334, "type": "electric_scooter", "fusion_lat": 0.0, "lat": 38.92065383333333, "name": "e27989ca122e0157c921f9270b08cd53", "fusion_lon": 0.0, "bike_id": "e27989ca122e0157c921f9270b08cd53", "is_disabled": 0, "is_reserved": 0}, {"rental_uris": {"ios": "https://dc.lft.to/lastmile_qr_scan", "android": "https://dc.lft.to/lastmile_qr_scan"}, "lon": -77.02222483333334, "type": "electric_scooter", "fusion_lat": 0.0, "lat": 38.927425666666664, "name": "a43a6ae9c68ce7636adcd2d79058745c", "fusion_lon": 0.0, "bike_id": "a43a6ae9c68ce7636adcd2d79058745c", "is_disabled": 0, "is_reserved": 0}, {"rental_uris": {"ios": "https://dc.lft.to/lastmile_qr_scan", "android": "https://dc.lft.to/lastmile_qr_scan"}, "lon": -77.00464433333333, "type": "electric_scooter", "fusion_lat": 0.0, "lat": 38.877468666666665, "name": "c6c6cfb4a453d55c43ff19f1a6ac743d", "fusion_lon": 0.0, "bike_id": "c6c6cfb4a453d55c43ff19f1a6ac743d", "is_disabled": 0, "is_reserved": 0}, {"rental_uris": {"ios": "https://dc.lft.to/lastmile_qr_scan", "android": "https://dc.lft.to/lastmile_qr_scan"}, "lon": -77.03426483333334, "type": "electric_scooter", "fusion_lat": 0.0, "lat": 38.939790333333335, "name": "0da038e6607eb39456565cf5edec2052", "fusion_lon": 0.0, "bike_id": "0da038e6607eb39456565cf5edec2052", "is_disabled": 0, "is_reserved": 0}, {"rental_uris": {"ios": "https://dc.lft.to/lastmile_qr_scan", "android": "https://dc.lft.to/lastmile_qr_scan"}, "lon": -77.04902833333334, "type": "electric_bike", "fusion_lat": 0.0, "lat": 38.87497233333333, "name": "73900c0ec33c4a22e19a8da401ce3e91", "fusion_lon": 0.0, "bike_id": "73900c0ec33c4a22e19a8da401ce3e91", "is_disabled": 0, "is_reserved": 0}, {"rental_uris": {"ios": "https://dc.lft.to/lastmile_qr_scan", "android": "https://dc.lft.to/lastmile_qr_scan"}, "lon": -77.032098, "type": "electric_scooter", "fusion_lat": 0.0, "lat": 38.907220833333334, "name": "ecba3581a1b7925a47dd31e87389444c", "fusion_lon": 0.0, "bike_id": "ecba3581a1b7925a47dd31e87389444c", "is_disabled": 0, "is_reserved": 0}, {"rental_uris": {"ios": "https://dc.lft.to/lastmile_qr_scan", "android": "https://dc.lft.to/lastmile_qr_scan"}, "lon": -76.995943, "type": "electric_scooter", "fusion_lat": 0.0, "lat": 38.900287666666664, "name": "a3a4ad4734cf1a04dd45efaeb9a7d59f", "fusion_lon": 0.0, "bike_id": "a3a4ad4734cf1a04dd45efaeb9a7d59f", "is_disabled": 0, "is_reserved": 0}, {"rental_uris": {"ios": "https://dc.lft.to/lastmile_qr_scan", "android": "https://dc.lft.to/lastmile_qr_scan"}, "lon": -76.98561916666667, "type": "electric_scooter", "fusion_lat": 0.0, "lat": 38.89896666666667, "name": "344d712884fc5d86115aac29c0f0255d", "fusion_lon": 0.0, "bike_id": "344d712884fc5d86115aac29c0f0255d", "is_disabled": 0, "is_reserved": 0}, {"rental_uris": {"ios": "https://dc.lft.to/lastmile_qr_scan", "android": "https://dc.lft.to/lastmile_qr_scan"}, "lon": -77.0181535, "type": "electric_scooter", "fusion_lat": 0.0, "lat": 38.911977666666665, "name": "2f3936812f5d00b2646b26ec18f8b963", "fusion_lon": 0.0, "bike_id": "2f3936812f5d00b2646b26ec18f8b963", "is_disabled": 0, "is_reserved": 0}, {"rental_uris": {"ios": "https://dc.lft.to/lastmile_qr_scan", "android": "https://dc.lft.to/lastmile_qr_scan"}, "lon": -77.04680516666667, "type": "electric_scooter", "fusion_lat": 0.0, "lat": 38.8922735, "name": "dce8fc41d308d6ce5c74d515fec201f5", "fusion_lon": 0.0, "bike_id": "dce8fc41d308d6ce5c74d515fec201f5", "is_disabled": 0, "is_reserved": 0}, {"rental_uris": {"ios": "https://dc.lft.to/lastmile_qr_scan", "android": "https://dc.lft.to/lastmile_qr_scan"}, "lon": -77.06276583333333, "type": "electric_scooter", "fusion_lat": 0.0, "lat": 38.906847666666664, "name": "53824f0d7258824720d15ac570c23b20", "fusion_lon": 0.0, "bike_id": "53824f0d7258824720d15ac570c23b20", "is_disabled": 0, "is_reserved": 0}, {"rental_uris": {"ios": "https://dc.lft.to/lastmile_qr_scan", "android": "https://dc.lft.to/lastmile_qr_scan"}, "lon": -77.10025866666666, "type": "electric_bike", "fusion_lat": 0.0, "lat": 38.9907165, "name": "bd00258897d843ca524360b40a1bfaae", "fusion_lon": 0.0, "bike_id": "bd00258897d843ca524360b40a1bfaae", "is_disabled": 0, "is_reserved": 0}, {"rental_uris": {"ios": "https://dc.lft.to/lastmile_qr_scan", "android": "https://dc.lft.to/lastmile_qr_scan"}, "lon": -77.03997033333333, "type": "electric_scooter", "fusion_lat": 0.0, "lat": 38.914193833333336, "name": "1db6adc1d88e7ba732aa6c3f4f27d2b3", "fusion_lon": 0.0, "bike_id": "1db6adc1d88e7ba732aa6c3f4f27d2b3", "is_disabled": 0, "is_reserved": 0}, {"rental_uris": {"ios": "https://dc.lft.to/lastmile_qr_scan", "android": "https://dc.lft.to/lastmile_qr_scan"}, "lon": -76.94651616666667, "type": "electric_scooter", "fusion_lat": 0.0, "lat": 38.898276833333334, "name": "d48e8918b5e437cb0e06d139c8d7019b", "fusion_lon": 0.0, "bike_id": "d48e8918b5e437cb0e06d139c8d7019b", "is_disabled": 0, "is_reserved": 0}, {"rental_uris": {"ios": "https://dc.lft.to/lastmile_qr_scan", "android": "https://dc.lft.to/lastmile_qr_scan"}, "lon": -77.0414485, "type": "electric_scooter", "fusion_lat": 0.0, "lat": 38.91185466666667, "name": "4534cc5cd02af773b67044ba4134d387", "fusion_lon": 0.0, "bike_id": "4534cc5cd02af773b67044ba4134d387", "is_disabled": 0, "is_reserved": 0}, {"rental_uris": {"ios": "https://dc.lft.to/lastmile_qr_scan", "android": "https://dc.lft.to/lastmile_qr_scan"}, "lon": -77.034576, "type": "electric_scooter", "fusion_lat": 0.0, "lat": 38.94580933333334, "name": "f7240bad8b81a9b0dbec4a13df96924d", "fusion_lon": 0.0, "bike_id": "f7240bad8b81a9b0dbec4a13df96924d", "is_disabled": 0, "is_reserved": 0}, {"rental_uris": {"ios": "https://dc.lft.to/lastmile_qr_scan", "android": "https://dc.lft.to/lastmile_qr_scan"}, "lon": -77.17849333333334, "type": "electric_bike", "fusion_lat": 0.0, "lat": 39.08902483333333, "name": "49124c945c47a9c12d0673ab2a842eb3", "fusion_lon": 0.0, "bike_id": "49124c945c47a9c12d0673ab2a842eb3", "is_disabled": 0, "is_reserved": 0}, {"rental_uris": {"ios": "https://dc.lft.to/lastmile_qr_scan", "android": "https://dc.lft.to/lastmile_qr_scan"}, "lon": -77.042418, "type": "electric_scooter", "fusion_lat": 0.0, "lat": 38.907178333333334, "name": "60131ee30d3570cdaf9b222bfba12827", "fusion_lon": 0.0, "bike_id": "60131ee30d3570cdaf9b222bfba12827", "is_disabled": 0, "is_reserved": 0}, {"rental_uris": {"ios": "https://dc.lft.to/lastmile_qr_scan", "android": "https://dc.lft.to/lastmile_qr_scan"}, "lon": -77.04422383333333, "type": "electric_scooter", "fusion_lat": 0.0, "lat": 38.892278, "name": "2768e20d6f51516777be8d6d3b1a888e", "fusion_lon": 0.0, "bike_id": "2768e20d6f51516777be8d6d3b1a888e", "is_disabled": 0, "is_reserved": 0}, {"rental_uris": {"ios": "https://dc.lft.to/lastmile_qr_scan", "android": "https://dc.lft.to/lastmile_qr_scan"}, "lon": -77.08541383333333, "type": "electric_bike", "fusion_lat": 0.0, "lat": 38.85626516666667, "name": "47860188f2ff7e5466666e612f2102c9", "fusion_lon": 0.0, "bike_id": "47860188f2ff7e5466666e612f2102c9", "is_disabled": 0, "is_reserved": 0}, {"rental_uris": {"ios": "https://dc.lft.to/lastmile_qr_scan", "android": "https://dc.lft.to/lastmile_qr_scan"}, "lon": -77.03349666666666, "type": "electric_scooter", "fusion_lat": 0.0, "lat": 38.885131666666666, "name": "0024b2b4cedfab24ac69aeef42010b97", "fusion_lon": 0.0, "bike_id": "0024b2b4cedfab24ac69aeef42010b97", "is_disabled": 0, "is_reserved": 0}, {"rental_uris": {"ios": "https://dc.lft.to/lastmile_qr_scan", "android": "https://dc.lft.to/lastmile_qr_scan"}, "lon": -77.02177666666667, "type": "electric_scooter", "fusion_lat": 0.0, "lat": 38.916871, "name": "020f19400a5a8a7d3267ccab40bf896c", "fusion_lon": 0.0, "bike_id": "020f19400a5a8a7d3267ccab40bf896c", "is_disabled": 0, "is_reserved": 0}, {"rental_uris": {"ios": "https://dc.lft.to/lastmile_qr_scan", "android": "https://dc.lft.to/lastmile_qr_scan"}, "lon": -77.03467133333334, "type": "electric_scooter", "fusion_lat": 0.0, "lat": 38.93449566666666, "name": "ca8b0f8350aedf80a3be7491e17c8814", "fusion_lon": 0.0, "bike_id": "ca8b0f8350aedf80a3be7491e17c8814", "is_disabled": 0, "is_reserved": 0}, {"rental_uris": {"ios": "https://dc.lft.to/lastmile_qr_scan", "android": "https://dc.lft.to/lastmile_qr_scan"}, "lon": -77.02179666666666, "type": "electric_scooter", "fusion_lat": 0.0, "lat": 38.91575983333333, "name": "863f058af8c800b9af2c128c564e8583", "fusion_lon": 0.0, "bike_id": "863f058af8c800b9af2c128c564e8583", "is_disabled": 0, "is_reserved": 0}, {"rental_uris": {"ios": "https://dc.lft.to/lastmile_qr_scan", "android": "https://dc.lft.to/lastmile_qr_scan"}, "lon": -77.02624283333333, "type": "electric_bike", "fusion_lat": 0.0, "lat": 38.96227366666667, "name": "664562f922681cca8695d29e4a95a7a8", "fusion_lon": 0.0, "bike_id": "664562f922681cca8695d29e4a95a7a8", "is_disabled": 0, "is_reserved": 0}, {"rental_uris": {"ios": "https://dc.lft.to/lastmile_qr_scan", "android": "https://dc.lft.to/lastmile_qr_scan"}, "lon": -77.016971, "type": "electric_scooter", "fusion_lat": 0.0, "lat": 38.904418166666666, "name": "5a514669df81f804bd834b358d3672df", "fusion_lon": 0.0, "bike_id": "5a514669df81f804bd834b358d3672df", "is_disabled": 0, "is_reserved": 0}, {"rental_uris": {"ios": "https://dc.lft.to/lastmile_qr_scan", "android": "https://dc.lft.to/lastmile_qr_scan"}, "lon": -77.01497866666666, "type": "electric_scooter", "fusion_lat": 0.0, "lat": 38.917744666666664, "name": "2744c209b5e4ced70d8dc8b0f9e5cd3a", "fusion_lon": 0.0, "bike_id": "2744c209b5e4ced70d8dc8b0f9e5cd3a", "is_disabled": 0, "is_reserved": 0}, {"rental_uris": {"ios": "https://dc.lft.to/lastmile_qr_scan", "android": "https://dc.lft.to/lastmile_qr_scan"}, "lon": -77.04103766666667, "type": "electric_scooter", "fusion_lat": 0.0, "lat": 38.91856416666667, "name": "9a7d444d6d45bcb936d922920b435f51", "fusion_lon": 0.0, "bike_id": "9a7d444d6d45bcb936d922920b435f51", "is_disabled": 0, "is_reserved": 0}, {"rental_uris": {"ios": "https://dc.lft.to/lastmile_qr_scan", "android": "https://dc.lft.to/lastmile_qr_scan"}, "lon": -77.00724416666667, "type": "electric_scooter", "fusion_lat": 0.0, "lat": 38.884940666666665, "name": "924d553e6278082184580d38072fa91a", "fusion_lon": 0.0, "bike_id": "924d553e6278082184580d38072fa91a", "is_disabled": 0, "is_reserved": 0}, {"rental_uris": {"ios": "https://dc.lft.to/lastmile_qr_scan", "android": "https://dc.lft.to/lastmile_qr_scan"}, "lon": -77.03438483333333, "type": "electric_scooter", "fusion_lat": 0.0, "lat": 38.90273233333333, "name": "55d84ef6e24d6cd400ffae9c8e595c17", "fusion_lon": 0.0, "bike_id": "55d84ef6e24d6cd400ffae9c8e595c17", "is_disabled": 0, "is_reserved": 0}, {"rental_uris": {"ios": "https://dc.lft.to/lastmile_qr_scan", "android": "https://dc.lft.to/lastmile_qr_scan"}, "lon": -77.04152883333333, "type": "electric_scooter", "fusion_lat": 0.0, "lat": 38.92342, "name": "fcdc59ec32e7bb0c03cc1b572899d86a", "fusion_lon": 0.0, "bike_id": "fcdc59ec32e7bb0c03cc1b572899d86a", "is_disabled": 0, "is_reserved": 0}, {"rental_uris": {"ios": "https://dc.lft.to/lastmile_qr_scan", "android": "https://dc.lft.to/lastmile_qr_scan"}, "lon": -77.0375205, "type": "electric_scooter", "fusion_lat": 0.0, "lat": 38.92596616666667, "name": "a9472ca60f7b9fe3538f07ac2e2989b1", "fusion_lon": 0.0, "bike_id": "a9472ca60f7b9fe3538f07ac2e2989b1", "is_disabled": 0, "is_reserved": 0}, {"rental_uris": {"ios": "https://dc.lft.to/lastmile_qr_scan", "android": "https://dc.lft.to/lastmile_qr_scan"}, "lon": -77.02836683333334, "type": "electric_scooter", "fusion_lat": 0.0, "lat": 38.88771116666667, "name": "af8770a6136ded6f07ef4ea81f4c6056", "fusion_lon": 0.0, "bike_id": "af8770a6136ded6f07ef4ea81f4c6056", "is_disabled": 0, "is_reserved": 0}, {"rental_uris": {"ios": "https://dc.lft.to/lastmile_qr_scan", "android": "https://dc.lft.to/lastmile_qr_scan"}, "lon": -77.115234, "type": "electric_bike", "fusion_lat": 0.0, "lat": 38.85492466666667, "name": "742ea90224425cc1a556d8f9c6ea5d8f", "fusion_lon": 0.0, "bike_id": "742ea90224425cc1a556d8f9c6ea5d8f", "is_disabled": 0, "is_reserved": 0}, {"rental_uris": {"ios": "https://dc.lft.to/lastmile_qr_scan", "android": "https://dc.lft.to/lastmile_qr_scan"}, "lon": -77.02520383333334, "type": "electric_scooter", "fusion_lat": 0.0, "lat": 38.9198625, "name": "101d58333b14e6c76de76b1f71ef0a3f", "fusion_lon": 0.0, "bike_id": "101d58333b14e6c76de76b1f71ef0a3f", "is_disabled": 0, "is_reserved": 0}, {"rental_uris": {"ios": "https://dc.lft.to/lastmile_qr_scan", "android": "https://dc.lft.to/lastmile_qr_scan"}, "lon": -77.0533185, "type": "electric_scooter", "fusion_lat": 0.0, "lat": 38.90323166666667, "name": "9c6c96e1bb2f9f1266f990df05f9847e", "fusion_lon": 0.0, "bike_id": "9c6c96e1bb2f9f1266f990df05f9847e", "is_disabled": 0, "is_reserved": 0}, {"rental_uris": {"ios": "https://dc.lft.to/lastmile_qr_scan", "android": "https://dc.lft.to/lastmile_qr_scan"}, "lon": -77.0385545, "type": "electric_scooter", "fusion_lat": 0.0, "lat": 38.93253583333333, "name": "f2e991a2b87a14b2ba3f55fe6962256d", "fusion_lon": 0.0, "bike_id": "f2e991a2b87a14b2ba3f55fe6962256d", "is_disabled": 0, "is_reserved": 0}, {"rental_uris": {"ios": "https://dc.lft.to/lastmile_qr_scan", "android": "https://dc.lft.to/lastmile_qr_scan"}, "lon": -77.05753916666667, "type": "electric_scooter", "fusion_lat": 0.0, "lat": 38.93415066666667, "name": "9ec6e3ebdd4f0e3e4056e9aea9438e5b", "fusion_lon": 0.0, "bike_id": "9ec6e3ebdd4f0e3e4056e9aea9438e5b", "is_disabled": 0, "is_reserved": 0}, {"rental_uris": {"ios": "https://dc.lft.to/lastmile_qr_scan", "android": "https://dc.lft.to/lastmile_qr_scan"}, "lon": -76.9990275, "type": "electric_scooter", "fusion_lat": 0.0, "lat": 38.909457, "name": "32372f823fcbba090ada45f4b8cadb86", "fusion_lon": 0.0, "bike_id": "32372f823fcbba090ada45f4b8cadb86", "is_disabled": 0, "is_reserved": 0}, {"rental_uris": {"ios": "https://dc.lft.to/lastmile_qr_scan", "android": "https://dc.lft.to/lastmile_qr_scan"}, "lon": -77.03215633333333, "type": "electric_scooter", "fusion_lat": 0.0, "lat": 38.914056333333335, "name": "35d37dd5d8d04eaef2e6ba4a6a516967", "fusion_lon": 0.0, "bike_id": "35d37dd5d8d04eaef2e6ba4a6a516967", "is_disabled": 0, "is_reserved": 0}, {"rental_uris": {"ios": "https://dc.lft.to/lastmile_qr_scan", "android": "https://dc.lft.to/lastmile_qr_scan"}, "lon": -77.03072516666667, "type": "electric_scooter", "fusion_lat": 0.0, "lat": 38.911937333333334, "name": "296f9194ac9d4c86f086e917c046e99b", "fusion_lon": 0.0, "bike_id": "296f9194ac9d4c86f086e917c046e99b", "is_disabled": 0, "is_reserved": 0}, {"rental_uris": {"ios": "https://dc.lft.to/lastmile_qr_scan", "android": "https://dc.lft.to/lastmile_qr_scan"}, "lon": -77.0411205, "type": "electric_scooter", "fusion_lat": 0.0, "lat": 38.915635333333334, "name": "ff23775cb0c91683a17221d19f9f369d", "fusion_lon": 0.0, "bike_id": "ff23775cb0c91683a17221d19f9f369d", "is_disabled": 0, "is_reserved": 0}, {"rental_uris": {"ios": "https://dc.lft.to/lastmile_qr_scan", "android": "https://dc.lft.to/lastmile_qr_scan"}, "lon": -77.00985466666667, "type": "electric_scooter", "fusion_lat": 0.0, "lat": 38.9149695, "name": "0a3219ca3d108f2a6ba7b5a92caf4f92", "fusion_lon": 0.0, "bike_id": "0a3219ca3d108f2a6ba7b5a92caf4f92", "is_disabled": 0, "is_reserved": 0}, {"rental_uris": {"ios": "https://dc.lft.to/lastmile_qr_scan", "android": "https://dc.lft.to/lastmile_qr_scan"}, "lon": -76.9662765, "type": "electric_bike", "fusion_lat": 0.0, "lat": 38.94204416666667, "name": "a05f97baf30a4149d2bd7d4c992a8baa", "fusion_lon": 0.0, "bike_id": "a05f97baf30a4149d2bd7d4c992a8baa", "is_disabled": 0, "is_reserved": 0}, {"rental_uris": {"ios": "https://dc.lft.to/lastmile_qr_scan", "android": "https://dc.lft.to/lastmile_qr_scan"}, "lon": -77.0424435, "type": "electric_scooter", "fusion_lat": 0.0, "lat": 38.922967166666666, "name": "13e5c0c03b5bb3be5a24b3417f1ad023", "fusion_lon": 0.0, "bike_id": "13e5c0c03b5bb3be5a24b3417f1ad023", "is_disabled": 0, "is_reserved": 0}, {"rental_uris": {"ios": "https://dc.lft.to/lastmile_qr_scan", "android": "https://dc.lft.to/lastmile_qr_scan"}, "lon": -77.01051283333334, "type": "electric_scooter", "fusion_lat": 0.0, "lat": 38.879352, "name": "52c9697ad3132b579741e3592d12944e", "fusion_lon": 0.0, "bike_id": "52c9697ad3132b579741e3592d12944e", "is_disabled": 0, "is_reserved": 0}, {"rental_uris": {"ios": "https://dc.lft.to/lastmile_qr_scan", "android": "https://dc.lft.to/lastmile_qr_scan"}, "lon": -77.03559016666667, "type": "electric_scooter", "fusion_lat": 0.0, "lat": 38.9087975, "name": "6851d618a4e2ff7a98ab7d3cc8632ee1", "fusion_lon": 0.0, "bike_id": "6851d618a4e2ff7a98ab7d3cc8632ee1", "is_disabled": 0, "is_reserved": 0}, {"rental_uris": {"ios": "https://dc.lft.to/lastmile_qr_scan", "android": "https://dc.lft.to/lastmile_qr_scan"}, "lon": -77.06756516666667, "type": "electric_scooter", "fusion_lat": 0.0, "lat": 38.91580583333333, "name": "6fb1f9eaa2c512d6d2fef978992ebd43", "fusion_lon": 0.0, "bike_id": "6fb1f9eaa2c512d6d2fef978992ebd43", "is_disabled": 0, "is_reserved": 0}, {"rental_uris": {"ios": "https://dc.lft.to/lastmile_qr_scan", "android": "https://dc.lft.to/lastmile_qr_scan"}, "lon": -77.02589283333333, "type": "electric_scooter", "fusion_lat": 0.0, "lat": 38.89605816666667, "name": "8b1fe371695fbfe494fa45ec88809688", "fusion_lon": 0.0, "bike_id": "8b1fe371695fbfe494fa45ec88809688", "is_disabled": 0, "is_reserved": 0}, {"rental_uris": {"ios": "https://dc.lft.to/lastmile_qr_scan", "android": "https://dc.lft.to/lastmile_qr_scan"}, "lon": -77.0210535, "type": "electric_scooter", "fusion_lat": 0.0, "lat": 38.9131125, "name": "579e02e798249642bdcd6e2f0659efd2", "fusion_lon": 0.0, "bike_id": "579e02e798249642bdcd6e2f0659efd2", "is_disabled": 0, "is_reserved": 0}, {"rental_uris": {"ios": "https://dc.lft.to/lastmile_qr_scan", "android": "https://dc.lft.to/lastmile_qr_scan"}, "lon": -77.01114583333333, "type": "electric_scooter", "fusion_lat": 0.0, "lat": 38.907817666666666, "name": "4b3498a8b142a31ac828e04eb9d68f0f", "fusion_lon": 0.0, "bike_id": "4b3498a8b142a31ac828e04eb9d68f0f", "is_disabled": 0, "is_reserved": 0}, {"rental_uris": {"ios": "https://dc.lft.to/lastmile_qr_scan", "android": "https://dc.lft.to/lastmile_qr_scan"}, "lon": -76.93753716666667, "type": "electric_scooter", "fusion_lat": 0.0, "lat": 38.89050733333333, "name": "a0ef88fa15cbee645b7e7895693b13eb", "fusion_lon": 0.0, "bike_id": "a0ef88fa15cbee645b7e7895693b13eb", "is_disabled": 0, "is_reserved": 0}, {"rental_uris": {"ios": "https://dc.lft.to/lastmile_qr_scan", "android": "https://dc.lft.to/lastmile_qr_scan"}, "lon": -77.02279466666667, "type": "electric_scooter", "fusion_lat": 0.0, "lat": 38.9166955, "name": "2c69701834e14908f1bf4af83862f80a", "fusion_lon": 0.0, "bike_id": "2c69701834e14908f1bf4af83862f80a", "is_disabled": 0, "is_reserved": 0}, {"rental_uris": {"ios": "https://dc.lft.to/lastmile_qr_scan", "android": "https://dc.lft.to/lastmile_qr_scan"}, "lon": -77.029963, "type": "electric_scooter", "fusion_lat": 0.0, "lat": 38.9170645, "name": "fac2e3d963a6a0b208f6a7538235873a", "fusion_lon": 0.0, "bike_id": "fac2e3d963a6a0b208f6a7538235873a", "is_disabled": 0, "is_reserved": 0}, {"rental_uris": {"ios": "https://dc.lft.to/lastmile_qr_scan", "android": "https://dc.lft.to/lastmile_qr_scan"}, "lon": -77.02389333333333, "type": "electric_scooter", "fusion_lat": 0.0, "lat": 38.95296333333334, "name": "6c0e050b05acad591a4c220291a10477", "fusion_lon": 0.0, "bike_id": "6c0e050b05acad591a4c220291a10477", "is_disabled": 0, "is_reserved": 0}, {"rental_uris": {"ios": "https://dc.lft.to/lastmile_qr_scan", "android": "https://dc.lft.to/lastmile_qr_scan"}, "lon": -77.02649066666666, "type": "electric_scooter", "fusion_lat": 0.0, "lat": 38.9386545, "name": "a9ddac77e052c2975a8a28d7435ce545", "fusion_lon": 0.0, "bike_id": "a9ddac77e052c2975a8a28d7435ce545", "is_disabled": 0, "is_reserved": 0}, {"rental_uris": {"ios": "https://dc.lft.to/lastmile_qr_scan", "android": "https://dc.lft.to/lastmile_qr_scan"}, "lon": -77.0176205, "type": "electric_scooter", "fusion_lat": 0.0, "lat": 38.900333833333335, "name": "d8f79e5411e72cf88dadf229e818f7bd", "fusion_lon": 0.0, "bike_id": "d8f79e5411e72cf88dadf229e818f7bd", "is_disabled": 0, "is_reserved": 0}, {"rental_uris": {"ios": "https://dc.lft.to/lastmile_qr_scan", "android": "https://dc.lft.to/lastmile_qr_scan"}, "lon": -77.00100716666667, "type": "electric_scooter", "fusion_lat": 0.0, "lat": 38.89431416666667, "name": "9af1e897dc13d2562b32d886b796c85d", "fusion_lon": 0.0, "bike_id": "9af1e897dc13d2562b32d886b796c85d", "is_disabled": 0, "is_reserved": 0}, {"rental_uris": {"ios": "https://dc.lft.to/lastmile_qr_scan", "android": "https://dc.lft.to/lastmile_qr_scan"}, "lon": -77.03290266666667, "type": "electric_scooter", "fusion_lat": 0.0, "lat": 38.922138833333335, "name": "c1e29ce45ffc2799e439e5c7ef407ac9", "fusion_lon": 0.0, "bike_id": "c1e29ce45ffc2799e439e5c7ef407ac9", "is_disabled": 0, "is_reserved": 0}, {"rental_uris": {"ios": "https://dc.lft.to/lastmile_qr_scan", "android": "https://dc.lft.to/lastmile_qr_scan"}, "lon": -77.360776, "type": "electric_bike", "fusion_lat": 0.0, "lat": 38.93960833333333, "name": "a81e4671d20df8c2dd04c4eae8d0bf39", "fusion_lon": 0.0, "bike_id": "a81e4671d20df8c2dd04c4eae8d0bf39", "is_disabled": 0, "is_reserved": 0}, {"rental_uris": {"ios": "https://dc.lft.to/lastmile_qr_scan", "android": "https://dc.lft.to/lastmile_qr_scan"}, "lon": -77.02093016666667, "type": "electric_scooter", "fusion_lat": 0.0, "lat": 38.910136333333334, "name": "b8a2b70c24b380ba371f2d7fed7fabc0", "fusion_lon": 0.0, "bike_id": "b8a2b70c24b380ba371f2d7fed7fabc0", "is_disabled": 0, "is_reserved": 0}, {"rental_uris": {"ios": "https://dc.lft.to/lastmile_qr_scan", "android": "https://dc.lft.to/lastmile_qr_scan"}, "lon": -77.02318233333334, "type": "electric_scooter", "fusion_lat": 0.0, "lat": 38.917669, "name": "8e065a89e8c6eaf64f3a664b3d24f7f8", "fusion_lon": 0.0, "bike_id": "8e065a89e8c6eaf64f3a664b3d24f7f8", "is_disabled": 0, "is_reserved": 0}, {"rental_uris": {"ios": "https://dc.lft.to/lastmile_qr_scan", "android": "https://dc.lft.to/lastmile_qr_scan"}, "lon": -77.029949, "type": "electric_scooter", "fusion_lat": 0.0, "lat": 38.924857, "name": "b65496940aa6d7685de2f5ce8452e375", "fusion_lon": 0.0, "bike_id": "b65496940aa6d7685de2f5ce8452e375", "is_disabled": 0, "is_reserved": 0}, {"rental_uris": {"ios": "https://dc.lft.to/lastmile_qr_scan", "android": "https://dc.lft.to/lastmile_qr_scan"}, "lon": -76.9477915, "type": "electric_bike", "fusion_lat": 0.0, "lat": 38.894466333333334, "name": "d5fac0a121116edfd67dc870ef5a9a18", "fusion_lon": 0.0, "bike_id": "d5fac0a121116edfd67dc870ef5a9a18", "is_disabled": 0, "is_reserved": 0}, {"rental_uris": {"ios": "https://dc.lft.to/lastmile_qr_scan", "android": "https://dc.lft.to/lastmile_qr_scan"}, "lon": -76.9798995, "type": "electric_bike", "fusion_lat": 0.0, "lat": 38.877521333333334, "name": "b1eaf4f490aca9b4c58c7702c080ed31", "fusion_lon": 0.0, "bike_id": "b1eaf4f490aca9b4c58c7702c080ed31", "is_disabled": 0, "is_reserved": 0}, {"rental_uris": {"ios": "https://dc.lft.to/lastmile_qr_scan", "android": "https://dc.lft.to/lastmile_qr_scan"}, "lon": -77.01234183333334, "type": "electric_scooter", "fusion_lat": 0.0, "lat": 38.915557, "name": "77b27a42d788e33b4defc3b3571a7ae2", "fusion_lon": 0.0, "bike_id": "77b27a42d788e33b4defc3b3571a7ae2", "is_disabled": 0, "is_reserved": 0}, {"rental_uris": {"ios": "https://dc.lft.to/lastmile_qr_scan", "android": "https://dc.lft.to/lastmile_qr_scan"}, "lon": -77.01573716666667, "type": "electric_scooter", "fusion_lat": 0.0, "lat": 38.916854666666666, "name": "257d82704d248757923cab3f89867bbb", "fusion_lon": 0.0, "bike_id": "257d82704d248757923cab3f89867bbb", "is_disabled": 0, "is_reserved": 0}, {"rental_uris": {"ios": "https://dc.lft.to/lastmile_qr_scan", "android": "https://dc.lft.to/lastmile_qr_scan"}, "lon": -77.02737566666667, "type": "electric_scooter", "fusion_lat": 0.0, "lat": 38.928514666666665, "name": "560394fdcecb14f01b9a1bdc549a7b01", "fusion_lon": 0.0, "bike_id": "560394fdcecb14f01b9a1bdc549a7b01", "is_disabled": 0, "is_reserved": 0}, {"rental_uris": {"ios": "https://dc.lft.to/lastmile_qr_scan", "android": "https://dc.lft.to/lastmile_qr_scan"}, "lon": -77.03501083333333, "type": "electric_scooter", "fusion_lat": 0.0, "lat": 38.9286955, "name": "7bf626ecc6592c5814550898d8353a80", "fusion_lon": 0.0, "bike_id": "7bf626ecc6592c5814550898d8353a80", "is_disabled": 0, "is_reserved": 0}, {"rental_uris": {"ios": "https://dc.lft.to/lastmile_qr_scan", "android": "https://dc.lft.to/lastmile_qr_scan"}, "lon": -77.04653983333333, "type": "electric_scooter", "fusion_lat": 0.0, "lat": 38.90555233333333, "name": "be58f356270f0029a45c22b193903885", "fusion_lon": 0.0, "bike_id": "be58f356270f0029a45c22b193903885", "is_disabled": 0, "is_reserved": 0}, {"rental_uris": {"ios": "https://dc.lft.to/lastmile_qr_scan", "android": "https://dc.lft.to/lastmile_qr_scan"}, "lon": -77.01086366666667, "type": "electric_scooter", "fusion_lat": 0.0, "lat": 38.918259166666665, "name": "dff2d2e6a779de2a66f20a3be7100fb9", "fusion_lon": 0.0, "bike_id": "dff2d2e6a779de2a66f20a3be7100fb9", "is_disabled": 0, "is_reserved": 0}, {"rental_uris": {"ios": "https://dc.lft.to/lastmile_qr_scan", "android": "https://dc.lft.to/lastmile_qr_scan"}, "lon": -77.01597733333334, "type": "electric_scooter", "fusion_lat": 0.0, "lat": 38.8962175, "name": "146cc57086e1a7e8b665635b1b1411f7", "fusion_lon": 0.0, "bike_id": "146cc57086e1a7e8b665635b1b1411f7", "is_disabled": 0, "is_reserved": 0}, {"rental_uris": {"ios": "https://dc.lft.to/lastmile_qr_scan", "android": "https://dc.lft.to/lastmile_qr_scan"}, "lon": -77.07489716666667, "type": "electric_bike", "fusion_lat": 0.0, "lat": 38.89295283333333, "name": "faacc9072112ed84761edceae1de867c", "fusion_lon": 0.0, "bike_id": "faacc9072112ed84761edceae1de867c", "is_disabled": 0, "is_reserved": 0}, {"rental_uris": {"ios": "https://dc.lft.to/lastmile_qr_scan", "android": "https://dc.lft.to/lastmile_qr_scan"}, "lon": -76.99025783333333, "type": "electric_scooter", "fusion_lat": 0.0, "lat": 38.8640925, "name": "7bb886a92cb5d2d3e2a92461ebcc8e93", "fusion_lon": 0.0, "bike_id": "7bb886a92cb5d2d3e2a92461ebcc8e93", "is_disabled": 0, "is_reserved": 0}, {"rental_uris": {"ios": "https://dc.lft.to/lastmile_qr_scan", "android": "https://dc.lft.to/lastmile_qr_scan"}, "lon": -77.01365916666667, "type": "electric_scooter", "fusion_lat": 0.0, "lat": 38.876019666666664, "name": "a5283ea9713de60706687a79313e11cc", "fusion_lon": 0.0, "bike_id": "a5283ea9713de60706687a79313e11cc", "is_disabled": 0, "is_reserved": 0}, {"rental_uris": {"ios": "https://dc.lft.to/lastmile_qr_scan", "android": "https://dc.lft.to/lastmile_qr_scan"}, "lon": -77.030741, "type": "electric_scooter", "fusion_lat": 0.0, "lat": 38.8996985, "name": "182aa2a9b15b359829bc0309a29bb9e6", "fusion_lon": 0.0, "bike_id": "182aa2a9b15b359829bc0309a29bb9e6", "is_disabled": 0, "is_reserved": 0}, {"rental_uris": {"ios": "https://dc.lft.to/lastmile_qr_scan", "android": "https://dc.lft.to/lastmile_qr_scan"}, "lon": -77.0793925, "type": "electric_scooter", "fusion_lat": 0.0, "lat": 38.9487695, "name": "e2301c207177c25aac97b952351a7118", "fusion_lon": 0.0, "bike_id": "e2301c207177c25aac97b952351a7118", "is_disabled": 0, "is_reserved": 0}, {"rental_uris": {"ios": "https://dc.lft.to/lastmile_qr_scan", "android": "https://dc.lft.to/lastmile_qr_scan"}, "lon": -77.0397415, "type": "electric_scooter", "fusion_lat": 0.0, "lat": 38.919906, "name": "b69b22a4a46adf61677ae840e5995610", "fusion_lon": 0.0, "bike_id": "b69b22a4a46adf61677ae840e5995610", "is_disabled": 0, "is_reserved": 0}, {"rental_uris": {"ios": "https://dc.lft.to/lastmile_qr_scan", "android": "https://dc.lft.to/lastmile_qr_scan"}, "lon": -76.92998283333333, "type": "electric_bike", "fusion_lat": 0.0, "lat": 38.887991666666665, "name": "f1c78a5a0808a7f9b3994b035a8aa80a", "fusion_lon": 0.0, "bike_id": "f1c78a5a0808a7f9b3994b035a8aa80a", "is_disabled": 0, "is_reserved": 0}, {"rental_uris": {"ios": "https://dc.lft.to/lastmile_qr_scan", "android": "https://dc.lft.to/lastmile_qr_scan"}, "lon": -77.00722966666666, "type": "electric_scooter", "fusion_lat": 0.0, "lat": 38.91348516666667, "name": "79e68d666299b480eb604d892264c76e", "fusion_lon": 0.0, "bike_id": "79e68d666299b480eb604d892264c76e", "is_disabled": 0, "is_reserved": 0}, {"rental_uris": {"ios": "https://dc.lft.to/lastmile_qr_scan", "android": "https://dc.lft.to/lastmile_qr_scan"}, "lon": -77.05272116666667, "type": "electric_scooter", "fusion_lat": 0.0, "lat": 38.91016333333334, "name": "37edeae29408b12557216283168f8f5a", "fusion_lon": 0.0, "bike_id": "37edeae29408b12557216283168f8f5a", "is_disabled": 0, "is_reserved": 0}, {"rental_uris": {"ios": "https://dc.lft.to/lastmile_qr_scan", "android": "https://dc.lft.to/lastmile_qr_scan"}, "lon": -77.00207983333334, "type": "electric_scooter", "fusion_lat": 0.0, "lat": 38.90835083333333, "name": "d456ea70079ba7dc64d6a0a5c10b1235", "fusion_lon": 0.0, "bike_id": "d456ea70079ba7dc64d6a0a5c10b1235", "is_disabled": 0, "is_reserved": 0}, {"rental_uris": {"ios": "https://dc.lft.to/lastmile_qr_scan", "android": "https://dc.lft.to/lastmile_qr_scan"}, "lon": -77.02616683333333, "type": "electric_scooter", "fusion_lat": 0.0, "lat": 38.9192175, "name": "28dd1a94390a057084534cc61e92072e", "fusion_lon": 0.0, "bike_id": "28dd1a94390a057084534cc61e92072e", "is_disabled": 0, "is_reserved": 0}, {"rental_uris": {"ios": "https://dc.lft.to/lastmile_qr_scan", "android": "https://dc.lft.to/lastmile_qr_scan"}, "lon": -77.02897466666667, "type": "electric_scooter", "fusion_lat": 0.0, "lat": 38.91681533333333, "name": "b288e7b892379a40118b452ad8e7a0f9", "fusion_lon": 0.0, "bike_id": "b288e7b892379a40118b452ad8e7a0f9", "is_disabled": 0, "is_reserved": 0}, {"rental_uris": {"ios": "https://dc.lft.to/lastmile_qr_scan", "android": "https://dc.lft.to/lastmile_qr_scan"}, "lon": -77.03440183333333, "type": "electric_scooter", "fusion_lat": 0.0, "lat": 38.90716333333334, "name": "e3d1badcfd3da2c73058b24d6e05eea2", "fusion_lon": 0.0, "bike_id": "e3d1badcfd3da2c73058b24d6e05eea2", "is_disabled": 0, "is_reserved": 0}, {"rental_uris": {"ios": "https://dc.lft.to/lastmile_qr_scan", "android": "https://dc.lft.to/lastmile_qr_scan"}, "lon": -76.9388745, "type": "electric_bike", "fusion_lat": 0.0, "lat": 38.883335833333334, "name": "64e1a9e61d82c6c312f1b268d0071ecb", "fusion_lon": 0.0, "bike_id": "64e1a9e61d82c6c312f1b268d0071ecb", "is_disabled": 0, "is_reserved": 0}, {"rental_uris": {"ios": "https://dc.lft.to/lastmile_qr_scan", "android": "https://dc.lft.to/lastmile_qr_scan"}, "lon": -77.04157233333333, "type": "electric_scooter", "fusion_lat": 0.0, "lat": 38.918127166666665, "name": "d8543d87ed2501f4e3665325190bf735", "fusion_lon": 0.0, "bike_id": "d8543d87ed2501f4e3665325190bf735", "is_disabled": 0, "is_reserved": 0}, {"rental_uris": {"ios": "https://dc.lft.to/lastmile_qr_scan", "android": "https://dc.lft.to/lastmile_qr_scan"}, "lon": -77.00689183333333, "type": "electric_scooter", "fusion_lat": 0.0, "lat": 38.87618066666667, "name": "81915d89470771768672ff1365364ae8", "fusion_lon": 0.0, "bike_id": "81915d89470771768672ff1365364ae8", "is_disabled": 0, "is_reserved": 0}, {"rental_uris": {"ios": "https://dc.lft.to/lastmile_qr_scan", "android": "https://dc.lft.to/lastmile_qr_scan"}, "lon": -77.03156533333333, "type": "electric_scooter", "fusion_lat": 0.0, "lat": 38.912059166666666, "name": "cd92e318a6d709df3bef2ab324c8ddc1", "fusion_lon": 0.0, "bike_id": "cd92e318a6d709df3bef2ab324c8ddc1", "is_disabled": 0, "is_reserved": 0}, {"rental_uris": {"ios": "https://dc.lft.to/lastmile_qr_scan", "android": "https://dc.lft.to/lastmile_qr_scan"}, "lon": -77.02610383333334, "type": "electric_scooter", "fusion_lat": 0.0, "lat": 38.951891833333335, "name": "8e2c3cde1997c6b3e22af803840b2d8d", "fusion_lon": 0.0, "bike_id": "8e2c3cde1997c6b3e22af803840b2d8d", "is_disabled": 0, "is_reserved": 0}, {"rental_uris": {"ios": "https://dc.lft.to/lastmile_qr_scan", "android": "https://dc.lft.to/lastmile_qr_scan"}, "lon": -77.03285433333333, "type": "electric_scooter", "fusion_lat": 0.0, "lat": 38.956822833333334, "name": "b0e4f55d7b8dc11d45857760fd68b4e8", "fusion_lon": 0.0, "bike_id": "b0e4f55d7b8dc11d45857760fd68b4e8", "is_disabled": 0, "is_reserved": 0}, {"rental_uris": {"ios": "https://dc.lft.to/lastmile_qr_scan", "android": "https://dc.lft.to/lastmile_qr_scan"}, "lon": -77.06455366666667, "type": "electric_scooter", "fusion_lat": 0.0, "lat": 38.946416, "name": "94c6b9f0d7ace762980e243df7356ac1", "fusion_lon": 0.0, "bike_id": "94c6b9f0d7ace762980e243df7356ac1", "is_disabled": 0, "is_reserved": 0}, {"rental_uris": {"ios": "https://dc.lft.to/lastmile_qr_scan", "android": "https://dc.lft.to/lastmile_qr_scan"}, "lon": -77.04174716666667, "type": "electric_scooter", "fusion_lat": 0.0, "lat": 38.91706033333333, "name": "63dfe1aff21b716ad0e756c6944467dc", "fusion_lon": 0.0, "bike_id": "63dfe1aff21b716ad0e756c6944467dc", "is_disabled": 0, "is_reserved": 0}, {"rental_uris": {"ios": "https://dc.lft.to/lastmile_qr_scan", "android": "https://dc.lft.to/lastmile_qr_scan"}, "lon": -76.99389333333333, "type": "electric_scooter", "fusion_lat": 0.0, "lat": 38.900681666666664, "name": "1d0254c5e6b1f7b6e0be8db6897fc243", "fusion_lon": 0.0, "bike_id": "1d0254c5e6b1f7b6e0be8db6897fc243", "is_disabled": 0, "is_reserved": 0}, {"rental_uris": {"ios": "https://dc.lft.to/lastmile_qr_scan", "android": "https://dc.lft.to/lastmile_qr_scan"}, "lon": -77.0271565, "type": "electric_scooter", "fusion_lat": 0.0, "lat": 38.9095315, "name": "15d2d632ab7b1dad954267c407d9d798", "fusion_lon": 0.0, "bike_id": "15d2d632ab7b1dad954267c407d9d798", "is_disabled": 0, "is_reserved": 0}, {"rental_uris": {"ios": "https://dc.lft.to/lastmile_qr_scan", "android": "https://dc.lft.to/lastmile_qr_scan"}, "lon": -77.0298765, "type": "electric_scooter", "fusion_lat": 0.0, "lat": 38.956369333333335, "name": "ffa9fef578834a9c5cbbe5246ffd7e2e", "fusion_lon": 0.0, "bike_id": "ffa9fef578834a9c5cbbe5246ffd7e2e", "is_disabled": 0, "is_reserved": 0}, {"rental_uris": {"ios": "https://dc.lft.to/lastmile_qr_scan", "android": "https://dc.lft.to/lastmile_qr_scan"}, "lon": -77.08945183333333, "type": "electric_bike", "fusion_lat": 0.0, "lat": 38.841128833333336, "name": "58109281c201fc3a186bc6e558e65215", "fusion_lon": 0.0, "bike_id": "58109281c201fc3a186bc6e558e65215", "is_disabled": 0, "is_reserved": 0}, {"rental_uris": {"ios": "https://dc.lft.to/lastmile_qr_scan", "android": "https://dc.lft.to/lastmile_qr_scan"}, "lon": -77.0298025, "type": "electric_scooter", "fusion_lat": 0.0, "lat": 38.945939333333335, "name": "956e4a53d96f4f49cdcf02989cffd4c2", "fusion_lon": 0.0, "bike_id": "956e4a53d96f4f49cdcf02989cffd4c2", "is_disabled": 0, "is_reserved": 0}, {"rental_uris": {"ios": "https://dc.lft.to/lastmile_qr_scan", "android": "https://dc.lft.to/lastmile_qr_scan"}, "lon": -77.0272875, "type": "electric_scooter", "fusion_lat": 0.0, "lat": 38.937984, "name": "765408d1ef16372e0e4761eece39a6bc", "fusion_lon": 0.0, "bike_id": "765408d1ef16372e0e4761eece39a6bc", "is_disabled": 0, "is_reserved": 0}, {"rental_uris": {"ios": "https://dc.lft.to/lastmile_qr_scan", "android": "https://dc.lft.to/lastmile_qr_scan"}, "lon": -77.02817916666666, "type": "electric_scooter", "fusion_lat": 0.0, "lat": 38.923757333333334, "name": "7f8db32b2d15787bcf3ce0be16ecf554", "fusion_lon": 0.0, "bike_id": "7f8db32b2d15787bcf3ce0be16ecf554", "is_disabled": 0, "is_reserved": 0}, {"rental_uris": {"ios": "https://dc.lft.to/lastmile_qr_scan", "android": "https://dc.lft.to/lastmile_qr_scan"}, "lon": -77.04068316666667, "type": "electric_bike", "fusion_lat": 0.0, "lat": 38.812439833333336, "name": "ddd780e3271c0bbd5dc975ae9591f445", "fusion_lon": 0.0, "bike_id": "ddd780e3271c0bbd5dc975ae9591f445", "is_disabled": 0, "is_reserved": 0}, {"rental_uris": {"ios": "https://dc.lft.to/lastmile_qr_scan", "android": "https://dc.lft.to/lastmile_qr_scan"}, "lon": -77.03160183333334, "type": "electric_scooter", "fusion_lat": 0.0, "lat": 38.8999005, "name": "2df9718f531e78dde37baffb054bdb7d", "fusion_lon": 0.0, "bike_id": "2df9718f531e78dde37baffb054bdb7d", "is_disabled": 0, "is_reserved": 0}, {"rental_uris": {"ios": "https://dc.lft.to/lastmile_qr_scan", "android": "https://dc.lft.to/lastmile_qr_scan"}, "lon": -77.03137083333333, "type": "electric_scooter", "fusion_lat": 0.0, "lat": 38.91703066666667, "name": "a25ea5981b8174497747c6c4910d8b94", "fusion_lon": 0.0, "bike_id": "a25ea5981b8174497747c6c4910d8b94", "is_disabled": 0, "is_reserved": 0}, {"rental_uris": {"ios": "https://dc.lft.to/lastmile_qr_scan", "android": "https://dc.lft.to/lastmile_qr_scan"}, "lon": -77.03748616666667, "type": "electric_scooter", "fusion_lat": 0.0, "lat": 38.908776, "name": "c42a60669e0131a6b883d94ec46ce71b", "fusion_lon": 0.0, "bike_id": "c42a60669e0131a6b883d94ec46ce71b", "is_disabled": 0, "is_reserved": 0}, {"rental_uris": {"ios": "https://dc.lft.to/lastmile_qr_scan", "android": "https://dc.lft.to/lastmile_qr_scan"}, "lon": -76.98968366666666, "type": "electric_scooter", "fusion_lat": 0.0, "lat": 38.90248116666667, "name": "37047a5010072b589df844269e2443a0", "fusion_lon": 0.0, "bike_id": "37047a5010072b589df844269e2443a0", "is_disabled": 0, "is_reserved": 0}, {"rental_uris": {"ios": "https://dc.lft.to/lastmile_qr_scan", "android": "https://dc.lft.to/lastmile_qr_scan"}, "lon": -77.03187766666667, "type": "electric_scooter", "fusion_lat": 0.0, "lat": 38.9087135, "name": "1e87b8f7268de5569d3c6cf914b74107", "fusion_lon": 0.0, "bike_id": "1e87b8f7268de5569d3c6cf914b74107", "is_disabled": 0, "is_reserved": 0}, {"rental_uris": {"ios": "https://dc.lft.to/lastmile_qr_scan", "android": "https://dc.lft.to/lastmile_qr_scan"}, "lon": -76.946339, "type": "electric_scooter", "fusion_lat": 0.0, "lat": 38.8983425, "name": "8a3146c2b33b03ad0d8ea233d764dbdb", "fusion_lon": 0.0, "bike_id": "8a3146c2b33b03ad0d8ea233d764dbdb", "is_disabled": 0, "is_reserved": 0}, {"rental_uris": {"ios": "https://dc.lft.to/lastmile_qr_scan", "android": "https://dc.lft.to/lastmile_qr_scan"}, "lon": -77.031846, "type": "electric_scooter", "fusion_lat": 0.0, "lat": 38.91467516666667, "name": "592292ac6c719f4095c9104fa66ded84", "fusion_lon": 0.0, "bike_id": "592292ac6c719f4095c9104fa66ded84", "is_disabled": 0, "is_reserved": 0}, {"rental_uris": {"ios": "https://dc.lft.to/lastmile_qr_scan", "android": "https://dc.lft.to/lastmile_qr_scan"}, "lon": -77.01383066666666, "type": "electric_scooter", "fusion_lat": 0.0, "lat": 38.92868216666667, "name": "68f7ec1fce62c804476f052a3f7237d6", "fusion_lon": 0.0, "bike_id": "68f7ec1fce62c804476f052a3f7237d6", "is_disabled": 0, "is_reserved": 0}, {"rental_uris": {"ios": "https://dc.lft.to/lastmile_qr_scan", "android": "https://dc.lft.to/lastmile_qr_scan"}, "lon": -76.98951266666667, "type": "electric_scooter", "fusion_lat": 0.0, "lat": 38.9014265, "name": "d830a63056c0a5b525e81658385ac9a4", "fusion_lon": 0.0, "bike_id": "d830a63056c0a5b525e81658385ac9a4", "is_disabled": 0, "is_reserved": 0}, {"rental_uris": {"ios": "https://dc.lft.to/lastmile_qr_scan", "android": "https://dc.lft.to/lastmile_qr_scan"}, "lon": -77.02842066666666, "type": "electric_scooter", "fusion_lat": 0.0, "lat": 38.93415233333333, "name": "bc1c3a70df954eaa8c8de21d5b1b8e6f", "fusion_lon": 0.0, "bike_id": "bc1c3a70df954eaa8c8de21d5b1b8e6f", "is_disabled": 0, "is_reserved": 0}, {"rental_uris": {"ios": "https://dc.lft.to/lastmile_qr_scan", "android": "https://dc.lft.to/lastmile_qr_scan"}, "lon": -77.02006266666666, "type": "electric_scooter", "fusion_lat": 0.0, "lat": 38.91314583333333, "name": "33b925224830f172c8ac1e19f422e3b3", "fusion_lon": 0.0, "bike_id": "33b925224830f172c8ac1e19f422e3b3", "is_disabled": 0, "is_reserved": 0}, {"rental_uris": {"ios": "https://dc.lft.to/lastmile_qr_scan", "android": "https://dc.lft.to/lastmile_qr_scan"}, "lon": -77.027059, "type": "electric_scooter", "fusion_lat": 0.0, "lat": 38.9500205, "name": "87c41a4b5a45359f2fa40ce9bb5f0096", "fusion_lon": 0.0, "bike_id": "87c41a4b5a45359f2fa40ce9bb5f0096", "is_disabled": 0, "is_reserved": 0}, {"rental_uris": {"ios": "https://dc.lft.to/lastmile_qr_scan", "android": "https://dc.lft.to/lastmile_qr_scan"}, "lon": -77.0320855, "type": "electric_scooter", "fusion_lat": 0.0, "lat": 38.920756833333336, "name": "2443ff16fd32788ad7a2bf37b3668b3a", "fusion_lon": 0.0, "bike_id": "2443ff16fd32788ad7a2bf37b3668b3a", "is_disabled": 0, "is_reserved": 0}, {"rental_uris": {"ios": "https://dc.lft.to/lastmile_qr_scan", "android": "https://dc.lft.to/lastmile_qr_scan"}, "lon": -77.00620216666667, "type": "electric_scooter", "fusion_lat": 0.0, "lat": 38.90255916666667, "name": "bccea628adca67d2d7d0ecf46b043f45", "fusion_lon": 0.0, "bike_id": "bccea628adca67d2d7d0ecf46b043f45", "is_disabled": 0, "is_reserved": 0}, {"rental_uris": {"ios": "https://dc.lft.to/lastmile_qr_scan", "android": "https://dc.lft.to/lastmile_qr_scan"}, "lon": -76.99929783333333, "type": "electric_scooter", "fusion_lat": 0.0, "lat": 38.9091465, "name": "6c3962f95c8fbb9de33c6c84e0ccc7db", "fusion_lon": 0.0, "bike_id": "6c3962f95c8fbb9de33c6c84e0ccc7db", "is_disabled": 0, "is_reserved": 0}, {"rental_uris": {"ios": "https://dc.lft.to/lastmile_qr_scan", "android": "https://dc.lft.to/lastmile_qr_scan"}, "lon": -76.94849266666667, "type": "electric_scooter", "fusion_lat": 0.0, "lat": 38.883071666666666, "name": "8277b440bc162e3c45def054adb4a9f5", "fusion_lon": 0.0, "bike_id": "8277b440bc162e3c45def054adb4a9f5", "is_disabled": 0, "is_reserved": 0}, {"rental_uris": {"ios": "https://dc.lft.to/lastmile_qr_scan", "android": "https://dc.lft.to/lastmile_qr_scan"}, "lon": -77.0233025, "type": "electric_scooter", "fusion_lat": 0.0, "lat": 38.9289775, "name": "a0abc11b9be8aebdb4d03f061002a69d", "fusion_lon": 0.0, "bike_id": "a0abc11b9be8aebdb4d03f061002a69d", "is_disabled": 0, "is_reserved": 0}, {"rental_uris": {"ios": "https://dc.lft.to/lastmile_qr_scan", "android": "https://dc.lft.to/lastmile_qr_scan"}, "lon": -77.03349933333334, "type": "electric_scooter", "fusion_lat": 0.0, "lat": 38.885051, "name": "a58e60376cfa3b05a90de02dc78b6be0", "fusion_lon": 0.0, "bike_id": "a58e60376cfa3b05a90de02dc78b6be0", "is_disabled": 0, "is_reserved": 0}, {"rental_uris": {"ios": "https://dc.lft.to/lastmile_qr_scan", "android": "https://dc.lft.to/lastmile_qr_scan"}, "lon": -76.9926855, "type": "electric_scooter", "fusion_lat": 0.0, "lat": 38.89692616666667, "name": "689f99458f96397e18066295fde4770c", "fusion_lon": 0.0, "bike_id": "689f99458f96397e18066295fde4770c", "is_disabled": 0, "is_reserved": 0}, {"rental_uris": {"ios": "https://dc.lft.to/lastmile_qr_scan", "android": "https://dc.lft.to/lastmile_qr_scan"}, "lon": -77.04438616666667, "type": "electric_scooter", "fusion_lat": 0.0, "lat": 38.90565633333333, "name": "21b9bc104ce5f2c526804c326459d3a2", "fusion_lon": 0.0, "bike_id": "21b9bc104ce5f2c526804c326459d3a2", "is_disabled": 0, "is_reserved": 0}, {"rental_uris": {"ios": "https://dc.lft.to/lastmile_qr_scan", "android": "https://dc.lft.to/lastmile_qr_scan"}, "lon": -77.03280766666667, "type": "electric_scooter", "fusion_lat": 0.0, "lat": 38.90964066666667, "name": "bc4c562a6515ce98c2cf48045396be01", "fusion_lon": 0.0, "bike_id": "bc4c562a6515ce98c2cf48045396be01", "is_disabled": 0, "is_reserved": 0}, {"rental_uris": {"ios": "https://dc.lft.to/lastmile_qr_scan", "android": "https://dc.lft.to/lastmile_qr_scan"}, "lon": -77.06532316666667, "type": "electric_scooter", "fusion_lat": 0.0, "lat": 38.91130533333333, "name": "83d2a93a5a9fa1a144a663b12d1047c8", "fusion_lon": 0.0, "bike_id": "83d2a93a5a9fa1a144a663b12d1047c8", "is_disabled": 0, "is_reserved": 0}, {"rental_uris": {"ios": "https://dc.lft.to/lastmile_qr_scan", "android": "https://dc.lft.to/lastmile_qr_scan"}, "lon": -77.0150535, "type": "electric_scooter", "fusion_lat": 0.0, "lat": 38.907214333333336, "name": "d7569228a914b0197c7d22618b0c323d", "fusion_lon": 0.0, "bike_id": "d7569228a914b0197c7d22618b0c323d", "is_disabled": 0, "is_reserved": 0}, {"rental_uris": {"ios": "https://dc.lft.to/lastmile_qr_scan", "android": "https://dc.lft.to/lastmile_qr_scan"}, "lon": -76.9951585, "type": "electric_scooter", "fusion_lat": 0.0, "lat": 38.8948315, "name": "e825d761ac2059720dc64b3b70a15be5", "fusion_lon": 0.0, "bike_id": "e825d761ac2059720dc64b3b70a15be5", "is_disabled": 0, "is_reserved": 0}, {"rental_uris": {"ios": "https://dc.lft.to/lastmile_qr_scan", "android": "https://dc.lft.to/lastmile_qr_scan"}, "lon": -77.02837316666667, "type": "electric_scooter", "fusion_lat": 0.0, "lat": 38.912507, "name": "c8c789ec636e6ec6d68c9ff059835c3e", "fusion_lon": 0.0, "bike_id": "c8c789ec636e6ec6d68c9ff059835c3e", "is_disabled": 0, "is_reserved": 0}, {"rental_uris": {"ios": "https://dc.lft.to/lastmile_qr_scan", "android": "https://dc.lft.to/lastmile_qr_scan"}, "lon": -76.94840733333334, "type": "electric_scooter", "fusion_lat": 0.0, "lat": 38.89490983333334, "name": "c1cde50106a0783523f57515bb751897", "fusion_lon": 0.0, "bike_id": "c1cde50106a0783523f57515bb751897", "is_disabled": 0, "is_reserved": 0}, {"rental_uris": {"ios": "https://dc.lft.to/lastmile_qr_scan", "android": "https://dc.lft.to/lastmile_qr_scan"}, "lon": -77.032132, "type": "electric_scooter", "fusion_lat": 0.0, "lat": 38.911619, "name": "1bd453e3ee0aea3efa09a6536dfd0006", "fusion_lon": 0.0, "bike_id": "1bd453e3ee0aea3efa09a6536dfd0006", "is_disabled": 0, "is_reserved": 0}, {"rental_uris": {"ios": "https://dc.lft.to/lastmile_qr_scan", "android": "https://dc.lft.to/lastmile_qr_scan"}, "lon": -77.037071, "type": "electric_bike", "fusion_lat": 0.0, "lat": 38.9356325, "name": "fc1976956fa23ef2bb984cdc652b66bb", "fusion_lon": 0.0, "bike_id": "fc1976956fa23ef2bb984cdc652b66bb", "is_disabled": 0, "is_reserved": 0}, {"rental_uris": {"ios": "https://dc.lft.to/lastmile_qr_scan", "android": "https://dc.lft.to/lastmile_qr_scan"}, "lon": -76.93177066666667, "type": "electric_scooter", "fusion_lat": 0.0, "lat": 38.898859, "name": "411d1a7faa387cd780a6a23cbc14f6d7", "fusion_lon": 0.0, "bike_id": "411d1a7faa387cd780a6a23cbc14f6d7", "is_disabled": 0, "is_reserved": 0}, {"rental_uris": {"ios": "https://dc.lft.to/lastmile_qr_scan", "android": "https://dc.lft.to/lastmile_qr_scan"}, "lon": -77.10717583333333, "type": "electric_bike", "fusion_lat": 0.0, "lat": 38.85536066666667, "name": "1cd994b03094c9bf417b576381e3fd3e", "fusion_lon": 0.0, "bike_id": "1cd994b03094c9bf417b576381e3fd3e", "is_disabled": 0, "is_reserved": 0}, {"rental_uris": {"ios": "https://dc.lft.to/lastmile_qr_scan", "android": "https://dc.lft.to/lastmile_qr_scan"}, "lon": -76.9992505, "type": "electric_scooter", "fusion_lat": 0.0, "lat": 38.90914183333334, "name": "0998cf9dc49967332e0f5ed4a043da69", "fusion_lon": 0.0, "bike_id": "0998cf9dc49967332e0f5ed4a043da69", "is_disabled": 0, "is_reserved": 0}, {"rental_uris": {"ios": "https://dc.lft.to/lastmile_qr_scan", "android": "https://dc.lft.to/lastmile_qr_scan"}, "lon": -76.98228966666667, "type": "electric_scooter", "fusion_lat": 0.0, "lat": 38.86765883333333, "name": "31173245db6196cb782c49bf31fcdd3e", "fusion_lon": 0.0, "bike_id": "31173245db6196cb782c49bf31fcdd3e", "is_disabled": 0, "is_reserved": 0}, {"rental_uris": {"ios": "https://dc.lft.to/lastmile_qr_scan", "android": "https://dc.lft.to/lastmile_qr_scan"}, "lon": -77.03825333333333, "type": "electric_scooter", "fusion_lat": 0.0, "lat": 38.93115916666667, "name": "75b32fb277cf8ba88a0779bd007e92f8", "fusion_lon": 0.0, "bike_id": "75b32fb277cf8ba88a0779bd007e92f8", "is_disabled": 0, "is_reserved": 0}, {"rental_uris": {"ios": "https://dc.lft.to/lastmile_qr_scan", "android": "https://dc.lft.to/lastmile_qr_scan"}, "lon": -77.05515283333334, "type": "electric_scooter", "fusion_lat": 0.0, "lat": 38.928403333333335, "name": "a767f2739fc44a7dd9e703e0c1967412", "fusion_lon": 0.0, "bike_id": "a767f2739fc44a7dd9e703e0c1967412", "is_disabled": 0, "is_reserved": 0}, {"rental_uris": {"ios": "https://dc.lft.to/lastmile_qr_scan", "android": "https://dc.lft.to/lastmile_qr_scan"}, "lon": -77.03362216666666, "type": "electric_scooter", "fusion_lat": 0.0, "lat": 38.928769, "name": "2b38c644d051a06aec8cf420d97650f6", "fusion_lon": 0.0, "bike_id": "2b38c644d051a06aec8cf420d97650f6", "is_disabled": 0, "is_reserved": 0}, {"rental_uris": {"ios": "https://dc.lft.to/lastmile_qr_scan", "android": "https://dc.lft.to/lastmile_qr_scan"}, "lon": -76.98758583333333, "type": "electric_scooter", "fusion_lat": 0.0, "lat": 38.8450325, "name": "5225cb3d9a5ffc3b9ad58fb16967ebeb", "fusion_lon": 0.0, "bike_id": "5225cb3d9a5ffc3b9ad58fb16967ebeb", "is_disabled": 0, "is_reserved": 0}, {"rental_uris": {"ios": "https://dc.lft.to/lastmile_qr_scan", "android": "https://dc.lft.to/lastmile_qr_scan"}, "lon": -77.04609116666667, "type": "electric_scooter", "fusion_lat": 0.0, "lat": 38.9096935, "name": "2de68e6703fb21d0657dcc34332c537a", "fusion_lon": 0.0, "bike_id": "2de68e6703fb21d0657dcc34332c537a", "is_disabled": 0, "is_reserved": 0}, {"rental_uris": {"ios": "https://dc.lft.to/lastmile_qr_scan", "android": "https://dc.lft.to/lastmile_qr_scan"}, "lon": -77.025708, "type": "electric_scooter", "fusion_lat": 0.0, "lat": 38.88749683333333, "name": "50efd293cdc769b0e224f895a53f102f", "fusion_lon": 0.0, "bike_id": "50efd293cdc769b0e224f895a53f102f", "is_disabled": 0, "is_reserved": 0}, {"rental_uris": {"ios": "https://dc.lft.to/lastmile_qr_scan", "android": "https://dc.lft.to/lastmile_qr_scan"}, "lon": -77.057526, "type": "electric_scooter", "fusion_lat": 0.0, "lat": 38.93417916666667, "name": "7a29d182980033a4d2ad027ddc475e96", "fusion_lon": 0.0, "bike_id": "7a29d182980033a4d2ad027ddc475e96", "is_disabled": 0, "is_reserved": 0}, {"rental_uris": {"ios": "https://dc.lft.to/lastmile_qr_scan", "android": "https://dc.lft.to/lastmile_qr_scan"}, "lon": -77.071822, "type": "electric_scooter", "fusion_lat": 0.0, "lat": 38.9200025, "name": "9e8765a69900b5a88af033fc52971851", "fusion_lon": 0.0, "bike_id": "9e8765a69900b5a88af033fc52971851", "is_disabled": 0, "is_reserved": 0}, {"rental_uris": {"ios": "https://dc.lft.to/lastmile_qr_scan", "android": "https://dc.lft.to/lastmile_qr_scan"}, "lon": -77.0353195, "type": "electric_scooter", "fusion_lat": 0.0, "lat": 38.93602716666667, "name": "3e12aee652ba7a264ee8aeaf7e714bb6", "fusion_lon": 0.0, "bike_id": "3e12aee652ba7a264ee8aeaf7e714bb6", "is_disabled": 0, "is_reserved": 0}, {"rental_uris": {"ios": "https://dc.lft.to/lastmile_qr_scan", "android": "https://dc.lft.to/lastmile_qr_scan"}, "lon": -77.03254883333334, "type": "electric_bike", "fusion_lat": 0.0, "lat": 38.935702666666664, "name": "9e327ccdd3aeb122bd6fc7ddc2a98500", "fusion_lon": 0.0, "bike_id": "9e327ccdd3aeb122bd6fc7ddc2a98500", "is_disabled": 0, "is_reserved": 0}, {"rental_uris": {"ios": "https://dc.lft.to/lastmile_qr_scan", "android": "https://dc.lft.to/lastmile_qr_scan"}, "lon": -77.02607166666667, "type": "electric_scooter", "fusion_lat": 0.0, "lat": 38.9167965, "name": "df36e56acf7e3cdf617fd900b0db0bb0", "fusion_lon": 0.0, "bike_id": "df36e56acf7e3cdf617fd900b0db0bb0", "is_disabled": 0, "is_reserved": 0}, {"rental_uris": {"ios": "https://dc.lft.to/lastmile_qr_scan", "android": "https://dc.lft.to/lastmile_qr_scan"}, "lon": -76.9835595, "type": "electric_scooter", "fusion_lat": 0.0, "lat": 38.8827165, "name": "3d8f3d74fd75655ffbde93f6a3e06d57", "fusion_lon": 0.0, "bike_id": "3d8f3d74fd75655ffbde93f6a3e06d57", "is_disabled": 0, "is_reserved": 0}, {"rental_uris": {"ios": "https://dc.lft.to/lastmile_qr_scan", "android": "https://dc.lft.to/lastmile_qr_scan"}, "lon": -77.05138316666667, "type": "electric_scooter", "fusion_lat": 0.0, "lat": 38.90506283333333, "name": "fe59615e356c46a3a4de9105323bd92c", "fusion_lon": 0.0, "bike_id": "fe59615e356c46a3a4de9105323bd92c", "is_disabled": 0, "is_reserved": 0}, {"rental_uris": {"ios": "https://dc.lft.to/lastmile_qr_scan", "android": "https://dc.lft.to/lastmile_qr_scan"}, "lon": -77.03440766666667, "type": "electric_scooter", "fusion_lat": 0.0, "lat": 38.91842233333333, "name": "e5b083fc4fe8bc81b155bfcf63146d72", "fusion_lon": 0.0, "bike_id": "e5b083fc4fe8bc81b155bfcf63146d72", "is_disabled": 0, "is_reserved": 0}, {"rental_uris": {"ios": "https://dc.lft.to/lastmile_qr_scan", "android": "https://dc.lft.to/lastmile_qr_scan"}, "lon": -77.037066, "type": "electric_scooter", "fusion_lat": 0.0, "lat": 38.92638516666667, "name": "1496694f8bab7d55504251df4f816b02", "fusion_lon": 0.0, "bike_id": "1496694f8bab7d55504251df4f816b02", "is_disabled": 0, "is_reserved": 0}, {"rental_uris": {"ios": "https://dc.lft.to/lastmile_qr_scan", "android": "https://dc.lft.to/lastmile_qr_scan"}, "lon": -77.04476416666667, "type": "electric_scooter", "fusion_lat": 0.0, "lat": 38.903332166666665, "name": "ad9348b0f32ded69a33790870181f46d", "fusion_lon": 0.0, "bike_id": "ad9348b0f32ded69a33790870181f46d", "is_disabled": 0, "is_reserved": 0}, {"rental_uris": {"ios": "https://dc.lft.to/lastmile_qr_scan", "android": "https://dc.lft.to/lastmile_qr_scan"}, "lon": -77.02067716666667, "type": "electric_scooter", "fusion_lat": 0.0, "lat": 38.9353635, "name": "9a6a6b19d8086dad2769febcdf419bdb", "fusion_lon": 0.0, "bike_id": "9a6a6b19d8086dad2769febcdf419bdb", "is_disabled": 0, "is_reserved": 0}, {"rental_uris": {"ios": "https://dc.lft.to/lastmile_qr_scan", "android": "https://dc.lft.to/lastmile_qr_scan"}, "lon": -77.0276655, "type": "electric_scooter", "fusion_lat": 0.0, "lat": 38.892025333333336, "name": "1d6c0f8e7a455404d0238cd8e9c3f799", "fusion_lon": 0.0, "bike_id": "1d6c0f8e7a455404d0238cd8e9c3f799", "is_disabled": 0, "is_reserved": 0}, {"rental_uris": {"ios": "https://dc.lft.to/lastmile_qr_scan", "android": "https://dc.lft.to/lastmile_qr_scan"}, "lon": -77.0425215, "type": "electric_scooter", "fusion_lat": 0.0, "lat": 38.920616, "name": "25ad3f22ed79e6e927b825df0013ebed", "fusion_lon": 0.0, "bike_id": "25ad3f22ed79e6e927b825df0013ebed", "is_disabled": 0, "is_reserved": 0}, {"rental_uris": {"ios": "https://dc.lft.to/lastmile_qr_scan", "android": "https://dc.lft.to/lastmile_qr_scan"}, "lon": -77.04493316666667, "type": "electric_scooter", "fusion_lat": 0.0, "lat": 38.91307316666666, "name": "43dfdf23d4cd3843273cbc9386f83f3a", "fusion_lon": 0.0, "bike_id": "43dfdf23d4cd3843273cbc9386f83f3a", "is_disabled": 0, "is_reserved": 0}, {"rental_uris": {"ios": "https://dc.lft.to/lastmile_qr_scan", "android": "https://dc.lft.to/lastmile_qr_scan"}, "lon": -77.028271, "type": "electric_scooter", "fusion_lat": 0.0, "lat": 38.92491416666667, "name": "d974920a085b824eca4abb3e36769e95", "fusion_lon": 0.0, "bike_id": "d974920a085b824eca4abb3e36769e95", "is_disabled": 0, "is_reserved": 0}, {"rental_uris": {"ios": "https://dc.lft.to/lastmile_qr_scan", "android": "https://dc.lft.to/lastmile_qr_scan"}, "lon": -76.98996916666667, "type": "electric_bike", "fusion_lat": 0.0, "lat": 38.863913833333335, "name": "af9e15fad4960cc843d952639aebbace", "fusion_lon": 0.0, "bike_id": "af9e15fad4960cc843d952639aebbace", "is_disabled": 0, "is_reserved": 0}, {"rental_uris": {"ios": "https://dc.lft.to/lastmile_qr_scan", "android": "https://dc.lft.to/lastmile_qr_scan"}, "lon": -77.02585383333333, "type": "electric_scooter", "fusion_lat": 0.0, "lat": 38.916504, "name": "5490384bd58c59c0aa38fcda7eb80809", "fusion_lon": 0.0, "bike_id": "5490384bd58c59c0aa38fcda7eb80809", "is_disabled": 0, "is_reserved": 0}, {"rental_uris": {"ios": "https://dc.lft.to/lastmile_qr_scan", "android": "https://dc.lft.to/lastmile_qr_scan"}, "lon": -77.01072716666667, "type": "electric_bike", "fusion_lat": 0.0, "lat": 38.95656616666667, "name": "ff50cb101b038c3310df84cb8674d503", "fusion_lon": 0.0, "bike_id": "ff50cb101b038c3310df84cb8674d503", "is_disabled": 0, "is_reserved": 0}, {"rental_uris": {"ios": "https://dc.lft.to/lastmile_qr_scan", "android": "https://dc.lft.to/lastmile_qr_scan"}, "lon": -77.00585833333334, "type": "electric_scooter", "fusion_lat": 0.0, "lat": 38.906101166666666, "name": "29188478415b1569ff17aebc7ba5201c", "fusion_lon": 0.0, "bike_id": "29188478415b1569ff17aebc7ba5201c", "is_disabled": 0, "is_reserved": 0}, {"rental_uris": {"ios": "https://dc.lft.to/lastmile_qr_scan", "android": "https://dc.lft.to/lastmile_qr_scan"}, "lon": -76.99264983333333, "type": "electric_scooter", "fusion_lat": 0.0, "lat": 38.89768016666667, "name": "4f274d7171d0b3db89d98622cfa47f3a", "fusion_lon": 0.0, "bike_id": "4f274d7171d0b3db89d98622cfa47f3a", "is_disabled": 0, "is_reserved": 0}, {"rental_uris": {"ios": "https://dc.lft.to/lastmile_qr_scan", "android": "https://dc.lft.to/lastmile_qr_scan"}, "lon": -76.99778333333333, "type": "electric_scooter", "fusion_lat": 0.0, "lat": 38.8442905, "name": "c36987a277e516f9e8789777e908834e", "fusion_lon": 0.0, "bike_id": "c36987a277e516f9e8789777e908834e", "is_disabled": 0, "is_reserved": 0}, {"rental_uris": {"ios": "https://dc.lft.to/lastmile_qr_scan", "android": "https://dc.lft.to/lastmile_qr_scan"}, "lon": -77.04326333333333, "type": "electric_scooter", "fusion_lat": 0.0, "lat": 38.90537833333333, "name": "712b072f8afef6f18b12b2a58b24022b", "fusion_lon": 0.0, "bike_id": "712b072f8afef6f18b12b2a58b24022b", "is_disabled": 0, "is_reserved": 0}, {"rental_uris": {"ios": "https://dc.lft.to/lastmile_qr_scan", "android": "https://dc.lft.to/lastmile_qr_scan"}, "lon": -77.04446816666666, "type": "electric_scooter", "fusion_lat": 0.0, "lat": 38.91886933333333, "name": "f47dabf51b6461bc2bec89e678df6dac", "fusion_lon": 0.0, "bike_id": "f47dabf51b6461bc2bec89e678df6dac", "is_disabled": 0, "is_reserved": 0}, {"rental_uris": {"ios": "https://dc.lft.to/lastmile_qr_scan", "android": "https://dc.lft.to/lastmile_qr_scan"}, "lon": -77.04193566666666, "type": "electric_scooter", "fusion_lat": 0.0, "lat": 38.92020983333333, "name": "706cc230ea9d7fdf4b42ecfde9f99fb1", "fusion_lon": 0.0, "bike_id": "706cc230ea9d7fdf4b42ecfde9f99fb1", "is_disabled": 0, "is_reserved": 0}, {"rental_uris": {"ios": "https://dc.lft.to/lastmile_qr_scan", "android": "https://dc.lft.to/lastmile_qr_scan"}, "lon": -77.071689, "type": "electric_scooter", "fusion_lat": 0.0, "lat": 38.914575166666665, "name": "4419b647a11307777141aa7e4248f69a", "fusion_lon": 0.0, "bike_id": "4419b647a11307777141aa7e4248f69a", "is_disabled": 0, "is_reserved": 0}, {"rental_uris": {"ios": "https://dc.lft.to/lastmile_qr_scan", "android": "https://dc.lft.to/lastmile_qr_scan"}, "lon": -76.99625633333333, "type": "electric_scooter", "fusion_lat": 0.0, "lat": 38.846889166666664, "name": "978c253c48bb64e8308658de522925f2", "fusion_lon": 0.0, "bike_id": "978c253c48bb64e8308658de522925f2", "is_disabled": 0, "is_reserved": 0}, {"rental_uris": {"ios": "https://dc.lft.to/lastmile_qr_scan", "android": "https://dc.lft.to/lastmile_qr_scan"}, "lon": -76.980923, "type": "electric_bike", "fusion_lat": 0.0, "lat": 38.963632833333335, "name": "6b8c4293198ba2209e12aa749c3ae1b7", "fusion_lon": 0.0, "bike_id": "6b8c4293198ba2209e12aa749c3ae1b7", "is_disabled": 0, "is_reserved": 0}, {"rental_uris": {"ios": "https://dc.lft.to/lastmile_qr_scan", "android": "https://dc.lft.to/lastmile_qr_scan"}, "lon": -77.03241333333334, "type": "electric_bike", "fusion_lat": 0.0, "lat": 38.9097735, "name": "37d724c590142322ea55be07d5de3748", "fusion_lon": 0.0, "bike_id": "37d724c590142322ea55be07d5de3748", "is_disabled": 0, "is_reserved": 0}, {"rental_uris": {"ios": "https://dc.lft.to/lastmile_qr_scan", "android": "https://dc.lft.to/lastmile_qr_scan"}, "lon": -77.02598433333333, "type": "electric_scooter", "fusion_lat": 0.0, "lat": 38.90762383333333, "name": "ab8a3c860518750f69f468c5c761a8ef", "fusion_lon": 0.0, "bike_id": "ab8a3c860518750f69f468c5c761a8ef", "is_disabled": 0, "is_reserved": 0}, {"rental_uris": {"ios": "https://dc.lft.to/lastmile_qr_scan", "android": "https://dc.lft.to/lastmile_qr_scan"}, "lon": -77.03857033333334, "type": "electric_scooter", "fusion_lat": 0.0, "lat": 38.908043166666666, "name": "4de388d86bf4088b99d8525f895ee503", "fusion_lon": 0.0, "bike_id": "4de388d86bf4088b99d8525f895ee503", "is_disabled": 0, "is_reserved": 0}, {"rental_uris": {"ios": "https://dc.lft.to/lastmile_qr_scan", "android": "https://dc.lft.to/lastmile_qr_scan"}, "lon": -77.021724, "type": "electric_scooter", "fusion_lat": 0.0, "lat": 38.89640383333333, "name": "da5761f1487ccedffab7110c231eb68b", "fusion_lon": 0.0, "bike_id": "da5761f1487ccedffab7110c231eb68b", "is_disabled": 0, "is_reserved": 0}, {"rental_uris": {"ios": "https://dc.lft.to/lastmile_qr_scan", "android": "https://dc.lft.to/lastmile_qr_scan"}, "lon": -77.01197733333333, "type": "electric_scooter", "fusion_lat": 0.0, "lat": 38.90015666666667, "name": "7e5baa2da097b0e43d72bed3c6856aec", "fusion_lon": 0.0, "bike_id": "7e5baa2da097b0e43d72bed3c6856aec", "is_disabled": 0, "is_reserved": 0}, {"rental_uris": {"ios": "https://dc.lft.to/lastmile_qr_scan", "android": "https://dc.lft.to/lastmile_qr_scan"}, "lon": -77.00564433333334, "type": "electric_scooter", "fusion_lat": 0.0, "lat": 38.92724483333333, "name": "17524a151882f141bcd37eaa018455d5", "fusion_lon": 0.0, "bike_id": "17524a151882f141bcd37eaa018455d5", "is_disabled": 0, "is_reserved": 0}, {"rental_uris": {"ios": "https://dc.lft.to/lastmile_qr_scan", "android": "https://dc.lft.to/lastmile_qr_scan"}, "lon": -77.03877933333334, "type": "electric_scooter", "fusion_lat": 0.0, "lat": 38.917111166666665, "name": "38a6cb50aeb3c91fee73816670d60af4", "fusion_lon": 0.0, "bike_id": "38a6cb50aeb3c91fee73816670d60af4", "is_disabled": 0, "is_reserved": 0}, {"rental_uris": {"ios": "https://dc.lft.to/lastmile_qr_scan", "android": "https://dc.lft.to/lastmile_qr_scan"}, "lon": -77.02341716666666, "type": "electric_scooter", "fusion_lat": 0.0, "lat": 38.96209183333333, "name": "0130d0ff75aa888bbcda6bfe79fadba7", "fusion_lon": 0.0, "bike_id": "0130d0ff75aa888bbcda6bfe79fadba7", "is_disabled": 0, "is_reserved": 0}, {"rental_uris": {"ios": "https://dc.lft.to/lastmile_qr_scan", "android": "https://dc.lft.to/lastmile_qr_scan"}, "lon": -77.05726733333333, "type": "electric_scooter", "fusion_lat": 0.0, "lat": 38.933704666666664, "name": "77fb67bdd5080038dad3fc6c408870d5", "fusion_lon": 0.0, "bike_id": "77fb67bdd5080038dad3fc6c408870d5", "is_disabled": 0, "is_reserved": 0}, {"rental_uris": {"ios": "https://dc.lft.to/lastmile_qr_scan", "android": "https://dc.lft.to/lastmile_qr_scan"}, "lon": -77.01392866666667, "type": "electric_scooter", "fusion_lat": 0.0, "lat": 38.919583833333334, "name": "9fd5e62b930a1683dd249d22f576ff88", "fusion_lon": 0.0, "bike_id": "9fd5e62b930a1683dd249d22f576ff88", "is_disabled": 0, "is_reserved": 0}, {"rental_uris": {"ios": "https://dc.lft.to/lastmile_qr_scan", "android": "https://dc.lft.to/lastmile_qr_scan"}, "lon": -77.00517933333333, "type": "electric_scooter", "fusion_lat": 0.0, "lat": 38.928987666666664, "name": "c4cd5f8ad2a115b93927cc7030a212aa", "fusion_lon": 0.0, "bike_id": "c4cd5f8ad2a115b93927cc7030a212aa", "is_disabled": 0, "is_reserved": 0}, {"rental_uris": {"ios": "https://dc.lft.to/lastmile_qr_scan", "android": "https://dc.lft.to/lastmile_qr_scan"}, "lon": -77.031796, "type": "electric_scooter", "fusion_lat": 0.0, "lat": 38.917409, "name": "c1b1301874070e10e674f5d390370b84", "fusion_lon": 0.0, "bike_id": "c1b1301874070e10e674f5d390370b84", "is_disabled": 0, "is_reserved": 0}, {"rental_uris": {"ios": "https://dc.lft.to/lastmile_qr_scan", "android": "https://dc.lft.to/lastmile_qr_scan"}, "lon": -77.04816483333333, "type": "electric_scooter", "fusion_lat": 0.0, "lat": 38.89747933333334, "name": "7f54b1432803c2e749d06fc13bdfd29d", "fusion_lon": 0.0, "bike_id": "7f54b1432803c2e749d06fc13bdfd29d", "is_disabled": 0, "is_reserved": 0}, {"rental_uris": {"ios": "https://dc.lft.to/lastmile_qr_scan", "android": "https://dc.lft.to/lastmile_qr_scan"}, "lon": -76.99033016666667, "type": "electric_scooter", "fusion_lat": 0.0, "lat": 38.88882616666667, "name": "db512894c4e6bafdd43b42c984c20368", "fusion_lon": 0.0, "bike_id": "db512894c4e6bafdd43b42c984c20368", "is_disabled": 0, "is_reserved": 0}, {"rental_uris": {"ios": "https://dc.lft.to/lastmile_qr_scan", "android": "https://dc.lft.to/lastmile_qr_scan"}, "lon": -77.03014633333333, "type": "electric_scooter", "fusion_lat": 0.0, "lat": 38.93108633333333, "name": "6d79a20c339afb391697d649ec48d26d", "fusion_lon": 0.0, "bike_id": "6d79a20c339afb391697d649ec48d26d", "is_disabled": 0, "is_reserved": 0}, {"rental_uris": {"ios": "https://dc.lft.to/lastmile_qr_scan", "android": "https://dc.lft.to/lastmile_qr_scan"}, "lon": -77.05319133333333, "type": "electric_scooter", "fusion_lat": 0.0, "lat": 38.92347433333333, "name": "71ad8677e0e80f116624b2f9e713162a", "fusion_lon": 0.0, "bike_id": "71ad8677e0e80f116624b2f9e713162a", "is_disabled": 0, "is_reserved": 0}, {"rental_uris": {"ios": "https://dc.lft.to/lastmile_qr_scan", "android": "https://dc.lft.to/lastmile_qr_scan"}, "lon": -77.04642283333334, "type": "electric_bike", "fusion_lat": 0.0, "lat": 38.852145, "name": "f1a7e69805c542b6beb95ecff489394b", "fusion_lon": 0.0, "bike_id": "f1a7e69805c542b6beb95ecff489394b", "is_disabled": 0, "is_reserved": 0}, {"rental_uris": {"ios": "https://dc.lft.to/lastmile_qr_scan", "android": "https://dc.lft.to/lastmile_qr_scan"}, "lon": -77.01829633333334, "type": "electric_scooter", "fusion_lat": 0.0, "lat": 38.91977, "name": "07846c09a28ecf98012b257a7fb403ad", "fusion_lon": 0.0, "bike_id": "07846c09a28ecf98012b257a7fb403ad", "is_disabled": 0, "is_reserved": 0}, {"rental_uris": {"ios": "https://dc.lft.to/lastmile_qr_scan", "android": "https://dc.lft.to/lastmile_qr_scan"}, "lon": -77.01089516666667, "type": "electric_scooter", "fusion_lat": 0.0, "lat": 38.89518066666667, "name": "31b655e9099ddf93bef5a44d2909c8b0", "fusion_lon": 0.0, "bike_id": "31b655e9099ddf93bef5a44d2909c8b0", "is_disabled": 0, "is_reserved": 0}, {"rental_uris": {"ios": "https://dc.lft.to/lastmile_qr_scan", "android": "https://dc.lft.to/lastmile_qr_scan"}, "lon": -77.02561283333333, "type": "electric_scooter", "fusion_lat": 0.0, "lat": 38.92539416666666, "name": "7f789ec81211a875489565b6926870cd", "fusion_lon": 0.0, "bike_id": "7f789ec81211a875489565b6926870cd", "is_disabled": 0, "is_reserved": 0}, {"rental_uris": {"ios": "https://dc.lft.to/lastmile_qr_scan", "android": "https://dc.lft.to/lastmile_qr_scan"}, "lon": -76.99949166666667, "type": "electric_scooter", "fusion_lat": 0.0, "lat": 38.842965166666666, "name": "2eda8af5083bb08bbd6f92741a80b5a3", "fusion_lon": 0.0, "bike_id": "2eda8af5083bb08bbd6f92741a80b5a3", "is_disabled": 0, "is_reserved": 0}, {"rental_uris": {"ios": "https://dc.lft.to/lastmile_qr_scan", "android": "https://dc.lft.to/lastmile_qr_scan"}, "lon": -77.0330365, "type": "electric_scooter", "fusion_lat": 0.0, "lat": 38.900301, "name": "6a7dcf9e46380e1032d5e5f2200cdab7", "fusion_lon": 0.0, "bike_id": "6a7dcf9e46380e1032d5e5f2200cdab7", "is_disabled": 0, "is_reserved": 0}, {"rental_uris": {"ios": "https://dc.lft.to/lastmile_qr_scan", "android": "https://dc.lft.to/lastmile_qr_scan"}, "lon": -77.041522, "type": "electric_scooter", "fusion_lat": 0.0, "lat": 38.914209, "name": "c2051b35c09d7eb513c8e4aa12d96606", "fusion_lon": 0.0, "bike_id": "c2051b35c09d7eb513c8e4aa12d96606", "is_disabled": 0, "is_reserved": 0}, {"rental_uris": {"ios": "https://dc.lft.to/lastmile_qr_scan", "android": "https://dc.lft.to/lastmile_qr_scan"}, "lon": -76.94729433333333, "type": "electric_scooter", "fusion_lat": 0.0, "lat": 38.896773333333336, "name": "336a92b8c017427c623b5ff76826e01f", "fusion_lon": 0.0, "bike_id": "336a92b8c017427c623b5ff76826e01f", "is_disabled": 0, "is_reserved": 0}, {"rental_uris": {"ios": "https://dc.lft.to/lastmile_qr_scan", "android": "https://dc.lft.to/lastmile_qr_scan"}, "lon": -77.04164833333333, "type": "electric_scooter", "fusion_lat": 0.0, "lat": 38.9180285, "name": "b0a4153f72b4509f1f9710d61483ffdc", "fusion_lon": 0.0, "bike_id": "b0a4153f72b4509f1f9710d61483ffdc", "is_disabled": 0, "is_reserved": 0}, {"rental_uris": {"ios": "https://dc.lft.to/lastmile_qr_scan", "android": "https://dc.lft.to/lastmile_qr_scan"}, "lon": -77.043833, "type": "electric_scooter", "fusion_lat": 0.0, "lat": 38.917861333333335, "name": "9ce71d5321baeaaf179f163d5261ee2b", "fusion_lon": 0.0, "bike_id": "9ce71d5321baeaaf179f163d5261ee2b", "is_disabled": 0, "is_reserved": 0}, {"rental_uris": {"ios": "https://dc.lft.to/lastmile_qr_scan", "android": "https://dc.lft.to/lastmile_qr_scan"}, "lon": -77.04187833333333, "type": "electric_scooter", "fusion_lat": 0.0, "lat": 38.9262455, "name": "31cd3c2648b06ceaabef3ac825948482", "fusion_lon": 0.0, "bike_id": "31cd3c2648b06ceaabef3ac825948482", "is_disabled": 0, "is_reserved": 0}, {"rental_uris": {"ios": "https://dc.lft.to/lastmile_qr_scan", "android": "https://dc.lft.to/lastmile_qr_scan"}, "lon": -77.02213633333334, "type": "electric_scooter", "fusion_lat": 0.0, "lat": 38.90578683333333, "name": "5a3533161b1b452fbef726b2208cbe4e", "fusion_lon": 0.0, "bike_id": "5a3533161b1b452fbef726b2208cbe4e", "is_disabled": 0, "is_reserved": 0}, {"rental_uris": {"ios": "https://dc.lft.to/lastmile_qr_scan", "android": "https://dc.lft.to/lastmile_qr_scan"}, "lon": -77.001136, "type": "electric_scooter", "fusion_lat": 0.0, "lat": 38.89436833333333, "name": "fcc2c809432ec90dccf1e3739e684275", "fusion_lon": 0.0, "bike_id": "fcc2c809432ec90dccf1e3739e684275", "is_disabled": 0, "is_reserved": 0}, {"rental_uris": {"ios": "https://dc.lft.to/lastmile_qr_scan", "android": "https://dc.lft.to/lastmile_qr_scan"}, "lon": -77.0325145, "type": "electric_scooter", "fusion_lat": 0.0, "lat": 38.9353335, "name": "90a81f86aa5866931761fba2855b968a", "fusion_lon": 0.0, "bike_id": "90a81f86aa5866931761fba2855b968a", "is_disabled": 0, "is_reserved": 0}, {"rental_uris": {"ios": "https://dc.lft.to/lastmile_qr_scan", "android": "https://dc.lft.to/lastmile_qr_scan"}, "lon": -77.03125983333334, "type": "electric_scooter", "fusion_lat": 0.0, "lat": 38.923715333333334, "name": "c5b25a5d1cb90ca3b9e7a9e25712aa23", "fusion_lon": 0.0, "bike_id": "c5b25a5d1cb90ca3b9e7a9e25712aa23", "is_disabled": 0, "is_reserved": 0}, {"rental_uris": {"ios": "https://dc.lft.to/lastmile_qr_scan", "android": "https://dc.lft.to/lastmile_qr_scan"}, "lon": -77.04414783333333, "type": "electric_scooter", "fusion_lat": 0.0, "lat": 38.92139683333333, "name": "a08eb5ec337d249af1ae4800dfa5657f", "fusion_lon": 0.0, "bike_id": "a08eb5ec337d249af1ae4800dfa5657f", "is_disabled": 0, "is_reserved": 0}, {"rental_uris": {"ios": "https://dc.lft.to/lastmile_qr_scan", "android": "https://dc.lft.to/lastmile_qr_scan"}, "lon": -77.027196, "type": "electric_scooter", "fusion_lat": 0.0, "lat": 38.8922855, "name": "b0761e39f489e33e8f9c0db299618a18", "fusion_lon": 0.0, "bike_id": "b0761e39f489e33e8f9c0db299618a18", "is_disabled": 0, "is_reserved": 0}, {"rental_uris": {"ios": "https://dc.lft.to/lastmile_qr_scan", "android": "https://dc.lft.to/lastmile_qr_scan"}, "lon": -77.050014, "type": "electric_scooter", "fusion_lat": 0.0, "lat": 38.892313333333334, "name": "62f32e9fc1e9613023c1ebd30751e587", "fusion_lon": 0.0, "bike_id": "62f32e9fc1e9613023c1ebd30751e587", "is_disabled": 0, "is_reserved": 0}, {"rental_uris": {"ios": "https://dc.lft.to/lastmile_qr_scan", "android": "https://dc.lft.to/lastmile_qr_scan"}, "lon": -76.93830733333333, "type": "electric_scooter", "fusion_lat": 0.0, "lat": 38.897708333333334, "name": "5f4023050b4c2a329fe5ce99aaf8cd57", "fusion_lon": 0.0, "bike_id": "5f4023050b4c2a329fe5ce99aaf8cd57", "is_disabled": 0, "is_reserved": 0}, {"rental_uris": {"ios": "https://dc.lft.to/lastmile_qr_scan", "android": "https://dc.lft.to/lastmile_qr_scan"}, "lon": -76.9948695, "type": "electric_scooter", "fusion_lat": 0.0, "lat": 38.932049, "name": "214a5d9ef8e084127f82cd7efeba17de", "fusion_lon": 0.0, "bike_id": "214a5d9ef8e084127f82cd7efeba17de", "is_disabled": 0, "is_reserved": 0}, {"rental_uris": {"ios": "https://dc.lft.to/lastmile_qr_scan", "android": "https://dc.lft.to/lastmile_qr_scan"}, "lon": -77.03547883333333, "type": "electric_scooter", "fusion_lat": 0.0, "lat": 38.924201333333336, "name": "7c12f20af98fa8034116f17e2b4d69a4", "fusion_lon": 0.0, "bike_id": "7c12f20af98fa8034116f17e2b4d69a4", "is_disabled": 0, "is_reserved": 0}, {"rental_uris": {"ios": "https://dc.lft.to/lastmile_qr_scan", "android": "https://dc.lft.to/lastmile_qr_scan"}, "lon": -77.01167633333333, "type": "electric_scooter", "fusion_lat": 0.0, "lat": 38.872377166666666, "name": "9797551c4ac9c4d969342399a235d08f", "fusion_lon": 0.0, "bike_id": "9797551c4ac9c4d969342399a235d08f", "is_disabled": 0, "is_reserved": 0}, {"rental_uris": {"ios": "https://dc.lft.to/lastmile_qr_scan", "android": "https://dc.lft.to/lastmile_qr_scan"}, "lon": -77.032581, "type": "electric_scooter", "fusion_lat": 0.0, "lat": 38.92741933333333, "name": "18a578a09cdb5f6c763286b52e59e1d2", "fusion_lon": 0.0, "bike_id": "18a578a09cdb5f6c763286b52e59e1d2", "is_disabled": 0, "is_reserved": 0}, {"rental_uris": {"ios": "https://dc.lft.to/lastmile_qr_scan", "android": "https://dc.lft.to/lastmile_qr_scan"}, "lon": -77.026508, "type": "electric_scooter", "fusion_lat": 0.0, "lat": 38.88116466666666, "name": "e30a91a4ac30a129950e66de326d39bf", "fusion_lon": 0.0, "bike_id": "e30a91a4ac30a129950e66de326d39bf", "is_disabled": 0, "is_reserved": 0}, {"rental_uris": {"ios": "https://dc.lft.to/lastmile_qr_scan", "android": "https://dc.lft.to/lastmile_qr_scan"}, "lon": -77.0210995, "type": "electric_scooter", "fusion_lat": 0.0, "lat": 38.917958166666665, "name": "d9cb26fef07c1ddb25b35d696d975983", "fusion_lon": 0.0, "bike_id": "d9cb26fef07c1ddb25b35d696d975983", "is_disabled": 0, "is_reserved": 0}, {"rental_uris": {"ios": "https://dc.lft.to/lastmile_qr_scan", "android": "https://dc.lft.to/lastmile_qr_scan"}, "lon": -76.93176333333334, "type": "electric_scooter", "fusion_lat": 0.0, "lat": 38.898884, "name": "442516357ed3e7c29ef73679cce49ce3", "fusion_lon": 0.0, "bike_id": "442516357ed3e7c29ef73679cce49ce3", "is_disabled": 0, "is_reserved": 0}, {"rental_uris": {"ios": "https://dc.lft.to/lastmile_qr_scan", "android": "https://dc.lft.to/lastmile_qr_scan"}, "lon": -77.03783033333333, "type": "electric_scooter", "fusion_lat": 0.0, "lat": 38.930271, "name": "31cf5089b2f5b30d690623ba118a8649", "fusion_lon": 0.0, "bike_id": "31cf5089b2f5b30d690623ba118a8649", "is_disabled": 0, "is_reserved": 0}, {"rental_uris": {"ios": "https://dc.lft.to/lastmile_qr_scan", "android": "https://dc.lft.to/lastmile_qr_scan"}, "lon": -77.0002885, "type": "electric_scooter", "fusion_lat": 0.0, "lat": 38.876577, "name": "13493fb401c9ed8335feae305ac56e1c", "fusion_lon": 0.0, "bike_id": "13493fb401c9ed8335feae305ac56e1c", "is_disabled": 0, "is_reserved": 0}, {"rental_uris": {"ios": "https://dc.lft.to/lastmile_qr_scan", "android": "https://dc.lft.to/lastmile_qr_scan"},