{"data": {"bikes": [{"lon": -77.00258583333333, "bike_id": "e3e16d2fd996313a3cd8bedf2c83bab4", "lat": 38.91818383333333, "fusion_lon": 0.0, "fusion_lat": 0.0, "type": "electric_scooter", "name": "e3e16d2fd996313a3cd8bedf2c83bab4", "is_disabled": 0, "rental_uris": {"ios": "https://dc.lft.to/lastmile_qr_scan", "android": "https://dc.lft.to/lastmile_qr_scan"}, "is_reserved": 0}, {"lon": -77.0271395, "bike_id": "76bd83cc0a3ee9042d3347b09fc73a35", "lat": 38.90670683333333, "fusion_lon": 0.0, "fusion_lat": 0.0, "type": "electric_scooter", "name": "76bd83cc0a3ee9042d3347b09fc73a35", "is_disabled": 0, "rental_uris": {"ios": "https://dc.lft.to/lastmile_qr_scan", "android": "https://dc.lft.to/lastmile_qr_scan"}, "is_reserved": 0}, {"lon": -77.0371635, "bike_id": "539865feeb60e51b3f1285f48bb0a962", "lat": 38.914838833333334, "fusion_lon": 0.0, "fusion_lat": 0.0, "type": "electric_scooter", "name": "539865feeb60e51b3f1285f48bb0a962", "is_disabled": 0, "rental_uris": {"ios": "https://dc.lft.to/lastmile_qr_scan", "android": "https://dc.lft.to/lastmile_qr_scan"}, "is_reserved": 0}, {"lon": -77.00105383333333, "bike_id": "94183bc562ad978bcb20715517b232c9", "lat": 38.917036333333336, "fusion_lon": 0.0, "fusion_lat": 0.0, "type": "electric_scooter", "name": "94183bc562ad978bcb20715517b232c9", "is_disabled": 0, "rental_uris": {"ios": "https://dc.lft.to/lastmile_qr_scan", "android": "https://dc.lft.to/lastmile_qr_scan"}, "is_reserved": 0}, {"lon": -77.01896016666667, "bike_id": "57bbb5a6708c0c57b8dccc230abb42df", "lat": 38.87460516666667, "fusion_lon": 0.0, "fusion_lat": 0.0, "type": "electric_scooter", "name": "57bbb5a6708c0c57b8dccc230abb42df", "is_disabled": 0, "rental_uris": {"ios": "https://dc.lft.to/lastmile_qr_scan", "android": "https://dc.lft.to/lastmile_qr_scan"}, "is_reserved": 0}, {"lon": -77.03263466666667, "bike_id": "a16cc6261d5922824c61fa5bccce54ed", "lat": 38.93268366666667, "fusion_lon": 0.0, "fusion_lat": 0.0, "type": "electric_scooter", "name": "a16cc6261d5922824c61fa5bccce54ed", "is_disabled": 0, "rental_uris": {"ios": "https://dc.lft.to/lastmile_qr_scan", "android": "https://dc.lft.to/lastmile_qr_scan"}, "is_reserved": 0}, {"lon": -77.03433833333334, "bike_id": "92de31ade823fe0bacc6cf0213d5f793", "lat": 38.909748666666665, "fusion_lon": 0.0, "fusion_lat": 0.0, "type": "electric_scooter", "name": "92de31ade823fe0bacc6cf0213d5f793", "is_disabled": 0, "rental_uris": {"ios": "https://dc.lft.to/lastmile_qr_scan", "android": "https://dc.lft.to/lastmile_qr_scan"}, "is_reserved": 0}, {"lon": -77.040998, "bike_id": "ac0c03c2cb7d0e4b389e930f8cfb6611", "lat": 38.89232416666667, "fusion_lon": 0.0, "fusion_lat": 0.0, "type": "electric_scooter", "name": "ac0c03c2cb7d0e4b389e930f8cfb6611", "is_disabled": 0, "rental_uris": {"ios": "https://dc.lft.to/lastmile_qr_scan", "android": "https://dc.lft.to/lastmile_qr_scan"}, "is_reserved": 0}, {"lon": -77.04111983333334, "bike_id": "5c65eefb9f9a4c262e9b58785c865fe2", "lat": 38.90862333333333, "fusion_lon": 0.0, "fusion_lat": 0.0, "type": "electric_scooter", "name": "5c65eefb9f9a4c262e9b58785c865fe2", "is_disabled": 0, "rental_uris": {"ios": "https://dc.lft.to/lastmile_qr_scan", "android": "https://dc.lft.to/lastmile_qr_scan"}, "is_reserved": 0}, {"lon": -77.03990183333333, "bike_id": "1b3bd4570183bb7f1bd53df46bfa3fd8", "lat": 38.916274333333334, "fusion_lon": 0.0, "fusion_lat": 0.0, "type": "electric_scooter", "name": "1b3bd4570183bb7f1bd53df46bfa3fd8", "is_disabled": 0, "rental_uris": {"ios": "https://dc.lft.to/lastmile_qr_scan", "android": "https://dc.lft.to/lastmile_qr_scan"}, "is_reserved": 0}, {"lon": -77.00990333333333, "bike_id": "81853d190e8869c17e822cb4507163fd", "lat": 38.90370866666667, "fusion_lon": 0.0, "fusion_lat": 0.0, "type": "electric_scooter", "name": "81853d190e8869c17e822cb4507163fd", "is_disabled": 0, "rental_uris": {"ios": "https://dc.lft.to/lastmile_qr_scan", "android": "https://dc.lft.to/lastmile_qr_scan"}, "is_reserved": 0}, {"lon": -77.01061666666666, "bike_id": "67f8bffaefd7aef8079023ecfed5006e", "lat": 38.96339833333333, "fusion_lon": 0.0, "fusion_lat": 0.0, "type": "electric_scooter", "name": "67f8bffaefd7aef8079023ecfed5006e", "is_disabled": 0, "rental_uris": {"ios": "https://dc.lft.to/lastmile_qr_scan", "android": "https://dc.lft.to/lastmile_qr_scan"}, "is_reserved": 0}, {"lon": -77.02842183333334, "bike_id": "62a8f7110ed70dc814283ab9be81d087", "lat": 38.92960883333333, "fusion_lon": 0.0, "fusion_lat": 0.0, "type": "electric_scooter", "name": "62a8f7110ed70dc814283ab9be81d087", "is_disabled": 0, "rental_uris": {"ios": "https://dc.lft.to/lastmile_qr_scan", "android": "https://dc.lft.to/lastmile_qr_scan"}, "is_reserved": 0}, {"lon": -77.103393, "bike_id": "666e1c73c702c80ccdb70fc5aafdd50e", "lat": 38.88555216666666, "fusion_lon": 0.0, "fusion_lat": 0.0, "type": "electric_bike", "name": "666e1c73c702c80ccdb70fc5aafdd50e", "is_disabled": 0, "rental_uris": {"ios": "https://dc.lft.to/lastmile_qr_scan", "android": "https://dc.lft.to/lastmile_qr_scan"}, "is_reserved": 0}, {"lon": -77.048614, "bike_id": "87449f031702304af4e90fe8786afe2f", "lat": 38.9048845, "fusion_lon": 0.0, "fusion_lat": 0.0, "type": "electric_bike", "name": "87449f031702304af4e90fe8786afe2f", "is_disabled": 0, "rental_uris": {"ios": "https://dc.lft.to/lastmile_qr_scan", "android": "https://dc.lft.to/lastmile_qr_scan"}, "is_reserved": 0}, {"lon": -77.032694, "bike_id": "f2a25dcceb842a7e946892a371d1db65", "lat": 38.93663983333333, "fusion_lon": 0.0, "fusion_lat": 0.0, "type": "electric_scooter", "name": "f2a25dcceb842a7e946892a371d1db65", "is_disabled": 0, "rental_uris": {"ios": "https://dc.lft.to/lastmile_qr_scan", "android": "https://dc.lft.to/lastmile_qr_scan"}, "is_reserved": 0}, {"lon": -77.03183066666666, "bike_id": "55152ec7aad29254c9333e4509e946fb", "lat": 38.90511866666667, "fusion_lon": 0.0, "fusion_lat": 0.0, "type": "electric_scooter", "name": "55152ec7aad29254c9333e4509e946fb", "is_disabled": 0, "rental_uris": {"ios": "https://dc.lft.to/lastmile_qr_scan", "android": "https://dc.lft.to/lastmile_qr_scan"}, "is_reserved": 0}, {"lon": -77.00204016666666, "bike_id": "b0ca3c89c1865750add58c84c8f9d96e", "lat": 38.90032266666667, "fusion_lon": 0.0, "fusion_lat": 0.0, "type": "electric_scooter", "name": "b0ca3c89c1865750add58c84c8f9d96e", "is_disabled": 0, "rental_uris": {"ios": "https://dc.lft.to/lastmile_qr_scan", "android": "https://dc.lft.to/lastmile_qr_scan"}, "is_reserved": 0}, {"lon": -77.02167, "bike_id": "d7c34aa2f0e2492cce41f7cf7a68fe86", "lat": 38.89734283333333, "fusion_lon": 0.0, "fusion_lat": 0.0, "type": "electric_scooter", "name": "d7c34aa2f0e2492cce41f7cf7a68fe86", "is_disabled": 0, "rental_uris": {"ios": "https://dc.lft.to/lastmile_qr_scan", "android": "https://dc.lft.to/lastmile_qr_scan"}, "is_reserved": 0}, {"lon": -77.034306, "bike_id": "255b6255ef3300b299d5eccfe9e53fa3", "lat": 38.933555, "fusion_lon": 0.0, "fusion_lat": 0.0, "type": "electric_scooter", "name": "255b6255ef3300b299d5eccfe9e53fa3", "is_disabled": 0, "rental_uris": {"ios": "https://dc.lft.to/lastmile_qr_scan", "android": "https://dc.lft.to/lastmile_qr_scan"}, "is_reserved": 0}, {"lon": -77.071668, "bike_id": "43f643547946991482eed1a20676e372", "lat": 38.907938333333334, "fusion_lon": 0.0, "fusion_lat": 0.0, "type": "electric_bike", "name": "43f643547946991482eed1a20676e372", "is_disabled": 0, "rental_uris": {"ios": "https://dc.lft.to/lastmile_qr_scan", "android": "https://dc.lft.to/lastmile_qr_scan"}, "is_reserved": 0}, {"lon": -77.00653, "bike_id": "61e5e355f8590ace9367c2f8d77ff6a7", "lat": 38.83887283333333, "fusion_lon": 0.0, "fusion_lat": 0.0, "type": "electric_scooter", "name": "61e5e355f8590ace9367c2f8d77ff6a7", "is_disabled": 0, "rental_uris": {"ios": "https://dc.lft.to/lastmile_qr_scan", "android": "https://dc.lft.to/lastmile_qr_scan"}, "is_reserved": 0}, {"lon": -77.04092333333334, "bike_id": "bfb6e4588727d97d9da74cd5c7a24c5a", "lat": 38.91699283333333, "fusion_lon": 0.0, "fusion_lat": 0.0, "type": "electric_scooter", "name": "bfb6e4588727d97d9da74cd5c7a24c5a", "is_disabled": 0, "rental_uris": {"ios": "https://dc.lft.to/lastmile_qr_scan", "android": "https://dc.lft.to/lastmile_qr_scan"}, "is_reserved": 0}, {"lon": -77.0381205, "bike_id": "b467d84316d712c5a53086f419d1ee48", "lat": 38.92064583333333, "fusion_lon": 0.0, "fusion_lat": 0.0, "type": "electric_scooter", "name": "b467d84316d712c5a53086f419d1ee48", "is_disabled": 0, "rental_uris": {"ios": "https://dc.lft.to/lastmile_qr_scan", "android": "https://dc.lft.to/lastmile_qr_scan"}, "is_reserved": 0}, {"lon": -76.931751, "bike_id": "6c6b323e3853465dc7c22d2be41b1fed", "lat": 38.89882466666667, "fusion_lon": 0.0, "fusion_lat": 0.0, "type": "electric_scooter", "name": "6c6b323e3853465dc7c22d2be41b1fed", "is_disabled": 0, "rental_uris": {"ios": "https://dc.lft.to/lastmile_qr_scan", "android": "https://dc.lft.to/lastmile_qr_scan"}, "is_reserved": 0}, {"lon": -76.957538, "bike_id": "1c53d5743124785bf0c1ab78e9e151ce", "lat": 38.884239, "fusion_lon": 0.0, "fusion_lat": 0.0, "type": "electric_scooter", "name": "1c53d5743124785bf0c1ab78e9e151ce", "is_disabled": 0, "rental_uris": {"ios": "https://dc.lft.to/lastmile_qr_scan", "android": "https://dc.lft.to/lastmile_qr_scan"}, "is_reserved": 0}, {"lon": -76.93640666666667, "bike_id": "29aba8126938e2f476cf9dea13c49c5a", "lat": 38.900617833333335, "fusion_lon": 0.0, "fusion_lat": 0.0, "type": "electric_scooter", "name": "29aba8126938e2f476cf9dea13c49c5a", "is_disabled": 0, "rental_uris": {"ios": "https://dc.lft.to/lastmile_qr_scan", "android": "https://dc.lft.to/lastmile_qr_scan"}, "is_reserved": 0}, {"lon": -77.03292766666667, "bike_id": "dc88eecc0871138147cc12144fde1368", "lat": 38.95649866666667, "fusion_lon": 0.0, "fusion_lat": 0.0, "type": "electric_scooter", "name": "dc88eecc0871138147cc12144fde1368", "is_disabled": 0, "rental_uris": {"ios": "https://dc.lft.to/lastmile_qr_scan", "android": "https://dc.lft.to/lastmile_qr_scan"}, "is_reserved": 0}, {"lon": -76.93011766666666, "bike_id": "021be9fadbf25f2229b3bc95a0f47c40", "lat": 38.89646366666667, "fusion_lon": 0.0, "fusion_lat": 0.0, "type": "electric_bike", "name": "021be9fadbf25f2229b3bc95a0f47c40", "is_disabled": 0, "rental_uris": {"ios": "https://dc.lft.to/lastmile_qr_scan", "android": "https://dc.lft.to/lastmile_qr_scan"}, "is_reserved": 0}, {"lon": -77.025185, "bike_id": "a85e9d8160feeab74eff42755189853f", "lat": 38.916902666666665, "fusion_lon": 0.0, "fusion_lat": 0.0, "type": "electric_scooter", "name": "a85e9d8160feeab74eff42755189853f", "is_disabled": 0, "rental_uris": {"ios": "https://dc.lft.to/lastmile_qr_scan", "android": "https://dc.lft.to/lastmile_qr_scan"}, "is_reserved": 0}, {"lon": -76.874982, "bike_id": "84dbe2fdbdd712d3ee1fff7aca86a82e", "lat": 38.99088966666667, "fusion_lon": 0.0, "fusion_lat": 0.0, "type": "electric_bike", "name": "84dbe2fdbdd712d3ee1fff7aca86a82e", "is_disabled": 0, "rental_uris": {"ios": "https://dc.lft.to/lastmile_qr_scan", "android": "https://dc.lft.to/lastmile_qr_scan"}, "is_reserved": 0}, {"lon": -77.04496, "bike_id": "a680cc932406832399d6470db62b5bea", "lat": 38.91110716666667, "fusion_lon": 0.0, "fusion_lat": 0.0, "type": "electric_scooter", "name": "a680cc932406832399d6470db62b5bea", "is_disabled": 0, "rental_uris": {"ios": "https://dc.lft.to/lastmile_qr_scan", "android": "https://dc.lft.to/lastmile_qr_scan"}, "is_reserved": 0}, {"lon": -77.02397283333333, "bike_id": "e7c06148dbfab8b3ff88120e98866abb", "lat": 38.88130666666667, "fusion_lon": 0.0, "fusion_lat": 0.0, "type": "electric_scooter", "name": "e7c06148dbfab8b3ff88120e98866abb", "is_disabled": 0, "rental_uris": {"ios": "https://dc.lft.to/lastmile_qr_scan", "android": "https://dc.lft.to/lastmile_qr_scan"}, "is_reserved": 0}, {"lon": -76.99472, "bike_id": "9177403f7cd2c7c88a68ae984aa3cc2f", "lat": 38.882685, "fusion_lon": 0.0, "fusion_lat": 0.0, "type": "electric_scooter", "name": "9177403f7cd2c7c88a68ae984aa3cc2f", "is_disabled": 0, "rental_uris": {"ios": "https://dc.lft.to/lastmile_qr_scan", "android": "https://dc.lft.to/lastmile_qr_scan"}, "is_reserved": 0}, {"lon": -77.03838616666667, "bike_id": "9673b026ee966fd3c992bb3f85e89860", "lat": 38.910395, "fusion_lon": 0.0, "fusion_lat": 0.0, "type": "electric_scooter", "name": "9673b026ee966fd3c992bb3f85e89860", "is_disabled": 0, "rental_uris": {"ios": "https://dc.lft.to/lastmile_qr_scan", "android": "https://dc.lft.to/lastmile_qr_scan"}, "is_reserved": 0}, {"lon": -77.03986633333334, "bike_id": "07e9c6b377a28e1e753c3de9c8ec665b", "lat": 38.933366166666666, "fusion_lon": 0.0, "fusion_lat": 0.0, "type": "electric_scooter", "name": "07e9c6b377a28e1e753c3de9c8ec665b", "is_disabled": 0, "rental_uris": {"ios": "https://dc.lft.to/lastmile_qr_scan", "android": "https://dc.lft.to/lastmile_qr_scan"}, "is_reserved": 0}, {"lon": -77.0318795, "bike_id": "b5ecce88ae2fd8fb5ef365dea2cb6e6a", "lat": 38.892345666666664, "fusion_lon": 0.0, "fusion_lat": 0.0, "type": "electric_scooter", "name": "b5ecce88ae2fd8fb5ef365dea2cb6e6a", "is_disabled": 0, "rental_uris": {"ios": "https://dc.lft.to/lastmile_qr_scan", "android": "https://dc.lft.to/lastmile_qr_scan"}, "is_reserved": 0}, {"lon": -77.0329035, "bike_id": "499e06e5b689b8686ef8d021c251e221", "lat": 38.956484833333334, "fusion_lon": 0.0, "fusion_lat": 0.0, "type": "electric_scooter", "name": "499e06e5b689b8686ef8d021c251e221", "is_disabled": 0, "rental_uris": {"ios": "https://dc.lft.to/lastmile_qr_scan", "android": "https://dc.lft.to/lastmile_qr_scan"}, "is_reserved": 0}, {"lon": -77.01780466666666, "bike_id": "bdd8a6dfc345e8d7cd9b97e8009153fe", "lat": 38.887149666666666, "fusion_lon": 0.0, "fusion_lat": 0.0, "type": "electric_scooter", "name": "bdd8a6dfc345e8d7cd9b97e8009153fe", "is_disabled": 0, "rental_uris": {"ios": "https://dc.lft.to/lastmile_qr_scan", "android": "https://dc.lft.to/lastmile_qr_scan"}, "is_reserved": 0}, {"lon": -77.03214666666666, "bike_id": "1ed10c2a9beb21962c11d7ac038f47ef", "lat": 38.89219383333333, "fusion_lon": 0.0, "fusion_lat": 0.0, "type": "electric_scooter", "name": "1ed10c2a9beb21962c11d7ac038f47ef", "is_disabled": 0, "rental_uris": {"ios": "https://dc.lft.to/lastmile_qr_scan", "android": "https://dc.lft.to/lastmile_qr_scan"}, "is_reserved": 0}, {"lon": -77.05862166666667, "bike_id": "87d546213d9e4327c88a0ba6d8da26b6", "lat": 38.935432, "fusion_lon": 0.0, "fusion_lat": 0.0, "type": "electric_scooter", "name": "87d546213d9e4327c88a0ba6d8da26b6", "is_disabled": 0, "rental_uris": {"ios": "https://dc.lft.to/lastmile_qr_scan", "android": "https://dc.lft.to/lastmile_qr_scan"}, "is_reserved": 0}, {"lon": -77.04187683333333, "bike_id": "24ac67956e12753c2f13d37bbd6be2a0", "lat": 38.89978466666667, "fusion_lon": 0.0, "fusion_lat": 0.0, "type": "electric_scooter", "name": "24ac67956e12753c2f13d37bbd6be2a0", "is_disabled": 0, "rental_uris": {"ios": "https://dc.lft.to/lastmile_qr_scan", "android": "https://dc.lft.to/lastmile_qr_scan"}, "is_reserved": 0}, {"lon": -76.99798066666666, "bike_id": "34315965e56d33f7344d70fbee1b5232", "lat": 38.95641116666667, "fusion_lon": 0.0, "fusion_lat": 0.0, "type": "electric_bike", "name": "34315965e56d33f7344d70fbee1b5232", "is_disabled": 0, "rental_uris": {"ios": "https://dc.lft.to/lastmile_qr_scan", "android": "https://dc.lft.to/lastmile_qr_scan"}, "is_reserved": 0}, {"lon": -76.9733175, "bike_id": "220205407143063bd3ab5ad2b7879d4e", "lat": 38.904777, "fusion_lon": 0.0, "fusion_lat": 0.0, "type": "electric_bike", "name": "220205407143063bd3ab5ad2b7879d4e", "is_disabled": 0, "rental_uris": {"ios": "https://dc.lft.to/lastmile_qr_scan", "android": "https://dc.lft.to/lastmile_qr_scan"}, "is_reserved": 0}, {"lon": -77.07090333333333, "bike_id": "2c0df7398e173b50f04484def8d9ea88", "lat": 38.89487533333333, "fusion_lon": 0.0, "fusion_lat": 0.0, "type": "electric_bike", "name": "2c0df7398e173b50f04484def8d9ea88", "is_disabled": 0, "rental_uris": {"ios": "https://dc.lft.to/lastmile_qr_scan", "android": "https://dc.lft.to/lastmile_qr_scan"}, "is_reserved": 0}, {"lon": -77.04446533333333, "bike_id": "506a72a47cef0a7ae12ff5c3d898f8ec", "lat": 38.91877683333333, "fusion_lon": 0.0, "fusion_lat": 0.0, "type": "electric_scooter", "name": "506a72a47cef0a7ae12ff5c3d898f8ec", "is_disabled": 0, "rental_uris": {"ios": "https://dc.lft.to/lastmile_qr_scan", "android": "https://dc.lft.to/lastmile_qr_scan"}, "is_reserved": 0}, {"lon": -76.985672, "bike_id": "a5d2cfca0e82bc2d5f58dad62c8e4586", "lat": 38.899546, "fusion_lon": 0.0, "fusion_lat": 0.0, "type": "electric_scooter", "name": "a5d2cfca0e82bc2d5f58dad62c8e4586", "is_disabled": 0, "rental_uris": {"ios": "https://dc.lft.to/lastmile_qr_scan", "android": "https://dc.lft.to/lastmile_qr_scan"}, "is_reserved": 0}, {"lon": -77.12655733333334, "bike_id": "5c46f88259b5b6c877094c3c5a651082", "lat": 38.815167333333335, "fusion_lon": 0.0, "fusion_lat": 0.0, "type": "electric_bike", "name": "5c46f88259b5b6c877094c3c5a651082", "is_disabled": 0, "rental_uris": {"ios": "https://dc.lft.to/lastmile_qr_scan", "android": "https://dc.lft.to/lastmile_qr_scan"}, "is_reserved": 0}, {"lon": -76.98189083333334, "bike_id": "b68514283613ebad12364248e882ba89", "lat": 38.926059333333335, "fusion_lon": 0.0, "fusion_lat": 0.0, "type": "electric_scooter", "name": "b68514283613ebad12364248e882ba89", "is_disabled": 0, "rental_uris": {"ios": "https://dc.lft.to/lastmile_qr_scan", "android": "https://dc.lft.to/lastmile_qr_scan"}, "is_reserved": 0}, {"lon": -77.02154466666667, "bike_id": "128ee9c2003dfbe78b56b3a3c222164a", "lat": 38.92596833333333, "fusion_lon": 0.0, "fusion_lat": 0.0, "type": "electric_scooter", "name": "128ee9c2003dfbe78b56b3a3c222164a", "is_disabled": 0, "rental_uris": {"ios": "https://dc.lft.to/lastmile_qr_scan", "android": "https://dc.lft.to/lastmile_qr_scan"}, "is_reserved": 0}, {"lon": -77.07172866666667, "bike_id": "cc3bebd801af086ef47cc2ac52bcc42f", "lat": 38.9077395, "fusion_lon": 0.0, "fusion_lat": 0.0, "type": "electric_scooter", "name": "cc3bebd801af086ef47cc2ac52bcc42f", "is_disabled": 0, "rental_uris": {"ios": "https://dc.lft.to/lastmile_qr_scan", "android": "https://dc.lft.to/lastmile_qr_scan"}, "is_reserved": 0}, {"lon": -76.991098, "bike_id": "27429b9f53986a0b234e4e0a5b9ce385", "lat": 38.90315916666667, "fusion_lon": 0.0, "fusion_lat": 0.0, "type": "electric_scooter", "name": "27429b9f53986a0b234e4e0a5b9ce385", "is_disabled": 0, "rental_uris": {"ios": "https://dc.lft.to/lastmile_qr_scan", "android": "https://dc.lft.to/lastmile_qr_scan"}, "is_reserved": 0}, {"lon": -77.046413, "bike_id": "2fa455ec852fb7e8c7758974a9223bae", "lat": 38.919145666666665, "fusion_lon": 0.0, "fusion_lat": 0.0, "type": "electric_scooter", "name": "2fa455ec852fb7e8c7758974a9223bae", "is_disabled": 0, "rental_uris": {"ios": "https://dc.lft.to/lastmile_qr_scan", "android": "https://dc.lft.to/lastmile_qr_scan"}, "is_reserved": 0}, {"lon": -77.02685533333333, "bike_id": "6c83acd198182d2d07d0042162a2e813", "lat": 38.94328933333333, "fusion_lon": 0.0, "fusion_lat": 0.0, "type": "electric_scooter", "name": "6c83acd198182d2d07d0042162a2e813", "is_disabled": 0, "rental_uris": {"ios": "https://dc.lft.to/lastmile_qr_scan", "android": "https://dc.lft.to/lastmile_qr_scan"}, "is_reserved": 0}, {"lon": -76.9337645, "bike_id": "36cad9b089cd1015a0f7d20302876fe6", "lat": 38.910314666666665, "fusion_lon": 0.0, "fusion_lat": 0.0, "type": "electric_scooter", "name": "36cad9b089cd1015a0f7d20302876fe6", "is_disabled": 0, "rental_uris": {"ios": "https://dc.lft.to/lastmile_qr_scan", "android": "https://dc.lft.to/lastmile_qr_scan"}, "is_reserved": 0}, {"lon": -77.03835316666667, "bike_id": "74940388ebbc00430e9b804726eebed3", "lat": 38.91041516666667, "fusion_lon": 0.0, "fusion_lat": 0.0, "type": "electric_scooter", "name": "74940388ebbc00430e9b804726eebed3", "is_disabled": 0, "rental_uris": {"ios": "https://dc.lft.to/lastmile_qr_scan", "android": "https://dc.lft.to/lastmile_qr_scan"}, "is_reserved": 0}, {"lon": -76.9335295, "bike_id": "e5c485ab6955d8f06da45859001e4923", "lat": 38.89909133333333, "fusion_lon": 0.0, "fusion_lat": 0.0, "type": "electric_scooter", "name": "e5c485ab6955d8f06da45859001e4923", "is_disabled": 0, "rental_uris": {"ios": "https://dc.lft.to/lastmile_qr_scan", "android": "https://dc.lft.to/lastmile_qr_scan"}, "is_reserved": 0}, {"lon": -77.0321115, "bike_id": "d380c5a00c268c8582ce09514dcf81b1", "lat": 38.91201566666667, "fusion_lon": 0.0, "fusion_lat": 0.0, "type": "electric_scooter", "name": "d380c5a00c268c8582ce09514dcf81b1", "is_disabled": 0, "rental_uris": {"ios": "https://dc.lft.to/lastmile_qr_scan", "android": "https://dc.lft.to/lastmile_qr_scan"}, "is_reserved": 0}, {"lon": -77.0317885, "bike_id": "c6486aaf6210a81984ae5a1ddd0efa0d", "lat": 38.892207666666664, "fusion_lon": 0.0, "fusion_lat": 0.0, "type": "electric_scooter", "name": "c6486aaf6210a81984ae5a1ddd0efa0d", "is_disabled": 0, "rental_uris": {"ios": "https://dc.lft.to/lastmile_qr_scan", "android": "https://dc.lft.to/lastmile_qr_scan"}, "is_reserved": 0}, {"lon": -76.9914545, "bike_id": "0c5257161142053918f25b23e1f9d7ea", "lat": 38.889744666666665, "fusion_lon": 0.0, "fusion_lat": 0.0, "type": "electric_scooter", "name": "0c5257161142053918f25b23e1f9d7ea", "is_disabled": 0, "rental_uris": {"ios": "https://dc.lft.to/lastmile_qr_scan", "android": "https://dc.lft.to/lastmile_qr_scan"}, "is_reserved": 0}, {"lon": -77.03261133333334, "bike_id": "f3e3f8c474c18d335be31a431e07dec6", "lat": 38.909616666666665, "fusion_lon": 0.0, "fusion_lat": 0.0, "type": "electric_scooter", "name": "f3e3f8c474c18d335be31a431e07dec6", "is_disabled": 0, "rental_uris": {"ios": "https://dc.lft.to/lastmile_qr_scan", "android": "https://dc.lft.to/lastmile_qr_scan"}, "is_reserved": 0}, {"lon": -77.01234366666667, "bike_id": "6b8fba26b5b872fa23f139c1392bb439", "lat": 38.89294916666667, "fusion_lon": 0.0, "fusion_lat": 0.0, "type": "electric_scooter", "name": "6b8fba26b5b872fa23f139c1392bb439", "is_disabled": 0, "rental_uris": {"ios": "https://dc.lft.to/lastmile_qr_scan", "android": "https://dc.lft.to/lastmile_qr_scan"}, "is_reserved": 0}, {"lon": -77.046854, "bike_id": "c2f5852e2c93354d080689d50fe93c8a", "lat": 38.89745466666667, "fusion_lon": 0.0, "fusion_lat": 0.0, "type": "electric_scooter", "name": "c2f5852e2c93354d080689d50fe93c8a", "is_disabled": 0, "rental_uris": {"ios": "https://dc.lft.to/lastmile_qr_scan", "android": "https://dc.lft.to/lastmile_qr_scan"}, "is_reserved": 0}, {"lon": -77.04139366666666, "bike_id": "560deb85dc419228785d02d9bdeb0b7f", "lat": 38.922668, "fusion_lon": 0.0, "fusion_lat": 0.0, "type": "electric_scooter", "name": "560deb85dc419228785d02d9bdeb0b7f", "is_disabled": 0, "rental_uris": {"ios": "https://dc.lft.to/lastmile_qr_scan", "android": "https://dc.lft.to/lastmile_qr_scan"}, "is_reserved": 0}, {"lon": -77.01628516666666, "bike_id": "2bac56ac9af20193a24c1d85ba121460", "lat": 38.90568233333333, "fusion_lon": 0.0, "fusion_lat": 0.0, "type": "electric_scooter", "name": "2bac56ac9af20193a24c1d85ba121460", "is_disabled": 0, "rental_uris": {"ios": "https://dc.lft.to/lastmile_qr_scan", "android": "https://dc.lft.to/lastmile_qr_scan"}, "is_reserved": 0}, {"lon": -77.03431416666666, "bike_id": "04ae1e159e0d67a7c085b5ea811e3aea", "lat": 38.90977616666667, "fusion_lon": 0.0, "fusion_lat": 0.0, "type": "electric_scooter", "name": "04ae1e159e0d67a7c085b5ea811e3aea", "is_disabled": 0, "rental_uris": {"ios": "https://dc.lft.to/lastmile_qr_scan", "android": "https://dc.lft.to/lastmile_qr_scan"}, "is_reserved": 0}, {"lon": -76.937327, "bike_id": "2a6ceda0c31229cbc838736f1ad43eb0", "lat": 38.890146666666666, "fusion_lon": 0.0, "fusion_lat": 0.0, "type": "electric_scooter", "name": "2a6ceda0c31229cbc838736f1ad43eb0", "is_disabled": 0, "rental_uris": {"ios": "https://dc.lft.to/lastmile_qr_scan", "android": "https://dc.lft.to/lastmile_qr_scan"}, "is_reserved": 0}, {"lon": -77.1252505, "bike_id": "2f52ffe7eaf35fc2a58bd8ec8743c14f", "lat": 39.056316, "fusion_lon": 0.0, "fusion_lat": 0.0, "type": "electric_bike", "name": "2f52ffe7eaf35fc2a58bd8ec8743c14f", "is_disabled": 0, "rental_uris": {"ios": "https://dc.lft.to/lastmile_qr_scan", "android": "https://dc.lft.to/lastmile_qr_scan"}, "is_reserved": 0}, {"lon": -77.017443, "bike_id": "b387c2ea829f449f64d6567e5086af53", "lat": 38.94203533333334, "fusion_lon": 0.0, "fusion_lat": 0.0, "type": "electric_scooter", "name": "b387c2ea829f449f64d6567e5086af53", "is_disabled": 0, "rental_uris": {"ios": "https://dc.lft.to/lastmile_qr_scan", "android": "https://dc.lft.to/lastmile_qr_scan"}, "is_reserved": 0}, {"lon": -77.03631483333334, "bike_id": "80d0453178c759e50f1f62fe8c124f65", "lat": 38.9308015, "fusion_lon": 0.0, "fusion_lat": 0.0, "type": "electric_scooter", "name": "80d0453178c759e50f1f62fe8c124f65", "is_disabled": 0, "rental_uris": {"ios": "https://dc.lft.to/lastmile_qr_scan", "android": "https://dc.lft.to/lastmile_qr_scan"}, "is_reserved": 0}, {"lon": -76.99931516666666, "bike_id": "51f1923afcd1acc0d3236c694c1fc652", "lat": 38.84314233333333, "fusion_lon": 0.0, "fusion_lat": 0.0, "type": "electric_scooter", "name": "51f1923afcd1acc0d3236c694c1fc652", "is_disabled": 0, "rental_uris": {"ios": "https://dc.lft.to/lastmile_qr_scan", "android": "https://dc.lft.to/lastmile_qr_scan"}, "is_reserved": 0}, {"lon": -77.05156316666667, "bike_id": "77802c563854e8ff534be3b641844610", "lat": 38.92741016666667, "fusion_lon": 0.0, "fusion_lat": 0.0, "type": "electric_scooter", "name": "77802c563854e8ff534be3b641844610", "is_disabled": 0, "rental_uris": {"ios": "https://dc.lft.to/lastmile_qr_scan", "android": "https://dc.lft.to/lastmile_qr_scan"}, "is_reserved": 0}, {"lon": -77.0745455, "bike_id": "f075199b91af3d8652b648f2d81f9beb", "lat": 38.94511166666667, "fusion_lon": 0.0, "fusion_lat": 0.0, "type": "electric_scooter", "name": "f075199b91af3d8652b648f2d81f9beb", "is_disabled": 0, "rental_uris": {"ios": "https://dc.lft.to/lastmile_qr_scan", "android": "https://dc.lft.to/lastmile_qr_scan"}, "is_reserved": 0}, {"lon": -77.02715916666666, "bike_id": "1b0a1ab3ef2b64f8c891c3ddb549b537", "lat": 38.906672666666665, "fusion_lon": 0.0, "fusion_lat": 0.0, "type": "electric_scooter", "name": "1b0a1ab3ef2b64f8c891c3ddb549b537", "is_disabled": 0, "rental_uris": {"ios": "https://dc.lft.to/lastmile_qr_scan", "android": "https://dc.lft.to/lastmile_qr_scan"}, "is_reserved": 0}, {"lon": -77.03181716666667, "bike_id": "7f93bdbda6f047e7e184c299d750467a", "lat": 38.919210666666665, "fusion_lon": 0.0, "fusion_lat": 0.0, "type": "electric_scooter", "name": "7f93bdbda6f047e7e184c299d750467a", "is_disabled": 0, "rental_uris": {"ios": "https://dc.lft.to/lastmile_qr_scan", "android": "https://dc.lft.to/lastmile_qr_scan"}, "is_reserved": 0}, {"lon": -77.04500316666666, "bike_id": "b72cab9111e4afc64c7213204d549196", "lat": 38.90067166666667, "fusion_lon": 0.0, "fusion_lat": 0.0, "type": "electric_scooter", "name": "b72cab9111e4afc64c7213204d549196", "is_disabled": 0, "rental_uris": {"ios": "https://dc.lft.to/lastmile_qr_scan", "android": "https://dc.lft.to/lastmile_qr_scan"}, "is_reserved": 0}, {"lon": -76.98108866666666, "bike_id": "ab3ae0ebaaaba57cd57294b4bf14652e", "lat": 38.90400183333333, "fusion_lon": 0.0, "fusion_lat": 0.0, "type": "electric_scooter", "name": "ab3ae0ebaaaba57cd57294b4bf14652e", "is_disabled": 0, "rental_uris": {"ios": "https://dc.lft.to/lastmile_qr_scan", "android": "https://dc.lft.to/lastmile_qr_scan"}, "is_reserved": 0}, {"lon": -77.06761866666666, "bike_id": "7823fbc8f965014a2cbf740fbe5d34da", "lat": 38.90337266666667, "fusion_lon": 0.0, "fusion_lat": 0.0, "type": "electric_scooter", "name": "7823fbc8f965014a2cbf740fbe5d34da", "is_disabled": 0, "rental_uris": {"ios": "https://dc.lft.to/lastmile_qr_scan", "android": "https://dc.lft.to/lastmile_qr_scan"}, "is_reserved": 0}, {"lon": -77.0426265, "bike_id": "c512613056a44fc9f2ce0a49cf81321f", "lat": 38.910341333333335, "fusion_lon": 0.0, "fusion_lat": 0.0, "type": "electric_scooter", "name": "c512613056a44fc9f2ce0a49cf81321f", "is_disabled": 0, "rental_uris": {"ios": "https://dc.lft.to/lastmile_qr_scan", "android": "https://dc.lft.to/lastmile_qr_scan"}, "is_reserved": 0}, {"lon": -77.03946466666666, "bike_id": "23b969f2be88ceb2b757af28800d6619", "lat": 38.9305675, "fusion_lon": 0.0, "fusion_lat": 0.0, "type": "electric_scooter", "name": "23b969f2be88ceb2b757af28800d6619", "is_disabled": 0, "rental_uris": {"ios": "https://dc.lft.to/lastmile_qr_scan", "android": "https://dc.lft.to/lastmile_qr_scan"}, "is_reserved": 0}, {"lon": -76.93367816666667, "bike_id": "c6c6c5c4f0607eb584c7ca3150559839", "lat": 38.8991545, "fusion_lon": 0.0, "fusion_lat": 0.0, "type": "electric_scooter", "name": "c6c6c5c4f0607eb584c7ca3150559839", "is_disabled": 0, "rental_uris": {"ios": "https://dc.lft.to/lastmile_qr_scan", "android": "https://dc.lft.to/lastmile_qr_scan"}, "is_reserved": 0}, {"lon": -77.01814516666667, "bike_id": "952aec8e6e9e8901b88339a5268339c1", "lat": 38.90967916666666, "fusion_lon": 0.0, "fusion_lat": 0.0, "type": "electric_scooter", "name": "952aec8e6e9e8901b88339a5268339c1", "is_disabled": 0, "rental_uris": {"ios": "https://dc.lft.to/lastmile_qr_scan", "android": "https://dc.lft.to/lastmile_qr_scan"}, "is_reserved": 0}, {"lon": -77.03381733333333, "bike_id": "d701d5aec4c045542ddb8144a966ebc3", "lat": 38.89231216666667, "fusion_lon": 0.0, "fusion_lat": 0.0, "type": "electric_scooter", "name": "d701d5aec4c045542ddb8144a966ebc3", "is_disabled": 0, "rental_uris": {"ios": "https://dc.lft.to/lastmile_qr_scan", "android": "https://dc.lft.to/lastmile_qr_scan"}, "is_reserved": 0}, {"lon": -77.02645033333333, "bike_id": "9dfcced9bfe569a8d4483c5dbe5b5fff", "lat": 38.90051583333333, "fusion_lon": 0.0, "fusion_lat": 0.0, "type": "electric_scooter", "name": "9dfcced9bfe569a8d4483c5dbe5b5fff", "is_disabled": 0, "rental_uris": {"ios": "https://dc.lft.to/lastmile_qr_scan", "android": "https://dc.lft.to/lastmile_qr_scan"}, "is_reserved": 0}, {"lon": -76.99784216666667, "bike_id": "f59a5892eae92b81c2db95e9c1b17b50", "lat": 38.84424466666667, "fusion_lon": 0.0, "fusion_lat": 0.0, "type": "electric_scooter", "name": "f59a5892eae92b81c2db95e9c1b17b50", "is_disabled": 0, "rental_uris": {"ios": "https://dc.lft.to/lastmile_qr_scan", "android": "https://dc.lft.to/lastmile_qr_scan"}, "is_reserved": 0}, {"lon": -77.063336, "bike_id": "7a1a9769cc264af5a1dadf618dd36ce2", "lat": 38.907544666666666, "fusion_lon": 0.0, "fusion_lat": 0.0, "type": "electric_scooter", "name": "7a1a9769cc264af5a1dadf618dd36ce2", "is_disabled": 0, "rental_uris": {"ios": "https://dc.lft.to/lastmile_qr_scan", "android": "https://dc.lft.to/lastmile_qr_scan"}, "is_reserved": 0}, {"lon": -77.0218725, "bike_id": "fd71202fd5a76f01dccd6b1c58af9739", "lat": 38.91058783333333, "fusion_lon": 0.0, "fusion_lat": 0.0, "type": "electric_scooter", "name": "fd71202fd5a76f01dccd6b1c58af9739", "is_disabled": 0, "rental_uris": {"ios": "https://dc.lft.to/lastmile_qr_scan", "android": "https://dc.lft.to/lastmile_qr_scan"}, "is_reserved": 0}, {"lon": -77.06867733333333, "bike_id": "4d65404191abd1186724d02ee5c7342e", "lat": 38.805740666666665, "fusion_lon": 0.0, "fusion_lat": 0.0, "type": "electric_bike", "name": "4d65404191abd1186724d02ee5c7342e", "is_disabled": 0, "rental_uris": {"ios": "https://dc.lft.to/lastmile_qr_scan", "android": "https://dc.lft.to/lastmile_qr_scan"}, "is_reserved": 0}, {"lon": -76.97617566666666, "bike_id": "8459a46ec74f940342cd11e879f7142c", "lat": 38.9265005, "fusion_lon": 0.0, "fusion_lat": 0.0, "type": "electric_scooter", "name": "8459a46ec74f940342cd11e879f7142c", "is_disabled": 0, "rental_uris": {"ios": "https://dc.lft.to/lastmile_qr_scan", "android": "https://dc.lft.to/lastmile_qr_scan"}, "is_reserved": 0}, {"lon": -76.95236933333334, "bike_id": "4a1ed79f5c7ace366f0eb418e349b727", "lat": 38.89100083333334, "fusion_lon": 0.0, "fusion_lat": 0.0, "type": "electric_scooter", "name": "4a1ed79f5c7ace366f0eb418e349b727", "is_disabled": 0, "rental_uris": {"ios": "https://dc.lft.to/lastmile_qr_scan", "android": "https://dc.lft.to/lastmile_qr_scan"}, "is_reserved": 0}, {"lon": -77.08814283333334, "bike_id": "61fa4a3c3230dcc6ce182285fa4e4b95", "lat": 38.91177316666667, "fusion_lon": 0.0, "fusion_lat": 0.0, "type": "electric_bike", "name": "61fa4a3c3230dcc6ce182285fa4e4b95", "is_disabled": 0, "rental_uris": {"ios": "https://dc.lft.to/lastmile_qr_scan", "android": "https://dc.lft.to/lastmile_qr_scan"}, "is_reserved": 0}, {"lon": -77.03921966666667, "bike_id": "b6e0333c8e4034acb3b10baa2598f829", "lat": 38.927989833333335, "fusion_lon": 0.0, "fusion_lat": 0.0, "type": "electric_scooter", "name": "b6e0333c8e4034acb3b10baa2598f829", "is_disabled": 0, "rental_uris": {"ios": "https://dc.lft.to/lastmile_qr_scan", "android": "https://dc.lft.to/lastmile_qr_scan"}, "is_reserved": 0}, {"lon": -77.01868666666667, "bike_id": "2e7169f819c721fa721f8fe190412465", "lat": 38.95144283333333, "fusion_lon": 0.0, "fusion_lat": 0.0, "type": "electric_scooter", "name": "2e7169f819c721fa721f8fe190412465", "is_disabled": 0, "rental_uris": {"ios": "https://dc.lft.to/lastmile_qr_scan", "android": "https://dc.lft.to/lastmile_qr_scan"}, "is_reserved": 0}, {"lon": -76.997834, "bike_id": "9b15fb23f237703374d8d4e36bec21a4", "lat": 38.8442765, "fusion_lon": 0.0, "fusion_lat": 0.0, "type": "electric_scooter", "name": "9b15fb23f237703374d8d4e36bec21a4", "is_disabled": 0, "rental_uris": {"ios": "https://dc.lft.to/lastmile_qr_scan", "android": "https://dc.lft.to/lastmile_qr_scan"}, "is_reserved": 0}, {"lon": -76.99100833333334, "bike_id": "b773f8dd577653e96408fd59b13c9e6e", "lat": 38.903182666666666, "fusion_lon": 0.0, "fusion_lat": 0.0, "type": "electric_scooter", "name": "b773f8dd577653e96408fd59b13c9e6e", "is_disabled": 0, "rental_uris": {"ios": "https://dc.lft.to/lastmile_qr_scan", "android": "https://dc.lft.to/lastmile_qr_scan"}, "is_reserved": 0}, {"lon": -76.9994265, "bike_id": "be8d9ea6943da28b41d6f7d26cbdbeb3", "lat": 38.919308, "fusion_lon": 0.0, "fusion_lat": 0.0, "type": "electric_scooter", "name": "be8d9ea6943da28b41d6f7d26cbdbeb3", "is_disabled": 0, "rental_uris": {"ios": "https://dc.lft.to/lastmile_qr_scan", "android": "https://dc.lft.to/lastmile_qr_scan"}, "is_reserved": 0}, {"lon": -77.10809316666666, "bike_id": "7a06f12461a2766d928a2af989a3bf4f", "lat": 38.81202366666667, "fusion_lon": 0.0, "fusion_lat": 0.0, "type": "electric_bike", "name": "7a06f12461a2766d928a2af989a3bf4f", "is_disabled": 0, "rental_uris": {"ios": "https://dc.lft.to/lastmile_qr_scan", "android": "https://dc.lft.to/lastmile_qr_scan"}, "is_reserved": 0}, {"lon": -77.00204233333334, "bike_id": "d3377c948ea4cd35dd7162db43f5b3e2", "lat": 38.90031066666667, "fusion_lon": 0.0, "fusion_lat": 0.0, "type": "electric_scooter", "name": "d3377c948ea4cd35dd7162db43f5b3e2", "is_disabled": 0, "rental_uris": {"ios": "https://dc.lft.to/lastmile_qr_scan", "android": "https://dc.lft.to/lastmile_qr_scan"}, "is_reserved": 0}, {"lon": -77.0316865, "bike_id": "0e48e9ed54e4ccdfd03cac25ca457180", "lat": 38.92110233333333, "fusion_lon": 0.0, "fusion_lat": 0.0, "type": "electric_scooter", "name": "0e48e9ed54e4ccdfd03cac25ca457180", "is_disabled": 0, "rental_uris": {"ios": "https://dc.lft.to/lastmile_qr_scan", "android": "https://dc.lft.to/lastmile_qr_scan"}, "is_reserved": 0}, {"lon": -77.04268483333334, "bike_id": "56f21041efc95667def9ba0ac7a22e8d", "lat": 38.910076833333335, "fusion_lon": 0.0, "fusion_lat": 0.0, "type": "electric_scooter", "name": "56f21041efc95667def9ba0ac7a22e8d", "is_disabled": 0, "rental_uris": {"ios": "https://dc.lft.to/lastmile_qr_scan", "android": "https://dc.lft.to/lastmile_qr_scan"}, "is_reserved": 0}, {"lon": -77.01521316666667, "bike_id": "7534b58634fbc23ed4c822169e45d472", "lat": 38.885003833333336, "fusion_lon": 0.0, "fusion_lat": 0.0, "type": "electric_scooter", "name": "7534b58634fbc23ed4c822169e45d472", "is_disabled": 0, "rental_uris": {"ios": "https://dc.lft.to/lastmile_qr_scan", "android": "https://dc.lft.to/lastmile_qr_scan"}, "is_reserved": 0}, {"lon": -77.0318125, "bike_id": "da6536796f0d7e007e5e97ab5f69dfcf", "lat": 38.903020166666664, "fusion_lon": 0.0, "fusion_lat": 0.0, "type": "electric_scooter", "name": "da6536796f0d7e007e5e97ab5f69dfcf", "is_disabled": 0, "rental_uris": {"ios": "https://dc.lft.to/lastmile_qr_scan", "android": "https://dc.lft.to/lastmile_qr_scan"}, "is_reserved": 0}, {"lon": -77.02181233333333, "bike_id": "ab63d2d55e6772cec3f9de89ddb1bfe3", "lat": 38.893567166666664, "fusion_lon": 0.0, "fusion_lat": 0.0, "type": "electric_scooter", "name": "ab63d2d55e6772cec3f9de89ddb1bfe3", "is_disabled": 0, "rental_uris": {"ios": "https://dc.lft.to/lastmile_qr_scan", "android": "https://dc.lft.to/lastmile_qr_scan"}, "is_reserved": 0}, {"lon": -77.03273583333333, "bike_id": "bf0543a34c625b982270ee761fa253c0", "lat": 38.95682383333333, "fusion_lon": 0.0, "fusion_lat": 0.0, "type": "electric_bike", "name": "bf0543a34c625b982270ee761fa253c0", "is_disabled": 0, "rental_uris": {"ios": "https://dc.lft.to/lastmile_qr_scan", "android": "https://dc.lft.to/lastmile_qr_scan"}, "is_reserved": 0}, {"lon": -77.05024616666667, "bike_id": "88d310ae5bd0ee625a590273fdd80027", "lat": 38.905288166666665, "fusion_lon": 0.0, "fusion_lat": 0.0, "type": "electric_scooter", "name": "88d310ae5bd0ee625a590273fdd80027", "is_disabled": 0, "rental_uris": {"ios": "https://dc.lft.to/lastmile_qr_scan", "android": "https://dc.lft.to/lastmile_qr_scan"}, "is_reserved": 0}, {"lon": -77.0321105, "bike_id": "00b974e6f69a8adaf86de43310d8cef0", "lat": 38.89238866666667, "fusion_lon": 0.0, "fusion_lat": 0.0, "type": "electric_scooter", "name": "00b974e6f69a8adaf86de43310d8cef0", "is_disabled": 0, "rental_uris": {"ios": "https://dc.lft.to/lastmile_qr_scan", "android": "https://dc.lft.to/lastmile_qr_scan"}, "is_reserved": 0}, {"lon": -77.0328115, "bike_id": "6d97ab3d68645e5c2f2fd7fb5d086457", "lat": 38.901392666666666, "fusion_lon": 0.0, "fusion_lat": 0.0, "type": "electric_scooter", "name": "6d97ab3d68645e5c2f2fd7fb5d086457", "is_disabled": 0, "rental_uris": {"ios": "https://dc.lft.to/lastmile_qr_scan", "android": "https://dc.lft.to/lastmile_qr_scan"}, "is_reserved": 0}, {"lon": -77.02706, "bike_id": "015a6a4da23d777e8a447850cd1c8445", "lat": 38.9066495, "fusion_lon": 0.0, "fusion_lat": 0.0, "type": "electric_scooter", "name": "015a6a4da23d777e8a447850cd1c8445", "is_disabled": 0, "rental_uris": {"ios": "https://dc.lft.to/lastmile_qr_scan", "android": "https://dc.lft.to/lastmile_qr_scan"}, "is_reserved": 0}, {"lon": -77.04144066666667, "bike_id": "6023324119c885420dc7aa12534059e6", "lat": 38.8991015, "fusion_lon": 0.0, "fusion_lat": 0.0, "type": "electric_scooter", "name": "6023324119c885420dc7aa12534059e6", "is_disabled": 0, "rental_uris": {"ios": "https://dc.lft.to/lastmile_qr_scan", "android": "https://dc.lft.to/lastmile_qr_scan"}, "is_reserved": 0}, {"lon": -77.02573716666667, "bike_id": "bd94249d7e071c852f0fa1412c19b6f9", "lat": 38.8922015, "fusion_lon": 0.0, "fusion_lat": 0.0, "type": "electric_scooter", "name": "bd94249d7e071c852f0fa1412c19b6f9", "is_disabled": 0, "rental_uris": {"ios": "https://dc.lft.to/lastmile_qr_scan", "android": "https://dc.lft.to/lastmile_qr_scan"}, "is_reserved": 0}, {"lon": -77.01781083333333, "bike_id": "25d58d835bd64bd0ea0ec1385df2e5d6", "lat": 38.89977833333333, "fusion_lon": 0.0, "fusion_lat": 0.0, "type": "electric_scooter", "name": "25d58d835bd64bd0ea0ec1385df2e5d6", "is_disabled": 0, "rental_uris": {"ios": "https://dc.lft.to/lastmile_qr_scan", "android": "https://dc.lft.to/lastmile_qr_scan"}, "is_reserved": 0}, {"lon": -77.0307845, "bike_id": "67a19839d652307c66db3d471573c825", "lat": 38.880347666666665, "fusion_lon": 0.0, "fusion_lat": 0.0, "type": "electric_scooter", "name": "67a19839d652307c66db3d471573c825", "is_disabled": 0, "rental_uris": {"ios": "https://dc.lft.to/lastmile_qr_scan", "android": "https://dc.lft.to/lastmile_qr_scan"}, "is_reserved": 0}, {"lon": -77.04283933333333, "bike_id": "8dc5c56420b44be7393aea7049d1ce54", "lat": 38.93411233333333, "fusion_lon": 0.0, "fusion_lat": 0.0, "type": "electric_scooter", "name": "8dc5c56420b44be7393aea7049d1ce54", "is_disabled": 0, "rental_uris": {"ios": "https://dc.lft.to/lastmile_qr_scan", "android": "https://dc.lft.to/lastmile_qr_scan"}, "is_reserved": 0}, {"lon": -77.000545, "bike_id": "cdc0035527d4f22efce3693b9c959da7", "lat": 38.908054166666666, "fusion_lon": 0.0, "fusion_lat": 0.0, "type": "electric_scooter", "name": "cdc0035527d4f22efce3693b9c959da7", "is_disabled": 0, "rental_uris": {"ios": "https://dc.lft.to/lastmile_qr_scan", "android": "https://dc.lft.to/lastmile_qr_scan"}, "is_reserved": 0}, {"lon": -77.032734, "bike_id": "1588bc799e9d8ac54f5edcc2fcecdc01", "lat": 38.9392155, "fusion_lon": 0.0, "fusion_lat": 0.0, "type": "electric_scooter", "name": "1588bc799e9d8ac54f5edcc2fcecdc01", "is_disabled": 0, "rental_uris": {"ios": "https://dc.lft.to/lastmile_qr_scan", "android": "https://dc.lft.to/lastmile_qr_scan"}, "is_reserved": 0}, {"lon": -77.00525183333333, "bike_id": "f8f9f6915128369e3ac0fda62a4a3bcc", "lat": 38.91479183333333, "fusion_lon": 0.0, "fusion_lat": 0.0, "type": "electric_bike", "name": "f8f9f6915128369e3ac0fda62a4a3bcc", "is_disabled": 0, "rental_uris": {"ios": "https://dc.lft.to/lastmile_qr_scan", "android": "https://dc.lft.to/lastmile_qr_scan"}, "is_reserved": 0}, {"lon": -77.0120995, "bike_id": "cce8cece2da9d8a7f16ddb9e7b50ce27", "lat": 38.885489666666665, "fusion_lon": 0.0, "fusion_lat": 0.0, "type": "electric_scooter", "name": "cce8cece2da9d8a7f16ddb9e7b50ce27", "is_disabled": 0, "rental_uris": {"ios": "https://dc.lft.to/lastmile_qr_scan", "android": "https://dc.lft.to/lastmile_qr_scan"}, "is_reserved": 0}, {"lon": -77.03140033333334, "bike_id": "c3521afad1ab034b2c7df48d71758c11", "lat": 38.929647833333334, "fusion_lon": 0.0, "fusion_lat": 0.0, "type": "electric_scooter", "name": "c3521afad1ab034b2c7df48d71758c11", "is_disabled": 0, "rental_uris": {"ios": "https://dc.lft.to/lastmile_qr_scan", "android": "https://dc.lft.to/lastmile_qr_scan"}, "is_reserved": 0}, {"lon": -76.988822, "bike_id": "c43f5e25902ed4aeb989ab1a4346f61c", "lat": 38.86660083333334, "fusion_lon": 0.0, "fusion_lat": 0.0, "type": "electric_scooter", "name": "c43f5e25902ed4aeb989ab1a4346f61c", "is_disabled": 0, "rental_uris": {"ios": "https://dc.lft.to/lastmile_qr_scan", "android": "https://dc.lft.to/lastmile_qr_scan"}, "is_reserved": 0}, {"lon": -77.03836, "bike_id": "b33e9294e542ef18e6fe5f5ddc08b83b", "lat": 38.90878033333333, "fusion_lon": 0.0, "fusion_lat": 0.0, "type": "electric_scooter", "name": "b33e9294e542ef18e6fe5f5ddc08b83b", "is_disabled": 0, "rental_uris": {"ios": "https://dc.lft.to/lastmile_qr_scan", "android": "https://dc.lft.to/lastmile_qr_scan"}, "is_reserved": 0}, {"lon": -77.00976916666667, "bike_id": "3c010ce669e3d2fda308409b19e04a15", "lat": 38.87068, "fusion_lon": 0.0, "fusion_lat": 0.0, "type": "electric_scooter", "name": "3c010ce669e3d2fda308409b19e04a15", "is_disabled": 0, "rental_uris": {"ios": "https://dc.lft.to/lastmile_qr_scan", "android": "https://dc.lft.to/lastmile_qr_scan"}, "is_reserved": 0}, {"lon": -76.921465, "bike_id": "d55446123e7101e4687fa38da19f8412", "lat": 38.891048, "fusion_lon": 0.0, "fusion_lat": 0.0, "type": "electric_scooter", "name": "d55446123e7101e4687fa38da19f8412", "is_disabled": 0, "rental_uris": {"ios": "https://dc.lft.to/lastmile_qr_scan", "android": "https://dc.lft.to/lastmile_qr_scan"}, "is_reserved": 0}, {"lon": -76.99506566666666, "bike_id": "dda509c6ae19f50689111e7cdeb51e69", "lat": 38.862483166666664, "fusion_lon": 0.0, "fusion_lat": 0.0, "type": "electric_scooter", "name": "dda509c6ae19f50689111e7cdeb51e69", "is_disabled": 0, "rental_uris": {"ios": "https://dc.lft.to/lastmile_qr_scan", "android": "https://dc.lft.to/lastmile_qr_scan"}, "is_reserved": 0}, {"lon": -77.00880933333333, "bike_id": "2a4f880fbe3333662b77a4c7f991a29c", "lat": 38.82532833333333, "fusion_lon": 0.0, "fusion_lat": 0.0, "type": "electric_scooter", "name": "2a4f880fbe3333662b77a4c7f991a29c", "is_disabled": 0, "rental_uris": {"ios": "https://dc.lft.to/lastmile_qr_scan", "android": "https://dc.lft.to/lastmile_qr_scan"}, "is_reserved": 0}, {"lon": -77.05563833333333, "bike_id": "b1cac2e68c70649f961ee214ee9b92e3", "lat": 38.930557, "fusion_lon": 0.0, "fusion_lat": 0.0, "type": "electric_scooter", "name": "b1cac2e68c70649f961ee214ee9b92e3", "is_disabled": 0, "rental_uris": {"ios": "https://dc.lft.to/lastmile_qr_scan", "android": "https://dc.lft.to/lastmile_qr_scan"}, "is_reserved": 0}, {"lon": -77.04486116666666, "bike_id": "0a34ad78d7e5a2692740684c882cf6a4", "lat": 38.9132915, "fusion_lon": 0.0, "fusion_lat": 0.0, "type": "electric_scooter", "name": "0a34ad78d7e5a2692740684c882cf6a4", "is_disabled": 0, "rental_uris": {"ios": "https://dc.lft.to/lastmile_qr_scan", "android": "https://dc.lft.to/lastmile_qr_scan"}, "is_reserved": 0}, {"lon": -76.9720915, "bike_id": "200c5fbb559a2fae4186e935eb2bd648", "lat": 38.892878333333336, "fusion_lon": 0.0, "fusion_lat": 0.0, "type": "electric_bike", "name": "200c5fbb559a2fae4186e935eb2bd648", "is_disabled": 0, "rental_uris": {"ios": "https://dc.lft.to/lastmile_qr_scan", "android": "https://dc.lft.to/lastmile_qr_scan"}, "is_reserved": 0}, {"lon": -76.98836616666667, "bike_id": "70f289c8cd3bbd15ee241735280fe421", "lat": 38.89668483333333, "fusion_lon": 0.0, "fusion_lat": 0.0, "type": "electric_scooter", "name": "70f289c8cd3bbd15ee241735280fe421", "is_disabled": 0, "rental_uris": {"ios": "https://dc.lft.to/lastmile_qr_scan", "android": "https://dc.lft.to/lastmile_qr_scan"}, "is_reserved": 0}, {"lon": -77.02214233333333, "bike_id": "a1a1de0e79e29641fa88c97bbbbe4cb1", "lat": 38.89349933333333, "fusion_lon": 0.0, "fusion_lat": 0.0, "type": "electric_scooter", "name": "a1a1de0e79e29641fa88c97bbbbe4cb1", "is_disabled": 0, "rental_uris": {"ios": "https://dc.lft.to/lastmile_qr_scan", "android": "https://dc.lft.to/lastmile_qr_scan"}, "is_reserved": 0}, {"lon": -77.0776765, "bike_id": "ec0a3f4c19426153ac12585a60f7d2e9", "lat": 38.957738166666665, "fusion_lon": 0.0, "fusion_lat": 0.0, "type": "electric_scooter", "name": "ec0a3f4c19426153ac12585a60f7d2e9", "is_disabled": 0, "rental_uris": {"ios": "https://dc.lft.to/lastmile_qr_scan", "android": "https://dc.lft.to/lastmile_qr_scan"}, "is_reserved": 0}, {"lon": -77.04866016666666, "bike_id": "c41bcdb6d55a3b40238cf5f992f70f75", "lat": 38.909553333333335, "fusion_lon": 0.0, "fusion_lat": 0.0, "type": "electric_scooter", "name": "c41bcdb6d55a3b40238cf5f992f70f75", "is_disabled": 0, "rental_uris": {"ios": "https://dc.lft.to/lastmile_qr_scan", "android": "https://dc.lft.to/lastmile_qr_scan"}, "is_reserved": 0}, {"lon": -77.13923933333334, "bike_id": "926f81142ddaaee2f51fbb4609883353", "lat": 38.87301816666667, "fusion_lon": 0.0, "fusion_lat": 0.0, "type": "electric_bike", "name": "926f81142ddaaee2f51fbb4609883353", "is_disabled": 0, "rental_uris": {"ios": "https://dc.lft.to/lastmile_qr_scan", "android": "https://dc.lft.to/lastmile_qr_scan"}, "is_reserved": 0}, {"lon": -77.0061415, "bike_id": "d72c20a91c152ff598321e4b0a78902d", "lat": 38.871785333333335, "fusion_lon": 0.0, "fusion_lat": 0.0, "type": "electric_scooter", "name": "d72c20a91c152ff598321e4b0a78902d", "is_disabled": 0, "rental_uris": {"ios": "https://dc.lft.to/lastmile_qr_scan", "android": "https://dc.lft.to/lastmile_qr_scan"}, "is_reserved": 0}, {"lon": -77.04481416666667, "bike_id": "910b8b41c9b372697889d57f59b9528c", "lat": 38.919437, "fusion_lon": 0.0, "fusion_lat": 0.0, "type": "electric_scooter", "name": "910b8b41c9b372697889d57f59b9528c", "is_disabled": 0, "rental_uris": {"ios": "https://dc.lft.to/lastmile_qr_scan", "android": "https://dc.lft.to/lastmile_qr_scan"}, "is_reserved": 0}, {"lon": -76.9865965, "bike_id": "24d98beb6e6e9c14e7b9bc673c392ab8", "lat": 38.9124915, "fusion_lon": 0.0, "fusion_lat": 0.0, "type": "electric_scooter", "name": "24d98beb6e6e9c14e7b9bc673c392ab8", "is_disabled": 0, "rental_uris": {"ios": "https://dc.lft.to/lastmile_qr_scan", "android": "https://dc.lft.to/lastmile_qr_scan"}, "is_reserved": 0}, {"lon": -77.04877033333334, "bike_id": "eaeb17ae9a1efb08f82c4e1183f8de02", "lat": 38.89235083333333, "fusion_lon": 0.0, "fusion_lat": 0.0, "type": "electric_scooter", "name": "eaeb17ae9a1efb08f82c4e1183f8de02", "is_disabled": 0, "rental_uris": {"ios": "https://dc.lft.to/lastmile_qr_scan", "android": "https://dc.lft.to/lastmile_qr_scan"}, "is_reserved": 0}, {"lon": -77.01627566666667, "bike_id": "55d54e03a7ac9886d4696c42001ec7eb", "lat": 38.906094333333336, "fusion_lon": 0.0, "fusion_lat": 0.0, "type": "electric_scooter", "name": "55d54e03a7ac9886d4696c42001ec7eb", "is_disabled": 0, "rental_uris": {"ios": "https://dc.lft.to/lastmile_qr_scan", "android": "https://dc.lft.to/lastmile_qr_scan"}, "is_reserved": 0}, {"lon": -77.0364625, "bike_id": "c0e3ab1e83bec507824cee96ad9a9a13", "lat": 38.903554666666665, "fusion_lon": 0.0, "fusion_lat": 0.0, "type": "electric_scooter", "name": "c0e3ab1e83bec507824cee96ad9a9a13", "is_disabled": 0, "rental_uris": {"ios": "https://dc.lft.to/lastmile_qr_scan", "android": "https://dc.lft.to/lastmile_qr_scan"}, "is_reserved": 0}, {"lon": -77.09497466666667, "bike_id": "af923364ec624a87c977b657d65a852e", "lat": 38.807605333333335, "fusion_lon": 0.0, "fusion_lat": 0.0, "type": "electric_bike", "name": "af923364ec624a87c977b657d65a852e", "is_disabled": 0, "rental_uris": {"ios": "https://dc.lft.to/lastmile_qr_scan", "android": "https://dc.lft.to/lastmile_qr_scan"}, "is_reserved": 0}, {"lon": -77.04162733333334, "bike_id": "ff0796d447946cb3a80f40c1cfc476d1", "lat": 38.91796033333333, "fusion_lon": 0.0, "fusion_lat": 0.0, "type": "electric_scooter", "name": "ff0796d447946cb3a80f40c1cfc476d1", "is_disabled": 0, "rental_uris": {"ios": "https://dc.lft.to/lastmile_qr_scan", "android": "https://dc.lft.to/lastmile_qr_scan"}, "is_reserved": 0}, {"lon": -76.98841733333333, "bike_id": "cd64d01f069704e8a14feae9e5b2793f", "lat": 38.9012245, "fusion_lon": 0.0, "fusion_lat": 0.0, "type": "electric_scooter", "name": "cd64d01f069704e8a14feae9e5b2793f", "is_disabled": 0, "rental_uris": {"ios": "https://dc.lft.to/lastmile_qr_scan", "android": "https://dc.lft.to/lastmile_qr_scan"}, "is_reserved": 0}, {"lon": -77.0238365, "bike_id": "e91f0fed04f3301780fd9e92d6f5b149", "lat": 38.907878333333336, "fusion_lon": 0.0, "fusion_lat": 0.0, "type": "electric_scooter", "name": "e91f0fed04f3301780fd9e92d6f5b149", "is_disabled": 0, "rental_uris": {"ios": "https://dc.lft.to/lastmile_qr_scan", "android": "https://dc.lft.to/lastmile_qr_scan"}, "is_reserved": 0}, {"lon": -77.02408166666666, "bike_id": "0f2a69fdeec9955c9cc25cd3117bad41", "lat": 38.9215255, "fusion_lon": 0.0, "fusion_lat": 0.0, "type": "electric_scooter", "name": "0f2a69fdeec9955c9cc25cd3117bad41", "is_disabled": 0, "rental_uris": {"ios": "https://dc.lft.to/lastmile_qr_scan", "android": "https://dc.lft.to/lastmile_qr_scan"}, "is_reserved": 0}, {"lon": -77.0160755, "bike_id": "e63e7d662acde2ffebdfa829c4712497", "lat": 38.90176533333333, "fusion_lon": 0.0, "fusion_lat": 0.0, "type": "electric_scooter", "name": "e63e7d662acde2ffebdfa829c4712497", "is_disabled": 0, "rental_uris": {"ios": "https://dc.lft.to/lastmile_qr_scan", "android": "https://dc.lft.to/lastmile_qr_scan"}, "is_reserved": 0}, {"lon": -77.04324033333333, "bike_id": "aa33b613662fceb841bd423e1e8c3e73", "lat": 38.91881166666667, "fusion_lon": 0.0, "fusion_lat": 0.0, "type": "electric_scooter", "name": "aa33b613662fceb841bd423e1e8c3e73", "is_disabled": 0, "rental_uris": {"ios": "https://dc.lft.to/lastmile_qr_scan", "android": "https://dc.lft.to/lastmile_qr_scan"}, "is_reserved": 0}, {"lon": -77.032484, "bike_id": "7f069f1e88a04adcaf5fdcffd62c575e", "lat": 38.928752833333334, "fusion_lon": 0.0, "fusion_lat": 0.0, "type": "electric_scooter", "name": "7f069f1e88a04adcaf5fdcffd62c575e", "is_disabled": 0, "rental_uris": {"ios": "https://dc.lft.to/lastmile_qr_scan", "android": "https://dc.lft.to/lastmile_qr_scan"}, "is_reserved": 0}, {"lon": -77.124957, "bike_id": "16e9ef5909641c72e34ff1d751c54bd9", "lat": 38.8278365, "fusion_lon": 0.0, "fusion_lat": 0.0, "type": "electric_bike", "name": "16e9ef5909641c72e34ff1d751c54bd9", "is_disabled": 0, "rental_uris": {"ios": "https://dc.lft.to/lastmile_qr_scan", "android": "https://dc.lft.to/lastmile_qr_scan"}, "is_reserved": 0}, {"lon": -76.985707, "bike_id": "cf4e2e4f9bef0d7f6c71222b3f36edae", "lat": 38.89953233333333, "fusion_lon": 0.0, "fusion_lat": 0.0, "type": "electric_scooter", "name": "cf4e2e4f9bef0d7f6c71222b3f36edae", "is_disabled": 0, "rental_uris": {"ios": "https://dc.lft.to/lastmile_qr_scan", "android": "https://dc.lft.to/lastmile_qr_scan"}, "is_reserved": 0}, {"lon": -77.027092, "bike_id": "4d76c95ad360f915eaf1c28797bfbc31", "lat": 38.9347225, "fusion_lon": 0.0, "fusion_lat": 0.0, "type": "electric_scooter", "name": "4d76c95ad360f915eaf1c28797bfbc31", "is_disabled": 0, "rental_uris": {"ios": "https://dc.lft.to/lastmile_qr_scan", "android": "https://dc.lft.to/lastmile_qr_scan"}, "is_reserved": 0}, {"lon": -77.02095516666667, "bike_id": "a6063b0d409f332ffb12760a49ef357a", "lat": 38.931071833333334, "fusion_lon": 0.0, "fusion_lat": 0.0, "type": "electric_scooter", "name": "a6063b0d409f332ffb12760a49ef357a", "is_disabled": 0, "rental_uris": {"ios": "https://dc.lft.to/lastmile_qr_scan", "android": "https://dc.lft.to/lastmile_qr_scan"}, "is_reserved": 0}, {"lon": -77.0641745, "bike_id": "84d1fa0aa447821aab89b3751205f15a", "lat": 38.908802666666666, "fusion_lon": 0.0, "fusion_lat": 0.0, "type": "electric_scooter", "name": "84d1fa0aa447821aab89b3751205f15a", "is_disabled": 0, "rental_uris": {"ios": "https://dc.lft.to/lastmile_qr_scan", "android": "https://dc.lft.to/lastmile_qr_scan"}, "is_reserved": 0}, {"lon": -77.02503816666666, "bike_id": "8b837c91651f60a470c4078f0baf2406", "lat": 38.91982383333333, "fusion_lon": 0.0, "fusion_lat": 0.0, "type": "electric_scooter", "name": "8b837c91651f60a470c4078f0baf2406", "is_disabled": 0, "rental_uris": {"ios": "https://dc.lft.to/lastmile_qr_scan", "android": "https://dc.lft.to/lastmile_qr_scan"}, "is_reserved": 0}, {"lon": -77.00332516666667, "bike_id": "4909dd4d203d8ebddc8f9f790f1881c9", "lat": 38.9059415, "fusion_lon": 0.0, "fusion_lat": 0.0, "type": "electric_scooter", "name": "4909dd4d203d8ebddc8f9f790f1881c9", "is_disabled": 0, "rental_uris": {"ios": "https://dc.lft.to/lastmile_qr_scan", "android": "https://dc.lft.to/lastmile_qr_scan"}, "is_reserved": 0}, {"lon": -77.0340695, "bike_id": "4ef9c2915bcb9ae3ad2cb86b38a969e1", "lat": 38.9602935, "fusion_lon": 0.0, "fusion_lat": 0.0, "type": "electric_bike", "name": "4ef9c2915bcb9ae3ad2cb86b38a969e1", "is_disabled": 0, "rental_uris": {"ios": "https://dc.lft.to/lastmile_qr_scan", "android": "https://dc.lft.to/lastmile_qr_scan"}, "is_reserved": 0}, {"lon": -77.00284466666666, "bike_id": "9bccf88f177bedb9ae1378b653735279", "lat": 38.95708416666667, "fusion_lon": 0.0, "fusion_lat": 0.0, "type": "electric_bike", "name": "9bccf88f177bedb9ae1378b653735279", "is_disabled": 0, "rental_uris": {"ios": "https://dc.lft.to/lastmile_qr_scan", "android": "https://dc.lft.to/lastmile_qr_scan"}, "is_reserved": 0}, {"lon": -76.998516, "bike_id": "631ce91a8475a1fb08d49231137697fd", "lat": 38.841600666666665, "fusion_lon": 0.0, "fusion_lat": 0.0, "type": "electric_scooter", "name": "631ce91a8475a1fb08d49231137697fd", "is_disabled": 0, "rental_uris": {"ios": "https://dc.lft.to/lastmile_qr_scan", "android": "https://dc.lft.to/lastmile_qr_scan"}, "is_reserved": 0}, {"lon": -77.03865316666666, "bike_id": "d0d83146eba556ec0d215e02ce315a26", "lat": 38.91173083333334, "fusion_lon": 0.0, "fusion_lat": 0.0, "type": "electric_scooter", "name": "d0d83146eba556ec0d215e02ce315a26", "is_disabled": 0, "rental_uris": {"ios": "https://dc.lft.to/lastmile_qr_scan", "android": "https://dc.lft.to/lastmile_qr_scan"}, "is_reserved": 0}, {"lon": -76.99682933333334, "bike_id": "fc6a2f75b542a88060a2289e801a434c", "lat": 38.8602065, "fusion_lon": 0.0, "fusion_lat": 0.0, "type": "electric_scooter", "name": "fc6a2f75b542a88060a2289e801a434c", "is_disabled": 0, "rental_uris": {"ios": "https://dc.lft.to/lastmile_qr_scan", "android": "https://dc.lft.to/lastmile_qr_scan"}, "is_reserved": 0}, {"lon": -77.01800366666667, "bike_id": "6efdddcf3c994f6fd1b0ecaabf7f1ea9", "lat": 38.97345466666667, "fusion_lon": 0.0, "fusion_lat": 0.0, "type": "electric_bike", "name": "6efdddcf3c994f6fd1b0ecaabf7f1ea9", "is_disabled": 0, "rental_uris": {"ios": "https://dc.lft.to/lastmile_qr_scan", "android": "https://dc.lft.to/lastmile_qr_scan"}, "is_reserved": 0}, {"lon": -77.072866, "bike_id": "f12a6916fb7e95e9d1e639450bb9dc95", "lat": 38.931928666666664, "fusion_lon": 0.0, "fusion_lat": 0.0, "type": "electric_scooter", "name": "f12a6916fb7e95e9d1e639450bb9dc95", "is_disabled": 0, "rental_uris": {"ios": "https://dc.lft.to/lastmile_qr_scan", "android": "https://dc.lft.to/lastmile_qr_scan"}, "is_reserved": 0}, {"lon": -77.03525566666667, "bike_id": "39b586be2c8427cda80c40009d0ce8cb", "lat": 38.91839216666666, "fusion_lon": 0.0, "fusion_lat": 0.0, "type": "electric_scooter", "name": "39b586be2c8427cda80c40009d0ce8cb", "is_disabled": 0, "rental_uris": {"ios": "https://dc.lft.to/lastmile_qr_scan", "android": "https://dc.lft.to/lastmile_qr_scan"}, "is_reserved": 0}, {"lon": -76.9752335, "bike_id": "30882199022f55b70cd9f7dc0b3b4735", "lat": 38.9669355, "fusion_lon": 0.0, "fusion_lat": 0.0, "type": "electric_bike", "name": "30882199022f55b70cd9f7dc0b3b4735", "is_disabled": 0, "rental_uris": {"ios": "https://dc.lft.to/lastmile_qr_scan", "android": "https://dc.lft.to/lastmile_qr_scan"}, "is_reserved": 0}, {"lon": -77.05058433333333, "bike_id": "abdd05461e2f9b8d6fc2a1410774d26d", "lat": 38.90703083333333, "fusion_lon": 0.0, "fusion_lat": 0.0, "type": "electric_scooter", "name": "abdd05461e2f9b8d6fc2a1410774d26d", "is_disabled": 0, "rental_uris": {"ios": "https://dc.lft.to/lastmile_qr_scan", "android": "https://dc.lft.to/lastmile_qr_scan"}, "is_reserved": 0}, {"lon": -77.02926683333334, "bike_id": "820134c9780d3f36f7f33afa22336b08", "lat": 38.904670833333334, "fusion_lon": 0.0, "fusion_lat": 0.0, "type": "electric_scooter", "name": "820134c9780d3f36f7f33afa22336b08", "is_disabled": 0, "rental_uris": {"ios": "https://dc.lft.to/lastmile_qr_scan", "android": "https://dc.lft.to/lastmile_qr_scan"}, "is_reserved": 0}, {"lon": -77.053128, "bike_id": "02c2d08665c679652ecb34850840f14e", "lat": 38.9007585, "fusion_lon": 0.0, "fusion_lat": 0.0, "type": "electric_scooter", "name": "02c2d08665c679652ecb34850840f14e", "is_disabled": 0, "rental_uris": {"ios": "https://dc.lft.to/lastmile_qr_scan", "android": "https://dc.lft.to/lastmile_qr_scan"}, "is_reserved": 0}, {"lon": -77.0238265, "bike_id": "e611525d1d41ba48ff6d6d3bcfee41eb", "lat": 38.89225716666667, "fusion_lon": 0.0, "fusion_lat": 0.0, "type": "electric_scooter", "name": "e611525d1d41ba48ff6d6d3bcfee41eb", "is_disabled": 0, "rental_uris": {"ios": "https://dc.lft.to/lastmile_qr_scan", "android": "https://dc.lft.to/lastmile_qr_scan"}, "is_reserved": 0}, {"lon": -77.02087316666666, "bike_id": "beda427d85df8e83b7a7b8f2575ac101", "lat": 38.95742333333333, "fusion_lon": 0.0, "fusion_lat": 0.0, "type": "electric_scooter", "name": "beda427d85df8e83b7a7b8f2575ac101", "is_disabled": 0, "rental_uris": {"ios": "https://dc.lft.to/lastmile_qr_scan", "android": "https://dc.lft.to/lastmile_qr_scan"}, "is_reserved": 0}, {"lon": -77.03389116666666, "bike_id": "db545317a8814812f708922edd8347fa", "lat": 38.909717, "fusion_lon": 0.0, "fusion_lat": 0.0, "type": "electric_scooter", "name": "db545317a8814812f708922edd8347fa", "is_disabled": 0, "rental_uris": {"ios": "https://dc.lft.to/lastmile_qr_scan", "android": "https://dc.lft.to/lastmile_qr_scan"}, "is_reserved": 0}, {"lon": -77.18566266666667, "bike_id": "9c6ff59e1f2a199a208ae7c346657b4e", "lat": 39.099756, "fusion_lon": 0.0, "fusion_lat": 0.0, "type": "electric_bike", "name": "9c6ff59e1f2a199a208ae7c346657b4e", "is_disabled": 0, "rental_uris": {"ios": "https://dc.lft.to/lastmile_qr_scan", "android": "https://dc.lft.to/lastmile_qr_scan"}, "is_reserved": 0}, {"lon": -76.97734766666667, "bike_id": "f4e773a8554c532613d038e2baad22eb", "lat": 38.86489133333333, "fusion_lon": 0.0, "fusion_lat": 0.0, "type": "electric_bike", "name": "f4e773a8554c532613d038e2baad22eb", "is_disabled": 0, "rental_uris": {"ios": "https://dc.lft.to/lastmile_qr_scan", "android": "https://dc.lft.to/lastmile_qr_scan"}, "is_reserved": 0}, {"lon": -77.03914816666666, "bike_id": "f88286843bc44e55fa28c1ee52c42d39", "lat": 38.91834566666667, "fusion_lon": 0.0, "fusion_lat": 0.0, "type": "electric_scooter", "name": "f88286843bc44e55fa28c1ee52c42d39", "is_disabled": 0, "rental_uris": {"ios": "https://dc.lft.to/lastmile_qr_scan", "android": "https://dc.lft.to/lastmile_qr_scan"}, "is_reserved": 0}, {"lon": -77.0071855, "bike_id": "0698c24e9fba2ec5c4003c73abf75f21", "lat": 38.9459805, "fusion_lon": 0.0, "fusion_lat": 0.0, "type": "electric_bike", "name": "0698c24e9fba2ec5c4003c73abf75f21", "is_disabled": 0, "rental_uris": {"ios": "https://dc.lft.to/lastmile_qr_scan", "android": "https://dc.lft.to/lastmile_qr_scan"}, "is_reserved": 0}, {"lon": -77.00658616666666, "bike_id": "6c1f0181ad0daecefe1c4bea5842691a", "lat": 38.94464683333333, "fusion_lon": 0.0, "fusion_lat": 0.0, "type": "electric_scooter", "name": "6c1f0181ad0daecefe1c4bea5842691a", "is_disabled": 0, "rental_uris": {"ios": "https://dc.lft.to/lastmile_qr_scan", "android": "https://dc.lft.to/lastmile_qr_scan"}, "is_reserved": 0}, {"lon": -76.96262933333334, "bike_id": "0f6238390e3e110de90c93f3e3064d18", "lat": 38.882437833333334, "fusion_lon": 0.0, "fusion_lat": 0.0, "type": "electric_bike", "name": "0f6238390e3e110de90c93f3e3064d18", "is_disabled": 0, "rental_uris": {"ios": "https://dc.lft.to/lastmile_qr_scan", "android": "https://dc.lft.to/lastmile_qr_scan"}, "is_reserved": 0}, {"lon": -77.034414, "bike_id": "574a7e26ff017e739ab8a2991c5476fa", "lat": 38.91003533333333, "fusion_lon": 0.0, "fusion_lat": 0.0, "type": "electric_scooter", "name": "574a7e26ff017e739ab8a2991c5476fa", "is_disabled": 0, "rental_uris": {"ios": "https://dc.lft.to/lastmile_qr_scan", "android": "https://dc.lft.to/lastmile_qr_scan"}, "is_reserved": 0}, {"lon": -76.9835345, "bike_id": "51382b84c7456d20d78add3a39f95835", "lat": 38.89207716666667, "fusion_lon": 0.0, "fusion_lat": 0.0, "type": "electric_bike", "name": "51382b84c7456d20d78add3a39f95835", "is_disabled": 0, "rental_uris": {"ios": "https://dc.lft.to/lastmile_qr_scan", "android": "https://dc.lft.to/lastmile_qr_scan"}, "is_reserved": 0}, {"lon": -77.03178, "bike_id": "794c232ce7e017246be5405c87ece993", "lat": 38.93599316666667, "fusion_lon": 0.0, "fusion_lat": 0.0, "type": "electric_scooter", "name": "794c232ce7e017246be5405c87ece993", "is_disabled": 0, "rental_uris": {"ios": "https://dc.lft.to/lastmile_qr_scan", "android": "https://dc.lft.to/lastmile_qr_scan"}, "is_reserved": 0}, {"lon": -77.04561533333333, "bike_id": "f6d902f7abf06bd288f08a6c436901e9", "lat": 38.915965666666665, "fusion_lon": 0.0, "fusion_lat": 0.0, "type": "electric_scooter", "name": "f6d902f7abf06bd288f08a6c436901e9", "is_disabled": 0, "rental_uris": {"ios": "https://dc.lft.to/lastmile_qr_scan", "android": "https://dc.lft.to/lastmile_qr_scan"}, "is_reserved": 0}, {"lon": -77.02165, "bike_id": "84b073ec1b745bc79d8e5ed404712399", "lat": 38.926128166666665, "fusion_lon": 0.0, "fusion_lat": 0.0, "type": "electric_scooter", "name": "84b073ec1b745bc79d8e5ed404712399", "is_disabled": 0, "rental_uris": {"ios": "https://dc.lft.to/lastmile_qr_scan", "android": "https://dc.lft.to/lastmile_qr_scan"}, "is_reserved": 0}, {"lon": -77.008455, "bike_id": "7ec23478bec70fdc3399fb47b6f0df9e", "lat": 38.879032, "fusion_lon": 0.0, "fusion_lat": 0.0, "type": "electric_scooter", "name": "7ec23478bec70fdc3399fb47b6f0df9e", "is_disabled": 0, "rental_uris": {"ios": "https://dc.lft.to/lastmile_qr_scan", "android": "https://dc.lft.to/lastmile_qr_scan"}, "is_reserved": 0}, {"lon": -77.048757, "bike_id": "4aae429323ab2c4ac2fe9d09ac50e53c", "lat": 38.898406, "fusion_lon": 0.0, "fusion_lat": 0.0, "type": "electric_scooter", "name": "4aae429323ab2c4ac2fe9d09ac50e53c", "is_disabled": 0, "rental_uris": {"ios": "https://dc.lft.to/lastmile_qr_scan", "android": "https://dc.lft.to/lastmile_qr_scan"}, "is_reserved": 0}, {"lon": -77.02447333333333, "bike_id": "893f3f3390251bee921159e0598a3eef", "lat": 38.91409983333333, "fusion_lon": 0.0, "fusion_lat": 0.0, "type": "electric_scooter", "name": "893f3f3390251bee921159e0598a3eef", "is_disabled": 0, "rental_uris": {"ios": "https://dc.lft.to/lastmile_qr_scan", "android": "https://dc.lft.to/lastmile_qr_scan"}, "is_reserved": 0}, {"lon": -77.05998316666667, "bike_id": "7eaa9a974fbfd7f0800397326328b86e", "lat": 38.90236316666667, "fusion_lon": 0.0, "fusion_lat": 0.0, "type": "electric_scooter", "name": "7eaa9a974fbfd7f0800397326328b86e", "is_disabled": 0, "rental_uris": {"ios": "https://dc.lft.to/lastmile_qr_scan", "android": "https://dc.lft.to/lastmile_qr_scan"}, "is_reserved": 0}, {"lon": -77.03921, "bike_id": "f162b2682b396f25040f2b51b280c114", "lat": 38.923165833333336, "fusion_lon": 0.0, "fusion_lat": 0.0, "type": "electric_scooter", "name": "f162b2682b396f25040f2b51b280c114", "is_disabled": 0, "rental_uris": {"ios": "https://dc.lft.to/lastmile_qr_scan", "android": "https://dc.lft.to/lastmile_qr_scan"}, "is_reserved": 0}, {"lon": -77.01584983333333, "bike_id": "cc05999776f8402b6a29d891183ea11b", "lat": 38.90329083333334, "fusion_lon": 0.0, "fusion_lat": 0.0, "type": "electric_scooter", "name": "cc05999776f8402b6a29d891183ea11b", "is_disabled": 0, "rental_uris": {"ios": "https://dc.lft.to/lastmile_qr_scan", "android": "https://dc.lft.to/lastmile_qr_scan"}, "is_reserved": 0}, {"lon": -77.02388783333333, "bike_id": "16b40e52e1deb1fea4149b7ae6cda1f7", "lat": 38.919894166666666, "fusion_lon": 0.0, "fusion_lat": 0.0, "type": "electric_scooter", "name": "16b40e52e1deb1fea4149b7ae6cda1f7", "is_disabled": 0, "rental_uris": {"ios": "https://dc.lft.to/lastmile_qr_scan", "android": "https://dc.lft.to/lastmile_qr_scan"}, "is_reserved": 0}, {"lon": -77.02961316666666, "bike_id": "e00d6ede6e8e8f9c23868887118cde47", "lat": 38.9238635, "fusion_lon": 0.0, "fusion_lat": 0.0, "type": "electric_scooter", "name": "e00d6ede6e8e8f9c23868887118cde47", "is_disabled": 0, "rental_uris": {"ios": "https://dc.lft.to/lastmile_qr_scan", "android": "https://dc.lft.to/lastmile_qr_scan"}, "is_reserved": 0}, {"lon": -77.04617333333333, "bike_id": "3edde27949dff46f88decf4b61836387", "lat": 38.915749, "fusion_lon": 0.0, "fusion_lat": 0.0, "type": "electric_scooter", "name": "3edde27949dff46f88decf4b61836387", "is_disabled": 0, "rental_uris": {"ios": "https://dc.lft.to/lastmile_qr_scan", "android": "https://dc.lft.to/lastmile_qr_scan"}, "is_reserved": 0}, {"lon": -77.02122633333333, "bike_id": "56f829a30760b54b2ee74f8dc1511fc3", "lat": 38.93700883333333, "fusion_lon": 0.0, "fusion_lat": 0.0, "type": "electric_scooter", "name": "56f829a30760b54b2ee74f8dc1511fc3", "is_disabled": 0, "rental_uris": {"ios": "https://dc.lft.to/lastmile_qr_scan", "android": "https://dc.lft.to/lastmile_qr_scan"}, "is_reserved": 0}, {"lon": -76.97245016666666, "bike_id": "a6d9677f977fe5a239faad6ee5879d80", "lat": 38.903517666666666, "fusion_lon": 0.0, "fusion_lat": 0.0, "type": "electric_scooter", "name": "a6d9677f977fe5a239faad6ee5879d80", "is_disabled": 0, "rental_uris": {"ios": "https://dc.lft.to/lastmile_qr_scan", "android": "https://dc.lft.to/lastmile_qr_scan"}, "is_reserved": 0}, {"lon": -77.0759205, "bike_id": "93dc10b02f70add80a880441d4872230", "lat": 38.912171, "fusion_lon": 0.0, "fusion_lat": 0.0, "type": "electric_scooter", "name": "93dc10b02f70add80a880441d4872230", "is_disabled": 0, "rental_uris": {"ios": "https://dc.lft.to/lastmile_qr_scan", "android": "https://dc.lft.to/lastmile_qr_scan"}, "is_reserved": 0}, {"lon": -77.04164083333333, "bike_id": "00db01aec93b6dd60d76e56fee47cbb7", "lat": 38.91249083333334, "fusion_lon": 0.0, "fusion_lat": 0.0, "type": "electric_scooter", "name": "00db01aec93b6dd60d76e56fee47cbb7", "is_disabled": 0, "rental_uris": {"ios": "https://dc.lft.to/lastmile_qr_scan", "android": "https://dc.lft.to/lastmile_qr_scan"}, "is_reserved": 0}, {"lon": -77.02804916666666, "bike_id": "dc356fb3c5dfbeb2cf21030bf67574d8", "lat": 38.9142055, "fusion_lon": 0.0, "fusion_lat": 0.0, "type": "electric_scooter", "name": "dc356fb3c5dfbeb2cf21030bf67574d8", "is_disabled": 0, "rental_uris": {"ios": "https://dc.lft.to/lastmile_qr_scan", "android": "https://dc.lft.to/lastmile_qr_scan"}, "is_reserved": 0}, {"lon": -77.04101466666667, "bike_id": "f75110ce7398f18acc84ef5e9d9a2205", "lat": 38.9171635, "fusion_lon": 0.0, "fusion_lat": 0.0, "type": "electric_scooter", "name": "f75110ce7398f18acc84ef5e9d9a2205", "is_disabled": 0, "rental_uris": {"ios": "https://dc.lft.to/lastmile_qr_scan", "android": "https://dc.lft.to/lastmile_qr_scan"}, "is_reserved": 0}, {"lon": -76.994633, "bike_id": "830b067d799afff676c1d79a645dbe6d", "lat": 38.90365283333333, "fusion_lon": 0.0, "fusion_lat": 0.0, "type": "electric_scooter", "name": "830b067d799afff676c1d79a645dbe6d", "is_disabled": 0, "rental_uris": {"ios": "https://dc.lft.to/lastmile_qr_scan", "android": "https://dc.lft.to/lastmile_qr_scan"}, "is_reserved": 0}, {"lon": -77.02306133333333, "bike_id": "e486f0e46dd441decb36e81355cf82f2", "lat": 38.942048166666666, "fusion_lon": 0.0, "fusion_lat": 0.0, "type": "electric_scooter", "name": "e486f0e46dd441decb36e81355cf82f2", "is_disabled": 0, "rental_uris": {"ios": "https://dc.lft.to/lastmile_qr_scan", "android": "https://dc.lft.to/lastmile_qr_scan"}, "is_reserved": 0}, {"lon": -77.07239133333333, "bike_id": "24d489131af25219e171d86ba0f7b510", "lat": 38.89890466666667, "fusion_lon": 0.0, "fusion_lat": 0.0, "type": "electric_scooter", "name": "24d489131af25219e171d86ba0f7b510", "is_disabled": 0, "rental_uris": {"ios": "https://dc.lft.to/lastmile_qr_scan", "android": "https://dc.lft.to/lastmile_qr_scan"}, "is_reserved": 0}, {"lon": -77.03220483333334, "bike_id": "1bddc26d07af6c223a2548791e6be914", "lat": 38.89218233333333, "fusion_lon": 0.0, "fusion_lat": 0.0, "type": "electric_scooter", "name": "1bddc26d07af6c223a2548791e6be914", "is_disabled": 0, "rental_uris": {"ios": "https://dc.lft.to/lastmile_qr_scan", "android": "https://dc.lft.to/lastmile_qr_scan"}, "is_reserved": 0}, {"lon": -77.04809966666667, "bike_id": "d3c13fa69330abd0b2c5cc0e7b952172", "lat": 38.89731183333333, "fusion_lon": 0.0, "fusion_lat": 0.0, "type": "electric_scooter", "name": "d3c13fa69330abd0b2c5cc0e7b952172", "is_disabled": 0, "rental_uris": {"ios": "https://dc.lft.to/lastmile_qr_scan", "android": "https://dc.lft.to/lastmile_qr_scan"}, "is_reserved": 0}, {"lon": -77.0491885, "bike_id": "445dc34af4d6b08821bd143054e45134", "lat": 38.90856816666667, "fusion_lon": 0.0, "fusion_lat": 0.0, "type": "electric_scooter", "name": "445dc34af4d6b08821bd143054e45134", "is_disabled": 0, "rental_uris": {"ios": "https://dc.lft.to/lastmile_qr_scan", "android": "https://dc.lft.to/lastmile_qr_scan"}, "is_reserved": 0}, {"lon": -77.0269365, "bike_id": "e2f6e15eb6c4e7d13d523c8d145d7038", "lat": 38.90843683333333, "fusion_lon": 0.0, "fusion_lat": 0.0, "type": "electric_scooter", "name": "e2f6e15eb6c4e7d13d523c8d145d7038", "is_disabled": 0, "rental_uris": {"ios": "https://dc.lft.to/lastmile_qr_scan", "android": "https://dc.lft.to/lastmile_qr_scan"}, "is_reserved": 0}, {"lon": -76.98844716666666, "bike_id": "4136767dbf58d9243125496a36d13cb9", "lat": 38.84278333333334, "fusion_lon": 0.0, "fusion_lat": 0.0, "type": "electric_bike", "name": "4136767dbf58d9243125496a36d13cb9", "is_disabled": 0, "rental_uris": {"ios": "https://dc.lft.to/lastmile_qr_scan", "android": "https://dc.lft.to/lastmile_qr_scan"}, "is_reserved": 0}, {"lon": -77.0391545, "bike_id": "3b51a117daa313a8be3e54a13b072e80", "lat": 38.91827966666666, "fusion_lon": 0.0, "fusion_lat": 0.0, "type": "electric_scooter", "name": "3b51a117daa313a8be3e54a13b072e80", "is_disabled": 0, "rental_uris": {"ios": "https://dc.lft.to/lastmile_qr_scan", "android": "https://dc.lft.to/lastmile_qr_scan"}, "is_reserved": 0}, {"lon": -76.97331583333333, "bike_id": "d885564f2cb3dcea438e4d224d2ad092", "lat": 38.865103500000004, "fusion_lon": 0.0, "fusion_lat": 0.0, "type": "electric_bike", "name": "d885564f2cb3dcea438e4d224d2ad092", "is_disabled": 0, "rental_uris": {"ios": "https://dc.lft.to/lastmile_qr_scan", "android": "https://dc.lft.to/lastmile_qr_scan"}, "is_reserved": 0}, {"lon": -76.9808625, "bike_id": "0be3d36d5dc1e403e90073eef5c9df39", "lat": 38.88425633333333, "fusion_lon": 0.0, "fusion_lat": 0.0, "type": "electric_scooter", "name": "0be3d36d5dc1e403e90073eef5c9df39", "is_disabled": 0, "rental_uris": {"ios": "https://dc.lft.to/lastmile_qr_scan", "android": "https://dc.lft.to/lastmile_qr_scan"}, "is_reserved": 0}, {"lon": -76.98557466666666, "bike_id": "89820775a1098f7a3f95a4b66745e036", "lat": 38.909145333333335, "fusion_lon": 0.0, "fusion_lat": 0.0, "type": "electric_scooter", "name": "89820775a1098f7a3f95a4b66745e036", "is_disabled": 0, "rental_uris": {"ios": "https://dc.lft.to/lastmile_qr_scan", "android": "https://dc.lft.to/lastmile_qr_scan"}, "is_reserved": 0}, {"lon": -77.03644133333333, "bike_id": "5b6ef7804d30445b0e406163aded2527", "lat": 38.91220533333333, "fusion_lon": 0.0, "fusion_lat": 0.0, "type": "electric_scooter", "name": "5b6ef7804d30445b0e406163aded2527", "is_disabled": 0, "rental_uris": {"ios": "https://dc.lft.to/lastmile_qr_scan", "android": "https://dc.lft.to/lastmile_qr_scan"}, "is_reserved": 0}, {"lon": -77.032237, "bike_id": "64953ea2a6732c655ff1f90f5bb1b4a7", "lat": 38.8921595, "fusion_lon": 0.0, "fusion_lat": 0.0, "type": "electric_scooter", "name": "64953ea2a6732c655ff1f90f5bb1b4a7", "is_disabled": 0, "rental_uris": {"ios": "https://dc.lft.to/lastmile_qr_scan", "android": "https://dc.lft.to/lastmile_qr_scan"}, "is_reserved": 0}, {"lon": -77.0319605, "bike_id": "7ba672bdaa8016404325b828c28e3989", "lat": 38.92868633333333, "fusion_lon": 0.0, "fusion_lat": 0.0, "type": "electric_scooter", "name": "7ba672bdaa8016404325b828c28e3989", "is_disabled": 0, "rental_uris": {"ios": "https://dc.lft.to/lastmile_qr_scan", "android": "https://dc.lft.to/lastmile_qr_scan"}, "is_reserved": 0}, {"lon": -77.05865866666667, "bike_id": "871332993e6047bd2b06df8755c7a299", "lat": 38.936018833333335, "fusion_lon": 0.0, "fusion_lat": 0.0, "type": "electric_scooter", "name": "871332993e6047bd2b06df8755c7a299", "is_disabled": 0, "rental_uris": {"ios": "https://dc.lft.to/lastmile_qr_scan", "android": "https://dc.lft.to/lastmile_qr_scan"}, "is_reserved": 0}, {"lon": -77.03200766666667, "bike_id": "835cdcc15719f96bc8621083b970220a", "lat": 38.91964883333333, "fusion_lon": 0.0, "fusion_lat": 0.0, "type": "electric_scooter", "name": "835cdcc15719f96bc8621083b970220a", "is_disabled": 0, "rental_uris": {"ios": "https://dc.lft.to/lastmile_qr_scan", "android": "https://dc.lft.to/lastmile_qr_scan"}, "is_reserved": 0}, {"lon": -77.03638266666667, "bike_id": "62f423ffe1a9c3f24d8f1ffa5ce88b0d", "lat": 38.91764533333333, "fusion_lon": 0.0, "fusion_lat": 0.0, "type": "electric_scooter", "name": "62f423ffe1a9c3f24d8f1ffa5ce88b0d", "is_disabled": 0, "rental_uris": {"ios": "https://dc.lft.to/lastmile_qr_scan", "android": "https://dc.lft.to/lastmile_qr_scan"}, "is_reserved": 0}, {"lon": -76.98458916666667, "bike_id": "5471bcb0a154460337f71f4b3118ff3e", "lat": 38.90553966666667, "fusion_lon": 0.0, "fusion_lat": 0.0, "type": "electric_scooter", "name": "5471bcb0a154460337f71f4b3118ff3e", "is_disabled": 0, "rental_uris": {"ios": "https://dc.lft.to/lastmile_qr_scan", "android": "https://dc.lft.to/lastmile_qr_scan"}, "is_reserved": 0}, {"lon": -77.00346416666666, "bike_id": "d92b38146c336e3eb77368088a803e11", "lat": 38.91624816666667, "fusion_lon": 0.0, "fusion_lat": 0.0, "type": "electric_scooter", "name": "d92b38146c336e3eb77368088a803e11", "is_disabled": 0, "rental_uris": {"ios": "https://dc.lft.to/lastmile_qr_scan", "android": "https://dc.lft.to/lastmile_qr_scan"}, "is_reserved": 0}, {"lon": -76.99175616666666, "bike_id": "0501dee1e86ba98ff8488df6fd976186", "lat": 38.8899075, "fusion_lon": 0.0, "fusion_lat": 0.0, "type": "electric_scooter", "name": "0501dee1e86ba98ff8488df6fd976186", "is_disabled": 0, "rental_uris": {"ios": "https://dc.lft.to/lastmile_qr_scan", "android": "https://dc.lft.to/lastmile_qr_scan"}, "is_reserved": 0}, {"lon": -77.02429433333333, "bike_id": "1274e7996c628ab9c4d4e404977e2dc8", "lat": 38.92351566666667, "fusion_lon": 0.0, "fusion_lat": 0.0, "type": "electric_scooter", "name": "1274e7996c628ab9c4d4e404977e2dc8", "is_disabled": 0, "rental_uris": {"ios": "https://dc.lft.to/lastmile_qr_scan", "android": "https://dc.lft.to/lastmile_qr_scan"}, "is_reserved": 0}, {"lon": -77.050623, "bike_id": "c67dfb077bb71c853954940ba406e856", "lat": 38.925833, "fusion_lon": 0.0, "fusion_lat": 0.0, "type": "electric_scooter", "name": "c67dfb077bb71c853954940ba406e856", "is_disabled": 0, "rental_uris": {"ios": "https://dc.lft.to/lastmile_qr_scan", "android": "https://dc.lft.to/lastmile_qr_scan"}, "is_reserved": 0}, {"lon": -77.03760233333334, "bike_id": "84891d4ebb5cfef437cbd1e01236d360", "lat": 38.928771833333336, "fusion_lon": 0.0, "fusion_lat": 0.0, "type": "electric_scooter", "name": "84891d4ebb5cfef437cbd1e01236d360", "is_disabled": 0, "rental_uris": {"ios": "https://dc.lft.to/lastmile_qr_scan", "android": "https://dc.lft.to/lastmile_qr_scan"}, "is_reserved": 0}, {"lon": -77.02186083333333, "bike_id": "22f30e21c1d24424d5714771ad9f3239", "lat": 38.909465, "fusion_lon": 0.0, "fusion_lat": 0.0, "type": "electric_scooter", "name": "22f30e21c1d24424d5714771ad9f3239", "is_disabled": 0, "rental_uris": {"ios": "https://dc.lft.to/lastmile_qr_scan", "android": "https://dc.lft.to/lastmile_qr_scan"}, "is_reserved": 0}, {"lon": -77.02403516666666, "bike_id": "c3072f31004e8138ad51a098d4240da6", "lat": 38.882852666666665, "fusion_lon": 0.0, "fusion_lat": 0.0, "type": "electric_scooter", "name": "c3072f31004e8138ad51a098d4240da6", "is_disabled": 0, "rental_uris": {"ios": "https://dc.lft.to/lastmile_qr_scan", "android": "https://dc.lft.to/lastmile_qr_scan"}, "is_reserved": 0}, {"lon": -77.059519, "bike_id": "a613781e6a54f3c028d5f4b0eed3cc37", "lat": 38.918395, "fusion_lon": 0.0, "fusion_lat": 0.0, "type": "electric_scooter", "name": "a613781e6a54f3c028d5f4b0eed3cc37", "is_disabled": 0, "rental_uris": {"ios": "https://dc.lft.to/lastmile_qr_scan", "android": "https://dc.lft.to/lastmile_qr_scan"}, "is_reserved": 0}, {"lon": -77.03659416666666, "bike_id": "a75ba9ff86c19037e12cb02f0f24a989", "lat": 38.9180895, "fusion_lon": 0.0, "fusion_lat": 0.0, "type": "electric_scooter", "name": "a75ba9ff86c19037e12cb02f0f24a989", "is_disabled": 0, "rental_uris": {"ios": "https://dc.lft.to/lastmile_qr_scan", "android": "https://dc.lft.to/lastmile_qr_scan"}, "is_reserved": 0}, {"lon": -77.03680266666667, "bike_id": "a324d2c04f86d69385fbc98c3212b52e", "lat": 38.90828483333333, "fusion_lon": 0.0, "fusion_lat": 0.0, "type": "electric_scooter", "name": "a324d2c04f86d69385fbc98c3212b52e", "is_disabled": 0, "rental_uris": {"ios": "https://dc.lft.to/lastmile_qr_scan", "android": "https://dc.lft.to/lastmile_qr_scan"}, "is_reserved": 0}, {"lon": -77.02300933333333, "bike_id": "ae1d2b4a6fd6bde21c10268b7c4c2058", "lat": 38.903039166666666, "fusion_lon": 0.0, "fusion_lat": 0.0, "type": "electric_scooter", "name": "ae1d2b4a6fd6bde21c10268b7c4c2058", "is_disabled": 0, "rental_uris": {"ios": "https://dc.lft.to/lastmile_qr_scan", "android": "https://dc.lft.to/lastmile_qr_scan"}, "is_reserved": 0}, {"lon": -77.01724033333333, "bike_id": "1f2750b0877f55d036cc0542af0f9fe3", "lat": 38.9056345, "fusion_lon": 0.0, "fusion_lat": 0.0, "type": "electric_scooter", "name": "1f2750b0877f55d036cc0542af0f9fe3", "is_disabled": 0, "rental_uris": {"ios": "https://dc.lft.to/lastmile_qr_scan", "android": "https://dc.lft.to/lastmile_qr_scan"}, "is_reserved": 0}, {"lon": -77.03584, "bike_id": "2e4b36e112079465a235eaa9a3d7ddde", "lat": 38.99226733333333, "fusion_lon": 0.0, "fusion_lat": 0.0, "type": "electric_scooter", "name": "2e4b36e112079465a235eaa9a3d7ddde", "is_disabled": 0, "rental_uris": {"ios": "https://dc.lft.to/lastmile_qr_scan", "android": "https://dc.lft.to/lastmile_qr_scan"}, "is_reserved": 0}, {"lon": -77.03525983333333, "bike_id": "cc090701e75a793fc53308e9d63a7e6c", "lat": 38.92730866666667, "fusion_lon": 0.0, "fusion_lat": 0.0, "type": "electric_scooter", "name": "cc090701e75a793fc53308e9d63a7e6c", "is_disabled": 0, "rental_uris": {"ios": "https://dc.lft.to/lastmile_qr_scan", "android": "https://dc.lft.to/lastmile_qr_scan"}, "is_reserved": 0}, {"lon": -77.02510483333333, "bike_id": "07c7a06d34ae0dedfa2b629d9a13489d", "lat": 38.90424133333333, "fusion_lon": 0.0, "fusion_lat": 0.0, "type": "electric_scooter", "name": "07c7a06d34ae0dedfa2b629d9a13489d", "is_disabled": 0, "rental_uris": {"ios": "https://dc.lft.to/lastmile_qr_scan", "android": "https://dc.lft.to/lastmile_qr_scan"}, "is_reserved": 0}, {"lon": -77.009327, "bike_id": "7110d2294039e8913937606391b251b1", "lat": 38.899730166666664, "fusion_lon": 0.0, "fusion_lat": 0.0, "type": "electric_scooter", "name": "7110d2294039e8913937606391b251b1", "is_disabled": 0, "rental_uris": {"ios": "https://dc.lft.to/lastmile_qr_scan", "android": "https://dc.lft.to/lastmile_qr_scan"}, "is_reserved": 0}, {"lon": -77.03329416666666, "bike_id": "04a2d29cef77966cdc50854acf2081e3", "lat": 38.921644, "fusion_lon": 0.0, "fusion_lat": 0.0, "type": "electric_scooter", "name": "04a2d29cef77966cdc50854acf2081e3", "is_disabled": 0, "rental_uris": {"ios": "https://dc.lft.to/lastmile_qr_scan", "android": "https://dc.lft.to/lastmile_qr_scan"}, "is_reserved": 0}, {"lon": -77.08335816666667, "bike_id": "df819332766d9df78da0f6bd195c11d7", "lat": 38.854388, "fusion_lon": 0.0, "fusion_lat": 0.0, "type": "electric_bike", "name": "df819332766d9df78da0f6bd195c11d7", "is_disabled": 0, "rental_uris": {"ios": "https://dc.lft.to/lastmile_qr_scan", "android": "https://dc.lft.to/lastmile_qr_scan"}, "is_reserved": 0}, {"lon": -77.04176566666666, "bike_id": "7e439e093536b7e4fb09900c51e31f14", "lat": 38.91395166666667, "fusion_lon": 0.0, "fusion_lat": 0.0, "type": "electric_scooter", "name": "7e439e093536b7e4fb09900c51e31f14", "is_disabled": 0, "rental_uris": {"ios": "https://dc.lft.to/lastmile_qr_scan", "android": "https://dc.lft.to/lastmile_qr_scan"}, "is_reserved": 0}, {"lon": -77.0386845, "bike_id": "4ebe015bbc6e6f816b893ffd50d029bb", "lat": 38.912616166666666, "fusion_lon": 0.0, "fusion_lat": 0.0, "type": "electric_scooter", "name": "4ebe015bbc6e6f816b893ffd50d029bb", "is_disabled": 0, "rental_uris": {"ios": "https://dc.lft.to/lastmile_qr_scan", "android": "https://dc.lft.to/lastmile_qr_scan"}, "is_reserved": 0}, {"lon": -77.02289883333333, "bike_id": "5036e9a3506451d49d4947afac9e19e3", "lat": 38.908788, "fusion_lon": 0.0, "fusion_lat": 0.0, "type": "electric_scooter", "name": "5036e9a3506451d49d4947afac9e19e3", "is_disabled": 0, "rental_uris": {"ios": "https://dc.lft.to/lastmile_qr_scan", "android": "https://dc.lft.to/lastmile_qr_scan"}, "is_reserved": 0}, {"lon": -76.9782955, "bike_id": "017743f5861761547cd2287abb07b58e", "lat": 38.843699666666666, "fusion_lon": 0.0, "fusion_lat": 0.0, "type": "electric_bike", "name": "017743f5861761547cd2287abb07b58e", "is_disabled": 0, "rental_uris": {"ios": "https://dc.lft.to/lastmile_qr_scan", "android": "https://dc.lft.to/lastmile_qr_scan"}, "is_reserved": 0}, {"lon": -77.043727, "bike_id": "e1905fef6b1971f84971c7f5ede9484e", "lat": 38.918753, "fusion_lon": 0.0, "fusion_lat": 0.0, "type": "electric_scooter", "name": "e1905fef6b1971f84971c7f5ede9484e", "is_disabled": 0, "rental_uris": {"ios": "https://dc.lft.to/lastmile_qr_scan", "android": "https://dc.lft.to/lastmile_qr_scan"}, "is_reserved": 0}, {"lon": -77.03186283333334, "bike_id": "1bc5c50dcbd4511198a94719db3bf8b1", "lat": 38.917442666666666, "fusion_lon": 0.0, "fusion_lat": 0.0, "type": "electric_scooter", "name": "1bc5c50dcbd4511198a94719db3bf8b1", "is_disabled": 0, "rental_uris": {"ios": "https://dc.lft.to/lastmile_qr_scan", "android": "https://dc.lft.to/lastmile_qr_scan"}, "is_reserved": 0}, {"lon": -77.03286933333334, "bike_id": "1d1d8a0d2d1d22a61260781d826c2401", "lat": 38.92743566666667, "fusion_lon": 0.0, "fusion_lat": 0.0, "type": "electric_scooter", "name": "1d1d8a0d2d1d22a61260781d826c2401", "is_disabled": 0, "rental_uris": {"ios": "https://dc.lft.to/lastmile_qr_scan", "android": "https://dc.lft.to/lastmile_qr_scan"}, "is_reserved": 0}, {"lon": -77.00076116666666, "bike_id": "ab761dfc2097f10fee067ccfa20ebaab", "lat": 38.899918666666665, "fusion_lon": 0.0, "fusion_lat": 0.0, "type": "electric_scooter", "name": "ab761dfc2097f10fee067ccfa20ebaab", "is_disabled": 0, "rental_uris": {"ios": "https://dc.lft.to/lastmile_qr_scan", "android": "https://dc.lft.to/lastmile_qr_scan"}, "is_reserved": 0}, {"lon": -77.02508166666667, "bike_id": "e1e9991504f580a68e467544921ba0ad", "lat": 38.9055795, "fusion_lon": 0.0, "fusion_lat": 0.0, "type": "electric_scooter", "name": "e1e9991504f580a68e467544921ba0ad", "is_disabled": 0, "rental_uris": {"ios": "https://dc.lft.to/lastmile_qr_scan", "android": "https://dc.lft.to/lastmile_qr_scan"}, "is_reserved": 0}, {"lon": -77.01845333333333, "bike_id": "32599ba20173b50779e798c7a904ebd7", "lat": 38.91263516666667, "fusion_lon": 0.0, "fusion_lat": 0.0, "type": "electric_scooter", "name": "32599ba20173b50779e798c7a904ebd7", "is_disabled": 0, "rental_uris": {"ios": "https://dc.lft.to/lastmile_qr_scan", "android": "https://dc.lft.to/lastmile_qr_scan"}, "is_reserved": 0}, {"lon": -77.01095916666667, "bike_id": "55dd33d31dea57c08d34066a664cb201", "lat": 38.9037525, "fusion_lon": 0.0, "fusion_lat": 0.0, "type": "electric_scooter", "name": "55dd33d31dea57c08d34066a664cb201", "is_disabled": 0, "rental_uris": {"ios": "https://dc.lft.to/lastmile_qr_scan", "android": "https://dc.lft.to/lastmile_qr_scan"}, "is_reserved": 0}, {"lon": -77.04864366666666, "bike_id": "5f9436bc86c95882e6019719ad2df3f2", "lat": 38.91606916666667, "fusion_lon": 0.0, "fusion_lat": 0.0, "type": "electric_scooter", "name": "5f9436bc86c95882e6019719ad2df3f2", "is_disabled": 0, "rental_uris": {"ios": "https://dc.lft.to/lastmile_qr_scan", "android": "https://dc.lft.to/lastmile_qr_scan"}, "is_reserved": 0}, {"lon": -77.08037666666667, "bike_id": "c7d14969a6e3e2ba5e3eaaa6f070b854", "lat": 38.863874833333334, "fusion_lon": 0.0, "fusion_lat": 0.0, "type": "electric_bike", "name": "c7d14969a6e3e2ba5e3eaaa6f070b854", "is_disabled": 0, "rental_uris": {"ios": "https://dc.lft.to/lastmile_qr_scan", "android": "https://dc.lft.to/lastmile_qr_scan"}, "is_reserved": 0}, {"lon": -77.01955283333334, "bike_id": "dd1da6ac63f37ff93f6b52be5c4ea888", "lat": 38.922569333333335, "fusion_lon": 0.0, "fusion_lat": 0.0, "type": "electric_scooter", "name": "dd1da6ac63f37ff93f6b52be5c4ea888", "is_disabled": 0, "rental_uris": {"ios": "https://dc.lft.to/lastmile_qr_scan", "android": "https://dc.lft.to/lastmile_qr_scan"}, "is_reserved": 0}, {"lon": -77.01966566666667, "bike_id": "020382efab095c86fe19049df7341d10", "lat": 38.922015333333334, "fusion_lon": 0.0, "fusion_lat": 0.0, "type": "electric_scooter", "name": "020382efab095c86fe19049df7341d10", "is_disabled": 0, "rental_uris": {"ios": "https://dc.lft.to/lastmile_qr_scan", "android": "https://dc.lft.to/lastmile_qr_scan"}, "is_reserved": 0}, {"lon": -76.95187916666667, "bike_id": "961ed40e2ba212a4984c8f7c0ecace02", "lat": 38.907387, "fusion_lon": 0.0, "fusion_lat": 0.0, "type": "electric_scooter", "name": "961ed40e2ba212a4984c8f7c0ecace02", "is_disabled": 0, "rental_uris": {"ios": "https://dc.lft.to/lastmile_qr_scan", "android": "https://dc.lft.to/lastmile_qr_scan"}, "is_reserved": 0}, {"lon": -77.04039433333334, "bike_id": "df3039a85e3ac83dab28c426ab83fb2a", "lat": 38.923086833333336, "fusion_lon": 0.0, "fusion_lat": 0.0, "type": "electric_scooter", "name": "df3039a85e3ac83dab28c426ab83fb2a", "is_disabled": 0, "rental_uris": {"ios": "https://dc.lft.to/lastmile_qr_scan", "android": "https://dc.lft.to/lastmile_qr_scan"}, "is_reserved": 0}, {"lon": -77.01786666666666, "bike_id": "95df4a58405fdb99854d5c08a51664d5", "lat": 38.877082, "fusion_lon": 0.0, "fusion_lat": 0.0, "type": "electric_scooter", "name": "95df4a58405fdb99854d5c08a51664d5", "is_disabled": 0, "rental_uris": {"ios": "https://dc.lft.to/lastmile_qr_scan", "android": "https://dc.lft.to/lastmile_qr_scan"}, "is_reserved": 0}, {"lon": -77.04246783333333, "bike_id": "a9e59a69349ebfe1c46f150e6882d410", "lat": 38.92234033333333, "fusion_lon": 0.0, "fusion_lat": 0.0, "type": "electric_scooter", "name": "a9e59a69349ebfe1c46f150e6882d410", "is_disabled": 0, "rental_uris": {"ios": "https://dc.lft.to/lastmile_qr_scan", "android": "https://dc.lft.to/lastmile_qr_scan"}, "is_reserved": 0}, {"lon": -77.00456016666666, "bike_id": "8490c02bdba270686c44d6302d73dc48", "lat": 38.9144075, "fusion_lon": 0.0, "fusion_lat": 0.0, "type": "electric_scooter", "name": "8490c02bdba270686c44d6302d73dc48", "is_disabled": 0, "rental_uris": {"ios": "https://dc.lft.to/lastmile_qr_scan", "android": "https://dc.lft.to/lastmile_qr_scan"}, "is_reserved": 0}, {"lon": -76.98267833333334, "bike_id": "52b09d2bafdebd53fe9dd09ee5689323", "lat": 38.90854066666667, "fusion_lon": 0.0, "fusion_lat": 0.0, "type": "electric_scooter", "name": "52b09d2bafdebd53fe9dd09ee5689323", "is_disabled": 0, "rental_uris": {"ios": "https://dc.lft.to/lastmile_qr_scan", "android": "https://dc.lft.to/lastmile_qr_scan"}, "is_reserved": 0}, {"lon": -76.9871935, "bike_id": "c8adf1852287ac70e63d9fba73973e87", "lat": 38.86622066666666, "fusion_lon": 0.0, "fusion_lat": 0.0, "type": "electric_scooter", "name": "c8adf1852287ac70e63d9fba73973e87", "is_disabled": 0, "rental_uris": {"ios": "https://dc.lft.to/lastmile_qr_scan", "android": "https://dc.lft.to/lastmile_qr_scan"}, "is_reserved": 0}, {"lon": -76.98192666666667, "bike_id": "0644e8b0d4323e5125275f766d57bb1b", "lat": 38.899456666666666, "fusion_lon": 0.0, "fusion_lat": 0.0, "type": "electric_scooter", "name": "0644e8b0d4323e5125275f766d57bb1b", "is_disabled": 0, "rental_uris": {"ios": "https://dc.lft.to/lastmile_qr_scan", "android": "https://dc.lft.to/lastmile_qr_scan"}, "is_reserved": 0}, {"lon": -77.02698266666667, "bike_id": "1131f5024c34f577282bda18361d2f5c", "lat": 38.911712, "fusion_lon": 0.0, "fusion_lat": 0.0, "type": "electric_scooter", "name": "1131f5024c34f577282bda18361d2f5c", "is_disabled": 0, "rental_uris": {"ios": "https://dc.lft.to/lastmile_qr_scan", "android": "https://dc.lft.to/lastmile_qr_scan"}, "is_reserved": 0}, {"lon": -77.05686333333334, "bike_id": "8b1b8b2d5f2ff81068c42af004f0ff8d", "lat": 38.9051255, "fusion_lon": 0.0, "fusion_lat": 0.0, "type": "electric_bike", "name": "8b1b8b2d5f2ff81068c42af004f0ff8d", "is_disabled": 0, "rental_uris": {"ios": "https://dc.lft.to/lastmile_qr_scan", "android": "https://dc.lft.to/lastmile_qr_scan"}, "is_reserved": 0}, {"lon": -76.98932683333334, "bike_id": "d7853b5da6b719404c361d3433b6d125", "lat": 38.90181466666667, "fusion_lon": 0.0, "fusion_lat": 0.0, "type": "electric_scooter", "name": "d7853b5da6b719404c361d3433b6d125", "is_disabled": 0, "rental_uris": {"ios": "https://dc.lft.to/lastmile_qr_scan", "android": "https://dc.lft.to/lastmile_qr_scan"}, "is_reserved": 0}, {"lon": -77.04102433333334, "bike_id": "5bbf077823be72f36c406c83ca597fc2", "lat": 38.923137, "fusion_lon": 0.0, "fusion_lat": 0.0, "type": "electric_scooter", "name": "5bbf077823be72f36c406c83ca597fc2", "is_disabled": 0, "rental_uris": {"ios": "https://dc.lft.to/lastmile_qr_scan", "android": "https://dc.lft.to/lastmile_qr_scan"}, "is_reserved": 0}, {"lon": -76.95748116666667, "bike_id": "0e2deeafcc5ba9c8c496f3060cf37e6d", "lat": 38.88426, "fusion_lon": 0.0, "fusion_lat": 0.0, "type": "electric_scooter", "name": "0e2deeafcc5ba9c8c496f3060cf37e6d", "is_disabled": 0, "rental_uris": {"ios": "https://dc.lft.to/lastmile_qr_scan", "android": "https://dc.lft.to/lastmile_qr_scan"}, "is_reserved": 0}, {"lon": -77.0500145, "bike_id": "04e44e9f8ecb10412fc63874df272a4b", "lat": 38.901519, "fusion_lon": 0.0, "fusion_lat": 0.0, "type": "electric_scooter", "name": "04e44e9f8ecb10412fc63874df272a4b", "is_disabled": 0, "rental_uris": {"ios": "https://dc.lft.to/lastmile_qr_scan", "android": "https://dc.lft.to/lastmile_qr_scan"}, "is_reserved": 0}, {"lon": -77.03049816666666, "bike_id": "7e5bb04f9b02ebb527f8941bd5efd2b8", "lat": 38.8842615, "fusion_lon": 0.0, "fusion_lat": 0.0, "type": "electric_scooter", "name": "7e5bb04f9b02ebb527f8941bd5efd2b8", "is_disabled": 0, "rental_uris": {"ios": "https://dc.lft.to/lastmile_qr_scan", "android": "https://dc.lft.to/lastmile_qr_scan"}, "is_reserved": 0}, {"lon": -77.03045916666666, "bike_id": "24089b8cb0c266978f6d29b961016bec", "lat": 38.87834333333333, "fusion_lon": 0.0, "fusion_lat": 0.0, "type": "electric_scooter", "name": "24089b8cb0c266978f6d29b961016bec", "is_disabled": 0, "rental_uris": {"ios": "https://dc.lft.to/lastmile_qr_scan", "android": "https://dc.lft.to/lastmile_qr_scan"}, "is_reserved": 0}, {"lon": -77.04164, "bike_id": "839dd80b5feb2042349bc4d11a382295", "lat": 38.912512166666666, "fusion_lon": 0.0, "fusion_lat": 0.0, "type": "electric_scooter", "name": "839dd80b5feb2042349bc4d11a382295", "is_disabled": 0, "rental_uris": {"ios": "https://dc.lft.to/lastmile_qr_scan", "android": "https://dc.lft.to/lastmile_qr_scan"}, "is_reserved": 0}, {"lon": -77.0417405, "bike_id": "4c0fd253f7c9da23409f0f925388d464", "lat": 38.92310633333334, "fusion_lon": 0.0, "fusion_lat": 0.0, "type": "electric_scooter", "name": "4c0fd253f7c9da23409f0f925388d464", "is_disabled": 0, "rental_uris": {"ios": "https://dc.lft.to/lastmile_qr_scan", "android": "https://dc.lft.to/lastmile_qr_scan"}, "is_reserved": 0}, {"lon": -77.04155333333334, "bike_id": "6b5115556978653b8d005ec48ec88037", "lat": 38.92334566666667, "fusion_lon": 0.0, "fusion_lat": 0.0, "type": "electric_scooter", "name": "6b5115556978653b8d005ec48ec88037", "is_disabled": 0, "rental_uris": {"ios": "https://dc.lft.to/lastmile_qr_scan", "android": "https://dc.lft.to/lastmile_qr_scan"}, "is_reserved": 0}, {"lon": -76.937352, "bike_id": "8c9edd90c241391016372ca29e76cefe", "lat": 38.890156, "fusion_lon": 0.0, "fusion_lat": 0.0, "type": "electric_scooter", "name": "8c9edd90c241391016372ca29e76cefe", "is_disabled": 0, "rental_uris": {"ios": "https://dc.lft.to/lastmile_qr_scan", "android": "https://dc.lft.to/lastmile_qr_scan"}, "is_reserved": 0}, {"lon": -77.053784, "bike_id": "09a5dc93d2a4a0e643686278e71b8c3d", "lat": 38.903943, "fusion_lon": 0.0, "fusion_lat": 0.0, "type": "electric_scooter", "name": "09a5dc93d2a4a0e643686278e71b8c3d", "is_disabled": 0, "rental_uris": {"ios": "https://dc.lft.to/lastmile_qr_scan", "android": "https://dc.lft.to/lastmile_qr_scan"}, "is_reserved": 0}, {"lon": -77.02172933333334, "bike_id": "24e4d9ddde6bc7d8b45580401eb3db57", "lat": 38.89722666666667, "fusion_lon": 0.0, "fusion_lat": 0.0, "type": "electric_scooter", "name": "24e4d9ddde6bc7d8b45580401eb3db57", "is_disabled": 0, "rental_uris": {"ios": "https://dc.lft.to/lastmile_qr_scan", "android": "https://dc.lft.to/lastmile_qr_scan"}, "is_reserved": 0}, {"lon": -77.03443966666667, "bike_id": "c605718a8a5345080d87c24d2e90c415", "lat": 38.909738833333336, "fusion_lon": 0.0, "fusion_lat": 0.0, "type": "electric_scooter", "name": "c605718a8a5345080d87c24d2e90c415", "is_disabled": 0, "rental_uris": {"ios": "https://dc.lft.to/lastmile_qr_scan", "android": "https://dc.lft.to/lastmile_qr_scan"}, "is_reserved": 0}, {"lon": -76.99003016666667, "bike_id": "afd610bfdf43cc88519ed23fcc701a44", "lat": 38.865036, "fusion_lon": 0.0, "fusion_lat": 0.0, "type": "electric_scooter", "name": "afd610bfdf43cc88519ed23fcc701a44", "is_disabled": 0, "rental_uris": {"ios": "https://dc.lft.to/lastmile_qr_scan", "android": "https://dc.lft.to/lastmile_qr_scan"}, "is_reserved": 0}, {"lon": -77.02645666666666, "bike_id": "3faf16ed6b994da1ace0cb0aa13274da", "lat": 38.89697116666667, "fusion_lon": 0.0, "fusion_lat": 0.0, "type": "electric_scooter", "name": "3faf16ed6b994da1ace0cb0aa13274da", "is_disabled": 0, "rental_uris": {"ios": "https://dc.lft.to/lastmile_qr_scan", "android": "https://dc.lft.to/lastmile_qr_scan"}, "is_reserved": 0}, {"lon": -76.99002133333333, "bike_id": "0facae92ea92877186d7bb8aba9b4cbf", "lat": 38.8650395, "fusion_lon": 0.0, "fusion_lat": 0.0, "type": "electric_scooter", "name": "0facae92ea92877186d7bb8aba9b4cbf", "is_disabled": 0, "rental_uris": {"ios": "https://dc.lft.to/lastmile_qr_scan", "android": "https://dc.lft.to/lastmile_qr_scan"}, "is_reserved": 0}, {"lon": -77.05577183333334, "bike_id": "0f0607f384ce8986f70c4c93adad01a4", "lat": 38.915960166666665, "fusion_lon": 0.0, "fusion_lat": 0.0, "type": "electric_scooter", "name": "0f0607f384ce8986f70c4c93adad01a4", "is_disabled": 0, "rental_uris": {"ios": "https://dc.lft.to/lastmile_qr_scan", "android": "https://dc.lft.to/lastmile_qr_scan"}, "is_reserved": 0}, {"lon": -77.03338266666667, "bike_id": "6634f76225f36f9145ceb0cc6cdeec67", "lat": 38.93636566666667, "fusion_lon": 0.0, "fusion_lat": 0.0, "type": "electric_scooter", "name": "6634f76225f36f9145ceb0cc6cdeec67", "is_disabled": 0, "rental_uris": {"ios": "https://dc.lft.to/lastmile_qr_scan", "android": "https://dc.lft.to/lastmile_qr_scan"}, "is_reserved": 0}, {"lon": -76.98715466666667, "bike_id": "faa4ffc7dd86a527eaa2a81cd09b41b5", "lat": 38.86536, "fusion_lon": 0.0, "fusion_lat": 0.0, "type": "electric_scooter", "name": "faa4ffc7dd86a527eaa2a81cd09b41b5", "is_disabled": 0, "rental_uris": {"ios": "https://dc.lft.to/lastmile_qr_scan", "android": "https://dc.lft.to/lastmile_qr_scan"}, "is_reserved": 0}, {"lon": -77.02092433333334, "bike_id": "fc5be758a215010deaa50a8d0834c7ce", "lat": 38.95750066666667, "fusion_lon": 0.0, "fusion_lat": 0.0, "type": "electric_scooter", "name": "fc5be758a215010deaa50a8d0834c7ce", "is_disabled": 0, "rental_uris": {"ios": "https://dc.lft.to/lastmile_qr_scan", "android": "https://dc.lft.to/lastmile_qr_scan"}, "is_reserved": 0}, {"lon": -76.98726933333333, "bike_id": "d4d2bcc3515dc1b1e8a4f5f3488bda16", "lat": 38.86708933333333, "fusion_lon": 0.0, "fusion_lat": 0.0, "type": "electric_scooter", "name": "d4d2bcc3515dc1b1e8a4f5f3488bda16", "is_disabled": 0, "rental_uris": {"ios": "https://dc.lft.to/lastmile_qr_scan", "android": "https://dc.lft.to/lastmile_qr_scan"}, "is_reserved": 0}, {"lon": -76.99333833333333, "bike_id": "80df3f974e32241397cc12dec7ec7f54", "lat": 38.871421833333336, "fusion_lon": 0.0, "fusion_lat": 0.0, "type": "electric_scooter", "name": "80df3f974e32241397cc12dec7ec7f54", "is_disabled": 0, "rental_uris": {"ios": "https://dc.lft.to/lastmile_qr_scan", "android": "https://dc.lft.to/lastmile_qr_scan"}, "is_reserved": 0}, {"lon": -77.03121916666667, "bike_id": "3afab9149f36ebd500855e82180c1337", "lat": 38.917041, "fusion_lon": 0.0, "fusion_lat": 0.0, "type": "electric_scooter", "name": "3afab9149f36ebd500855e82180c1337", "is_disabled": 0, "rental_uris": {"ios": "https://dc.lft.to/lastmile_qr_scan", "android": "https://dc.lft.to/lastmile_qr_scan"}, "is_reserved": 0}, {"lon": -77.03308, "bike_id": "073213072a4879440eeccd796654ed58", "lat": 38.90365633333333, "fusion_lon": 0.0, "fusion_lat": 0.0, "type": "electric_scooter", "name": "073213072a4879440eeccd796654ed58", "is_disabled": 0, "rental_uris": {"ios": "https://dc.lft.to/lastmile_qr_scan", "android": "https://dc.lft.to/lastmile_qr_scan"}, "is_reserved": 0}, {"lon": -77.01645183333333, "bike_id": "ddf85a967e5bc53c689ce2daae560e51", "lat": 38.88111383333333, "fusion_lon": 0.0, "fusion_lat": 0.0, "type": "electric_scooter", "name": "ddf85a967e5bc53c689ce2daae560e51", "is_disabled": 0, "rental_uris": {"ios": "https://dc.lft.to/lastmile_qr_scan", "android": "https://dc.lft.to/lastmile_qr_scan"}, "is_reserved": 0}, {"lon": -77.05133716666667, "bike_id": "2f9635c526724b005d6614118b1854eb", "lat": 38.92339183333333, "fusion_lon": 0.0, "fusion_lat": 0.0, "type": "electric_scooter", "name": "2f9635c526724b005d6614118b1854eb", "is_disabled": 0, "rental_uris": {"ios": "https://dc.lft.to/lastmile_qr_scan", "android": "https://dc.lft.to/lastmile_qr_scan"}, "is_reserved": 0},