{"data": {"bikes": [{"lat": 38.930988666666664, "is_reserved": 0, "lon": -77.0351005, "fusion_lon": 0.0, "fusion_lat": 0.0, "is_disabled": 0, "type": "electric_scooter", "bike_id": "9fe642b5cb31fb99313c2b83722e61d9", "rental_uris": {"android": "https://dc.lft.to/lastmile_qr_scan", "ios": "https://dc.lft.to/lastmile_qr_scan"}, "name": "9fe642b5cb31fb99313c2b83722e61d9"}, {"lat": 38.923955666666664, "is_reserved": 0, "lon": -77.03533433333334, "fusion_lon": 0.0, "fusion_lat": 0.0, "is_disabled": 0, "type": "electric_scooter", "bike_id": "f462ed49a7309276ce56d44d99978e38", "rental_uris": {"android": "https://dc.lft.to/lastmile_qr_scan", "ios": "https://dc.lft.to/lastmile_qr_scan"}, "name": "f462ed49a7309276ce56d44d99978e38"}, {"lat": 38.9013315, "is_reserved": 0, "lon": -77.03245416666667, "fusion_lon": 0.0, "fusion_lat": 0.0, "is_disabled": 0, "type": "electric_scooter", "bike_id": "c312949684a9b5c2ecae9d26baff7aa7", "rental_uris": {"android": "https://dc.lft.to/lastmile_qr_scan", "ios": "https://dc.lft.to/lastmile_qr_scan"}, "name": "c312949684a9b5c2ecae9d26baff7aa7"}, {"lat": 38.8873355, "is_reserved": 0, "lon": -77.015095, "fusion_lon": 0.0, "fusion_lat": 0.0, "is_disabled": 0, "type": "electric_scooter", "bike_id": "ffbfeb92af44bd70bef3c2bf678bdf85", "rental_uris": {"android": "https://dc.lft.to/lastmile_qr_scan", "ios": "https://dc.lft.to/lastmile_qr_scan"}, "name": "ffbfeb92af44bd70bef3c2bf678bdf85"}, {"lat": 38.95254033333333, "is_reserved": 0, "lon": -77.01958433333333, "fusion_lon": 0.0, "fusion_lat": 0.0, "is_disabled": 0, "type": "electric_scooter", "bike_id": "9b19a7bd85673be76d94df97124674bf", "rental_uris": {"android": "https://dc.lft.to/lastmile_qr_scan", "ios": "https://dc.lft.to/lastmile_qr_scan"}, "name": "9b19a7bd85673be76d94df97124674bf"}, {"lat": 38.93425333333333, "is_reserved": 0, "lon": -77.04002416666667, "fusion_lon": 0.0, "fusion_lat": 0.0, "is_disabled": 0, "type": "electric_scooter", "bike_id": "3399817d0cccbea54088e00bde1f2399", "rental_uris": {"android": "https://dc.lft.to/lastmile_qr_scan", "ios": "https://dc.lft.to/lastmile_qr_scan"}, "name": "3399817d0cccbea54088e00bde1f2399"}, {"lat": 38.916099333333335, "is_reserved": 0, "lon": -77.085344, "fusion_lon": 0.0, "fusion_lat": 0.0, "is_disabled": 0, "type": "electric_scooter", "bike_id": "c28ae1923d667d8f99d1520c88f6010c", "rental_uris": {"android": "https://dc.lft.to/lastmile_qr_scan", "ios": "https://dc.lft.to/lastmile_qr_scan"}, "name": "c28ae1923d667d8f99d1520c88f6010c"}, {"lat": 38.90745533333333, "is_reserved": 0, "lon": -77.071634, "fusion_lon": 0.0, "fusion_lat": 0.0, "is_disabled": 0, "type": "electric_scooter", "bike_id": "b73852f0f2ac8f02a4483050b6748096", "rental_uris": {"android": "https://dc.lft.to/lastmile_qr_scan", "ios": "https://dc.lft.to/lastmile_qr_scan"}, "name": "b73852f0f2ac8f02a4483050b6748096"}, {"lat": 38.928671666666666, "is_reserved": 0, "lon": -77.033032, "fusion_lon": 0.0, "fusion_lat": 0.0, "is_disabled": 0, "type": "electric_scooter", "bike_id": "b7ae9ce07523bdeea1ade148140b05e0", "rental_uris": {"android": "https://dc.lft.to/lastmile_qr_scan", "ios": "https://dc.lft.to/lastmile_qr_scan"}, "name": "b7ae9ce07523bdeea1ade148140b05e0"}, {"lat": 38.9845905, "is_reserved": 0, "lon": -76.9705565, "fusion_lon": 0.0, "fusion_lat": 0.0, "is_disabled": 0, "type": "electric_bike", "bike_id": "01c39cb593ea4f3fc3e1ee575f77dafc", "rental_uris": {"android": "https://dc.lft.to/lastmile_qr_scan", "ios": "https://dc.lft.to/lastmile_qr_scan"}, "name": "01c39cb593ea4f3fc3e1ee575f77dafc"}, {"lat": 38.91004866666667, "is_reserved": 0, "lon": -77.03666633333333, "fusion_lon": 0.0, "fusion_lat": 0.0, "is_disabled": 0, "type": "electric_scooter", "bike_id": "0af1e619b4823d9143d47870eecc25eb", "rental_uris": {"android": "https://dc.lft.to/lastmile_qr_scan", "ios": "https://dc.lft.to/lastmile_qr_scan"}, "name": "0af1e619b4823d9143d47870eecc25eb"}, {"lat": 38.902461, "is_reserved": 0, "lon": -77.03803183333333, "fusion_lon": 0.0, "fusion_lat": 0.0, "is_disabled": 0, "type": "electric_scooter", "bike_id": "b337550448c9d914d943f40f69bb82cd", "rental_uris": {"android": "https://dc.lft.to/lastmile_qr_scan", "ios": "https://dc.lft.to/lastmile_qr_scan"}, "name": "b337550448c9d914d943f40f69bb82cd"}, {"lat": 38.9145265, "is_reserved": 0, "lon": -77.0218115, "fusion_lon": 0.0, "fusion_lat": 0.0, "is_disabled": 0, "type": "electric_scooter", "bike_id": "83380701f0e691d28d8557af13f749d7", "rental_uris": {"android": "https://dc.lft.to/lastmile_qr_scan", "ios": "https://dc.lft.to/lastmile_qr_scan"}, "name": "83380701f0e691d28d8557af13f749d7"}, {"lat": 38.90031416666667, "is_reserved": 0, "lon": -76.998343, "fusion_lon": 0.0, "fusion_lat": 0.0, "is_disabled": 0, "type": "electric_scooter", "bike_id": "b90f97ed16e9d5f3ade4558f26d1a9a1", "rental_uris": {"android": "https://dc.lft.to/lastmile_qr_scan", "ios": "https://dc.lft.to/lastmile_qr_scan"}, "name": "b90f97ed16e9d5f3ade4558f26d1a9a1"}, {"lat": 38.9025755, "is_reserved": 0, "lon": -77.03684133333333, "fusion_lon": 0.0, "fusion_lat": 0.0, "is_disabled": 0, "type": "electric_scooter", "bike_id": "4146a5f2e0da31a8b22ebdeb782da9cb", "rental_uris": {"android": "https://dc.lft.to/lastmile_qr_scan", "ios": "https://dc.lft.to/lastmile_qr_scan"}, "name": "4146a5f2e0da31a8b22ebdeb782da9cb"}, {"lat": 38.919183333333336, "is_reserved": 0, "lon": -77.0093235, "fusion_lon": 0.0, "fusion_lat": 0.0, "is_disabled": 0, "type": "electric_scooter", "bike_id": "c1eff938ba77db9ab4515b93fc825871", "rental_uris": {"android": "https://dc.lft.to/lastmile_qr_scan", "ios": "https://dc.lft.to/lastmile_qr_scan"}, "name": "c1eff938ba77db9ab4515b93fc825871"}, {"lat": 38.8236465, "is_reserved": 0, "lon": -77.00217583333334, "fusion_lon": 0.0, "fusion_lat": 0.0, "is_disabled": 0, "type": "electric_bike", "bike_id": "521901642c5891faa76ec92f9a065162", "rental_uris": {"android": "https://dc.lft.to/lastmile_qr_scan", "ios": "https://dc.lft.to/lastmile_qr_scan"}, "name": "521901642c5891faa76ec92f9a065162"}, {"lat": 38.911679, "is_reserved": 0, "lon": -77.00195716666667, "fusion_lon": 0.0, "fusion_lat": 0.0, "is_disabled": 0, "type": "electric_scooter", "bike_id": "b063186721d2543515c7ff52c75dfcfa", "rental_uris": {"android": "https://dc.lft.to/lastmile_qr_scan", "ios": "https://dc.lft.to/lastmile_qr_scan"}, "name": "b063186721d2543515c7ff52c75dfcfa"}, {"lat": 38.911581, "is_reserved": 0, "lon": -77.07267516666667, "fusion_lon": 0.0, "fusion_lat": 0.0, "is_disabled": 0, "type": "electric_scooter", "bike_id": "04beb3abcdc55879ff4acee614a93333", "rental_uris": {"android": "https://dc.lft.to/lastmile_qr_scan", "ios": "https://dc.lft.to/lastmile_qr_scan"}, "name": "04beb3abcdc55879ff4acee614a93333"}, {"lat": 38.85937633333333, "is_reserved": 0, "lon": -77.1182985, "fusion_lon": 0.0, "fusion_lat": 0.0, "is_disabled": 0, "type": "electric_bike", "bike_id": "efaab7d0bac81ce2008cf57b3ab424e9", "rental_uris": {"android": "https://dc.lft.to/lastmile_qr_scan", "ios": "https://dc.lft.to/lastmile_qr_scan"}, "name": "efaab7d0bac81ce2008cf57b3ab424e9"}, {"lat": 38.87878216666667, "is_reserved": 0, "lon": -77.101028, "fusion_lon": 0.0, "fusion_lat": 0.0, "is_disabled": 0, "type": "electric_bike", "bike_id": "ba1823b2532c970b0c6a021af16bcfcc", "rental_uris": {"android": "https://dc.lft.to/lastmile_qr_scan", "ios": "https://dc.lft.to/lastmile_qr_scan"}, "name": "ba1823b2532c970b0c6a021af16bcfcc"}, {"lat": 38.87475116666667, "is_reserved": 0, "lon": -76.99977416666667, "fusion_lon": 0.0, "fusion_lat": 0.0, "is_disabled": 0, "type": "electric_scooter", "bike_id": "1efbb2b34413cdd7f12216007bbf12a5", "rental_uris": {"android": "https://dc.lft.to/lastmile_qr_scan", "ios": "https://dc.lft.to/lastmile_qr_scan"}, "name": "1efbb2b34413cdd7f12216007bbf12a5"}, {"lat": 38.924412, "is_reserved": 0, "lon": -77.03357866666667, "fusion_lon": 0.0, "fusion_lat": 0.0, "is_disabled": 0, "type": "electric_scooter", "bike_id": "b42b5252e322048f1d5cebedea2d3c16", "rental_uris": {"android": "https://dc.lft.to/lastmile_qr_scan", "ios": "https://dc.lft.to/lastmile_qr_scan"}, "name": "b42b5252e322048f1d5cebedea2d3c16"}, {"lat": 38.923827, "is_reserved": 0, "lon": -77.0192475, "fusion_lon": 0.0, "fusion_lat": 0.0, "is_disabled": 0, "type": "electric_scooter", "bike_id": "51d5d631b0e6bfe1566bc2f24ffc7173", "rental_uris": {"android": "https://dc.lft.to/lastmile_qr_scan", "ios": "https://dc.lft.to/lastmile_qr_scan"}, "name": "51d5d631b0e6bfe1566bc2f24ffc7173"}, {"lat": 38.920427833333335, "is_reserved": 0, "lon": -77.04196966666666, "fusion_lon": 0.0, "fusion_lat": 0.0, "is_disabled": 0, "type": "electric_scooter", "bike_id": "4b36acbc0ac7c02c192a553a03e0c4dc", "rental_uris": {"android": "https://dc.lft.to/lastmile_qr_scan", "ios": "https://dc.lft.to/lastmile_qr_scan"}, "name": "4b36acbc0ac7c02c192a553a03e0c4dc"}, {"lat": 38.905733166666664, "is_reserved": 0, "lon": -77.0054705, "fusion_lon": 0.0, "fusion_lat": 0.0, "is_disabled": 0, "type": "electric_scooter", "bike_id": "fb3a5d43050fd8b54c2d999016a75129", "rental_uris": {"android": "https://dc.lft.to/lastmile_qr_scan", "ios": "https://dc.lft.to/lastmile_qr_scan"}, "name": "fb3a5d43050fd8b54c2d999016a75129"}, {"lat": 38.8848555, "is_reserved": 0, "lon": -77.01526233333334, "fusion_lon": 0.0, "fusion_lat": 0.0, "is_disabled": 0, "type": "electric_scooter", "bike_id": "f2488a5de9427c6cdd5c0ee285859136", "rental_uris": {"android": "https://dc.lft.to/lastmile_qr_scan", "ios": "https://dc.lft.to/lastmile_qr_scan"}, "name": "f2488a5de9427c6cdd5c0ee285859136"}, {"lat": 38.92339, "is_reserved": 0, "lon": -77.05039766666667, "fusion_lon": 0.0, "fusion_lat": 0.0, "is_disabled": 0, "type": "electric_scooter", "bike_id": "9b0ae223865f5c3cb8f714537d844848", "rental_uris": {"android": "https://dc.lft.to/lastmile_qr_scan", "ios": "https://dc.lft.to/lastmile_qr_scan"}, "name": "9b0ae223865f5c3cb8f714537d844848"}, {"lat": 38.91817733333333, "is_reserved": 0, "lon": -77.03979166666667, "fusion_lon": 0.0, "fusion_lat": 0.0, "is_disabled": 0, "type": "electric_scooter", "bike_id": "05644780c22ae00f19ad2ac65f8361e5", "rental_uris": {"android": "https://dc.lft.to/lastmile_qr_scan", "ios": "https://dc.lft.to/lastmile_qr_scan"}, "name": "05644780c22ae00f19ad2ac65f8361e5"}, {"lat": 38.871738, "is_reserved": 0, "lon": -77.00676283333334, "fusion_lon": 0.0, "fusion_lat": 0.0, "is_disabled": 0, "type": "electric_scooter", "bike_id": "915205e8e337faa36062d34a76c1739b", "rental_uris": {"android": "https://dc.lft.to/lastmile_qr_scan", "ios": "https://dc.lft.to/lastmile_qr_scan"}, "name": "915205e8e337faa36062d34a76c1739b"}, {"lat": 38.87746283333333, "is_reserved": 0, "lon": -76.99750533333334, "fusion_lon": 0.0, "fusion_lat": 0.0, "is_disabled": 0, "type": "electric_scooter", "bike_id": "342aafac3acada16d1e68e7e509a5511", "rental_uris": {"android": "https://dc.lft.to/lastmile_qr_scan", "ios": "https://dc.lft.to/lastmile_qr_scan"}, "name": "342aafac3acada16d1e68e7e509a5511"}, {"lat": 38.9141035, "is_reserved": 0, "lon": -77.02112366666667, "fusion_lon": 0.0, "fusion_lat": 0.0, "is_disabled": 0, "type": "electric_scooter", "bike_id": "7cdd006c6a4613546ce8cd4a01191989", "rental_uris": {"android": "https://dc.lft.to/lastmile_qr_scan", "ios": "https://dc.lft.to/lastmile_qr_scan"}, "name": "7cdd006c6a4613546ce8cd4a01191989"}, {"lat": 38.90949533333333, "is_reserved": 0, "lon": -77.044102, "fusion_lon": 0.0, "fusion_lat": 0.0, "is_disabled": 0, "type": "electric_scooter", "bike_id": "32200a626fbbb2c6d51774e0c9790b5b", "rental_uris": {"android": "https://dc.lft.to/lastmile_qr_scan", "ios": "https://dc.lft.to/lastmile_qr_scan"}, "name": "32200a626fbbb2c6d51774e0c9790b5b"}, {"lat": 38.919213666666664, "is_reserved": 0, "lon": -77.0317765, "fusion_lon": 0.0, "fusion_lat": 0.0, "is_disabled": 0, "type": "electric_scooter", "bike_id": "0b8e00127de0165de12f7f241aa0fae2", "rental_uris": {"android": "https://dc.lft.to/lastmile_qr_scan", "ios": "https://dc.lft.to/lastmile_qr_scan"}, "name": "0b8e00127de0165de12f7f241aa0fae2"}, {"lat": 38.89355783333333, "is_reserved": 0, "lon": -76.94933366666666, "fusion_lon": 0.0, "fusion_lat": 0.0, "is_disabled": 0, "type": "electric_scooter", "bike_id": "a4136d5bab561f9125f54ecf5f14163a", "rental_uris": {"android": "https://dc.lft.to/lastmile_qr_scan", "ios": "https://dc.lft.to/lastmile_qr_scan"}, "name": "a4136d5bab561f9125f54ecf5f14163a"}, {"lat": 38.84636533333333, "is_reserved": 0, "lon": -76.991323, "fusion_lon": 0.0, "fusion_lat": 0.0, "is_disabled": 0, "type": "electric_scooter", "bike_id": "385d3b43d5b1436a25b4773925205dcf", "rental_uris": {"android": "https://dc.lft.to/lastmile_qr_scan", "ios": "https://dc.lft.to/lastmile_qr_scan"}, "name": "385d3b43d5b1436a25b4773925205dcf"}, {"lat": 38.917065666666666, "is_reserved": 0, "lon": -77.024589, "fusion_lon": 0.0, "fusion_lat": 0.0, "is_disabled": 0, "type": "electric_scooter", "bike_id": "26dc820548e8d67bce65562c55fb1b3e", "rental_uris": {"android": "https://dc.lft.to/lastmile_qr_scan", "ios": "https://dc.lft.to/lastmile_qr_scan"}, "name": "26dc820548e8d67bce65562c55fb1b3e"}, {"lat": 38.890082, "is_reserved": 0, "lon": -77.03322166666666, "fusion_lon": 0.0, "fusion_lat": 0.0, "is_disabled": 0, "type": "electric_scooter", "bike_id": "c1cf27bc9ee5e21ebb6c9b2f2df6e536", "rental_uris": {"android": "https://dc.lft.to/lastmile_qr_scan", "ios": "https://dc.lft.to/lastmile_qr_scan"}, "name": "c1cf27bc9ee5e21ebb6c9b2f2df6e536"}, {"lat": 38.898281833333336, "is_reserved": 0, "lon": -76.94628266666666, "fusion_lon": 0.0, "fusion_lat": 0.0, "is_disabled": 0, "type": "electric_scooter", "bike_id": "37ed14ba5bff71524af3cfef450fbdf2", "rental_uris": {"android": "https://dc.lft.to/lastmile_qr_scan", "ios": "https://dc.lft.to/lastmile_qr_scan"}, "name": "37ed14ba5bff71524af3cfef450fbdf2"}, {"lat": 38.866877833333334, "is_reserved": 0, "lon": -76.98543016666666, "fusion_lon": 0.0, "fusion_lat": 0.0, "is_disabled": 0, "type": "electric_scooter", "bike_id": "2ca6a5dc2659d71cfdbd96e63a6b60ad", "rental_uris": {"android": "https://dc.lft.to/lastmile_qr_scan", "ios": "https://dc.lft.to/lastmile_qr_scan"}, "name": "2ca6a5dc2659d71cfdbd96e63a6b60ad"}, {"lat": 38.899445, "is_reserved": 0, "lon": -77.04490566666666, "fusion_lon": 0.0, "fusion_lat": 0.0, "is_disabled": 0, "type": "electric_scooter", "bike_id": "95a3cbf5c23258d7effed9ac90cadea1", "rental_uris": {"android": "https://dc.lft.to/lastmile_qr_scan", "ios": "https://dc.lft.to/lastmile_qr_scan"}, "name": "95a3cbf5c23258d7effed9ac90cadea1"}, {"lat": 38.90895283333333, "is_reserved": 0, "lon": -76.99770233333334, "fusion_lon": 0.0, "fusion_lat": 0.0, "is_disabled": 0, "type": "electric_scooter", "bike_id": "96b41def0515ac70ecd7dd6106a51068", "rental_uris": {"android": "https://dc.lft.to/lastmile_qr_scan", "ios": "https://dc.lft.to/lastmile_qr_scan"}, "name": "96b41def0515ac70ecd7dd6106a51068"}, {"lat": 38.82175316666667, "is_reserved": 0, "lon": -76.9951635, "fusion_lon": 0.0, "fusion_lat": 0.0, "is_disabled": 0, "type": "electric_bike", "bike_id": "3dcb73c9b58007655be18e335d662760", "rental_uris": {"android": "https://dc.lft.to/lastmile_qr_scan", "ios": "https://dc.lft.to/lastmile_qr_scan"}, "name": "3dcb73c9b58007655be18e335d662760"}, {"lat": 38.85246583333333, "is_reserved": 0, "lon": -77.10788333333333, "fusion_lon": 0.0, "fusion_lat": 0.0, "is_disabled": 0, "type": "electric_bike", "bike_id": "dccb602d313263c3cefb8fb1fe8d9866", "rental_uris": {"android": "https://dc.lft.to/lastmile_qr_scan", "ios": "https://dc.lft.to/lastmile_qr_scan"}, "name": "dccb602d313263c3cefb8fb1fe8d9866"}, {"lat": 38.92867916666667, "is_reserved": 0, "lon": -77.037416, "fusion_lon": 0.0, "fusion_lat": 0.0, "is_disabled": 0, "type": "electric_scooter", "bike_id": "8e69c4d1510a9d40fc00dfc5497c483b", "rental_uris": {"android": "https://dc.lft.to/lastmile_qr_scan", "ios": "https://dc.lft.to/lastmile_qr_scan"}, "name": "8e69c4d1510a9d40fc00dfc5497c483b"}, {"lat": 38.92358933333333, "is_reserved": 0, "lon": -77.04249483333334, "fusion_lon": 0.0, "fusion_lat": 0.0, "is_disabled": 0, "type": "electric_scooter", "bike_id": "ba77b97003fb1688c0fb3d0960d975dc", "rental_uris": {"android": "https://dc.lft.to/lastmile_qr_scan", "ios": "https://dc.lft.to/lastmile_qr_scan"}, "name": "ba77b97003fb1688c0fb3d0960d975dc"}, {"lat": 38.90877666666667, "is_reserved": 0, "lon": -77.04335633333334, "fusion_lon": 0.0, "fusion_lat": 0.0, "is_disabled": 0, "type": "electric_scooter", "bike_id": "94f0a5221dc1aa90a64093cf1a47d780", "rental_uris": {"android": "https://dc.lft.to/lastmile_qr_scan", "ios": "https://dc.lft.to/lastmile_qr_scan"}, "name": "94f0a5221dc1aa90a64093cf1a47d780"}, {"lat": 38.9205175, "is_reserved": 0, "lon": -77.04201083333334, "fusion_lon": 0.0, "fusion_lat": 0.0, "is_disabled": 0, "type": "electric_scooter", "bike_id": "5f56980270010a7ee28f688da3919a84", "rental_uris": {"android": "https://dc.lft.to/lastmile_qr_scan", "ios": "https://dc.lft.to/lastmile_qr_scan"}, "name": "5f56980270010a7ee28f688da3919a84"}, {"lat": 38.89038683333333, "is_reserved": 0, "lon": -77.02974266666666, "fusion_lon": 0.0, "fusion_lat": 0.0, "is_disabled": 0, "type": "electric_scooter", "bike_id": "02f51f07c81db1db935e6bc739eafbfd", "rental_uris": {"android": "https://dc.lft.to/lastmile_qr_scan", "ios": "https://dc.lft.to/lastmile_qr_scan"}, "name": "02f51f07c81db1db935e6bc739eafbfd"}, {"lat": 38.90692683333333, "is_reserved": 0, "lon": -77.0239875, "fusion_lon": 0.0, "fusion_lat": 0.0, "is_disabled": 0, "type": "electric_scooter", "bike_id": "ab37a2a0495a4c8c5a50b9de4f47b405", "rental_uris": {"android": "https://dc.lft.to/lastmile_qr_scan", "ios": "https://dc.lft.to/lastmile_qr_scan"}, "name": "ab37a2a0495a4c8c5a50b9de4f47b405"}, {"lat": 38.90002416666667, "is_reserved": 0, "lon": -77.0113435, "fusion_lon": 0.0, "fusion_lat": 0.0, "is_disabled": 0, "type": "electric_scooter", "bike_id": "19f8188afe87b9fc3784325864b7571a", "rental_uris": {"android": "https://dc.lft.to/lastmile_qr_scan", "ios": "https://dc.lft.to/lastmile_qr_scan"}, "name": "19f8188afe87b9fc3784325864b7571a"}, {"lat": 38.91582733333333, "is_reserved": 0, "lon": -77.01455366666667, "fusion_lon": 0.0, "fusion_lat": 0.0, "is_disabled": 0, "type": "electric_scooter", "bike_id": "f134fd04cd72da0512be40801536eb68", "rental_uris": {"android": "https://dc.lft.to/lastmile_qr_scan", "ios": "https://dc.lft.to/lastmile_qr_scan"}, "name": "f134fd04cd72da0512be40801536eb68"}, {"lat": 38.9026895, "is_reserved": 0, "lon": -77.05914716666666, "fusion_lon": 0.0, "fusion_lat": 0.0, "is_disabled": 0, "type": "electric_scooter", "bike_id": "2f6d2bf29ea1a072a42a702fb6618a86", "rental_uris": {"android": "https://dc.lft.to/lastmile_qr_scan", "ios": "https://dc.lft.to/lastmile_qr_scan"}, "name": "2f6d2bf29ea1a072a42a702fb6618a86"}, {"lat": 38.928225166666664, "is_reserved": 0, "lon": -77.03710183333334, "fusion_lon": 0.0, "fusion_lat": 0.0, "is_disabled": 0, "type": "electric_scooter", "bike_id": "65949405c0fd978d4328e02e78d8918b", "rental_uris": {"android": "https://dc.lft.to/lastmile_qr_scan", "ios": "https://dc.lft.to/lastmile_qr_scan"}, "name": "65949405c0fd978d4328e02e78d8918b"}, {"lat": 38.9418985, "is_reserved": 0, "lon": -77.0384165, "fusion_lon": 0.0, "fusion_lat": 0.0, "is_disabled": 0, "type": "electric_scooter", "bike_id": "754d7ac79e507b95a814ba033964f2c0", "rental_uris": {"android": "https://dc.lft.to/lastmile_qr_scan", "ios": "https://dc.lft.to/lastmile_qr_scan"}, "name": "754d7ac79e507b95a814ba033964f2c0"}, {"lat": 38.893281333333334, "is_reserved": 0, "lon": -77.02864683333334, "fusion_lon": 0.0, "fusion_lat": 0.0, "is_disabled": 0, "type": "electric_scooter", "bike_id": "b8f4bfcf6738340f42b08dc1703ffb5e", "rental_uris": {"android": "https://dc.lft.to/lastmile_qr_scan", "ios": "https://dc.lft.to/lastmile_qr_scan"}, "name": "b8f4bfcf6738340f42b08dc1703ffb5e"}, {"lat": 38.9023945, "is_reserved": 0, "lon": -77.00197716666666, "fusion_lon": 0.0, "fusion_lat": 0.0, "is_disabled": 0, "type": "electric_scooter", "bike_id": "e02c64b112b408ebd6d386cd297dae85", "rental_uris": {"android": "https://dc.lft.to/lastmile_qr_scan", "ios": "https://dc.lft.to/lastmile_qr_scan"}, "name": "e02c64b112b408ebd6d386cd297dae85"}, {"lat": 38.892210666666664, "is_reserved": 0, "lon": -77.02223333333333, "fusion_lon": 0.0, "fusion_lat": 0.0, "is_disabled": 0, "type": "electric_scooter", "bike_id": "5df1db1201c552c22cc860c899500091", "rental_uris": {"android": "https://dc.lft.to/lastmile_qr_scan", "ios": "https://dc.lft.to/lastmile_qr_scan"}, "name": "5df1db1201c552c22cc860c899500091"}, {"lat": 38.905615, "is_reserved": 0, "lon": -77.06280683333334, "fusion_lon": 0.0, "fusion_lat": 0.0, "is_disabled": 0, "type": "electric_scooter", "bike_id": "788fb64570281580dccec6b5a80c8d2c", "rental_uris": {"android": "https://dc.lft.to/lastmile_qr_scan", "ios": "https://dc.lft.to/lastmile_qr_scan"}, "name": "788fb64570281580dccec6b5a80c8d2c"}, {"lat": 38.87634583333333, "is_reserved": 0, "lon": -77.005508, "fusion_lon": 0.0, "fusion_lat": 0.0, "is_disabled": 0, "type": "electric_scooter", "bike_id": "c43f615c9562b518ac1d54dacf457c52", "rental_uris": {"android": "https://dc.lft.to/lastmile_qr_scan", "ios": "https://dc.lft.to/lastmile_qr_scan"}, "name": "c43f615c9562b518ac1d54dacf457c52"}, {"lat": 38.920882666666664, "is_reserved": 0, "lon": -77.023881, "fusion_lon": 0.0, "fusion_lat": 0.0, "is_disabled": 0, "type": "electric_scooter", "bike_id": "aa86647ba56f84710f93803fd63f53c9", "rental_uris": {"android": "https://dc.lft.to/lastmile_qr_scan", "ios": "https://dc.lft.to/lastmile_qr_scan"}, "name": "aa86647ba56f84710f93803fd63f53c9"}, {"lat": 38.79472783333333, "is_reserved": 0, "lon": -76.9924525, "fusion_lon": 0.0, "fusion_lat": 0.0, "is_disabled": 0, "type": "electric_bike", "bike_id": "fe68c480f529e83ebe8b3eada4d552ac", "rental_uris": {"android": "https://dc.lft.to/lastmile_qr_scan", "ios": "https://dc.lft.to/lastmile_qr_scan"}, "name": "fe68c480f529e83ebe8b3eada4d552ac"}, {"lat": 38.900052, "is_reserved": 0, "lon": -77.01133766666666, "fusion_lon": 0.0, "fusion_lat": 0.0, "is_disabled": 0, "type": "electric_scooter", "bike_id": "539b3cba929e796c5686263e974ea1c9", "rental_uris": {"android": "https://dc.lft.to/lastmile_qr_scan", "ios": "https://dc.lft.to/lastmile_qr_scan"}, "name": "539b3cba929e796c5686263e974ea1c9"}, {"lat": 38.89861483333333, "is_reserved": 0, "lon": -76.9464055, "fusion_lon": 0.0, "fusion_lat": 0.0, "is_disabled": 0, "type": "electric_scooter", "bike_id": "ab801daf445e51a7c551f28ea5d8f016", "rental_uris": {"android": "https://dc.lft.to/lastmile_qr_scan", "ios": "https://dc.lft.to/lastmile_qr_scan"}, "name": "ab801daf445e51a7c551f28ea5d8f016"}, {"lat": 38.89582716666666, "is_reserved": 0, "lon": -76.98183266666666, "fusion_lon": 0.0, "fusion_lat": 0.0, "is_disabled": 0, "type": "electric_scooter", "bike_id": "e123197ee8b7a74f68b32a5437f35afa", "rental_uris": {"android": "https://dc.lft.to/lastmile_qr_scan", "ios": "https://dc.lft.to/lastmile_qr_scan"}, "name": "e123197ee8b7a74f68b32a5437f35afa"}, {"lat": 38.909563, "is_reserved": 0, "lon": -77.04457933333333, "fusion_lon": 0.0, "fusion_lat": 0.0, "is_disabled": 0, "type": "electric_scooter", "bike_id": "969b4315567595a94fc0c1a5899001ba", "rental_uris": {"android": "https://dc.lft.to/lastmile_qr_scan", "ios": "https://dc.lft.to/lastmile_qr_scan"}, "name": "969b4315567595a94fc0c1a5899001ba"}, {"lat": 38.87377683333333, "is_reserved": 0, "lon": -77.00146066666667, "fusion_lon": 0.0, "fusion_lat": 0.0, "is_disabled": 0, "type": "electric_scooter", "bike_id": "aa15e3931091967a3d8900aa8b6a442b", "rental_uris": {"android": "https://dc.lft.to/lastmile_qr_scan", "ios": "https://dc.lft.to/lastmile_qr_scan"}, "name": "aa15e3931091967a3d8900aa8b6a442b"}, {"lat": 38.924707166666664, "is_reserved": 0, "lon": -77.02224483333333, "fusion_lon": 0.0, "fusion_lat": 0.0, "is_disabled": 0, "type": "electric_scooter", "bike_id": "18e1a9b2586223c385a9eb5212ec5207", "rental_uris": {"android": "https://dc.lft.to/lastmile_qr_scan", "ios": "https://dc.lft.to/lastmile_qr_scan"}, "name": "18e1a9b2586223c385a9eb5212ec5207"}, {"lat": 38.928859833333334, "is_reserved": 0, "lon": -77.03289516666666, "fusion_lon": 0.0, "fusion_lat": 0.0, "is_disabled": 0, "type": "electric_bike", "bike_id": "5e68f9fcb187c20c16f1f78550e17b29", "rental_uris": {"android": "https://dc.lft.to/lastmile_qr_scan", "ios": "https://dc.lft.to/lastmile_qr_scan"}, "name": "5e68f9fcb187c20c16f1f78550e17b29"}, {"lat": 38.866905833333334, "is_reserved": 0, "lon": -76.98541566666667, "fusion_lon": 0.0, "fusion_lat": 0.0, "is_disabled": 0, "type": "electric_scooter", "bike_id": "3a79180094baff216cfbc5542e0d83f0", "rental_uris": {"android": "https://dc.lft.to/lastmile_qr_scan", "ios": "https://dc.lft.to/lastmile_qr_scan"}, "name": "3a79180094baff216cfbc5542e0d83f0"}, {"lat": 38.902519, "is_reserved": 0, "lon": -77.029406, "fusion_lon": 0.0, "fusion_lat": 0.0, "is_disabled": 0, "type": "electric_scooter", "bike_id": "b312ec27a29cd1895c8958141efea245", "rental_uris": {"android": "https://dc.lft.to/lastmile_qr_scan", "ios": "https://dc.lft.to/lastmile_qr_scan"}, "name": "b312ec27a29cd1895c8958141efea245"}, {"lat": 38.9318075, "is_reserved": 0, "lon": -77.00090083333333, "fusion_lon": 0.0, "fusion_lat": 0.0, "is_disabled": 0, "type": "electric_scooter", "bike_id": "4c6980b5d9b309d26f043cad11a38733", "rental_uris": {"android": "https://dc.lft.to/lastmile_qr_scan", "ios": "https://dc.lft.to/lastmile_qr_scan"}, "name": "4c6980b5d9b309d26f043cad11a38733"}, {"lat": 38.91772433333333, "is_reserved": 0, "lon": -77.04768933333334, "fusion_lon": 0.0, "fusion_lat": 0.0, "is_disabled": 0, "type": "electric_bike", "bike_id": "a136ce309cc9895cb189e49aa8fd4b7d", "rental_uris": {"android": "https://dc.lft.to/lastmile_qr_scan", "ios": "https://dc.lft.to/lastmile_qr_scan"}, "name": "a136ce309cc9895cb189e49aa8fd4b7d"}, {"lat": 38.926990333333336, "is_reserved": 0, "lon": -77.03565333333333, "fusion_lon": 0.0, "fusion_lat": 0.0, "is_disabled": 0, "type": "electric_scooter", "bike_id": "91a867f4fd6836aae108b6d94fe1e1c9", "rental_uris": {"android": "https://dc.lft.to/lastmile_qr_scan", "ios": "https://dc.lft.to/lastmile_qr_scan"}, "name": "91a867f4fd6836aae108b6d94fe1e1c9"}, {"lat": 38.928702333333334, "is_reserved": 0, "lon": -76.97747083333333, "fusion_lon": 0.0, "fusion_lat": 0.0, "is_disabled": 0, "type": "electric_scooter", "bike_id": "cf4a49b9edfa44fd91a5c779b2734071", "rental_uris": {"android": "https://dc.lft.to/lastmile_qr_scan", "ios": "https://dc.lft.to/lastmile_qr_scan"}, "name": "cf4a49b9edfa44fd91a5c779b2734071"}, {"lat": 38.997024, "is_reserved": 0, "lon": -77.0255865, "fusion_lon": 0.0, "fusion_lat": 0.0, "is_disabled": 0, "type": "electric_bike", "bike_id": "f68a91064724e7afbbf367ae8682b9c2", "rental_uris": {"android": "https://dc.lft.to/lastmile_qr_scan", "ios": "https://dc.lft.to/lastmile_qr_scan"}, "name": "f68a91064724e7afbbf367ae8682b9c2"}, {"lat": 38.86746866666667, "is_reserved": 0, "lon": -76.978604, "fusion_lon": 0.0, "fusion_lat": 0.0, "is_disabled": 0, "type": "electric_scooter", "bike_id": "46c67ccb0b1bfb16ce6ba0a305baa6d5", "rental_uris": {"android": "https://dc.lft.to/lastmile_qr_scan", "ios": "https://dc.lft.to/lastmile_qr_scan"}, "name": "46c67ccb0b1bfb16ce6ba0a305baa6d5"}, {"lat": 38.87370466666667, "is_reserved": 0, "lon": -77.00108916666667, "fusion_lon": 0.0, "fusion_lat": 0.0, "is_disabled": 0, "type": "electric_scooter", "bike_id": "aa561469f982f3d2bce97e124956788b", "rental_uris": {"android": "https://dc.lft.to/lastmile_qr_scan", "ios": "https://dc.lft.to/lastmile_qr_scan"}, "name": "aa561469f982f3d2bce97e124956788b"}, {"lat": 38.9240185, "is_reserved": 0, "lon": -77.01222116666666, "fusion_lon": 0.0, "fusion_lat": 0.0, "is_disabled": 0, "type": "electric_scooter", "bike_id": "c7bce27f10cafaf0af857e76e0b24802", "rental_uris": {"android": "https://dc.lft.to/lastmile_qr_scan", "ios": "https://dc.lft.to/lastmile_qr_scan"}, "name": "c7bce27f10cafaf0af857e76e0b24802"}, {"lat": 38.9048145, "is_reserved": 0, "lon": -77.04881216666666, "fusion_lon": 0.0, "fusion_lat": 0.0, "is_disabled": 0, "type": "electric_scooter", "bike_id": "0472f4644f0204be418513b278a92584", "rental_uris": {"android": "https://dc.lft.to/lastmile_qr_scan", "ios": "https://dc.lft.to/lastmile_qr_scan"}, "name": "0472f4644f0204be418513b278a92584"}, {"lat": 38.898164666666666, "is_reserved": 0, "lon": -76.99082833333334, "fusion_lon": 0.0, "fusion_lat": 0.0, "is_disabled": 0, "type": "electric_bike", "bike_id": "e4721af1f4bb386bdd62be475db25864", "rental_uris": {"android": "https://dc.lft.to/lastmile_qr_scan", "ios": "https://dc.lft.to/lastmile_qr_scan"}, "name": "e4721af1f4bb386bdd62be475db25864"}, {"lat": 38.9052445, "is_reserved": 0, "lon": -77.05770216666667, "fusion_lon": 0.0, "fusion_lat": 0.0, "is_disabled": 0, "type": "electric_scooter", "bike_id": "38e61fc6cf18052373f7979e1aacae64", "rental_uris": {"android": "https://dc.lft.to/lastmile_qr_scan", "ios": "https://dc.lft.to/lastmile_qr_scan"}, "name": "38e61fc6cf18052373f7979e1aacae64"}, {"lat": 38.84248, "is_reserved": 0, "lon": -77.0788655, "fusion_lon": 0.0, "fusion_lat": 0.0, "is_disabled": 0, "type": "electric_bike", "bike_id": "ad90983412202f3a5ccd9f22666d6be6", "rental_uris": {"android": "https://dc.lft.to/lastmile_qr_scan", "ios": "https://dc.lft.to/lastmile_qr_scan"}, "name": "ad90983412202f3a5ccd9f22666d6be6"}, {"lat": 38.922155833333335, "is_reserved": 0, "lon": -77.03521433333333, "fusion_lon": 0.0, "fusion_lat": 0.0, "is_disabled": 0, "type": "electric_scooter", "bike_id": "f583c556aded6ab25e281947e5f3ddd3", "rental_uris": {"android": "https://dc.lft.to/lastmile_qr_scan", "ios": "https://dc.lft.to/lastmile_qr_scan"}, "name": "f583c556aded6ab25e281947e5f3ddd3"}, {"lat": 38.90813216666667, "is_reserved": 0, "lon": -77.048816, "fusion_lon": 0.0, "fusion_lat": 0.0, "is_disabled": 0, "type": "electric_scooter", "bike_id": "16699d893e58333477c5c763a06d2ae4", "rental_uris": {"android": "https://dc.lft.to/lastmile_qr_scan", "ios": "https://dc.lft.to/lastmile_qr_scan"}, "name": "16699d893e58333477c5c763a06d2ae4"}, {"lat": 38.9278955, "is_reserved": 0, "lon": -77.03274616666667, "fusion_lon": 0.0, "fusion_lat": 0.0, "is_disabled": 0, "type": "electric_scooter", "bike_id": "2361a3e54a9496304a3a63467cfa451f", "rental_uris": {"android": "https://dc.lft.to/lastmile_qr_scan", "ios": "https://dc.lft.to/lastmile_qr_scan"}, "name": "2361a3e54a9496304a3a63467cfa451f"}, {"lat": 38.903141, "is_reserved": 0, "lon": -76.991293, "fusion_lon": 0.0, "fusion_lat": 0.0, "is_disabled": 0, "type": "electric_scooter", "bike_id": "d49ba1fc1f9cdde6a6a5d459349d9066", "rental_uris": {"android": "https://dc.lft.to/lastmile_qr_scan", "ios": "https://dc.lft.to/lastmile_qr_scan"}, "name": "d49ba1fc1f9cdde6a6a5d459349d9066"}, {"lat": 38.902353, "is_reserved": 0, "lon": -77.05456133333334, "fusion_lon": 0.0, "fusion_lat": 0.0, "is_disabled": 0, "type": "electric_scooter", "bike_id": "662ce15d1f2274566a514aba3ba62227", "rental_uris": {"android": "https://dc.lft.to/lastmile_qr_scan", "ios": "https://dc.lft.to/lastmile_qr_scan"}, "name": "662ce15d1f2274566a514aba3ba62227"}, {"lat": 38.90870616666667, "is_reserved": 0, "lon": -76.99797166666667, "fusion_lon": 0.0, "fusion_lat": 0.0, "is_disabled": 0, "type": "electric_scooter", "bike_id": "31c3aaf977df291098eaa4b8bca1ae17", "rental_uris": {"android": "https://dc.lft.to/lastmile_qr_scan", "ios": "https://dc.lft.to/lastmile_qr_scan"}, "name": "31c3aaf977df291098eaa4b8bca1ae17"}, {"lat": 38.90433816666667, "is_reserved": 0, "lon": -76.982781, "fusion_lon": 0.0, "fusion_lat": 0.0, "is_disabled": 0, "type": "electric_scooter", "bike_id": "e05ba39df2b99ba6611d39d1cf90061d", "rental_uris": {"android": "https://dc.lft.to/lastmile_qr_scan", "ios": "https://dc.lft.to/lastmile_qr_scan"}, "name": "e05ba39df2b99ba6611d39d1cf90061d"}, {"lat": 38.93376683333334, "is_reserved": 0, "lon": -77.037914, "fusion_lon": 0.0, "fusion_lat": 0.0, "is_disabled": 0, "type": "electric_bike", "bike_id": "6d1c546139da5bb24d6ecd06a3a2d33e", "rental_uris": {"android": "https://dc.lft.to/lastmile_qr_scan", "ios": "https://dc.lft.to/lastmile_qr_scan"}, "name": "6d1c546139da5bb24d6ecd06a3a2d33e"}, {"lat": 38.907254333333334, "is_reserved": 0, "lon": -77.02984783333333, "fusion_lon": 0.0, "fusion_lat": 0.0, "is_disabled": 0, "type": "electric_scooter", "bike_id": "51c1b13c4c00f9456db3a504d7ee1804", "rental_uris": {"android": "https://dc.lft.to/lastmile_qr_scan", "ios": "https://dc.lft.to/lastmile_qr_scan"}, "name": "51c1b13c4c00f9456db3a504d7ee1804"}, {"lat": 38.894635, "is_reserved": 0, "lon": -77.00339216666667, "fusion_lon": 0.0, "fusion_lat": 0.0, "is_disabled": 0, "type": "electric_scooter", "bike_id": "802e320f6d37100cc3ca69bc7db004cc", "rental_uris": {"android": "https://dc.lft.to/lastmile_qr_scan", "ios": "https://dc.lft.to/lastmile_qr_scan"}, "name": "802e320f6d37100cc3ca69bc7db004cc"}, {"lat": 38.9097285, "is_reserved": 0, "lon": -77.04235516666667, "fusion_lon": 0.0, "fusion_lat": 0.0, "is_disabled": 0, "type": "electric_scooter", "bike_id": "de3433656cf9af45daeef516f36162aa", "rental_uris": {"android": "https://dc.lft.to/lastmile_qr_scan", "ios": "https://dc.lft.to/lastmile_qr_scan"}, "name": "de3433656cf9af45daeef516f36162aa"}, {"lat": 38.91415683333334, "is_reserved": 0, "lon": -77.0227715, "fusion_lon": 0.0, "fusion_lat": 0.0, "is_disabled": 0, "type": "electric_scooter", "bike_id": "8a459eeeee7edd3e3327bd695dc906c4", "rental_uris": {"android": "https://dc.lft.to/lastmile_qr_scan", "ios": "https://dc.lft.to/lastmile_qr_scan"}, "name": "8a459eeeee7edd3e3327bd695dc906c4"}, {"lat": 38.928493333333336, "is_reserved": 0, "lon": -77.0361485, "fusion_lon": 0.0, "fusion_lat": 0.0, "is_disabled": 0, "type": "electric_scooter", "bike_id": "5a2c3dcf7f0dbd5c3f602d4bee6e44ed", "rental_uris": {"android": "https://dc.lft.to/lastmile_qr_scan", "ios": "https://dc.lft.to/lastmile_qr_scan"}, "name": "5a2c3dcf7f0dbd5c3f602d4bee6e44ed"}, {"lat": 38.920416, "is_reserved": 0, "lon": -77.041843, "fusion_lon": 0.0, "fusion_lat": 0.0, "is_disabled": 0, "type": "electric_scooter", "bike_id": "b29f7cda7ea583365785c7b744abf9e2", "rental_uris": {"android": "https://dc.lft.to/lastmile_qr_scan", "ios": "https://dc.lft.to/lastmile_qr_scan"}, "name": "b29f7cda7ea583365785c7b744abf9e2"}, {"lat": 38.92519, "is_reserved": 0, "lon": -77.05129416666666, "fusion_lon": 0.0, "fusion_lat": 0.0, "is_disabled": 0, "type": "electric_scooter", "bike_id": "c501012dd77cf03a00ef0f965b187b9c", "rental_uris": {"android": "https://dc.lft.to/lastmile_qr_scan", "ios": "https://dc.lft.to/lastmile_qr_scan"}, "name": "c501012dd77cf03a00ef0f965b187b9c"}, {"lat": 38.9236405, "is_reserved": 0, "lon": -77.01963183333334, "fusion_lon": 0.0, "fusion_lat": 0.0, "is_disabled": 0, "type": "electric_scooter", "bike_id": "c50192a7350d7b9d81435c695090f5ce", "rental_uris": {"android": "https://dc.lft.to/lastmile_qr_scan", "ios": "https://dc.lft.to/lastmile_qr_scan"}, "name": "c50192a7350d7b9d81435c695090f5ce"}, {"lat": 38.91616666666667, "is_reserved": 0, "lon": -77.03178116666666, "fusion_lon": 0.0, "fusion_lat": 0.0, "is_disabled": 0, "type": "electric_scooter", "bike_id": "4a6513686016a8c48398dbd04b2ae6d5", "rental_uris": {"android": "https://dc.lft.to/lastmile_qr_scan", "ios": "https://dc.lft.to/lastmile_qr_scan"}, "name": "4a6513686016a8c48398dbd04b2ae6d5"}, {"lat": 38.87912466666667, "is_reserved": 0, "lon": -77.0215115, "fusion_lon": 0.0, "fusion_lat": 0.0, "is_disabled": 0, "type": "electric_scooter", "bike_id": "543f49e0c42c5053d14eb6302f5c2259", "rental_uris": {"android": "https://dc.lft.to/lastmile_qr_scan", "ios": "https://dc.lft.to/lastmile_qr_scan"}, "name": "543f49e0c42c5053d14eb6302f5c2259"}, {"lat": 38.8941995, "is_reserved": 0, "lon": -77.02091433333334, "fusion_lon": 0.0, "fusion_lat": 0.0, "is_disabled": 0, "type": "electric_scooter", "bike_id": "6fd8f03b8dfe15e9a5d27f7698604184", "rental_uris": {"android": "https://dc.lft.to/lastmile_qr_scan", "ios": "https://dc.lft.to/lastmile_qr_scan"}, "name": "6fd8f03b8dfe15e9a5d27f7698604184"}, {"lat": 38.917444333333336, "is_reserved": 0, "lon": -77.03641416666666, "fusion_lon": 0.0, "fusion_lat": 0.0, "is_disabled": 0, "type": "electric_scooter", "bike_id": "5bb9ba26481a30bfe448e5d3080e8524", "rental_uris": {"android": "https://dc.lft.to/lastmile_qr_scan", "ios": "https://dc.lft.to/lastmile_qr_scan"}, "name": "5bb9ba26481a30bfe448e5d3080e8524"}, {"lat": 38.91567383333334, "is_reserved": 0, "lon": -77.031966, "fusion_lon": 0.0, "fusion_lat": 0.0, "is_disabled": 0, "type": "electric_scooter", "bike_id": "0b909ee057c0049d88093cb657e275bb", "rental_uris": {"android": "https://dc.lft.to/lastmile_qr_scan", "ios": "https://dc.lft.to/lastmile_qr_scan"}, "name": "0b909ee057c0049d88093cb657e275bb"}, {"lat": 38.927293, "is_reserved": 0, "lon": -77.02309516666666, "fusion_lon": 0.0, "fusion_lat": 0.0, "is_disabled": 0, "type": "electric_scooter", "bike_id": "c728550c8ea0d0cfd09a21e49038f1a2", "rental_uris": {"android": "https://dc.lft.to/lastmile_qr_scan", "ios": "https://dc.lft.to/lastmile_qr_scan"}, "name": "c728550c8ea0d0cfd09a21e49038f1a2"}, {"lat": 38.90006916666667, "is_reserved": 0, "lon": -77.01130116666667, "fusion_lon": 0.0, "fusion_lat": 0.0, "is_disabled": 0, "type": "electric_scooter", "bike_id": "f899a4792d7f933a560721cfd9e89437", "rental_uris": {"android": "https://dc.lft.to/lastmile_qr_scan", "ios": "https://dc.lft.to/lastmile_qr_scan"}, "name": "f899a4792d7f933a560721cfd9e89437"}, {"lat": 38.887633, "is_reserved": 0, "lon": -76.955933, "fusion_lon": 0.0, "fusion_lat": 0.0, "is_disabled": 0, "type": "electric_scooter", "bike_id": "767ff57c0fc2e8d1454e22a952e62995", "rental_uris": {"android": "https://dc.lft.to/lastmile_qr_scan", "ios": "https://dc.lft.to/lastmile_qr_scan"}, "name": "767ff57c0fc2e8d1454e22a952e62995"}, {"lat": 38.924759333333334, "is_reserved": 0, "lon": -77.0521585, "fusion_lon": 0.0, "fusion_lat": 0.0, "is_disabled": 0, "type": "electric_scooter", "bike_id": "006fd96b7dc2a98694e34aeebf50df3d", "rental_uris": {"android": "https://dc.lft.to/lastmile_qr_scan", "ios": "https://dc.lft.to/lastmile_qr_scan"}, "name": "006fd96b7dc2a98694e34aeebf50df3d"}, {"lat": 38.89645183333333, "is_reserved": 0, "lon": -77.0708685, "fusion_lon": 0.0, "fusion_lat": 0.0, "is_disabled": 0, "type": "electric_scooter", "bike_id": "6933b27ac6b15c4d2f5c2a63084deab5", "rental_uris": {"android": "https://dc.lft.to/lastmile_qr_scan", "ios": "https://dc.lft.to/lastmile_qr_scan"}, "name": "6933b27ac6b15c4d2f5c2a63084deab5"}, {"lat": 38.931019, "is_reserved": 0, "lon": -77.0245595, "fusion_lon": 0.0, "fusion_lat": 0.0, "is_disabled": 0, "type": "electric_scooter", "bike_id": "234c47bd1a297eb32d9ff7e4e3490dd4", "rental_uris": {"android": "https://dc.lft.to/lastmile_qr_scan", "ios": "https://dc.lft.to/lastmile_qr_scan"}, "name": "234c47bd1a297eb32d9ff7e4e3490dd4"}, {"lat": 38.875678, "is_reserved": 0, "lon": -77.00577566666666, "fusion_lon": 0.0, "fusion_lat": 0.0, "is_disabled": 0, "type": "electric_scooter", "bike_id": "d7a433ab6f2f3a3353860b35b75252b7", "rental_uris": {"android": "https://dc.lft.to/lastmile_qr_scan", "ios": "https://dc.lft.to/lastmile_qr_scan"}, "name": "d7a433ab6f2f3a3353860b35b75252b7"}, {"lat": 38.897206, "is_reserved": 0, "lon": -77.02714866666666, "fusion_lon": 0.0, "fusion_lat": 0.0, "is_disabled": 0, "type": "electric_scooter", "bike_id": "6acec4e9d35d422d3912035cace3eee7", "rental_uris": {"android": "https://dc.lft.to/lastmile_qr_scan", "ios": "https://dc.lft.to/lastmile_qr_scan"}, "name": "6acec4e9d35d422d3912035cace3eee7"}, {"lat": 38.90357433333333, "is_reserved": 0, "lon": -77.02558866666666, "fusion_lon": 0.0, "fusion_lat": 0.0, "is_disabled": 0, "type": "electric_scooter", "bike_id": "37fef90806c5165f0f01466e4ca5f511", "rental_uris": {"android": "https://dc.lft.to/lastmile_qr_scan", "ios": "https://dc.lft.to/lastmile_qr_scan"}, "name": "37fef90806c5165f0f01466e4ca5f511"}, {"lat": 38.99696566666667, "is_reserved": 0, "lon": -77.0254465, "fusion_lon": 0.0, "fusion_lat": 0.0, "is_disabled": 0, "type": "electric_bike", "bike_id": "8c49d8bdf5f1f5c6f25dc03d3f2dddc5", "rental_uris": {"android": "https://dc.lft.to/lastmile_qr_scan", "ios": "https://dc.lft.to/lastmile_qr_scan"}, "name": "8c49d8bdf5f1f5c6f25dc03d3f2dddc5"}, {"lat": 38.9171415, "is_reserved": 0, "lon": -77.0385785, "fusion_lon": 0.0, "fusion_lat": 0.0, "is_disabled": 0, "type": "electric_scooter", "bike_id": "48f9607149843bc5375efb7f823dfb7c", "rental_uris": {"android": "https://dc.lft.to/lastmile_qr_scan", "ios": "https://dc.lft.to/lastmile_qr_scan"}, "name": "48f9607149843bc5375efb7f823dfb7c"}, {"lat": 38.905977166666666, "is_reserved": 0, "lon": -77.01326566666667, "fusion_lon": 0.0, "fusion_lat": 0.0, "is_disabled": 0, "type": "electric_scooter", "bike_id": "86ef35a6ff3a7f68f741c9a6ab5b694e", "rental_uris": {"android": "https://dc.lft.to/lastmile_qr_scan", "ios": "https://dc.lft.to/lastmile_qr_scan"}, "name": "86ef35a6ff3a7f68f741c9a6ab5b694e"}, {"lat": 38.920526333333335, "is_reserved": 0, "lon": -77.04199283333334, "fusion_lon": 0.0, "fusion_lat": 0.0, "is_disabled": 0, "type": "electric_scooter", "bike_id": "25fc103e72bb28e3afe9f4b1faaddfd5", "rental_uris": {"android": "https://dc.lft.to/lastmile_qr_scan", "ios": "https://dc.lft.to/lastmile_qr_scan"}, "name": "25fc103e72bb28e3afe9f4b1faaddfd5"}, {"lat": 38.86627516666667, "is_reserved": 0, "lon": -76.9871235, "fusion_lon": 0.0, "fusion_lat": 0.0, "is_disabled": 0, "type": "electric_scooter", "bike_id": "d72fe46e586c15eb4b97ded3727242e0", "rental_uris": {"android": "https://dc.lft.to/lastmile_qr_scan", "ios": "https://dc.lft.to/lastmile_qr_scan"}, "name": "d72fe46e586c15eb4b97ded3727242e0"}, {"lat": 38.9117905, "is_reserved": 0, "lon": -77.01130066666667, "fusion_lon": 0.0, "fusion_lat": 0.0, "is_disabled": 0, "type": "electric_scooter", "bike_id": "7d2633201fb77ee9f2d6359e7eb025b0", "rental_uris": {"android": "https://dc.lft.to/lastmile_qr_scan", "ios": "https://dc.lft.to/lastmile_qr_scan"}, "name": "7d2633201fb77ee9f2d6359e7eb025b0"}, {"lat": 38.989676, "is_reserved": 0, "lon": -77.02385333333334, "fusion_lon": 0.0, "fusion_lat": 0.0, "is_disabled": 0, "type": "electric_bike", "bike_id": "c07bee476d957d4fc19fc183a72799ca", "rental_uris": {"android": "https://dc.lft.to/lastmile_qr_scan", "ios": "https://dc.lft.to/lastmile_qr_scan"}, "name": "c07bee476d957d4fc19fc183a72799ca"}, {"lat": 38.917185, "is_reserved": 0, "lon": -77.027095, "fusion_lon": 0.0, "fusion_lat": 0.0, "is_disabled": 0, "type": "electric_scooter", "bike_id": "264c0fdf4215cef1d5118f661c8e1261", "rental_uris": {"android": "https://dc.lft.to/lastmile_qr_scan", "ios": "https://dc.lft.to/lastmile_qr_scan"}, "name": "264c0fdf4215cef1d5118f661c8e1261"}, {"lat": 38.90515116666667, "is_reserved": 0, "lon": -77.04188933333333, "fusion_lon": 0.0, "fusion_lat": 0.0, "is_disabled": 0, "type": "electric_scooter", "bike_id": "29bdff36725881ef0dbc15d63a8b36b4", "rental_uris": {"android": "https://dc.lft.to/lastmile_qr_scan", "ios": "https://dc.lft.to/lastmile_qr_scan"}, "name": "29bdff36725881ef0dbc15d63a8b36b4"}, {"lat": 38.90132233333333, "is_reserved": 0, "lon": -77.04666833333333, "fusion_lon": 0.0, "fusion_lat": 0.0, "is_disabled": 0, "type": "electric_scooter", "bike_id": "3c67000e4c639d35db0930328b82a7d3", "rental_uris": {"android": "https://dc.lft.to/lastmile_qr_scan", "ios": "https://dc.lft.to/lastmile_qr_scan"}, "name": "3c67000e4c639d35db0930328b82a7d3"}, {"lat": 38.903687166666664, "is_reserved": 0, "lon": -76.98605633333334, "fusion_lon": 0.0, "fusion_lat": 0.0, "is_disabled": 0, "type": "electric_scooter", "bike_id": "43f5e96b58768073624322862289dcaa", "rental_uris": {"android": "https://dc.lft.to/lastmile_qr_scan", "ios": "https://dc.lft.to/lastmile_qr_scan"}, "name": "43f5e96b58768073624322862289dcaa"}, {"lat": 38.91681033333333, "is_reserved": 0, "lon": -77.01604116666667, "fusion_lon": 0.0, "fusion_lat": 0.0, "is_disabled": 0, "type": "electric_scooter", "bike_id": "c142619390a6d39cc033da1334fd1f2a", "rental_uris": {"android": "https://dc.lft.to/lastmile_qr_scan", "ios": "https://dc.lft.to/lastmile_qr_scan"}, "name": "c142619390a6d39cc033da1334fd1f2a"}, {"lat": 38.925367666666666, "is_reserved": 0, "lon": -77.05070116666667, "fusion_lon": 0.0, "fusion_lat": 0.0, "is_disabled": 0, "type": "electric_scooter", "bike_id": "8523afc0726b66bd794b7dbe249a1c66", "rental_uris": {"android": "https://dc.lft.to/lastmile_qr_scan", "ios": "https://dc.lft.to/lastmile_qr_scan"}, "name": "8523afc0726b66bd794b7dbe249a1c66"}, {"lat": 38.915525, "is_reserved": 0, "lon": -77.02126733333333, "fusion_lon": 0.0, "fusion_lat": 0.0, "is_disabled": 0, "type": "electric_scooter", "bike_id": "fc41b7b2f1315c3287b2fb1e8964b5a2", "rental_uris": {"android": "https://dc.lft.to/lastmile_qr_scan", "ios": "https://dc.lft.to/lastmile_qr_scan"}, "name": "fc41b7b2f1315c3287b2fb1e8964b5a2"}, {"lat": 38.9026555, "is_reserved": 0, "lon": -77.03822716666667, "fusion_lon": 0.0, "fusion_lat": 0.0, "is_disabled": 0, "type": "electric_scooter", "bike_id": "5f59541985edd551c0abbafc5d9d105d", "rental_uris": {"android": "https://dc.lft.to/lastmile_qr_scan", "ios": "https://dc.lft.to/lastmile_qr_scan"}, "name": "5f59541985edd551c0abbafc5d9d105d"}, {"lat": 38.905977, "is_reserved": 0, "lon": -77.0433735, "fusion_lon": 0.0, "fusion_lat": 0.0, "is_disabled": 0, "type": "electric_scooter", "bike_id": "3be5e3ce9e9792a899e9a3720bbbb9bb", "rental_uris": {"android": "https://dc.lft.to/lastmile_qr_scan", "ios": "https://dc.lft.to/lastmile_qr_scan"}, "name": "3be5e3ce9e9792a899e9a3720bbbb9bb"}, {"lat": 38.86683566666667, "is_reserved": 0, "lon": -76.98569016666667, "fusion_lon": 0.0, "fusion_lat": 0.0, "is_disabled": 0, "type": "electric_scooter", "bike_id": "f0ffbf8b6a0001a2005e78a7b7e4b8c4", "rental_uris": {"android": "https://dc.lft.to/lastmile_qr_scan", "ios": "https://dc.lft.to/lastmile_qr_scan"}, "name": "f0ffbf8b6a0001a2005e78a7b7e4b8c4"}, {"lat": 38.853567166666664, "is_reserved": 0, "lon": -77.13461683333334, "fusion_lon": 0.0, "fusion_lat": 0.0, "is_disabled": 0, "type": "electric_bike", "bike_id": "75e695c5fa34c2f01e1fb3e101f5dae4", "rental_uris": {"android": "https://dc.lft.to/lastmile_qr_scan", "ios": "https://dc.lft.to/lastmile_qr_scan"}, "name": "75e695c5fa34c2f01e1fb3e101f5dae4"}, {"lat": 38.90981933333333, "is_reserved": 0, "lon": -77.02177683333333, "fusion_lon": 0.0, "fusion_lat": 0.0, "is_disabled": 0, "type": "electric_scooter", "bike_id": "bd1a28f7ac0468819118a0fbcda302e9", "rental_uris": {"android": "https://dc.lft.to/lastmile_qr_scan", "ios": "https://dc.lft.to/lastmile_qr_scan"}, "name": "bd1a28f7ac0468819118a0fbcda302e9"}, {"lat": 38.91857783333333, "is_reserved": 0, "lon": -77.04168066666666, "fusion_lon": 0.0, "fusion_lat": 0.0, "is_disabled": 0, "type": "electric_scooter", "bike_id": "0d34886e8e4b8343796bb1e9c53d3590", "rental_uris": {"android": "https://dc.lft.to/lastmile_qr_scan", "ios": "https://dc.lft.to/lastmile_qr_scan"}, "name": "0d34886e8e4b8343796bb1e9c53d3590"}, {"lat": 38.93477333333333, "is_reserved": 0, "lon": -77.07275116666666, "fusion_lon": 0.0, "fusion_lat": 0.0, "is_disabled": 0, "type": "electric_scooter", "bike_id": "dc3973ac91941fb8aae23b25c7a24220", "rental_uris": {"android": "https://dc.lft.to/lastmile_qr_scan", "ios": "https://dc.lft.to/lastmile_qr_scan"}, "name": "dc3973ac91941fb8aae23b25c7a24220"}, {"lat": 38.897400166666664, "is_reserved": 0, "lon": -76.979761, "fusion_lon": 0.0, "fusion_lat": 0.0, "is_disabled": 0, "type": "electric_scooter", "bike_id": "87a94f5233e0553504798e07eb829823", "rental_uris": {"android": "https://dc.lft.to/lastmile_qr_scan", "ios": "https://dc.lft.to/lastmile_qr_scan"}, "name": "87a94f5233e0553504798e07eb829823"}, {"lat": 38.901342, "is_reserved": 0, "lon": -77.01309616666667, "fusion_lon": 0.0, "fusion_lat": 0.0, "is_disabled": 0, "type": "electric_scooter", "bike_id": "3b94a592330e3cfbc0ece4a0dbf13693", "rental_uris": {"android": "https://dc.lft.to/lastmile_qr_scan", "ios": "https://dc.lft.to/lastmile_qr_scan"}, "name": "3b94a592330e3cfbc0ece4a0dbf13693"}, {"lat": 38.891826, "is_reserved": 0, "lon": -76.994787, "fusion_lon": 0.0, "fusion_lat": 0.0, "is_disabled": 0, "type": "electric_scooter", "bike_id": "cf59346fbfada0c719fac7708abc2f96", "rental_uris": {"android": "https://dc.lft.to/lastmile_qr_scan", "ios": "https://dc.lft.to/lastmile_qr_scan"}, "name": "cf59346fbfada0c719fac7708abc2f96"}, {"lat": 38.89234166666667, "is_reserved": 0, "lon": -77.041616, "fusion_lon": 0.0, "fusion_lat": 0.0, "is_disabled": 0, "type": "electric_scooter", "bike_id": "52cdb35c83d6aefa13f928193884a276", "rental_uris": {"android": "https://dc.lft.to/lastmile_qr_scan", "ios": "https://dc.lft.to/lastmile_qr_scan"}, "name": "52cdb35c83d6aefa13f928193884a276"}, {"lat": 38.90517883333333, "is_reserved": 0, "lon": -77.064443, "fusion_lon": 0.0, "fusion_lat": 0.0, "is_disabled": 0, "type": "electric_scooter", "bike_id": "79dc70e00d7e8d591460a90dd5143d1f", "rental_uris": {"android": "https://dc.lft.to/lastmile_qr_scan", "ios": "https://dc.lft.to/lastmile_qr_scan"}, "name": "79dc70e00d7e8d591460a90dd5143d1f"}, {"lat": 39.060445, "is_reserved": 0, "lon": -77.12212583333333, "fusion_lon": 0.0, "fusion_lat": 0.0, "is_disabled": 0, "type": "electric_bike", "bike_id": "522d864739c8cfbd34d47e75b7a90041", "rental_uris": {"android": "https://dc.lft.to/lastmile_qr_scan", "ios": "https://dc.lft.to/lastmile_qr_scan"}, "name": "522d864739c8cfbd34d47e75b7a90041"}, {"lat": 38.917114166666664, "is_reserved": 0, "lon": -77.02790683333333, "fusion_lon": 0.0, "fusion_lat": 0.0, "is_disabled": 0, "type": "electric_scooter", "bike_id": "ef94b97ca39da677b703eb23e7b14f0b", "rental_uris": {"android": "https://dc.lft.to/lastmile_qr_scan", "ios": "https://dc.lft.to/lastmile_qr_scan"}, "name": "ef94b97ca39da677b703eb23e7b14f0b"}, {"lat": 38.87986933333333, "is_reserved": 0, "lon": -76.91595866666667, "fusion_lon": 0.0, "fusion_lat": 0.0, "is_disabled": 0, "type": "electric_bike", "bike_id": "1b439d8b7d81746be384c4ae1a4528f4", "rental_uris": {"android": "https://dc.lft.to/lastmile_qr_scan", "ios": "https://dc.lft.to/lastmile_qr_scan"}, "name": "1b439d8b7d81746be384c4ae1a4528f4"}, {"lat": 38.90780133333333, "is_reserved": 0, "lon": -77.0716655, "fusion_lon": 0.0, "fusion_lat": 0.0, "is_disabled": 0, "type": "electric_scooter", "bike_id": "e3db5991dfdc849959284239b1f6e9c9", "rental_uris": {"android": "https://dc.lft.to/lastmile_qr_scan", "ios": "https://dc.lft.to/lastmile_qr_scan"}, "name": "e3db5991dfdc849959284239b1f6e9c9"}, {"lat": 38.89534883333334, "is_reserved": 0, "lon": -76.94893983333333, "fusion_lon": 0.0, "fusion_lat": 0.0, "is_disabled": 0, "type": "electric_scooter", "bike_id": "e4a00d813186fdca136b6d0af8c27cc0", "rental_uris": {"android": "https://dc.lft.to/lastmile_qr_scan", "ios": "https://dc.lft.to/lastmile_qr_scan"}, "name": "e4a00d813186fdca136b6d0af8c27cc0"}, {"lat": 38.883002, "is_reserved": 0, "lon": -76.94852666666667, "fusion_lon": 0.0, "fusion_lat": 0.0, "is_disabled": 0, "type": "electric_scooter", "bike_id": "cbf294fac4cdc4ee6fdf31bbe9a84bcf", "rental_uris": {"android": "https://dc.lft.to/lastmile_qr_scan", "ios": "https://dc.lft.to/lastmile_qr_scan"}, "name": "cbf294fac4cdc4ee6fdf31bbe9a84bcf"}, {"lat": 38.89240733333333, "is_reserved": 0, "lon": -77.031874, "fusion_lon": 0.0, "fusion_lat": 0.0, "is_disabled": 0, "type": "electric_scooter", "bike_id": "565e1c944afddd717a40a2ee4e7c0646", "rental_uris": {"android": "https://dc.lft.to/lastmile_qr_scan", "ios": "https://dc.lft.to/lastmile_qr_scan"}, "name": "565e1c944afddd717a40a2ee4e7c0646"}, {"lat": 38.92781433333333, "is_reserved": 0, "lon": -77.05255833333334, "fusion_lon": 0.0, "fusion_lat": 0.0, "is_disabled": 0, "type": "electric_scooter", "bike_id": "4e3a2083f976172640fea7f2cbfc96ec", "rental_uris": {"android": "https://dc.lft.to/lastmile_qr_scan", "ios": "https://dc.lft.to/lastmile_qr_scan"}, "name": "4e3a2083f976172640fea7f2cbfc96ec"}, {"lat": 38.934269, "is_reserved": 0, "lon": -77.04005533333333, "fusion_lon": 0.0, "fusion_lat": 0.0, "is_disabled": 0, "type": "electric_scooter", "bike_id": "64ec2c9365f7840c607d064bfe85836d", "rental_uris": {"android": "https://dc.lft.to/lastmile_qr_scan", "ios": "https://dc.lft.to/lastmile_qr_scan"}, "name": "64ec2c9365f7840c607d064bfe85836d"}, {"lat": 38.94918716666667, "is_reserved": 0, "lon": -77.007596, "fusion_lon": 0.0, "fusion_lat": 0.0, "is_disabled": 0, "type": "electric_scooter", "bike_id": "e81cd8aaaaf00a84c747b33ccc85af41", "rental_uris": {"android": "https://dc.lft.to/lastmile_qr_scan", "ios": "https://dc.lft.to/lastmile_qr_scan"}, "name": "e81cd8aaaaf00a84c747b33ccc85af41"}, {"lat": 38.895260666666665, "is_reserved": 0, "lon": -77.003402, "fusion_lon": 0.0, "fusion_lat": 0.0, "is_disabled": 0, "type": "electric_scooter", "bike_id": "f1e57e6d06b9238457134bf66a4c1973", "rental_uris": {"android": "https://dc.lft.to/lastmile_qr_scan", "ios": "https://dc.lft.to/lastmile_qr_scan"}, "name": "f1e57e6d06b9238457134bf66a4c1973"}, {"lat": 38.874986666666665, "is_reserved": 0, "lon": -77.001261, "fusion_lon": 0.0, "fusion_lat": 0.0, "is_disabled": 0, "type": "electric_scooter", "bike_id": "bef14215b36d126f600673ee04c0f8d7", "rental_uris": {"android": "https://dc.lft.to/lastmile_qr_scan", "ios": "https://dc.lft.to/lastmile_qr_scan"}, "name": "bef14215b36d126f600673ee04c0f8d7"}, {"lat": 38.8039155, "is_reserved": 0, "lon": -77.05563933333333, "fusion_lon": 0.0, "fusion_lat": 0.0, "is_disabled": 0, "type": "electric_bike", "bike_id": "1e640fa2d46667aceb4175acb2d66aa8", "rental_uris": {"android": "https://dc.lft.to/lastmile_qr_scan", "ios": "https://dc.lft.to/lastmile_qr_scan"}, "name": "1e640fa2d46667aceb4175acb2d66aa8"}, {"lat": 38.89360833333333, "is_reserved": 0, "lon": -76.94940133333333, "fusion_lon": 0.0, "fusion_lat": 0.0, "is_disabled": 0, "type": "electric_scooter", "bike_id": "a71d8e1d35a6d92853afe0fbac827b57", "rental_uris": {"android": "https://dc.lft.to/lastmile_qr_scan", "ios": "https://dc.lft.to/lastmile_qr_scan"}, "name": "a71d8e1d35a6d92853afe0fbac827b57"}, {"lat": 38.90988383333333, "is_reserved": 0, "lon": -77.03194783333333, "fusion_lon": 0.0, "fusion_lat": 0.0, "is_disabled": 0, "type": "electric_scooter", "bike_id": "df4a674cb3de59471c708f71b1475754", "rental_uris": {"android": "https://dc.lft.to/lastmile_qr_scan", "ios": "https://dc.lft.to/lastmile_qr_scan"}, "name": "df4a674cb3de59471c708f71b1475754"}, {"lat": 38.923635833333336, "is_reserved": 0, "lon": -77.01949966666666, "fusion_lon": 0.0, "fusion_lat": 0.0, "is_disabled": 0, "type": "electric_scooter", "bike_id": "73bd5cd35d7a44e740cb8a4b2f183a37", "rental_uris": {"android": "https://dc.lft.to/lastmile_qr_scan", "ios": "https://dc.lft.to/lastmile_qr_scan"}, "name": "73bd5cd35d7a44e740cb8a4b2f183a37"}, {"lat": 38.89503716666667, "is_reserved": 0, "lon": -77.02295, "fusion_lon": 0.0, "fusion_lat": 0.0, "is_disabled": 0, "type": "electric_scooter", "bike_id": "b5cf96bf8c41163e0b0d77790c1f7cfc", "rental_uris": {"android": "https://dc.lft.to/lastmile_qr_scan", "ios": "https://dc.lft.to/lastmile_qr_scan"}, "name": "b5cf96bf8c41163e0b0d77790c1f7cfc"}, {"lat": 38.91532433333333, "is_reserved": 0, "lon": -77.01984516666667, "fusion_lon": 0.0, "fusion_lat": 0.0, "is_disabled": 0, "type": "electric_scooter", "bike_id": "d08efb0cfaeb2dfa5818a0a661d3a71a", "rental_uris": {"android": "https://dc.lft.to/lastmile_qr_scan", "ios": "https://dc.lft.to/lastmile_qr_scan"}, "name": "d08efb0cfaeb2dfa5818a0a661d3a71a"}, {"lat": 38.91979233333333, "is_reserved": 0, "lon": -77.02187616666667, "fusion_lon": 0.0, "fusion_lat": 0.0, "is_disabled": 0, "type": "electric_scooter", "bike_id": "7536f3f04b1743f5ab7995d3b98843e2", "rental_uris": {"android": "https://dc.lft.to/lastmile_qr_scan", "ios": "https://dc.lft.to/lastmile_qr_scan"}, "name": "7536f3f04b1743f5ab7995d3b98843e2"}, {"lat": 38.912705833333334, "is_reserved": 0, "lon": -77.0222445, "fusion_lon": 0.0, "fusion_lat": 0.0, "is_disabled": 0, "type": "electric_scooter", "bike_id": "c16b5506194e8ef175a3bba2c5b8c045", "rental_uris": {"android": "https://dc.lft.to/lastmile_qr_scan", "ios": "https://dc.lft.to/lastmile_qr_scan"}, "name": "c16b5506194e8ef175a3bba2c5b8c045"}, {"lat": 38.91059383333333, "is_reserved": 0, "lon": -77.02629716666667, "fusion_lon": 0.0, "fusion_lat": 0.0, "is_disabled": 0, "type": "electric_scooter", "bike_id": "14465a95345aa8bc62795eb9a5bddda1", "rental_uris": {"android": "https://dc.lft.to/lastmile_qr_scan", "ios": "https://dc.lft.to/lastmile_qr_scan"}, "name": "14465a95345aa8bc62795eb9a5bddda1"}, {"lat": 38.9238625, "is_reserved": 0, "lon": -77.036605, "fusion_lon": 0.0, "fusion_lat": 0.0, "is_disabled": 0, "type": "electric_scooter", "bike_id": "53ec7871032b054d1e7bc8e3341efb0f", "rental_uris": {"android": "https://dc.lft.to/lastmile_qr_scan", "ios": "https://dc.lft.to/lastmile_qr_scan"}, "name": "53ec7871032b054d1e7bc8e3341efb0f"}, {"lat": 38.86514416666667, "is_reserved": 0, "lon": -77.12940266666666, "fusion_lon": 0.0, "fusion_lat": 0.0, "is_disabled": 0, "type": "electric_bike", "bike_id": "c8afdf92a48dcd2e0594c651b40947f0", "rental_uris": {"android": "https://dc.lft.to/lastmile_qr_scan", "ios": "https://dc.lft.to/lastmile_qr_scan"}, "name": "c8afdf92a48dcd2e0594c651b40947f0"}, {"lat": 38.8982085, "is_reserved": 0, "lon": -77.024365, "fusion_lon": 0.0, "fusion_lat": 0.0, "is_disabled": 0, "type": "electric_scooter", "bike_id": "c5f11521fbc252bc67096abfceff3d4f", "rental_uris": {"android": "https://dc.lft.to/lastmile_qr_scan", "ios": "https://dc.lft.to/lastmile_qr_scan"}, "name": "c5f11521fbc252bc67096abfceff3d4f"}, {"lat": 38.89482133333333, "is_reserved": 0, "lon": -77.02299083333334, "fusion_lon": 0.0, "fusion_lat": 0.0, "is_disabled": 0, "type": "electric_scooter", "bike_id": "b7d8d813f29ed787312bbaab85a4954f", "rental_uris": {"android": "https://dc.lft.to/lastmile_qr_scan", "ios": "https://dc.lft.to/lastmile_qr_scan"}, "name": "b7d8d813f29ed787312bbaab85a4954f"}, {"lat": 38.909798333333335, "is_reserved": 0, "lon": -77.03462783333333, "fusion_lon": 0.0, "fusion_lat": 0.0, "is_disabled": 0, "type": "electric_scooter", "bike_id": "a895e516f2088f263826372c17360724", "rental_uris": {"android": "https://dc.lft.to/lastmile_qr_scan", "ios": "https://dc.lft.to/lastmile_qr_scan"}, "name": "a895e516f2088f263826372c17360724"}, {"lat": 38.90020333333333, "is_reserved": 0, "lon": -77.04352666666666, "fusion_lon": 0.0, "fusion_lat": 0.0, "is_disabled": 0, "type": "electric_scooter", "bike_id": "c06119c1c56469a9a57d388ea0cc77cb", "rental_uris": {"android": "https://dc.lft.to/lastmile_qr_scan", "ios": "https://dc.lft.to/lastmile_qr_scan"}, "name": "c06119c1c56469a9a57d388ea0cc77cb"}, {"lat": 38.92039066666667, "is_reserved": 0, "lon": -77.04190033333333, "fusion_lon": 0.0, "fusion_lat": 0.0, "is_disabled": 0, "type": "electric_scooter", "bike_id": "3cd763148e3186a415898c3760c2bfe8", "rental_uris": {"android": "https://dc.lft.to/lastmile_qr_scan", "ios": "https://dc.lft.to/lastmile_qr_scan"}, "name": "3cd763148e3186a415898c3760c2bfe8"}, {"lat": 38.98465016666667, "is_reserved": 0, "lon": -77.026397, "fusion_lon": 0.0, "fusion_lat": 0.0, "is_disabled": 0, "type": "electric_scooter", "bike_id": "cdebedd8c64c084b614d82709d5fb399", "rental_uris": {"android": "https://dc.lft.to/lastmile_qr_scan", "ios": "https://dc.lft.to/lastmile_qr_scan"}, "name": "cdebedd8c64c084b614d82709d5fb399"}, {"lat": 38.908064333333336, "is_reserved": 0, "lon": -77.04359633333333, "fusion_lon": 0.0, "fusion_lat": 0.0, "is_disabled": 0, "type": "electric_scooter", "bike_id": "50336452a9003e7b5b59de2ced0f3b28", "rental_uris": {"android": "https://dc.lft.to/lastmile_qr_scan", "ios": "https://dc.lft.to/lastmile_qr_scan"}, "name": "50336452a9003e7b5b59de2ced0f3b28"}, {"lat": 38.91220716666667, "is_reserved": 0, "lon": -77.02957566666667, "fusion_lon": 0.0, "fusion_lat": 0.0, "is_disabled": 0, "type": "electric_scooter", "bike_id": "5b64dc30f542844d6948ba96baf33fbf", "rental_uris": {"android": "https://dc.lft.to/lastmile_qr_scan", "ios": "https://dc.lft.to/lastmile_qr_scan"}, "name": "5b64dc30f542844d6948ba96baf33fbf"}, {"lat": 38.89957283333333, "is_reserved": 0, "lon": -77.055785, "fusion_lon": 0.0, "fusion_lat": 0.0, "is_disabled": 0, "type": "electric_scooter", "bike_id": "a33a74bdc11a18f1d21a4db89725f90d", "rental_uris": {"android": "https://dc.lft.to/lastmile_qr_scan", "ios": "https://dc.lft.to/lastmile_qr_scan"}, "name": "a33a74bdc11a18f1d21a4db89725f90d"}, {"lat": 38.91671316666667, "is_reserved": 0, "lon": -77.02376166666667, "fusion_lon": 0.0, "fusion_lat": 0.0, "is_disabled": 0, "type": "electric_scooter", "bike_id": "6d858d8ef56ceb18e06c3d77ec67e150", "rental_uris": {"android": "https://dc.lft.to/lastmile_qr_scan", "ios": "https://dc.lft.to/lastmile_qr_scan"}, "name": "6d858d8ef56ceb18e06c3d77ec67e150"}, {"lat": 38.917072, "is_reserved": 0, "lon": -77.02788316666667, "fusion_lon": 0.0, "fusion_lat": 0.0, "is_disabled": 0, "type": "electric_scooter", "bike_id": "b35d4b33620ed1494d6906c076c7c55d", "rental_uris": {"android": "https://dc.lft.to/lastmile_qr_scan", "ios": "https://dc.lft.to/lastmile_qr_scan"}, "name": "b35d4b33620ed1494d6906c076c7c55d"}, {"lat": 38.90943816666667, "is_reserved": 0, "lon": -77.0344665, "fusion_lon": 0.0, "fusion_lat": 0.0, "is_disabled": 0, "type": "electric_scooter", "bike_id": "ce9af30895ecae4abebd2488129ecfa4", "rental_uris": {"android": "https://dc.lft.to/lastmile_qr_scan", "ios": "https://dc.lft.to/lastmile_qr_scan"}, "name": "ce9af30895ecae4abebd2488129ecfa4"}, {"lat": 38.939715, "is_reserved": 0, "lon": -77.02452233333334, "fusion_lon": 0.0, "fusion_lat": 0.0, "is_disabled": 0, "type": "electric_scooter", "bike_id": "a48e344eaacb4f4bbb346601faaf5306", "rental_uris": {"android": "https://dc.lft.to/lastmile_qr_scan", "ios": "https://dc.lft.to/lastmile_qr_scan"}, "name": "a48e344eaacb4f4bbb346601faaf5306"}, {"lat": 38.8575715, "is_reserved": 0, "lon": -76.99303866666666, "fusion_lon": 0.0, "fusion_lat": 0.0, "is_disabled": 0, "type": "electric_scooter", "bike_id": "81b5029e4aba5275a4c344ba94f2c750", "rental_uris": {"android": "https://dc.lft.to/lastmile_qr_scan", "ios": "https://dc.lft.to/lastmile_qr_scan"}, "name": "81b5029e4aba5275a4c344ba94f2c750"}, {"lat": 38.905537333333335, "is_reserved": 0, "lon": -77.04296116666667, "fusion_lon": 0.0, "fusion_lat": 0.0, "is_disabled": 0, "type": "electric_scooter", "bike_id": "026835d6ffc9f8b499d44a6ef7293543", "rental_uris": {"android": "https://dc.lft.to/lastmile_qr_scan", "ios": "https://dc.lft.to/lastmile_qr_scan"}, "name": "026835d6ffc9f8b499d44a6ef7293543"}, {"lat": 38.92493483333333, "is_reserved": 0, "lon": -77.04132133333333, "fusion_lon": 0.0, "fusion_lat": 0.0, "is_disabled": 0, "type": "electric_scooter", "bike_id": "599cc0bf4ac66cfb0a33148b9732108d", "rental_uris": {"android": "https://dc.lft.to/lastmile_qr_scan", "ios": "https://dc.lft.to/lastmile_qr_scan"}, "name": "599cc0bf4ac66cfb0a33148b9732108d"}, {"lat": 38.92135716666667, "is_reserved": 0, "lon": -77.0180755, "fusion_lon": 0.0, "fusion_lat": 0.0, "is_disabled": 0, "type": "electric_scooter", "bike_id": "212d7ac19f2ec6c3f36768cf46bfa6fb", "rental_uris": {"android": "https://dc.lft.to/lastmile_qr_scan", "ios": "https://dc.lft.to/lastmile_qr_scan"}, "name": "212d7ac19f2ec6c3f36768cf46bfa6fb"}, {"lat": 38.90849133333333, "is_reserved": 0, "lon": -76.998011, "fusion_lon": 0.0, "fusion_lat": 0.0, "is_disabled": 0, "type": "electric_scooter", "bike_id": "4c6f5020ba981806dac41cf31622db30", "rental_uris": {"android": "https://dc.lft.to/lastmile_qr_scan", "ios": "https://dc.lft.to/lastmile_qr_scan"}, "name": "4c6f5020ba981806dac41cf31622db30"}, {"lat": 38.905869333333335, "is_reserved": 0, "lon": -77.05700783333333, "fusion_lon": 0.0, "fusion_lat": 0.0, "is_disabled": 0, "type": "electric_scooter", "bike_id": "df56b4ca8cbe37b64a4d06dc9c20e276", "rental_uris": {"android": "https://dc.lft.to/lastmile_qr_scan", "ios": "https://dc.lft.to/lastmile_qr_scan"}, "name": "df56b4ca8cbe37b64a4d06dc9c20e276"}, {"lat": 38.876602, "is_reserved": 0, "lon": -77.00458666666667, "fusion_lon": 0.0, "fusion_lat": 0.0, "is_disabled": 0, "type": "electric_scooter", "bike_id": "47918c438adc3a8cd1c0131d2a01fb30", "rental_uris": {"android": "https://dc.lft.to/lastmile_qr_scan", "ios": "https://dc.lft.to/lastmile_qr_scan"}, "name": "47918c438adc3a8cd1c0131d2a01fb30"}, {"lat": 38.860077, "is_reserved": 0, "lon": -76.99659116666666, "fusion_lon": 0.0, "fusion_lat": 0.0, "is_disabled": 0, "type": "electric_scooter", "bike_id": "804b2836513bda91be471103aaeb1b4b", "rental_uris": {"android": "https://dc.lft.to/lastmile_qr_scan", "ios": "https://dc.lft.to/lastmile_qr_scan"}, "name": "804b2836513bda91be471103aaeb1b4b"}, {"lat": 38.91692333333334, "is_reserved": 0, "lon": -77.02595266666667, "fusion_lon": 0.0, "fusion_lat": 0.0, "is_disabled": 0, "type": "electric_scooter", "bike_id": "650ce4a46737fe5e52153203635fed7e", "rental_uris": {"android": "https://dc.lft.to/lastmile_qr_scan", "ios": "https://dc.lft.to/lastmile_qr_scan"}, "name": "650ce4a46737fe5e52153203635fed7e"}, {"lat": 38.87533616666666, "is_reserved": 0, "lon": -77.00072933333334, "fusion_lon": 0.0, "fusion_lat": 0.0, "is_disabled": 0, "type": "electric_scooter", "bike_id": "8b2d7a3f14737c152faf87db7d382be9", "rental_uris": {"android": "https://dc.lft.to/lastmile_qr_scan", "ios": "https://dc.lft.to/lastmile_qr_scan"}, "name": "8b2d7a3f14737c152faf87db7d382be9"}, {"lat": 38.91557266666667, "is_reserved": 0, "lon": -77.03192916666667, "fusion_lon": 0.0, "fusion_lat": 0.0, "is_disabled": 0, "type": "electric_scooter", "bike_id": "157dd8b4081bafb15182a59e741a7cd3", "rental_uris": {"android": "https://dc.lft.to/lastmile_qr_scan", "ios": "https://dc.lft.to/lastmile_qr_scan"}, "name": "157dd8b4081bafb15182a59e741a7cd3"}, {"lat": 38.9086905, "is_reserved": 0, "lon": -76.933385, "fusion_lon": 0.0, "fusion_lat": 0.0, "is_disabled": 0, "type": "electric_scooter", "bike_id": "9b54b02e7195fae47392ef21eb9a724f", "rental_uris": {"android": "https://dc.lft.to/lastmile_qr_scan", "ios": "https://dc.lft.to/lastmile_qr_scan"}, "name": "9b54b02e7195fae47392ef21eb9a724f"}, {"lat": 38.9082845, "is_reserved": 0, "lon": -77.03678033333334, "fusion_lon": 0.0, "fusion_lat": 0.0, "is_disabled": 0, "type": "electric_scooter", "bike_id": "dcffd8995bb2ac95d69cd7cbe902e23e", "rental_uris": {"android": "https://dc.lft.to/lastmile_qr_scan", "ios": "https://dc.lft.to/lastmile_qr_scan"}, "name": "dcffd8995bb2ac95d69cd7cbe902e23e"}, {"lat": 38.88421483333333, "is_reserved": 0, "lon": -76.9969285, "fusion_lon": 0.0, "fusion_lat": 0.0, "is_disabled": 0, "type": "electric_scooter", "bike_id": "3ff1683c02a019ba2443d10298edb7e6", "rental_uris": {"android": "https://dc.lft.to/lastmile_qr_scan", "ios": "https://dc.lft.to/lastmile_qr_scan"}, "name": "3ff1683c02a019ba2443d10298edb7e6"}, {"lat": 38.92645066666667, "is_reserved": 0, "lon": -77.03848916666666, "fusion_lon": 0.0, "fusion_lat": 0.0, "is_disabled": 0, "type": "electric_scooter", "bike_id": "df192ddcab98d648a02609ca83ad755c", "rental_uris": {"android": "https://dc.lft.to/lastmile_qr_scan", "ios": "https://dc.lft.to/lastmile_qr_scan"}, "name": "df192ddcab98d648a02609ca83ad755c"}, {"lat": 38.8960775, "is_reserved": 0, "lon": -77.022482, "fusion_lon": 0.0, "fusion_lat": 0.0, "is_disabled": 0, "type": "electric_scooter", "bike_id": "7c5a743cd607233a960a823fe51d03d9", "rental_uris": {"android": "https://dc.lft.to/lastmile_qr_scan", "ios": "https://dc.lft.to/lastmile_qr_scan"}, "name": "7c5a743cd607233a960a823fe51d03d9"}, {"lat": 38.938721, "is_reserved": 0, "lon": -77.03392233333334, "fusion_lon": 0.0, "fusion_lat": 0.0, "is_disabled": 0, "type": "electric_scooter", "bike_id": "1f0f283a8ed504935f5fc459117398ba", "rental_uris": {"android": "https://dc.lft.to/lastmile_qr_scan", "ios": "https://dc.lft.to/lastmile_qr_scan"}, "name": "1f0f283a8ed504935f5fc459117398ba"}, {"lat": 38.907286, "is_reserved": 0, "lon": -77.0237325, "fusion_lon": 0.0, "fusion_lat": 0.0, "is_disabled": 0, "type": "electric_scooter", "bike_id": "45920a171d34aef0f0b28136c1c61f2f", "rental_uris": {"android": "https://dc.lft.to/lastmile_qr_scan", "ios": "https://dc.lft.to/lastmile_qr_scan"}, "name": "45920a171d34aef0f0b28136c1c61f2f"}, {"lat": 38.88256716666667, "is_reserved": 0, "lon": -76.93556683333334, "fusion_lon": 0.0, "fusion_lat": 0.0, "is_disabled": 0, "type": "electric_scooter", "bike_id": "f6912fafd7760c06449b42ebd70d40ba", "rental_uris": {"android": "https://dc.lft.to/lastmile_qr_scan", "ios": "https://dc.lft.to/lastmile_qr_scan"}, "name": "f6912fafd7760c06449b42ebd70d40ba"}, {"lat": 38.914672, "is_reserved": 0, "lon": -77.02163466666667, "fusion_lon": 0.0, "fusion_lat": 0.0, "is_disabled": 0, "type": "electric_scooter", "bike_id": "a325a83e831b707dc3248d91280dcce2", "rental_uris": {"android": "https://dc.lft.to/lastmile_qr_scan", "ios": "https://dc.lft.to/lastmile_qr_scan"}, "name": "a325a83e831b707dc3248d91280dcce2"}, {"lat": 38.897221333333334, "is_reserved": 0, "lon": -77.02601566666667, "fusion_lon": 0.0, "fusion_lat": 0.0, "is_disabled": 0, "type": "electric_scooter", "bike_id": "fa6f5c6a48f064051cf05f8253fe14f6", "rental_uris": {"android": "https://dc.lft.to/lastmile_qr_scan", "ios": "https://dc.lft.to/lastmile_qr_scan"}, "name": "fa6f5c6a48f064051cf05f8253fe14f6"}, {"lat": 38.89221583333333, "is_reserved": 0, "lon": -77.04371683333333, "fusion_lon": 0.0, "fusion_lat": 0.0, "is_disabled": 0, "type": "electric_scooter", "bike_id": "25141dcb3cbb381fffcc5125268093f0", "rental_uris": {"android": "https://dc.lft.to/lastmile_qr_scan", "ios": "https://dc.lft.to/lastmile_qr_scan"}, "name": "25141dcb3cbb381fffcc5125268093f0"}, {"lat": 38.926216833333335, "is_reserved": 0, "lon": -77.04190416666667, "fusion_lon": 0.0, "fusion_lat": 0.0, "is_disabled": 0, "type": "electric_scooter", "bike_id": "4f642c8e06dcaf256253639c2fe6f7a7", "rental_uris": {"android": "https://dc.lft.to/lastmile_qr_scan", "ios": "https://dc.lft.to/lastmile_qr_scan"}, "name": "4f642c8e06dcaf256253639c2fe6f7a7"}, {"lat": 38.89304083333333, "is_reserved": 0, "lon": -76.93977316666667, "fusion_lon": 0.0, "fusion_lat": 0.0, "is_disabled": 0, "type": "electric_scooter", "bike_id": "48c1cd4a5dcabd9dbdf9cb8447befa36", "rental_uris": {"android": "https://dc.lft.to/lastmile_qr_scan", "ios": "https://dc.lft.to/lastmile_qr_scan"}, "name": "48c1cd4a5dcabd9dbdf9cb8447befa36"}, {"lat": 38.92057233333333, "is_reserved": 0, "lon": -77.025585, "fusion_lon": 0.0, "fusion_lat": 0.0, "is_disabled": 0, "type": "electric_scooter", "bike_id": "4fe7076724059236e79344f077d96134", "rental_uris": {"android": "https://dc.lft.to/lastmile_qr_scan", "ios": "https://dc.lft.to/lastmile_qr_scan"}, "name": "4fe7076724059236e79344f077d96134"}, {"lat": 38.91693383333333, "is_reserved": 0, "lon": -77.03054, "fusion_lon": 0.0, "fusion_lat": 0.0, "is_disabled": 0, "type": "electric_scooter", "bike_id": "2c4b47811d29ca3631d5bf8d73ed1ade", "rental_uris": {"android": "https://dc.lft.to/lastmile_qr_scan", "ios": "https://dc.lft.to/lastmile_qr_scan"}, "name": "2c4b47811d29ca3631d5bf8d73ed1ade"}, {"lat": 38.846142, "is_reserved": 0, "lon": -76.9826935, "fusion_lon": 0.0, "fusion_lat": 0.0, "is_disabled": 0, "type": "electric_scooter", "bike_id": "a9aaf646200210f1224cf8052723c635", "rental_uris": {"android": "https://dc.lft.to/lastmile_qr_scan", "ios": "https://dc.lft.to/lastmile_qr_scan"}, "name": "a9aaf646200210f1224cf8052723c635"}, {"lat": 38.8923245, "is_reserved": 0, "lon": -77.04161833333333, "fusion_lon": 0.0, "fusion_lat": 0.0, "is_disabled": 0, "type": "electric_scooter", "bike_id": "4320818ebc76ef71baed60ec0645ac4a", "rental_uris": {"android": "https://dc.lft.to/lastmile_qr_scan", "ios": "https://dc.lft.to/lastmile_qr_scan"}, "name": "4320818ebc76ef71baed60ec0645ac4a"}, {"lat": 38.90138116666667, "is_reserved": 0, "lon": -77.00072716666666, "fusion_lon": 0.0, "fusion_lat": 0.0, "is_disabled": 0, "type": "electric_scooter", "bike_id": "4ff172a484285104e43de3e253842a28", "rental_uris": {"android": "https://dc.lft.to/lastmile_qr_scan", "ios": "https://dc.lft.to/lastmile_qr_scan"}, "name": "4ff172a484285104e43de3e253842a28"}, {"lat": 38.88430866666667, "is_reserved": 0, "lon": -76.96110183333333, "fusion_lon": 0.0, "fusion_lat": 0.0, "is_disabled": 0, "type": "electric_scooter", "bike_id": "b98397abfa5d4da793bd27e9d8067ccc", "rental_uris": {"android": "https://dc.lft.to/lastmile_qr_scan", "ios": "https://dc.lft.to/lastmile_qr_scan"}, "name": "b98397abfa5d4da793bd27e9d8067ccc"}, {"lat": 38.921337333333334, "is_reserved": 0, "lon": -77.01799516666667, "fusion_lon": 0.0, "fusion_lat": 0.0, "is_disabled": 0, "type": "electric_scooter", "bike_id": "1ae147f94c6cef75fd495f41f6c84e6b", "rental_uris": {"android": "https://dc.lft.to/lastmile_qr_scan", "ios": "https://dc.lft.to/lastmile_qr_scan"}, "name": "1ae147f94c6cef75fd495f41f6c84e6b"}, {"lat": 38.8624465, "is_reserved": 0, "lon": -76.99493266666667, "fusion_lon": 0.0, "fusion_lat": 0.0, "is_disabled": 0, "type": "electric_scooter", "bike_id": "78f10796971f02aa5f7b6b9cfbc8de38", "rental_uris": {"android": "https://dc.lft.to/lastmile_qr_scan", "ios": "https://dc.lft.to/lastmile_qr_scan"}, "name": "78f10796971f02aa5f7b6b9cfbc8de38"}, {"lat": 38.906799666666664, "is_reserved": 0, "lon": -76.9867215, "fusion_lon": 0.0, "fusion_lat": 0.0, "is_disabled": 0, "type": "electric_scooter", "bike_id": "9102834c52dc636a34c275045933145f", "rental_uris": {"android": "https://dc.lft.to/lastmile_qr_scan", "ios": "https://dc.lft.to/lastmile_qr_scan"}, "name": "9102834c52dc636a34c275045933145f"}, {"lat": 38.89536533333333, "is_reserved": 0, "lon": -77.01991816666667, "fusion_lon": 0.0, "fusion_lat": 0.0, "is_disabled": 0, "type": "electric_scooter", "bike_id": "19723114ebb304a5d470be3844ddc8a5", "rental_uris": {"android": "https://dc.lft.to/lastmile_qr_scan", "ios": "https://dc.lft.to/lastmile_qr_scan"}, "name": "19723114ebb304a5d470be3844ddc8a5"}, {"lat": 38.895155333333335, "is_reserved": 0, "lon": -77.04477183333333, "fusion_lon": 0.0, "fusion_lat": 0.0, "is_disabled": 0, "type": "electric_scooter", "bike_id": "8489aa3f76fb31b6864edd184c7a1cec", "rental_uris": {"android": "https://dc.lft.to/lastmile_qr_scan", "ios": "https://dc.lft.to/lastmile_qr_scan"}, "name": "8489aa3f76fb31b6864edd184c7a1cec"}, {"lat": 38.9013885, "is_reserved": 0, "lon": -76.99804033333334, "fusion_lon": 0.0, "fusion_lat": 0.0, "is_disabled": 0, "type": "electric_scooter", "bike_id": "415be6e1cc6fd28d0fd42b7a55a271d4", "rental_uris": {"android": "https://dc.lft.to/lastmile_qr_scan", "ios": "https://dc.lft.to/lastmile_qr_scan"}, "name": "415be6e1cc6fd28d0fd42b7a55a271d4"}, {"lat": 38.91834733333334, "is_reserved": 0, "lon": -77.04173216666666, "fusion_lon": 0.0, "fusion_lat": 0.0, "is_disabled": 0, "type": "electric_scooter", "bike_id": "8ba49ea2bbc6f4b5ea8d2fcf47cc48bf", "rental_uris": {"android": "https://dc.lft.to/lastmile_qr_scan", "ios": "https://dc.lft.to/lastmile_qr_scan"}, "name": "8ba49ea2bbc6f4b5ea8d2fcf47cc48bf"}, {"lat": 38.94997583333333, "is_reserved": 0, "lon": -77.02190166666666, "fusion_lon": 0.0, "fusion_lat": 0.0, "is_disabled": 0, "type": "electric_scooter", "bike_id": "6ef1da65cea4f706cbbcdc1bb5670fc8", "rental_uris": {"android": "https://dc.lft.to/lastmile_qr_scan", "ios": "https://dc.lft.to/lastmile_qr_scan"}, "name": "6ef1da65cea4f706cbbcdc1bb5670fc8"}, {"lat": 38.892238, "is_reserved": 0, "lon": -77.043682, "fusion_lon": 0.0, "fusion_lat": 0.0, "is_disabled": 0, "type": "electric_scooter", "bike_id": "fec68a49e0cd8801f05b73b75ecc24c7", "rental_uris": {"android": "https://dc.lft.to/lastmile_qr_scan", "ios": "https://dc.lft.to/lastmile_qr_scan"}, "name": "fec68a49e0cd8801f05b73b75ecc24c7"}, {"lat": 38.892469166666665, "is_reserved": 0, "lon": -77.05027233333334, "fusion_lon": 0.0, "fusion_lat": 0.0, "is_disabled": 0, "type": "electric_scooter", "bike_id": "52d9be4d2cdd3667ec09ceeb5da0515f", "rental_uris": {"android": "https://dc.lft.to/lastmile_qr_scan", "ios": "https://dc.lft.to/lastmile_qr_scan"}, "name": "52d9be4d2cdd3667ec09ceeb5da0515f"}, {"lat": 38.88615183333334, "is_reserved": 0, "lon": -76.955838, "fusion_lon": 0.0, "fusion_lat": 0.0, "is_disabled": 0, "type": "electric_scooter", "bike_id": "309cc5cd080c0a5188b0ddaf46fbfef6", "rental_uris": {"android": "https://dc.lft.to/lastmile_qr_scan", "ios": "https://dc.lft.to/lastmile_qr_scan"}, "name": "309cc5cd080c0a5188b0ddaf46fbfef6"}, {"lat": 38.90420566666667, "is_reserved": 0, "lon": -77.04358266666667, "fusion_lon": 0.0, "fusion_lat": 0.0, "is_disabled": 0, "type": "electric_scooter", "bike_id": "f68a9b87411b00425bf1914daa56445a", "rental_uris": {"android": "https://dc.lft.to/lastmile_qr_scan", "ios": "https://dc.lft.to/lastmile_qr_scan"}, "name": "f68a9b87411b00425bf1914daa56445a"}, {"lat": 38.92264933333333, "is_reserved": 0, "lon": -77.03887566666667, "fusion_lon": 0.0, "fusion_lat": 0.0, "is_disabled": 0, "type": "electric_scooter", "bike_id": "3df0f569f8087e3ee24f27fcad55db15", "rental_uris": {"android": "https://dc.lft.to/lastmile_qr_scan", "ios": "https://dc.lft.to/lastmile_qr_scan"}, "name": "3df0f569f8087e3ee24f27fcad55db15"}, {"lat": 38.93556733333333, "is_reserved": 0, "lon": -77.02968283333334, "fusion_lon": 0.0, "fusion_lat": 0.0, "is_disabled": 0, "type": "electric_scooter", "bike_id": "25a71f57c1552803aa496e22eb49834c", "rental_uris": {"android": "https://dc.lft.to/lastmile_qr_scan", "ios": "https://dc.lft.to/lastmile_qr_scan"}, "name": "25a71f57c1552803aa496e22eb49834c"}, {"lat": 38.92736383333333, "is_reserved": 0, "lon": -76.99557416666667, "fusion_lon": 0.0, "fusion_lat": 0.0, "is_disabled": 0, "type": "electric_scooter", "bike_id": "c9f7799da196c94f8141654017baca78", "rental_uris": {"android": "https://dc.lft.to/lastmile_qr_scan", "ios": "https://dc.lft.to/lastmile_qr_scan"}, "name": "c9f7799da196c94f8141654017baca78"}, {"lat": 38.92694433333333, "is_reserved": 0, "lon": -77.036418, "fusion_lon": 0.0, "fusion_lat": 0.0, "is_disabled": 0, "type": "electric_scooter", "bike_id": "2931b8f0e656ce59aa17299573fd93bf", "rental_uris": {"android": "https://dc.lft.to/lastmile_qr_scan", "ios": "https://dc.lft.to/lastmile_qr_scan"}, "name": "2931b8f0e656ce59aa17299573fd93bf"}, {"lat": 38.901057333333334, "is_reserved": 0, "lon": -77.0705925, "fusion_lon": 0.0, "fusion_lat": 0.0, "is_disabled": 0, "type": "electric_scooter", "bike_id": "ca8366a171c911deecc8a5680eec98df", "rental_uris": {"android": "https://dc.lft.to/lastmile_qr_scan", "ios": "https://dc.lft.to/lastmile_qr_scan"}, "name": "ca8366a171c911deecc8a5680eec98df"}, {"lat": 38.915626833333334, "is_reserved": 0, "lon": -77.03145366666666, "fusion_lon": 0.0, "fusion_lat": 0.0, "is_disabled": 0, "type": "electric_scooter", "bike_id": "a2c99208559ae31f001b0af9ba608cf2", "rental_uris": {"android": "https://dc.lft.to/lastmile_qr_scan", "ios": "https://dc.lft.to/lastmile_qr_scan"}, "name": "a2c99208559ae31f001b0af9ba608cf2"}, {"lat": 38.88735333333333, "is_reserved": 0, "lon": -77.01532266666666, "fusion_lon": 0.0, "fusion_lat": 0.0, "is_disabled": 0, "type": "electric_scooter", "bike_id": "bc09c431d0b2918f00e11b1c274e0b33", "rental_uris": {"android": "https://dc.lft.to/lastmile_qr_scan", "ios": "https://dc.lft.to/lastmile_qr_scan"}, "name": "bc09c431d0b2918f00e11b1c274e0b33"}, {"lat": 38.919414833333335, "is_reserved": 0, "lon": -77.0479725, "fusion_lon": 0.0, "fusion_lat": 0.0, "is_disabled": 0, "type": "electric_scooter", "bike_id": "c947c4a4f36f123254671290282faf23", "rental_uris": {"android": "https://dc.lft.to/lastmile_qr_scan", "ios": "https://dc.lft.to/lastmile_qr_scan"}, "name": "c947c4a4f36f123254671290282faf23"}, {"lat": 38.8945625, "is_reserved": 0, "lon": -77.04677116666667, "fusion_lon": 0.0, "fusion_lat": 0.0, "is_disabled": 0, "type": "electric_scooter", "bike_id": "8c6ff354eff0f1a1f8681477a8d6ec11", "rental_uris": {"android": "https://dc.lft.to/lastmile_qr_scan", "ios": "https://dc.lft.to/lastmile_qr_scan"}, "name": "8c6ff354eff0f1a1f8681477a8d6ec11"}, {"lat": 38.90232066666667, "is_reserved": 0, "lon": -77.04783466666666, "fusion_lon": 0.0, "fusion_lat": 0.0, "is_disabled": 0, "type": "electric_scooter", "bike_id": "14f8630c7ee8943476482ad5ce92143b", "rental_uris": {"android": "https://dc.lft.to/lastmile_qr_scan", "ios": "https://dc.lft.to/lastmile_qr_scan"}, "name": "14f8630c7ee8943476482ad5ce92143b"}, {"lat": 38.8452595, "is_reserved": 0, "lon": -76.97397466666666, "fusion_lon": 0.0, "fusion_lat": 0.0, "is_disabled": 0, "type": "electric_bike", "bike_id": "e46f6c620ab6d4d7d9c6b95164610878", "rental_uris": {"android": "https://dc.lft.to/lastmile_qr_scan", "ios": "https://dc.lft.to/lastmile_qr_scan"}, "name": "e46f6c620ab6d4d7d9c6b95164610878"}, {"lat": 38.91567633333333, "is_reserved": 0, "lon": -77.01585966666667, "fusion_lon": 0.0, "fusion_lat": 0.0, "is_disabled": 0, "type": "electric_scooter", "bike_id": "01394581295f8da9cfd9d83afbf480f1", "rental_uris": {"android": "https://dc.lft.to/lastmile_qr_scan", "ios": "https://dc.lft.to/lastmile_qr_scan"}, "name": "01394581295f8da9cfd9d83afbf480f1"}, {"lat": 38.90662, "is_reserved": 0, "lon": -77.00994516666667, "fusion_lon": 0.0, "fusion_lat": 0.0, "is_disabled": 0, "type": "electric_scooter", "bike_id": "b036340a307af2c0a301cbc41bb5f1b5", "rental_uris": {"android": "https://dc.lft.to/lastmile_qr_scan", "ios": "https://dc.lft.to/lastmile_qr_scan"}, "name": "b036340a307af2c0a301cbc41bb5f1b5"}, {"lat": 38.9100635, "is_reserved": 0, "lon": -76.99866266666666, "fusion_lon": 0.0, "fusion_lat": 0.0, "is_disabled": 0, "type": "electric_scooter", "bike_id": "690fb13ef738e3daeca261e45bfa6625", "rental_uris": {"android": "https://dc.lft.to/lastmile_qr_scan", "ios": "https://dc.lft.to/lastmile_qr_scan"}, "name": "690fb13ef738e3daeca261e45bfa6625"}, {"lat": 38.90360016666666, "is_reserved": 0, "lon": -77.01621766666666, "fusion_lon": 0.0, "fusion_lat": 0.0, "is_disabled": 0, "type": "electric_scooter", "bike_id": "a67a339c1530cd1672d6667d37e5a05b", "rental_uris": {"android": "https://dc.lft.to/lastmile_qr_scan", "ios": "https://dc.lft.to/lastmile_qr_scan"}, "name": "a67a339c1530cd1672d6667d37e5a05b"}, {"lat": 38.912894333333334, "is_reserved": 0, "lon": -77.02384883333333, "fusion_lon": 0.0, "fusion_lat": 0.0, "is_disabled": 0, "type": "electric_scooter", "bike_id": "4cb0a24e38e4d1bd8c331a135d4cd53d", "rental_uris": {"android": "https://dc.lft.to/lastmile_qr_scan", "ios": "https://dc.lft.to/lastmile_qr_scan"}, "name": "4cb0a24e38e4d1bd8c331a135d4cd53d"}, {"lat": 38.91062616666667, "is_reserved": 0, "lon": -77.00463966666666, "fusion_lon": 0.0, "fusion_lat": 0.0, "is_disabled": 0, "type": "electric_scooter", "bike_id": "fc619a100d6e76da2cb3c32727102257", "rental_uris": {"android": "https://dc.lft.to/lastmile_qr_scan", "ios": "https://dc.lft.to/lastmile_qr_scan"}, "name": "fc619a100d6e76da2cb3c32727102257"}, {"lat": 38.917396, "is_reserved": 0, "lon": -77.0108215, "fusion_lon": 0.0, "fusion_lat": 0.0, "is_disabled": 0, "type": "electric_scooter", "bike_id": "c58dbcdf2778ef2d7ca2db931339e2b9", "rental_uris": {"android": "https://dc.lft.to/lastmile_qr_scan", "ios": "https://dc.lft.to/lastmile_qr_scan"}, "name": "c58dbcdf2778ef2d7ca2db931339e2b9"}, {"lat": 38.9759025, "is_reserved": 0, "lon": -77.0176285, "fusion_lon": 0.0, "fusion_lat": 0.0, "is_disabled": 0, "type": "electric_bike", "bike_id": "502eccb306ee755213b85913ede65948", "rental_uris": {"android": "https://dc.lft.to/lastmile_qr_scan", "ios": "https://dc.lft.to/lastmile_qr_scan"}, "name": "502eccb306ee755213b85913ede65948"}, {"lat": 38.9217315, "is_reserved": 0, "lon": -77.03832133333333, "fusion_lon": 0.0, "fusion_lat": 0.0, "is_disabled": 0, "type": "electric_scooter", "bike_id": "d8e4c666d76b96953ab11f987e110388", "rental_uris": {"android": "https://dc.lft.to/lastmile_qr_scan", "ios": "https://dc.lft.to/lastmile_qr_scan"}, "name": "d8e4c666d76b96953ab11f987e110388"}, {"lat": 38.908742, "is_reserved": 0, "lon": -77.031705, "fusion_lon": 0.0, "fusion_lat": 0.0, "is_disabled": 0, "type": "electric_scooter", "bike_id": "66feaae626e45d9a3b8251b4ebd17ca0", "rental_uris": {"android": "https://dc.lft.to/lastmile_qr_scan", "ios": "https://dc.lft.to/lastmile_qr_scan"}, "name": "66feaae626e45d9a3b8251b4ebd17ca0"}, {"lat": 38.905042333333334, "is_reserved": 0, "lon": -77.052658, "fusion_lon": 0.0, "fusion_lat": 0.0, "is_disabled": 0, "type": "electric_scooter", "bike_id": "6c23e6ed0bd6f119b21a82cf043bb436", "rental_uris": {"android": "https://dc.lft.to/lastmile_qr_scan", "ios": "https://dc.lft.to/lastmile_qr_scan"}, "name": "6c23e6ed0bd6f119b21a82cf043bb436"}, {"lat": 38.87656616666666, "is_reserved": 0, "lon": -77.0044945, "fusion_lon": 0.0, "fusion_lat": 0.0, "is_disabled": 0, "type": "electric_scooter", "bike_id": "dc6bda91a9199c1d76871a2bd7cf9714", "rental_uris": {"android": "https://dc.lft.to/lastmile_qr_scan", "ios": "https://dc.lft.to/lastmile_qr_scan"}, "name": "dc6bda91a9199c1d76871a2bd7cf9714"}, {"lat": 38.9453505, "is_reserved": 0, "lon": -77.07962633333334, "fusion_lon": 0.0, "fusion_lat": 0.0, "is_disabled": 0, "type": "electric_scooter", "bike_id": "62d7d3505b49bb33666fe3ee889b0185", "rental_uris": {"android": "https://dc.lft.to/lastmile_qr_scan", "ios": "https://dc.lft.to/lastmile_qr_scan"}, "name": "62d7d3505b49bb33666fe3ee889b0185"}, {"lat": 38.90367233333333, "is_reserved": 0, "lon": -77.0162865, "fusion_lon": 0.0, "fusion_lat": 0.0, "is_disabled": 0, "type": "electric_scooter", "bike_id": "da676d8071e0aaf1858ed17f8cbf7414", "rental_uris": {"android": "https://dc.lft.to/lastmile_qr_scan", "ios": "https://dc.lft.to/lastmile_qr_scan"}, "name": "da676d8071e0aaf1858ed17f8cbf7414"}, {"lat": 38.90649116666667, "is_reserved": 0, "lon": -77.04289283333334, "fusion_lon": 0.0, "fusion_lat": 0.0, "is_disabled": 0, "type": "electric_scooter", "bike_id": "222682a0849851ee22b8863c2639e741", "rental_uris": {"android": "https://dc.lft.to/lastmile_qr_scan", "ios": "https://dc.lft.to/lastmile_qr_scan"}, "name": "222682a0849851ee22b8863c2639e741"}, {"lat": 38.8935685, "is_reserved": 0, "lon": -77.00334666666667, "fusion_lon": 0.0, "fusion_lat": 0.0, "is_disabled": 0, "type": "electric_scooter", "bike_id": "6ee38289fb2dd0eb79d26c4db920e2f5", "rental_uris": {"android": "https://dc.lft.to/lastmile_qr_scan", "ios": "https://dc.lft.to/lastmile_qr_scan"}, "name": "6ee38289fb2dd0eb79d26c4db920e2f5"}, {"lat": 38.92155366666667, "is_reserved": 0, "lon": -77.03371566666667, "fusion_lon": 0.0, "fusion_lat": 0.0, "is_disabled": 0, "type": "electric_scooter", "bike_id": "49ac990e1285953659a5c8085c25df22", "rental_uris": {"android": "https://dc.lft.to/lastmile_qr_scan", "ios": "https://dc.lft.to/lastmile_qr_scan"}, "name": "49ac990e1285953659a5c8085c25df22"}, {"lat": 38.93860883333333, "is_reserved": 0, "lon": -77.02649716666667, "fusion_lon": 0.0, "fusion_lat": 0.0, "is_disabled": 0, "type": "electric_scooter", "bike_id": "3e4809c483a03b3ebfb9370dda994d25", "rental_uris": {"android": "https://dc.lft.to/lastmile_qr_scan", "ios": "https://dc.lft.to/lastmile_qr_scan"}, "name": "3e4809c483a03b3ebfb9370dda994d25"}, {"lat": 38.87686816666667, "is_reserved": 0, "lon": -77.0006145, "fusion_lon": 0.0, "fusion_lat": 0.0, "is_disabled": 0, "type": "electric_scooter", "bike_id": "565142e889335a062f925c6040efa712", "rental_uris": {"android": "https://dc.lft.to/lastmile_qr_scan", "ios": "https://dc.lft.to/lastmile_qr_scan"}, "name": "565142e889335a062f925c6040efa712"}, {"lat": 38.8973455, "is_reserved": 0, "lon": -77.04452266666667, "fusion_lon": 0.0, "fusion_lat": 0.0, "is_disabled": 0, "type": "electric_scooter", "bike_id": "5ea4fcf601c6927d0c4e6c5f05c598cc", "rental_uris": {"android": "https://dc.lft.to/lastmile_qr_scan", "ios": "https://dc.lft.to/lastmile_qr_scan"}, "name": "5ea4fcf601c6927d0c4e6c5f05c598cc"}, {"lat": 38.916948166666664, "is_reserved": 0, "lon": -77.02652466666666, "fusion_lon": 0.0, "fusion_lat": 0.0, "is_disabled": 0, "type": "electric_scooter", "bike_id": "69bb97cf868d64491e9d13b46d3295bf", "rental_uris": {"android": "https://dc.lft.to/lastmile_qr_scan", "ios": "https://dc.lft.to/lastmile_qr_scan"}, "name": "69bb97cf868d64491e9d13b46d3295bf"}, {"lat": 38.897376333333334, "is_reserved": 0, "lon": -77.02376816666667, "fusion_lon": 0.0, "fusion_lat": 0.0, "is_disabled": 0, "type": "electric_scooter", "bike_id": "f07df314c6c6dbae1530ff4435eda8ec", "rental_uris": {"android": "https://dc.lft.to/lastmile_qr_scan", "ios": "https://dc.lft.to/lastmile_qr_scan"}, "name": "f07df314c6c6dbae1530ff4435eda8ec"}, {"lat": 38.900913833333334, "is_reserved": 0, "lon": -77.04927383333333, "fusion_lon": 0.0, "fusion_lat": 0.0, "is_disabled": 0, "type": "electric_scooter", "bike_id": "04b42dc1b744ab4eb10a6b0eb1d8314f", "rental_uris": {"android": "https://dc.lft.to/lastmile_qr_scan", "ios": "https://dc.lft.to/lastmile_qr_scan"}, "name": "04b42dc1b744ab4eb10a6b0eb1d8314f"}, {"lat": 38.91692233333333, "is_reserved": 0, "lon": -77.02756783333334, "fusion_lon": 0.0, "fusion_lat": 0.0, "is_disabled": 0, "type": "electric_scooter", "bike_id": "651fb4f00cf2e70fd785f1bf0fca156a", "rental_uris": {"android": "https://dc.lft.to/lastmile_qr_scan", "ios": "https://dc.lft.to/lastmile_qr_scan"}, "name": "651fb4f00cf2e70fd785f1bf0fca156a"}, {"lat": 38.924053666666666, "is_reserved": 0, "lon": -77.0403295, "fusion_lon": 0.0, "fusion_lat": 0.0, "is_disabled": 0, "type": "electric_scooter", "bike_id": "89b8406a4289110edadc6bf3256869f9", "rental_uris": {"android": "https://dc.lft.to/lastmile_qr_scan", "ios": "https://dc.lft.to/lastmile_qr_scan"}, "name": "89b8406a4289110edadc6bf3256869f9"}, {"lat": 38.916369833333334, "is_reserved": 0, "lon": -77.02809766666667, "fusion_lon": 0.0, "fusion_lat": 0.0, "is_disabled": 0, "type": "electric_scooter", "bike_id": "0af5adc042040f4e5b85b2810749454b", "rental_uris": {"android": "https://dc.lft.to/lastmile_qr_scan", "ios": "https://dc.lft.to/lastmile_qr_scan"}, "name": "0af5adc042040f4e5b85b2810749454b"}, {"lat": 38.90728333333333, "is_reserved": 0, "lon": -77.02613783333334, "fusion_lon": 0.0, "fusion_lat": 0.0, "is_disabled": 0, "type": "electric_scooter", "bike_id": "38b261668c4bc84d39dd1e2ed9179693", "rental_uris": {"android": "https://dc.lft.to/lastmile_qr_scan", "ios": "https://dc.lft.to/lastmile_qr_scan"}, "name": "38b261668c4bc84d39dd1e2ed9179693"}, {"lat": 38.935569, "is_reserved": 0, "lon": -77.07459883333334, "fusion_lon": 0.0, "fusion_lat": 0.0, "is_disabled": 0, "type": "electric_scooter", "bike_id": "9629aabb6e4935f10097fdc821d1c0f4", "rental_uris": {"android": "https://dc.lft.to/lastmile_qr_scan", "ios": "https://dc.lft.to/lastmile_qr_scan"}, "name": "9629aabb6e4935f10097fdc821d1c0f4"}, {"lat": 38.87172916666667, "is_reserved": 0, "lon": -77.00626783333334, "fusion_lon": 0.0, "fusion_lat": 0.0, "is_disabled": 0, "type": "electric_scooter", "bike_id": "487a500077163cad71e076529bb8df36", "rental_uris": {"android": "https://dc.lft.to/lastmile_qr_scan", "ios": "https://dc.lft.to/lastmile_qr_scan"}, "name": "487a500077163cad71e076529bb8df36"}, {"lat": 38.87683233333333, "is_reserved": 0, "lon": -77.00734133333333, "fusion_lon": 0.0, "fusion_lat": 0.0, "is_disabled": 0, "type": "electric_scooter", "bike_id": "40b457c3f3671ddd03b8c5025540a844", "rental_uris": {"android": "https://dc.lft.to/lastmile_qr_scan", "ios": "https://dc.lft.to/lastmile_qr_scan"}, "name": "40b457c3f3671ddd03b8c5025540a844"}, {"lat": 38.891335833333336, "is_reserved": 0, "lon": -76.95186583333333, "fusion_lon": 0.0, "fusion_lat": 0.0, "is_disabled": 0, "type": "electric_scooter", "bike_id": "69d856944db7fd6d22263a961ddbd286", "rental_uris": {"android": "https://dc.lft.to/lastmile_qr_scan", "ios": "https://dc.lft.to/lastmile_qr_scan"}, "name": "69d856944db7fd6d22263a961ddbd286"}, {"lat": 38.90536316666667, "is_reserved": 0, "lon": -77.00557533333334, "fusion_lon": 0.0, "fusion_lat": 0.0, "is_disabled": 0, "type": "electric_scooter", "bike_id": "8f34c92b317e8f0a1de8763661161b50", "rental_uris": {"android": "https://dc.lft.to/lastmile_qr_scan", "ios": "https://dc.lft.to/lastmile_qr_scan"}, "name": "8f34c92b317e8f0a1de8763661161b50"}, {"lat": 38.90558816666667, "is_reserved": 0, "lon": -77.04037633333333, "fusion_lon": 0.0, "fusion_lat": 0.0, "is_disabled": 0, "type": "electric_scooter", "bike_id": "5a09da0c9c1d6a0262ad580a1e99ea8d", "rental_uris": {"android": "https://dc.lft.to/lastmile_qr_scan", "ios": "https://dc.lft.to/lastmile_qr_scan"}, "name": "5a09da0c9c1d6a0262ad580a1e99ea8d"}, {"lat": 38.90386566666667, "is_reserved": 0, "lon": -77.03697066666666, "fusion_lon": 0.0, "fusion_lat": 0.0, "is_disabled": 0, "type": "electric_scooter", "bike_id": "e170e6aab3a4a1eb4f5f92db7a4bf0ef", "rental_uris": {"android": "https://dc.lft.to/lastmile_qr_scan", "ios": "https://dc.lft.to/lastmile_qr_scan"}, "name": "e170e6aab3a4a1eb4f5f92db7a4bf0ef"}, {"lat": 38.90964433333333, "is_reserved": 0, "lon": -77.018542, "fusion_lon": 0.0, "fusion_lat": 0.0, "is_disabled": 0, "type": "electric_scooter", "bike_id": "e95ae1e3106a2fff3b95fcf085cf42b3", "rental_uris": {"android": "https://dc.lft.to/lastmile_qr_scan", "ios": "https://dc.lft.to/lastmile_qr_scan"}, "name": "e95ae1e3106a2fff3b95fcf085cf42b3"}, {"lat": 38.899973833333334, "is_reserved": 0, "lon": -77.05333, "fusion_lon": 0.0, "fusion_lat": 0.0, "is_disabled": 0, "type": "electric_scooter", "bike_id": "c5a45f5ff3338dce7af062562cedad13", "rental_uris": {"android": "https://dc.lft.to/lastmile_qr_scan", "ios": "https://dc.lft.to/lastmile_qr_scan"}, "name": "c5a45f5ff3338dce7af062562cedad13"}, {"lat": 38.942057, "is_reserved": 0, "lon": -77.02586466666666, "fusion_lon": 0.0, "fusion_lat": 0.0, "is_disabled": 0, "type": "electric_scooter", "bike_id": "a3f4b549b3476b8805f6b2454f673f12", "rental_uris": {"android": "https://dc.lft.to/lastmile_qr_scan", "ios": "https://dc.lft.to/lastmile_qr_scan"}, "name": "a3f4b549b3476b8805f6b2454f673f12"}, {"lat": 38.90161533333333, "is_reserved": 0, "lon": -76.9307655, "fusion_lon": 0.0, "fusion_lat": 0.0, "is_disabled": 0, "type": "electric_scooter", "bike_id": "a9d910cd04e67f13d006416686cb3268", "rental_uris": {"android": "https://dc.lft.to/lastmile_qr_scan", "ios": "https://dc.lft.to/lastmile_qr_scan"}, "name": "a9d910cd04e67f13d006416686cb3268"}, {"lat": 38.900388666666665, "is_reserved": 0, "lon": -77.01235166666666, "fusion_lon": 0.0, "fusion_lat": 0.0, "is_disabled": 0, "type": "electric_scooter", "bike_id": "d1e2210182b723183c45960e68d54cfb", "rental_uris": {"android": "https://dc.lft.to/lastmile_qr_scan", "ios": "https://dc.lft.to/lastmile_qr_scan"}, "name": "d1e2210182b723183c45960e68d54cfb"}, {"lat": 38.8730475, "is_reserved": 0, "lon": -77.0108715, "fusion_lon": 0.0, "fusion_lat": 0.0, "is_disabled": 0, "type": "electric_bike", "bike_id": "b821bd6181b64a64226af31ae59454b2", "rental_uris": {"android": "https://dc.lft.to/lastmile_qr_scan", "ios": "https://dc.lft.to/lastmile_qr_scan"}, "name": "b821bd6181b64a64226af31ae59454b2"}, {"lat": 38.951580666666665, "is_reserved": 0, "lon": -77.056744, "fusion_lon": 0.0, "fusion_lat": 0.0, "is_disabled": 0, "type": "electric_scooter", "bike_id": "aa4bd958f5da1f6b73083ea2a1680b25", "rental_uris": {"android": "https://dc.lft.to/lastmile_qr_scan", "ios": "https://dc.lft.to/lastmile_qr_scan"}, "name": "aa4bd958f5da1f6b73083ea2a1680b25"}, {"lat": 38.901408833333335, "is_reserved": 0, "lon": -77.0345735, "fusion_lon": 0.0, "fusion_lat": 0.0, "is_disabled": 0, "type": "electric_scooter", "bike_id": "327eee63963c2cc32e3319dfc5e30fe4", "rental_uris": {"android": "https://dc.lft.to/lastmile_qr_scan", "ios": "https://dc.lft.to/lastmile_qr_scan"}, "name": "327eee63963c2cc32e3319dfc5e30fe4"}, {"lat": 38.91989916666667, "is_reserved": 0, "lon": -77.021874, "fusion_lon": 0.0, "fusion_lat": 0.0, "is_disabled": 0, "type": "electric_scooter", "bike_id": "59146313c2c89108e06da555b1501d35", "rental_uris": {"android": "https://dc.lft.to/lastmile_qr_scan", "ios": "https://dc.lft.to/lastmile_qr_scan"}, "name": "59146313c2c89108e06da555b1501d35"}, {"lat": 38.94561266666667, "is_reserved": 0, "lon": -77.0795625, "fusion_lon": 0.0, "fusion_lat": 0.0, "is_disabled": 0, "type": "electric_scooter", "bike_id": "39e9afcb6849fd0c86ba6818a1dd94ae", "rental_uris": {"android": "https://dc.lft.to/lastmile_qr_scan", "ios": "https://dc.lft.to/lastmile_qr_scan"}, "name": "39e9afcb6849fd0c86ba6818a1dd94ae"}, {"lat": 38.902699, "is_reserved": 0, "lon": -77.03664933333333, "fusion_lon": 0.0, "fusion_lat": 0.0, "is_disabled": 0, "type": "electric_scooter", "bike_id": "094c20e866d820d150ce78c04002c53e", "rental_uris": {"android": "https://dc.lft.to/lastmile_qr_scan", "ios": "https://dc.lft.to/lastmile_qr_scan"}, "name": "094c20e866d820d150ce78c04002c53e"}, {"lat": 38.9037315, "is_reserved": 0, "lon": -77.03863333333334, "fusion_lon": 0.0, "fusion_lat": 0.0, "is_disabled": 0, "type": "electric_scooter", "bike_id": "047a04494221e927d0d5aa128fb90606", "rental_uris": {"android": "https://dc.lft.to/lastmile_qr_scan", "ios": "https://dc.lft.to/lastmile_qr_scan"}, "name": "047a04494221e927d0d5aa128fb90606"}, {"lat": 38.898437666666666, "is_reserved": 0, "lon": -77.02764416666666, "fusion_lon": 0.0, "fusion_lat": 0.0, "is_disabled": 0, "type": "electric_scooter", "bike_id": "16b810b3cd0f0921f6b9cfa64a419dd5", "rental_uris": {"android": "https://dc.lft.to/lastmile_qr_scan", "ios": "https://dc.lft.to/lastmile_qr_scan"}, "name": "16b810b3cd0f0921f6b9cfa64a419dd5"}, {"lat": 38.92235816666667, "is_reserved": 0, "lon": -77.03059233333333, "fusion_lon": 0.0, "fusion_lat": 0.0, "is_disabled": 0, "type": "electric_scooter", "bike_id": "cc6b9d04d9fc2b174a21c99bb421f196", "rental_uris": {"android": "https://dc.lft.to/lastmile_qr_scan", "ios": "https://dc.lft.to/lastmile_qr_scan"}, "name": "cc6b9d04d9fc2b174a21c99bb421f196"}, {"lat": 38.921609833333335, "is_reserved": 0, "lon": -77.035277, "fusion_lon": 0.0, "fusion_lat": 0.0, "is_disabled": 0, "type": "electric_scooter", "bike_id": "6ff314f70b0a4f252b44d6d37fff6762", "rental_uris": {"android": "https://dc.lft.to/lastmile_qr_scan", "ios": "https://dc.lft.to/lastmile_qr_scan"}, "name": "6ff314f70b0a4f252b44d6d37fff6762"}, {"lat": 38.8874405, "is_reserved": 0, "lon": -77.0172925, "fusion_lon": 0.0, "fusion_lat": 0.0, "is_disabled": 0, "type": "electric_scooter", "bike_id": "bde25741b20a93723a834dc773384b9d", "rental_uris": {"android": "https://dc.lft.to/lastmile_qr_scan", "ios": "https://dc.lft.to/lastmile_qr_scan"}, "name": "bde25741b20a93723a834dc773384b9d"}, {"lat": 38.905826166666664, "is_reserved": 0, "lon": -77.04128466666667, "fusion_lon": 0.0, "fusion_lat": 0.0, "is_disabled": 0, "type": "electric_scooter", "bike_id": "46d01fd4478089cf1c243ed8d4389650", "rental_uris": {"android": "https://dc.lft.to/lastmile_qr_scan", "ios": "https://dc.lft.to/lastmile_qr_scan"}, "name": "46d01fd4478089cf1c243ed8d4389650"}, {"lat": 38.927442166666665, "is_reserved": 0, "lon": -77.03236916666667, "fusion_lon": 0.0, "fusion_lat": 0.0, "is_disabled": 0, "type": "electric_scooter", "bike_id": "c03599483d31f49c336865dd1dbaeada", "rental_uris": {"android": "https://dc.lft.to/lastmile_qr_scan", "ios": "https://dc.lft.to/lastmile_qr_scan"}, "name": "c03599483d31f49c336865dd1dbaeada"}, {"lat": 38.914940333333334, "is_reserved": 0, "lon": -77.018578, "fusion_lon": 0.0, "fusion_lat": 0.0, "is_disabled": 0, "type": "electric_scooter", "bike_id": "bce11c4400205724907128ed0cd537c0", "rental_uris": {"android": "https://dc.lft.to/lastmile_qr_scan", "ios": "https://dc.lft.to/lastmile_qr_scan"}, "name": "bce11c4400205724907128ed0cd537c0"}, {"lat": 38.89738466666667, "is_reserved": 0, "lon": -76.92042133333334, "fusion_lon": 0.0, "fusion_lat": 0.0, "is_disabled": 0, "type": "electric_bike", "bike_id": "2a240ff87c4f8cefebf9d5e0f838c049", "rental_uris": {"android": "https://dc.lft.to/lastmile_qr_scan", "ios": "https://dc.lft.to/lastmile_qr_scan"}, "name": "2a240ff87c4f8cefebf9d5e0f838c049"},