{"data": {"bikes": [{"rental_uris": {"ios": "https://dc.lft.to/lastmile_qr_scan", "android": "https://dc.lft.to/lastmile_qr_scan"}, "lon": -76.98887016666667, "type": "electric_scooter", "fusion_lat": 0.0, "lat": 38.86661183333333, "name": "e8f852dbcaf0bfdd9ac7389426acdd08", "fusion_lon": 0.0, "bike_id": "e8f852dbcaf0bfdd9ac7389426acdd08", "is_disabled": 0, "is_reserved": 0}, {"rental_uris": {"ios": "https://dc.lft.to/lastmile_qr_scan", "android": "https://dc.lft.to/lastmile_qr_scan"}, "lon": -77.04499366666667, "type": "electric_scooter", "fusion_lat": 0.0, "lat": 38.9194635, "name": "973df90e4ba91c8453989bee6181314f", "fusion_lon": 0.0, "bike_id": "973df90e4ba91c8453989bee6181314f", "is_disabled": 0, "is_reserved": 0}, {"rental_uris": {"ios": "https://dc.lft.to/lastmile_qr_scan", "android": "https://dc.lft.to/lastmile_qr_scan"}, "lon": -77.04839683333333, "type": "electric_scooter", "fusion_lat": 0.0, "lat": 38.9095025, "name": "1be4036dcd263ca269091421ac75f803", "fusion_lon": 0.0, "bike_id": "1be4036dcd263ca269091421ac75f803", "is_disabled": 0, "is_reserved": 0}, {"rental_uris": {"ios": "https://dc.lft.to/lastmile_qr_scan", "android": "https://dc.lft.to/lastmile_qr_scan"}, "lon": -77.01102866666666, "type": "electric_scooter", "fusion_lat": 0.0, "lat": 38.895034833333334, "name": "e325a22a3dad3953ef79e48f1fa36c8d", "fusion_lon": 0.0, "bike_id": "e325a22a3dad3953ef79e48f1fa36c8d", "is_disabled": 0, "is_reserved": 0}, {"rental_uris": {"ios": "https://dc.lft.to/lastmile_qr_scan", "android": "https://dc.lft.to/lastmile_qr_scan"}, "lon": -76.97553366666666, "type": "electric_scooter", "fusion_lat": 0.0, "lat": 38.90443366666667, "name": "644b0e3fb7300b9030286127c1b81cc5", "fusion_lon": 0.0, "bike_id": "644b0e3fb7300b9030286127c1b81cc5", "is_disabled": 0, "is_reserved": 0}, {"rental_uris": {"ios": "https://dc.lft.to/lastmile_qr_scan", "android": "https://dc.lft.to/lastmile_qr_scan"}, "lon": -77.04892983333333, "type": "electric_scooter", "fusion_lat": 0.0, "lat": 38.91887533333333, "name": "b35834337604ccd6a403a0c1a18992e0", "fusion_lon": 0.0, "bike_id": "b35834337604ccd6a403a0c1a18992e0", "is_disabled": 0, "is_reserved": 0}, {"rental_uris": {"ios": "https://dc.lft.to/lastmile_qr_scan", "android": "https://dc.lft.to/lastmile_qr_scan"}, "lon": -76.98578, "type": "electric_scooter", "fusion_lat": 0.0, "lat": 38.8615135, "name": "b651e03462d1dfd3623fd11cd25c8059", "fusion_lon": 0.0, "bike_id": "b651e03462d1dfd3623fd11cd25c8059", "is_disabled": 0, "is_reserved": 0}, {"rental_uris": {"ios": "https://dc.lft.to/lastmile_qr_scan", "android": "https://dc.lft.to/lastmile_qr_scan"}, "lon": -76.996085, "type": "electric_scooter", "fusion_lat": 0.0, "lat": 38.88622216666667, "name": "89213b7f4016a5c076133808e6df1630", "fusion_lon": 0.0, "bike_id": "89213b7f4016a5c076133808e6df1630", "is_disabled": 0, "is_reserved": 0}, {"rental_uris": {"ios": "https://dc.lft.to/lastmile_qr_scan", "android": "https://dc.lft.to/lastmile_qr_scan"}, "lon": -76.997692, "type": "electric_bike", "fusion_lat": 0.0, "lat": 38.9092765, "name": "cc860af1641d230268f02b03b96b199c", "fusion_lon": 0.0, "bike_id": "cc860af1641d230268f02b03b96b199c", "is_disabled": 0, "is_reserved": 0}, {"rental_uris": {"ios": "https://dc.lft.to/lastmile_qr_scan", "android": "https://dc.lft.to/lastmile_qr_scan"}, "lon": -77.00353066666666, "type": "electric_scooter", "fusion_lat": 0.0, "lat": 38.90742483333333, "name": "ffc52c423d82fc2d500088630998b1cf", "fusion_lon": 0.0, "bike_id": "ffc52c423d82fc2d500088630998b1cf", "is_disabled": 0, "is_reserved": 0}, {"rental_uris": {"ios": "https://dc.lft.to/lastmile_qr_scan", "android": "https://dc.lft.to/lastmile_qr_scan"}, "lon": -77.04226283333334, "type": "electric_scooter", "fusion_lat": 0.0, "lat": 38.92123983333333, "name": "d31a69e37d28f338e1bef55aa48da10e", "fusion_lon": 0.0, "bike_id": "d31a69e37d28f338e1bef55aa48da10e", "is_disabled": 0, "is_reserved": 0}, {"rental_uris": {"ios": "https://dc.lft.to/lastmile_qr_scan", "android": "https://dc.lft.to/lastmile_qr_scan"}, "lon": -77.033431, "type": "electric_scooter", "fusion_lat": 0.0, "lat": 38.9036105, "name": "e52d66ed22ce85c8195a97748687f8a9", "fusion_lon": 0.0, "bike_id": "e52d66ed22ce85c8195a97748687f8a9", "is_disabled": 0, "is_reserved": 0}, {"rental_uris": {"ios": "https://dc.lft.to/lastmile_qr_scan", "android": "https://dc.lft.to/lastmile_qr_scan"}, "lon": -77.05005433333334, "type": "electric_scooter", "fusion_lat": 0.0, "lat": 38.90024, "name": "3ba3294b4f358fe77af7a597e9182793", "fusion_lon": 0.0, "bike_id": "3ba3294b4f358fe77af7a597e9182793", "is_disabled": 0, "is_reserved": 0}, {"rental_uris": {"ios": "https://dc.lft.to/lastmile_qr_scan", "android": "https://dc.lft.to/lastmile_qr_scan"}, "lon": -77.03839833333333, "type": "electric_scooter", "fusion_lat": 0.0, "lat": 38.93110716666666, "name": "351221f8fc513a94984643cca3ff51bd", "fusion_lon": 0.0, "bike_id": "351221f8fc513a94984643cca3ff51bd", "is_disabled": 0, "is_reserved": 0}, {"rental_uris": {"ios": "https://dc.lft.to/lastmile_qr_scan", "android": "https://dc.lft.to/lastmile_qr_scan"}, "lon": -77.06006283333333, "type": "electric_scooter", "fusion_lat": 0.0, "lat": 38.91262866666667, "name": "f1ab04589fd1776cf28f02082a8964d2", "fusion_lon": 0.0, "bike_id": "f1ab04589fd1776cf28f02082a8964d2", "is_disabled": 0, "is_reserved": 0}, {"rental_uris": {"ios": "https://dc.lft.to/lastmile_qr_scan", "android": "https://dc.lft.to/lastmile_qr_scan"}, "lon": -76.98710966666667, "type": "electric_scooter", "fusion_lat": 0.0, "lat": 38.862664333333335, "name": "65f93f28974442b57f83f9dc061cb80b", "fusion_lon": 0.0, "bike_id": "65f93f28974442b57f83f9dc061cb80b", "is_disabled": 0, "is_reserved": 0}, {"rental_uris": {"ios": "https://dc.lft.to/lastmile_qr_scan", "android": "https://dc.lft.to/lastmile_qr_scan"}, "lon": -76.94177083333334, "type": "electric_scooter", "fusion_lat": 0.0, "lat": 38.882175833333335, "name": "1d41110e0888a8ef6d2e1a64c5b99e22", "fusion_lon": 0.0, "bike_id": "1d41110e0888a8ef6d2e1a64c5b99e22", "is_disabled": 0, "is_reserved": 0}, {"rental_uris": {"ios": "https://dc.lft.to/lastmile_qr_scan", "android": "https://dc.lft.to/lastmile_qr_scan"}, "lon": -77.05474633333333, "type": "electric_scooter", "fusion_lat": 0.0, "lat": 38.920996333333335, "name": "86189635c6df8a05c7131fc6b24b7331", "fusion_lon": 0.0, "bike_id": "86189635c6df8a05c7131fc6b24b7331", "is_disabled": 0, "is_reserved": 0}, {"rental_uris": {"ios": "https://dc.lft.to/lastmile_qr_scan", "android": "https://dc.lft.to/lastmile_qr_scan"}, "lon": -77.03622183333333, "type": "electric_scooter", "fusion_lat": 0.0, "lat": 38.93254433333333, "name": "32c10dd74a510222fd41cb1804c71695", "fusion_lon": 0.0, "bike_id": "32c10dd74a510222fd41cb1804c71695", "is_disabled": 0, "is_reserved": 0}, {"rental_uris": {"ios": "https://dc.lft.to/lastmile_qr_scan", "android": "https://dc.lft.to/lastmile_qr_scan"}, "lon": -77.03225083333334, "type": "electric_scooter", "fusion_lat": 0.0, "lat": 38.9154975, "name": "8dcb5a6152199c5f2a8de42e6caebeb5", "fusion_lon": 0.0, "bike_id": "8dcb5a6152199c5f2a8de42e6caebeb5", "is_disabled": 0, "is_reserved": 0}, {"rental_uris": {"ios": "https://dc.lft.to/lastmile_qr_scan", "android": "https://dc.lft.to/lastmile_qr_scan"}, "lon": -77.02714616666667, "type": "electric_scooter", "fusion_lat": 0.0, "lat": 38.9246275, "name": "4fe137778d9f7153426a1ff1c47b6d13", "fusion_lon": 0.0, "bike_id": "4fe137778d9f7153426a1ff1c47b6d13", "is_disabled": 0, "is_reserved": 0}, {"rental_uris": {"ios": "https://dc.lft.to/lastmile_qr_scan", "android": "https://dc.lft.to/lastmile_qr_scan"}, "lon": -76.95519366666667, "type": "electric_scooter", "fusion_lat": 0.0, "lat": 38.88775616666667, "name": "ef3c7fa7200dd0fbc584e9ff04619ef7", "fusion_lon": 0.0, "bike_id": "ef3c7fa7200dd0fbc584e9ff04619ef7", "is_disabled": 0, "is_reserved": 0}, {"rental_uris": {"ios": "https://dc.lft.to/lastmile_qr_scan", "android": "https://dc.lft.to/lastmile_qr_scan"}, "lon": -77.03752316666667, "type": "electric_scooter", "fusion_lat": 0.0, "lat": 38.92899766666667, "name": "6a00ef912ad3785669480974c8b21206", "fusion_lon": 0.0, "bike_id": "6a00ef912ad3785669480974c8b21206", "is_disabled": 0, "is_reserved": 0}, {"rental_uris": {"ios": "https://dc.lft.to/lastmile_qr_scan", "android": "https://dc.lft.to/lastmile_qr_scan"}, "lon": -77.0283555, "type": "electric_scooter", "fusion_lat": 0.0, "lat": 38.92859116666666, "name": "b23350351f415d8e45f603c4505ce3ff", "fusion_lon": 0.0, "bike_id": "b23350351f415d8e45f603c4505ce3ff", "is_disabled": 0, "is_reserved": 0}, {"rental_uris": {"ios": "https://dc.lft.to/lastmile_qr_scan", "android": "https://dc.lft.to/lastmile_qr_scan"}, "lon": -77.10504316666666, "type": "electric_bike", "fusion_lat": 0.0, "lat": 38.9284885, "name": "b3aeff4b88c00679c0f1335a35f674e6", "fusion_lon": 0.0, "bike_id": "b3aeff4b88c00679c0f1335a35f674e6", "is_disabled": 0, "is_reserved": 0}, {"rental_uris": {"ios": "https://dc.lft.to/lastmile_qr_scan", "android": "https://dc.lft.to/lastmile_qr_scan"}, "lon": -77.00612816666667, "type": "electric_scooter", "fusion_lat": 0.0, "lat": 38.90544383333334, "name": "093e8b1c8548e5b8e1e2ea1a7dcc7a24", "fusion_lon": 0.0, "bike_id": "093e8b1c8548e5b8e1e2ea1a7dcc7a24", "is_disabled": 0, "is_reserved": 0}, {"rental_uris": {"ios": "https://dc.lft.to/lastmile_qr_scan", "android": "https://dc.lft.to/lastmile_qr_scan"}, "lon": -77.03648133333333, "type": "electric_scooter", "fusion_lat": 0.0, "lat": 38.906771666666664, "name": "7af4081d2a4b61735e67c424be82067d", "fusion_lon": 0.0, "bike_id": "7af4081d2a4b61735e67c424be82067d", "is_disabled": 0, "is_reserved": 0}, {"rental_uris": {"ios": "https://dc.lft.to/lastmile_qr_scan", "android": "https://dc.lft.to/lastmile_qr_scan"}, "lon": -76.96973816666667, "type": "electric_scooter", "fusion_lat": 0.0, "lat": 38.8616415, "name": "15d1ba4c9d15ab7c4ac3371ceb7a71d4", "fusion_lon": 0.0, "bike_id": "15d1ba4c9d15ab7c4ac3371ceb7a71d4", "is_disabled": 0, "is_reserved": 0}, {"rental_uris": {"ios": "https://dc.lft.to/lastmile_qr_scan", "android": "https://dc.lft.to/lastmile_qr_scan"}, "lon": -77.01531366666667, "type": "electric_scooter", "fusion_lat": 0.0, "lat": 38.887393833333334, "name": "342fa3f3e3cf2bfa98cf6ff5982e3751", "fusion_lon": 0.0, "bike_id": "342fa3f3e3cf2bfa98cf6ff5982e3751", "is_disabled": 0, "is_reserved": 0}, {"rental_uris": {"ios": "https://dc.lft.to/lastmile_qr_scan", "android": "https://dc.lft.to/lastmile_qr_scan"}, "lon": -77.02742716666667, "type": "electric_scooter", "fusion_lat": 0.0, "lat": 38.9276925, "name": "4361d62e5eb1dbfd37f8cbbed4878033", "fusion_lon": 0.0, "bike_id": "4361d62e5eb1dbfd37f8cbbed4878033", "is_disabled": 0, "is_reserved": 0}, {"rental_uris": {"ios": "https://dc.lft.to/lastmile_qr_scan", "android": "https://dc.lft.to/lastmile_qr_scan"}, "lon": -77.05368883333334, "type": "electric_scooter", "fusion_lat": 0.0, "lat": 38.927062666666664, "name": "791e11096f4dbf6d673e8e4700155197", "fusion_lon": 0.0, "bike_id": "791e11096f4dbf6d673e8e4700155197", "is_disabled": 0, "is_reserved": 0}, {"rental_uris": {"ios": "https://dc.lft.to/lastmile_qr_scan", "android": "https://dc.lft.to/lastmile_qr_scan"}, "lon": -77.0412915, "type": "electric_scooter", "fusion_lat": 0.0, "lat": 38.924311, "name": "ddc6e7cdc40d859501883d269e274992", "fusion_lon": 0.0, "bike_id": "ddc6e7cdc40d859501883d269e274992", "is_disabled": 0, "is_reserved": 0}, {"rental_uris": {"ios": "https://dc.lft.to/lastmile_qr_scan", "android": "https://dc.lft.to/lastmile_qr_scan"}, "lon": -77.03065283333333, "type": "electric_scooter", "fusion_lat": 0.0, "lat": 38.89457933333333, "name": "56ebe4adf6e3be9a1e9a6b735aa70bb4", "fusion_lon": 0.0, "bike_id": "56ebe4adf6e3be9a1e9a6b735aa70bb4", "is_disabled": 0, "is_reserved": 0}, {"rental_uris": {"ios": "https://dc.lft.to/lastmile_qr_scan", "android": "https://dc.lft.to/lastmile_qr_scan"}, "lon": -77.030708, "type": "electric_scooter", "fusion_lat": 0.0, "lat": 38.923831166666666, "name": "1c5574e20791baa02d6cc7cc8430e3d7", "fusion_lon": 0.0, "bike_id": "1c5574e20791baa02d6cc7cc8430e3d7", "is_disabled": 0, "is_reserved": 0}, {"rental_uris": {"ios": "https://dc.lft.to/lastmile_qr_scan", "android": "https://dc.lft.to/lastmile_qr_scan"}, "lon": -77.007066, "type": "electric_scooter", "fusion_lat": 0.0, "lat": 38.90546916666667, "name": "dc537a88cbeaacc7568df0fb3f731de9", "fusion_lon": 0.0, "bike_id": "dc537a88cbeaacc7568df0fb3f731de9", "is_disabled": 0, "is_reserved": 0}, {"rental_uris": {"ios": "https://dc.lft.to/lastmile_qr_scan", "android": "https://dc.lft.to/lastmile_qr_scan"}, "lon": -77.02943616666667, "type": "electric_scooter", "fusion_lat": 0.0, "lat": 38.932477166666665, "name": "b55f6af1405910041921dd44830ef4cd", "fusion_lon": 0.0, "bike_id": "b55f6af1405910041921dd44830ef4cd", "is_disabled": 0, "is_reserved": 0}, {"rental_uris": {"ios": "https://dc.lft.to/lastmile_qr_scan", "android": "https://dc.lft.to/lastmile_qr_scan"}, "lon": -77.07384133333333, "type": "electric_bike", "fusion_lat": 0.0, "lat": 38.96176366666667, "name": "795d4bd2cef673295f1050141e2b9bcf", "fusion_lon": 0.0, "bike_id": "795d4bd2cef673295f1050141e2b9bcf", "is_disabled": 0, "is_reserved": 0}, {"rental_uris": {"ios": "https://dc.lft.to/lastmile_qr_scan", "android": "https://dc.lft.to/lastmile_qr_scan"}, "lon": -76.946275, "type": "electric_bike", "fusion_lat": 0.0, "lat": 38.946239166666665, "name": "a8045c55f46ada2e13e3b2ec1a9a1f3c", "fusion_lon": 0.0, "bike_id": "a8045c55f46ada2e13e3b2ec1a9a1f3c", "is_disabled": 0, "is_reserved": 0}, {"rental_uris": {"ios": "https://dc.lft.to/lastmile_qr_scan", "android": "https://dc.lft.to/lastmile_qr_scan"}, "lon": -77.03830833333333, "type": "electric_scooter", "fusion_lat": 0.0, "lat": 38.90483716666667, "name": "6de6519b686a29149250b2a9d346fc1f", "fusion_lon": 0.0, "bike_id": "6de6519b686a29149250b2a9d346fc1f", "is_disabled": 0, "is_reserved": 0}, {"rental_uris": {"ios": "https://dc.lft.to/lastmile_qr_scan", "android": "https://dc.lft.to/lastmile_qr_scan"}, "lon": -77.04330166666666, "type": "electric_scooter", "fusion_lat": 0.0, "lat": 38.89584033333333, "name": "a4aca1829ee3c5edf0f45cc052053425", "fusion_lon": 0.0, "bike_id": "a4aca1829ee3c5edf0f45cc052053425", "is_disabled": 0, "is_reserved": 0}, {"rental_uris": {"ios": "https://dc.lft.to/lastmile_qr_scan", "android": "https://dc.lft.to/lastmile_qr_scan"}, "lon": -77.03218416666667, "type": "electric_scooter", "fusion_lat": 0.0, "lat": 38.90753616666667, "name": "d84bc482c44d45ffc24c233745a807de", "fusion_lon": 0.0, "bike_id": "d84bc482c44d45ffc24c233745a807de", "is_disabled": 0, "is_reserved": 0}, {"rental_uris": {"ios": "https://dc.lft.to/lastmile_qr_scan", "android": "https://dc.lft.to/lastmile_qr_scan"}, "lon": -77.02824516666666, "type": "electric_scooter", "fusion_lat": 0.0, "lat": 38.88757533333333, "name": "8edfedf73bb1fba8522cb71d629ee454", "fusion_lon": 0.0, "bike_id": "8edfedf73bb1fba8522cb71d629ee454", "is_disabled": 0, "is_reserved": 0}, {"rental_uris": {"ios": "https://dc.lft.to/lastmile_qr_scan", "android": "https://dc.lft.to/lastmile_qr_scan"}, "lon": -77.03840883333334, "type": "electric_scooter", "fusion_lat": 0.0, "lat": 38.9264935, "name": "30f539d451f611464f15ab04065c0f81", "fusion_lon": 0.0, "bike_id": "30f539d451f611464f15ab04065c0f81", "is_disabled": 0, "is_reserved": 0}, {"rental_uris": {"ios": "https://dc.lft.to/lastmile_qr_scan", "android": "https://dc.lft.to/lastmile_qr_scan"}, "lon": -77.04682166666667, "type": "electric_scooter", "fusion_lat": 0.0, "lat": 38.90383816666667, "name": "9cd6be0429f67429506d752106c76cae", "fusion_lon": 0.0, "bike_id": "9cd6be0429f67429506d752106c76cae", "is_disabled": 0, "is_reserved": 0}, {"rental_uris": {"ios": "https://dc.lft.to/lastmile_qr_scan", "android": "https://dc.lft.to/lastmile_qr_scan"}, "lon": -77.04482133333333, "type": "electric_scooter", "fusion_lat": 0.0, "lat": 38.91871666666667, "name": "1652bbe22542b5f815c088688b01cd32", "fusion_lon": 0.0, "bike_id": "1652bbe22542b5f815c088688b01cd32", "is_disabled": 0, "is_reserved": 0}, {"rental_uris": {"ios": "https://dc.lft.to/lastmile_qr_scan", "android": "https://dc.lft.to/lastmile_qr_scan"}, "lon": -76.9988525, "type": "electric_scooter", "fusion_lat": 0.0, "lat": 38.90742266666667, "name": "3fd6676e8da36ca528d92c6da8735f7d", "fusion_lon": 0.0, "bike_id": "3fd6676e8da36ca528d92c6da8735f7d", "is_disabled": 0, "is_reserved": 0}, {"rental_uris": {"ios": "https://dc.lft.to/lastmile_qr_scan", "android": "https://dc.lft.to/lastmile_qr_scan"}, "lon": -77.0150385, "type": "electric_scooter", "fusion_lat": 0.0, "lat": 38.901412666666666, "name": "a6fbf4fd80c31fba34f471c3e1c6cdc7", "fusion_lon": 0.0, "bike_id": "a6fbf4fd80c31fba34f471c3e1c6cdc7", "is_disabled": 0, "is_reserved": 0}, {"rental_uris": {"ios": "https://dc.lft.to/lastmile_qr_scan", "android": "https://dc.lft.to/lastmile_qr_scan"}, "lon": -77.02644816666667, "type": "electric_scooter", "fusion_lat": 0.0, "lat": 38.8960885, "name": "b9f663e763e04222db837e2952602565", "fusion_lon": 0.0, "bike_id": "b9f663e763e04222db837e2952602565", "is_disabled": 0, "is_reserved": 0}, {"rental_uris": {"ios": "https://dc.lft.to/lastmile_qr_scan", "android": "https://dc.lft.to/lastmile_qr_scan"}, "lon": -76.972121, "type": "electric_scooter", "fusion_lat": 0.0, "lat": 38.85497933333333, "name": "96e322c209341bd30511a9208dbcc572", "fusion_lon": 0.0, "bike_id": "96e322c209341bd30511a9208dbcc572", "is_disabled": 0, "is_reserved": 0}, {"rental_uris": {"ios": "https://dc.lft.to/lastmile_qr_scan", "android": "https://dc.lft.to/lastmile_qr_scan"}, "lon": -77.04620966666667, "type": "electric_bike", "fusion_lat": 0.0, "lat": 38.99912116666667, "name": "2ecd1ded882fdc608333e6ca488c39e0", "fusion_lon": 0.0, "bike_id": "2ecd1ded882fdc608333e6ca488c39e0", "is_disabled": 0, "is_reserved": 0}, {"rental_uris": {"ios": "https://dc.lft.to/lastmile_qr_scan", "android": "https://dc.lft.to/lastmile_qr_scan"}, "lon": -77.001356, "type": "electric_scooter", "fusion_lat": 0.0, "lat": 38.924504666666664, "name": "d99d56ad75f02865e35ffded00fa8c8c", "fusion_lon": 0.0, "bike_id": "d99d56ad75f02865e35ffded00fa8c8c", "is_disabled": 0, "is_reserved": 0}, {"rental_uris": {"ios": "https://dc.lft.to/lastmile_qr_scan", "android": "https://dc.lft.to/lastmile_qr_scan"}, "lon": -77.06417483333334, "type": "electric_bike", "fusion_lat": 0.0, "lat": 38.905123, "name": "6e31c4fd7d68f416e8f591af48d72f4c", "fusion_lon": 0.0, "bike_id": "6e31c4fd7d68f416e8f591af48d72f4c", "is_disabled": 0, "is_reserved": 0}, {"rental_uris": {"ios": "https://dc.lft.to/lastmile_qr_scan", "android": "https://dc.lft.to/lastmile_qr_scan"}, "lon": -77.0646975, "type": "electric_bike", "fusion_lat": 0.0, "lat": 38.973802166666665, "name": "7d1996fdb6869f00c0eeb80332e25346", "fusion_lon": 0.0, "bike_id": "7d1996fdb6869f00c0eeb80332e25346", "is_disabled": 0, "is_reserved": 0}, {"rental_uris": {"ios": "https://dc.lft.to/lastmile_qr_scan", "android": "https://dc.lft.to/lastmile_qr_scan"}, "lon": -77.0381275, "type": "electric_scooter", "fusion_lat": 0.0, "lat": 38.931131, "name": "fd924c47c1f7faba1eca8c8be80b62c4", "fusion_lon": 0.0, "bike_id": "fd924c47c1f7faba1eca8c8be80b62c4", "is_disabled": 0, "is_reserved": 0}, {"rental_uris": {"ios": "https://dc.lft.to/lastmile_qr_scan", "android": "https://dc.lft.to/lastmile_qr_scan"}, "lon": -77.09619066666667, "type": "electric_bike", "fusion_lat": 0.0, "lat": 38.845709666666664, "name": "ce1e431650ac116c17f75fdda029a44d", "fusion_lon": 0.0, "bike_id": "ce1e431650ac116c17f75fdda029a44d", "is_disabled": 0, "is_reserved": 0}, {"rental_uris": {"ios": "https://dc.lft.to/lastmile_qr_scan", "android": "https://dc.lft.to/lastmile_qr_scan"}, "lon": -77.02373166666666, "type": "electric_scooter", "fusion_lat": 0.0, "lat": 38.936916833333335, "name": "158543334049b3f48719a9f6fa0e4b70", "fusion_lon": 0.0, "bike_id": "158543334049b3f48719a9f6fa0e4b70", "is_disabled": 0, "is_reserved": 0}, {"rental_uris": {"ios": "https://dc.lft.to/lastmile_qr_scan", "android": "https://dc.lft.to/lastmile_qr_scan"}, "lon": -77.0329455, "type": "electric_scooter", "fusion_lat": 0.0, "lat": 38.928732333333336, "name": "b4d7e43db641437d5100fd6b01fc7d00", "fusion_lon": 0.0, "bike_id": "b4d7e43db641437d5100fd6b01fc7d00", "is_disabled": 0, "is_reserved": 0}, {"rental_uris": {"ios": "https://dc.lft.to/lastmile_qr_scan", "android": "https://dc.lft.to/lastmile_qr_scan"}, "lon": -77.03146983333333, "type": "electric_scooter", "fusion_lat": 0.0, "lat": 38.915612, "name": "600e375a86be6d27edbae0bb99499800", "fusion_lon": 0.0, "bike_id": "600e375a86be6d27edbae0bb99499800", "is_disabled": 0, "is_reserved": 0}, {"rental_uris": {"ios": "https://dc.lft.to/lastmile_qr_scan", "android": "https://dc.lft.to/lastmile_qr_scan"}, "lon": -77.11058716666666, "type": "electric_bike", "fusion_lat": 0.0, "lat": 38.870817333333335, "name": "c38077a94fdfdf816c57bcb297830142", "fusion_lon": 0.0, "bike_id": "c38077a94fdfdf816c57bcb297830142", "is_disabled": 0, "is_reserved": 0}, {"rental_uris": {"ios": "https://dc.lft.to/lastmile_qr_scan", "android": "https://dc.lft.to/lastmile_qr_scan"}, "lon": -77.00734466666667, "type": "electric_scooter", "fusion_lat": 0.0, "lat": 38.916229333333334, "name": "7da234573e4fbf83122edad759cce3cf", "fusion_lon": 0.0, "bike_id": "7da234573e4fbf83122edad759cce3cf", "is_disabled": 0, "is_reserved": 0}, {"rental_uris": {"ios": "https://dc.lft.to/lastmile_qr_scan", "android": "https://dc.lft.to/lastmile_qr_scan"}, "lon": -76.98999116666667, "type": "electric_scooter", "fusion_lat": 0.0, "lat": 38.865036, "name": "6fc4e8967694fbbf0ec048812a93c66a", "fusion_lon": 0.0, "bike_id": "6fc4e8967694fbbf0ec048812a93c66a", "is_disabled": 0, "is_reserved": 0}, {"rental_uris": {"ios": "https://dc.lft.to/lastmile_qr_scan", "android": "https://dc.lft.to/lastmile_qr_scan"}, "lon": -77.08203916666666, "type": "electric_scooter", "fusion_lat": 0.0, "lat": 38.93329416666667, "name": "acbe3bc818660f8607789f2015d7d397", "fusion_lon": 0.0, "bike_id": "acbe3bc818660f8607789f2015d7d397", "is_disabled": 0, "is_reserved": 0}, {"rental_uris": {"ios": "https://dc.lft.to/lastmile_qr_scan", "android": "https://dc.lft.to/lastmile_qr_scan"}, "lon": -77.08263033333333, "type": "electric_scooter", "fusion_lat": 0.0, "lat": 38.9358195, "name": "ea4614247ebceed2dc338d3342ccd9b0", "fusion_lon": 0.0, "bike_id": "ea4614247ebceed2dc338d3342ccd9b0", "is_disabled": 0, "is_reserved": 0}, {"rental_uris": {"ios": "https://dc.lft.to/lastmile_qr_scan", "android": "https://dc.lft.to/lastmile_qr_scan"}, "lon": -77.02972266666667, "type": "electric_scooter", "fusion_lat": 0.0, "lat": 38.907188166666664, "name": "d9da9f764eb2a2ce4f6c9774a3ac24b4", "fusion_lon": 0.0, "bike_id": "d9da9f764eb2a2ce4f6c9774a3ac24b4", "is_disabled": 0, "is_reserved": 0}, {"rental_uris": {"ios": "https://dc.lft.to/lastmile_qr_scan", "android": "https://dc.lft.to/lastmile_qr_scan"}, "lon": -76.98020166666667, "type": "electric_scooter", "fusion_lat": 0.0, "lat": 38.88761433333333, "name": "a246d479e0b74c73ed352414d9d61035", "fusion_lon": 0.0, "bike_id": "a246d479e0b74c73ed352414d9d61035", "is_disabled": 0, "is_reserved": 0}, {"rental_uris": {"ios": "https://dc.lft.to/lastmile_qr_scan", "android": "https://dc.lft.to/lastmile_qr_scan"}, "lon": -76.9925035, "type": "electric_bike", "fusion_lat": 0.0, "lat": 38.9255195, "name": "512e47304cba1731b8a05ecc4db9df6e", "fusion_lon": 0.0, "bike_id": "512e47304cba1731b8a05ecc4db9df6e", "is_disabled": 0, "is_reserved": 0}, {"rental_uris": {"ios": "https://dc.lft.to/lastmile_qr_scan", "android": "https://dc.lft.to/lastmile_qr_scan"}, "lon": -77.0174515, "type": "electric_scooter", "fusion_lat": 0.0, "lat": 38.877023333333334, "name": "098e34efa5a1d08df799b80644af57a2", "fusion_lon": 0.0, "bike_id": "098e34efa5a1d08df799b80644af57a2", "is_disabled": 0, "is_reserved": 0}, {"rental_uris": {"ios": "https://dc.lft.to/lastmile_qr_scan", "android": "https://dc.lft.to/lastmile_qr_scan"}, "lon": -77.006842, "type": "electric_scooter", "fusion_lat": 0.0, "lat": 38.90580666666666, "name": "6de8e0ece0e34358569ba7c0bd7f3740", "fusion_lon": 0.0, "bike_id": "6de8e0ece0e34358569ba7c0bd7f3740", "is_disabled": 0, "is_reserved": 0}, {"rental_uris": {"ios": "https://dc.lft.to/lastmile_qr_scan", "android": "https://dc.lft.to/lastmile_qr_scan"}, "lon": -76.972698, "type": "electric_bike", "fusion_lat": 0.0, "lat": 38.91978233333333, "name": "92576287b40b1d5500ea38db92c572e8", "fusion_lon": 0.0, "bike_id": "92576287b40b1d5500ea38db92c572e8", "is_disabled": 0, "is_reserved": 0}, {"rental_uris": {"ios": "https://dc.lft.to/lastmile_qr_scan", "android": "https://dc.lft.to/lastmile_qr_scan"}, "lon": -77.02226866666666, "type": "electric_bike", "fusion_lat": 0.0, "lat": 38.95690183333333, "name": "d37dd77f70153ab29acf825b702e1319", "fusion_lon": 0.0, "bike_id": "d37dd77f70153ab29acf825b702e1319", "is_disabled": 0, "is_reserved": 0}, {"rental_uris": {"ios": "https://dc.lft.to/lastmile_qr_scan", "android": "https://dc.lft.to/lastmile_qr_scan"}, "lon": -77.06349883333333, "type": "electric_scooter", "fusion_lat": 0.0, "lat": 38.944501333333335, "name": "c82b2af0babca3904039a65de7359479", "fusion_lon": 0.0, "bike_id": "c82b2af0babca3904039a65de7359479", "is_disabled": 0, "is_reserved": 0}, {"rental_uris": {"ios": "https://dc.lft.to/lastmile_qr_scan", "android": "https://dc.lft.to/lastmile_qr_scan"}, "lon": -77.0403685, "type": "electric_scooter", "fusion_lat": 0.0, "lat": 38.924745333333334, "name": "fdc3f8baab13a85745da2d0f97dc702a", "fusion_lon": 0.0, "bike_id": "fdc3f8baab13a85745da2d0f97dc702a", "is_disabled": 0, "is_reserved": 0}, {"rental_uris": {"ios": "https://dc.lft.to/lastmile_qr_scan", "android": "https://dc.lft.to/lastmile_qr_scan"}, "lon": -77.03179316666667, "type": "electric_scooter", "fusion_lat": 0.0, "lat": 38.92962633333333, "name": "72edf30b9f239e9d379c6508da2eb6ea", "fusion_lon": 0.0, "bike_id": "72edf30b9f239e9d379c6508da2eb6ea", "is_disabled": 0, "is_reserved": 0}, {"rental_uris": {"ios": "https://dc.lft.to/lastmile_qr_scan", "android": "https://dc.lft.to/lastmile_qr_scan"}, "lon": -77.02719183333333, "type": "electric_scooter", "fusion_lat": 0.0, "lat": 38.90965416666667, "name": "43a5e386dd66d5629186cffa263b35a6", "fusion_lon": 0.0, "bike_id": "43a5e386dd66d5629186cffa263b35a6", "is_disabled": 0, "is_reserved": 0}, {"rental_uris": {"ios": "https://dc.lft.to/lastmile_qr_scan", "android": "https://dc.lft.to/lastmile_qr_scan"}, "lon": -77.03202816666666, "type": "electric_scooter", "fusion_lat": 0.0, "lat": 38.914707666666665, "name": "2ea9952fca121fa3b2a93adc5b81e5e8", "fusion_lon": 0.0, "bike_id": "2ea9952fca121fa3b2a93adc5b81e5e8", "is_disabled": 0, "is_reserved": 0}, {"rental_uris": {"ios": "https://dc.lft.to/lastmile_qr_scan", "android": "https://dc.lft.to/lastmile_qr_scan"}, "lon": -77.03291966666667, "type": "electric_scooter", "fusion_lat": 0.0, "lat": 38.922146, "name": "0027fdb30ef317db01025217a22e0872", "fusion_lon": 0.0, "bike_id": "0027fdb30ef317db01025217a22e0872", "is_disabled": 0, "is_reserved": 0}, {"rental_uris": {"ios": "https://dc.lft.to/lastmile_qr_scan", "android": "https://dc.lft.to/lastmile_qr_scan"}, "lon": -77.0409825, "type": "electric_scooter", "fusion_lat": 0.0, "lat": 38.91776566666667, "name": "53011039b129ba809762430200330014", "fusion_lon": 0.0, "bike_id": "53011039b129ba809762430200330014", "is_disabled": 0, "is_reserved": 0}, {"rental_uris": {"ios": "https://dc.lft.to/lastmile_qr_scan", "android": "https://dc.lft.to/lastmile_qr_scan"}, "lon": -77.0208495, "type": "electric_scooter", "fusion_lat": 0.0, "lat": 38.910006333333335, "name": "d63a20453a7eda9afa0f5770ed454439", "fusion_lon": 0.0, "bike_id": "d63a20453a7eda9afa0f5770ed454439", "is_disabled": 0, "is_reserved": 0}, {"rental_uris": {"ios": "https://dc.lft.to/lastmile_qr_scan", "android": "https://dc.lft.to/lastmile_qr_scan"}, "lon": -77.05330433333333, "type": "electric_scooter", "fusion_lat": 0.0, "lat": 38.90024, "name": "e1a2c6eab8d267f8bf6b154bf0230618", "fusion_lon": 0.0, "bike_id": "e1a2c6eab8d267f8bf6b154bf0230618", "is_disabled": 0, "is_reserved": 0}, {"rental_uris": {"ios": "https://dc.lft.to/lastmile_qr_scan", "android": "https://dc.lft.to/lastmile_qr_scan"}, "lon": -77.03375183333333, "type": "electric_scooter", "fusion_lat": 0.0, "lat": 38.8996365, "name": "f57fa9dc7154ed06ce672526d524f669", "fusion_lon": 0.0, "bike_id": "f57fa9dc7154ed06ce672526d524f669", "is_disabled": 0, "is_reserved": 0}, {"rental_uris": {"ios": "https://dc.lft.to/lastmile_qr_scan", "android": "https://dc.lft.to/lastmile_qr_scan"}, "lon": -76.979903, "type": "electric_bike", "fusion_lat": 0.0, "lat": 38.877555666666666, "name": "2eeca759b5b73e1f77ec026064a39c5d", "fusion_lon": 0.0, "bike_id": "2eeca759b5b73e1f77ec026064a39c5d", "is_disabled": 0, "is_reserved": 0}, {"rental_uris": {"ios": "https://dc.lft.to/lastmile_qr_scan", "android": "https://dc.lft.to/lastmile_qr_scan"}, "lon": -77.01508916666667, "type": "electric_scooter", "fusion_lat": 0.0, "lat": 38.90192, "name": "8ef943057b9a312d191ad3780d83c2d2", "fusion_lon": 0.0, "bike_id": "8ef943057b9a312d191ad3780d83c2d2", "is_disabled": 0, "is_reserved": 0}, {"rental_uris": {"ios": "https://dc.lft.to/lastmile_qr_scan", "android": "https://dc.lft.to/lastmile_qr_scan"}, "lon": -77.36095516666667, "type": "electric_bike", "fusion_lat": 0.0, "lat": 38.93954183333334, "name": "0608f0e46cbf2b1fb8c56fb7960e9e4e", "fusion_lon": 0.0, "bike_id": "0608f0e46cbf2b1fb8c56fb7960e9e4e", "is_disabled": 0, "is_reserved": 0}, {"rental_uris": {"ios": "https://dc.lft.to/lastmile_qr_scan", "android": "https://dc.lft.to/lastmile_qr_scan"}, "lon": -77.00196966666667, "type": "electric_bike", "fusion_lat": 0.0, "lat": 38.94152, "name": "8a8c310ca71d976cca23aab67a9e0709", "fusion_lon": 0.0, "bike_id": "8a8c310ca71d976cca23aab67a9e0709", "is_disabled": 0, "is_reserved": 0}, {"rental_uris": {"ios": "https://dc.lft.to/lastmile_qr_scan", "android": "https://dc.lft.to/lastmile_qr_scan"}, "lon": -77.02354183333334, "type": "electric_scooter", "fusion_lat": 0.0, "lat": 38.94517366666667, "name": "4faf98de9eaaf26fa560934a83d19b25", "fusion_lon": 0.0, "bike_id": "4faf98de9eaaf26fa560934a83d19b25", "is_disabled": 0, "is_reserved": 0}, {"rental_uris": {"ios": "https://dc.lft.to/lastmile_qr_scan", "android": "https://dc.lft.to/lastmile_qr_scan"}, "lon": -77.03856116666667, "type": "electric_scooter", "fusion_lat": 0.0, "lat": 38.9202715, "name": "b1ddf55f99a0cc9577f581f22779ee72", "fusion_lon": 0.0, "bike_id": "b1ddf55f99a0cc9577f581f22779ee72", "is_disabled": 0, "is_reserved": 0}, {"rental_uris": {"ios": "https://dc.lft.to/lastmile_qr_scan", "android": "https://dc.lft.to/lastmile_qr_scan"}, "lon": -77.05873483333333, "type": "electric_scooter", "fusion_lat": 0.0, "lat": 38.9363365, "name": "cfa057852af342e73ec91be813406f2b", "fusion_lon": 0.0, "bike_id": "cfa057852af342e73ec91be813406f2b", "is_disabled": 0, "is_reserved": 0}, {"rental_uris": {"ios": "https://dc.lft.to/lastmile_qr_scan", "android": "https://dc.lft.to/lastmile_qr_scan"}, "lon": -76.99515216666667, "type": "electric_scooter", "fusion_lat": 0.0, "lat": 38.86255833333333, "name": "b2d5058f2643d717426bc93ef10d7051", "fusion_lon": 0.0, "bike_id": "b2d5058f2643d717426bc93ef10d7051", "is_disabled": 0, "is_reserved": 0}, {"rental_uris": {"ios": "https://dc.lft.to/lastmile_qr_scan", "android": "https://dc.lft.to/lastmile_qr_scan"}, "lon": -77.00290783333334, "type": "electric_scooter", "fusion_lat": 0.0, "lat": 38.909133833333335, "name": "8daf4bce469f9a2acbe078da3c79e68f", "fusion_lon": 0.0, "bike_id": "8daf4bce469f9a2acbe078da3c79e68f", "is_disabled": 0, "is_reserved": 0}, {"rental_uris": {"ios": "https://dc.lft.to/lastmile_qr_scan", "android": "https://dc.lft.to/lastmile_qr_scan"}, "lon": -77.031778, "type": "electric_scooter", "fusion_lat": 0.0, "lat": 38.921170333333336, "name": "9b209fe478c8a7eb094ddde1e42c55c6", "fusion_lon": 0.0, "bike_id": "9b209fe478c8a7eb094ddde1e42c55c6", "is_disabled": 0, "is_reserved": 0}, {"rental_uris": {"ios": "https://dc.lft.to/lastmile_qr_scan", "android": "https://dc.lft.to/lastmile_qr_scan"}, "lon": -76.948897, "type": "electric_scooter", "fusion_lat": 0.0, "lat": 38.895355333333335, "name": "4bb50ac9b24d5e74576c6a11c7b1b929", "fusion_lon": 0.0, "bike_id": "4bb50ac9b24d5e74576c6a11c7b1b929", "is_disabled": 0, "is_reserved": 0}, {"rental_uris": {"ios": "https://dc.lft.to/lastmile_qr_scan", "android": "https://dc.lft.to/lastmile_qr_scan"}, "lon": -77.0375885, "type": "electric_scooter", "fusion_lat": 0.0, "lat": 38.92874316666666, "name": "87fdaa09f0785c0674525e5e3475e365", "fusion_lon": 0.0, "bike_id": "87fdaa09f0785c0674525e5e3475e365", "is_disabled": 0, "is_reserved": 0}, {"rental_uris": {"ios": "https://dc.lft.to/lastmile_qr_scan", "android": "https://dc.lft.to/lastmile_qr_scan"}, "lon": -77.02151416666666, "type": "electric_scooter", "fusion_lat": 0.0, "lat": 38.89623983333333, "name": "cca4963688deb07cdf66377a24ae7819", "fusion_lon": 0.0, "bike_id": "cca4963688deb07cdf66377a24ae7819", "is_disabled": 0, "is_reserved": 0}, {"rental_uris": {"ios": "https://dc.lft.to/lastmile_qr_scan", "android": "https://dc.lft.to/lastmile_qr_scan"}, "lon": -77.025999, "type": "electric_scooter", "fusion_lat": 0.0, "lat": 38.908386, "name": "27c10969f39a01d97a4524dada064450", "fusion_lon": 0.0, "bike_id": "27c10969f39a01d97a4524dada064450", "is_disabled": 0, "is_reserved": 0}, {"rental_uris": {"ios": "https://dc.lft.to/lastmile_qr_scan", "android": "https://dc.lft.to/lastmile_qr_scan"}, "lon": -77.02454666666667, "type": "electric_scooter", "fusion_lat": 0.0, "lat": 38.97930083333333, "name": "67eafec1ef773a147f28854a77831706", "fusion_lon": 0.0, "bike_id": "67eafec1ef773a147f28854a77831706", "is_disabled": 0, "is_reserved": 0}, {"rental_uris": {"ios": "https://dc.lft.to/lastmile_qr_scan", "android": "https://dc.lft.to/lastmile_qr_scan"}, "lon": -77.04121833333333, "type": "electric_scooter", "fusion_lat": 0.0, "lat": 38.92346883333333, "name": "59c10e6745dbb6ab280d9b4b07bf8c04", "fusion_lon": 0.0, "bike_id": "59c10e6745dbb6ab280d9b4b07bf8c04", "is_disabled": 0, "is_reserved": 0}, {"rental_uris": {"ios": "https://dc.lft.to/lastmile_qr_scan", "android": "https://dc.lft.to/lastmile_qr_scan"}, "lon": -77.03078316666667, "type": "electric_scooter", "fusion_lat": 0.0, "lat": 38.904618, "name": "e85762392c7e7da346504195f2df8f2f", "fusion_lon": 0.0, "bike_id": "e85762392c7e7da346504195f2df8f2f", "is_disabled": 0, "is_reserved": 0}, {"rental_uris": {"ios": "https://dc.lft.to/lastmile_qr_scan", "android": "https://dc.lft.to/lastmile_qr_scan"}, "lon": -77.04792866666666, "type": "electric_scooter", "fusion_lat": 0.0, "lat": 38.907208833333335, "name": "2584071503727a3a30954346a5eb1424", "fusion_lon": 0.0, "bike_id": "2584071503727a3a30954346a5eb1424", "is_disabled": 0, "is_reserved": 0}, {"rental_uris": {"ios": "https://dc.lft.to/lastmile_qr_scan", "android": "https://dc.lft.to/lastmile_qr_scan"}, "lon": -76.9732855, "type": "electric_bike", "fusion_lat": 0.0, "lat": 38.850642, "name": "aeee1cda9ae90348c67ed18e46f39db9", "fusion_lon": 0.0, "bike_id": "aeee1cda9ae90348c67ed18e46f39db9", "is_disabled": 0, "is_reserved": 0}, {"rental_uris": {"ios": "https://dc.lft.to/lastmile_qr_scan", "android": "https://dc.lft.to/lastmile_qr_scan"}, "lon": -77.02330233333333, "type": "electric_scooter", "fusion_lat": 0.0, "lat": 38.930499166666664, "name": "69b124130147172509dc95a080bc48c9", "fusion_lon": 0.0, "bike_id": "69b124130147172509dc95a080bc48c9", "is_disabled": 0, "is_reserved": 0}, {"rental_uris": {"ios": "https://dc.lft.to/lastmile_qr_scan", "android": "https://dc.lft.to/lastmile_qr_scan"}, "lon": -77.024174, "type": "electric_scooter", "fusion_lat": 0.0, "lat": 38.918226, "name": "46dc660f92df83578e0416aa3d306a2e", "fusion_lon": 0.0, "bike_id": "46dc660f92df83578e0416aa3d306a2e", "is_disabled": 0, "is_reserved": 0}, {"rental_uris": {"ios": "https://dc.lft.to/lastmile_qr_scan", "android": "https://dc.lft.to/lastmile_qr_scan"}, "lon": -77.05031, "type": "electric_scooter", "fusion_lat": 0.0, "lat": 38.896501666666666, "name": "7500f42a40411e5f4fc5311b9e5f64f6", "fusion_lon": 0.0, "bike_id": "7500f42a40411e5f4fc5311b9e5f64f6", "is_disabled": 0, "is_reserved": 0}, {"rental_uris": {"ios": "https://dc.lft.to/lastmile_qr_scan", "android": "https://dc.lft.to/lastmile_qr_scan"}, "lon": -77.04611183333333, "type": "electric_scooter", "fusion_lat": 0.0, "lat": 38.90220216666667, "name": "1c95aa727adefcf60ec851a6b67cec15", "fusion_lon": 0.0, "bike_id": "1c95aa727adefcf60ec851a6b67cec15", "is_disabled": 0, "is_reserved": 0}, {"rental_uris": {"ios": "https://dc.lft.to/lastmile_qr_scan", "android": "https://dc.lft.to/lastmile_qr_scan"}, "lon": -77.05267333333333, "type": "electric_scooter", "fusion_lat": 0.0, "lat": 38.910151666666664, "name": "2382c4005deacd833b3e25e059285bfb", "fusion_lon": 0.0, "bike_id": "2382c4005deacd833b3e25e059285bfb", "is_disabled": 0, "is_reserved": 0}, {"rental_uris": {"ios": "https://dc.lft.to/lastmile_qr_scan", "android": "https://dc.lft.to/lastmile_qr_scan"}, "lon": -77.03799366666667, "type": "electric_scooter", "fusion_lat": 0.0, "lat": 38.92189283333333, "name": "8d2d1138e90ab5cad792a919e5701829", "fusion_lon": 0.0, "bike_id": "8d2d1138e90ab5cad792a919e5701829", "is_disabled": 0, "is_reserved": 0}, {"rental_uris": {"ios": "https://dc.lft.to/lastmile_qr_scan", "android": "https://dc.lft.to/lastmile_qr_scan"}, "lon": -77.02579633333333, "type": "electric_scooter", "fusion_lat": 0.0, "lat": 38.918165, "name": "47373369eb47a2d7c37e4decfd1b66e2", "fusion_lon": 0.0, "bike_id": "47373369eb47a2d7c37e4decfd1b66e2", "is_disabled": 0, "is_reserved": 0}, {"rental_uris": {"ios": "https://dc.lft.to/lastmile_qr_scan", "android": "https://dc.lft.to/lastmile_qr_scan"}, "lon": -77.039584, "type": "electric_scooter", "fusion_lat": 0.0, "lat": 38.90278766666667, "name": "066d50c166522c8add2aad21df9a636f", "fusion_lon": 0.0, "bike_id": "066d50c166522c8add2aad21df9a636f", "is_disabled": 0, "is_reserved": 0}, {"rental_uris": {"ios": "https://dc.lft.to/lastmile_qr_scan", "android": "https://dc.lft.to/lastmile_qr_scan"}, "lon": -77.03671433333334, "type": "electric_scooter", "fusion_lat": 0.0, "lat": 38.929959, "name": "6d7eeda992a444ebb641ea9d69dd94fc", "fusion_lon": 0.0, "bike_id": "6d7eeda992a444ebb641ea9d69dd94fc", "is_disabled": 0, "is_reserved": 0}, {"rental_uris": {"ios": "https://dc.lft.to/lastmile_qr_scan", "android": "https://dc.lft.to/lastmile_qr_scan"}, "lon": -76.94986533333334, "type": "electric_scooter", "fusion_lat": 0.0, "lat": 38.893504166666666, "name": "9fb01efb2ec38fc32b6110b1071b0e86", "fusion_lon": 0.0, "bike_id": "9fb01efb2ec38fc32b6110b1071b0e86", "is_disabled": 0, "is_reserved": 0}, {"rental_uris": {"ios": "https://dc.lft.to/lastmile_qr_scan", "android": "https://dc.lft.to/lastmile_qr_scan"}, "lon": -76.97731566666667, "type": "electric_scooter", "fusion_lat": 0.0, "lat": 38.87284433333333, "name": "197e3b75db23b637ff2d9beaca88591d", "fusion_lon": 0.0, "bike_id": "197e3b75db23b637ff2d9beaca88591d", "is_disabled": 0, "is_reserved": 0}, {"rental_uris": {"ios": "https://dc.lft.to/lastmile_qr_scan", "android": "https://dc.lft.to/lastmile_qr_scan"}, "lon": -76.99770716666667, "type": "electric_scooter", "fusion_lat": 0.0, "lat": 38.844252166666664, "name": "6b70e16d5600ccfde2782195de076824", "fusion_lon": 0.0, "bike_id": "6b70e16d5600ccfde2782195de076824", "is_disabled": 0, "is_reserved": 0}, {"rental_uris": {"ios": "https://dc.lft.to/lastmile_qr_scan", "android": "https://dc.lft.to/lastmile_qr_scan"}, "lon": -77.01496783333333, "type": "electric_scooter", "fusion_lat": 0.0, "lat": 38.89816783333333, "name": "0d17491aa363f98b983e5178085529d6", "fusion_lon": 0.0, "bike_id": "0d17491aa363f98b983e5178085529d6", "is_disabled": 0, "is_reserved": 0}, {"rental_uris": {"ios": "https://dc.lft.to/lastmile_qr_scan", "android": "https://dc.lft.to/lastmile_qr_scan"}, "lon": -77.01865633333334, "type": "electric_scooter", "fusion_lat": 0.0, "lat": 38.915717666666666, "name": "d8af3c44feeec80eeb4a963e138f354d", "fusion_lon": 0.0, "bike_id": "d8af3c44feeec80eeb4a963e138f354d", "is_disabled": 0, "is_reserved": 0}, {"rental_uris": {"ios": "https://dc.lft.to/lastmile_qr_scan", "android": "https://dc.lft.to/lastmile_qr_scan"}, "lon": -77.04084433333334, "type": "electric_scooter", "fusion_lat": 0.0, "lat": 38.90552783333333, "name": "4d242ea41fdbff82a5a42fbafe2ffb5a", "fusion_lon": 0.0, "bike_id": "4d242ea41fdbff82a5a42fbafe2ffb5a", "is_disabled": 0, "is_reserved": 0}, {"rental_uris": {"ios": "https://dc.lft.to/lastmile_qr_scan", "android": "https://dc.lft.to/lastmile_qr_scan"}, "lon": -76.99999816666667, "type": "electric_bike", "fusion_lat": 0.0, "lat": 38.92392916666667, "name": "38ed9bf4f35ed9b0bfe78ffa32c466df", "fusion_lon": 0.0, "bike_id": "38ed9bf4f35ed9b0bfe78ffa32c466df", "is_disabled": 0, "is_reserved": 0}, {"rental_uris": {"ios": "https://dc.lft.to/lastmile_qr_scan", "android": "https://dc.lft.to/lastmile_qr_scan"}, "lon": -77.002298, "type": "electric_scooter", "fusion_lat": 0.0, "lat": 38.90840733333334, "name": "b0d0d09ca1b2243e7d2915fa9a93640f", "fusion_lon": 0.0, "bike_id": "b0d0d09ca1b2243e7d2915fa9a93640f", "is_disabled": 0, "is_reserved": 0}, {"rental_uris": {"ios": "https://dc.lft.to/lastmile_qr_scan", "android": "https://dc.lft.to/lastmile_qr_scan"}, "lon": -77.13184683333333, "type": "electric_bike", "fusion_lat": 0.0, "lat": 38.869085, "name": "7e4acc92ccb1c84bcd9b04176446c4a0", "fusion_lon": 0.0, "bike_id": "7e4acc92ccb1c84bcd9b04176446c4a0", "is_disabled": 0, "is_reserved": 0}, {"rental_uris": {"ios": "https://dc.lft.to/lastmile_qr_scan", "android": "https://dc.lft.to/lastmile_qr_scan"}, "lon": -76.97421216666666, "type": "electric_bike", "fusion_lat": 0.0, "lat": 38.864065833333335, "name": "f0bb327a364048bbc05471f91ab53719", "fusion_lon": 0.0, "bike_id": "f0bb327a364048bbc05471f91ab53719", "is_disabled": 0, "is_reserved": 0}, {"rental_uris": {"ios": "https://dc.lft.to/lastmile_qr_scan", "android": "https://dc.lft.to/lastmile_qr_scan"}, "lon": -77.03756116666666, "type": "electric_bike", "fusion_lat": 0.0, "lat": 38.996613333333336, "name": "07c3335f8b78a80d34ce2c04e83b9ca6", "fusion_lon": 0.0, "bike_id": "07c3335f8b78a80d34ce2c04e83b9ca6", "is_disabled": 0, "is_reserved": 0}, {"rental_uris": {"ios": "https://dc.lft.to/lastmile_qr_scan", "android": "https://dc.lft.to/lastmile_qr_scan"}, "lon": -76.95737516666667, "type": "electric_scooter", "fusion_lat": 0.0, "lat": 38.892145, "name": "7eccef3a48bd4b242f6de297243acae5", "fusion_lon": 0.0, "bike_id": "7eccef3a48bd4b242f6de297243acae5", "is_disabled": 0, "is_reserved": 0}, {"rental_uris": {"ios": "https://dc.lft.to/lastmile_qr_scan", "android": "https://dc.lft.to/lastmile_qr_scan"}, "lon": -77.0295555, "type": "electric_scooter", "fusion_lat": 0.0, "lat": 38.900626, "name": "e81363f26d6492dfafcc827909e4276e", "fusion_lon": 0.0, "bike_id": "e81363f26d6492dfafcc827909e4276e", "is_disabled": 0, "is_reserved": 0}, {"rental_uris": {"ios": "https://dc.lft.to/lastmile_qr_scan", "android": "https://dc.lft.to/lastmile_qr_scan"}, "lon": -77.03621916666667, "type": "electric_scooter", "fusion_lat": 0.0, "lat": 38.936831833333336, "name": "7c22cffcf0923c6e5c185e90d3f65e3d", "fusion_lon": 0.0, "bike_id": "7c22cffcf0923c6e5c185e90d3f65e3d", "is_disabled": 0, "is_reserved": 0}, {"rental_uris": {"ios": "https://dc.lft.to/lastmile_qr_scan", "android": "https://dc.lft.to/lastmile_qr_scan"}, "lon": -77.05300833333334, "type": "electric_scooter", "fusion_lat": 0.0, "lat": 38.902838, "name": "3cde4adf1d59d26ac24d40175f411de7", "fusion_lon": 0.0, "bike_id": "3cde4adf1d59d26ac24d40175f411de7", "is_disabled": 0, "is_reserved": 0}, {"rental_uris": {"ios": "https://dc.lft.to/lastmile_qr_scan", "android": "https://dc.lft.to/lastmile_qr_scan"}, "lon": -77.05051816666666, "type": "electric_scooter", "fusion_lat": 0.0, "lat": 38.90077733333333, "name": "8a05c875b091e5e7fee7b6dffa86c1bb", "fusion_lon": 0.0, "bike_id": "8a05c875b091e5e7fee7b6dffa86c1bb", "is_disabled": 0, "is_reserved": 0}, {"rental_uris": {"ios": "https://dc.lft.to/lastmile_qr_scan", "android": "https://dc.lft.to/lastmile_qr_scan"}, "lon": -77.03581016666666, "type": "electric_scooter", "fusion_lat": 0.0, "lat": 38.932413, "name": "235ce5950c7a4026ad2f5ec4f9ef465b", "fusion_lon": 0.0, "bike_id": "235ce5950c7a4026ad2f5ec4f9ef465b", "is_disabled": 0, "is_reserved": 0}, {"rental_uris": {"ios": "https://dc.lft.to/lastmile_qr_scan", "android": "https://dc.lft.to/lastmile_qr_scan"}, "lon": -77.03278116666667, "type": "electric_scooter", "fusion_lat": 0.0, "lat": 38.928626666666666, "name": "4d576edf8ecbc964a6270bb1bdbcea1b", "fusion_lon": 0.0, "bike_id": "4d576edf8ecbc964a6270bb1bdbcea1b", "is_disabled": 0, "is_reserved": 0}, {"rental_uris": {"ios": "https://dc.lft.to/lastmile_qr_scan", "android": "https://dc.lft.to/lastmile_qr_scan"}, "lon": -77.001164, "type": "electric_scooter", "fusion_lat": 0.0, "lat": 38.877936, "name": "394437966cd899659cdd28675d6144d5", "fusion_lon": 0.0, "bike_id": "394437966cd899659cdd28675d6144d5", "is_disabled": 0, "is_reserved": 0}, {"rental_uris": {"ios": "https://dc.lft.to/lastmile_qr_scan", "android": "https://dc.lft.to/lastmile_qr_scan"}, "lon": -77.0430495, "type": "electric_bike", "fusion_lat": 0.0, "lat": 39.05447, "name": "c528c2556989e8dfaa253564fcdb6db6", "fusion_lon": 0.0, "bike_id": "c528c2556989e8dfaa253564fcdb6db6", "is_disabled": 0, "is_reserved": 0}, {"rental_uris": {"ios": "https://dc.lft.to/lastmile_qr_scan", "android": "https://dc.lft.to/lastmile_qr_scan"}, "lon": -76.98903366666667, "type": "electric_scooter", "fusion_lat": 0.0, "lat": 38.8669315, "name": "f935ec3247fa664236ba720d61b61357", "fusion_lon": 0.0, "bike_id": "f935ec3247fa664236ba720d61b61357", "is_disabled": 0, "is_reserved": 0}, {"rental_uris": {"ios": "https://dc.lft.to/lastmile_qr_scan", "android": "https://dc.lft.to/lastmile_qr_scan"}, "lon": -77.03638616666667, "type": "electric_scooter", "fusion_lat": 0.0, "lat": 38.912761, "name": "5028084b20996736db249cbaffc5c2ef", "fusion_lon": 0.0, "bike_id": "5028084b20996736db249cbaffc5c2ef", "is_disabled": 0, "is_reserved": 0}, {"rental_uris": {"ios": "https://dc.lft.to/lastmile_qr_scan", "android": "https://dc.lft.to/lastmile_qr_scan"}, "lon": -77.04116966666666, "type": "electric_scooter", "fusion_lat": 0.0, "lat": 38.923595, "name": "ebdac8ba2cfda8762ddfc0a3530a4050", "fusion_lon": 0.0, "bike_id": "ebdac8ba2cfda8762ddfc0a3530a4050", "is_disabled": 0, "is_reserved": 0}, {"rental_uris": {"ios": "https://dc.lft.to/lastmile_qr_scan", "android": "https://dc.lft.to/lastmile_qr_scan"}, "lon": -77.05693433333333, "type": "electric_scooter", "fusion_lat": 0.0, "lat": 38.9055485, "name": "cd3ad01eb466114852ff8a5758a6c7a8", "fusion_lon": 0.0, "bike_id": "cd3ad01eb466114852ff8a5758a6c7a8", "is_disabled": 0, "is_reserved": 0}, {"rental_uris": {"ios": "https://dc.lft.to/lastmile_qr_scan", "android": "https://dc.lft.to/lastmile_qr_scan"}, "lon": -76.953554, "type": "electric_bike", "fusion_lat": 0.0, "lat": 38.93952066666667, "name": "69fbaf02dec212e7ee4ed916fa8f59ca", "fusion_lon": 0.0, "bike_id": "69fbaf02dec212e7ee4ed916fa8f59ca", "is_disabled": 0, "is_reserved": 0}, {"rental_uris": {"ios": "https://dc.lft.to/lastmile_qr_scan", "android": "https://dc.lft.to/lastmile_qr_scan"}, "lon": -77.17837583333333, "type": "electric_bike", "fusion_lat": 0.0, "lat": 39.088546666666666, "name": "50488099c8aed149de3600a2ff90bd46", "fusion_lon": 0.0, "bike_id": "50488099c8aed149de3600a2ff90bd46", "is_disabled": 0, "is_reserved": 0}, {"rental_uris": {"ios": "https://dc.lft.to/lastmile_qr_scan", "android": "https://dc.lft.to/lastmile_qr_scan"}, "lon": -76.98707566666667, "type": "electric_scooter", "fusion_lat": 0.0, "lat": 38.866952833333336, "name": "5d6e5352202154120205cb590be8a319", "fusion_lon": 0.0, "bike_id": "5d6e5352202154120205cb590be8a319", "is_disabled": 0, "is_reserved": 0}, {"rental_uris": {"ios": "https://dc.lft.to/lastmile_qr_scan", "android": "https://dc.lft.to/lastmile_qr_scan"}, "lon": -77.00201616666666, "type": "electric_scooter", "fusion_lat": 0.0, "lat": 38.90063833333333, "name": "bd473cde5ccf6a6372fed8d39b3eba07", "fusion_lon": 0.0, "bike_id": "bd473cde5ccf6a6372fed8d39b3eba07", "is_disabled": 0, "is_reserved": 0}, {"rental_uris": {"ios": "https://dc.lft.to/lastmile_qr_scan", "android": "https://dc.lft.to/lastmile_qr_scan"}, "lon": -77.03251483333334, "type": "electric_scooter", "fusion_lat": 0.0, "lat": 38.9126, "name": "3104ee959c601b2d842b083908473992", "fusion_lon": 0.0, "bike_id": "3104ee959c601b2d842b083908473992", "is_disabled": 0, "is_reserved": 0}, {"rental_uris": {"ios": "https://dc.lft.to/lastmile_qr_scan", "android": "https://dc.lft.to/lastmile_qr_scan"}, "lon": -76.990017, "type": "electric_scooter", "fusion_lat": 0.0, "lat": 38.86501533333333, "name": "759f1f7e76b35103988cf544b5a5e6ae", "fusion_lon": 0.0, "bike_id": "759f1f7e76b35103988cf544b5a5e6ae", "is_disabled": 0, "is_reserved": 0}, {"rental_uris": {"ios": "https://dc.lft.to/lastmile_qr_scan", "android": "https://dc.lft.to/lastmile_qr_scan"}, "lon": -77.03336533333334, "type": "electric_scooter", "fusion_lat": 0.0, "lat": 38.93517283333333, "name": "e70da73f427ecff4bf5c790cb96b1887", "fusion_lon": 0.0, "bike_id": "e70da73f427ecff4bf5c790cb96b1887", "is_disabled": 0, "is_reserved": 0}, {"rental_uris": {"ios": "https://dc.lft.to/lastmile_qr_scan", "android": "https://dc.lft.to/lastmile_qr_scan"}, "lon": -77.06111566666667, "type": "electric_scooter", "fusion_lat": 0.0, "lat": 38.912911333333334, "name": "50150d2accbf8032808c32c2528b2ae6", "fusion_lon": 0.0, "bike_id": "50150d2accbf8032808c32c2528b2ae6", "is_disabled": 0, "is_reserved": 0}, {"rental_uris": {"ios": "https://dc.lft.to/lastmile_qr_scan", "android": "https://dc.lft.to/lastmile_qr_scan"}, "lon": -77.048825, "type": "electric_scooter", "fusion_lat": 0.0, "lat": 38.905914833333334, "name": "ed95d33661dffaf638ffa0c86d8ae407", "fusion_lon": 0.0, "bike_id": "ed95d33661dffaf638ffa0c86d8ae407", "is_disabled": 0, "is_reserved": 0}, {"rental_uris": {"ios": "https://dc.lft.to/lastmile_qr_scan", "android": "https://dc.lft.to/lastmile_qr_scan"}, "lon": -77.04241283333333, "type": "electric_scooter", "fusion_lat": 0.0, "lat": 38.9215325, "name": "f64f94b7a705fd4232104b5f3cc86ad5", "fusion_lon": 0.0, "bike_id": "f64f94b7a705fd4232104b5f3cc86ad5", "is_disabled": 0, "is_reserved": 0}, {"rental_uris": {"ios": "https://dc.lft.to/lastmile_qr_scan", "android": "https://dc.lft.to/lastmile_qr_scan"}, "lon": -77.01275533333333, "type": "electric_bike", "fusion_lat": 0.0, "lat": 38.8812, "name": "1312b8c9a0fd04a4d12ef97f0fb48057", "fusion_lon": 0.0, "bike_id": "1312b8c9a0fd04a4d12ef97f0fb48057", "is_disabled": 0, "is_reserved": 0}, {"rental_uris": {"ios": "https://dc.lft.to/lastmile_qr_scan", "android": "https://dc.lft.to/lastmile_qr_scan"}, "lon": -77.029727, "type": "electric_scooter", "fusion_lat": 0.0, "lat": 38.962309, "name": "c80f564bbb917497616ba1efab80e2f2", "fusion_lon": 0.0, "bike_id": "c80f564bbb917497616ba1efab80e2f2", "is_disabled": 0, "is_reserved": 0}, {"rental_uris": {"ios": "https://dc.lft.to/lastmile_qr_scan", "android": "https://dc.lft.to/lastmile_qr_scan"}, "lon": -77.10343283333333, "type": "electric_bike", "fusion_lat": 0.0, "lat": 38.85224516666667, "name": "d6f425ba1b5f70153763311068b85b24", "fusion_lon": 0.0, "bike_id": "d6f425ba1b5f70153763311068b85b24", "is_disabled": 0, "is_reserved": 0}, {"rental_uris": {"ios": "https://dc.lft.to/lastmile_qr_scan", "android": "https://dc.lft.to/lastmile_qr_scan"}, "lon": -77.0088085, "type": "electric_scooter", "fusion_lat": 0.0, "lat": 38.91403716666667, "name": "d9e4536040560af32309820cffbaaa7c", "fusion_lon": 0.0, "bike_id": "d9e4536040560af32309820cffbaaa7c", "is_disabled": 0, "is_reserved": 0}, {"rental_uris": {"ios": "https://dc.lft.to/lastmile_qr_scan", "android": "https://dc.lft.to/lastmile_qr_scan"}, "lon": -77.0013345, "type": "electric_scooter", "fusion_lat": 0.0, "lat": 38.90410833333333, "name": "3f72ef3cadb2d4d8df21105b8141f942", "fusion_lon": 0.0, "bike_id": "3f72ef3cadb2d4d8df21105b8141f942", "is_disabled": 0, "is_reserved": 0}, {"rental_uris": {"ios": "https://dc.lft.to/lastmile_qr_scan", "android": "https://dc.lft.to/lastmile_qr_scan"}, "lon": -76.9272475, "type": "electric_scooter", "fusion_lat": 0.0, "lat": 38.88038933333333, "name": "855f0ec6c8c067d45fc250c1a12d445d", "fusion_lon": 0.0, "bike_id": "855f0ec6c8c067d45fc250c1a12d445d", "is_disabled": 0, "is_reserved": 0}, {"rental_uris": {"ios": "https://dc.lft.to/lastmile_qr_scan", "android": "https://dc.lft.to/lastmile_qr_scan"}, "lon": -76.94663683333333, "type": "electric_scooter", "fusion_lat": 0.0, "lat": 38.89803583333333, "name": "9f0faf39af23edb3c11b941be387e22c", "fusion_lon": 0.0, "bike_id": "9f0faf39af23edb3c11b941be387e22c", "is_disabled": 0, "is_reserved": 0}, {"rental_uris": {"ios": "https://dc.lft.to/lastmile_qr_scan", "android": "https://dc.lft.to/lastmile_qr_scan"}, "lon": -77.0049565, "type": "electric_scooter", "fusion_lat": 0.0, "lat": 38.878547, "name": "07c31b2aa5f6e283ef72bcd5f26fd10d", "fusion_lon": 0.0, "bike_id": "07c31b2aa5f6e283ef72bcd5f26fd10d", "is_disabled": 0, "is_reserved": 0}, {"rental_uris": {"ios": "https://dc.lft.to/lastmile_qr_scan", "android": "https://dc.lft.to/lastmile_qr_scan"}, "lon": -77.047009, "type": "electric_scooter", "fusion_lat": 0.0, "lat": 38.90588666666667, "name": "b773453a4632f40701ece7e9743248cf", "fusion_lon": 0.0, "bike_id": "b773453a4632f40701ece7e9743248cf", "is_disabled": 0, "is_reserved": 0}, {"rental_uris": {"ios": "https://dc.lft.to/lastmile_qr_scan", "android": "https://dc.lft.to/lastmile_qr_scan"}, "lon": -77.032175, "type": "electric_scooter", "fusion_lat": 0.0, "lat": 38.90740516666666, "name": "d788ab64ca15530c27602dcf8113a149", "fusion_lon": 0.0, "bike_id": "d788ab64ca15530c27602dcf8113a149", "is_disabled": 0, "is_reserved": 0}, {"rental_uris": {"ios": "https://dc.lft.to/lastmile_qr_scan", "android": "https://dc.lft.to/lastmile_qr_scan"}, "lon": -77.03854466666667, "type": "electric_scooter", "fusion_lat": 0.0, "lat": 38.91319816666667, "name": "3e3f8888a11d93e3c7a13ae94933a258", "fusion_lon": 0.0, "bike_id": "3e3f8888a11d93e3c7a13ae94933a258", "is_disabled": 0, "is_reserved": 0}, {"rental_uris": {"ios": "https://dc.lft.to/lastmile_qr_scan", "android": "https://dc.lft.to/lastmile_qr_scan"}, "lon": -77.02666866666667, "type": "electric_scooter", "fusion_lat": 0.0, "lat": 38.8815795, "name": "c58a8528a0ba9ebda32d558dfda3ac81", "fusion_lon": 0.0, "bike_id": "c58a8528a0ba9ebda32d558dfda3ac81", "is_disabled": 0, "is_reserved": 0}, {"rental_uris": {"ios": "https://dc.lft.to/lastmile_qr_scan", "android": "https://dc.lft.to/lastmile_qr_scan"}, "lon": -77.06600966666667, "type": "electric_scooter", "fusion_lat": 0.0, "lat": 38.905792166666664, "name": "5d1816d58c06d14e051d133687e59b58", "fusion_lon": 0.0, "bike_id": "5d1816d58c06d14e051d133687e59b58", "is_disabled": 0, "is_reserved": 0}, {"rental_uris": {"ios": "https://dc.lft.to/lastmile_qr_scan", "android": "https://dc.lft.to/lastmile_qr_scan"}, "lon": -77.05474683333334, "type": "electric_scooter", "fusion_lat": 0.0, "lat": 38.8939155, "name": "bc5dccf5f1b1ab68f4493ab34f12ee40", "fusion_lon": 0.0, "bike_id": "bc5dccf5f1b1ab68f4493ab34f12ee40", "is_disabled": 0, "is_reserved": 0}, {"rental_uris": {"ios": "https://dc.lft.to/lastmile_qr_scan", "android": "https://dc.lft.to/lastmile_qr_scan"}, "lon": -77.12958033333334, "type": "electric_bike", "fusion_lat": 0.0, "lat": 38.852145, "name": "399f44f175a1025df1c4dc75558a19c1", "fusion_lon": 0.0, "bike_id": "399f44f175a1025df1c4dc75558a19c1", "is_disabled": 0, "is_reserved": 0}, {"rental_uris": {"ios": "https://dc.lft.to/lastmile_qr_scan", "android": "https://dc.lft.to/lastmile_qr_scan"}, "lon": -76.9837275, "type": "electric_scooter", "fusion_lat": 0.0, "lat": 38.89540483333333, "name": "929324dcd9538aa8313e35796c4f73bd", "fusion_lon": 0.0, "bike_id": "929324dcd9538aa8313e35796c4f73bd", "is_disabled": 0, "is_reserved": 0}, {"rental_uris": {"ios": "https://dc.lft.to/lastmile_qr_scan", "android": "https://dc.lft.to/lastmile_qr_scan"}, "lon": -76.95992216666667, "type": "electric_scooter", "fusion_lat": 0.0, "lat": 38.88041166666667, "name": "8a359c037edf83e64e59313dfa5a16c9", "fusion_lon": 0.0, "bike_id": "8a359c037edf83e64e59313dfa5a16c9", "is_disabled": 0, "is_reserved": 0}, {"rental_uris": {"ios": "https://dc.lft.to/lastmile_qr_scan", "android": "https://dc.lft.to/lastmile_qr_scan"}, "lon": -77.02607283333333, "type": "electric_bike", "fusion_lat": 0.0, "lat": 38.9625855, "name": "662235914b10902edd55babf7727aa79", "fusion_lon": 0.0, "bike_id": "662235914b10902edd55babf7727aa79", "is_disabled": 0, "is_reserved": 0}, {"rental_uris": {"ios": "https://dc.lft.to/lastmile_qr_scan", "android": "https://dc.lft.to/lastmile_qr_scan"}, "lon": -77.03052733333334, "type": "electric_scooter", "fusion_lat": 0.0, "lat": 38.917153166666665, "name": "f27035aabf55814b120d10ebff0df5e4", "fusion_lon": 0.0, "bike_id": "f27035aabf55814b120d10ebff0df5e4", "is_disabled": 0, "is_reserved": 0}, {"rental_uris": {"ios": "https://dc.lft.to/lastmile_qr_scan", "android": "https://dc.lft.to/lastmile_qr_scan"}, "lon": -76.9968265, "type": "electric_scooter", "fusion_lat": 0.0, "lat": 38.90101033333333, "name": "1e8a395b880cfe90a13c727b4fc49f63", "fusion_lon": 0.0, "bike_id": "1e8a395b880cfe90a13c727b4fc49f63", "is_disabled": 0, "is_reserved": 0}, {"rental_uris": {"ios": "https://dc.lft.to/lastmile_qr_scan", "android": "https://dc.lft.to/lastmile_qr_scan"}, "lon": -77.00203166666667, "type": "electric_scooter", "fusion_lat": 0.0, "lat": 38.8999195, "name": "e017c71e3b1fb7455318b26077ce9723", "fusion_lon": 0.0, "bike_id": "e017c71e3b1fb7455318b26077ce9723", "is_disabled": 0, "is_reserved": 0}, {"rental_uris": {"ios": "https://dc.lft.to/lastmile_qr_scan", "android": "https://dc.lft.to/lastmile_qr_scan"}, "lon": -76.93227283333333, "type": "electric_bike", "fusion_lat": 0.0, "lat": 38.865955, "name": "551ed218f7f83d31abbe0025209019b6", "fusion_lon": 0.0, "bike_id": "551ed218f7f83d31abbe0025209019b6", "is_disabled": 0, "is_reserved": 0}, {"rental_uris": {"ios": "https://dc.lft.to/lastmile_qr_scan", "android": "https://dc.lft.to/lastmile_qr_scan"}, "lon": -76.94754066666667, "type": "electric_scooter", "fusion_lat": 0.0, "lat": 38.90052633333333, "name": "06f4dc236c12436360e2d2748192f6df", "fusion_lon": 0.0, "bike_id": "06f4dc236c12436360e2d2748192f6df", "is_disabled": 0, "is_reserved": 0}, {"rental_uris": {"ios": "https://dc.lft.to/lastmile_qr_scan", "android": "https://dc.lft.to/lastmile_qr_scan"}, "lon": -76.9730035, "type": "electric_scooter", "fusion_lat": 0.0, "lat": 38.90337433333333, "name": "7bc5c31b3a3de5ed54bdd63b080205d3", "fusion_lon": 0.0, "bike_id": "7bc5c31b3a3de5ed54bdd63b080205d3", "is_disabled": 0, "is_reserved": 0}, {"rental_uris": {"ios": "https://dc.lft.to/lastmile_qr_scan", "android": "https://dc.lft.to/lastmile_qr_scan"}, "lon": -77.033668, "type": "electric_scooter", "fusion_lat": 0.0, "lat": 38.914154833333335, "name": "4f8ad7e4895f641b93025ddb391c1c36", "fusion_lon": 0.0, "bike_id": "4f8ad7e4895f641b93025ddb391c1c36", "is_disabled": 0, "is_reserved": 0}, {"rental_uris": {"ios": "https://dc.lft.to/lastmile_qr_scan", "android": "https://dc.lft.to/lastmile_qr_scan"}, "lon": -77.05808066666667, "type": "electric_scooter", "fusion_lat": 0.0, "lat": 38.90296016666667, "name": "c4b427cb14d038ddf1d8b04b63ad343b", "fusion_lon": 0.0, "bike_id": "c4b427cb14d038ddf1d8b04b63ad343b", "is_disabled": 0, "is_reserved": 0}, {"rental_uris": {"ios": "https://dc.lft.to/lastmile_qr_scan", "android": "https://dc.lft.to/lastmile_qr_scan"}, "lon": -77.0356875, "type": "electric_scooter", "fusion_lat": 0.0, "lat": 38.918135, "name": "b20ac1438d0d08ed6adc6f62302d309f", "fusion_lon": 0.0, "bike_id": "b20ac1438d0d08ed6adc6f62302d309f", "is_disabled": 0, "is_reserved": 0}, {"rental_uris": {"ios": "https://dc.lft.to/lastmile_qr_scan", "android": "https://dc.lft.to/lastmile_qr_scan"}, "lon": -77.03084133333333, "type": "electric_scooter", "fusion_lat": 0.0, "lat": 38.922493833333334, "name": "61a0d325ebf13875c04f6dbfb7eda230", "fusion_lon": 0.0, "bike_id": "61a0d325ebf13875c04f6dbfb7eda230", "is_disabled": 0, "is_reserved": 0}, {"rental_uris": {"ios": "https://dc.lft.to/lastmile_qr_scan", "android": "https://dc.lft.to/lastmile_qr_scan"}, "lon": -76.93541066666667, "type": "electric_bike", "fusion_lat": 0.0, "lat": 38.951816666666666, "name": "5204bf2d6db9dc1c861f91a6cc97388d", "fusion_lon": 0.0, "bike_id": "5204bf2d6db9dc1c861f91a6cc97388d", "is_disabled": 0, "is_reserved": 0}, {"rental_uris": {"ios": "https://dc.lft.to/lastmile_qr_scan", "android": "https://dc.lft.to/lastmile_qr_scan"}, "lon": -76.99551533333333, "type": "electric_scooter", "fusion_lat": 0.0, "lat": 38.92312666666667, "name": "2a30cadb7dbcde9d3bea4ee903c2ac88", "fusion_lon": 0.0, "bike_id": "2a30cadb7dbcde9d3bea4ee903c2ac88", "is_disabled": 0, "is_reserved": 0}, {"rental_uris": {"ios": "https://dc.lft.to/lastmile_qr_scan", "android": "https://dc.lft.to/lastmile_qr_scan"}, "lon": -77.00105783333333, "type": "electric_scooter", "fusion_lat": 0.0, "lat": 38.873253166666665, "name": "1a99f72f7a37e7df88646a168d14359c", "fusion_lon": 0.0, "bike_id": "1a99f72f7a37e7df88646a168d14359c", "is_disabled": 0, "is_reserved": 0}, {"rental_uris": {"ios": "https://dc.lft.to/lastmile_qr_scan", "android": "https://dc.lft.to/lastmile_qr_scan"}, "lon": -77.04818966666667, "type": "electric_scooter", "fusion_lat": 0.0, "lat": 38.89728483333333, "name": "23e225d6d77f2c977337851ef8692d78", "fusion_lon": 0.0, "bike_id": "23e225d6d77f2c977337851ef8692d78", "is_disabled": 0, "is_reserved": 0}, {"rental_uris": {"ios": "https://dc.lft.to/lastmile_qr_scan", "android": "https://dc.lft.to/lastmile_qr_scan"}, "lon": -77.05086133333333, "type": "electric_bike", "fusion_lat": 0.0, "lat": 38.813310333333334, "name": "92e1088cdf248d7bb74d83d8065dbb72", "fusion_lon": 0.0, "bike_id": "92e1088cdf248d7bb74d83d8065dbb72", "is_disabled": 0, "is_reserved": 0}, {"rental_uris": {"ios": "https://dc.lft.to/lastmile_qr_scan", "android": "https://dc.lft.to/lastmile_qr_scan"}, "lon": -77.05679866666667, "type": "electric_scooter", "fusion_lat": 0.0, "lat": 38.93701516666667, "name": "e40ce5bdc37e8a0b7918bc1dbf250202", "fusion_lon": 0.0, "bike_id": "e40ce5bdc37e8a0b7918bc1dbf250202", "is_disabled": 0, "is_reserved": 0}, {"rental_uris": {"ios": "https://dc.lft.to/lastmile_qr_scan", "android": "https://dc.lft.to/lastmile_qr_scan"}, "lon": -76.9731745, "type": "electric_scooter", "fusion_lat": 0.0, "lat": 38.90476833333334, "name": "5da7f7874e1358291128c17f2b3c9447", "fusion_lon": 0.0, "bike_id": "5da7f7874e1358291128c17f2b3c9447", "is_disabled": 0, "is_reserved": 0}, {"rental_uris": {"ios": "https://dc.lft.to/lastmile_qr_scan", "android": "https://dc.lft.to/lastmile_qr_scan"}, "lon": -77.01086133333334, "type": "electric_scooter", "fusion_lat": 0.0, "lat": 38.89484083333333, "name": "199796e31fd9ef17a00e300ac868911a", "fusion_lon": 0.0, "bike_id": "199796e31fd9ef17a00e300ac868911a", "is_disabled": 0, "is_reserved": 0}, {"rental_uris": {"ios": "https://dc.lft.to/lastmile_qr_scan", "android": "https://dc.lft.to/lastmile_qr_scan"}, "lon": -77.04063283333333, "type": "electric_scooter", "fusion_lat": 0.0, "lat": 38.90277866666667, "name": "bb589e7f06b05e50be62d9a6de70456c", "fusion_lon": 0.0, "bike_id": "bb589e7f06b05e50be62d9a6de70456c", "is_disabled": 0, "is_reserved": 0}, {"rental_uris": {"ios": "https://dc.lft.to/lastmile_qr_scan", "android": "https://dc.lft.to/lastmile_qr_scan"}, "lon": -77.03510616666667, "type": "electric_bike", "fusion_lat": 0.0, "lat": 38.965286, "name": "1765a2df38617fe7c92f23ce48e9dc95", "fusion_lon": 0.0, "bike_id": "1765a2df38617fe7c92f23ce48e9dc95", "is_disabled": 0, "is_reserved": 0}, {"rental_uris": {"ios": "https://dc.lft.to/lastmile_qr_scan", "android": "https://dc.lft.to/lastmile_qr_scan"}, "lon": -76.9997545, "type": "electric_scooter", "fusion_lat": 0.0, "lat": 38.909283, "name": "562a558100d6a91b6609837b94350bd6", "fusion_lon": 0.0, "bike_id": "562a558100d6a91b6609837b94350bd6", "is_disabled": 0, "is_reserved": 0}, {"rental_uris": {"ios": "https://dc.lft.to/lastmile_qr_scan", "android": "https://dc.lft.to/lastmile_qr_scan"}, "lon": -77.03607866666667, "type": "electric_scooter", "fusion_lat": 0.0, "lat": 38.923243166666666, "name": "d429d6e5fc54d51a43598c695982e6b0", "fusion_lon": 0.0, "bike_id": "d429d6e5fc54d51a43598c695982e6b0", "is_disabled": 0, "is_reserved": 0}, {"rental_uris": {"ios": "https://dc.lft.to/lastmile_qr_scan", "android": "https://dc.lft.to/lastmile_qr_scan"}, "lon": -77.0385745, "type": "electric_scooter", "fusion_lat": 0.0, "lat": 38.92018683333333, "name": "e51aeaa4898b7ab0f291d9d4abd6c5ec", "fusion_lon": 0.0, "bike_id": "e51aeaa4898b7ab0f291d9d4abd6c5ec", "is_disabled": 0, "is_reserved": 0}, {"rental_uris": {"ios": "https://dc.lft.to/lastmile_qr_scan", "android": "https://dc.lft.to/lastmile_qr_scan"}, "lon": -76.97877183333334, "type": "electric_scooter", "fusion_lat": 0.0, "lat": 38.88505, "name": "8c9726fecc10abb19224dbb657ba2cad", "fusion_lon": 0.0, "bike_id": "8c9726fecc10abb19224dbb657ba2cad", "is_disabled": 0, "is_reserved": 0}, {"rental_uris": {"ios": "https://dc.lft.to/lastmile_qr_scan", "android": "https://dc.lft.to/lastmile_qr_scan"}, "lon": -76.9869355, "type": "electric_scooter", "fusion_lat": 0.0, "lat": 38.90702816666666, "name": "566d365e418435a5c9241280fae2aba7", "fusion_lon": 0.0, "bike_id": "566d365e418435a5c9241280fae2aba7", "is_disabled": 0, "is_reserved": 0}, {"rental_uris": {"ios": "https://dc.lft.to/lastmile_qr_scan", "android": "https://dc.lft.to/lastmile_qr_scan"}, "lon": -77.02611033333334, "type": "electric_scooter", "fusion_lat": 0.0, "lat": 38.9055315, "name": "7fb1876fd028054e6b780adc3ade6100", "fusion_lon": 0.0, "bike_id": "7fb1876fd028054e6b780adc3ade6100", "is_disabled": 0, "is_reserved": 0}, {"rental_uris": {"ios": "https://dc.lft.to/lastmile_qr_scan", "android": "https://dc.lft.to/lastmile_qr_scan"}, "lon": -77.01481133333333, "type": "electric_scooter", "fusion_lat": 0.0, "lat": 38.881225, "name": "b662c9083f0fead04f58f6be76aeb12c", "fusion_lon": 0.0, "bike_id": "b662c9083f0fead04f58f6be76aeb12c", "is_disabled": 0, "is_reserved": 0}, {"rental_uris": {"ios": "https://dc.lft.to/lastmile_qr_scan", "android": "https://dc.lft.to/lastmile_qr_scan"}, "lon": -77.02652083333334, "type": "electric_bike", "fusion_lat": 0.0, "lat": 38.905658, "name": "71efe3297047351a52b84bc1dd5cdf0b", "fusion_lon": 0.0, "bike_id": "71efe3297047351a52b84bc1dd5cdf0b", "is_disabled": 0, "is_reserved": 0}, {"rental_uris": {"ios": "https://dc.lft.to/lastmile_qr_scan", "android": "https://dc.lft.to/lastmile_qr_scan"}, "lon": -76.944379, "type": "electric_bike", "fusion_lat": 0.0, "lat": 38.9029515, "name": "36066290faf7bd71d8208561b0ec2ee4", "fusion_lon": 0.0, "bike_id": "36066290faf7bd71d8208561b0ec2ee4", "is_disabled": 0, "is_reserved": 0}, {"rental_uris": {"ios": "https://dc.lft.to/lastmile_qr_scan", "android": "https://dc.lft.to/lastmile_qr_scan"}, "lon": -76.97216466666667, "type": "electric_bike", "fusion_lat": 0.0, "lat": 38.844777666666666, "name": "5514d3c5b4e83398d48b6cda462f5fde", "fusion_lon": 0.0, "bike_id": "5514d3c5b4e83398d48b6cda462f5fde", "is_disabled": 0, "is_reserved": 0}, {"rental_uris": {"ios": "https://dc.lft.to/lastmile_qr_scan", "android": "https://dc.lft.to/lastmile_qr_scan"}, "lon": -77.01121633333334, "type": "electric_scooter", "fusion_lat": 0.0, "lat": 38.9126695, "name": "233d04bb01068f84dadb87b97b2797cc", "fusion_lon": 0.0, "bike_id": "233d04bb01068f84dadb87b97b2797cc", "is_disabled": 0, "is_reserved": 0}, {"rental_uris": {"ios": "https://dc.lft.to/lastmile_qr_scan", "android": "https://dc.lft.to/lastmile_qr_scan"}, "lon": -77.082635, "type": "electric_scooter", "fusion_lat": 0.0, "lat": 38.930350833333335, "name": "fcff9e3d71f24854038058c703d10857", "fusion_lon": 0.0, "bike_id": "fcff9e3d71f24854038058c703d10857", "is_disabled": 0, "is_reserved": 0}, {"rental_uris": {"ios": "https://dc.lft.to/lastmile_qr_scan", "android": "https://dc.lft.to/lastmile_qr_scan"}, "lon": -77.0719715, "type": "electric_scooter", "fusion_lat": 0.0, "lat": 38.931892500000004, "name": "491b9087aa17e0b6150f88e149310b97", "fusion_lon": 0.0, "bike_id": "491b9087aa17e0b6150f88e149310b97", "is_disabled": 0, "is_reserved": 0}, {"rental_uris": {"ios": "https://dc.lft.to/lastmile_qr_scan", "android": "https://dc.lft.to/lastmile_qr_scan"}, "lon": -77.05058133333333, "type": "electric_scooter", "fusion_lat": 0.0, "lat": 38.90084933333333, "name": "5bf48d750c4e1d186c8a53fba369e71a", "fusion_lon": 0.0, "bike_id": "5bf48d750c4e1d186c8a53fba369e71a", "is_disabled": 0, "is_reserved": 0}, {"rental_uris": {"ios": "https://dc.lft.to/lastmile_qr_scan", "android": "https://dc.lft.to/lastmile_qr_scan"}, "lon": -77.0177215, "type": "electric_scooter", "fusion_lat": 0.0, "lat": 38.900285833333335, "name": "f9bc79092d44ddaca88820b595b1b80f", "fusion_lon": 0.0, "bike_id": "f9bc79092d44ddaca88820b595b1b80f", "is_disabled": 0, "is_reserved": 0}, {"rental_uris": {"ios": "https://dc.lft.to/lastmile_qr_scan", "android": "https://dc.lft.to/lastmile_qr_scan"}, "lon": -77.18287633333334, "type": "electric_bike", "fusion_lat": 0.0, "lat": 38.8834265, "name": "c8f3996ef46ea9f9e8cfd0deff97ec58", "fusion_lon": 0.0, "bike_id": "c8f3996ef46ea9f9e8cfd0deff97ec58", "is_disabled": 0, "is_reserved": 0}, {"rental_uris": {"ios": "https://dc.lft.to/lastmile_qr_scan", "android": "https://dc.lft.to/lastmile_qr_scan"}, "lon": -77.02406216666667, "type": "electric_scooter", "fusion_lat": 0.0, "lat": 38.915485333333336, "name": "68b2213277fff25880ca05f9362362ba", "fusion_lon": 0.0, "bike_id": "68b2213277fff25880ca05f9362362ba", "is_disabled": 0, "is_reserved": 0}, {"rental_uris": {"ios": "https://dc.lft.to/lastmile_qr_scan", "android": "https://dc.lft.to/lastmile_qr_scan"}, "lon": -77.02469816666667, "type": "electric_scooter", "fusion_lat": 0.0, "lat": 38.930991166666665, "name": "0f995c00ff93fe022d97c9fe3ac63d57", "fusion_lon": 0.0, "bike_id": "0f995c00ff93fe022d97c9fe3ac63d57", "is_disabled": 0, "is_reserved": 0}, {"rental_uris": {"ios": "https://dc.lft.to/lastmile_qr_scan", "android": "https://dc.lft.to/lastmile_qr_scan"}, "lon": -76.97823716666667, "type": "electric_scooter", "fusion_lat": 0.0, "lat": 38.89517516666667, "name": "69457e914758e9c76d6396bceb74d08c", "fusion_lon": 0.0, "bike_id": "69457e914758e9c76d6396bceb74d08c", "is_disabled": 0, "is_reserved": 0}, {"rental_uris": {"ios": "https://dc.lft.to/lastmile_qr_scan", "android": "https://dc.lft.to/lastmile_qr_scan"}, "lon": -77.03322366666667, "type": "electric_scooter", "fusion_lat": 0.0, "lat": 38.901293833333334, "name": "76b4843243e5b97643855fb54ef08672", "fusion_lon": 0.0, "bike_id": "76b4843243e5b97643855fb54ef08672", "is_disabled": 0, "is_reserved": 0}, {"rental_uris": {"ios": "https://dc.lft.to/lastmile_qr_scan", "android": "https://dc.lft.to/lastmile_qr_scan"}, "lon": -77.03466933333333, "type": "electric_scooter", "fusion_lat": 0.0, "lat": 38.907627166666664, "name": "50263dd1a8315b5f85851c76dbdba239", "fusion_lon": 0.0, "bike_id": "50263dd1a8315b5f85851c76dbdba239", "is_disabled": 0, "is_reserved": 0}, {"rental_uris": {"ios": "https://dc.lft.to/lastmile_qr_scan", "android": "https://dc.lft.to/lastmile_qr_scan"}, "lon": -77.025057, "type": "electric_scooter", "fusion_lat": 0.0, "lat": 38.90728416666666, "name": "1adab193828ea625a932d502779c65f0", "fusion_lon": 0.0, "bike_id": "1adab193828ea625a932d502779c65f0", "is_disabled": 0, "is_reserved": 0}, {"rental_uris": {"ios": "https://dc.lft.to/lastmile_qr_scan", "android": "https://dc.lft.to/lastmile_qr_scan"}, "lon": -76.949961, "type": "electric_scooter", "fusion_lat": 0.0, "lat": 38.893720333333334, "name": "4af2ce571e4d229ceb722f051e74d923", "fusion_lon": 0.0, "bike_id": "4af2ce571e4d229ceb722f051e74d923", "is_disabled": 0, "is_reserved": 0}, {"rental_uris": {"ios": "https://dc.lft.to/lastmile_qr_scan", "android": "https://dc.lft.to/lastmile_qr_scan"}, "lon": -77.03852766666667, "type": "electric_scooter", "fusion_lat": 0.0, "lat": 38.90299066666667, "name": "88eada365dd68749911eda8dd51cb59d", "fusion_lon": 0.0, "bike_id": "88eada365dd68749911eda8dd51cb59d", "is_disabled": 0, "is_reserved": 0}, {"rental_uris": {"ios": "https://dc.lft.to/lastmile_qr_scan", "android": "https://dc.lft.to/lastmile_qr_scan"}, "lon": -77.0380615, "type": "electric_bike", "fusion_lat": 0.0, "lat": 38.918110166666665, "name": "25412138d532be185a21639b12de5f62", "fusion_lon": 0.0, "bike_id": "25412138d532be185a21639b12de5f62", "is_disabled": 0, "is_reserved": 0}, {"rental_uris": {"ios": "https://dc.lft.to/lastmile_qr_scan", "android": "https://dc.lft.to/lastmile_qr_scan"}, "lon": -77.03648133333333, "type": "electric_scooter", "fusion_lat": 0.0, "lat": 38.92119616666667, "name": "27dd2d3c092f80c624b9b953ef25b154", "fusion_lon": 0.0, "bike_id": "27dd2d3c092f80c624b9b953ef25b154", "is_disabled": 0, "is_reserved": 0}, {"rental_uris": {"ios": "https://dc.lft.to/lastmile_qr_scan", "android": "https://dc.lft.to/lastmile_qr_scan"}, "lon": -77.07094216666667, "type": "electric_scooter", "fusion_lat": 0.0, "lat": 38.93362666666667, "name": "f0d1a057a20270785dcdc25442436cf4", "fusion_lon": 0.0, "bike_id": "f0d1a057a20270785dcdc25442436cf4", "is_disabled": 0, "is_reserved": 0}, {"rental_uris": {"ios": "https://dc.lft.to/lastmile_qr_scan", "android": "https://dc.lft.to/lastmile_qr_scan"}, "lon": -76.98205083333333, "type": "electric_scooter", "fusion_lat": 0.0, "lat": 38.890849833333334, "name": "40647c364d759dd3ffdc101b32927b92", "fusion_lon": 0.0, "bike_id": "40647c364d759dd3ffdc101b32927b92", "is_disabled": 0, "is_reserved": 0}, {"rental_uris": {"ios": "https://dc.lft.to/lastmile_qr_scan", "android": "https://dc.lft.to/lastmile_qr_scan"}, "lon": -76.99610833333334, "type": "electric_scooter", "fusion_lat": 0.0, "lat": 38.89743433333334, "name": "d5cab23ae9f7f5569583418848b6467e", "fusion_lon": 0.0, "bike_id": "d5cab23ae9f7f5569583418848b6467e", "is_disabled": 0, "is_reserved": 0}, {"rental_uris": {"ios": "https://dc.lft.to/lastmile_qr_scan", "android": "https://dc.lft.to/lastmile_qr_scan"}, "lon": -77.0549995, "type": "electric_scooter", "fusion_lat": 0.0, "lat": 38.9297135, "name": "4cdec66f2093f97a2862fe9355f9633d", "fusion_lon": 0.0, "bike_id": "4cdec66f2093f97a2862fe9355f9633d", "is_disabled": 0, "is_reserved": 0}, {"rental_uris": {"ios": "https://dc.lft.to/lastmile_qr_scan", "android": "https://dc.lft.to/lastmile_qr_scan"}, "lon": -76.93241333333333, "type": "electric_bike", "fusion_lat": 0.0, "lat": 38.882786833333334, "name": "ed05b39c5d96dfdcea0bb8a32f7a2fbf", "fusion_lon": 0.0, "bike_id": "ed05b39c5d96dfdcea0bb8a32f7a2fbf", "is_disabled": 0, "is_reserved": 0}, {"rental_uris": {"ios": "https://dc.lft.to/lastmile_qr_scan", "android": "https://dc.lft.to/lastmile_qr_scan"}, "lon": -77.02781883333333, "type": "electric_scooter", "fusion_lat": 0.0, "lat": 38.96130766666667, "name": "c5d255f27d649e92893597fd6f169596", "fusion_lon": 0.0, "bike_id": "c5d255f27d649e92893597fd6f169596", "is_disabled": 0, "is_reserved": 0}, {"rental_uris": {"ios": "https://dc.lft.to/lastmile_qr_scan", "android": "https://dc.lft.to/lastmile_qr_scan"}, "lon": -77.03661366666667, "type": "electric_scooter", "fusion_lat": 0.0, "lat": 38.90329216666667, "name": "4c5d7e650a012e499d22e64ede0652fb", "fusion_lon": 0.0, "bike_id": "4c5d7e650a012e499d22e64ede0652fb", "is_disabled": 0, "is_reserved": 0}, {"rental_uris": {"ios": "https://dc.lft.to/lastmile_qr_scan", "android": "https://dc.lft.to/lastmile_qr_scan"}, "lon": -77.03198633333334, "type": "electric_scooter", "fusion_lat": 0.0, "lat": 38.92064033333333, "name": "97c5bdcc0d2abf6ecb0541c415389b52", "fusion_lon": 0.0, "bike_id": "97c5bdcc0d2abf6ecb0541c415389b52", "is_disabled": 0, "is_reserved": 0}, {"rental_uris": {"ios": "https://dc.lft.to/lastmile_qr_scan", "android": "https://dc.lft.to/lastmile_qr_scan"}, "lon": -77.039551, "type": "electric_scooter", "fusion_lat": 0.0, "lat": 38.9261225, "name": "fa5a5a50fb82153bcca0e788d0422ea6", "fusion_lon": 0.0, "bike_id": "fa5a5a50fb82153bcca0e788d0422ea6", "is_disabled": 0, "is_reserved": 0}, {"rental_uris": {"ios": "https://dc.lft.to/lastmile_qr_scan", "android": "https://dc.lft.to/lastmile_qr_scan"}, "lon": -77.04187216666666, "type": "electric_scooter", "fusion_lat": 0.0, "lat": 38.92201516666667, "name": "db989fd801d847c10cca13db3966c7c3", "fusion_lon": 0.0, "bike_id": "db989fd801d847c10cca13db3966c7c3", "is_disabled": 0, "is_reserved": 0}, {"rental_uris": {"ios": "https://dc.lft.to/lastmile_qr_scan", "android": "https://dc.lft.to/lastmile_qr_scan"}, "lon": -77.05302216666666, "type": "electric_scooter", "fusion_lat": 0.0, "lat": 38.901527333333334, "name": "ed09341a18c3c0cb3b2c05811abc9953", "fusion_lon": 0.0, "bike_id": "ed09341a18c3c0cb3b2c05811abc9953", "is_disabled": 0, "is_reserved": 0}, {"rental_uris": {"ios": "https://dc.lft.to/lastmile_qr_scan", "android": "https://dc.lft.to/lastmile_qr_scan"}, "lon": -77.027449, "type": "electric_scooter", "fusion_lat": 0.0, "lat": 38.971462833333334, "name": "799a03749220b173fe8f6362b383e000", "fusion_lon": 0.0, "bike_id": "799a03749220b173fe8f6362b383e000", "is_disabled": 0, "is_reserved": 0}, {"rental_uris": {"ios": "https://dc.lft.to/lastmile_qr_scan", "android": "https://dc.lft.to/lastmile_qr_scan"}, "lon": -77.0505045, "type": "electric_scooter", "fusion_lat": 0.0, "lat": 38.923649, "name": "a037fb32461cc562628433c945e1a2b0", "fusion_lon": 0.0, "bike_id": "a037fb32461cc562628433c945e1a2b0", "is_disabled": 0, "is_reserved": 0}, {"rental_uris": {"ios": "https://dc.lft.to/lastmile_qr_scan", "android": "https://dc.lft.to/lastmile_qr_scan"}, "lon": -77.02561116666666, "type": "electric_scooter", "fusion_lat": 0.0, "lat": 38.908526, "name": "115a83213b8023bab94e6dea2b5463fc", "fusion_lon": 0.0, "bike_id": "115a83213b8023bab94e6dea2b5463fc", "is_disabled": 0, "is_reserved": 0}, {"rental_uris": {"ios": "https://dc.lft.to/lastmile_qr_scan", "android": "https://dc.lft.to/lastmile_qr_scan"}, "lon": -77.072438, "type": "electric_scooter", "fusion_lat": 0.0, "lat": 38.934009333333336, "name": "b010755c1a636d1803bb56807bfdddd7", "fusion_lon": 0.0, "bike_id": "b010755c1a636d1803bb56807bfdddd7", "is_disabled": 0, "is_reserved": 0}, {"rental_uris": {"ios": "https://dc.lft.to/lastmile_qr_scan", "android": "https://dc.lft.to/lastmile_qr_scan"}, "lon": -76.93101533333333, "type": "electric_scooter", "fusion_lat": 0.0, "lat": 38.9013985, "name": "bc44a6290dba2905a7f46b83cb863a86", "fusion_lon": 0.0, "bike_id": "bc44a6290dba2905a7f46b83cb863a86", "is_disabled": 0, "is_reserved": 0}, {"rental_uris": {"ios": "https://dc.lft.to/lastmile_qr_scan", "android": "https://dc.lft.to/lastmile_qr_scan"}, "lon": -77.05351083333333, "type": "electric_scooter", "fusion_lat": 0.0, "lat": 38.902630333333335, "name": "9c709e0bbf422a97a1c88fe59140aaa0", "fusion_lon": 0.0, "bike_id": "9c709e0bbf422a97a1c88fe59140aaa0", "is_disabled": 0, "is_reserved": 0}, {"rental_uris": {"ios": "https://dc.lft.to/lastmile_qr_scan", "android": "https://dc.lft.to/lastmile_qr_scan"}, "lon": -77.02200683333334, "type": "electric_scooter", "fusion_lat": 0.0, "lat": 38.914215666666664, "name": "1598a0502af3552890fad9e1a48bd30a", "fusion_lon": 0.0, "bike_id": "1598a0502af3552890fad9e1a48bd30a", "is_disabled": 0, "is_reserved": 0}, {"rental_uris": {"ios": "https://dc.lft.to/lastmile_qr_scan", "android": "https://dc.lft.to/lastmile_qr_scan"}, "lon": -76.98551333333333, "type": "electric_scooter", "fusion_lat": 0.0, "lat": 38.89765333333333, "name": "7d2e29e86db8360152aed9b181ab9ab8", "fusion_lon": 0.0, "bike_id": "7d2e29e86db8360152aed9b181ab9ab8", "is_disabled": 0, "is_reserved": 0}, {"rental_uris": {"ios": "https://dc.lft.to/lastmile_qr_scan", "android": "https://dc.lft.to/lastmile_qr_scan"}, "lon": -76.98003033333333, "type": "electric_bike", "fusion_lat": 0.0, "lat": 38.86278133333333, "name": "8a487b065f121f876e0a6e196dc4efce", "fusion_lon": 0.0, "bike_id": "8a487b065f121f876e0a6e196dc4efce", "is_disabled": 0, "is_reserved": 0}, {"rental_uris": {"ios": "https://dc.lft.to/lastmile_qr_scan", "android": "https://dc.lft.to/lastmile_qr_scan"}, "lon": -77.03290683333333, "type": "electric_scooter", "fusion_lat": 0.0, "lat": 38.928591833333336, "name": "fdc3ba2a08ec95b1db8ec504258fd277", "fusion_lon": 0.0, "bike_id": "fdc3ba2a08ec95b1db8ec504258fd277", "is_disabled": 0, "is_reserved": 0}, {"rental_uris": {"ios": "https://dc.lft.to/lastmile_qr_scan", "android": "https://dc.lft.to/lastmile_qr_scan"}, "lon": -77.031882, "type": "electric_scooter", "fusion_lat": 0.0, "lat": 38.91486333333334, "name": "6308aa2a909d0c8fafb47d44a4dfc4ea", "fusion_lon": 0.0, "bike_id": "6308aa2a909d0c8fafb47d44a4dfc4ea", "is_disabled": 0, "is_reserved": 0}, {"rental_uris": {"ios": "https://dc.lft.to/lastmile_qr_scan", "android": "https://dc.lft.to/lastmile_qr_scan"}, "lon": -77.05739383333334, "type": "electric_scooter", "fusion_lat": 0.0, "lat": 38.9339995, "name": "e92bcc4347803acb69ff375b53b471d4", "fusion_lon": 0.0, "bike_id": "e92bcc4347803acb69ff375b53b471d4", "is_disabled": 0, "is_reserved": 0}, {"rental_uris": {"ios": "https://dc.lft.to/lastmile_qr_scan", "android": "https://dc.lft.to/lastmile_qr_scan"}, "lon": -77.04804516666667, "type": "electric_scooter", "fusion_lat": 0.0, "lat": 38.916401666666665, "name": "6529f919921d2989c52f71e9218b5f17", "fusion_lon": 0.0, "bike_id": "6529f919921d2989c52f71e9218b5f17", "is_disabled": 0, "is_reserved": 0}, {"rental_uris": {"ios": "https://dc.lft.to/lastmile_qr_scan", "android": "https://dc.lft.to/lastmile_qr_scan"}, "lon": -77.03207933333333, "type": "electric_scooter", "fusion_lat": 0.0, "lat": 38.885791, "name": "ade5e72328121d9b00b256d70f1885ff", "fusion_lon": 0.0, "bike_id": "ade5e72328121d9b00b256d70f1885ff", "is_disabled": 0, "is_reserved": 0}, {"rental_uris": {"ios": "https://dc.lft.to/lastmile_qr_scan", "android": "https://dc.lft.to/lastmile_qr_scan"}, "lon": -77.01770133333333, "type": "electric_scooter", "fusion_lat": 0.0, "lat": 38.9039985, "name": "44e89d39702cb846751e7a3d525edc1e", "fusion_lon": 0.0, "bike_id": "44e89d39702cb846751e7a3d525edc1e", "is_disabled": 0, "is_reserved": 0}, {"rental_uris": {"ios": "https://dc.lft.to/lastmile_qr_scan", "android": "https://dc.lft.to/lastmile_qr_scan"}, "lon": -77.01110766666666, "type": "electric_scooter", "fusion_lat": 0.0, "lat": 38.91166583333333, "name": "5c6149c7f9e4b83b33ccd0a28109db81", "fusion_lon": 0.0, "bike_id": "5c6149c7f9e4b83b33ccd0a28109db81", "is_disabled": 0, "is_reserved": 0}, {"rental_uris": {"ios": "https://dc.lft.to/lastmile_qr_scan", "android": "https://dc.lft.to/lastmile_qr_scan"}, "lon": -76.99255216666667, "type": "electric_scooter", "fusion_lat": 0.0, "lat": 38.9196885, "name": "2681f091283b4809e6e7ff6bf4ea14b6", "fusion_lon": 0.0, "bike_id": "2681f091283b4809e6e7ff6bf4ea14b6", "is_disabled": 0, "is_reserved": 0}, {"rental_uris": {"ios": "https://dc.lft.to/lastmile_qr_scan", "android": "https://dc.lft.to/lastmile_qr_scan"}, "lon": -77.11521566666667, "type": "electric_bike", "fusion_lat": 0.0, "lat": 38.85490683333333, "name": "3258ed408c49a28780a26862e8faed7f", "fusion_lon": 0.0, "bike_id": "3258ed408c49a28780a26862e8faed7f", "is_disabled": 0, "is_reserved": 0}, {"rental_uris": {"ios": "https://dc.lft.to/lastmile_qr_scan", "android": "https://dc.lft.to/lastmile_qr_scan"}, "lon": -77.007534, "type": "electric_scooter", "fusion_lat": 0.0, "lat": 38.87867766666667, "name": "d3d65b7b53dd01115aa1def86cd65f69", "fusion_lon": 0.0, "bike_id": "d3d65b7b53dd01115aa1def86cd65f69", "is_disabled": 0, "is_reserved": 0}, {"rental_uris": {"ios": "https://dc.lft.to/lastmile_qr_scan", "android": "https://dc.lft.to/lastmile_qr_scan"}, "lon": -77.02386383333334, "type": "electric_scooter", "fusion_lat": 0.0, "lat": 38.937759166666666, "name": "ed3ded5292365ce55f07acf4945c2253", "fusion_lon": 0.0, "bike_id": "ed3ded5292365ce55f07acf4945c2253", "is_disabled": 0, "is_reserved": 0}, {"rental_uris": {"ios": "https://dc.lft.to/lastmile_qr_scan", "android": "https://dc.lft.to/lastmile_qr_scan"}, "lon": -77.012076, "type": "electric_scooter", "fusion_lat": 0.0, "lat": 38.92123083333333, "name": "1fea5c0956ac9ca3a33a3a6a20a1f8d7", "fusion_lon": 0.0, "bike_id": "1fea5c0956ac9ca3a33a3a6a20a1f8d7", "is_disabled": 0, "is_reserved": 0}, {"rental_uris": {"ios": "https://dc.lft.to/lastmile_qr_scan", "android": "https://dc.lft.to/lastmile_qr_scan"}, "lon": -77.02799983333334, "type": "electric_scooter", "fusion_lat": 0.0, "lat": 38.93089166666667, "name": "8b082b50ea98982a436233716179e4e6", "fusion_lon": 0.0, "bike_id": "8b082b50ea98982a436233716179e4e6", "is_disabled": 0, "is_reserved": 0}, {"rental_uris": {"ios": "https://dc.lft.to/lastmile_qr_scan", "android": "https://dc.lft.to/lastmile_qr_scan"}, "lon": -77.0306165, "type": "electric_scooter", "fusion_lat": 0.0, "lat": 38.894626833333334, "name": "46254feff449a0aa92eca4170addf2d9", "fusion_lon": 0.0, "bike_id": "46254feff449a0aa92eca4170addf2d9", "is_disabled": 0, "is_reserved": 0}, {"rental_uris": {"ios": "https://dc.lft.to/lastmile_qr_scan", "android": "https://dc.lft.to/lastmile_qr_scan"}, "lon": -77.02376416666667, "type": "electric_scooter", "fusion_lat": 0.0, "lat": 38.90301983333333, "name": "7037167a121f069d43e2fbac609f966d", "fusion_lon": 0.0, "bike_id": "7037167a121f069d43e2fbac609f966d", "is_disabled": 0, "is_reserved": 0}, {"rental_uris": {"ios": "https://dc.lft.to/lastmile_qr_scan", "android": "https://dc.lft.to/lastmile_qr_scan"}, "lon": -77.011037, "type": "electric_scooter", "fusion_lat": 0.0, "lat": 38.90779416666667, "name": "1438283bada56a18e8f7b35f1b407462", "fusion_lon": 0.0, "bike_id": "1438283bada56a18e8f7b35f1b407462", "is_disabled": 0, "is_reserved": 0}, {"rental_uris": {"ios": "https://dc.lft.to/lastmile_qr_scan", "android": "https://dc.lft.to/lastmile_qr_scan"}, "lon": -76.989988, "type": "electric_scooter", "fusion_lat": 0.0, "lat": 38.865034, "name": "f8580d79b284182890dae33289b2d909", "fusion_lon": 0.0, "bike_id": "f8580d79b284182890dae33289b2d909", "is_disabled": 0, "is_reserved": 0}, {"rental_uris": {"ios": "https://dc.lft.to/lastmile_qr_scan", "android": "https://dc.lft.to/lastmile_qr_scan"}, "lon": -77.00629066666667, "type": "electric_scooter", "fusion_lat": 0.0, "lat": 38.82922466666667, "name": "fba26fcbf430dda0c7a2d7073bdb2d19", "fusion_lon": 0.0, "bike_id": "fba26fcbf430dda0c7a2d7073bdb2d19", "is_disabled": 0, "is_reserved": 0}, {"rental_uris": {"ios": "https://dc.lft.to/lastmile_qr_scan", "android": "https://dc.lft.to/lastmile_qr_scan"}, "lon": -77.01926916666666, "type": "electric_scooter", "fusion_lat": 0.0, "lat": 38.9568785, "name": "8bf00dc737b563e70a58169692ec22cd", "fusion_lon": 0.0, "bike_id": "8bf00dc737b563e70a58169692ec22cd", "is_disabled": 0, "is_reserved": 0}, {"rental_uris": {"ios": "https://dc.lft.to/lastmile_qr_scan", "android": "https://dc.lft.to/lastmile_qr_scan"}, "lon": -77.03581766666667, "type": "electric_scooter", "fusion_lat": 0.0, "lat": 38.9069385, "name": "fac5003a9e093a045149c3e9dbff4c50", "fusion_lon": 0.0, "bike_id": "fac5003a9e093a045149c3e9dbff4c50", "is_disabled": 0, "is_reserved": 0}, {"rental_uris": {"ios": "https://dc.lft.to/lastmile_qr_scan", "android": "https://dc.lft.to/lastmile_qr_scan"}, "lon": -77.0549475, "type": "electric_scooter", "fusion_lat": 0.0, "lat": 38.9296765, "name": "cc941fa7f0d57ebe89770346739e98ea", "fusion_lon": 0.0, "bike_id": "cc941fa7f0d57ebe89770346739e98ea", "is_disabled": 0, "is_reserved": 0}, {"rental_uris": {"ios": "https://dc.lft.to/lastmile_qr_scan", "android": "https://dc.lft.to/lastmile_qr_scan"}, "lon": -77.12500966666667, "type": "electric_bike", "fusion_lat": 0.0, "lat": 39.024217, "name": "9189170a38f9d9fb2e6504cf6a6e9722", "fusion_lon": 0.0, "bike_id": "9189170a38f9d9fb2e6504cf6a6e9722", "is_disabled": 0, "is_reserved": 0}, {"rental_uris": {"ios": "https://dc.lft.to/lastmile_qr_scan", "android": "https://dc.lft.to/lastmile_qr_scan"}, "lon": -77.04339983333334, "type": "electric_scooter", "fusion_lat": 0.0, "lat": 38.89667216666667, "name": "754f3569a6693ace0da6a0459cf6f59e", "fusion_lon": 0.0, "bike_id": "754f3569a6693ace0da6a0459cf6f59e", "is_disabled": 0, "is_reserved": 0}, {"rental_uris": {"ios": "https://dc.lft.to/lastmile_qr_scan", "android": "https://dc.lft.to/lastmile_qr_scan"}, "lon": -76.95754766666667, "type": "electric_scooter", "fusion_lat": 0.0, "lat": 38.88425683333333, "name": "4eb8a01013677504daa08c9780b66abd", "fusion_lon": 0.0, "bike_id": "4eb8a01013677504daa08c9780b66abd", "is_disabled": 0, "is_reserved": 0}, {"rental_uris": {"ios": "https://dc.lft.to/lastmile_qr_scan", "android": "https://dc.lft.to/lastmile_qr_scan"}, "lon": -77.03283266666666, "type": "electric_scooter", "fusion_lat": 0.0, "lat": 38.934884833333335, "name": "4d0e0831c9697a63a3be2967dd693eaf", "fusion_lon": 0.0, "bike_id": "4d0e0831c9697a63a3be2967dd693eaf", "is_disabled": 0, "is_reserved": 0}, {"rental_uris": {"ios": "https://dc.lft.to/lastmile_qr_scan", "android": "https://dc.lft.to/lastmile_qr_scan"}, "lon": -77.04346983333333, "type": "electric_scooter", "fusion_lat": 0.0, "lat": 38.912158833333336, "name": "0487718b6f730c639cf445bc62547406", "fusion_lon": 0.0, "bike_id": "0487718b6f730c639cf445bc62547406", "is_disabled": 0, "is_reserved": 0}, {"rental_uris": {"ios": "https://dc.lft.to/lastmile_qr_scan", "android": "https://dc.lft.to/lastmile_qr_scan"}, "lon": -77.03408283333333, "type": "electric_scooter", "fusion_lat": 0.0, "lat": 38.92265883333334, "name": "4f5e697dc5649ce3cf08a4d63f68c0dc", "fusion_lon": 0.0, "bike_id": "4f5e697dc5649ce3cf08a4d63f68c0dc", "is_disabled": 0, "is_reserved": 0}, {"rental_uris": {"ios": "https://dc.lft.to/lastmile_qr_scan", "android": "https://dc.lft.to/lastmile_qr_scan"}, "lon": -76.95416566666667, "type": "electric_scooter", "fusion_lat": 0.0, "lat": 38.89143683333333, "name": "b1b2a1e3e520dbace8cfaae4317c5686", "fusion_lon": 0.0, "bike_id": "b1b2a1e3e520dbace8cfaae4317c5686", "is_disabled": 0, "is_reserved": 0}, {"rental_uris": {"ios": "https://dc.lft.to/lastmile_qr_scan", "android": "https://dc.lft.to/lastmile_qr_scan"}, "lon": -77.03469733333333, "type": "electric_scooter", "fusion_lat": 0.0, "lat": 38.91709066666667, "name": "dbdd9d112960d4965a238cca6e987a25", "fusion_lon": 0.0, "bike_id": "dbdd9d112960d4965a238cca6e987a25", "is_disabled": 0, "is_reserved": 0}, {"rental_uris": {"ios": "https://dc.lft.to/lastmile_qr_scan", "android": "https://dc.lft.to/lastmile_qr_scan"}, "lon": -77.0241745, "type": "electric_scooter", "fusion_lat": 0.0, "lat": 38.9265515, "name": "1bbb632bd81a7bad3d7eaeab0ecb9f9e", "fusion_lon": 0.0, "bike_id": "1bbb632bd81a7bad3d7eaeab0ecb9f9e", "is_disabled": 0, "is_reserved": 0}, {"rental_uris": {"ios": "https://dc.lft.to/lastmile_qr_scan", "android": "https://dc.lft.to/lastmile_qr_scan"}, "lon": -77.0355535, "type": "electric_scooter", "fusion_lat": 0.0, "lat": 38.918038, "name": "bc6b0677301c8768fc67097507b34481", "fusion_lon": 0.0, "bike_id": "bc6b0677301c8768fc67097507b34481", "is_disabled": 0, "is_reserved": 0}, {"rental_uris": {"ios": "https://dc.lft.to/lastmile_qr_scan", "android": "https://dc.lft.to/lastmile_qr_scan"}, "lon": -77.02427183333333, "type": "electric_scooter", "fusion_lat": 0.0, "lat": 38.907188166666664, "name": "2922e15989e229eae9c029b0f14cbdd3", "fusion_lon": 0.0, "bike_id": "2922e15989e229eae9c029b0f14cbdd3", "is_disabled": 0, "is_reserved": 0}, {"rental_uris": {"ios": "https://dc.lft.to/lastmile_qr_scan", "android": "https://dc.lft.to/lastmile_qr_scan"}, "lon": -77.035793, "type": "electric_scooter", "fusion_lat": 0.0, "lat": 38.90756866666667, "name": "a00882d427f855a9103db9b1eb5991a5", "fusion_lon": 0.0, "bike_id": "a00882d427f855a9103db9b1eb5991a5", "is_disabled": 0, "is_reserved": 0}, {"rental_uris": {"ios": "https://dc.lft.to/lastmile_qr_scan", "android": "https://dc.lft.to/lastmile_qr_scan"}, "lon": -76.977035, "type": "electric_scooter", "fusion_lat": 0.0, "lat": 38.897107166666665, "name": "f6cc7ccc5a3a7523a001396dc49bf79e", "fusion_lon": 0.0, "bike_id": "f6cc7ccc5a3a7523a001396dc49bf79e", "is_disabled": 0, "is_reserved": 0}, {"rental_uris": {"ios": "https://dc.lft.to/lastmile_qr_scan", "android": "https://dc.lft.to/lastmile_qr_scan"}, "lon": -77.03269233333333, "type": "electric_scooter", "fusion_lat": 0.0, "lat": 38.937318833333336, "name": "d4a0e2bbe47bc60fb8bcab0faad47882", "fusion_lon": 0.0, "bike_id": "d4a0e2bbe47bc60fb8bcab0faad47882", "is_disabled": 0, "is_reserved": 0}, {"rental_uris": {"ios": "https://dc.lft.to/lastmile_qr_scan", "android": "https://dc.lft.to/lastmile_qr_scan"}, "lon": -77.04895033333334, "type": "electric_scooter", "fusion_lat": 0.0, "lat": 38.896621, "name": "7659d9bf7dca35ab453426e9644c29a2", "fusion_lon": 0.0, "bike_id": "7659d9bf7dca35ab453426e9644c29a2", "is_disabled": 0, "is_reserved": 0}, {"rental_uris": {"ios": "https://dc.lft.to/lastmile_qr_scan", "android": "https://dc.lft.to/lastmile_qr_scan"}, "lon": -77.03491166666667, "type": "electric_scooter", "fusion_lat": 0.0, "lat": 38.90026566666667, "name": "6fbfa9316145ceb7dd9998ca77bcd5c9", "fusion_lon": 0.0, "bike_id": "6fbfa9316145ceb7dd9998ca77bcd5c9", "is_disabled": 0, "is_reserved": 0}, {"rental_uris": {"ios": "https://dc.lft.to/lastmile_qr_scan", "android": "https://dc.lft.to/lastmile_qr_scan"}, "lon": -77.0222625, "type": "electric_scooter", "fusion_lat": 0.0, "lat": 38.91268683333333, "name": "79c811f680c6ea54b514aa8e74c323d9", "fusion_lon": 0.0, "bike_id": "79c811f680c6ea54b514aa8e74c323d9", "is_disabled": 0, "is_reserved": 0}, {"rental_uris": {"ios": "https://dc.lft.to/lastmile_qr_scan", "android": "https://dc.lft.to/lastmile_qr_scan"}, "lon": -77.0216135, "type": "electric_scooter", "fusion_lat": 0.0, "lat": 38.9261325, "name": "6dad2b842f49c64ad0074376b36b5bac", "fusion_lon": 0.0, "bike_id": "6dad2b842f49c64ad0074376b36b5bac", "is_disabled": 0, "is_reserved": 0}, {"rental_uris": {"ios": "https://dc.lft.to/lastmile_qr_scan", "android": "https://dc.lft.to/lastmile_qr_scan"}, "lon": -77.02230333333333, "type": "electric_scooter", "fusion_lat": 0.0, "lat": 38.914251666666665, "name": "5a05c6ef4fa7c0f3d4c20f9a145f33f0", "fusion_lon": 0.0, "bike_id": "5a05c6ef4fa7c0f3d4c20f9a145f33f0", "is_disabled": 0, "is_reserved": 0}, {"rental_uris": {"ios": "https://dc.lft.to/lastmile_qr_scan", "android": "https://dc.lft.to/lastmile_qr_scan"}, "lon": -77.02418416666667, "type": "electric_scooter", "fusion_lat": 0.0, "lat": 38.918237833333336, "name": "e6a075aa9e3511364b3b230f58b3478d", "fusion_lon": 0.0, "bike_id": "e6a075aa9e3511364b3b230f58b3478d", "is_disabled": 0, "is_reserved": 0}, {"rental_uris": {"ios": "https://dc.lft.to/lastmile_qr_scan", "android": "https://dc.lft.to/lastmile_qr_scan"}, "lon": -77.032265, "type": "electric_scooter", "fusion_lat": 0.0, "lat": 38.9170645, "name": "783565ed2399996c06bdb34c10214aa0", "fusion_lon": 0.0, "bike_id": "783565ed2399996c06bdb34c10214aa0", "is_disabled": 0, "is_reserved": 0}, {"rental_uris": {"ios": "https://dc.lft.to/lastmile_qr_scan", "android": "https://dc.lft.to/lastmile_qr_scan"}, "lon": -77.00214166666666, "type": "electric_scooter", "fusion_lat": 0.0, "lat": 38.911052833333336, "name": "f0699bc3b28fe989bcc231bee01cb58d", "fusion_lon": 0.0, "bike_id": "f0699bc3b28fe989bcc231bee01cb58d", "is_disabled": 0, "is_reserved": 0}, {"rental_uris": {"ios": "https://dc.lft.to/lastmile_qr_scan", "android": "https://dc.lft.to/lastmile_qr_scan"}, "lon": -77.02220566666666, "type": "electric_scooter", "fusion_lat": 0.0, "lat": 38.93869433333333, "name": "613956ec6475e06b1889d24f29f10354", "fusion_lon": 0.0, "bike_id": "613956ec6475e06b1889d24f29f10354", "is_disabled": 0, "is_reserved": 0}, {"rental_uris": {"ios": "https://dc.lft.to/lastmile_qr_scan", "android": "https://dc.lft.to/lastmile_qr_scan"}, "lon": -77.03788866666666, "type": "electric_scooter", "fusion_lat": 0.0, "lat": 38.93021316666667, "name": "6b20eb0a44c5dceb86c44348c4794137", "fusion_lon": 0.0, "bike_id": "6b20eb0a44c5dceb86c44348c4794137", "is_disabled": 0, "is_reserved": 0}, {"rental_uris": {"ios": "https://dc.lft.to/lastmile_qr_scan", "android": "https://dc.lft.to/lastmile_qr_scan"}, "lon": -77.04263283333333, "type": "electric_scooter", "fusion_lat": 0.0, "lat": 38.91598183333333, "name": "2173b152009216a37e523df243db90fa", "fusion_lon": 0.0, "bike_id": "2173b152009216a37e523df243db90fa", "is_disabled": 0, "is_reserved": 0}, {"rental_uris": {"ios": "https://dc.lft.to/lastmile_qr_scan", "android": "https://dc.lft.to/lastmile_qr_scan"}, "lon": -77.03862533333333, "type": "electric_scooter", "fusion_lat": 0.0, "lat": 38.908552666666665, "name": "e1931cacce90de2c3673868fc7d5897c", "fusion_lon": 0.0, "bike_id": "e1931cacce90de2c3673868fc7d5897c", "is_disabled": 0, "is_reserved": 0}, {"rental_uris": {"ios": "https://dc.lft.to/lastmile_qr_scan", "android": "https://dc.lft.to/lastmile_qr_scan"}, "lon": -77.05878533333333, "type": "electric_scooter", "fusion_lat": 0.0, "lat": 38.936352666666664, "name": "1106c154f2e2566afa8395f1a64c6de9", "fusion_lon": 0.0, "bike_id": "1106c154f2e2566afa8395f1a64c6de9", "is_disabled": 0, "is_reserved": 0}, {"rental_uris": {"ios": "https://dc.lft.to/lastmile_qr_scan", "android": "https://dc.lft.to/lastmile_qr_scan"}, "lon": -77.04815933333333, "type": "electric_scooter", "fusion_lat": 0.0, "lat": 38.89621133333333, "name": "79a39d345e5d9dd1f3f9a717f58c3519", "fusion_lon": 0.0, "bike_id": "79a39d345e5d9dd1f3f9a717f58c3519", "is_disabled": 0, "is_reserved": 0}, {"rental_uris": {"ios": "https://dc.lft.to/lastmile_qr_scan", "android": "https://dc.lft.to/lastmile_qr_scan"}, "lon": -76.98705716666667, "type": "electric_scooter", "fusion_lat": 0.0, "lat": 38.866995833333334, "name": "2929b85afde6f05eefadd3fc9b0b8d84", "fusion_lon": 0.0, "bike_id": "2929b85afde6f05eefadd3fc9b0b8d84", "is_disabled": 0, "is_reserved": 0}, {"rental_uris": {"ios": "https://dc.lft.to/lastmile_qr_scan", "android": "https://dc.lft.to/lastmile_qr_scan"}, "lon": -77.03793983333334, "type": "electric_scooter", "fusion_lat": 0.0, "lat": 38.905622666666666, "name": "14ef6f34a844abe08ebe832a5d6b0e8e", "fusion_lon": 0.0, "bike_id": "14ef6f34a844abe08ebe832a5d6b0e8e", "is_disabled": 0, "is_reserved": 0}, {"rental_uris": {"ios": "https://dc.lft.to/lastmile_qr_scan", "android": "https://dc.lft.to/lastmile_qr_scan"}, "lon": -76.98741916666667, "type": "electric_bike", "fusion_lat": 0.0, "lat": 38.857928333333334, "name": "9d9c617b69cbfb5488dcac1e8cdaea4b", "fusion_lon": 0.0, "bike_id": "9d9c617b69cbfb5488dcac1e8cdaea4b", "is_disabled": 0, "is_reserved": 0}, {"rental_uris": {"ios": "https://dc.lft.to/lastmile_qr_scan", "android": "https://dc.lft.to/lastmile_qr_scan"}, "lon": -77.027198, "type": "electric_scooter", "fusion_lat": 0.0, "lat": 38.91815483333333, "name": "8eeeac9470cfa7902a0f25ce8e61d04d", "fusion_lon": 0.0, "bike_id": "8eeeac9470cfa7902a0f25ce8e61d04d", "is_disabled": 0, "is_reserved": 0}, {"rental_uris": {"ios": "https://dc.lft.to/lastmile_qr_scan", "android": "https://dc.lft.to/lastmile_qr_scan"}, "lon": -77.031441, "type": "electric_scooter", "fusion_lat": 0.0, "lat": 38.91562483333333, "name": "249e320708f77be2db0222d9bc2bef94", "fusion_lon": 0.0, "bike_id": "249e320708f77be2db0222d9bc2bef94", "is_disabled": 0, "is_reserved": 0}, {"rental_uris": {"ios": "https://dc.lft.to/lastmile_qr_scan", "android": "https://dc.lft.to/lastmile_qr_scan"}, "lon": -77.10090833333334, "type": "electric_bike", "fusion_lat": 0.0, "lat": 38.959569, "name": "0f7b113f0d7b5e3d70bb9dec35cdb64b", "fusion_lon": 0.0, "bike_id": "0f7b113f0d7b5e3d70bb9dec35cdb64b", "is_disabled": 0, "is_reserved": 0}, {"rental_uris": {"ios": "https://dc.lft.to/lastmile_qr_scan", "android": "https://dc.lft.to/lastmile_qr_scan"}, "lon": -76.98564516666667, "type": "electric_scooter", "fusion_lat": 0.0, "lat": 38.892048, "name": "118f23f2badd19c6885d018e47b47630", "fusion_lon": 0.0, "bike_id": "118f23f2badd19c6885d018e47b47630", "is_disabled": 0, "is_reserved": 0},