{"data": {"bikes": [{"lat": 38.92017116666667, "fusion_lon": 0.0, "fusion_lat": 0.0, "is_disabled": 0, "type": "electric_scooter", "lon": -76.9788685, "rental_uris": {"android": "https://dc.lft.to/lastmile_qr_scan", "ios": "https://dc.lft.to/lastmile_qr_scan"}, "is_reserved": 0, "bike_id": "a0769abab1166530f69c7faf5cbe9468", "name": "a0769abab1166530f69c7faf5cbe9468"}, {"lat": 38.9337175, "fusion_lon": 0.0, "fusion_lat": 0.0, "is_disabled": 0, "type": "electric_scooter", "lon": -77.05724583333334, "rental_uris": {"android": "https://dc.lft.to/lastmile_qr_scan", "ios": "https://dc.lft.to/lastmile_qr_scan"}, "is_reserved": 0, "bike_id": "0d07af71f1f9b1a7067f3b56d84f4e79", "name": "0d07af71f1f9b1a7067f3b56d84f4e79"}, {"lat": 38.911245666666666, "fusion_lon": 0.0, "fusion_lat": 0.0, "is_disabled": 0, "type": "electric_scooter", "lon": -77.044029, "rental_uris": {"android": "https://dc.lft.to/lastmile_qr_scan", "ios": "https://dc.lft.to/lastmile_qr_scan"}, "is_reserved": 0, "bike_id": "bda6e4dfe4c459e6cd853c1f00021f69", "name": "bda6e4dfe4c459e6cd853c1f00021f69"}, {"lat": 38.90031583333333, "fusion_lon": 0.0, "fusion_lat": 0.0, "is_disabled": 0, "type": "electric_scooter", "lon": -76.9944825, "rental_uris": {"android": "https://dc.lft.to/lastmile_qr_scan", "ios": "https://dc.lft.to/lastmile_qr_scan"}, "is_reserved": 0, "bike_id": "ea37442b135139e58b65826ef04176f6", "name": "ea37442b135139e58b65826ef04176f6"}, {"lat": 38.922483666666665, "fusion_lon": 0.0, "fusion_lat": 0.0, "is_disabled": 0, "type": "electric_scooter", "lon": -77.03876416666667, "rental_uris": {"android": "https://dc.lft.to/lastmile_qr_scan", "ios": "https://dc.lft.to/lastmile_qr_scan"}, "is_reserved": 0, "bike_id": "d5429d26152d9327f41fe32312740f3b", "name": "d5429d26152d9327f41fe32312740f3b"}, {"lat": 38.867166833333336, "fusion_lon": 0.0, "fusion_lat": 0.0, "is_disabled": 0, "type": "electric_scooter", "lon": -76.98731066666667, "rental_uris": {"android": "https://dc.lft.to/lastmile_qr_scan", "ios": "https://dc.lft.to/lastmile_qr_scan"}, "is_reserved": 0, "bike_id": "505c74e1523684b6a078508c77ba2964", "name": "505c74e1523684b6a078508c77ba2964"}, {"lat": 38.874494, "fusion_lon": 0.0, "fusion_lat": 0.0, "is_disabled": 0, "type": "electric_scooter", "lon": -77.009274, "rental_uris": {"android": "https://dc.lft.to/lastmile_qr_scan", "ios": "https://dc.lft.to/lastmile_qr_scan"}, "is_reserved": 0, "bike_id": "46d62a62ad20c77cabe851765cb40723", "name": "46d62a62ad20c77cabe851765cb40723"}, {"lat": 38.9308235, "fusion_lon": 0.0, "fusion_lat": 0.0, "is_disabled": 0, "type": "electric_scooter", "lon": -77.0278955, "rental_uris": {"android": "https://dc.lft.to/lastmile_qr_scan", "ios": "https://dc.lft.to/lastmile_qr_scan"}, "is_reserved": 0, "bike_id": "c057f35e8edc1b7cc645c6390d21cb1a", "name": "c057f35e8edc1b7cc645c6390d21cb1a"}, {"lat": 38.90282166666667, "fusion_lon": 0.0, "fusion_lat": 0.0, "is_disabled": 0, "type": "electric_scooter", "lon": -77.036759, "rental_uris": {"android": "https://dc.lft.to/lastmile_qr_scan", "ios": "https://dc.lft.to/lastmile_qr_scan"}, "is_reserved": 0, "bike_id": "17703b72f76f0bab073f219a3a9ca219", "name": "17703b72f76f0bab073f219a3a9ca219"}, {"lat": 38.89439983333333, "fusion_lon": 0.0, "fusion_lat": 0.0, "is_disabled": 0, "type": "electric_scooter", "lon": -76.9498495, "rental_uris": {"android": "https://dc.lft.to/lastmile_qr_scan", "ios": "https://dc.lft.to/lastmile_qr_scan"}, "is_reserved": 0, "bike_id": "ea200b7df6adc023f4393627024247c9", "name": "ea200b7df6adc023f4393627024247c9"}, {"lat": 38.901164666666666, "fusion_lon": 0.0, "fusion_lat": 0.0, "is_disabled": 0, "type": "electric_scooter", "lon": -77.04985916666666, "rental_uris": {"android": "https://dc.lft.to/lastmile_qr_scan", "ios": "https://dc.lft.to/lastmile_qr_scan"}, "is_reserved": 0, "bike_id": "6b8c3e847956058ed355e2699bcd0f06", "name": "6b8c3e847956058ed355e2699bcd0f06"}, {"lat": 38.92186366666667, "fusion_lon": 0.0, "fusion_lat": 0.0, "is_disabled": 0, "type": "electric_scooter", "lon": -77.04346133333334, "rental_uris": {"android": "https://dc.lft.to/lastmile_qr_scan", "ios": "https://dc.lft.to/lastmile_qr_scan"}, "is_reserved": 0, "bike_id": "32d450dc85e61d1a7a1869edaa2f17c0", "name": "32d450dc85e61d1a7a1869edaa2f17c0"}, {"lat": 38.900294833333334, "fusion_lon": 0.0, "fusion_lat": 0.0, "is_disabled": 0, "type": "electric_scooter", "lon": -76.99559583333334, "rental_uris": {"android": "https://dc.lft.to/lastmile_qr_scan", "ios": "https://dc.lft.to/lastmile_qr_scan"}, "is_reserved": 0, "bike_id": "03954815d53eeabd63c47fd58a589034", "name": "03954815d53eeabd63c47fd58a589034"}, {"lat": 38.858702666666666, "fusion_lon": 0.0, "fusion_lat": 0.0, "is_disabled": 0, "type": "electric_scooter", "lon": -76.99034533333334, "rental_uris": {"android": "https://dc.lft.to/lastmile_qr_scan", "ios": "https://dc.lft.to/lastmile_qr_scan"}, "is_reserved": 0, "bike_id": "75e239b0d3e6bbee2061300d65f272e0", "name": "75e239b0d3e6bbee2061300d65f272e0"}, {"lat": 38.923436, "fusion_lon": 0.0, "fusion_lat": 0.0, "is_disabled": 0, "type": "electric_scooter", "lon": -77.00308533333333, "rental_uris": {"android": "https://dc.lft.to/lastmile_qr_scan", "ios": "https://dc.lft.to/lastmile_qr_scan"}, "is_reserved": 0, "bike_id": "3a330c5556c7c6041239b89e857c9e60", "name": "3a330c5556c7c6041239b89e857c9e60"}, {"lat": 38.905237166666666, "fusion_lon": 0.0, "fusion_lat": 0.0, "is_disabled": 0, "type": "electric_scooter", "lon": -77.04358266666667, "rental_uris": {"android": "https://dc.lft.to/lastmile_qr_scan", "ios": "https://dc.lft.to/lastmile_qr_scan"}, "is_reserved": 0, "bike_id": "895284e3f72eba4debd629fddb718b09", "name": "895284e3f72eba4debd629fddb718b09"}, {"lat": 38.903315666666664, "fusion_lon": 0.0, "fusion_lat": 0.0, "is_disabled": 0, "type": "electric_scooter", "lon": -77.0432605, "rental_uris": {"android": "https://dc.lft.to/lastmile_qr_scan", "ios": "https://dc.lft.to/lastmile_qr_scan"}, "is_reserved": 0, "bike_id": "4f19b03fc1e9fa934930075b470095d9", "name": "4f19b03fc1e9fa934930075b470095d9"}, {"lat": 38.9080895, "fusion_lon": 0.0, "fusion_lat": 0.0, "is_disabled": 0, "type": "electric_scooter", "lon": -77.01817666666666, "rental_uris": {"android": "https://dc.lft.to/lastmile_qr_scan", "ios": "https://dc.lft.to/lastmile_qr_scan"}, "is_reserved": 0, "bike_id": "8bfc8cdf62a62995cd0ab25b64a9719d", "name": "8bfc8cdf62a62995cd0ab25b64a9719d"}, {"lat": 38.90397316666667, "fusion_lon": 0.0, "fusion_lat": 0.0, "is_disabled": 0, "type": "electric_scooter", "lon": -77.043343, "rental_uris": {"android": "https://dc.lft.to/lastmile_qr_scan", "ios": "https://dc.lft.to/lastmile_qr_scan"}, "is_reserved": 0, "bike_id": "12b6e18598cce0af79be8d37a8a8a9bb", "name": "12b6e18598cce0af79be8d37a8a8a9bb"}, {"lat": 38.9228145, "fusion_lon": 0.0, "fusion_lat": 0.0, "is_disabled": 0, "type": "electric_scooter", "lon": -77.04386116666667, "rental_uris": {"android": "https://dc.lft.to/lastmile_qr_scan", "ios": "https://dc.lft.to/lastmile_qr_scan"}, "is_reserved": 0, "bike_id": "7e30352ebf917317cc1f2620fc409352", "name": "7e30352ebf917317cc1f2620fc409352"}, {"lat": 39.052082666666664, "fusion_lon": 0.0, "fusion_lat": 0.0, "is_disabled": 0, "type": "electric_bike", "lon": -77.10908583333334, "rental_uris": {"android": "https://dc.lft.to/lastmile_qr_scan", "ios": "https://dc.lft.to/lastmile_qr_scan"}, "is_reserved": 0, "bike_id": "70b96e2532e5497b7ae140a6cf8757ec", "name": "70b96e2532e5497b7ae140a6cf8757ec"}, {"lat": 38.876498, "fusion_lon": 0.0, "fusion_lat": 0.0, "is_disabled": 0, "type": "electric_scooter", "lon": -76.96505316666666, "rental_uris": {"android": "https://dc.lft.to/lastmile_qr_scan", "ios": "https://dc.lft.to/lastmile_qr_scan"}, "is_reserved": 0, "bike_id": "bd8859eca927066aaa9daa102231addc", "name": "bd8859eca927066aaa9daa102231addc"}, {"lat": 38.8710865, "fusion_lon": 0.0, "fusion_lat": 0.0, "is_disabled": 0, "type": "electric_scooter", "lon": -77.01074133333333, "rental_uris": {"android": "https://dc.lft.to/lastmile_qr_scan", "ios": "https://dc.lft.to/lastmile_qr_scan"}, "is_reserved": 0, "bike_id": "11a7ca23b5c84d939f4fd38dd9c4fea8", "name": "11a7ca23b5c84d939f4fd38dd9c4fea8"}, {"lat": 38.929863833333336, "fusion_lon": 0.0, "fusion_lat": 0.0, "is_disabled": 0, "type": "electric_scooter", "lon": -77.03192983333334, "rental_uris": {"android": "https://dc.lft.to/lastmile_qr_scan", "ios": "https://dc.lft.to/lastmile_qr_scan"}, "is_reserved": 0, "bike_id": "ac93b96a31ac8c9f270237c667986daa", "name": "ac93b96a31ac8c9f270237c667986daa"}, {"lat": 38.913329, "fusion_lon": 0.0, "fusion_lat": 0.0, "is_disabled": 0, "type": "electric_scooter", "lon": -77.04818866666666, "rental_uris": {"android": "https://dc.lft.to/lastmile_qr_scan", "ios": "https://dc.lft.to/lastmile_qr_scan"}, "is_reserved": 0, "bike_id": "1d7d21adfc374d1a510fb6d45feed293", "name": "1d7d21adfc374d1a510fb6d45feed293"}, {"lat": 38.934741833333334, "fusion_lon": 0.0, "fusion_lat": 0.0, "is_disabled": 0, "type": "electric_scooter", "lon": -77.06527766666666, "rental_uris": {"android": "https://dc.lft.to/lastmile_qr_scan", "ios": "https://dc.lft.to/lastmile_qr_scan"}, "is_reserved": 0, "bike_id": "3eb17a1b393588227a7a024124ecb6fc", "name": "3eb17a1b393588227a7a024124ecb6fc"}, {"lat": 38.894843333333334, "fusion_lon": 0.0, "fusion_lat": 0.0, "is_disabled": 0, "type": "electric_scooter", "lon": -77.00191583333333, "rental_uris": {"android": "https://dc.lft.to/lastmile_qr_scan", "ios": "https://dc.lft.to/lastmile_qr_scan"}, "is_reserved": 0, "bike_id": "37735613f2a5aad99d87c0a4aafb147c", "name": "37735613f2a5aad99d87c0a4aafb147c"}, {"lat": 38.99456933333333, "fusion_lon": 0.0, "fusion_lat": 0.0, "is_disabled": 0, "type": "electric_bike", "lon": -76.908146, "rental_uris": {"android": "https://dc.lft.to/lastmile_qr_scan", "ios": "https://dc.lft.to/lastmile_qr_scan"}, "is_reserved": 0, "bike_id": "139ade3babb227d8fdc6c740cd534199", "name": "139ade3babb227d8fdc6c740cd534199"}, {"lat": 38.9030395, "fusion_lon": 0.0, "fusion_lat": 0.0, "is_disabled": 0, "type": "electric_scooter", "lon": -77.02118766666666, "rental_uris": {"android": "https://dc.lft.to/lastmile_qr_scan", "ios": "https://dc.lft.to/lastmile_qr_scan"}, "is_reserved": 0, "bike_id": "74670b13225cdc0e680725bb1242d6ba", "name": "74670b13225cdc0e680725bb1242d6ba"}, {"lat": 38.90145966666667, "fusion_lon": 0.0, "fusion_lat": 0.0, "is_disabled": 0, "type": "electric_scooter", "lon": -77.02968116666666, "rental_uris": {"android": "https://dc.lft.to/lastmile_qr_scan", "ios": "https://dc.lft.to/lastmile_qr_scan"}, "is_reserved": 0, "bike_id": "477e1d6d6ffc7be5098a253a193ae266", "name": "477e1d6d6ffc7be5098a253a193ae266"}, {"lat": 38.93375, "fusion_lon": 0.0, "fusion_lat": 0.0, "is_disabled": 0, "type": "electric_scooter", "lon": -77.057193, "rental_uris": {"android": "https://dc.lft.to/lastmile_qr_scan", "ios": "https://dc.lft.to/lastmile_qr_scan"}, "is_reserved": 0, "bike_id": "aaf95fd3ac52502086ba71cf10dd1646", "name": "aaf95fd3ac52502086ba71cf10dd1646"}, {"lat": 38.91406116666667, "fusion_lon": 0.0, "fusion_lat": 0.0, "is_disabled": 0, "type": "electric_scooter", "lon": -77.0418045, "rental_uris": {"android": "https://dc.lft.to/lastmile_qr_scan", "ios": "https://dc.lft.to/lastmile_qr_scan"}, "is_reserved": 0, "bike_id": "83b5d9f582ee7a58416c3d87e2c231fa", "name": "83b5d9f582ee7a58416c3d87e2c231fa"}, {"lat": 38.862242333333334, "fusion_lon": 0.0, "fusion_lat": 0.0, "is_disabled": 0, "type": "electric_scooter", "lon": -76.99460916666666, "rental_uris": {"android": "https://dc.lft.to/lastmile_qr_scan", "ios": "https://dc.lft.to/lastmile_qr_scan"}, "is_reserved": 0, "bike_id": "8b846e2b8633b3208f038a947d4606eb", "name": "8b846e2b8633b3208f038a947d4606eb"}, {"lat": 38.905299666666664, "fusion_lon": 0.0, "fusion_lat": 0.0, "is_disabled": 0, "type": "electric_scooter", "lon": -77.06236316666667, "rental_uris": {"android": "https://dc.lft.to/lastmile_qr_scan", "ios": "https://dc.lft.to/lastmile_qr_scan"}, "is_reserved": 0, "bike_id": "6f899259bbad029cad6bbb854ea02280", "name": "6f899259bbad029cad6bbb854ea02280"}, {"lat": 38.920072166666664, "fusion_lon": 0.0, "fusion_lat": 0.0, "is_disabled": 0, "type": "electric_scooter", "lon": -76.9853615, "rental_uris": {"android": "https://dc.lft.to/lastmile_qr_scan", "ios": "https://dc.lft.to/lastmile_qr_scan"}, "is_reserved": 0, "bike_id": "c30a8544b3e218681db6a57c91f862b7", "name": "c30a8544b3e218681db6a57c91f862b7"}, {"lat": 38.8976465, "fusion_lon": 0.0, "fusion_lat": 0.0, "is_disabled": 0, "type": "electric_scooter", "lon": -77.00345966666667, "rental_uris": {"android": "https://dc.lft.to/lastmile_qr_scan", "ios": "https://dc.lft.to/lastmile_qr_scan"}, "is_reserved": 0, "bike_id": "ef1a2b043dfa8e00aaf2dfb837d9be77", "name": "ef1a2b043dfa8e00aaf2dfb837d9be77"}, {"lat": 38.8801265, "fusion_lon": 0.0, "fusion_lat": 0.0, "is_disabled": 0, "type": "electric_bike", "lon": -76.915942, "rental_uris": {"android": "https://dc.lft.to/lastmile_qr_scan", "ios": "https://dc.lft.to/lastmile_qr_scan"}, "is_reserved": 0, "bike_id": "eee1011c411f45362f66718d40e3ecea", "name": "eee1011c411f45362f66718d40e3ecea"}, {"lat": 38.845448, "fusion_lon": 0.0, "fusion_lat": 0.0, "is_disabled": 0, "type": "electric_bike", "lon": -76.98782416666667, "rental_uris": {"android": "https://dc.lft.to/lastmile_qr_scan", "ios": "https://dc.lft.to/lastmile_qr_scan"}, "is_reserved": 0, "bike_id": "12317ac7065cea230eef91e32d6fcb2b", "name": "12317ac7065cea230eef91e32d6fcb2b"}, {"lat": 38.905866833333334, "fusion_lon": 0.0, "fusion_lat": 0.0, "is_disabled": 0, "type": "electric_scooter", "lon": -77.0060005, "rental_uris": {"android": "https://dc.lft.to/lastmile_qr_scan", "ios": "https://dc.lft.to/lastmile_qr_scan"}, "is_reserved": 0, "bike_id": "8fe28f0112fcfbe75495881c14e94741", "name": "8fe28f0112fcfbe75495881c14e94741"}, {"lat": 38.874582, "fusion_lon": 0.0, "fusion_lat": 0.0, "is_disabled": 0, "type": "electric_scooter", "lon": -77.0060425, "rental_uris": {"android": "https://dc.lft.to/lastmile_qr_scan", "ios": "https://dc.lft.to/lastmile_qr_scan"}, "is_reserved": 0, "bike_id": "c621fd174829cb60c04a43096d88c72e", "name": "c621fd174829cb60c04a43096d88c72e"}, {"lat": 38.90864766666667, "fusion_lon": 0.0, "fusion_lat": 0.0, "is_disabled": 0, "type": "electric_scooter", "lon": -77.04544616666666, "rental_uris": {"android": "https://dc.lft.to/lastmile_qr_scan", "ios": "https://dc.lft.to/lastmile_qr_scan"}, "is_reserved": 0, "bike_id": "4f565ea88b1c96dba480cd218e8c1d6f", "name": "4f565ea88b1c96dba480cd218e8c1d6f"}, {"lat": 38.9413185, "fusion_lon": 0.0, "fusion_lat": 0.0, "is_disabled": 0, "type": "electric_scooter", "lon": -77.09201966666667, "rental_uris": {"android": "https://dc.lft.to/lastmile_qr_scan", "ios": "https://dc.lft.to/lastmile_qr_scan"}, "is_reserved": 0, "bike_id": "d0dec498eade708e76650c0b0fd1b09a", "name": "d0dec498eade708e76650c0b0fd1b09a"}, {"lat": 38.95565283333333, "fusion_lon": 0.0, "fusion_lat": 0.0, "is_disabled": 0, "type": "electric_scooter", "lon": -77.00634183333334, "rental_uris": {"android": "https://dc.lft.to/lastmile_qr_scan", "ios": "https://dc.lft.to/lastmile_qr_scan"}, "is_reserved": 0, "bike_id": "d55783872b9d0bc24931986c22339980", "name": "d55783872b9d0bc24931986c22339980"}, {"lat": 38.896568333333335, "fusion_lon": 0.0, "fusion_lat": 0.0, "is_disabled": 0, "type": "electric_scooter", "lon": -77.02678483333334, "rental_uris": {"android": "https://dc.lft.to/lastmile_qr_scan", "ios": "https://dc.lft.to/lastmile_qr_scan"}, "is_reserved": 0, "bike_id": "f73ee840c2351d0d8d0b47f77a309e84", "name": "f73ee840c2351d0d8d0b47f77a309e84"}, {"lat": 38.90270566666667, "fusion_lon": 0.0, "fusion_lat": 0.0, "is_disabled": 0, "type": "electric_scooter", "lon": -77.03460466666667, "rental_uris": {"android": "https://dc.lft.to/lastmile_qr_scan", "ios": "https://dc.lft.to/lastmile_qr_scan"}, "is_reserved": 0, "bike_id": "9468183ea8595a2a12d51f7f15eb26a6", "name": "9468183ea8595a2a12d51f7f15eb26a6"}, {"lat": 38.9007645, "fusion_lon": 0.0, "fusion_lat": 0.0, "is_disabled": 0, "type": "electric_scooter", "lon": -77.0020675, "rental_uris": {"android": "https://dc.lft.to/lastmile_qr_scan", "ios": "https://dc.lft.to/lastmile_qr_scan"}, "is_reserved": 0, "bike_id": "4dcb7b1df51e145cb2b8931623a5f7d6", "name": "4dcb7b1df51e145cb2b8931623a5f7d6"}, {"lat": 38.91696966666667, "fusion_lon": 0.0, "fusion_lat": 0.0, "is_disabled": 0, "type": "electric_scooter", "lon": -77.03565166666667, "rental_uris": {"android": "https://dc.lft.to/lastmile_qr_scan", "ios": "https://dc.lft.to/lastmile_qr_scan"}, "is_reserved": 0, "bike_id": "94949e1a254a7c04b666178f4963b29f", "name": "94949e1a254a7c04b666178f4963b29f"}, {"lat": 38.852176666666665, "fusion_lon": 0.0, "fusion_lat": 0.0, "is_disabled": 0, "type": "electric_bike", "lon": -77.12959416666666, "rental_uris": {"android": "https://dc.lft.to/lastmile_qr_scan", "ios": "https://dc.lft.to/lastmile_qr_scan"}, "is_reserved": 0, "bike_id": "024cb4cd6960f433867e69e13999ba3a", "name": "024cb4cd6960f433867e69e13999ba3a"}, {"lat": 38.91756933333333, "fusion_lon": 0.0, "fusion_lat": 0.0, "is_disabled": 0, "type": "electric_scooter", "lon": -77.02483366666667, "rental_uris": {"android": "https://dc.lft.to/lastmile_qr_scan", "ios": "https://dc.lft.to/lastmile_qr_scan"}, "is_reserved": 0, "bike_id": "f978517e81e1bd9b9cfcfb1387af3eb7", "name": "f978517e81e1bd9b9cfcfb1387af3eb7"}, {"lat": 38.912571, "fusion_lon": 0.0, "fusion_lat": 0.0, "is_disabled": 0, "type": "electric_scooter", "lon": -77.00928983333333, "rental_uris": {"android": "https://dc.lft.to/lastmile_qr_scan", "ios": "https://dc.lft.to/lastmile_qr_scan"}, "is_reserved": 0, "bike_id": "fe8b2760becc6c24017133bcee4f0dde", "name": "fe8b2760becc6c24017133bcee4f0dde"}, {"lat": 38.894847, "fusion_lon": 0.0, "fusion_lat": 0.0, "is_disabled": 0, "type": "electric_scooter", "lon": -76.99516466666667, "rental_uris": {"android": "https://dc.lft.to/lastmile_qr_scan", "ios": "https://dc.lft.to/lastmile_qr_scan"}, "is_reserved": 0, "bike_id": "185a97740cb095910c41935a7082cfdd", "name": "185a97740cb095910c41935a7082cfdd"}, {"lat": 38.90500316666667, "fusion_lon": 0.0, "fusion_lat": 0.0, "is_disabled": 0, "type": "electric_scooter", "lon": -77.04072216666667, "rental_uris": {"android": "https://dc.lft.to/lastmile_qr_scan", "ios": "https://dc.lft.to/lastmile_qr_scan"}, "is_reserved": 0, "bike_id": "5d22953803bf4019f98020e308e53a27", "name": "5d22953803bf4019f98020e308e53a27"}, {"lat": 38.913314666666665, "fusion_lon": 0.0, "fusion_lat": 0.0, "is_disabled": 0, "type": "electric_scooter", "lon": -77.04527833333333, "rental_uris": {"android": "https://dc.lft.to/lastmile_qr_scan", "ios": "https://dc.lft.to/lastmile_qr_scan"}, "is_reserved": 0, "bike_id": "6213e2af753888c63249d818657380ea", "name": "6213e2af753888c63249d818657380ea"}, {"lat": 38.909592, "fusion_lon": 0.0, "fusion_lat": 0.0, "is_disabled": 0, "type": "electric_scooter", "lon": -77.0324535, "rental_uris": {"android": "https://dc.lft.to/lastmile_qr_scan", "ios": "https://dc.lft.to/lastmile_qr_scan"}, "is_reserved": 0, "bike_id": "b984ecfe62900c1aee143726bd4a13b1", "name": "b984ecfe62900c1aee143726bd4a13b1"}, {"lat": 38.865973833333335, "fusion_lon": 0.0, "fusion_lat": 0.0, "is_disabled": 0, "type": "electric_bike", "lon": -76.93228066666667, "rental_uris": {"android": "https://dc.lft.to/lastmile_qr_scan", "ios": "https://dc.lft.to/lastmile_qr_scan"}, "is_reserved": 0, "bike_id": "01df3502d8b6e4d1c4eef2a22486759f", "name": "01df3502d8b6e4d1c4eef2a22486759f"}, {"lat": 38.88311266666667, "fusion_lon": 0.0, "fusion_lat": 0.0, "is_disabled": 0, "type": "electric_scooter", "lon": -77.00605883333333, "rental_uris": {"android": "https://dc.lft.to/lastmile_qr_scan", "ios": "https://dc.lft.to/lastmile_qr_scan"}, "is_reserved": 0, "bike_id": "1a2bd13c2ca207929affdd03ae901933", "name": "1a2bd13c2ca207929affdd03ae901933"}, {"lat": 38.8923795, "fusion_lon": 0.0, "fusion_lat": 0.0, "is_disabled": 0, "type": "electric_bike", "lon": -77.0178405, "rental_uris": {"android": "https://dc.lft.to/lastmile_qr_scan", "ios": "https://dc.lft.to/lastmile_qr_scan"}, "is_reserved": 0, "bike_id": "d24b2077fc73e97ce0ccb6b78a67629e", "name": "d24b2077fc73e97ce0ccb6b78a67629e"}, {"lat": 38.9005725, "fusion_lon": 0.0, "fusion_lat": 0.0, "is_disabled": 0, "type": "electric_scooter", "lon": -77.04868283333333, "rental_uris": {"android": "https://dc.lft.to/lastmile_qr_scan", "ios": "https://dc.lft.to/lastmile_qr_scan"}, "is_reserved": 0, "bike_id": "133c88fa63d01fb831b0bdcca3587e9c", "name": "133c88fa63d01fb831b0bdcca3587e9c"}, {"lat": 38.929148833333336, "fusion_lon": 0.0, "fusion_lat": 0.0, "is_disabled": 0, "type": "electric_scooter", "lon": -77.02088933333333, "rental_uris": {"android": "https://dc.lft.to/lastmile_qr_scan", "ios": "https://dc.lft.to/lastmile_qr_scan"}, "is_reserved": 0, "bike_id": "6e1d3a2f75a8c5405b739567d4aebfb8", "name": "6e1d3a2f75a8c5405b739567d4aebfb8"}, {"lat": 38.842913833333334, "fusion_lon": 0.0, "fusion_lat": 0.0, "is_disabled": 0, "type": "electric_scooter", "lon": -76.99947983333334, "rental_uris": {"android": "https://dc.lft.to/lastmile_qr_scan", "ios": "https://dc.lft.to/lastmile_qr_scan"}, "is_reserved": 0, "bike_id": "9a9dc4a8e89a5917c8e61e05edbf64da", "name": "9a9dc4a8e89a5917c8e61e05edbf64da"}, {"lat": 38.8771675, "fusion_lon": 0.0, "fusion_lat": 0.0, "is_disabled": 0, "type": "electric_scooter", "lon": -77.01809933333334, "rental_uris": {"android": "https://dc.lft.to/lastmile_qr_scan", "ios": "https://dc.lft.to/lastmile_qr_scan"}, "is_reserved": 0, "bike_id": "80fd98f24e8239df451f44cc472a5842", "name": "80fd98f24e8239df451f44cc472a5842"}, {"lat": 38.94098666666667, "fusion_lon": 0.0, "fusion_lat": 0.0, "is_disabled": 0, "type": "electric_scooter", "lon": -77.021082, "rental_uris": {"android": "https://dc.lft.to/lastmile_qr_scan", "ios": "https://dc.lft.to/lastmile_qr_scan"}, "is_reserved": 0, "bike_id": "5841a7ac5c40a8b908d594f2fbfab57b", "name": "5841a7ac5c40a8b908d594f2fbfab57b"}, {"lat": 38.91245683333333, "fusion_lon": 0.0, "fusion_lat": 0.0, "is_disabled": 0, "type": "electric_scooter", "lon": -77.00411266666667, "rental_uris": {"android": "https://dc.lft.to/lastmile_qr_scan", "ios": "https://dc.lft.to/lastmile_qr_scan"}, "is_reserved": 0, "bike_id": "3577de373f4eeea41a0f8ed1238f4ec1", "name": "3577de373f4eeea41a0f8ed1238f4ec1"}, {"lat": 38.871974, "fusion_lon": 0.0, "fusion_lat": 0.0, "is_disabled": 0, "type": "electric_scooter", "lon": -77.01247316666667, "rental_uris": {"android": "https://dc.lft.to/lastmile_qr_scan", "ios": "https://dc.lft.to/lastmile_qr_scan"}, "is_reserved": 0, "bike_id": "f6a12637c7891338158d545e0dd84038", "name": "f6a12637c7891338158d545e0dd84038"}, {"lat": 38.9084835, "fusion_lon": 0.0, "fusion_lat": 0.0, "is_disabled": 0, "type": "electric_scooter", "lon": -77.02695033333333, "rental_uris": {"android": "https://dc.lft.to/lastmile_qr_scan", "ios": "https://dc.lft.to/lastmile_qr_scan"}, "is_reserved": 0, "bike_id": "d8dc38f3fd668fc8f4bff4b3e9c04290", "name": "d8dc38f3fd668fc8f4bff4b3e9c04290"}, {"lat": 38.926618500000004, "fusion_lon": 0.0, "fusion_lat": 0.0, "is_disabled": 0, "type": "electric_scooter", "lon": -77.01460733333333, "rental_uris": {"android": "https://dc.lft.to/lastmile_qr_scan", "ios": "https://dc.lft.to/lastmile_qr_scan"}, "is_reserved": 0, "bike_id": "10a8bef0ef174f3b4e79252d2ec8df7e", "name": "10a8bef0ef174f3b4e79252d2ec8df7e"}, {"lat": 38.922043333333335, "fusion_lon": 0.0, "fusion_lat": 0.0, "is_disabled": 0, "type": "electric_scooter", "lon": -77.0320365, "rental_uris": {"android": "https://dc.lft.to/lastmile_qr_scan", "ios": "https://dc.lft.to/lastmile_qr_scan"}, "is_reserved": 0, "bike_id": "983c59f36e4280af9e4bcac4167f5807", "name": "983c59f36e4280af9e4bcac4167f5807"}, {"lat": 38.924639666666664, "fusion_lon": 0.0, "fusion_lat": 0.0, "is_disabled": 0, "type": "electric_scooter", "lon": -77.02149083333333, "rental_uris": {"android": "https://dc.lft.to/lastmile_qr_scan", "ios": "https://dc.lft.to/lastmile_qr_scan"}, "is_reserved": 0, "bike_id": "8b5bb0c8033b9b157697240e996d5083", "name": "8b5bb0c8033b9b157697240e996d5083"}, {"lat": 38.907839833333334, "fusion_lon": 0.0, "fusion_lat": 0.0, "is_disabled": 0, "type": "electric_scooter", "lon": -77.04507666666667, "rental_uris": {"android": "https://dc.lft.to/lastmile_qr_scan", "ios": "https://dc.lft.to/lastmile_qr_scan"}, "is_reserved": 0, "bike_id": "1120ba0246878b730501da9ffe3e9847", "name": "1120ba0246878b730501da9ffe3e9847"}, {"lat": 38.898291, "fusion_lon": 0.0, "fusion_lat": 0.0, "is_disabled": 0, "type": "electric_scooter", "lon": -77.03322333333334, "rental_uris": {"android": "https://dc.lft.to/lastmile_qr_scan", "ios": "https://dc.lft.to/lastmile_qr_scan"}, "is_reserved": 0, "bike_id": "8a3fa97b97d0f8ef4938784123b05397", "name": "8a3fa97b97d0f8ef4938784123b05397"}, {"lat": 38.9121535, "fusion_lon": 0.0, "fusion_lat": 0.0, "is_disabled": 0, "type": "electric_scooter", "lon": -77.03786916666667, "rental_uris": {"android": "https://dc.lft.to/lastmile_qr_scan", "ios": "https://dc.lft.to/lastmile_qr_scan"}, "is_reserved": 0, "bike_id": "55da7ff824fd4b2e43ee1547053d8af4", "name": "55da7ff824fd4b2e43ee1547053d8af4"}, {"lat": 38.92068166666667, "fusion_lon": 0.0, "fusion_lat": 0.0, "is_disabled": 0, "type": "electric_scooter", "lon": -77.03806083333333, "rental_uris": {"android": "https://dc.lft.to/lastmile_qr_scan", "ios": "https://dc.lft.to/lastmile_qr_scan"}, "is_reserved": 0, "bike_id": "8a174efd7c5edb202afaafe5a5e636fc", "name": "8a174efd7c5edb202afaafe5a5e636fc"}, {"lat": 38.915760666666664, "fusion_lon": 0.0, "fusion_lat": 0.0, "is_disabled": 0, "type": "electric_scooter", "lon": -77.0365805, "rental_uris": {"android": "https://dc.lft.to/lastmile_qr_scan", "ios": "https://dc.lft.to/lastmile_qr_scan"}, "is_reserved": 0, "bike_id": "2ace0f35ec36727b4dd94b6341c16b3d", "name": "2ace0f35ec36727b4dd94b6341c16b3d"}, {"lat": 38.92978333333333, "fusion_lon": 0.0, "fusion_lat": 0.0, "is_disabled": 0, "type": "electric_scooter", "lon": -77.031836, "rental_uris": {"android": "https://dc.lft.to/lastmile_qr_scan", "ios": "https://dc.lft.to/lastmile_qr_scan"}, "is_reserved": 0, "bike_id": "be46c44c3ab1e84e8e373317a645f0d3", "name": "be46c44c3ab1e84e8e373317a645f0d3"}, {"lat": 38.874819333333335, "fusion_lon": 0.0, "fusion_lat": 0.0, "is_disabled": 0, "type": "electric_scooter", "lon": -76.96520883333334, "rental_uris": {"android": "https://dc.lft.to/lastmile_qr_scan", "ios": "https://dc.lft.to/lastmile_qr_scan"}, "is_reserved": 0, "bike_id": "aaa3e7ee1c9ccd2e453cba6c95eebbd4", "name": "aaa3e7ee1c9ccd2e453cba6c95eebbd4"}, {"lat": 38.9061185, "fusion_lon": 0.0, "fusion_lat": 0.0, "is_disabled": 0, "type": "electric_scooter", "lon": -77.00585966666667, "rental_uris": {"android": "https://dc.lft.to/lastmile_qr_scan", "ios": "https://dc.lft.to/lastmile_qr_scan"}, "is_reserved": 0, "bike_id": "13c3130dc4c05b0a7aeb8dcca5e74c74", "name": "13c3130dc4c05b0a7aeb8dcca5e74c74"}, {"lat": 38.933393833333334, "fusion_lon": 0.0, "fusion_lat": 0.0, "is_disabled": 0, "type": "electric_scooter", "lon": -77.03264166666666, "rental_uris": {"android": "https://dc.lft.to/lastmile_qr_scan", "ios": "https://dc.lft.to/lastmile_qr_scan"}, "is_reserved": 0, "bike_id": "d96cb2fe2b3d4769ae80e2defa7670f2", "name": "d96cb2fe2b3d4769ae80e2defa7670f2"}, {"lat": 38.936570333333336, "fusion_lon": 0.0, "fusion_lat": 0.0, "is_disabled": 0, "type": "electric_scooter", "lon": -77.0592425, "rental_uris": {"android": "https://dc.lft.to/lastmile_qr_scan", "ios": "https://dc.lft.to/lastmile_qr_scan"}, "is_reserved": 0, "bike_id": "1fdeca80852514a19c7e52fcb22383f0", "name": "1fdeca80852514a19c7e52fcb22383f0"}, {"lat": 38.900191666666665, "fusion_lon": 0.0, "fusion_lat": 0.0, "is_disabled": 0, "type": "electric_scooter", "lon": -76.98855783333333, "rental_uris": {"android": "https://dc.lft.to/lastmile_qr_scan", "ios": "https://dc.lft.to/lastmile_qr_scan"}, "is_reserved": 0, "bike_id": "80370cd9ceec9ae9f0c41b4866a4e245", "name": "80370cd9ceec9ae9f0c41b4866a4e245"}, {"lat": 38.90871516666667, "fusion_lon": 0.0, "fusion_lat": 0.0, "is_disabled": 0, "type": "electric_scooter", "lon": -77.01247416666666, "rental_uris": {"android": "https://dc.lft.to/lastmile_qr_scan", "ios": "https://dc.lft.to/lastmile_qr_scan"}, "is_reserved": 0, "bike_id": "c97e6bc934fbabc31093ff4c6b514ddc", "name": "c97e6bc934fbabc31093ff4c6b514ddc"}, {"lat": 38.9127375, "fusion_lon": 0.0, "fusion_lat": 0.0, "is_disabled": 0, "type": "electric_scooter", "lon": -77.022223, "rental_uris": {"android": "https://dc.lft.to/lastmile_qr_scan", "ios": "https://dc.lft.to/lastmile_qr_scan"}, "is_reserved": 0, "bike_id": "6902b752a1aebd0f48a475b851a03362", "name": "6902b752a1aebd0f48a475b851a03362"}, {"lat": 38.950004666666665, "fusion_lon": 0.0, "fusion_lat": 0.0, "is_disabled": 0, "type": "electric_scooter", "lon": -77.02703933333333, "rental_uris": {"android": "https://dc.lft.to/lastmile_qr_scan", "ios": "https://dc.lft.to/lastmile_qr_scan"}, "is_reserved": 0, "bike_id": "1f2ac142bc08b1028f81862d96f35bc1", "name": "1f2ac142bc08b1028f81862d96f35bc1"}, {"lat": 38.91790666666667, "fusion_lon": 0.0, "fusion_lat": 0.0, "is_disabled": 0, "type": "electric_scooter", "lon": -77.02277266666667, "rental_uris": {"android": "https://dc.lft.to/lastmile_qr_scan", "ios": "https://dc.lft.to/lastmile_qr_scan"}, "is_reserved": 0, "bike_id": "d7a195c55e27cb7b0c0c705cff85038e", "name": "d7a195c55e27cb7b0c0c705cff85038e"}, {"lat": 38.91522716666667, "fusion_lon": 0.0, "fusion_lat": 0.0, "is_disabled": 0, "type": "electric_scooter", "lon": -77.0122625, "rental_uris": {"android": "https://dc.lft.to/lastmile_qr_scan", "ios": "https://dc.lft.to/lastmile_qr_scan"}, "is_reserved": 0, "bike_id": "7ac093fbd54e07c39b79fa7f1daf2db9", "name": "7ac093fbd54e07c39b79fa7f1daf2db9"}, {"lat": 38.902589166666665, "fusion_lon": 0.0, "fusion_lat": 0.0, "is_disabled": 0, "type": "electric_bike", "lon": -77.00602483333333, "rental_uris": {"android": "https://dc.lft.to/lastmile_qr_scan", "ios": "https://dc.lft.to/lastmile_qr_scan"}, "is_reserved": 0, "bike_id": "541f18e7903a973f8b72b12c182d323d", "name": "541f18e7903a973f8b72b12c182d323d"}, {"lat": 38.926783666666665, "fusion_lon": 0.0, "fusion_lat": 0.0, "is_disabled": 0, "type": "electric_scooter", "lon": -77.00759116666667, "rental_uris": {"android": "https://dc.lft.to/lastmile_qr_scan", "ios": "https://dc.lft.to/lastmile_qr_scan"}, "is_reserved": 0, "bike_id": "b6a0a9d70ef92291fe77b33eac395a39", "name": "b6a0a9d70ef92291fe77b33eac395a39"}, {"lat": 38.96209366666667, "fusion_lon": 0.0, "fusion_lat": 0.0, "is_disabled": 0, "type": "electric_scooter", "lon": -77.0234175, "rental_uris": {"android": "https://dc.lft.to/lastmile_qr_scan", "ios": "https://dc.lft.to/lastmile_qr_scan"}, "is_reserved": 0, "bike_id": "2168feb5d1fc5a624f4cd288ee787e8b", "name": "2168feb5d1fc5a624f4cd288ee787e8b"}, {"lat": 38.933785666666665, "fusion_lon": 0.0, "fusion_lat": 0.0, "is_disabled": 0, "type": "electric_scooter", "lon": -77.05725483333333, "rental_uris": {"android": "https://dc.lft.to/lastmile_qr_scan", "ios": "https://dc.lft.to/lastmile_qr_scan"}, "is_reserved": 0, "bike_id": "b40e1156943a28a12a5f66b1efc53eff", "name": "b40e1156943a28a12a5f66b1efc53eff"}, {"lat": 38.9032115, "fusion_lon": 0.0, "fusion_lat": 0.0, "is_disabled": 0, "type": "electric_scooter", "lon": -77.03479733333333, "rental_uris": {"android": "https://dc.lft.to/lastmile_qr_scan", "ios": "https://dc.lft.to/lastmile_qr_scan"}, "is_reserved": 0, "bike_id": "bb1762764fc05f1338b6d654ac4e8bfe", "name": "bb1762764fc05f1338b6d654ac4e8bfe"}, {"lat": 38.92261283333333, "fusion_lon": 0.0, "fusion_lat": 0.0, "is_disabled": 0, "type": "electric_scooter", "lon": -77.0430265, "rental_uris": {"android": "https://dc.lft.to/lastmile_qr_scan", "ios": "https://dc.lft.to/lastmile_qr_scan"}, "is_reserved": 0, "bike_id": "b38b8fadfc2560d6cf73f4e021f8f48d", "name": "b38b8fadfc2560d6cf73f4e021f8f48d"}, {"lat": 38.912574166666666, "fusion_lon": 0.0, "fusion_lat": 0.0, "is_disabled": 0, "type": "electric_scooter", "lon": -77.03862116666667, "rental_uris": {"android": "https://dc.lft.to/lastmile_qr_scan", "ios": "https://dc.lft.to/lastmile_qr_scan"}, "is_reserved": 0, "bike_id": "96f74d6756075ec77a53f545aaeb4142", "name": "96f74d6756075ec77a53f545aaeb4142"}, {"lat": 38.911947833333336, "fusion_lon": 0.0, "fusion_lat": 0.0, "is_disabled": 0, "type": "electric_scooter", "lon": -77.04498833333334, "rental_uris": {"android": "https://dc.lft.to/lastmile_qr_scan", "ios": "https://dc.lft.to/lastmile_qr_scan"}, "is_reserved": 0, "bike_id": "b2bc5abe85eb047c4c0cfbbbce0bb331", "name": "b2bc5abe85eb047c4c0cfbbbce0bb331"}, {"lat": 38.905280166666664, "fusion_lon": 0.0, "fusion_lat": 0.0, "is_disabled": 0, "type": "electric_scooter", "lon": -77.0057235, "rental_uris": {"android": "https://dc.lft.to/lastmile_qr_scan", "ios": "https://dc.lft.to/lastmile_qr_scan"}, "is_reserved": 0, "bike_id": "b77761f3c6b9fdd1e69b5702ebc04fed", "name": "b77761f3c6b9fdd1e69b5702ebc04fed"}, {"lat": 38.88504666666667, "fusion_lon": 0.0, "fusion_lat": 0.0, "is_disabled": 0, "type": "electric_scooter", "lon": -77.02159183333333, "rental_uris": {"android": "https://dc.lft.to/lastmile_qr_scan", "ios": "https://dc.lft.to/lastmile_qr_scan"}, "is_reserved": 0, "bike_id": "7ef4a048f63543bf960b89c6b665c0c1", "name": "7ef4a048f63543bf960b89c6b665c0c1"}, {"lat": 38.90663883333333, "fusion_lon": 0.0, "fusion_lat": 0.0, "is_disabled": 0, "type": "electric_scooter", "lon": -77.05148016666666, "rental_uris": {"android": "https://dc.lft.to/lastmile_qr_scan", "ios": "https://dc.lft.to/lastmile_qr_scan"}, "is_reserved": 0, "bike_id": "71c6c7ebd8ff9562eeefd29b86928f45", "name": "71c6c7ebd8ff9562eeefd29b86928f45"}, {"lat": 38.864525, "fusion_lon": 0.0, "fusion_lat": 0.0, "is_disabled": 0, "type": "electric_scooter", "lon": -76.98990733333333, "rental_uris": {"android": "https://dc.lft.to/lastmile_qr_scan", "ios": "https://dc.lft.to/lastmile_qr_scan"}, "is_reserved": 0, "bike_id": "feb219c06c7584fd7f9faeb5e8a82911", "name": "feb219c06c7584fd7f9faeb5e8a82911"}, {"lat": 38.913438166666666, "fusion_lon": 0.0, "fusion_lat": 0.0, "is_disabled": 0, "type": "electric_scooter", "lon": -77.04165683333333, "rental_uris": {"android": "https://dc.lft.to/lastmile_qr_scan", "ios": "https://dc.lft.to/lastmile_qr_scan"}, "is_reserved": 0, "bike_id": "d9d3b4c5d7af5baf4c2c2675225e5ba9", "name": "d9d3b4c5d7af5baf4c2c2675225e5ba9"}, {"lat": 38.93111833333333, "fusion_lon": 0.0, "fusion_lat": 0.0, "is_disabled": 0, "type": "electric_scooter", "lon": -77.03785366666666, "rental_uris": {"android": "https://dc.lft.to/lastmile_qr_scan", "ios": "https://dc.lft.to/lastmile_qr_scan"}, "is_reserved": 0, "bike_id": "a91fdf5a25bc3fc8f18fe5498418337d", "name": "a91fdf5a25bc3fc8f18fe5498418337d"}, {"lat": 38.935826, "fusion_lon": 0.0, "fusion_lat": 0.0, "is_disabled": 0, "type": "electric_scooter", "lon": -77.019379, "rental_uris": {"android": "https://dc.lft.to/lastmile_qr_scan", "ios": "https://dc.lft.to/lastmile_qr_scan"}, "is_reserved": 0, "bike_id": "45767f22c648f3ab5fbf2025e79f30e0", "name": "45767f22c648f3ab5fbf2025e79f30e0"}, {"lat": 38.900326, "fusion_lon": 0.0, "fusion_lat": 0.0, "is_disabled": 0, "type": "electric_scooter", "lon": -76.9963195, "rental_uris": {"android": "https://dc.lft.to/lastmile_qr_scan", "ios": "https://dc.lft.to/lastmile_qr_scan"}, "is_reserved": 0, "bike_id": "57eff03cad2f3f01a14ff25634893a59", "name": "57eff03cad2f3f01a14ff25634893a59"}, {"lat": 38.8810795, "fusion_lon": 0.0, "fusion_lat": 0.0, "is_disabled": 0, "type": "electric_bike", "lon": -77.1117185, "rental_uris": {"android": "https://dc.lft.to/lastmile_qr_scan", "ios": "https://dc.lft.to/lastmile_qr_scan"}, "is_reserved": 0, "bike_id": "3f2258987ffa105913cdae814ad3b2f8", "name": "3f2258987ffa105913cdae814ad3b2f8"}, {"lat": 38.90185966666667, "fusion_lon": 0.0, "fusion_lat": 0.0, "is_disabled": 0, "type": "electric_scooter", "lon": -77.02526116666667, "rental_uris": {"android": "https://dc.lft.to/lastmile_qr_scan", "ios": "https://dc.lft.to/lastmile_qr_scan"}, "is_reserved": 0, "bike_id": "9382d3069c2fcbf600a7bc3b29e300f2", "name": "9382d3069c2fcbf600a7bc3b29e300f2"}, {"lat": 38.8842, "fusion_lon": 0.0, "fusion_lat": 0.0, "is_disabled": 0, "type": "electric_scooter", "lon": -76.99543666666666, "rental_uris": {"android": "https://dc.lft.to/lastmile_qr_scan", "ios": "https://dc.lft.to/lastmile_qr_scan"}, "is_reserved": 0, "bike_id": "aaf080e488bf926373bbebdadb435dc1", "name": "aaf080e488bf926373bbebdadb435dc1"}, {"lat": 38.93459166666667, "fusion_lon": 0.0, "fusion_lat": 0.0, "is_disabled": 0, "type": "electric_scooter", "lon": -76.964104, "rental_uris": {"android": "https://dc.lft.to/lastmile_qr_scan", "ios": "https://dc.lft.to/lastmile_qr_scan"}, "is_reserved": 0, "bike_id": "7c09a7392ca33da4413a6058a898ef0b", "name": "7c09a7392ca33da4413a6058a898ef0b"}, {"lat": 38.930248, "fusion_lon": 0.0, "fusion_lat": 0.0, "is_disabled": 0, "type": "electric_scooter", "lon": -77.0129455, "rental_uris": {"android": "https://dc.lft.to/lastmile_qr_scan", "ios": "https://dc.lft.to/lastmile_qr_scan"}, "is_reserved": 0, "bike_id": "96d468b726ccdd9b222e0aaa6b8ad528", "name": "96d468b726ccdd9b222e0aaa6b8ad528"}, {"lat": 38.93177083333333, "fusion_lon": 0.0, "fusion_lat": 0.0, "is_disabled": 0, "type": "electric_scooter", "lon": -77.03411183333333, "rental_uris": {"android": "https://dc.lft.to/lastmile_qr_scan", "ios": "https://dc.lft.to/lastmile_qr_scan"}, "is_reserved": 0, "bike_id": "a74362ac5ec02f60f6f41fcb4f1f5500", "name": "a74362ac5ec02f60f6f41fcb4f1f5500"}, {"lat": 38.89232233333333, "fusion_lon": 0.0, "fusion_lat": 0.0, "is_disabled": 0, "type": "electric_scooter", "lon": -77.05005083333333, "rental_uris": {"android": "https://dc.lft.to/lastmile_qr_scan", "ios": "https://dc.lft.to/lastmile_qr_scan"}, "is_reserved": 0, "bike_id": "fd2de2623180eb47c0574b49fc1863f1", "name": "fd2de2623180eb47c0574b49fc1863f1"}, {"lat": 38.9203365, "fusion_lon": 0.0, "fusion_lat": 0.0, "is_disabled": 0, "type": "electric_scooter", "lon": -77.01700466666667, "rental_uris": {"android": "https://dc.lft.to/lastmile_qr_scan", "ios": "https://dc.lft.to/lastmile_qr_scan"}, "is_reserved": 0, "bike_id": "b2e2f33509b9516708745cd7a18d073d", "name": "b2e2f33509b9516708745cd7a18d073d"}, {"lat": 38.909661166666666, "fusion_lon": 0.0, "fusion_lat": 0.0, "is_disabled": 0, "type": "electric_scooter", "lon": -77.039381, "rental_uris": {"android": "https://dc.lft.to/lastmile_qr_scan", "ios": "https://dc.lft.to/lastmile_qr_scan"}, "is_reserved": 0, "bike_id": "055fcbd78ee406a7af889efb009706f8", "name": "055fcbd78ee406a7af889efb009706f8"}, {"lat": 38.90032216666667, "fusion_lon": 0.0, "fusion_lat": 0.0, "is_disabled": 0, "type": "electric_scooter", "lon": -77.00023583333333, "rental_uris": {"android": "https://dc.lft.to/lastmile_qr_scan", "ios": "https://dc.lft.to/lastmile_qr_scan"}, "is_reserved": 0, "bike_id": "0f565fcccd9e5866c4a8c102f9649888", "name": "0f565fcccd9e5866c4a8c102f9649888"}, {"lat": 38.921838, "fusion_lon": 0.0, "fusion_lat": 0.0, "is_disabled": 0, "type": "electric_scooter", "lon": -77.03888616666667, "rental_uris": {"android": "https://dc.lft.to/lastmile_qr_scan", "ios": "https://dc.lft.to/lastmile_qr_scan"}, "is_reserved": 0, "bike_id": "5cfb97a6cbddb85b9bca93f3b32c281f", "name": "5cfb97a6cbddb85b9bca93f3b32c281f"}, {"lat": 38.9146515, "fusion_lon": 0.0, "fusion_lat": 0.0, "is_disabled": 0, "type": "electric_scooter", "lon": -77.04151516666667, "rental_uris": {"android": "https://dc.lft.to/lastmile_qr_scan", "ios": "https://dc.lft.to/lastmile_qr_scan"}, "is_reserved": 0, "bike_id": "1ae2b0177c7f5c5644e04bc635284867", "name": "1ae2b0177c7f5c5644e04bc635284867"}, {"lat": 38.911757, "fusion_lon": 0.0, "fusion_lat": 0.0, "is_disabled": 0, "type": "electric_scooter", "lon": -77.08441183333333, "rental_uris": {"android": "https://dc.lft.to/lastmile_qr_scan", "ios": "https://dc.lft.to/lastmile_qr_scan"}, "is_reserved": 0, "bike_id": "0b37f5cea0239068429a9ca93c86af30", "name": "0b37f5cea0239068429a9ca93c86af30"}, {"lat": 38.90059633333333, "fusion_lon": 0.0, "fusion_lat": 0.0, "is_disabled": 0, "type": "electric_scooter", "lon": -77.02720616666667, "rental_uris": {"android": "https://dc.lft.to/lastmile_qr_scan", "ios": "https://dc.lft.to/lastmile_qr_scan"}, "is_reserved": 0, "bike_id": "259fa18199ff4c03f79f91eebc7bfbd6", "name": "259fa18199ff4c03f79f91eebc7bfbd6"}, {"lat": 38.89890166666667, "fusion_lon": 0.0, "fusion_lat": 0.0, "is_disabled": 0, "type": "electric_scooter", "lon": -76.93157666666667, "rental_uris": {"android": "https://dc.lft.to/lastmile_qr_scan", "ios": "https://dc.lft.to/lastmile_qr_scan"}, "is_reserved": 0, "bike_id": "f5e5e12f59108f71e7e2c278398a5aaa", "name": "f5e5e12f59108f71e7e2c278398a5aaa"}, {"lat": 38.91114683333333, "fusion_lon": 0.0, "fusion_lat": 0.0, "is_disabled": 0, "type": "electric_scooter", "lon": -77.03828266666666, "rental_uris": {"android": "https://dc.lft.to/lastmile_qr_scan", "ios": "https://dc.lft.to/lastmile_qr_scan"}, "is_reserved": 0, "bike_id": "428fb84755b2b9d6e91f364eafed02ac", "name": "428fb84755b2b9d6e91f364eafed02ac"}, {"lat": 38.902373833333336, "fusion_lon": 0.0, "fusion_lat": 0.0, "is_disabled": 0, "type": "electric_scooter", "lon": -77.03431416666666, "rental_uris": {"android": "https://dc.lft.to/lastmile_qr_scan", "ios": "https://dc.lft.to/lastmile_qr_scan"}, "is_reserved": 0, "bike_id": "5ef3632e4d8069817900d01b33131b08", "name": "5ef3632e4d8069817900d01b33131b08"}, {"lat": 38.902467666666666, "fusion_lon": 0.0, "fusion_lat": 0.0, "is_disabled": 0, "type": "electric_scooter", "lon": -76.99892716666666, "rental_uris": {"android": "https://dc.lft.to/lastmile_qr_scan", "ios": "https://dc.lft.to/lastmile_qr_scan"}, "is_reserved": 0, "bike_id": "1fd3b4fe741ecbb0e8b5dd99eb409d89", "name": "1fd3b4fe741ecbb0e8b5dd99eb409d89"}, {"lat": 38.904351, "fusion_lon": 0.0, "fusion_lat": 0.0, "is_disabled": 0, "type": "electric_scooter", "lon": -77.04655733333334, "rental_uris": {"android": "https://dc.lft.to/lastmile_qr_scan", "ios": "https://dc.lft.to/lastmile_qr_scan"}, "is_reserved": 0, "bike_id": "0ce82c4a0118b3440f9123c49ecbb9ff", "name": "0ce82c4a0118b3440f9123c49ecbb9ff"}, {"lat": 38.902891833333335, "fusion_lon": 0.0, "fusion_lat": 0.0, "is_disabled": 0, "type": "electric_scooter", "lon": -76.93658416666666, "rental_uris": {"android": "https://dc.lft.to/lastmile_qr_scan", "ios": "https://dc.lft.to/lastmile_qr_scan"}, "is_reserved": 0, "bike_id": "e0e9b0ce4126e02d1748d56dbd999d6a", "name": "e0e9b0ce4126e02d1748d56dbd999d6a"}, {"lat": 38.894012000000004, "fusion_lon": 0.0, "fusion_lat": 0.0, "is_disabled": 0, "type": "electric_scooter", "lon": -77.02141633333333, "rental_uris": {"android": "https://dc.lft.to/lastmile_qr_scan", "ios": "https://dc.lft.to/lastmile_qr_scan"}, "is_reserved": 0, "bike_id": "7298055e72d8cc7abeabd8f764bb1901", "name": "7298055e72d8cc7abeabd8f764bb1901"}, {"lat": 38.907939, "fusion_lon": 0.0, "fusion_lat": 0.0, "is_disabled": 0, "type": "electric_scooter", "lon": -76.94119583333334, "rental_uris": {"android": "https://dc.lft.to/lastmile_qr_scan", "ios": "https://dc.lft.to/lastmile_qr_scan"}, "is_reserved": 0, "bike_id": "06a9bedd07602c1b80af0fdb21856fc9", "name": "06a9bedd07602c1b80af0fdb21856fc9"}, {"lat": 38.91180283333333, "fusion_lon": 0.0, "fusion_lat": 0.0, "is_disabled": 0, "type": "electric_scooter", "lon": -76.98771766666667, "rental_uris": {"android": "https://dc.lft.to/lastmile_qr_scan", "ios": "https://dc.lft.to/lastmile_qr_scan"}, "is_reserved": 0, "bike_id": "aeadc25eff7c088096d3303700f332fa", "name": "aeadc25eff7c088096d3303700f332fa"}, {"lat": 38.88740383333333, "fusion_lon": 0.0, "fusion_lat": 0.0, "is_disabled": 0, "type": "electric_scooter", "lon": -77.0239425, "rental_uris": {"android": "https://dc.lft.to/lastmile_qr_scan", "ios": "https://dc.lft.to/lastmile_qr_scan"}, "is_reserved": 0, "bike_id": "8421bae21b49a07c082cbc3bd92a15d4", "name": "8421bae21b49a07c082cbc3bd92a15d4"}, {"lat": 38.92119533333333, "fusion_lon": 0.0, "fusion_lat": 0.0, "is_disabled": 0, "type": "electric_scooter", "lon": -77.03661416666667, "rental_uris": {"android": "https://dc.lft.to/lastmile_qr_scan", "ios": "https://dc.lft.to/lastmile_qr_scan"}, "is_reserved": 0, "bike_id": "66bae37a2bafbda872984b403ae1d141", "name": "66bae37a2bafbda872984b403ae1d141"}, {"lat": 38.9142405, "fusion_lon": 0.0, "fusion_lat": 0.0, "is_disabled": 0, "type": "electric_scooter", "lon": -77.04018566666667, "rental_uris": {"android": "https://dc.lft.to/lastmile_qr_scan", "ios": "https://dc.lft.to/lastmile_qr_scan"}, "is_reserved": 0, "bike_id": "e07d37e7be8389e94910f32982e7d03f", "name": "e07d37e7be8389e94910f32982e7d03f"}, {"lat": 38.921588166666666, "fusion_lon": 0.0, "fusion_lat": 0.0, "is_disabled": 0, "type": "electric_scooter", "lon": -77.043551, "rental_uris": {"android": "https://dc.lft.to/lastmile_qr_scan", "ios": "https://dc.lft.to/lastmile_qr_scan"}, "is_reserved": 0, "bike_id": "35d9de47f917b7ba02eb6c2388776040", "name": "35d9de47f917b7ba02eb6c2388776040"}, {"lat": 38.85567066666667, "fusion_lon": 0.0, "fusion_lat": 0.0, "is_disabled": 0, "type": "electric_scooter", "lon": -76.9869155, "rental_uris": {"android": "https://dc.lft.to/lastmile_qr_scan", "ios": "https://dc.lft.to/lastmile_qr_scan"}, "is_reserved": 0, "bike_id": "c0ce6013a27f8fdb41d340ab31b2aaa6", "name": "c0ce6013a27f8fdb41d340ab31b2aaa6"}, {"lat": 38.942235833333335, "fusion_lon": 0.0, "fusion_lat": 0.0, "is_disabled": 0, "type": "electric_scooter", "lon": -77.06164416666667, "rental_uris": {"android": "https://dc.lft.to/lastmile_qr_scan", "ios": "https://dc.lft.to/lastmile_qr_scan"}, "is_reserved": 0, "bike_id": "defd24ee2adcb623768b20add530a0a0", "name": "defd24ee2adcb623768b20add530a0a0"}, {"lat": 38.888233, "fusion_lon": 0.0, "fusion_lat": 0.0, "is_disabled": 0, "type": "electric_bike", "lon": -77.1274595, "rental_uris": {"android": "https://dc.lft.to/lastmile_qr_scan", "ios": "https://dc.lft.to/lastmile_qr_scan"}, "is_reserved": 0, "bike_id": "9f4164608b7a2de43df3af7e8a48039b", "name": "9f4164608b7a2de43df3af7e8a48039b"}, {"lat": 38.90276683333333, "fusion_lon": 0.0, "fusion_lat": 0.0, "is_disabled": 0, "type": "electric_scooter", "lon": -77.02638883333333, "rental_uris": {"android": "https://dc.lft.to/lastmile_qr_scan", "ios": "https://dc.lft.to/lastmile_qr_scan"}, "is_reserved": 0, "bike_id": "6cb4b9171b947bc8ac1487ecbeff360a", "name": "6cb4b9171b947bc8ac1487ecbeff360a"}, {"lat": 38.903940166666665, "fusion_lon": 0.0, "fusion_lat": 0.0, "is_disabled": 0, "type": "electric_scooter", "lon": -77.04332183333334, "rental_uris": {"android": "https://dc.lft.to/lastmile_qr_scan", "ios": "https://dc.lft.to/lastmile_qr_scan"}, "is_reserved": 0, "bike_id": "f47a444961275f028220d81f51d3acbb", "name": "f47a444961275f028220d81f51d3acbb"}, {"lat": 38.905742833333335, "fusion_lon": 0.0, "fusion_lat": 0.0, "is_disabled": 0, "type": "electric_scooter", "lon": -77.00594466666666, "rental_uris": {"android": "https://dc.lft.to/lastmile_qr_scan", "ios": "https://dc.lft.to/lastmile_qr_scan"}, "is_reserved": 0, "bike_id": "def67d64b90de2ad361a564fb1f4903a", "name": "def67d64b90de2ad361a564fb1f4903a"}, {"lat": 38.9087305, "fusion_lon": 0.0, "fusion_lat": 0.0, "is_disabled": 0, "type": "electric_scooter", "lon": -77.02372816666667, "rental_uris": {"android": "https://dc.lft.to/lastmile_qr_scan", "ios": "https://dc.lft.to/lastmile_qr_scan"}, "is_reserved": 0, "bike_id": "051500033075e8a405f0b6b9d1b97fb9", "name": "051500033075e8a405f0b6b9d1b97fb9"}, {"lat": 38.89402033333333, "fusion_lon": 0.0, "fusion_lat": 0.0, "is_disabled": 0, "type": "electric_scooter", "lon": -77.0321005, "rental_uris": {"android": "https://dc.lft.to/lastmile_qr_scan", "ios": "https://dc.lft.to/lastmile_qr_scan"}, "is_reserved": 0, "bike_id": "23303afaa1a35ac517f2469018fdb260", "name": "23303afaa1a35ac517f2469018fdb260"}, {"lat": 38.84116183333333, "fusion_lon": 0.0, "fusion_lat": 0.0, "is_disabled": 0, "type": "electric_bike", "lon": -77.09028383333333, "rental_uris": {"android": "https://dc.lft.to/lastmile_qr_scan", "ios": "https://dc.lft.to/lastmile_qr_scan"}, "is_reserved": 0, "bike_id": "45361653add0e5da55ab088587cba826", "name": "45361653add0e5da55ab088587cba826"}, {"lat": 38.90510283333333, "fusion_lon": 0.0, "fusion_lat": 0.0, "is_disabled": 0, "type": "electric_scooter", "lon": -77.0666475, "rental_uris": {"android": "https://dc.lft.to/lastmile_qr_scan", "ios": "https://dc.lft.to/lastmile_qr_scan"}, "is_reserved": 0, "bike_id": "e1b2a97d4c1aa4b47586670e1e83717a", "name": "e1b2a97d4c1aa4b47586670e1e83717a"}, {"lat": 38.95498283333333, "fusion_lon": 0.0, "fusion_lat": 0.0, "is_disabled": 0, "type": "electric_scooter", "lon": -77.03648516666667, "rental_uris": {"android": "https://dc.lft.to/lastmile_qr_scan", "ios": "https://dc.lft.to/lastmile_qr_scan"}, "is_reserved": 0, "bike_id": "a5541a40acf344e5a2af23897cfb8031", "name": "a5541a40acf344e5a2af23897cfb8031"}, {"lat": 38.9058125, "fusion_lon": 0.0, "fusion_lat": 0.0, "is_disabled": 0, "type": "electric_scooter", "lon": -77.04896766666667, "rental_uris": {"android": "https://dc.lft.to/lastmile_qr_scan", "ios": "https://dc.lft.to/lastmile_qr_scan"}, "is_reserved": 0, "bike_id": "b0c89e0075791e99cc6ece7f5ca589b3", "name": "b0c89e0075791e99cc6ece7f5ca589b3"}, {"lat": 39.094593, "fusion_lon": 0.0, "fusion_lat": 0.0, "is_disabled": 0, "type": "electric_bike", "lon": -77.14987716666667, "rental_uris": {"android": "https://dc.lft.to/lastmile_qr_scan", "ios": "https://dc.lft.to/lastmile_qr_scan"}, "is_reserved": 0, "bike_id": "fd454a06db6e6565eaa257a59cb3f799", "name": "fd454a06db6e6565eaa257a59cb3f799"}, {"lat": 38.875331333333335, "fusion_lon": 0.0, "fusion_lat": 0.0, "is_disabled": 0, "type": "electric_bike", "lon": -77.19908283333334, "rental_uris": {"android": "https://dc.lft.to/lastmile_qr_scan", "ios": "https://dc.lft.to/lastmile_qr_scan"}, "is_reserved": 0, "bike_id": "8602845e13680cda0384585530416ed7", "name": "8602845e13680cda0384585530416ed7"}, {"lat": 38.92747683333333, "fusion_lon": 0.0, "fusion_lat": 0.0, "is_disabled": 0, "type": "electric_scooter", "lon": -77.03331683333333, "rental_uris": {"android": "https://dc.lft.to/lastmile_qr_scan", "ios": "https://dc.lft.to/lastmile_qr_scan"}, "is_reserved": 0, "bike_id": "f00a2bc8d1911b1879c17e2c99f01a17", "name": "f00a2bc8d1911b1879c17e2c99f01a17"}, {"lat": 38.881471166666664, "fusion_lon": 0.0, "fusion_lat": 0.0, "is_disabled": 0, "type": "electric_scooter", "lon": -77.02708716666666, "rental_uris": {"android": "https://dc.lft.to/lastmile_qr_scan", "ios": "https://dc.lft.to/lastmile_qr_scan"}, "is_reserved": 0, "bike_id": "1155b35c760e58834e0b340a1ca7a076", "name": "1155b35c760e58834e0b340a1ca7a076"}, {"lat": 38.891587333333334, "fusion_lon": 0.0, "fusion_lat": 0.0, "is_disabled": 0, "type": "electric_scooter", "lon": -77.0034845, "rental_uris": {"android": "https://dc.lft.to/lastmile_qr_scan", "ios": "https://dc.lft.to/lastmile_qr_scan"}, "is_reserved": 0, "bike_id": "7ec00527c07d04f49b765c7e32ef4cb2", "name": "7ec00527c07d04f49b765c7e32ef4cb2"}, {"lat": 38.9095025, "fusion_lon": 0.0, "fusion_lat": 0.0, "is_disabled": 0, "type": "electric_scooter", "lon": -77.03203916666666, "rental_uris": {"android": "https://dc.lft.to/lastmile_qr_scan", "ios": "https://dc.lft.to/lastmile_qr_scan"}, "is_reserved": 0, "bike_id": "89c014b86ec9d1501092872a652cd044", "name": "89c014b86ec9d1501092872a652cd044"}, {"lat": 38.89220733333333, "fusion_lon": 0.0, "fusion_lat": 0.0, "is_disabled": 0, "type": "electric_scooter", "lon": -77.02842716666666, "rental_uris": {"android": "https://dc.lft.to/lastmile_qr_scan", "ios": "https://dc.lft.to/lastmile_qr_scan"}, "is_reserved": 0, "bike_id": "27860bce1656a26b9260076d1bdc9624", "name": "27860bce1656a26b9260076d1bdc9624"}, {"lat": 38.919392333333334, "fusion_lon": 0.0, "fusion_lat": 0.0, "is_disabled": 0, "type": "electric_bike", "lon": -76.97504083333334, "rental_uris": {"android": "https://dc.lft.to/lastmile_qr_scan", "ios": "https://dc.lft.to/lastmile_qr_scan"}, "is_reserved": 0, "bike_id": "ce992434223f2f9a5352a74e2415b7a1", "name": "ce992434223f2f9a5352a74e2415b7a1"}, {"lat": 38.904493333333335, "fusion_lon": 0.0, "fusion_lat": 0.0, "is_disabled": 0, "type": "electric_scooter", "lon": -76.9755895, "rental_uris": {"android": "https://dc.lft.to/lastmile_qr_scan", "ios": "https://dc.lft.to/lastmile_qr_scan"}, "is_reserved": 0, "bike_id": "65d9c9331137b615816118f5b50ccc75", "name": "65d9c9331137b615816118f5b50ccc75"}, {"lat": 38.886033166666664, "fusion_lon": 0.0, "fusion_lat": 0.0, "is_disabled": 0, "type": "electric_scooter", "lon": -77.01817633333333, "rental_uris": {"android": "https://dc.lft.to/lastmile_qr_scan", "ios": "https://dc.lft.to/lastmile_qr_scan"}, "is_reserved": 0, "bike_id": "a7189a1bc4cc56319c1223133f3fe6db", "name": "a7189a1bc4cc56319c1223133f3fe6db"}, {"lat": 38.91723416666667, "fusion_lon": 0.0, "fusion_lat": 0.0, "is_disabled": 0, "type": "electric_scooter", "lon": -77.02817466666667, "rental_uris": {"android": "https://dc.lft.to/lastmile_qr_scan", "ios": "https://dc.lft.to/lastmile_qr_scan"}, "is_reserved": 0, "bike_id": "157c18fc4ccb29b4b3f6160b0e4235b6", "name": "157c18fc4ccb29b4b3f6160b0e4235b6"}, {"lat": 38.8084755, "fusion_lon": 0.0, "fusion_lat": 0.0, "is_disabled": 0, "type": "electric_bike", "lon": -77.08368583333333, "rental_uris": {"android": "https://dc.lft.to/lastmile_qr_scan", "ios": "https://dc.lft.to/lastmile_qr_scan"}, "is_reserved": 0, "bike_id": "c67dddf4d6fe86809363c1b66e28dc80", "name": "c67dddf4d6fe86809363c1b66e28dc80"}, {"lat": 38.919260333333334, "fusion_lon": 0.0, "fusion_lat": 0.0, "is_disabled": 0, "type": "electric_scooter", "lon": -77.04489366666667, "rental_uris": {"android": "https://dc.lft.to/lastmile_qr_scan", "ios": "https://dc.lft.to/lastmile_qr_scan"}, "is_reserved": 0, "bike_id": "a68b0fa99411cf5eccdeedde38d0f296", "name": "a68b0fa99411cf5eccdeedde38d0f296"}, {"lat": 38.93116416666667, "fusion_lon": 0.0, "fusion_lat": 0.0, "is_disabled": 0, "type": "electric_scooter", "lon": -77.03031816666666, "rental_uris": {"android": "https://dc.lft.to/lastmile_qr_scan", "ios": "https://dc.lft.to/lastmile_qr_scan"}, "is_reserved": 0, "bike_id": "33fbacec91d38c23d73406c258c205c1", "name": "33fbacec91d38c23d73406c258c205c1"}, {"lat": 38.90031666666667, "fusion_lon": 0.0, "fusion_lat": 0.0, "is_disabled": 0, "type": "electric_scooter", "lon": -76.98776933333333, "rental_uris": {"android": "https://dc.lft.to/lastmile_qr_scan", "ios": "https://dc.lft.to/lastmile_qr_scan"}, "is_reserved": 0, "bike_id": "6d38fd3760387b4919264a9f2cc7920b", "name": "6d38fd3760387b4919264a9f2cc7920b"}, {"lat": 38.862462666666666, "fusion_lon": 0.0, "fusion_lat": 0.0, "is_disabled": 0, "type": "electric_scooter", "lon": -76.99493433333333, "rental_uris": {"android": "https://dc.lft.to/lastmile_qr_scan", "ios": "https://dc.lft.to/lastmile_qr_scan"}, "is_reserved": 0, "bike_id": "5db584aadfeb1c65319f222ec23f3750", "name": "5db584aadfeb1c65319f222ec23f3750"}, {"lat": 38.900089666666666, "fusion_lon": 0.0, "fusion_lat": 0.0, "is_disabled": 0, "type": "electric_scooter", "lon": -77.00151333333334, "rental_uris": {"android": "https://dc.lft.to/lastmile_qr_scan", "ios": "https://dc.lft.to/lastmile_qr_scan"}, "is_reserved": 0, "bike_id": "b17f6ad7df3a3510bba4bba773c40902", "name": "b17f6ad7df3a3510bba4bba773c40902"}, {"lat": 38.90965, "fusion_lon": 0.0, "fusion_lat": 0.0, "is_disabled": 0, "type": "electric_scooter", "lon": -77.02384466666666, "rental_uris": {"android": "https://dc.lft.to/lastmile_qr_scan", "ios": "https://dc.lft.to/lastmile_qr_scan"}, "is_reserved": 0, "bike_id": "b9f3921da35d79c3bcf2bd77727cfe1d", "name": "b9f3921da35d79c3bcf2bd77727cfe1d"}, {"lat": 38.89221933333334, "fusion_lon": 0.0, "fusion_lat": 0.0, "is_disabled": 0, "type": "electric_scooter", "lon": -77.03221533333334, "rental_uris": {"android": "https://dc.lft.to/lastmile_qr_scan", "ios": "https://dc.lft.to/lastmile_qr_scan"}, "is_reserved": 0, "bike_id": "c7dbb68057a8c220d50aa4013b6d77e7", "name": "c7dbb68057a8c220d50aa4013b6d77e7"}, {"lat": 38.91617316666667, "fusion_lon": 0.0, "fusion_lat": 0.0, "is_disabled": 0, "type": "electric_scooter", "lon": -77.03223033333333, "rental_uris": {"android": "https://dc.lft.to/lastmile_qr_scan", "ios": "https://dc.lft.to/lastmile_qr_scan"}, "is_reserved": 0, "bike_id": "32c0e5c49f09068a1a163b3c5ee3e2c4", "name": "32c0e5c49f09068a1a163b3c5ee3e2c4"}, {"lat": 38.9033375, "fusion_lon": 0.0, "fusion_lat": 0.0, "is_disabled": 0, "type": "electric_scooter", "lon": -77.033494, "rental_uris": {"android": "https://dc.lft.to/lastmile_qr_scan", "ios": "https://dc.lft.to/lastmile_qr_scan"}, "is_reserved": 0, "bike_id": "6701fb58afe19657f411c88b8a1cfef5", "name": "6701fb58afe19657f411c88b8a1cfef5"}, {"lat": 38.91501233333334, "fusion_lon": 0.0, "fusion_lat": 0.0, "is_disabled": 0, "type": "electric_scooter", "lon": -77.01380116666667, "rental_uris": {"android": "https://dc.lft.to/lastmile_qr_scan", "ios": "https://dc.lft.to/lastmile_qr_scan"}, "is_reserved": 0, "bike_id": "343f050ec3315c933fe3d8923a6ff055", "name": "343f050ec3315c933fe3d8923a6ff055"}, {"lat": 38.930660833333334, "fusion_lon": 0.0, "fusion_lat": 0.0, "is_disabled": 0, "type": "electric_scooter", "lon": -77.04184283333333, "rental_uris": {"android": "https://dc.lft.to/lastmile_qr_scan", "ios": "https://dc.lft.to/lastmile_qr_scan"}, "is_reserved": 0, "bike_id": "ae7c6b3ff1915745f0400f9e402e819b", "name": "ae7c6b3ff1915745f0400f9e402e819b"}, {"lat": 38.89900883333333, "fusion_lon": 0.0, "fusion_lat": 0.0, "is_disabled": 0, "type": "electric_scooter", "lon": -77.01040533333334, "rental_uris": {"android": "https://dc.lft.to/lastmile_qr_scan", "ios": "https://dc.lft.to/lastmile_qr_scan"}, "is_reserved": 0, "bike_id": "04ac4a71a4ac4b917ff8331386787335", "name": "04ac4a71a4ac4b917ff8331386787335"}, {"lat": 38.905624833333334, "fusion_lon": 0.0, "fusion_lat": 0.0, "is_disabled": 0, "type": "electric_scooter", "lon": -77.02490883333333, "rental_uris": {"android": "https://dc.lft.to/lastmile_qr_scan", "ios": "https://dc.lft.to/lastmile_qr_scan"}, "is_reserved": 0, "bike_id": "b15ea738459367d70800d630425424e0", "name": "b15ea738459367d70800d630425424e0"}, {"lat": 38.854411999999996, "fusion_lon": 0.0, "fusion_lat": 0.0, "is_disabled": 0, "type": "electric_bike", "lon": -76.90984233333333, "rental_uris": {"android": "https://dc.lft.to/lastmile_qr_scan", "ios": "https://dc.lft.to/lastmile_qr_scan"}, "is_reserved": 0, "bike_id": "74afdc0505aabbfeb362d8e7a6e68f48", "name": "74afdc0505aabbfeb362d8e7a6e68f48"}, {"lat": 38.88506266666667, "fusion_lon": 0.0, "fusion_lat": 0.0, "is_disabled": 0, "type": "electric_scooter", "lon": -77.00569583333333, "rental_uris": {"android": "https://dc.lft.to/lastmile_qr_scan", "ios": "https://dc.lft.to/lastmile_qr_scan"}, "is_reserved": 0, "bike_id": "f1f8ca66fb922dda1603241cb810abdf", "name": "f1f8ca66fb922dda1603241cb810abdf"}, {"lat": 38.926436833333334, "fusion_lon": 0.0, "fusion_lat": 0.0, "is_disabled": 0, "type": "electric_scooter", "lon": -77.03699566666667, "rental_uris": {"android": "https://dc.lft.to/lastmile_qr_scan", "ios": "https://dc.lft.to/lastmile_qr_scan"}, "is_reserved": 0, "bike_id": "80b297d6781d08d3755658b6d032a5a1", "name": "80b297d6781d08d3755658b6d032a5a1"}, {"lat": 38.962120166666665, "fusion_lon": 0.0, "fusion_lat": 0.0, "is_disabled": 0, "type": "electric_scooter", "lon": -77.02344933333333, "rental_uris": {"android": "https://dc.lft.to/lastmile_qr_scan", "ios": "https://dc.lft.to/lastmile_qr_scan"}, "is_reserved": 0, "bike_id": "d0b9f35ad22973c44e7f48850edd82ef", "name": "d0b9f35ad22973c44e7f48850edd82ef"}, {"lat": 38.91913616666667, "fusion_lon": 0.0, "fusion_lat": 0.0, "is_disabled": 0, "type": "electric_scooter", "lon": -77.078656, "rental_uris": {"android": "https://dc.lft.to/lastmile_qr_scan", "ios": "https://dc.lft.to/lastmile_qr_scan"}, "is_reserved": 0, "bike_id": "70c74b63fa6f2cfa7113169e40d932a6", "name": "70c74b63fa6f2cfa7113169e40d932a6"}, {"lat": 38.923195666666665, "fusion_lon": 0.0, "fusion_lat": 0.0, "is_disabled": 0, "type": "electric_scooter", "lon": -77.02960816666666, "rental_uris": {"android": "https://dc.lft.to/lastmile_qr_scan", "ios": "https://dc.lft.to/lastmile_qr_scan"}, "is_reserved": 0, "bike_id": "48dccbf4bec4ce87b2842c29feecfa94", "name": "48dccbf4bec4ce87b2842c29feecfa94"}, {"lat": 38.90399566666667, "fusion_lon": 0.0, "fusion_lat": 0.0, "is_disabled": 0, "type": "electric_scooter", "lon": -77.04354916666666, "rental_uris": {"android": "https://dc.lft.to/lastmile_qr_scan", "ios": "https://dc.lft.to/lastmile_qr_scan"}, "is_reserved": 0, "bike_id": "bfc162b4a771b2c52ac127946388cc5c", "name": "bfc162b4a771b2c52ac127946388cc5c"}, {"lat": 38.899823833333336, "fusion_lon": 0.0, "fusion_lat": 0.0, "is_disabled": 0, "type": "electric_scooter", "lon": -77.02508566666667, "rental_uris": {"android": "https://dc.lft.to/lastmile_qr_scan", "ios": "https://dc.lft.to/lastmile_qr_scan"}, "is_reserved": 0, "bike_id": "5113988c3ac28e457c750c2a7b8315fb", "name": "5113988c3ac28e457c750c2a7b8315fb"}, {"lat": 38.921268833333336, "fusion_lon": 0.0, "fusion_lat": 0.0, "is_disabled": 0, "type": "electric_scooter", "lon": -77.04357433333334, "rental_uris": {"android": "https://dc.lft.to/lastmile_qr_scan", "ios": "https://dc.lft.to/lastmile_qr_scan"}, "is_reserved": 0, "bike_id": "4f7045d39ade6dae5cba987973293dcb", "name": "4f7045d39ade6dae5cba987973293dcb"}, {"lat": 38.903782, "fusion_lon": 0.0, "fusion_lat": 0.0, "is_disabled": 0, "type": "electric_scooter", "lon": -77.03567483333333, "rental_uris": {"android": "https://dc.lft.to/lastmile_qr_scan", "ios": "https://dc.lft.to/lastmile_qr_scan"}, "is_reserved": 0, "bike_id": "69a93d79568af04264677f0c7488de9a", "name": "69a93d79568af04264677f0c7488de9a"}, {"lat": 38.9215775, "fusion_lon": 0.0, "fusion_lat": 0.0, "is_disabled": 0, "type": "electric_scooter", "lon": -77.03505333333334, "rental_uris": {"android": "https://dc.lft.to/lastmile_qr_scan", "ios": "https://dc.lft.to/lastmile_qr_scan"}, "is_reserved": 0, "bike_id": "4465375266fcbf2413533fe2e9a61b40", "name": "4465375266fcbf2413533fe2e9a61b40"}, {"lat": 38.915601833333334, "fusion_lon": 0.0, "fusion_lat": 0.0, "is_disabled": 0, "type": "electric_scooter", "lon": -77.00593416666666, "rental_uris": {"android": "https://dc.lft.to/lastmile_qr_scan", "ios": "https://dc.lft.to/lastmile_qr_scan"}, "is_reserved": 0, "bike_id": "d922b4c4e60f155d399f843242797ba8", "name": "d922b4c4e60f155d399f843242797ba8"}, {"lat": 38.86242583333333, "fusion_lon": 0.0, "fusion_lat": 0.0, "is_disabled": 0, "type": "electric_scooter", "lon": -76.99473366666666, "rental_uris": {"android": "https://dc.lft.to/lastmile_qr_scan", "ios": "https://dc.lft.to/lastmile_qr_scan"}, "is_reserved": 0, "bike_id": "5919f9395234e3ecfffd70aec7d4daf4", "name": "5919f9395234e3ecfffd70aec7d4daf4"}, {"lat": 38.922211, "fusion_lon": 0.0, "fusion_lat": 0.0, "is_disabled": 0, "type": "electric_scooter", "lon": -77.0433115, "rental_uris": {"android": "https://dc.lft.to/lastmile_qr_scan", "ios": "https://dc.lft.to/lastmile_qr_scan"}, "is_reserved": 0, "bike_id": "406a7777cde44961e35105f04d4edf2b", "name": "406a7777cde44961e35105f04d4edf2b"}, {"lat": 39.024201166666664, "fusion_lon": 0.0, "fusion_lat": 0.0, "is_disabled": 0, "type": "electric_bike", "lon": -77.1250845, "rental_uris": {"android": "https://dc.lft.to/lastmile_qr_scan", "ios": "https://dc.lft.to/lastmile_qr_scan"}, "is_reserved": 0, "bike_id": "5601b8534c15c9dd5f74abca575a6bcc", "name": "5601b8534c15c9dd5f74abca575a6bcc"}, {"lat": 38.890151, "fusion_lon": 0.0, "fusion_lat": 0.0, "is_disabled": 0, "type": "electric_scooter", "lon": -76.9384105, "rental_uris": {"android": "https://dc.lft.to/lastmile_qr_scan", "ios": "https://dc.lft.to/lastmile_qr_scan"}, "is_reserved": 0, "bike_id": "ccd21a5f3e8e6d91285bffb6cbcc12f7", "name": "ccd21a5f3e8e6d91285bffb6cbcc12f7"}, {"lat": 38.904483166666665, "fusion_lon": 0.0, "fusion_lat": 0.0, "is_disabled": 0, "type": "electric_scooter", "lon": -77.020013, "rental_uris": {"android": "https://dc.lft.to/lastmile_qr_scan", "ios": "https://dc.lft.to/lastmile_qr_scan"}, "is_reserved": 0, "bike_id": "bcdfd755c92c2a81b5586ae3eab5161c", "name": "bcdfd755c92c2a81b5586ae3eab5161c"}, {"lat": 38.877365833333336, "fusion_lon": 0.0, "fusion_lat": 0.0, "is_disabled": 0, "type": "electric_scooter", "lon": -77.006882, "rental_uris": {"android": "https://dc.lft.to/lastmile_qr_scan", "ios": "https://dc.lft.to/lastmile_qr_scan"}, "is_reserved": 0, "bike_id": "91bbd77522bd3b50ccb7322d1097c519", "name": "91bbd77522bd3b50ccb7322d1097c519"}, {"lat": 38.908798833333336, "fusion_lon": 0.0, "fusion_lat": 0.0, "is_disabled": 0, "type": "electric_scooter", "lon": -77.04355866666667, "rental_uris": {"android": "https://dc.lft.to/lastmile_qr_scan", "ios": "https://dc.lft.to/lastmile_qr_scan"}, "is_reserved": 0, "bike_id": "d039891007add35076417223ea38a417", "name": "d039891007add35076417223ea38a417"}, {"lat": 38.91662316666667, "fusion_lon": 0.0, "fusion_lat": 0.0, "is_disabled": 0, "type": "electric_scooter", "lon": -77.02540466666666, "rental_uris": {"android": "https://dc.lft.to/lastmile_qr_scan", "ios": "https://dc.lft.to/lastmile_qr_scan"}, "is_reserved": 0, "bike_id": "9d248fc4b0e563bd20dd9a3e1f61d361", "name": "9d248fc4b0e563bd20dd9a3e1f61d361"}, {"lat": 38.90007416666667, "fusion_lon": 0.0, "fusion_lat": 0.0, "is_disabled": 0, "type": "electric_scooter", "lon": -77.046494, "rental_uris": {"android": "https://dc.lft.to/lastmile_qr_scan", "ios": "https://dc.lft.to/lastmile_qr_scan"}, "is_reserved": 0, "bike_id": "0d4d24c0d6a6943ad3fd7d00cfd97f60", "name": "0d4d24c0d6a6943ad3fd7d00cfd97f60"}, {"lat": 38.861659833333334, "fusion_lon": 0.0, "fusion_lat": 0.0, "is_disabled": 0, "type": "electric_bike", "lon": -77.130944, "rental_uris": {"android": "https://dc.lft.to/lastmile_qr_scan", "ios": "https://dc.lft.to/lastmile_qr_scan"}, "is_reserved": 0, "bike_id": "8f3216eaf8101c6c2cf4aec2a45f565e", "name": "8f3216eaf8101c6c2cf4aec2a45f565e"}, {"lat": 38.8974265, "fusion_lon": 0.0, "fusion_lat": 0.0, "is_disabled": 0, "type": "electric_scooter", "lon": -77.0316725, "rental_uris": {"android": "https://dc.lft.to/lastmile_qr_scan", "ios": "https://dc.lft.to/lastmile_qr_scan"}, "is_reserved": 0, "bike_id": "9858ea713b0555fe3a1f9354e771d15c", "name": "9858ea713b0555fe3a1f9354e771d15c"}, {"lat": 38.88732016666667, "fusion_lon": 0.0, "fusion_lat": 0.0, "is_disabled": 0, "type": "electric_scooter", "lon": -77.0316975, "rental_uris": {"android": "https://dc.lft.to/lastmile_qr_scan", "ios": "https://dc.lft.to/lastmile_qr_scan"}, "is_reserved": 0, "bike_id": "593d802f864cb7a7841679995b5c3ce4", "name": "593d802f864cb7a7841679995b5c3ce4"}, {"lat": 38.9094265, "fusion_lon": 0.0, "fusion_lat": 0.0, "is_disabled": 0, "type": "electric_scooter", "lon": -76.99929233333333, "rental_uris": {"android": "https://dc.lft.to/lastmile_qr_scan", "ios": "https://dc.lft.to/lastmile_qr_scan"}, "is_reserved": 0, "bike_id": "a565a233d1be7f1a9e0260963176b0f6", "name": "a565a233d1be7f1a9e0260963176b0f6"}, {"lat": 38.9220125, "fusion_lon": 0.0, "fusion_lat": 0.0, "is_disabled": 0, "type": "electric_scooter", "lon": -77.04262533333333, "rental_uris": {"android": "https://dc.lft.to/lastmile_qr_scan", "ios": "https://dc.lft.to/lastmile_qr_scan"}, "is_reserved": 0, "bike_id": "b06ec849c5385ea2b64e6b87b4d76778", "name": "b06ec849c5385ea2b64e6b87b4d76778"}, {"lat": 38.9215865, "fusion_lon": 0.0, "fusion_lat": 0.0, "is_disabled": 0, "type": "electric_scooter", "lon": -77.03508433333333, "rental_uris": {"android": "https://dc.lft.to/lastmile_qr_scan", "ios": "https://dc.lft.to/lastmile_qr_scan"}, "is_reserved": 0, "bike_id": "1a0ddd122e3b2d5bcd53dcafcfc8d555", "name": "1a0ddd122e3b2d5bcd53dcafcfc8d555"}, {"lat": 38.938535333333334, "fusion_lon": 0.0, "fusion_lat": 0.0, "is_disabled": 0, "type": "electric_scooter", "lon": -77.02471083333333, "rental_uris": {"android": "https://dc.lft.to/lastmile_qr_scan", "ios": "https://dc.lft.to/lastmile_qr_scan"}, "is_reserved": 0, "bike_id": "3b6b00f2da09b5cf770f55908fad2e32", "name": "3b6b00f2da09b5cf770f55908fad2e32"}, {"lat": 38.9329645, "fusion_lon": 0.0, "fusion_lat": 0.0, "is_disabled": 0, "type": "electric_scooter", "lon": -77.02440883333334, "rental_uris": {"android": "https://dc.lft.to/lastmile_qr_scan", "ios": "https://dc.lft.to/lastmile_qr_scan"}, "is_reserved": 0, "bike_id": "779c8bdda19a9277ddb9f72051ac1f0e", "name": "779c8bdda19a9277ddb9f72051ac1f0e"}, {"lat": 38.86245816666667, "fusion_lon": 0.0, "fusion_lat": 0.0, "is_disabled": 0, "type": "electric_scooter", "lon": -76.99492466666666, "rental_uris": {"android": "https://dc.lft.to/lastmile_qr_scan", "ios": "https://dc.lft.to/lastmile_qr_scan"}, "is_reserved": 0, "bike_id": "f632908859934629ed8eac7254cbba18", "name": "f632908859934629ed8eac7254cbba18"}, {"lat": 38.873381333333334, "fusion_lon": 0.0, "fusion_lat": 0.0, "is_disabled": 0, "type": "electric_scooter", "lon": -77.00882333333334, "rental_uris": {"android": "https://dc.lft.to/lastmile_qr_scan", "ios": "https://dc.lft.to/lastmile_qr_scan"}, "is_reserved": 0, "bike_id": "46a24b7feb5a03d2ce8b8fb9a352f141", "name": "46a24b7feb5a03d2ce8b8fb9a352f141"}, {"lat": 38.905291, "fusion_lon": 0.0, "fusion_lat": 0.0, "is_disabled": 0, "type": "electric_scooter", "lon": -77.06139183333333, "rental_uris": {"android": "https://dc.lft.to/lastmile_qr_scan", "ios": "https://dc.lft.to/lastmile_qr_scan"}, "is_reserved": 0, "bike_id": "cf99396c7c5436a7ec15e514449b53d3", "name": "cf99396c7c5436a7ec15e514449b53d3"}, {"lat": 38.892227, "fusion_lon": 0.0, "fusion_lat": 0.0, "is_disabled": 0, "type": "electric_scooter", "lon": -77.02716266666667, "rental_uris": {"android": "https://dc.lft.to/lastmile_qr_scan", "ios": "https://dc.lft.to/lastmile_qr_scan"}, "is_reserved": 0, "bike_id": "d89856e58f5d5fc1ad1ac423035c29cb", "name": "d89856e58f5d5fc1ad1ac423035c29cb"}, {"lat": 38.92409933333333, "fusion_lon": 0.0, "fusion_lat": 0.0, "is_disabled": 0, "type": "electric_scooter", "lon": -77.04037, "rental_uris": {"android": "https://dc.lft.to/lastmile_qr_scan", "ios": "https://dc.lft.to/lastmile_qr_scan"}, "is_reserved": 0, "bike_id": "cfa7559af2d3940739b3ece79c92292c", "name": "cfa7559af2d3940739b3ece79c92292c"}, {"lat": 38.93060916666667, "fusion_lon": 0.0, "fusion_lat": 0.0, "is_disabled": 0, "type": "electric_scooter", "lon": -77.02806783333334, "rental_uris": {"android": "https://dc.lft.to/lastmile_qr_scan", "ios": "https://dc.lft.to/lastmile_qr_scan"}, "is_reserved": 0, "bike_id": "c740df578bff4e8f1e6e502cfb129f45", "name": "c740df578bff4e8f1e6e502cfb129f45"}, {"lat": 38.890790833333334, "fusion_lon": 0.0, "fusion_lat": 0.0, "is_disabled": 0, "type": "electric_scooter", "lon": -76.9191615, "rental_uris": {"android": "https://dc.lft.to/lastmile_qr_scan", "ios": "https://dc.lft.to/lastmile_qr_scan"}, "is_reserved": 0, "bike_id": "c8b5572920605e2ad3d866fda00958a3", "name": "c8b5572920605e2ad3d866fda00958a3"}, {"lat": 38.900614833333336, "fusion_lon": 0.0, "fusion_lat": 0.0, "is_disabled": 0, "type": "electric_scooter", "lon": -77.04857816666667, "rental_uris": {"android": "https://dc.lft.to/lastmile_qr_scan", "ios": "https://dc.lft.to/lastmile_qr_scan"}, "is_reserved": 0, "bike_id": "0d3077bccd9d964fe08e4307e16a59c9", "name": "0d3077bccd9d964fe08e4307e16a59c9"}, {"lat": 38.898930166666666, "fusion_lon": 0.0, "fusion_lat": 0.0, "is_disabled": 0, "type": "electric_scooter", "lon": -76.99657016666667, "rental_uris": {"android": "https://dc.lft.to/lastmile_qr_scan", "ios": "https://dc.lft.to/lastmile_qr_scan"}, "is_reserved": 0, "bike_id": "ba811f84641df129a9aae1bc5cb04e56", "name": "ba811f84641df129a9aae1bc5cb04e56"}, {"lat": 38.9369725, "fusion_lon": 0.0, "fusion_lat": 0.0, "is_disabled": 0, "type": "electric_bike", "lon": -76.99058133333334, "rental_uris": {"android": "https://dc.lft.to/lastmile_qr_scan", "ios": "https://dc.lft.to/lastmile_qr_scan"}, "is_reserved": 0, "bike_id": "4dc85bf4be3d5bcaebc2996285643d37", "name": "4dc85bf4be3d5bcaebc2996285643d37"}, {"lat": 38.904155, "fusion_lon": 0.0, "fusion_lat": 0.0, "is_disabled": 0, "type": "electric_scooter", "lon": -77.04873316666666, "rental_uris": {"android": "https://dc.lft.to/lastmile_qr_scan", "ios": "https://dc.lft.to/lastmile_qr_scan"}, "is_reserved": 0, "bike_id": "2d086400f19d2b656d1e28b323f369d6", "name": "2d086400f19d2b656d1e28b323f369d6"}, {"lat": 38.9171025, "fusion_lon": 0.0, "fusion_lat": 0.0, "is_disabled": 0, "type": "electric_scooter", "lon": -77.05303633333334, "rental_uris": {"android": "https://dc.lft.to/lastmile_qr_scan", "ios": "https://dc.lft.to/lastmile_qr_scan"}, "is_reserved": 0, "bike_id": "cb7b23db8e1aa4b6a45052685f150c78", "name": "cb7b23db8e1aa4b6a45052685f150c78"}, {"lat": 38.8980445, "fusion_lon": 0.0, "fusion_lat": 0.0, "is_disabled": 0, "type": "electric_bike", "lon": -77.00596483333334, "rental_uris": {"android": "https://dc.lft.to/lastmile_qr_scan", "ios": "https://dc.lft.to/lastmile_qr_scan"}, "is_reserved": 0, "bike_id": "c33306847324d612527c1fa8a8c78cdf", "name": "c33306847324d612527c1fa8a8c78cdf"}, {"lat": 38.919298, "fusion_lon": 0.0, "fusion_lat": 0.0, "is_disabled": 0, "type": "electric_scooter", "lon": -77.03119266666667, "rental_uris": {"android": "https://dc.lft.to/lastmile_qr_scan", "ios": "https://dc.lft.to/lastmile_qr_scan"}, "is_reserved": 0, "bike_id": "f829f61f6a37bbd7fb4d84a54c9df918", "name": "f829f61f6a37bbd7fb4d84a54c9df918"}, {"lat": 38.89694016666667, "fusion_lon": 0.0, "fusion_lat": 0.0, "is_disabled": 0, "type": "electric_bike", "lon": -77.08855483333333, "rental_uris": {"android": "https://dc.lft.to/lastmile_qr_scan", "ios": "https://dc.lft.to/lastmile_qr_scan"}, "is_reserved": 0, "bike_id": "878e2579b68b3d22529227ad284d6189", "name": "878e2579b68b3d22529227ad284d6189"}, {"lat": 38.87725616666667, "fusion_lon": 0.0, "fusion_lat": 0.0, "is_disabled": 0, "type": "electric_scooter", "lon": -77.01633033333333, "rental_uris": {"android": "https://dc.lft.to/lastmile_qr_scan", "ios": "https://dc.lft.to/lastmile_qr_scan"}, "is_reserved": 0, "bike_id": "399e22e6b2cd0d384f324c6896623970", "name": "399e22e6b2cd0d384f324c6896623970"}, {"lat": 38.9039345, "fusion_lon": 0.0, "fusion_lat": 0.0, "is_disabled": 0, "type": "electric_scooter", "lon": -77.03375316666667, "rental_uris": {"android": "https://dc.lft.to/lastmile_qr_scan", "ios": "https://dc.lft.to/lastmile_qr_scan"}, "is_reserved": 0, "bike_id": "d785809e2aec9682f15848d8268e0cec", "name": "d785809e2aec9682f15848d8268e0cec"}, {"lat": 38.90075483333333, "fusion_lon": 0.0, "fusion_lat": 0.0, "is_disabled": 0, "type": "electric_scooter", "lon": -77.0020645, "rental_uris": {"android": "https://dc.lft.to/lastmile_qr_scan", "ios": "https://dc.lft.to/lastmile_qr_scan"}, "is_reserved": 0, "bike_id": "f6dd797adbac6a97aa9be4b1590b2afe", "name": "f6dd797adbac6a97aa9be4b1590b2afe"}, {"lat": 38.951925, "fusion_lon": 0.0, "fusion_lat": 0.0, "is_disabled": 0, "type": "electric_scooter", "lon": -77.02787516666666, "rental_uris": {"android": "https://dc.lft.to/lastmile_qr_scan", "ios": "https://dc.lft.to/lastmile_qr_scan"}, "is_reserved": 0, "bike_id": "cf6b6f73ee700d1ea2358fdb223b087d", "name": "cf6b6f73ee700d1ea2358fdb223b087d"}, {"lat": 38.906452333333334, "fusion_lon": 0.0, "fusion_lat": 0.0, "is_disabled": 0, "type": "electric_scooter", "lon": -77.0344365, "rental_uris": {"android": "https://dc.lft.to/lastmile_qr_scan", "ios": "https://dc.lft.to/lastmile_qr_scan"}, "is_reserved": 0, "bike_id": "bd98128ae1eac89c0639bef757377d21", "name": "bd98128ae1eac89c0639bef757377d21"}, {"lat": 38.938540333333336, "fusion_lon": 0.0, "fusion_lat": 0.0, "is_disabled": 0, "type": "electric_scooter", "lon": -77.02477433333334, "rental_uris": {"android": "https://dc.lft.to/lastmile_qr_scan", "ios": "https://dc.lft.to/lastmile_qr_scan"}, "is_reserved": 0, "bike_id": "4edb29660d73c28dc90299c05bfd453a", "name": "4edb29660d73c28dc90299c05bfd453a"}, {"lat": 38.92063366666667, "fusion_lon": 0.0, "fusion_lat": 0.0, "is_disabled": 0, "type": "electric_scooter", "lon": -77.03811933333333, "rental_uris": {"android": "https://dc.lft.to/lastmile_qr_scan", "ios": "https://dc.lft.to/lastmile_qr_scan"}, "is_reserved": 0, "bike_id": "f6335acf830896f335a4d8c0129b8d16", "name": "f6335acf830896f335a4d8c0129b8d16"}, {"lat": 38.91142683333333, "fusion_lon": 0.0, "fusion_lat": 0.0, "is_disabled": 0, "type": "electric_scooter", "lon": -77.0483625, "rental_uris": {"android": "https://dc.lft.to/lastmile_qr_scan", "ios": "https://dc.lft.to/lastmile_qr_scan"}, "is_reserved": 0, "bike_id": "22a13348b35445e3e0c622b0ccb789c5", "name": "22a13348b35445e3e0c622b0ccb789c5"}, {"lat": 38.93917716666667, "fusion_lon": 0.0, "fusion_lat": 0.0, "is_disabled": 0, "type": "electric_scooter", "lon": -77.01896033333334, "rental_uris": {"android": "https://dc.lft.to/lastmile_qr_scan", "ios": "https://dc.lft.to/lastmile_qr_scan"}, "is_reserved": 0, "bike_id": "6c742e93020888946aa162877ba68654", "name": "6c742e93020888946aa162877ba68654"}, {"lat": 38.90387716666667, "fusion_lon": 0.0, "fusion_lat": 0.0, "is_disabled": 0, "type": "electric_scooter", "lon": -77.02962666666667, "rental_uris": {"android": "https://dc.lft.to/lastmile_qr_scan", "ios": "https://dc.lft.to/lastmile_qr_scan"}, "is_reserved": 0, "bike_id": "0648b7d4e3796708d5a07bf2922b8789", "name": "0648b7d4e3796708d5a07bf2922b8789"}, {"lat": 38.88745133333333, "fusion_lon": 0.0, "fusion_lat": 0.0, "is_disabled": 0, "type": "electric_scooter", "lon": -77.02826833333333, "rental_uris": {"android": "https://dc.lft.to/lastmile_qr_scan", "ios": "https://dc.lft.to/lastmile_qr_scan"}, "is_reserved": 0, "bike_id": "a76485ed68a6a9e2d2129c4a4319a739", "name": "a76485ed68a6a9e2d2129c4a4319a739"}, {"lat": 38.89481216666667, "fusion_lon": 0.0, "fusion_lat": 0.0, "is_disabled": 0, "type": "electric_scooter", "lon": -77.0454255, "rental_uris": {"android": "https://dc.lft.to/lastmile_qr_scan", "ios": "https://dc.lft.to/lastmile_qr_scan"}, "is_reserved": 0, "bike_id": "b3b999de8085a43997df28e739c59795", "name": "b3b999de8085a43997df28e739c59795"}, {"lat": 38.93560183333334, "fusion_lon": 0.0, "fusion_lat": 0.0, "is_disabled": 0, "type": "electric_scooter", "lon": -77.03456733333333, "rental_uris": {"android": "https://dc.lft.to/lastmile_qr_scan", "ios": "https://dc.lft.to/lastmile_qr_scan"}, "is_reserved": 0, "bike_id": "65d4b6a1455f34440c640d746a34aa84", "name": "65d4b6a1455f34440c640d746a34aa84"}, {"lat": 38.90020416666667, "fusion_lon": 0.0, "fusion_lat": 0.0, "is_disabled": 0, "type": "electric_scooter", "lon": -77.0022315, "rental_uris": {"android": "https://dc.lft.to/lastmile_qr_scan", "ios": "https://dc.lft.to/lastmile_qr_scan"}, "is_reserved": 0, "bike_id": "ac3cffbd05dedb466042e3c2a9c0090a", "name": "ac3cffbd05dedb466042e3c2a9c0090a"}, {"lat": 38.92033583333333, "fusion_lon": 0.0, "fusion_lat": 0.0, "is_disabled": 0, "type": "electric_scooter", "lon": -76.97022616666666, "rental_uris": {"android": "https://dc.lft.to/lastmile_qr_scan", "ios": "https://dc.lft.to/lastmile_qr_scan"}, "is_reserved": 0, "bike_id": "33aa547ecc9de269cb37e130a5400f96", "name": "33aa547ecc9de269cb37e130a5400f96"}, {"lat": 38.92314833333333, "fusion_lon": 0.0, "fusion_lat": 0.0, "is_disabled": 0, "type": "electric_scooter", "lon": -77.0298035, "rental_uris": {"android": "https://dc.lft.to/lastmile_qr_scan", "ios": "https://dc.lft.to/lastmile_qr_scan"}, "is_reserved": 0, "bike_id": "7bf83812d4230f7cf8d9f77c882d2598", "name": "7bf83812d4230f7cf8d9f77c882d2598"}, {"lat": 38.842896, "fusion_lon": 0.0, "fusion_lat": 0.0, "is_disabled": 0, "type": "electric_scooter", "lon": -76.9907985, "rental_uris": {"android": "https://dc.lft.to/lastmile_qr_scan", "ios": "https://dc.lft.to/lastmile_qr_scan"}, "is_reserved": 0, "bike_id": "2f4393a9797a7d9a9c4392c502d01b75", "name": "2f4393a9797a7d9a9c4392c502d01b75"}, {"lat": 38.89908416666667, "fusion_lon": 0.0, "fusion_lat": 0.0, "is_disabled": 0, "type": "electric_scooter", "lon": -77.0397225, "rental_uris": {"android": "https://dc.lft.to/lastmile_qr_scan", "ios": "https://dc.lft.to/lastmile_qr_scan"}, "is_reserved": 0, "bike_id": "7c9c4ef9595ddeeb0a4ce876cd6f315b", "name": "7c9c4ef9595ddeeb0a4ce876cd6f315b"}, {"lat": 38.8964605, "fusion_lon": 0.0, "fusion_lat": 0.0, "is_disabled": 0, "type": "electric_bike", "lon": -76.94786933333333, "rental_uris": {"android": "https://dc.lft.to/lastmile_qr_scan", "ios": "https://dc.lft.to/lastmile_qr_scan"}, "is_reserved": 0, "bike_id": "f5387a4a2b9d21d96c63319421287c8b", "name": "f5387a4a2b9d21d96c63319421287c8b"}, {"lat": 38.904034333333335, "fusion_lon": 0.0, "fusion_lat": 0.0, "is_disabled": 0, "type": "electric_scooter", "lon": -77.05106166666667, "rental_uris": {"android": "https://dc.lft.to/lastmile_qr_scan", "ios": "https://dc.lft.to/lastmile_qr_scan"}, "is_reserved": 0, "bike_id": "e89b70c2d637f68994227aaa9b554888", "name": "e89b70c2d637f68994227aaa9b554888"}, {"lat": 38.89254716666667, "fusion_lon": 0.0, "fusion_lat": 0.0, "is_disabled": 0, "type": "electric_scooter", "lon": -77.032085, "rental_uris": {"android": "https://dc.lft.to/lastmile_qr_scan", "ios": "https://dc.lft.to/lastmile_qr_scan"}, "is_reserved": 0, "bike_id": "c9f3adc77dffebeb3e2ef691a3f6c027", "name": "c9f3adc77dffebeb3e2ef691a3f6c027"}, {"lat": 38.84622616666667, "fusion_lon": 0.0, "fusion_lat": 0.0, "is_disabled": 0, "type": "electric_scooter", "lon": -76.996308, "rental_uris": {"android": "https://dc.lft.to/lastmile_qr_scan", "ios": "https://dc.lft.to/lastmile_qr_scan"}, "is_reserved": 0, "bike_id": "8b3d1250c20b5324b87a14a6f5b8a65b", "name": "8b3d1250c20b5324b87a14a6f5b8a65b"}, {"lat": 38.96969966666666, "fusion_lon": 0.0, "fusion_lat": 0.0, "is_disabled": 0, "type": "electric_bike", "lon": -76.934481, "rental_uris": {"android": "https://dc.lft.to/lastmile_qr_scan", "ios": "https://dc.lft.to/lastmile_qr_scan"}, "is_reserved": 0, "bike_id": "a9ac1a373711cf9a385437081494ad4b", "name": "a9ac1a373711cf9a385437081494ad4b"}, {"lat": 38.924185666666666, "fusion_lon": 0.0, "fusion_lat": 0.0, "is_disabled": 0, "type": "electric_scooter", "lon": -77.01949716666667, "rental_uris": {"android": "https://dc.lft.to/lastmile_qr_scan", "ios": "https://dc.lft.to/lastmile_qr_scan"}, "is_reserved": 0, "bike_id": "6e424b7eaaf9807f89bcd6dcd405fe93", "name": "6e424b7eaaf9807f89bcd6dcd405fe93"}, {"lat": 38.988282166666664, "fusion_lon": 0.0, "fusion_lat": 0.0, "is_disabled": 0, "type": "electric_bike", "lon": -76.98738349999999, "rental_uris": {"android": "https://dc.lft.to/lastmile_qr_scan", "ios": "https://dc.lft.to/lastmile_qr_scan"}, "is_reserved": 0, "bike_id": "2b53e9ce9ca79c10fbda5f839a266dda", "name": "2b53e9ce9ca79c10fbda5f839a266dda"}, {"lat": 38.917697, "fusion_lon": 0.0, "fusion_lat": 0.0, "is_disabled": 0, "type": "electric_scooter", "lon": -77.022765, "rental_uris": {"android": "https://dc.lft.to/lastmile_qr_scan", "ios": "https://dc.lft.to/lastmile_qr_scan"}, "is_reserved": 0, "bike_id": "8842ba77886d327e507e6518033231d7", "name": "8842ba77886d327e507e6518033231d7"}, {"lat": 38.844276666666666, "fusion_lon": 0.0, "fusion_lat": 0.0, "is_disabled": 0, "type": "electric_scooter", "lon": -76.9978135, "rental_uris": {"android": "https://dc.lft.to/lastmile_qr_scan", "ios": "https://dc.lft.to/lastmile_qr_scan"}, "is_reserved": 0, "bike_id": "cfebdeba630344fbdfad540ed69237ec", "name": "cfebdeba630344fbdfad540ed69237ec"}, {"lat": 38.934224666666665, "fusion_lon": 0.0, "fusion_lat": 0.0, "is_disabled": 0, "type": "electric_scooter", "lon": -77.03256533333334, "rental_uris": {"android": "https://dc.lft.to/lastmile_qr_scan", "ios": "https://dc.lft.to/lastmile_qr_scan"}, "is_reserved": 0, "bike_id": "f9e8cc5891654c8df8e885fb4f3c35bb", "name": "f9e8cc5891654c8df8e885fb4f3c35bb"}, {"lat": 38.9023315, "fusion_lon": 0.0, "fusion_lat": 0.0, "is_disabled": 0, "type": "electric_scooter", "lon": -77.05139166666666, "rental_uris": {"android": "https://dc.lft.to/lastmile_qr_scan", "ios": "https://dc.lft.to/lastmile_qr_scan"}, "is_reserved": 0, "bike_id": "c812e3126d60cf5ca85f9e767d94077b", "name": "c812e3126d60cf5ca85f9e767d94077b"}, {"lat": 38.901879, "fusion_lon": 0.0, "fusion_lat": 0.0, "is_disabled": 0, "type": "electric_scooter", "lon": -76.93465133333333, "rental_uris": {"android": "https://dc.lft.to/lastmile_qr_scan", "ios": "https://dc.lft.to/lastmile_qr_scan"}, "is_reserved": 0, "bike_id": "00e8171b3a45d656b349aa213ce3a49b", "name": "00e8171b3a45d656b349aa213ce3a49b"}, {"lat": 38.895671666666665, "fusion_lon": 0.0, "fusion_lat": 0.0, "is_disabled": 0, "type": "electric_scooter", "lon": -77.021638, "rental_uris": {"android": "https://dc.lft.to/lastmile_qr_scan", "ios": "https://dc.lft.to/lastmile_qr_scan"}, "is_reserved": 0, "bike_id": "e29dfbc598d77b54bbfe43eb16386c58", "name": "e29dfbc598d77b54bbfe43eb16386c58"}, {"lat": 38.9015215, "fusion_lon": 0.0, "fusion_lat": 0.0, "is_disabled": 0, "type": "electric_scooter", "lon": -77.04087183333333, "rental_uris": {"android": "https://dc.lft.to/lastmile_qr_scan", "ios": "https://dc.lft.to/lastmile_qr_scan"}, "is_reserved": 0, "bike_id": "77c7495c0b11ce19b7fefb173aa3c48b", "name": "77c7495c0b11ce19b7fefb173aa3c48b"}, {"lat": 38.961419666666664, "fusion_lon": 0.0, "fusion_lat": 0.0, "is_disabled": 0, "type": "electric_scooter", "lon": -77.02805066666667, "rental_uris": {"android": "https://dc.lft.to/lastmile_qr_scan", "ios": "https://dc.lft.to/lastmile_qr_scan"}, "is_reserved": 0, "bike_id": "2cd34b49296d4b798817ab67b4f60fd9", "name": "2cd34b49296d4b798817ab67b4f60fd9"}, {"lat": 38.9622605, "fusion_lon": 0.0, "fusion_lat": 0.0, "is_disabled": 0, "type": "electric_bike", "lon": -77.02632166666666, "rental_uris": {"android": "https://dc.lft.to/lastmile_qr_scan", "ios": "https://dc.lft.to/lastmile_qr_scan"}, "is_reserved": 0, "bike_id": "ba89ca7646c3d99ba3956a7e91c8994d", "name": "ba89ca7646c3d99ba3956a7e91c8994d"}, {"lat": 38.86681183333334, "fusion_lon": 0.0, "fusion_lat": 0.0, "is_disabled": 0, "type": "electric_scooter", "lon": -76.98869133333334, "rental_uris": {"android": "https://dc.lft.to/lastmile_qr_scan", "ios": "https://dc.lft.to/lastmile_qr_scan"}, "is_reserved": 0, "bike_id": "99f6a6aee0358af043bbf51b2415255b", "name": "99f6a6aee0358af043bbf51b2415255b"}, {"lat": 38.89273516666667, "fusion_lon": 0.0, "fusion_lat": 0.0, "is_disabled": 0, "type": "electric_scooter", "lon": -77.02035016666666, "rental_uris": {"android": "https://dc.lft.to/lastmile_qr_scan", "ios": "https://dc.lft.to/lastmile_qr_scan"}, "is_reserved": 0, "bike_id": "a42e97b417e25abaf0b760a7717294e5", "name": "a42e97b417e25abaf0b760a7717294e5"}, {"lat": 38.950683833333336, "fusion_lon": 0.0, "fusion_lat": 0.0, "is_disabled": 0, "type": "electric_scooter", "lon": -77.065356, "rental_uris": {"android": "https://dc.lft.to/lastmile_qr_scan", "ios": "https://dc.lft.to/lastmile_qr_scan"}, "is_reserved": 0, "bike_id": "e9e156722a658420438142ff5668c290", "name": "e9e156722a658420438142ff5668c290"}, {"lat": 38.900664, "fusion_lon": 0.0, "fusion_lat": 0.0, "is_disabled": 0, "type": "electric_scooter", "lon": -77.02695483333333, "rental_uris": {"android": "https://dc.lft.to/lastmile_qr_scan", "ios": "https://dc.lft.to/lastmile_qr_scan"}, "is_reserved": 0, "bike_id": "47f4fb84e520a4185caf6d1a8388252c", "name": "47f4fb84e520a4185caf6d1a8388252c"}, {"lat": 38.91315983333333, "fusion_lon": 0.0, "fusion_lat": 0.0, "is_disabled": 0, "type": "electric_scooter", "lon": -77.03639266666667, "rental_uris": {"android": "https://dc.lft.to/lastmile_qr_scan", "ios": "https://dc.lft.to/lastmile_qr_scan"}, "is_reserved": 0, "bike_id": "aedcf28f2d29c1b17ca1725c58bcb473", "name": "aedcf28f2d29c1b17ca1725c58bcb473"}, {"lat": 38.89221966666667, "fusion_lon": 0.0, "fusion_lat": 0.0, "is_disabled": 0, "type": "electric_scooter", "lon": -77.0242365, "rental_uris": {"android": "https://dc.lft.to/lastmile_qr_scan", "ios": "https://dc.lft.to/lastmile_qr_scan"}, "is_reserved": 0, "bike_id": "e2b49d1ffbfc1fc36893d02f445993ab", "name": "e2b49d1ffbfc1fc36893d02f445993ab"}, {"lat": 38.91957083333333, "fusion_lon": 0.0, "fusion_lat": 0.0, "is_disabled": 0, "type": "electric_scooter", "lon": -77.02482983333333, "rental_uris": {"android": "https://dc.lft.to/lastmile_qr_scan", "ios": "https://dc.lft.to/lastmile_qr_scan"}, "is_reserved": 0, "bike_id": "3179c795f10c3dc6f88a374f5964ea00", "name": "3179c795f10c3dc6f88a374f5964ea00"}, {"lat": 38.88607016666667, "fusion_lon": 0.0, "fusion_lat": 0.0, "is_disabled": 0, "type": "electric_scooter", "lon": -76.99455466666667, "rental_uris": {"android": "https://dc.lft.to/lastmile_qr_scan", "ios": "https://dc.lft.to/lastmile_qr_scan"}, "is_reserved": 0, "bike_id": "3a7db66f2af00f6bae36880432e42fa3", "name": "3a7db66f2af00f6bae36880432e42fa3"}, {"lat": 38.89228766666667, "fusion_lon": 0.0, "fusion_lat": 0.0, "is_disabled": 0, "type": "electric_scooter", "lon": -77.05001066666667, "rental_uris": {"android": "https://dc.lft.to/lastmile_qr_scan", "ios": "https://dc.lft.to/lastmile_qr_scan"}, "is_reserved": 0, "bike_id": "d9a61f1b21314ace3762a0c3863c5eb1", "name": "d9a61f1b21314ace3762a0c3863c5eb1"}, {"lat": 38.94100016666667, "fusion_lon": 0.0, "fusion_lat": 0.0, "is_disabled": 0, "type": "electric_scooter", "lon": -77.02554633333334, "rental_uris": {"android": "https://dc.lft.to/lastmile_qr_scan", "ios": "https://dc.lft.to/lastmile_qr_scan"}, "is_reserved": 0, "bike_id": "e11db28e2a28c6d257aa033cbd977212", "name": "e11db28e2a28c6d257aa033cbd977212"}, {"lat": 38.898803, "fusion_lon": 0.0, "fusion_lat": 0.0, "is_disabled": 0, "type": "electric_scooter", "lon": -77.04324483333333, "rental_uris": {"android": "https://dc.lft.to/lastmile_qr_scan", "ios": "https://dc.lft.to/lastmile_qr_scan"}, "is_reserved": 0, "bike_id": "18f3393cf2ab243d123d9aec5179359a", "name": "18f3393cf2ab243d123d9aec5179359a"}, {"lat": 38.8562235, "fusion_lon": 0.0, "fusion_lat": 0.0, "is_disabled": 0, "type": "electric_bike", "lon": -77.0854355, "rental_uris": {"android": "https://dc.lft.to/lastmile_qr_scan", "ios": "https://dc.lft.to/lastmile_qr_scan"}, "is_reserved": 0, "bike_id": "897bb75b5068c7275b2e9e009187b882", "name": "897bb75b5068c7275b2e9e009187b882"}, {"lat": 38.88089333333333, "fusion_lon": 0.0, "fusion_lat": 0.0, "is_disabled": 0, "type": "electric_scooter", "lon": -76.984972, "rental_uris": {"android": "https://dc.lft.to/lastmile_qr_scan", "ios": "https://dc.lft.to/lastmile_qr_scan"}, "is_reserved": 0, "bike_id": "1d6ee2fd3900d3d1849f0f1b24f408c8", "name": "1d6ee2fd3900d3d1849f0f1b24f408c8"}, {"lat": 38.8929905, "fusion_lon": 0.0, "fusion_lat": 0.0, "is_disabled": 0, "type": "electric_scooter", "lon": -77.037613, "rental_uris": {"android": "https://dc.lft.to/lastmile_qr_scan", "ios": "https://dc.lft.to/lastmile_qr_scan"}, "is_reserved": 0, "bike_id": "ed2283a283f0437947d85a3308d985b8", "name": "ed2283a283f0437947d85a3308d985b8"}, {"lat": 39.088443, "fusion_lon": 0.0, "fusion_lat": 0.0, "is_disabled": 0, "type": "electric_bike", "lon": -77.17802633333334, "rental_uris": {"android": "https://dc.lft.to/lastmile_qr_scan", "ios": "https://dc.lft.to/lastmile_qr_scan"}, "is_reserved": 0, "bike_id": "0333a1e55ba6c3262394f40c7440d4fa", "name": "0333a1e55ba6c3262394f40c7440d4fa"}, {"lat": 38.88774816666667, "fusion_lon": 0.0, "fusion_lat": 0.0, "is_disabled": 0, "type": "electric_scooter", "lon": -77.00178366666667, "rental_uris": {"android": "https://dc.lft.to/lastmile_qr_scan", "ios": "https://dc.lft.to/lastmile_qr_scan"}, "is_reserved": 0, "bike_id": "c699d1c21f2acbe61da789359cd8704f", "name": "c699d1c21f2acbe61da789359cd8704f"}, {"lat": 38.92059, "fusion_lon": 0.0, "fusion_lat": 0.0, "is_disabled": 0, "type": "electric_scooter", "lon": -77.03374933333333, "rental_uris": {"android": "https://dc.lft.to/lastmile_qr_scan", "ios": "https://dc.lft.to/lastmile_qr_scan"}, "is_reserved": 0, "bike_id": "d34c88b6488133f561ed0a5c86b28ed1", "name": "d34c88b6488133f561ed0a5c86b28ed1"}, {"lat": 38.9057325, "fusion_lon": 0.0, "fusion_lat": 0.0, "is_disabled": 0, "type": "electric_scooter", "lon": -77.00604883333334, "rental_uris": {"android": "https://dc.lft.to/lastmile_qr_scan", "ios": "https://dc.lft.to/lastmile_qr_scan"}, "is_reserved": 0, "bike_id": "a97bc29425669d58a9bff9c2d787b696", "name": "a97bc29425669d58a9bff9c2d787b696"}, {"lat": 38.89843583333333, "fusion_lon": 0.0, "fusion_lat": 0.0, "is_disabled": 0, "type": "electric_scooter", "lon": -77.0330345, "rental_uris": {"android": "https://dc.lft.to/lastmile_qr_scan", "ios": "https://dc.lft.to/lastmile_qr_scan"}, "is_reserved": 0, "bike_id": "9a3e35d1eff42c79e15c80009041888a", "name": "9a3e35d1eff42c79e15c80009041888a"}, {"lat": 38.9027335, "fusion_lon": 0.0, "fusion_lat": 0.0, "is_disabled": 0, "type": "electric_scooter", "lon": -77.02655933333334, "rental_uris": {"android": "https://dc.lft.to/lastmile_qr_scan", "ios": "https://dc.lft.to/lastmile_qr_scan"}, "is_reserved": 0, "bike_id": "1be59e8608da775a55cc51df4373c131", "name": "1be59e8608da775a55cc51df4373c131"}, {"lat": 38.918787333333334, "fusion_lon": 0.0, "fusion_lat": 0.0, "is_disabled": 0, "type": "electric_scooter", "lon": -77.04719483333334, "rental_uris": {"android": "https://dc.lft.to/lastmile_qr_scan", "ios": "https://dc.lft.to/lastmile_qr_scan"}, "is_reserved": 0, "bike_id": "988937340fc22edb8bc32bf41af939c2", "name": "988937340fc22edb8bc32bf41af939c2"}, {"lat": 38.9290265, "fusion_lon": 0.0, "fusion_lat": 0.0, "is_disabled": 0, "type": "electric_scooter", "lon": -77.05462983333334, "rental_uris": {"android": "https://dc.lft.to/lastmile_qr_scan", "ios": "https://dc.lft.to/lastmile_qr_scan"}, "is_reserved": 0, "bike_id": "f0e2a35223587232d9c2cc649afe71b2", "name": "f0e2a35223587232d9c2cc649afe71b2"}, {"lat": 38.884051, "fusion_lon": 0.0, "fusion_lat": 0.0, "is_disabled": 0, "type": "electric_scooter", "lon": -77.03043283333334, "rental_uris": {"android": "https://dc.lft.to/lastmile_qr_scan", "ios": "https://dc.lft.to/lastmile_qr_scan"}, "is_reserved": 0, "bike_id": "73f580ca7bb5cea96d20134520a61a86", "name": "73f580ca7bb5cea96d20134520a61a86"}, {"lat": 38.918182333333334, "fusion_lon": 0.0, "fusion_lat": 0.0, "is_disabled": 0, "type": "electric_scooter", "lon": -77.010323, "rental_uris": {"android": "https://dc.lft.to/lastmile_qr_scan", "ios": "https://dc.lft.to/lastmile_qr_scan"}, "is_reserved": 0, "bike_id": "0abd5e687e130fc7876f3f318e7dced6", "name": "0abd5e687e130fc7876f3f318e7dced6"}, {"lat": 38.914279, "fusion_lon": 0.0, "fusion_lat": 0.0, "is_disabled": 0, "type": "electric_scooter", "lon": -77.00198333333333, "rental_uris": {"android": "https://dc.lft.to/lastmile_qr_scan", "ios": "https://dc.lft.to/lastmile_qr_scan"}, "is_reserved": 0, "bike_id": "d1dbc91edc896b80ee694587d6851233", "name": "d1dbc91edc896b80ee694587d6851233"}, {"lat": 38.90816616666667, "fusion_lon": 0.0, "fusion_lat": 0.0, "is_disabled": 0, "type": "electric_scooter", "lon": -77.039379, "rental_uris": {"android": "https://dc.lft.to/lastmile_qr_scan", "ios": "https://dc.lft.to/lastmile_qr_scan"}, "is_reserved": 0, "bike_id": "d3fed8ebc9f5e661411cf64287a92f55", "name": "d3fed8ebc9f5e661411cf64287a92f55"}, {"lat": 38.896073666666666, "fusion_lon": 0.0, "fusion_lat": 0.0, "is_disabled": 0, "type": "electric_scooter", "lon": -77.01158, "rental_uris": {"android": "https://dc.lft.to/lastmile_qr_scan", "ios": "https://dc.lft.to/lastmile_qr_scan"}, "is_reserved": 0, "bike_id": "dba3e0aa85fcdc1555a0d95faa3ef8fb", "name": "dba3e0aa85fcdc1555a0d95faa3ef8fb"}, {"lat": 38.92972066666667, "fusion_lon": 0.0, "fusion_lat": 0.0, "is_disabled": 0, "type": "electric_bike", "lon": -77.05627466666667, "rental_uris": {"android": "https://dc.lft.to/lastmile_qr_scan", "ios": "https://dc.lft.to/lastmile_qr_scan"}, "is_reserved": 0, "bike_id": "860600dd6c01ba86b46ffde4bb2a13df", "name": "860600dd6c01ba86b46ffde4bb2a13df"}, {"lat": 38.91260366666667, "fusion_lon": 0.0, "fusion_lat": 0.0, "is_disabled": 0, "type": "electric_scooter", "lon": -77.04548166666666, "rental_uris": {"android": "https://dc.lft.to/lastmile_qr_scan", "ios": "https://dc.lft.to/lastmile_qr_scan"}, "is_reserved": 0, "bike_id": "0acd54ae551aec247fb70336eef598c2", "name": "0acd54ae551aec247fb70336eef598c2"}, {"lat": 38.8987105, "fusion_lon": 0.0, "fusion_lat": 0.0, "is_disabled": 0, "type": "electric_scooter", "lon": -76.94662333333333, "rental_uris": {"android": "https://dc.lft.to/lastmile_qr_scan", "ios": "https://dc.lft.to/lastmile_qr_scan"}, "is_reserved": 0, "bike_id": "918b6763a9c48b1ca5ac7a36f40d9fe3", "name": "918b6763a9c48b1ca5ac7a36f40d9fe3"}, {"lat": 38.93461466666667, "fusion_lon": 0.0, "fusion_lat": 0.0, "is_disabled": 0, "type": "electric_bike", "lon": -77.08949883333334, "rental_uris": {"android": "https://dc.lft.to/lastmile_qr_scan", "ios": "https://dc.lft.to/lastmile_qr_scan"}, "is_reserved": 0, "bike_id": "9303efcf4140954ca7979601bc2f107d", "name": "9303efcf4140954ca7979601bc2f107d"}, {"lat": 38.899911, "fusion_lon": 0.0, "fusion_lat": 0.0, "is_disabled": 0, "type": "electric_scooter", "lon": -77.031736, "rental_uris": {"android": "https://dc.lft.to/lastmile_qr_scan", "ios": "https://dc.lft.to/lastmile_qr_scan"}, "is_reserved": 0, "bike_id": "44cc15b7d04183443a32d0b84d87ddab", "name": "44cc15b7d04183443a32d0b84d87ddab"}, {"lat": 38.92063816666667, "fusion_lon": 0.0, "fusion_lat": 0.0, "is_disabled": 0, "type": "electric_scooter", "lon": -77.04248933333334, "rental_uris": {"android": "https://dc.lft.to/lastmile_qr_scan", "ios": "https://dc.lft.to/lastmile_qr_scan"}, "is_reserved": 0, "bike_id": "83710c823915effc97794bfa154503da", "name": "83710c823915effc97794bfa154503da"}, {"lat": 38.9196615, "fusion_lon": 0.0, "fusion_lat": 0.0, "is_disabled": 0, "type": "electric_bike", "lon": -77.0320995, "rental_uris": {"android": "https://dc.lft.to/lastmile_qr_scan", "ios": "https://dc.lft.to/lastmile_qr_scan"}, "is_reserved": 0, "bike_id": "64dac2944a87089500e0e163d9ab3135", "name": "64dac2944a87089500e0e163d9ab3135"}, {"lat": 38.9005995, "fusion_lon": 0.0, "fusion_lat": 0.0, "is_disabled": 0, "type": "electric_scooter", "lon": -77.03180316666666, "rental_uris": {"android": "https://dc.lft.to/lastmile_qr_scan", "ios": "https://dc.lft.to/lastmile_qr_scan"}, "is_reserved": 0, "bike_id": "defda7a00938740c9ef09d95127a6a21", "name": "defda7a00938740c9ef09d95127a6a21"}, {"lat": 38.91924733333333, "fusion_lon": 0.0, "fusion_lat": 0.0, "is_disabled": 0, "type": "electric_scooter", "lon": -77.026228, "rental_uris": {"android": "https://dc.lft.to/lastmile_qr_scan", "ios": "https://dc.lft.to/lastmile_qr_scan"}, "is_reserved": 0, "bike_id": "1b0f8cb087c91ab6dbf3cc84e90a72d2", "name": "1b0f8cb087c91ab6dbf3cc84e90a72d2"}, {"lat": 38.91332333333333, "fusion_lon": 0.0, "fusion_lat": 0.0, "is_disabled": 0, "type": "electric_scooter", "lon": -77.01999783333333, "rental_uris": {"android": "https://dc.lft.to/lastmile_qr_scan", "ios": "https://dc.lft.to/lastmile_qr_scan"}, "is_reserved": 0, "bike_id": "e6db4aa36238229bc9cf8bdf8c8b4fc4", "name": "e6db4aa36238229bc9cf8bdf8c8b4fc4"}, {"lat": 38.90865333333333, "fusion_lon": 0.0, "fusion_lat": 0.0, "is_disabled": 0, "type": "electric_scooter", "lon": -76.99955133333333, "rental_uris": {"android": "https://dc.lft.to/lastmile_qr_scan", "ios": "https://dc.lft.to/lastmile_qr_scan"}, "is_reserved": 0, "bike_id": "16bdf3f539e093fee7946bc47391329d", "name": "16bdf3f539e093fee7946bc47391329d"}, {"lat": 38.957429833333336, "fusion_lon": 0.0, "fusion_lat": 0.0, "is_disabled": 0, "type": "electric_bike", "lon": -76.97250416666667, "rental_uris": {"android": "https://dc.lft.to/lastmile_qr_scan", "ios": "https://dc.lft.to/lastmile_qr_scan"}, "is_reserved": 0, "bike_id": "eb6e8b03c3f84adafaefa4b76385acb1", "name": "eb6e8b03c3f84adafaefa4b76385acb1"}, {"lat": 38.899309833333334, "fusion_lon": 0.0, "fusion_lat": 0.0, "is_disabled": 0, "type": "electric_scooter", "lon": -77.003493, "rental_uris": {"android": "https://dc.lft.to/lastmile_qr_scan", "ios": "https://dc.lft.to/lastmile_qr_scan"}, "is_reserved": 0, "bike_id": "98e361c5719185696d36b66caaf112d0", "name": "98e361c5719185696d36b66caaf112d0"},