{"data": {"bikes": [{"lat": 38.92348583333333, "is_disabled": 0, "type": "electric_scooter", "lon": -77.0339995, "bike_id": "5daeffd3e85d94c9c8fa28d8bf92f8cd", "fusion_lat": 0.0, "name": "5daeffd3e85d94c9c8fa28d8bf92f8cd", "is_reserved": 0, "rental_uris": {"android": "https://dc.lft.to/lastmile_qr_scan", "ios": "https://dc.lft.to/lastmile_qr_scan"}, "fusion_lon": 0.0}, {"lat": 38.91105, "is_disabled": 0, "type": "electric_scooter", "lon": -77.0370365, "bike_id": "09d5206c4c2f828bdb81eb0c36240c80", "fusion_lat": 0.0, "name": "09d5206c4c2f828bdb81eb0c36240c80", "is_reserved": 0, "rental_uris": {"android": "https://dc.lft.to/lastmile_qr_scan", "ios": "https://dc.lft.to/lastmile_qr_scan"}, "fusion_lon": 0.0}, {"lat": 38.944350166666666, "is_disabled": 0, "type": "electric_scooter", "lon": -77.0150835, "bike_id": "816324bb01856df82522054a69ac811d", "fusion_lat": 0.0, "name": "816324bb01856df82522054a69ac811d", "is_reserved": 0, "rental_uris": {"android": "https://dc.lft.to/lastmile_qr_scan", "ios": "https://dc.lft.to/lastmile_qr_scan"}, "fusion_lon": 0.0}, {"lat": 38.9900475, "is_disabled": 0, "type": "electric_bike", "lon": -77.00441033333334, "bike_id": "f96d07c4e1fa701e169d9d7d0da9101a", "fusion_lat": 0.0, "name": "f96d07c4e1fa701e169d9d7d0da9101a", "is_reserved": 0, "rental_uris": {"android": "https://dc.lft.to/lastmile_qr_scan", "ios": "https://dc.lft.to/lastmile_qr_scan"}, "fusion_lon": 0.0}, {"lat": 38.85519466666667, "is_disabled": 0, "type": "electric_bike", "lon": -77.120262, "bike_id": "48447919665bf1b1c0beadcc224d9d03", "fusion_lat": 0.0, "name": "48447919665bf1b1c0beadcc224d9d03", "is_reserved": 0, "rental_uris": {"android": "https://dc.lft.to/lastmile_qr_scan", "ios": "https://dc.lft.to/lastmile_qr_scan"}, "fusion_lon": 0.0}, {"lat": 38.9010325, "is_disabled": 0, "type": "electric_scooter", "lon": -77.02508516666667, "bike_id": "2bfe2c99d8939d9e70ba731d6c1ae16f", "fusion_lat": 0.0, "name": "2bfe2c99d8939d9e70ba731d6c1ae16f", "is_reserved": 0, "rental_uris": {"android": "https://dc.lft.to/lastmile_qr_scan", "ios": "https://dc.lft.to/lastmile_qr_scan"}, "fusion_lon": 0.0}, {"lat": 38.931762666666664, "is_disabled": 0, "type": "electric_scooter", "lon": -77.03656583333333, "bike_id": "2b3ad203cbecf9d489b17a4132310c17", "fusion_lat": 0.0, "name": "2b3ad203cbecf9d489b17a4132310c17", "is_reserved": 0, "rental_uris": {"android": "https://dc.lft.to/lastmile_qr_scan", "ios": "https://dc.lft.to/lastmile_qr_scan"}, "fusion_lon": 0.0}, {"lat": 38.918834, "is_disabled": 0, "type": "electric_scooter", "lon": -77.03488266666666, "bike_id": "efa1e2a6dcb4dc392b470e999557a4c8", "fusion_lat": 0.0, "name": "efa1e2a6dcb4dc392b470e999557a4c8", "is_reserved": 0, "rental_uris": {"android": "https://dc.lft.to/lastmile_qr_scan", "ios": "https://dc.lft.to/lastmile_qr_scan"}, "fusion_lon": 0.0}, {"lat": 38.85188383333333, "is_disabled": 0, "type": "electric_bike", "lon": -76.96106383333333, "bike_id": "87c7e5ad9088a83832c946067bcc27a4", "fusion_lat": 0.0, "name": "87c7e5ad9088a83832c946067bcc27a4", "is_reserved": 0, "rental_uris": {"android": "https://dc.lft.to/lastmile_qr_scan", "ios": "https://dc.lft.to/lastmile_qr_scan"}, "fusion_lon": 0.0}, {"lat": 38.901250166666664, "is_disabled": 0, "type": "electric_scooter", "lon": -77.02883666666666, "bike_id": "7716994f0d3eaa2d4be37a11a2136534", "fusion_lat": 0.0, "name": "7716994f0d3eaa2d4be37a11a2136534", "is_reserved": 0, "rental_uris": {"android": "https://dc.lft.to/lastmile_qr_scan", "ios": "https://dc.lft.to/lastmile_qr_scan"}, "fusion_lon": 0.0}, {"lat": 38.998210666666665, "is_disabled": 0, "type": "electric_bike", "lon": -76.88376233333334, "bike_id": "c9a50d5b385f44a95818bc3066dd511d", "fusion_lat": 0.0, "name": "c9a50d5b385f44a95818bc3066dd511d", "is_reserved": 0, "rental_uris": {"android": "https://dc.lft.to/lastmile_qr_scan", "ios": "https://dc.lft.to/lastmile_qr_scan"}, "fusion_lon": 0.0}, {"lat": 38.949762, "is_disabled": 0, "type": "electric_scooter", "lon": -77.06762333333333, "bike_id": "59dae5200a381e53fcc1a0aca8452050", "fusion_lat": 0.0, "name": "59dae5200a381e53fcc1a0aca8452050", "is_reserved": 0, "rental_uris": {"android": "https://dc.lft.to/lastmile_qr_scan", "ios": "https://dc.lft.to/lastmile_qr_scan"}, "fusion_lon": 0.0}, {"lat": 39.0305135, "is_disabled": 0, "type": "electric_bike", "lon": -77.09483283333333, "bike_id": "687d9217e10303faaa841215eb7edf0e", "fusion_lat": 0.0, "name": "687d9217e10303faaa841215eb7edf0e", "is_reserved": 0, "rental_uris": {"android": "https://dc.lft.to/lastmile_qr_scan", "ios": "https://dc.lft.to/lastmile_qr_scan"}, "fusion_lon": 0.0}, {"lat": 38.951573333333336, "is_disabled": 0, "type": "electric_scooter", "lon": -77.0676835, "bike_id": "0a8873787d0073a7bc40f8920fb8b57d", "fusion_lat": 0.0, "name": "0a8873787d0073a7bc40f8920fb8b57d", "is_reserved": 0, "rental_uris": {"android": "https://dc.lft.to/lastmile_qr_scan", "ios": "https://dc.lft.to/lastmile_qr_scan"}, "fusion_lon": 0.0}, {"lat": 38.916126166666665, "is_disabled": 0, "type": "electric_scooter", "lon": -77.02169016666667, "bike_id": "21a61b14c5c94e9b828271066ac3dfd3", "fusion_lat": 0.0, "name": "21a61b14c5c94e9b828271066ac3dfd3", "is_reserved": 0, "rental_uris": {"android": "https://dc.lft.to/lastmile_qr_scan", "ios": "https://dc.lft.to/lastmile_qr_scan"}, "fusion_lon": 0.0}, {"lat": 39.024313166666666, "is_disabled": 0, "type": "electric_bike", "lon": -77.130998, "bike_id": "a2ef71d3e83b9941b4ff171d572c1625", "fusion_lat": 0.0, "name": "a2ef71d3e83b9941b4ff171d572c1625", "is_reserved": 0, "rental_uris": {"android": "https://dc.lft.to/lastmile_qr_scan", "ios": "https://dc.lft.to/lastmile_qr_scan"}, "fusion_lon": 0.0}, {"lat": 38.916832, "is_disabled": 0, "type": "electric_scooter", "lon": -77.02698666666667, "bike_id": "a749e8e0b497951c56a62ed4b988a4fe", "fusion_lat": 0.0, "name": "a749e8e0b497951c56a62ed4b988a4fe", "is_reserved": 0, "rental_uris": {"android": "https://dc.lft.to/lastmile_qr_scan", "ios": "https://dc.lft.to/lastmile_qr_scan"}, "fusion_lon": 0.0}, {"lat": 38.91333616666667, "is_disabled": 0, "type": "electric_scooter", "lon": -77.01862933333334, "bike_id": "088c35db4e0d3e292a8f211361211cd1", "fusion_lat": 0.0, "name": "088c35db4e0d3e292a8f211361211cd1", "is_reserved": 0, "rental_uris": {"android": "https://dc.lft.to/lastmile_qr_scan", "ios": "https://dc.lft.to/lastmile_qr_scan"}, "fusion_lon": 0.0}, {"lat": 38.92009633333333, "is_disabled": 0, "type": "electric_bike", "lon": -77.04534283333334, "bike_id": "27fca3f1ee8f80e26d5117e816e586dd", "fusion_lat": 0.0, "name": "27fca3f1ee8f80e26d5117e816e586dd", "is_reserved": 0, "rental_uris": {"android": "https://dc.lft.to/lastmile_qr_scan", "ios": "https://dc.lft.to/lastmile_qr_scan"}, "fusion_lon": 0.0}, {"lat": 38.9202645, "is_disabled": 0, "type": "electric_scooter", "lon": -77.03133, "bike_id": "9937074872576625649f8ef10472a0af", "fusion_lat": 0.0, "name": "9937074872576625649f8ef10472a0af", "is_reserved": 0, "rental_uris": {"android": "https://dc.lft.to/lastmile_qr_scan", "ios": "https://dc.lft.to/lastmile_qr_scan"}, "fusion_lon": 0.0}, {"lat": 38.9203775, "is_disabled": 0, "type": "electric_scooter", "lon": -77.0244135, "bike_id": "77b442a87200ef25c14769c4601d6008", "fusion_lat": 0.0, "name": "77b442a87200ef25c14769c4601d6008", "is_reserved": 0, "rental_uris": {"android": "https://dc.lft.to/lastmile_qr_scan", "ios": "https://dc.lft.to/lastmile_qr_scan"}, "fusion_lon": 0.0}, {"lat": 38.89247316666667, "is_disabled": 0, "type": "electric_scooter", "lon": -77.03955266666667, "bike_id": "802c9a61e999871c33e888a8a0e2bc8a", "fusion_lat": 0.0, "name": "802c9a61e999871c33e888a8a0e2bc8a", "is_reserved": 0, "rental_uris": {"android": "https://dc.lft.to/lastmile_qr_scan", "ios": "https://dc.lft.to/lastmile_qr_scan"}, "fusion_lon": 0.0}, {"lat": 38.90113366666667, "is_disabled": 0, "type": "electric_scooter", "lon": -77.0499065, "bike_id": "52ce0e87477547622300f10e5efd00b7", "fusion_lat": 0.0, "name": "52ce0e87477547622300f10e5efd00b7", "is_reserved": 0, "rental_uris": {"android": "https://dc.lft.to/lastmile_qr_scan", "ios": "https://dc.lft.to/lastmile_qr_scan"}, "fusion_lon": 0.0}, {"lat": 38.900072333333334, "is_disabled": 0, "type": "electric_scooter", "lon": -76.99565733333333, "bike_id": "1a3c2606d371b8058c2f44ba91f8f967", "fusion_lat": 0.0, "name": "1a3c2606d371b8058c2f44ba91f8f967", "is_reserved": 0, "rental_uris": {"android": "https://dc.lft.to/lastmile_qr_scan", "ios": "https://dc.lft.to/lastmile_qr_scan"}, "fusion_lon": 0.0}, {"lat": 38.92237766666667, "is_disabled": 0, "type": "electric_scooter", "lon": -77.03061933333333, "bike_id": "1af5c33709442d648d76133b54880704", "fusion_lat": 0.0, "name": "1af5c33709442d648d76133b54880704", "is_reserved": 0, "rental_uris": {"android": "https://dc.lft.to/lastmile_qr_scan", "ios": "https://dc.lft.to/lastmile_qr_scan"}, "fusion_lon": 0.0}, {"lat": 38.9068965, "is_disabled": 0, "type": "electric_scooter", "lon": -77.02715, "bike_id": "4d1739c0379d6fa82b34304019025992", "fusion_lat": 0.0, "name": "4d1739c0379d6fa82b34304019025992", "is_reserved": 0, "rental_uris": {"android": "https://dc.lft.to/lastmile_qr_scan", "ios": "https://dc.lft.to/lastmile_qr_scan"}, "fusion_lon": 0.0}, {"lat": 38.90083216666667, "is_disabled": 0, "type": "electric_scooter", "lon": -77.050548, "bike_id": "fb8c492d68e22726c1177cbd4a2ca351", "fusion_lat": 0.0, "name": "fb8c492d68e22726c1177cbd4a2ca351", "is_reserved": 0, "rental_uris": {"android": "https://dc.lft.to/lastmile_qr_scan", "ios": "https://dc.lft.to/lastmile_qr_scan"}, "fusion_lon": 0.0}, {"lat": 38.985051166666665, "is_disabled": 0, "type": "electric_bike", "lon": -76.9821485, "bike_id": "f9de5d6bbceb23588bf93e93064f99ba", "fusion_lat": 0.0, "name": "f9de5d6bbceb23588bf93e93064f99ba", "is_reserved": 0, "rental_uris": {"android": "https://dc.lft.to/lastmile_qr_scan", "ios": "https://dc.lft.to/lastmile_qr_scan"}, "fusion_lon": 0.0}, {"lat": 38.86403083333333, "is_disabled": 0, "type": "electric_bike", "lon": -76.97439533333333, "bike_id": "e5f84406d9e295746d5a92c699ac7541", "fusion_lat": 0.0, "name": "e5f84406d9e295746d5a92c699ac7541", "is_reserved": 0, "rental_uris": {"android": "https://dc.lft.to/lastmile_qr_scan", "ios": "https://dc.lft.to/lastmile_qr_scan"}, "fusion_lon": 0.0}, {"lat": 38.80576216666667, "is_disabled": 0, "type": "electric_bike", "lon": -77.06861083333334, "bike_id": "19f289afc6742689003e7e3d782015b0", "fusion_lat": 0.0, "name": "19f289afc6742689003e7e3d782015b0", "is_reserved": 0, "rental_uris": {"android": "https://dc.lft.to/lastmile_qr_scan", "ios": "https://dc.lft.to/lastmile_qr_scan"}, "fusion_lon": 0.0}, {"lat": 38.930797166666665, "is_disabled": 0, "type": "electric_scooter", "lon": -77.03413083333334, "bike_id": "cfdc4dc107085d2944759482d736a2f5", "fusion_lat": 0.0, "name": "cfdc4dc107085d2944759482d736a2f5", "is_reserved": 0, "rental_uris": {"android": "https://dc.lft.to/lastmile_qr_scan", "ios": "https://dc.lft.to/lastmile_qr_scan"}, "fusion_lon": 0.0}, {"lat": 38.92032116666667, "is_disabled": 0, "type": "electric_scooter", "lon": -77.03042566666667, "bike_id": "ecf979901b3bfc7970b213fb045ec06b", "fusion_lat": 0.0, "name": "ecf979901b3bfc7970b213fb045ec06b", "is_reserved": 0, "rental_uris": {"android": "https://dc.lft.to/lastmile_qr_scan", "ios": "https://dc.lft.to/lastmile_qr_scan"}, "fusion_lon": 0.0}, {"lat": 38.90799066666666, "is_disabled": 0, "type": "electric_scooter", "lon": -77.06371166666666, "bike_id": "68e9f0f4e099f95a3079a0fe13aa3f1e", "fusion_lat": 0.0, "name": "68e9f0f4e099f95a3079a0fe13aa3f1e", "is_reserved": 0, "rental_uris": {"android": "https://dc.lft.to/lastmile_qr_scan", "ios": "https://dc.lft.to/lastmile_qr_scan"}, "fusion_lon": 0.0}, {"lat": 38.93641316666667, "is_disabled": 0, "type": "electric_scooter", "lon": -77.02470883333334, "bike_id": "6763182e66aad95e32920b4230a6041f", "fusion_lat": 0.0, "name": "6763182e66aad95e32920b4230a6041f", "is_reserved": 0, "rental_uris": {"android": "https://dc.lft.to/lastmile_qr_scan", "ios": "https://dc.lft.to/lastmile_qr_scan"}, "fusion_lon": 0.0}, {"lat": 38.884862, "is_disabled": 0, "type": "electric_scooter", "lon": -77.03475133333333, "bike_id": "3c9e0983e87845fbcaa78726065aef4c", "fusion_lat": 0.0, "name": "3c9e0983e87845fbcaa78726065aef4c", "is_reserved": 0, "rental_uris": {"android": "https://dc.lft.to/lastmile_qr_scan", "ios": "https://dc.lft.to/lastmile_qr_scan"}, "fusion_lon": 0.0}, {"lat": 38.928534166666665, "is_disabled": 0, "type": "electric_bike", "lon": -77.1067615, "bike_id": "8a9f397c0d7578a465f3446245636a1d", "fusion_lat": 0.0, "name": "8a9f397c0d7578a465f3446245636a1d", "is_reserved": 0, "rental_uris": {"android": "https://dc.lft.to/lastmile_qr_scan", "ios": "https://dc.lft.to/lastmile_qr_scan"}, "fusion_lon": 0.0}, {"lat": 38.92538583333334, "is_disabled": 0, "type": "electric_scooter", "lon": -77.044312, "bike_id": "6b384fc71bc0e8dec3ca72d08f22052b", "fusion_lat": 0.0, "name": "6b384fc71bc0e8dec3ca72d08f22052b", "is_reserved": 0, "rental_uris": {"android": "https://dc.lft.to/lastmile_qr_scan", "ios": "https://dc.lft.to/lastmile_qr_scan"}, "fusion_lon": 0.0}, {"lat": 38.807454666666665, "is_disabled": 0, "type": "electric_bike", "lon": -77.09428283333334, "bike_id": "44967dc01774935f508c2b9952f4e776", "fusion_lat": 0.0, "name": "44967dc01774935f508c2b9952f4e776", "is_reserved": 0, "rental_uris": {"android": "https://dc.lft.to/lastmile_qr_scan", "ios": "https://dc.lft.to/lastmile_qr_scan"}, "fusion_lon": 0.0}, {"lat": 38.90029916666667, "is_disabled": 0, "type": "electric_scooter", "lon": -76.99356483333334, "bike_id": "bbc89d34750a436fb57b35d5f1335957", "fusion_lat": 0.0, "name": "bbc89d34750a436fb57b35d5f1335957", "is_reserved": 0, "rental_uris": {"android": "https://dc.lft.to/lastmile_qr_scan", "ios": "https://dc.lft.to/lastmile_qr_scan"}, "fusion_lon": 0.0}, {"lat": 38.947068333333334, "is_disabled": 0, "type": "electric_scooter", "lon": -77.0193965, "bike_id": "ffc5e319b52af7956f250d48cb177ec3", "fusion_lat": 0.0, "name": "ffc5e319b52af7956f250d48cb177ec3", "is_reserved": 0, "rental_uris": {"android": "https://dc.lft.to/lastmile_qr_scan", "ios": "https://dc.lft.to/lastmile_qr_scan"}, "fusion_lon": 0.0}, {"lat": 38.91484283333333, "is_disabled": 0, "type": "electric_scooter", "lon": -77.03259716666666, "bike_id": "45e0fe3f943404701c668d91119270a8", "fusion_lat": 0.0, "name": "45e0fe3f943404701c668d91119270a8", "is_reserved": 0, "rental_uris": {"android": "https://dc.lft.to/lastmile_qr_scan", "ios": "https://dc.lft.to/lastmile_qr_scan"}, "fusion_lon": 0.0}, {"lat": 38.921879, "is_disabled": 0, "type": "electric_scooter", "lon": -77.04134966666666, "bike_id": "b2ee30e1ed8d79440fce847952c52841", "fusion_lat": 0.0, "name": "b2ee30e1ed8d79440fce847952c52841", "is_reserved": 0, "rental_uris": {"android": "https://dc.lft.to/lastmile_qr_scan", "ios": "https://dc.lft.to/lastmile_qr_scan"}, "fusion_lon": 0.0}, {"lat": 38.935447833333335, "is_disabled": 0, "type": "electric_scooter", "lon": -77.0341665, "bike_id": "648a050b5b7cee299f262313ce2a7476", "fusion_lat": 0.0, "name": "648a050b5b7cee299f262313ce2a7476", "is_reserved": 0, "rental_uris": {"android": "https://dc.lft.to/lastmile_qr_scan", "ios": "https://dc.lft.to/lastmile_qr_scan"}, "fusion_lon": 0.0}, {"lat": 38.85971683333333, "is_disabled": 0, "type": "electric_bike", "lon": -77.05673716666666, "bike_id": "4597e7e996c63303b126b9ea035dcce0", "fusion_lat": 0.0, "name": "4597e7e996c63303b126b9ea035dcce0", "is_reserved": 0, "rental_uris": {"android": "https://dc.lft.to/lastmile_qr_scan", "ios": "https://dc.lft.to/lastmile_qr_scan"}, "fusion_lon": 0.0}, {"lat": 38.9491725, "is_disabled": 0, "type": "electric_scooter", "lon": -77.00862433333333, "bike_id": "653d0e198189b97717d53eded83ba8a1", "fusion_lat": 0.0, "name": "653d0e198189b97717d53eded83ba8a1", "is_reserved": 0, "rental_uris": {"android": "https://dc.lft.to/lastmile_qr_scan", "ios": "https://dc.lft.to/lastmile_qr_scan"}, "fusion_lon": 0.0}, {"lat": 38.9063915, "is_disabled": 0, "type": "electric_scooter", "lon": -77.03408516666667, "bike_id": "2dada4ceaf5c42df90d34fff960da7a5", "fusion_lat": 0.0, "name": "2dada4ceaf5c42df90d34fff960da7a5", "is_reserved": 0, "rental_uris": {"android": "https://dc.lft.to/lastmile_qr_scan", "ios": "https://dc.lft.to/lastmile_qr_scan"}, "fusion_lon": 0.0}, {"lat": 38.91817183333333, "is_disabled": 0, "type": "electric_scooter", "lon": -77.013842, "bike_id": "7c546331e2c32bbca2ad52dd46ef1321", "fusion_lat": 0.0, "name": "7c546331e2c32bbca2ad52dd46ef1321", "is_reserved": 0, "rental_uris": {"android": "https://dc.lft.to/lastmile_qr_scan", "ios": "https://dc.lft.to/lastmile_qr_scan"}, "fusion_lon": 0.0}, {"lat": 38.911166, "is_disabled": 0, "type": "electric_scooter", "lon": -77.03833133333333, "bike_id": "02dc5946a381f9584c4fbe4d41223730", "fusion_lat": 0.0, "name": "02dc5946a381f9584c4fbe4d41223730", "is_reserved": 0, "rental_uris": {"android": "https://dc.lft.to/lastmile_qr_scan", "ios": "https://dc.lft.to/lastmile_qr_scan"}, "fusion_lon": 0.0}, {"lat": 38.91465083333333, "is_disabled": 0, "type": "electric_scooter", "lon": -77.02798083333333, "bike_id": "0f690e987ecdfdefc38bc33f97153285", "fusion_lat": 0.0, "name": "0f690e987ecdfdefc38bc33f97153285", "is_reserved": 0, "rental_uris": {"android": "https://dc.lft.to/lastmile_qr_scan", "ios": "https://dc.lft.to/lastmile_qr_scan"}, "fusion_lon": 0.0}, {"lat": 38.903799166666666, "is_disabled": 0, "type": "electric_scooter", "lon": -77.04351566666666, "bike_id": "ea66bbedb164bbc0df5b807b8f152978", "fusion_lat": 0.0, "name": "ea66bbedb164bbc0df5b807b8f152978", "is_reserved": 0, "rental_uris": {"android": "https://dc.lft.to/lastmile_qr_scan", "ios": "https://dc.lft.to/lastmile_qr_scan"}, "fusion_lon": 0.0}, {"lat": 38.91055166666666, "is_disabled": 0, "type": "electric_scooter", "lon": -77.02653483333333, "bike_id": "fa791c5da0580671b1b0e82a801c89ed", "fusion_lat": 0.0, "name": "fa791c5da0580671b1b0e82a801c89ed", "is_reserved": 0, "rental_uris": {"android": "https://dc.lft.to/lastmile_qr_scan", "ios": "https://dc.lft.to/lastmile_qr_scan"}, "fusion_lon": 0.0}, {"lat": 38.90569633333333, "is_disabled": 0, "type": "electric_scooter", "lon": -77.02926016666666, "bike_id": "95c30f8666930aeb67d90ae466f2662b", "fusion_lat": 0.0, "name": "95c30f8666930aeb67d90ae466f2662b", "is_reserved": 0, "rental_uris": {"android": "https://dc.lft.to/lastmile_qr_scan", "ios": "https://dc.lft.to/lastmile_qr_scan"}, "fusion_lon": 0.0}, {"lat": 38.92206316666667, "is_disabled": 0, "type": "electric_scooter", "lon": -77.0401745, "bike_id": "7c204d617ba09839e6f31b7485b57045", "fusion_lat": 0.0, "name": "7c204d617ba09839e6f31b7485b57045", "is_reserved": 0, "rental_uris": {"android": "https://dc.lft.to/lastmile_qr_scan", "ios": "https://dc.lft.to/lastmile_qr_scan"}, "fusion_lon": 0.0}, {"lat": 38.869086, "is_disabled": 0, "type": "electric_bike", "lon": -77.131815, "bike_id": "b20ec3996c4625d7bec5dfabca5c7a06", "fusion_lat": 0.0, "name": "b20ec3996c4625d7bec5dfabca5c7a06", "is_reserved": 0, "rental_uris": {"android": "https://dc.lft.to/lastmile_qr_scan", "ios": "https://dc.lft.to/lastmile_qr_scan"}, "fusion_lon": 0.0}, {"lat": 38.954013, "is_disabled": 0, "type": "electric_scooter", "lon": -77.0362655, "bike_id": "ec93f3cb62ba0186d15e8d939871cecc", "fusion_lat": 0.0, "name": "ec93f3cb62ba0186d15e8d939871cecc", "is_reserved": 0, "rental_uris": {"android": "https://dc.lft.to/lastmile_qr_scan", "ios": "https://dc.lft.to/lastmile_qr_scan"}, "fusion_lon": 0.0}, {"lat": 38.8860255, "is_disabled": 0, "type": "electric_scooter", "lon": -77.0219205, "bike_id": "904fb7b6ac9f2ac3fcf4be39ab5a57ff", "fusion_lat": 0.0, "name": "904fb7b6ac9f2ac3fcf4be39ab5a57ff", "is_reserved": 0, "rental_uris": {"android": "https://dc.lft.to/lastmile_qr_scan", "ios": "https://dc.lft.to/lastmile_qr_scan"}, "fusion_lon": 0.0}, {"lat": 38.917479666666665, "is_disabled": 0, "type": "electric_scooter", "lon": -77.007429, "bike_id": "b745246e7e3da0d240c21feb68deb350", "fusion_lat": 0.0, "name": "b745246e7e3da0d240c21feb68deb350", "is_reserved": 0, "rental_uris": {"android": "https://dc.lft.to/lastmile_qr_scan", "ios": "https://dc.lft.to/lastmile_qr_scan"}, "fusion_lon": 0.0}, {"lat": 38.840342666666665, "is_disabled": 0, "type": "electric_bike", "lon": -76.97623216666666, "bike_id": "057006675af2483fae9f9ff8632714ad", "fusion_lat": 0.0, "name": "057006675af2483fae9f9ff8632714ad", "is_reserved": 0, "rental_uris": {"android": "https://dc.lft.to/lastmile_qr_scan", "ios": "https://dc.lft.to/lastmile_qr_scan"}, "fusion_lon": 0.0}, {"lat": 38.93170583333333, "is_disabled": 0, "type": "electric_scooter", "lon": -77.028117, "bike_id": "a93134b60065c85f4537df62adc2a064", "fusion_lat": 0.0, "name": "a93134b60065c85f4537df62adc2a064", "is_reserved": 0, "rental_uris": {"android": "https://dc.lft.to/lastmile_qr_scan", "ios": "https://dc.lft.to/lastmile_qr_scan"}, "fusion_lon": 0.0}, {"lat": 38.890471, "is_disabled": 0, "type": "electric_scooter", "lon": -76.95137866666667, "bike_id": "9c7ab651d6b03b8a6c173566cc7e1378", "fusion_lat": 0.0, "name": "9c7ab651d6b03b8a6c173566cc7e1378", "is_reserved": 0, "rental_uris": {"android": "https://dc.lft.to/lastmile_qr_scan", "ios": "https://dc.lft.to/lastmile_qr_scan"}, "fusion_lon": 0.0}, {"lat": 38.91591183333333, "is_disabled": 0, "type": "electric_scooter", "lon": -77.03220933333333, "bike_id": "c9bd16d16eae2d1a1319c2893e62f531", "fusion_lat": 0.0, "name": "c9bd16d16eae2d1a1319c2893e62f531", "is_reserved": 0, "rental_uris": {"android": "https://dc.lft.to/lastmile_qr_scan", "ios": "https://dc.lft.to/lastmile_qr_scan"}, "fusion_lon": 0.0}, {"lat": 38.905402, "is_disabled": 0, "type": "electric_scooter", "lon": -77.03400683333334, "bike_id": "407b788dfc9951857658c9103223fb54", "fusion_lat": 0.0, "name": "407b788dfc9951857658c9103223fb54", "is_reserved": 0, "rental_uris": {"android": "https://dc.lft.to/lastmile_qr_scan", "ios": "https://dc.lft.to/lastmile_qr_scan"}, "fusion_lon": 0.0}, {"lat": 38.91046683333333, "is_disabled": 0, "type": "electric_scooter", "lon": -77.01506783333333, "bike_id": "46ca15a12a7cf6e63770b8a078bdaa58", "fusion_lat": 0.0, "name": "46ca15a12a7cf6e63770b8a078bdaa58", "is_reserved": 0, "rental_uris": {"android": "https://dc.lft.to/lastmile_qr_scan", "ios": "https://dc.lft.to/lastmile_qr_scan"}, "fusion_lon": 0.0}, {"lat": 38.906449333333335, "is_disabled": 0, "type": "electric_scooter", "lon": -77.025961, "bike_id": "4c87a9752f9ec6c3c80d3eac26b2d333", "fusion_lat": 0.0, "name": "4c87a9752f9ec6c3c80d3eac26b2d333", "is_reserved": 0, "rental_uris": {"android": "https://dc.lft.to/lastmile_qr_scan", "ios": "https://dc.lft.to/lastmile_qr_scan"}, "fusion_lon": 0.0}, {"lat": 38.90776066666667, "is_disabled": 0, "type": "electric_scooter", "lon": -77.04226733333333, "bike_id": "cb905f716051962a62c528007c0acb8e", "fusion_lat": 0.0, "name": "cb905f716051962a62c528007c0acb8e", "is_reserved": 0, "rental_uris": {"android": "https://dc.lft.to/lastmile_qr_scan", "ios": "https://dc.lft.to/lastmile_qr_scan"}, "fusion_lon": 0.0}, {"lat": 38.93416583333333, "is_disabled": 0, "type": "electric_scooter", "lon": -77.057816, "bike_id": "944bd93fca475c60ce72d74f197c86f0", "fusion_lat": 0.0, "name": "944bd93fca475c60ce72d74f197c86f0", "is_reserved": 0, "rental_uris": {"android": "https://dc.lft.to/lastmile_qr_scan", "ios": "https://dc.lft.to/lastmile_qr_scan"}, "fusion_lon": 0.0}, {"lat": 38.924804, "is_disabled": 0, "type": "electric_scooter", "lon": -77.034847, "bike_id": "d5617f247407d92ab86c543f6c690508", "fusion_lat": 0.0, "name": "d5617f247407d92ab86c543f6c690508", "is_reserved": 0, "rental_uris": {"android": "https://dc.lft.to/lastmile_qr_scan", "ios": "https://dc.lft.to/lastmile_qr_scan"}, "fusion_lon": 0.0}, {"lat": 38.965621166666665, "is_disabled": 0, "type": "electric_scooter", "lon": -77.016252, "bike_id": "98d003287188a4138678dae6f27ca569", "fusion_lat": 0.0, "name": "98d003287188a4138678dae6f27ca569", "is_reserved": 0, "rental_uris": {"android": "https://dc.lft.to/lastmile_qr_scan", "ios": "https://dc.lft.to/lastmile_qr_scan"}, "fusion_lon": 0.0}, {"lat": 38.94308816666667, "is_disabled": 0, "type": "electric_scooter", "lon": -77.06133833333334, "bike_id": "839902cbd5d71371b720fa3c29455b50", "fusion_lat": 0.0, "name": "839902cbd5d71371b720fa3c29455b50", "is_reserved": 0, "rental_uris": {"android": "https://dc.lft.to/lastmile_qr_scan", "ios": "https://dc.lft.to/lastmile_qr_scan"}, "fusion_lon": 0.0}, {"lat": 38.894897, "is_disabled": 0, "type": "electric_scooter", "lon": -77.00251116666666, "bike_id": "152f827204ce923a299d5648abe8524d", "fusion_lat": 0.0, "name": "152f827204ce923a299d5648abe8524d", "is_reserved": 0, "rental_uris": {"android": "https://dc.lft.to/lastmile_qr_scan", "ios": "https://dc.lft.to/lastmile_qr_scan"}, "fusion_lon": 0.0}, {"lat": 38.88639466666667, "is_disabled": 0, "type": "electric_scooter", "lon": -76.954894, "bike_id": "85e2d89559e3374f9a357eba7a632646", "fusion_lat": 0.0, "name": "85e2d89559e3374f9a357eba7a632646", "is_reserved": 0, "rental_uris": {"android": "https://dc.lft.to/lastmile_qr_scan", "ios": "https://dc.lft.to/lastmile_qr_scan"}, "fusion_lon": 0.0}, {"lat": 38.896663, "is_disabled": 0, "type": "electric_scooter", "lon": -77.04662483333334, "bike_id": "e493b3b0e0d7fe4bf98e960789973d41", "fusion_lat": 0.0, "name": "e493b3b0e0d7fe4bf98e960789973d41", "is_reserved": 0, "rental_uris": {"android": "https://dc.lft.to/lastmile_qr_scan", "ios": "https://dc.lft.to/lastmile_qr_scan"}, "fusion_lon": 0.0}, {"lat": 38.904821166666665, "is_disabled": 0, "type": "electric_scooter", "lon": -76.97327333333334, "bike_id": "90e538c7e2dd08d0de4b25cd1447dccc", "fusion_lat": 0.0, "name": "90e538c7e2dd08d0de4b25cd1447dccc", "is_reserved": 0, "rental_uris": {"android": "https://dc.lft.to/lastmile_qr_scan", "ios": "https://dc.lft.to/lastmile_qr_scan"}, "fusion_lon": 0.0}, {"lat": 38.915721, "is_disabled": 0, "type": "electric_scooter", "lon": -77.05017733333334, "bike_id": "6a45282faba8b7d1c199a06dc6ffe198", "fusion_lat": 0.0, "name": "6a45282faba8b7d1c199a06dc6ffe198", "is_reserved": 0, "rental_uris": {"android": "https://dc.lft.to/lastmile_qr_scan", "ios": "https://dc.lft.to/lastmile_qr_scan"}, "fusion_lon": 0.0}, {"lat": 38.9268305, "is_disabled": 0, "type": "electric_scooter", "lon": -77.01502916666666, "bike_id": "473e14baffef8be501ced97ba789d240", "fusion_lat": 0.0, "name": "473e14baffef8be501ced97ba789d240", "is_reserved": 0, "rental_uris": {"android": "https://dc.lft.to/lastmile_qr_scan", "ios": "https://dc.lft.to/lastmile_qr_scan"}, "fusion_lon": 0.0}, {"lat": 38.910525166666666, "is_disabled": 0, "type": "electric_scooter", "lon": -77.045688, "bike_id": "e67e96d80bf6cd5af3b501631d257bf3", "fusion_lat": 0.0, "name": "e67e96d80bf6cd5af3b501631d257bf3", "is_reserved": 0, "rental_uris": {"android": "https://dc.lft.to/lastmile_qr_scan", "ios": "https://dc.lft.to/lastmile_qr_scan"}, "fusion_lon": 0.0}, {"lat": 38.893505, "is_disabled": 0, "type": "electric_scooter", "lon": -76.98476933333333, "bike_id": "36d2a0a55dda8bc88276e8e1dae23701", "fusion_lat": 0.0, "name": "36d2a0a55dda8bc88276e8e1dae23701", "is_reserved": 0, "rental_uris": {"android": "https://dc.lft.to/lastmile_qr_scan", "ios": "https://dc.lft.to/lastmile_qr_scan"}, "fusion_lon": 0.0}, {"lat": 38.89505833333333, "is_disabled": 0, "type": "electric_scooter", "lon": -77.01606716666667, "bike_id": "c8816afaa95ac8887b905cd0784036d7", "fusion_lat": 0.0, "name": "c8816afaa95ac8887b905cd0784036d7", "is_reserved": 0, "rental_uris": {"android": "https://dc.lft.to/lastmile_qr_scan", "ios": "https://dc.lft.to/lastmile_qr_scan"}, "fusion_lon": 0.0}, {"lat": 38.911289833333335, "is_disabled": 0, "type": "electric_scooter", "lon": -77.02193783333334, "bike_id": "8d58ea12fc6f37bfc1247b05ea0b6601", "fusion_lat": 0.0, "name": "8d58ea12fc6f37bfc1247b05ea0b6601", "is_reserved": 0, "rental_uris": {"android": "https://dc.lft.to/lastmile_qr_scan", "ios": "https://dc.lft.to/lastmile_qr_scan"}, "fusion_lon": 0.0}, {"lat": 38.92103566666667, "is_disabled": 0, "type": "electric_scooter", "lon": -77.04181566666666, "bike_id": "f919dbb038b38ec0ba36a901dfa6c940", "fusion_lat": 0.0, "name": "f919dbb038b38ec0ba36a901dfa6c940", "is_reserved": 0, "rental_uris": {"android": "https://dc.lft.to/lastmile_qr_scan", "ios": "https://dc.lft.to/lastmile_qr_scan"}, "fusion_lon": 0.0}, {"lat": 38.9217045, "is_disabled": 0, "type": "electric_scooter", "lon": -77.040158, "bike_id": "5e022cbb1e27174348c18f735716edd7", "fusion_lat": 0.0, "name": "5e022cbb1e27174348c18f735716edd7", "is_reserved": 0, "rental_uris": {"android": "https://dc.lft.to/lastmile_qr_scan", "ios": "https://dc.lft.to/lastmile_qr_scan"}, "fusion_lon": 0.0}, {"lat": 38.842704166666664, "is_disabled": 0, "type": "electric_bike", "lon": -76.9883845, "bike_id": "576babc79357fab2eb085f1366f81e52", "fusion_lat": 0.0, "name": "576babc79357fab2eb085f1366f81e52", "is_reserved": 0, "rental_uris": {"android": "https://dc.lft.to/lastmile_qr_scan", "ios": "https://dc.lft.to/lastmile_qr_scan"}, "fusion_lon": 0.0}, {"lat": 38.932289833333336, "is_disabled": 0, "type": "electric_scooter", "lon": -76.9959955, "bike_id": "b0d6065ce64a610620fa28c5f1402c1b", "fusion_lat": 0.0, "name": "b0d6065ce64a610620fa28c5f1402c1b", "is_reserved": 0, "rental_uris": {"android": "https://dc.lft.to/lastmile_qr_scan", "ios": "https://dc.lft.to/lastmile_qr_scan"}, "fusion_lon": 0.0}, {"lat": 38.911986, "is_disabled": 0, "type": "electric_scooter", "lon": -77.0020855, "bike_id": "a54f8fcac9757131540bf58993032cbc", "fusion_lat": 0.0, "name": "a54f8fcac9757131540bf58993032cbc", "is_reserved": 0, "rental_uris": {"android": "https://dc.lft.to/lastmile_qr_scan", "ios": "https://dc.lft.to/lastmile_qr_scan"}, "fusion_lon": 0.0}, {"lat": 38.8848895, "is_disabled": 0, "type": "electric_scooter", "lon": -77.00708333333333, "bike_id": "7fa36bd6e78cb9dbc0bbc5744a2dd97d", "fusion_lat": 0.0, "name": "7fa36bd6e78cb9dbc0bbc5744a2dd97d", "is_reserved": 0, "rental_uris": {"android": "https://dc.lft.to/lastmile_qr_scan", "ios": "https://dc.lft.to/lastmile_qr_scan"}, "fusion_lon": 0.0}, {"lat": 38.866243833333336, "is_disabled": 0, "type": "electric_scooter", "lon": -76.986966, "bike_id": "0be91d80b175a1623c9ad9ca89cfcc6e", "fusion_lat": 0.0, "name": "0be91d80b175a1623c9ad9ca89cfcc6e", "is_reserved": 0, "rental_uris": {"android": "https://dc.lft.to/lastmile_qr_scan", "ios": "https://dc.lft.to/lastmile_qr_scan"}, "fusion_lon": 0.0}, {"lat": 38.90955866666667, "is_disabled": 0, "type": "electric_scooter", "lon": -77.02280366666666, "bike_id": "37120e13412a40a329b719a3e8ab89ae", "fusion_lat": 0.0, "name": "37120e13412a40a329b719a3e8ab89ae", "is_reserved": 0, "rental_uris": {"android": "https://dc.lft.to/lastmile_qr_scan", "ios": "https://dc.lft.to/lastmile_qr_scan"}, "fusion_lon": 0.0}, {"lat": 38.88765866666667, "is_disabled": 0, "type": "electric_scooter", "lon": -76.95597733333334, "bike_id": "99b0d68276db6cc988ce783911f26ae3", "fusion_lat": 0.0, "name": "99b0d68276db6cc988ce783911f26ae3", "is_reserved": 0, "rental_uris": {"android": "https://dc.lft.to/lastmile_qr_scan", "ios": "https://dc.lft.to/lastmile_qr_scan"}, "fusion_lon": 0.0}, {"lat": 38.875685, "is_disabled": 0, "type": "electric_bike", "lon": -77.105443, "bike_id": "feec1195e1a843fe4227d3fb01c436a8", "fusion_lat": 0.0, "name": "feec1195e1a843fe4227d3fb01c436a8", "is_reserved": 0, "rental_uris": {"android": "https://dc.lft.to/lastmile_qr_scan", "ios": "https://dc.lft.to/lastmile_qr_scan"}, "fusion_lon": 0.0}, {"lat": 38.917457666666664, "is_disabled": 0, "type": "electric_scooter", "lon": -77.02291516666666, "bike_id": "6e9be04532731ce5bb9a406b06ce0240", "fusion_lat": 0.0, "name": "6e9be04532731ce5bb9a406b06ce0240", "is_reserved": 0, "rental_uris": {"android": "https://dc.lft.to/lastmile_qr_scan", "ios": "https://dc.lft.to/lastmile_qr_scan"}, "fusion_lon": 0.0}, {"lat": 38.84294083333333, "is_disabled": 0, "type": "electric_scooter", "lon": -76.99937733333333, "bike_id": "4d3da9df4c446396e681904b59ee15d7", "fusion_lat": 0.0, "name": "4d3da9df4c446396e681904b59ee15d7", "is_reserved": 0, "rental_uris": {"android": "https://dc.lft.to/lastmile_qr_scan", "ios": "https://dc.lft.to/lastmile_qr_scan"}, "fusion_lon": 0.0}, {"lat": 38.94287283333333, "is_disabled": 0, "type": "electric_scooter", "lon": -77.02174316666667, "bike_id": "ec6c64f81966e78048d40ea5c8c1844c", "fusion_lat": 0.0, "name": "ec6c64f81966e78048d40ea5c8c1844c", "is_reserved": 0, "rental_uris": {"android": "https://dc.lft.to/lastmile_qr_scan", "ios": "https://dc.lft.to/lastmile_qr_scan"}, "fusion_lon": 0.0}, {"lat": 38.8427125, "is_disabled": 0, "type": "electric_bike", "lon": -76.98844883333334, "bike_id": "a60c7a27c2d18fff3f83af3d9693f8b7", "fusion_lat": 0.0, "name": "a60c7a27c2d18fff3f83af3d9693f8b7", "is_reserved": 0, "rental_uris": {"android": "https://dc.lft.to/lastmile_qr_scan", "ios": "https://dc.lft.to/lastmile_qr_scan"}, "fusion_lon": 0.0}, {"lat": 38.85667266666667, "is_disabled": 0, "type": "electric_scooter", "lon": -76.98177483333333, "bike_id": "d431513957017f30105b06eeb925eeeb", "fusion_lat": 0.0, "name": "d431513957017f30105b06eeb925eeeb", "is_reserved": 0, "rental_uris": {"android": "https://dc.lft.to/lastmile_qr_scan", "ios": "https://dc.lft.to/lastmile_qr_scan"}, "fusion_lon": 0.0}, {"lat": 38.895418666666664, "is_disabled": 0, "type": "electric_scooter", "lon": -77.00436383333333, "bike_id": "f9bd098a54417225c65dee169f425b77", "fusion_lat": 0.0, "name": "f9bd098a54417225c65dee169f425b77", "is_reserved": 0, "rental_uris": {"android": "https://dc.lft.to/lastmile_qr_scan", "ios": "https://dc.lft.to/lastmile_qr_scan"}, "fusion_lon": 0.0}, {"lat": 38.9827635, "is_disabled": 0, "type": "electric_bike", "lon": -77.02536416666666, "bike_id": "58c6c17191c17e51b049fbd3e744c4c7", "fusion_lat": 0.0, "name": "58c6c17191c17e51b049fbd3e744c4c7", "is_reserved": 0, "rental_uris": {"android": "https://dc.lft.to/lastmile_qr_scan", "ios": "https://dc.lft.to/lastmile_qr_scan"}, "fusion_lon": 0.0}, {"lat": 38.90145866666667, "is_disabled": 0, "type": "electric_scooter", "lon": -77.029316, "bike_id": "25e981d7a267939af373093e17149e74", "fusion_lat": 0.0, "name": "25e981d7a267939af373093e17149e74", "is_reserved": 0, "rental_uris": {"android": "https://dc.lft.to/lastmile_qr_scan", "ios": "https://dc.lft.to/lastmile_qr_scan"}, "fusion_lon": 0.0}, {"lat": 38.837134666666664, "is_disabled": 0, "type": "electric_bike", "lon": -76.99769233333333, "bike_id": "951702baa9fde0d38f97a3ebce803169", "fusion_lat": 0.0, "name": "951702baa9fde0d38f97a3ebce803169", "is_reserved": 0, "rental_uris": {"android": "https://dc.lft.to/lastmile_qr_scan", "ios": "https://dc.lft.to/lastmile_qr_scan"}, "fusion_lon": 0.0}, {"lat": 38.926541, "is_disabled": 0, "type": "electric_scooter", "lon": -76.997503, "bike_id": "d7becce75c81061a01f20e27d5612352", "fusion_lat": 0.0, "name": "d7becce75c81061a01f20e27d5612352", "is_reserved": 0, "rental_uris": {"android": "https://dc.lft.to/lastmile_qr_scan", "ios": "https://dc.lft.to/lastmile_qr_scan"}, "fusion_lon": 0.0}, {"lat": 38.911088666666664, "is_disabled": 0, "type": "electric_scooter", "lon": -77.03832216666666, "bike_id": "c6e8e2fbcb761886bab3925ad07a9670", "fusion_lat": 0.0, "name": "c6e8e2fbcb761886bab3925ad07a9670", "is_reserved": 0, "rental_uris": {"android": "https://dc.lft.to/lastmile_qr_scan", "ios": "https://dc.lft.to/lastmile_qr_scan"}, "fusion_lon": 0.0}, {"lat": 38.884874833333335, "is_disabled": 0, "type": "electric_scooter", "lon": -77.03471466666667, "bike_id": "fbffbee74391969be6990cc6ce54363a", "fusion_lat": 0.0, "name": "fbffbee74391969be6990cc6ce54363a", "is_reserved": 0, "rental_uris": {"android": "https://dc.lft.to/lastmile_qr_scan", "ios": "https://dc.lft.to/lastmile_qr_scan"}, "fusion_lon": 0.0}, {"lat": 38.8650825, "is_disabled": 0, "type": "electric_scooter", "lon": -76.9900675, "bike_id": "f24977cea267ef422d2da1b499492d64", "fusion_lat": 0.0, "name": "f24977cea267ef422d2da1b499492d64", "is_reserved": 0, "rental_uris": {"android": "https://dc.lft.to/lastmile_qr_scan", "ios": "https://dc.lft.to/lastmile_qr_scan"}, "fusion_lon": 0.0}, {"lat": 38.896345333333336, "is_disabled": 0, "type": "electric_scooter", "lon": -77.021452, "bike_id": "66d2164ccc8e59e00b5b932deb6805b1", "fusion_lat": 0.0, "name": "66d2164ccc8e59e00b5b932deb6805b1", "is_reserved": 0, "rental_uris": {"android": "https://dc.lft.to/lastmile_qr_scan", "ios": "https://dc.lft.to/lastmile_qr_scan"}, "fusion_lon": 0.0}, {"lat": 38.916599166666664, "is_disabled": 0, "type": "electric_scooter", "lon": -77.047081, "bike_id": "c86ee8c9e93f31a56c0098e7d8801ef2", "fusion_lat": 0.0, "name": "c86ee8c9e93f31a56c0098e7d8801ef2", "is_reserved": 0, "rental_uris": {"android": "https://dc.lft.to/lastmile_qr_scan", "ios": "https://dc.lft.to/lastmile_qr_scan"}, "fusion_lon": 0.0}, {"lat": 38.922528, "is_disabled": 0, "type": "electric_scooter", "lon": -77.04259366666666, "bike_id": "aa28d42fc35927fc1cb62d3e95545fc7", "fusion_lat": 0.0, "name": "aa28d42fc35927fc1cb62d3e95545fc7", "is_reserved": 0, "rental_uris": {"android": "https://dc.lft.to/lastmile_qr_scan", "ios": "https://dc.lft.to/lastmile_qr_scan"}, "fusion_lon": 0.0}, {"lat": 38.93404983333333, "is_disabled": 0, "type": "electric_scooter", "lon": -77.0245875, "bike_id": "52e0e20cc19b0b347556d5baf09e9dc2", "fusion_lat": 0.0, "name": "52e0e20cc19b0b347556d5baf09e9dc2", "is_reserved": 0, "rental_uris": {"android": "https://dc.lft.to/lastmile_qr_scan", "ios": "https://dc.lft.to/lastmile_qr_scan"}, "fusion_lon": 0.0}, {"lat": 38.9196295, "is_disabled": 0, "type": "electric_scooter", "lon": -77.01437233333333, "bike_id": "adccec1fe594e091fa7d880addcfa0d3", "fusion_lat": 0.0, "name": "adccec1fe594e091fa7d880addcfa0d3", "is_reserved": 0, "rental_uris": {"android": "https://dc.lft.to/lastmile_qr_scan", "ios": "https://dc.lft.to/lastmile_qr_scan"}, "fusion_lon": 0.0}, {"lat": 38.91535866666667, "is_disabled": 0, "type": "electric_scooter", "lon": -77.03193466666667, "bike_id": "3227e721a80bfd674f9538a84e35df13", "fusion_lat": 0.0, "name": "3227e721a80bfd674f9538a84e35df13", "is_reserved": 0, "rental_uris": {"android": "https://dc.lft.to/lastmile_qr_scan", "ios": "https://dc.lft.to/lastmile_qr_scan"}, "fusion_lon": 0.0}, {"lat": 38.95709383333333, "is_disabled": 0, "type": "electric_scooter", "lon": -77.023965, "bike_id": "863ea2cc4456ddee1d199fcfb5b4f88c", "fusion_lat": 0.0, "name": "863ea2cc4456ddee1d199fcfb5b4f88c", "is_reserved": 0, "rental_uris": {"android": "https://dc.lft.to/lastmile_qr_scan", "ios": "https://dc.lft.to/lastmile_qr_scan"}, "fusion_lon": 0.0}, {"lat": 38.93430633333333, "is_disabled": 0, "type": "electric_scooter", "lon": -76.96509216666666, "bike_id": "60c32e82ac454eb6e2c4abe921fb0f25", "fusion_lat": 0.0, "name": "60c32e82ac454eb6e2c4abe921fb0f25", "is_reserved": 0, "rental_uris": {"android": "https://dc.lft.to/lastmile_qr_scan", "ios": "https://dc.lft.to/lastmile_qr_scan"}, "fusion_lon": 0.0}, {"lat": 38.89996083333333, "is_disabled": 0, "type": "electric_scooter", "lon": -77.042227, "bike_id": "a567eadb41569657e68bd3da156ddb7e", "fusion_lat": 0.0, "name": "a567eadb41569657e68bd3da156ddb7e", "is_reserved": 0, "rental_uris": {"android": "https://dc.lft.to/lastmile_qr_scan", "ios": "https://dc.lft.to/lastmile_qr_scan"}, "fusion_lon": 0.0}, {"lat": 38.88549916666667, "is_disabled": 0, "type": "electric_bike", "lon": -77.11787766666667, "bike_id": "82cf46b9d142accc4f7d342284cc53b7", "fusion_lat": 0.0, "name": "82cf46b9d142accc4f7d342284cc53b7", "is_reserved": 0, "rental_uris": {"android": "https://dc.lft.to/lastmile_qr_scan", "ios": "https://dc.lft.to/lastmile_qr_scan"}, "fusion_lon": 0.0}, {"lat": 38.9054905, "is_disabled": 0, "type": "electric_scooter", "lon": -77.004992, "bike_id": "c1d693d7209b0353c09608ff2ca5a464", "fusion_lat": 0.0, "name": "c1d693d7209b0353c09608ff2ca5a464", "is_reserved": 0, "rental_uris": {"android": "https://dc.lft.to/lastmile_qr_scan", "ios": "https://dc.lft.to/lastmile_qr_scan"}, "fusion_lon": 0.0}, {"lat": 38.948221833333335, "is_disabled": 0, "type": "electric_scooter", "lon": -76.99905233333334, "bike_id": "c104b709e05caeb01ea3428620251a52", "fusion_lat": 0.0, "name": "c104b709e05caeb01ea3428620251a52", "is_reserved": 0, "rental_uris": {"android": "https://dc.lft.to/lastmile_qr_scan", "ios": "https://dc.lft.to/lastmile_qr_scan"}, "fusion_lon": 0.0}, {"lat": 38.884410333333335, "is_disabled": 0, "type": "electric_scooter", "lon": -76.92954266666666, "bike_id": "9da98be6ae05094f64326f8a8ebeca3b", "fusion_lat": 0.0, "name": "9da98be6ae05094f64326f8a8ebeca3b", "is_reserved": 0, "rental_uris": {"android": "https://dc.lft.to/lastmile_qr_scan", "ios": "https://dc.lft.to/lastmile_qr_scan"}, "fusion_lon": 0.0}, {"lat": 38.906759666666666, "is_disabled": 0, "type": "electric_scooter", "lon": -77.00826883333333, "bike_id": "b138b7e5c98d59ed223cbe7ccbd3c0de", "fusion_lat": 0.0, "name": "b138b7e5c98d59ed223cbe7ccbd3c0de", "is_reserved": 0, "rental_uris": {"android": "https://dc.lft.to/lastmile_qr_scan", "ios": "https://dc.lft.to/lastmile_qr_scan"}, "fusion_lon": 0.0}, {"lat": 38.886833833333334, "is_disabled": 0, "type": "electric_bike", "lon": -77.162308, "bike_id": "644133650bed7880e3463b59cb896ddb", "fusion_lat": 0.0, "name": "644133650bed7880e3463b59cb896ddb", "is_reserved": 0, "rental_uris": {"android": "https://dc.lft.to/lastmile_qr_scan", "ios": "https://dc.lft.to/lastmile_qr_scan"}, "fusion_lon": 0.0}, {"lat": 38.9337575, "is_disabled": 0, "type": "electric_scooter", "lon": -77.03549983333333, "bike_id": "7c5120a04a6b524afc059c2ca66128d6", "fusion_lat": 0.0, "name": "7c5120a04a6b524afc059c2ca66128d6", "is_reserved": 0, "rental_uris": {"android": "https://dc.lft.to/lastmile_qr_scan", "ios": "https://dc.lft.to/lastmile_qr_scan"}, "fusion_lon": 0.0}, {"lat": 38.903916833333334, "is_disabled": 0, "type": "electric_scooter", "lon": -76.990038, "bike_id": "98c0845d81392a1d9892692d36e964de", "fusion_lat": 0.0, "name": "98c0845d81392a1d9892692d36e964de", "is_reserved": 0, "rental_uris": {"android": "https://dc.lft.to/lastmile_qr_scan", "ios": "https://dc.lft.to/lastmile_qr_scan"}, "fusion_lon": 0.0}, {"lat": 38.88618816666666, "is_disabled": 0, "type": "electric_scooter", "lon": -77.018872, "bike_id": "c15763da852e7b248f01979770dd747a", "fusion_lat": 0.0, "name": "c15763da852e7b248f01979770dd747a", "is_reserved": 0, "rental_uris": {"android": "https://dc.lft.to/lastmile_qr_scan", "ios": "https://dc.lft.to/lastmile_qr_scan"}, "fusion_lon": 0.0}, {"lat": 38.917650333333334, "is_disabled": 0, "type": "electric_scooter", "lon": -77.0045065, "bike_id": "03f1e7412c880019346bd43bdbcdb28f", "fusion_lat": 0.0, "name": "03f1e7412c880019346bd43bdbcdb28f", "is_reserved": 0, "rental_uris": {"android": "https://dc.lft.to/lastmile_qr_scan", "ios": "https://dc.lft.to/lastmile_qr_scan"}, "fusion_lon": 0.0}, {"lat": 38.900534, "is_disabled": 0, "type": "electric_scooter", "lon": -77.00745833333333, "bike_id": "10bf74aaaba7aab5f3192973a7d011cf", "fusion_lat": 0.0, "name": "10bf74aaaba7aab5f3192973a7d011cf", "is_reserved": 0, "rental_uris": {"android": "https://dc.lft.to/lastmile_qr_scan", "ios": "https://dc.lft.to/lastmile_qr_scan"}, "fusion_lon": 0.0}, {"lat": 38.896113, "is_disabled": 0, "type": "electric_scooter", "lon": -77.04405966666667, "bike_id": "628ae7e5a545d3a8fc748ffab4f54cd2", "fusion_lat": 0.0, "name": "628ae7e5a545d3a8fc748ffab4f54cd2", "is_reserved": 0, "rental_uris": {"android": "https://dc.lft.to/lastmile_qr_scan", "ios": "https://dc.lft.to/lastmile_qr_scan"}, "fusion_lon": 0.0}, {"lat": 38.899038833333336, "is_disabled": 0, "type": "electric_scooter", "lon": -77.00372633333333, "bike_id": "dadc6f552aef1afc48e9c21f008a9a32", "fusion_lat": 0.0, "name": "dadc6f552aef1afc48e9c21f008a9a32", "is_reserved": 0, "rental_uris": {"android": "https://dc.lft.to/lastmile_qr_scan", "ios": "https://dc.lft.to/lastmile_qr_scan"}, "fusion_lon": 0.0}, {"lat": 38.86592366666667, "is_disabled": 0, "type": "electric_bike", "lon": -76.9322605, "bike_id": "c4217acd7e641615d42993df20234956", "fusion_lat": 0.0, "name": "c4217acd7e641615d42993df20234956", "is_reserved": 0, "rental_uris": {"android": "https://dc.lft.to/lastmile_qr_scan", "ios": "https://dc.lft.to/lastmile_qr_scan"}, "fusion_lon": 0.0}, {"lat": 38.921695, "is_disabled": 0, "type": "electric_scooter", "lon": -77.0513875, "bike_id": "3ae9699455a841225efd2ce9a08d0f79", "fusion_lat": 0.0, "name": "3ae9699455a841225efd2ce9a08d0f79", "is_reserved": 0, "rental_uris": {"android": "https://dc.lft.to/lastmile_qr_scan", "ios": "https://dc.lft.to/lastmile_qr_scan"}, "fusion_lon": 0.0}, {"lat": 38.962185166666664, "is_disabled": 0, "type": "electric_bike", "lon": -77.02780916666667, "bike_id": "19f2cdf426c4af32079f452831820adf", "fusion_lat": 0.0, "name": "19f2cdf426c4af32079f452831820adf", "is_reserved": 0, "rental_uris": {"android": "https://dc.lft.to/lastmile_qr_scan", "ios": "https://dc.lft.to/lastmile_qr_scan"}, "fusion_lon": 0.0}, {"lat": 38.918154666666666, "is_disabled": 0, "type": "electric_scooter", "lon": -76.9997065, "bike_id": "7fe1a9694c7c34d8f10acd1bfc8b02ae", "fusion_lat": 0.0, "name": "7fe1a9694c7c34d8f10acd1bfc8b02ae", "is_reserved": 0, "rental_uris": {"android": "https://dc.lft.to/lastmile_qr_scan", "ios": "https://dc.lft.to/lastmile_qr_scan"}, "fusion_lon": 0.0}, {"lat": 38.910043333333334, "is_disabled": 0, "type": "electric_scooter", "lon": -77.040086, "bike_id": "80289f5652f162380617a9bac6c79620", "fusion_lat": 0.0, "name": "80289f5652f162380617a9bac6c79620", "is_reserved": 0, "rental_uris": {"android": "https://dc.lft.to/lastmile_qr_scan", "ios": "https://dc.lft.to/lastmile_qr_scan"}, "fusion_lon": 0.0}, {"lat": 38.8853455, "is_disabled": 0, "type": "electric_scooter", "lon": -77.01506066666667, "bike_id": "50a646f4015aa727ba7befc79389fc76", "fusion_lat": 0.0, "name": "50a646f4015aa727ba7befc79389fc76", "is_reserved": 0, "rental_uris": {"android": "https://dc.lft.to/lastmile_qr_scan", "ios": "https://dc.lft.to/lastmile_qr_scan"}, "fusion_lon": 0.0}, {"lat": 38.9345815, "is_disabled": 0, "type": "electric_scooter", "lon": -77.03237533333333, "bike_id": "14890502f2b97b33d37976103c075ab4", "fusion_lat": 0.0, "name": "14890502f2b97b33d37976103c075ab4", "is_reserved": 0, "rental_uris": {"android": "https://dc.lft.to/lastmile_qr_scan", "ios": "https://dc.lft.to/lastmile_qr_scan"}, "fusion_lon": 0.0}, {"lat": 38.93228416666667, "is_disabled": 0, "type": "electric_scooter", "lon": -77.04412383333333, "bike_id": "3ee9d0987a9044d55669e21fa94a31bc", "fusion_lat": 0.0, "name": "3ee9d0987a9044d55669e21fa94a31bc", "is_reserved": 0, "rental_uris": {"android": "https://dc.lft.to/lastmile_qr_scan", "ios": "https://dc.lft.to/lastmile_qr_scan"}, "fusion_lon": 0.0}, {"lat": 38.85218666666667, "is_disabled": 0, "type": "electric_bike", "lon": -77.1294875, "bike_id": "b4b9b9cf3ff6864c7744853284fcb572", "fusion_lat": 0.0, "name": "b4b9b9cf3ff6864c7744853284fcb572", "is_reserved": 0, "rental_uris": {"android": "https://dc.lft.to/lastmile_qr_scan", "ios": "https://dc.lft.to/lastmile_qr_scan"}, "fusion_lon": 0.0}, {"lat": 38.865249, "is_disabled": 0, "type": "electric_scooter", "lon": -76.99026866666667, "bike_id": "757f8603a2168491017ee5adb5641ccf", "fusion_lat": 0.0, "name": "757f8603a2168491017ee5adb5641ccf", "is_reserved": 0, "rental_uris": {"android": "https://dc.lft.to/lastmile_qr_scan", "ios": "https://dc.lft.to/lastmile_qr_scan"}, "fusion_lon": 0.0}, {"lat": 38.911095833333334, "is_disabled": 0, "type": "electric_scooter", "lon": -77.037315, "bike_id": "8236e3afa1435042f62b77ea6e606c2f", "fusion_lat": 0.0, "name": "8236e3afa1435042f62b77ea6e606c2f", "is_reserved": 0, "rental_uris": {"android": "https://dc.lft.to/lastmile_qr_scan", "ios": "https://dc.lft.to/lastmile_qr_scan"}, "fusion_lon": 0.0}, {"lat": 38.92014533333333, "is_disabled": 0, "type": "electric_scooter", "lon": -77.04174633333334, "bike_id": "5578b1885326ce1686b150a2624c4498", "fusion_lat": 0.0, "name": "5578b1885326ce1686b150a2624c4498", "is_reserved": 0, "rental_uris": {"android": "https://dc.lft.to/lastmile_qr_scan", "ios": "https://dc.lft.to/lastmile_qr_scan"}, "fusion_lon": 0.0}, {"lat": 38.800631, "is_disabled": 0, "type": "electric_bike", "lon": -77.07115516666667, "bike_id": "c97bebba0b437e977f17ca66dd7f0063", "fusion_lat": 0.0, "name": "c97bebba0b437e977f17ca66dd7f0063", "is_reserved": 0, "rental_uris": {"android": "https://dc.lft.to/lastmile_qr_scan", "ios": "https://dc.lft.to/lastmile_qr_scan"}, "fusion_lon": 0.0}, {"lat": 38.924227, "is_disabled": 0, "type": "electric_scooter", "lon": -77.02975183333334, "bike_id": "4bdbbee3c12df9f3b40e1cc58c6302a5", "fusion_lat": 0.0, "name": "4bdbbee3c12df9f3b40e1cc58c6302a5", "is_reserved": 0, "rental_uris": {"android": "https://dc.lft.to/lastmile_qr_scan", "ios": "https://dc.lft.to/lastmile_qr_scan"}, "fusion_lon": 0.0}, {"lat": 38.901266166666666, "is_disabled": 0, "type": "electric_scooter", "lon": -77.01570066666666, "bike_id": "17c6ed5d1760e441b9ad037bda139741", "fusion_lat": 0.0, "name": "17c6ed5d1760e441b9ad037bda139741", "is_reserved": 0, "rental_uris": {"android": "https://dc.lft.to/lastmile_qr_scan", "ios": "https://dc.lft.to/lastmile_qr_scan"}, "fusion_lon": 0.0}, {"lat": 38.8923015, "is_disabled": 0, "type": "electric_scooter", "lon": -77.049989, "bike_id": "34149627e825acd387f9a4e5ad824c38", "fusion_lat": 0.0, "name": "34149627e825acd387f9a4e5ad824c38", "is_reserved": 0, "rental_uris": {"android": "https://dc.lft.to/lastmile_qr_scan", "ios": "https://dc.lft.to/lastmile_qr_scan"}, "fusion_lon": 0.0}, {"lat": 38.930864666666665, "is_disabled": 0, "type": "electric_scooter", "lon": -77.07746416666667, "bike_id": "2e7c241e62ecf93689602b995b632b55", "fusion_lat": 0.0, "name": "2e7c241e62ecf93689602b995b632b55", "is_reserved": 0, "rental_uris": {"android": "https://dc.lft.to/lastmile_qr_scan", "ios": "https://dc.lft.to/lastmile_qr_scan"}, "fusion_lon": 0.0}, {"lat": 38.9352855, "is_disabled": 0, "type": "electric_scooter", "lon": -77.03397616666666, "bike_id": "7b6a198475299db298c9dc5b483aec17", "fusion_lat": 0.0, "name": "7b6a198475299db298c9dc5b483aec17", "is_reserved": 0, "rental_uris": {"android": "https://dc.lft.to/lastmile_qr_scan", "ios": "https://dc.lft.to/lastmile_qr_scan"}, "fusion_lon": 0.0}, {"lat": 38.89963183333333, "is_disabled": 0, "type": "electric_scooter", "lon": -77.033774, "bike_id": "4eb1326ddc9496343fb03634ffdfc8ee", "fusion_lat": 0.0, "name": "4eb1326ddc9496343fb03634ffdfc8ee", "is_reserved": 0, "rental_uris": {"android": "https://dc.lft.to/lastmile_qr_scan", "ios": "https://dc.lft.to/lastmile_qr_scan"}, "fusion_lon": 0.0}, {"lat": 38.8669985, "is_disabled": 0, "type": "electric_scooter", "lon": -76.98713416666666, "bike_id": "6eb488cf7ef7c97b1f290f258f58f8f2", "fusion_lat": 0.0, "name": "6eb488cf7ef7c97b1f290f258f58f8f2", "is_reserved": 0, "rental_uris": {"android": "https://dc.lft.to/lastmile_qr_scan", "ios": "https://dc.lft.to/lastmile_qr_scan"}, "fusion_lon": 0.0}, {"lat": 38.952536, "is_disabled": 0, "type": "electric_bike", "lon": -77.02395466666667, "bike_id": "28bcdd030759a75f90994b8904e62b84", "fusion_lat": 0.0, "name": "28bcdd030759a75f90994b8904e62b84", "is_reserved": 0, "rental_uris": {"android": "https://dc.lft.to/lastmile_qr_scan", "ios": "https://dc.lft.to/lastmile_qr_scan"}, "fusion_lon": 0.0}, {"lat": 38.8941665, "is_disabled": 0, "type": "electric_scooter", "lon": -77.03213966666667, "bike_id": "b0e27b8418338078a5e759fa8b0b6bb9", "fusion_lat": 0.0, "name": "b0e27b8418338078a5e759fa8b0b6bb9", "is_reserved": 0, "rental_uris": {"android": "https://dc.lft.to/lastmile_qr_scan", "ios": "https://dc.lft.to/lastmile_qr_scan"}, "fusion_lon": 0.0}, {"lat": 38.9100285, "is_disabled": 0, "type": "electric_scooter", "lon": -76.98618333333333, "bike_id": "d0cbf9cdacd651fe074062f8a304dc9f", "fusion_lat": 0.0, "name": "d0cbf9cdacd651fe074062f8a304dc9f", "is_reserved": 0, "rental_uris": {"android": "https://dc.lft.to/lastmile_qr_scan", "ios": "https://dc.lft.to/lastmile_qr_scan"}, "fusion_lon": 0.0}, {"lat": 38.916767666666665, "is_disabled": 0, "type": "electric_scooter", "lon": -77.029746, "bike_id": "0127c3ef3aa0110f14ec803397687492", "fusion_lat": 0.0, "name": "0127c3ef3aa0110f14ec803397687492", "is_reserved": 0, "rental_uris": {"android": "https://dc.lft.to/lastmile_qr_scan", "ios": "https://dc.lft.to/lastmile_qr_scan"}, "fusion_lon": 0.0}, {"lat": 38.844263833333336, "is_disabled": 0, "type": "electric_scooter", "lon": -76.9977955, "bike_id": "efd2177c013ac3027db5eb3f14b9d70b", "fusion_lat": 0.0, "name": "efd2177c013ac3027db5eb3f14b9d70b", "is_reserved": 0, "rental_uris": {"android": "https://dc.lft.to/lastmile_qr_scan", "ios": "https://dc.lft.to/lastmile_qr_scan"}, "fusion_lon": 0.0}, {"lat": 38.956041, "is_disabled": 0, "type": "electric_scooter", "lon": -77.01017333333333, "bike_id": "f60931f142dfd59032a07bf9dbaf9ab8", "fusion_lat": 0.0, "name": "f60931f142dfd59032a07bf9dbaf9ab8", "is_reserved": 0, "rental_uris": {"android": "https://dc.lft.to/lastmile_qr_scan", "ios": "https://dc.lft.to/lastmile_qr_scan"}, "fusion_lon": 0.0}, {"lat": 38.804976333333336, "is_disabled": 0, "type": "electric_bike", "lon": -77.041243, "bike_id": "76af714f65178f5505da2d13b033bcd5", "fusion_lat": 0.0, "name": "76af714f65178f5505da2d13b033bcd5", "is_reserved": 0, "rental_uris": {"android": "https://dc.lft.to/lastmile_qr_scan", "ios": "https://dc.lft.to/lastmile_qr_scan"}, "fusion_lon": 0.0}, {"lat": 38.920998833333336, "is_disabled": 0, "type": "electric_scooter", "lon": -77.039294, "bike_id": "b027ab5e07b72e4c85c87ad72020c352", "fusion_lat": 0.0, "name": "b027ab5e07b72e4c85c87ad72020c352", "is_reserved": 0, "rental_uris": {"android": "https://dc.lft.to/lastmile_qr_scan", "ios": "https://dc.lft.to/lastmile_qr_scan"}, "fusion_lon": 0.0}, {"lat": 38.918345, "is_disabled": 0, "type": "electric_scooter", "lon": -77.02316866666666, "bike_id": "6943f2e3e28d281521ed8d9634c54736", "fusion_lat": 0.0, "name": "6943f2e3e28d281521ed8d9634c54736", "is_reserved": 0, "rental_uris": {"android": "https://dc.lft.to/lastmile_qr_scan", "ios": "https://dc.lft.to/lastmile_qr_scan"}, "fusion_lon": 0.0}, {"lat": 38.87678733333333, "is_disabled": 0, "type": "electric_scooter", "lon": -77.004025, "bike_id": "e589e5b4300756959c252bed824812ec", "fusion_lat": 0.0, "name": "e589e5b4300756959c252bed824812ec", "is_reserved": 0, "rental_uris": {"android": "https://dc.lft.to/lastmile_qr_scan", "ios": "https://dc.lft.to/lastmile_qr_scan"}, "fusion_lon": 0.0}, {"lat": 38.907846166666666, "is_disabled": 0, "type": "electric_scooter", "lon": -77.0021355, "bike_id": "b435c97a659d52b63e1372b0ef33010a", "fusion_lat": 0.0, "name": "b435c97a659d52b63e1372b0ef33010a", "is_reserved": 0, "rental_uris": {"android": "https://dc.lft.to/lastmile_qr_scan", "ios": "https://dc.lft.to/lastmile_qr_scan"}, "fusion_lon": 0.0}, {"lat": 38.92126916666667, "is_disabled": 0, "type": "electric_scooter", "lon": -77.0411725, "bike_id": "9482b6c38a828216414d40a3ff2b5b67", "fusion_lat": 0.0, "name": "9482b6c38a828216414d40a3ff2b5b67", "is_reserved": 0, "rental_uris": {"android": "https://dc.lft.to/lastmile_qr_scan", "ios": "https://dc.lft.to/lastmile_qr_scan"}, "fusion_lon": 0.0}, {"lat": 38.95295516666667, "is_disabled": 0, "type": "electric_bike", "lon": -76.98207516666666, "bike_id": "4716b9af5c93edc30f2bc49d37d5c92e", "fusion_lat": 0.0, "name": "4716b9af5c93edc30f2bc49d37d5c92e", "is_reserved": 0, "rental_uris": {"android": "https://dc.lft.to/lastmile_qr_scan", "ios": "https://dc.lft.to/lastmile_qr_scan"}, "fusion_lon": 0.0}, {"lat": 38.852109, "is_disabled": 0, "type": "electric_bike", "lon": -76.995762, "bike_id": "64000210a985b8b80edfebaf62c0adce", "fusion_lat": 0.0, "name": "64000210a985b8b80edfebaf62c0adce", "is_reserved": 0, "rental_uris": {"android": "https://dc.lft.to/lastmile_qr_scan", "ios": "https://dc.lft.to/lastmile_qr_scan"}, "fusion_lon": 0.0}, {"lat": 38.933413, "is_disabled": 0, "type": "electric_scooter", "lon": -76.9930725, "bike_id": "79899543f7c0d4bc3483cd0d5a1a3e77", "fusion_lat": 0.0, "name": "79899543f7c0d4bc3483cd0d5a1a3e77", "is_reserved": 0, "rental_uris": {"android": "https://dc.lft.to/lastmile_qr_scan", "ios": "https://dc.lft.to/lastmile_qr_scan"}, "fusion_lon": 0.0}, {"lat": 38.86620416666667, "is_disabled": 0, "type": "electric_scooter", "lon": -76.9864195, "bike_id": "6541b9ef5f8b24d7e5b7aaada90a9a0f", "fusion_lat": 0.0, "name": "6541b9ef5f8b24d7e5b7aaada90a9a0f", "is_reserved": 0, "rental_uris": {"android": "https://dc.lft.to/lastmile_qr_scan", "ios": "https://dc.lft.to/lastmile_qr_scan"}, "fusion_lon": 0.0}, {"lat": 38.93745166666667, "is_disabled": 0, "type": "electric_scooter", "lon": -77.03453316666666, "bike_id": "e21bd35d4a0f326c222e2d31b5ece9ed", "fusion_lat": 0.0, "name": "e21bd35d4a0f326c222e2d31b5ece9ed", "is_reserved": 0, "rental_uris": {"android": "https://dc.lft.to/lastmile_qr_scan", "ios": "https://dc.lft.to/lastmile_qr_scan"}, "fusion_lon": 0.0}, {"lat": 38.9080355, "is_disabled": 0, "type": "electric_scooter", "lon": -77.0312715, "bike_id": "cb2c05fe53171cbf7fd5631b49e9e0f0", "fusion_lat": 0.0, "name": "cb2c05fe53171cbf7fd5631b49e9e0f0", "is_reserved": 0, "rental_uris": {"android": "https://dc.lft.to/lastmile_qr_scan", "ios": "https://dc.lft.to/lastmile_qr_scan"}, "fusion_lon": 0.0}, {"lat": 38.90643516666667, "is_disabled": 0, "type": "electric_scooter", "lon": -76.9902245, "bike_id": "e1c5e5440ed975d900322cc42a5bb06c", "fusion_lat": 0.0, "name": "e1c5e5440ed975d900322cc42a5bb06c", "is_reserved": 0, "rental_uris": {"android": "https://dc.lft.to/lastmile_qr_scan", "ios": "https://dc.lft.to/lastmile_qr_scan"}, "fusion_lon": 0.0}, {"lat": 38.923294, "is_disabled": 0, "type": "electric_scooter", "lon": -77.03573583333333, "bike_id": "49e0add7cc54607ab4e4ffdbe6cdaa63", "fusion_lat": 0.0, "name": "49e0add7cc54607ab4e4ffdbe6cdaa63", "is_reserved": 0, "rental_uris": {"android": "https://dc.lft.to/lastmile_qr_scan", "ios": "https://dc.lft.to/lastmile_qr_scan"}, "fusion_lon": 0.0}, {"lat": 38.895136, "is_disabled": 0, "type": "electric_scooter", "lon": -76.94899433333333, "bike_id": "99126578ee04494922fd035f7aab2dfb", "fusion_lat": 0.0, "name": "99126578ee04494922fd035f7aab2dfb", "is_reserved": 0, "rental_uris": {"android": "https://dc.lft.to/lastmile_qr_scan", "ios": "https://dc.lft.to/lastmile_qr_scan"}, "fusion_lon": 0.0}, {"lat": 38.910071, "is_disabled": 0, "type": "electric_scooter", "lon": -77.02688516666667, "bike_id": "73d4f37aca4eb5ea3e363fd479e9e315", "fusion_lat": 0.0, "name": "73d4f37aca4eb5ea3e363fd479e9e315", "is_reserved": 0, "rental_uris": {"android": "https://dc.lft.to/lastmile_qr_scan", "ios": "https://dc.lft.to/lastmile_qr_scan"}, "fusion_lon": 0.0}, {"lat": 38.912932166666664, "is_disabled": 0, "type": "electric_scooter", "lon": -77.04010966666667, "bike_id": "5a407ac7a205997829a8ea44e14f0b14", "fusion_lat": 0.0, "name": "5a407ac7a205997829a8ea44e14f0b14", "is_reserved": 0, "rental_uris": {"android": "https://dc.lft.to/lastmile_qr_scan", "ios": "https://dc.lft.to/lastmile_qr_scan"}, "fusion_lon": 0.0}, {"lat": 38.97089483333333, "is_disabled": 0, "type": "electric_bike", "lon": -77.06967516666667, "bike_id": "0cf9ae4ee43cef686a78db844c214970", "fusion_lat": 0.0, "name": "0cf9ae4ee43cef686a78db844c214970", "is_reserved": 0, "rental_uris": {"android": "https://dc.lft.to/lastmile_qr_scan", "ios": "https://dc.lft.to/lastmile_qr_scan"}, "fusion_lon": 0.0}, {"lat": 38.917101833333334, "is_disabled": 0, "type": "electric_scooter", "lon": -77.03469633333333, "bike_id": "2498b787c5f4ece5687288511d154052", "fusion_lat": 0.0, "name": "2498b787c5f4ece5687288511d154052", "is_reserved": 0, "rental_uris": {"android": "https://dc.lft.to/lastmile_qr_scan", "ios": "https://dc.lft.to/lastmile_qr_scan"}, "fusion_lon": 0.0}, {"lat": 38.85207716666667, "is_disabled": 0, "type": "electric_bike", "lon": -77.101276, "bike_id": "1b3b49151d587fb0d27e37e2361238e6", "fusion_lat": 0.0, "name": "1b3b49151d587fb0d27e37e2361238e6", "is_reserved": 0, "rental_uris": {"android": "https://dc.lft.to/lastmile_qr_scan", "ios": "https://dc.lft.to/lastmile_qr_scan"}, "fusion_lon": 0.0}, {"lat": 38.926807333333336, "is_disabled": 0, "type": "electric_scooter", "lon": -77.02858866666666, "bike_id": "0d7fd75d59c47be3aac194407a7a9d47", "fusion_lat": 0.0, "name": "0d7fd75d59c47be3aac194407a7a9d47", "is_reserved": 0, "rental_uris": {"android": "https://dc.lft.to/lastmile_qr_scan", "ios": "https://dc.lft.to/lastmile_qr_scan"}, "fusion_lon": 0.0}, {"lat": 38.89283283333333, "is_disabled": 0, "type": "electric_scooter", "lon": -76.95849933333334, "bike_id": "23da6248d50089809eee8bde7d7e6305", "fusion_lat": 0.0, "name": "23da6248d50089809eee8bde7d7e6305", "is_reserved": 0, "rental_uris": {"android": "https://dc.lft.to/lastmile_qr_scan", "ios": "https://dc.lft.to/lastmile_qr_scan"}, "fusion_lon": 0.0}, {"lat": 38.913405833333336, "is_disabled": 0, "type": "electric_scooter", "lon": -77.0312785, "bike_id": "3defc8db6486169f784a05614b072342", "fusion_lat": 0.0, "name": "3defc8db6486169f784a05614b072342", "is_reserved": 0, "rental_uris": {"android": "https://dc.lft.to/lastmile_qr_scan", "ios": "https://dc.lft.to/lastmile_qr_scan"}, "fusion_lon": 0.0}, {"lat": 38.89996266666667, "is_disabled": 0, "type": "electric_scooter", "lon": -76.99959766666667, "bike_id": "4c6ea733f887c3b14b9c1c93bc18e479", "fusion_lat": 0.0, "name": "4c6ea733f887c3b14b9c1c93bc18e479", "is_reserved": 0, "rental_uris": {"android": "https://dc.lft.to/lastmile_qr_scan", "ios": "https://dc.lft.to/lastmile_qr_scan"}, "fusion_lon": 0.0}, {"lat": 38.89267266666667, "is_disabled": 0, "type": "electric_scooter", "lon": -77.02023733333333, "bike_id": "0bbc058f091e6904bb5bae1a996e7ecb", "fusion_lat": 0.0, "name": "0bbc058f091e6904bb5bae1a996e7ecb", "is_reserved": 0, "rental_uris": {"android": "https://dc.lft.to/lastmile_qr_scan", "ios": "https://dc.lft.to/lastmile_qr_scan"}, "fusion_lon": 0.0}, {"lat": 38.92456083333333, "is_disabled": 0, "type": "electric_scooter", "lon": -77.08034416666666, "bike_id": "87231638706a12901b4de466d51fb7a2", "fusion_lat": 0.0, "name": "87231638706a12901b4de466d51fb7a2", "is_reserved": 0, "rental_uris": {"android": "https://dc.lft.to/lastmile_qr_scan", "ios": "https://dc.lft.to/lastmile_qr_scan"}, "fusion_lon": 0.0}, {"lat": 38.915170833333335, "is_disabled": 0, "type": "electric_scooter", "lon": -77.03847533333334, "bike_id": "77e60178834aa6025feb54f7c08fd0ed", "fusion_lat": 0.0, "name": "77e60178834aa6025feb54f7c08fd0ed", "is_reserved": 0, "rental_uris": {"android": "https://dc.lft.to/lastmile_qr_scan", "ios": "https://dc.lft.to/lastmile_qr_scan"}, "fusion_lon": 0.0}, {"lat": 38.92953416666667, "is_disabled": 0, "type": "electric_scooter", "lon": -76.99087166666666, "bike_id": "5d5d376172a4e52f95da1ee55f34da3b", "fusion_lat": 0.0, "name": "5d5d376172a4e52f95da1ee55f34da3b", "is_reserved": 0, "rental_uris": {"android": "https://dc.lft.to/lastmile_qr_scan", "ios": "https://dc.lft.to/lastmile_qr_scan"}, "fusion_lon": 0.0}, {"lat": 38.879279833333335, "is_disabled": 0, "type": "electric_scooter", "lon": -77.00406316666667, "bike_id": "eba5b7a4dcaecf2c3cae3647952420a1", "fusion_lat": 0.0, "name": "eba5b7a4dcaecf2c3cae3647952420a1", "is_reserved": 0, "rental_uris": {"android": "https://dc.lft.to/lastmile_qr_scan", "ios": "https://dc.lft.to/lastmile_qr_scan"}, "fusion_lon": 0.0}, {"lat": 38.92104, "is_disabled": 0, "type": "electric_scooter", "lon": -77.04572933333333, "bike_id": "9b7e95ecbbaedc4b60543ac4a120fa68", "fusion_lat": 0.0, "name": "9b7e95ecbbaedc4b60543ac4a120fa68", "is_reserved": 0, "rental_uris": {"android": "https://dc.lft.to/lastmile_qr_scan", "ios": "https://dc.lft.to/lastmile_qr_scan"}, "fusion_lon": 0.0}, {"lat": 38.92578983333333, "is_disabled": 0, "type": "electric_scooter", "lon": -77.052876, "bike_id": "74642c2d827491b2176f27ede7bed578", "fusion_lat": 0.0, "name": "74642c2d827491b2176f27ede7bed578", "is_reserved": 0, "rental_uris": {"android": "https://dc.lft.to/lastmile_qr_scan", "ios": "https://dc.lft.to/lastmile_qr_scan"}, "fusion_lon": 0.0}, {"lat": 38.914574, "is_disabled": 0, "type": "electric_scooter", "lon": -77.0021385, "bike_id": "d576721dea16659d923368ffdc11a26a", "fusion_lat": 0.0, "name": "d576721dea16659d923368ffdc11a26a", "is_reserved": 0, "rental_uris": {"android": "https://dc.lft.to/lastmile_qr_scan", "ios": "https://dc.lft.to/lastmile_qr_scan"}, "fusion_lon": 0.0}, {"lat": 39.07502183333333, "is_disabled": 0, "type": "electric_bike", "lon": -77.11900316666667, "bike_id": "cd4b35aa17b0749f8a48bb423936bb73", "fusion_lat": 0.0, "name": "cd4b35aa17b0749f8a48bb423936bb73", "is_reserved": 0, "rental_uris": {"android": "https://dc.lft.to/lastmile_qr_scan", "ios": "https://dc.lft.to/lastmile_qr_scan"}, "fusion_lon": 0.0}, {"lat": 38.905571, "is_disabled": 0, "type": "electric_bike", "lon": -77.00493816666666, "bike_id": "e6b2835fee7877b3f6774cc8f584d036", "fusion_lat": 0.0, "name": "e6b2835fee7877b3f6774cc8f584d036", "is_reserved": 0, "rental_uris": {"android": "https://dc.lft.to/lastmile_qr_scan", "ios": "https://dc.lft.to/lastmile_qr_scan"}, "fusion_lon": 0.0}, {"lat": 38.898439, "is_disabled": 0, "type": "electric_scooter", "lon": -76.94461333333334, "bike_id": "79d96914ec1b1e7edf57951e635f657d", "fusion_lat": 0.0, "name": "79d96914ec1b1e7edf57951e635f657d", "is_reserved": 0, "rental_uris": {"android": "https://dc.lft.to/lastmile_qr_scan", "ios": "https://dc.lft.to/lastmile_qr_scan"}, "fusion_lon": 0.0}, {"lat": 38.86284883333333, "is_disabled": 0, "type": "electric_scooter", "lon": -76.99245666666667, "bike_id": "a39a70c0138f3b23ace5b18f1751b0a9", "fusion_lat": 0.0, "name": "a39a70c0138f3b23ace5b18f1751b0a9", "is_reserved": 0, "rental_uris": {"android": "https://dc.lft.to/lastmile_qr_scan", "ios": "https://dc.lft.to/lastmile_qr_scan"}, "fusion_lon": 0.0}, {"lat": 38.928151666666665, "is_disabled": 0, "type": "electric_scooter", "lon": -77.05427566666667, "bike_id": "efb6927423bf1b9cc6282801dc18bfcf", "fusion_lat": 0.0, "name": "efb6927423bf1b9cc6282801dc18bfcf", "is_reserved": 0, "rental_uris": {"android": "https://dc.lft.to/lastmile_qr_scan", "ios": "https://dc.lft.to/lastmile_qr_scan"}, "fusion_lon": 0.0}, {"lat": 38.909914666666666, "is_disabled": 0, "type": "electric_scooter", "lon": -77.04007533333333, "bike_id": "6114fe27b52a96e03044bbdc723506c4", "fusion_lat": 0.0, "name": "6114fe27b52a96e03044bbdc723506c4", "is_reserved": 0, "rental_uris": {"android": "https://dc.lft.to/lastmile_qr_scan", "ios": "https://dc.lft.to/lastmile_qr_scan"}, "fusion_lon": 0.0}, {"lat": 38.871467833333334, "is_disabled": 0, "type": "electric_bike", "lon": -76.93673116666666, "bike_id": "e120c01598b981c1b733ff82661b52b5", "fusion_lat": 0.0, "name": "e120c01598b981c1b733ff82661b52b5", "is_reserved": 0, "rental_uris": {"android": "https://dc.lft.to/lastmile_qr_scan", "ios": "https://dc.lft.to/lastmile_qr_scan"}, "fusion_lon": 0.0}, {"lat": 38.9055745, "is_disabled": 0, "type": "electric_scooter", "lon": -77.04348216666666, "bike_id": "6f27de4fba37bb3c95dc67fc97cc47c1", "fusion_lat": 0.0, "name": "6f27de4fba37bb3c95dc67fc97cc47c1", "is_reserved": 0, "rental_uris": {"android": "https://dc.lft.to/lastmile_qr_scan", "ios": "https://dc.lft.to/lastmile_qr_scan"}, "fusion_lon": 0.0}, {"lat": 38.923504333333334, "is_disabled": 0, "type": "electric_scooter", "lon": -77.035059, "bike_id": "57e35ac9204dc634ea2843ba758ee4ce", "fusion_lat": 0.0, "name": "57e35ac9204dc634ea2843ba758ee4ce", "is_reserved": 0, "rental_uris": {"android": "https://dc.lft.to/lastmile_qr_scan", "ios": "https://dc.lft.to/lastmile_qr_scan"}, "fusion_lon": 0.0}, {"lat": 38.903788666666664, "is_disabled": 0, "type": "electric_scooter", "lon": -77.0088235, "bike_id": "0928b438cbd9ed0fad5216ccded5dc0c", "fusion_lat": 0.0, "name": "0928b438cbd9ed0fad5216ccded5dc0c", "is_reserved": 0, "rental_uris": {"android": "https://dc.lft.to/lastmile_qr_scan", "ios": "https://dc.lft.to/lastmile_qr_scan"}, "fusion_lon": 0.0}, {"lat": 38.93580383333333, "is_disabled": 0, "type": "electric_bike", "lon": -77.10680883333333, "bike_id": "734237c9bb7cc0fd46a25dac5cb4f0a4", "fusion_lat": 0.0, "name": "734237c9bb7cc0fd46a25dac5cb4f0a4", "is_reserved": 0, "rental_uris": {"android": "https://dc.lft.to/lastmile_qr_scan", "ios": "https://dc.lft.to/lastmile_qr_scan"}, "fusion_lon": 0.0}, {"lat": 38.941353166666666, "is_disabled": 0, "type": "electric_scooter", "lon": -77.07615366666667, "bike_id": "5edb6caba4f1a388c8b0ba1d241f5dce", "fusion_lat": 0.0, "name": "5edb6caba4f1a388c8b0ba1d241f5dce", "is_reserved": 0, "rental_uris": {"android": "https://dc.lft.to/lastmile_qr_scan", "ios": "https://dc.lft.to/lastmile_qr_scan"}, "fusion_lon": 0.0}, {"lat": 38.90001816666667, "is_disabled": 0, "type": "electric_scooter", "lon": -77.03314116666667, "bike_id": "4760380e777d349b3babfd4fe357b538", "fusion_lat": 0.0, "name": "4760380e777d349b3babfd4fe357b538", "is_reserved": 0, "rental_uris": {"android": "https://dc.lft.to/lastmile_qr_scan", "ios": "https://dc.lft.to/lastmile_qr_scan"}, "fusion_lon": 0.0}, {"lat": 38.90948783333333, "is_disabled": 0, "type": "electric_scooter", "lon": -77.0465955, "bike_id": "2ff1620377ee14a5b2671e51f65494ca", "fusion_lat": 0.0, "name": "2ff1620377ee14a5b2671e51f65494ca", "is_reserved": 0, "rental_uris": {"android": "https://dc.lft.to/lastmile_qr_scan", "ios": "https://dc.lft.to/lastmile_qr_scan"}, "fusion_lon": 0.0}, {"lat": 38.90016166666667, "is_disabled": 0, "type": "electric_scooter", "lon": -77.03341966666666, "bike_id": "a92a0e2402a003dd4ce00452ae7711db", "fusion_lat": 0.0, "name": "a92a0e2402a003dd4ce00452ae7711db", "is_reserved": 0, "rental_uris": {"android": "https://dc.lft.to/lastmile_qr_scan", "ios": "https://dc.lft.to/lastmile_qr_scan"}, "fusion_lon": 0.0}, {"lat": 38.9163445, "is_disabled": 0, "type": "electric_scooter", "lon": -77.026973, "bike_id": "0ddc912e0008ed083b4e63a3e38f88fd", "fusion_lat": 0.0, "name": "0ddc912e0008ed083b4e63a3e38f88fd", "is_reserved": 0, "rental_uris": {"android": "https://dc.lft.to/lastmile_qr_scan", "ios": "https://dc.lft.to/lastmile_qr_scan"}, "fusion_lon": 0.0}, {"lat": 38.9309035, "is_disabled": 0, "type": "electric_scooter", "lon": -77.02558733333333, "bike_id": "6797b1e32f29f911aeea742fb1044980", "fusion_lat": 0.0, "name": "6797b1e32f29f911aeea742fb1044980", "is_reserved": 0, "rental_uris": {"android": "https://dc.lft.to/lastmile_qr_scan", "ios": "https://dc.lft.to/lastmile_qr_scan"}, "fusion_lon": 0.0}, {"lat": 38.89529566666667, "is_disabled": 0, "type": "electric_scooter", "lon": -77.00058566666667, "bike_id": "9f32caf620abca73c208fab5a0dc390a", "fusion_lat": 0.0, "name": "9f32caf620abca73c208fab5a0dc390a", "is_reserved": 0, "rental_uris": {"android": "https://dc.lft.to/lastmile_qr_scan", "ios": "https://dc.lft.to/lastmile_qr_scan"}, "fusion_lon": 0.0}, {"lat": 38.919254333333335, "is_disabled": 0, "type": "electric_scooter", "lon": -77.041544, "bike_id": "7827d413afb1ff6400a06e68596c24e8", "fusion_lat": 0.0, "name": "7827d413afb1ff6400a06e68596c24e8", "is_reserved": 0, "rental_uris": {"android": "https://dc.lft.to/lastmile_qr_scan", "ios": "https://dc.lft.to/lastmile_qr_scan"}, "fusion_lon": 0.0}, {"lat": 38.950514, "is_disabled": 0, "type": "electric_scooter", "lon": -77.00719733333334, "bike_id": "abb922a2aa319097c63c5e6fe5bc849b", "fusion_lat": 0.0, "name": "abb922a2aa319097c63c5e6fe5bc849b", "is_reserved": 0, "rental_uris": {"android": "https://dc.lft.to/lastmile_qr_scan", "ios": "https://dc.lft.to/lastmile_qr_scan"}, "fusion_lon": 0.0}, {"lat": 38.94495633333333, "is_disabled": 0, "type": "electric_bike", "lon": -77.00680633333333, "bike_id": "b8d949dabe667f21587f1d5033b23680", "fusion_lat": 0.0, "name": "b8d949dabe667f21587f1d5033b23680", "is_reserved": 0, "rental_uris": {"android": "https://dc.lft.to/lastmile_qr_scan", "ios": "https://dc.lft.to/lastmile_qr_scan"}, "fusion_lon": 0.0}, {"lat": 38.94831283333333, "is_disabled": 0, "type": "electric_scooter", "lon": -77.0257885, "bike_id": "ca12c381ea23ac1feddc73eef0f35c90", "fusion_lat": 0.0, "name": "ca12c381ea23ac1feddc73eef0f35c90", "is_reserved": 0, "rental_uris": {"android": "https://dc.lft.to/lastmile_qr_scan", "ios": "https://dc.lft.to/lastmile_qr_scan"}, "fusion_lon": 0.0}, {"lat": 38.902671, "is_disabled": 0, "type": "electric_scooter", "lon": -77.01163116666666, "bike_id": "c81346f2a3f20c7c116abed3023aff69", "fusion_lat": 0.0, "name": "c81346f2a3f20c7c116abed3023aff69", "is_reserved": 0, "rental_uris": {"android": "https://dc.lft.to/lastmile_qr_scan", "ios": "https://dc.lft.to/lastmile_qr_scan"}, "fusion_lon": 0.0}, {"lat": 38.86364783333333, "is_disabled": 0, "type": "electric_scooter", "lon": -76.99033016666667, "bike_id": "9b0c7041385cc222a66f3c1cffa1d71f", "fusion_lat": 0.0, "name": "9b0c7041385cc222a66f3c1cffa1d71f", "is_reserved": 0, "rental_uris": {"android": "https://dc.lft.to/lastmile_qr_scan", "ios": "https://dc.lft.to/lastmile_qr_scan"}, "fusion_lon": 0.0}, {"lat": 38.966221, "is_disabled": 0, "type": "electric_bike", "lon": -76.9767005, "bike_id": "f6dbf690a1929f9dcfa070e8e95b5121", "fusion_lat": 0.0, "name": "f6dbf690a1929f9dcfa070e8e95b5121", "is_reserved": 0, "rental_uris": {"android": "https://dc.lft.to/lastmile_qr_scan", "ios": "https://dc.lft.to/lastmile_qr_scan"}, "fusion_lon": 0.0}, {"lat": 38.92911866666667, "is_disabled": 0, "type": "electric_scooter", "lon": -77.037498, "bike_id": "3af69b54815506ac1bef8749566a00ab", "fusion_lat": 0.0, "name": "3af69b54815506ac1bef8749566a00ab", "is_reserved": 0, "rental_uris": {"android": "https://dc.lft.to/lastmile_qr_scan", "ios": "https://dc.lft.to/lastmile_qr_scan"}, "fusion_lon": 0.0}, {"lat": 38.90854316666667, "is_disabled": 0, "type": "electric_scooter", "lon": -77.03830283333333, "bike_id": "2b80f09e0c4e68ca4ba9dd482641c577", "fusion_lat": 0.0, "name": "2b80f09e0c4e68ca4ba9dd482641c577", "is_reserved": 0, "rental_uris": {"android": "https://dc.lft.to/lastmile_qr_scan", "ios": "https://dc.lft.to/lastmile_qr_scan"}, "fusion_lon": 0.0}, {"lat": 38.873743833333336, "is_disabled": 0, "type": "electric_bike", "lon": -77.11796866666667, "bike_id": "d4908f53385ebcee9963cc3b15d5b372", "fusion_lat": 0.0, "name": "d4908f53385ebcee9963cc3b15d5b372", "is_reserved": 0, "rental_uris": {"android": "https://dc.lft.to/lastmile_qr_scan", "ios": "https://dc.lft.to/lastmile_qr_scan"}, "fusion_lon": 0.0}, {"lat": 38.920823666666664, "is_disabled": 0, "type": "electric_bike", "lon": -76.99186666666667, "bike_id": "5a379f7cf5c46d200498ac01a22419eb", "fusion_lat": 0.0, "name": "5a379f7cf5c46d200498ac01a22419eb", "is_reserved": 0, "rental_uris": {"android": "https://dc.lft.to/lastmile_qr_scan", "ios": "https://dc.lft.to/lastmile_qr_scan"}, "fusion_lon": 0.0}, {"lat": 38.96603616666667, "is_disabled": 0, "type": "electric_bike", "lon": -76.98332833333333, "bike_id": "5b031d27511b6d525d6badafcd61d658", "fusion_lat": 0.0, "name": "5b031d27511b6d525d6badafcd61d658", "is_reserved": 0, "rental_uris": {"android": "https://dc.lft.to/lastmile_qr_scan", "ios": "https://dc.lft.to/lastmile_qr_scan"}, "fusion_lon": 0.0}, {"lat": 38.904561, "is_disabled": 0, "type": "electric_scooter", "lon": -76.99457616666666, "bike_id": "b9abd0e64d076cefe66cdfef5d80c944", "fusion_lat": 0.0, "name": "b9abd0e64d076cefe66cdfef5d80c944", "is_reserved": 0, "rental_uris": {"android": "https://dc.lft.to/lastmile_qr_scan", "ios": "https://dc.lft.to/lastmile_qr_scan"}, "fusion_lon": 0.0}, {"lat": 38.93093183333333, "is_disabled": 0, "type": "electric_scooter", "lon": -77.02562383333333, "bike_id": "e84c5b91a54721b41c4d3bee6fb7bb13", "fusion_lat": 0.0, "name": "e84c5b91a54721b41c4d3bee6fb7bb13", "is_reserved": 0, "rental_uris": {"android": "https://dc.lft.to/lastmile_qr_scan", "ios": "https://dc.lft.to/lastmile_qr_scan"}, "fusion_lon": 0.0}, {"lat": 38.933548, "is_disabled": 0, "type": "electric_scooter", "lon": -77.07371233333333, "bike_id": "78c7d30722152f80e60dd8253c5e98b2", "fusion_lat": 0.0, "name": "78c7d30722152f80e60dd8253c5e98b2", "is_reserved": 0, "rental_uris": {"android": "https://dc.lft.to/lastmile_qr_scan", "ios": "https://dc.lft.to/lastmile_qr_scan"}, "fusion_lon": 0.0}, {"lat": 38.89248116666667, "is_disabled": 0, "type": "electric_scooter", "lon": -77.04892016666666, "bike_id": "fa43504315889e8eedb659da79628d99", "fusion_lat": 0.0, "name": "fa43504315889e8eedb659da79628d99", "is_reserved": 0, "rental_uris": {"android": "https://dc.lft.to/lastmile_qr_scan", "ios": "https://dc.lft.to/lastmile_qr_scan"}, "fusion_lon": 0.0}, {"lat": 38.874527, "is_disabled": 0, "type": "electric_scooter", "lon": -77.00924516666667, "bike_id": "c07a00a4c931bc766837591726fef3d4", "fusion_lat": 0.0, "name": "c07a00a4c931bc766837591726fef3d4", "is_reserved": 0, "rental_uris": {"android": "https://dc.lft.to/lastmile_qr_scan", "ios": "https://dc.lft.to/lastmile_qr_scan"}, "fusion_lon": 0.0}, {"lat": 38.89837083333333, "is_disabled": 0, "type": "electric_scooter", "lon": -76.93101366666667, "bike_id": "89ca614ca965b77f42ea639f3a666ecb", "fusion_lat": 0.0, "name": "89ca614ca965b77f42ea639f3a666ecb", "is_reserved": 0, "rental_uris": {"android": "https://dc.lft.to/lastmile_qr_scan", "ios": "https://dc.lft.to/lastmile_qr_scan"}, "fusion_lon": 0.0}, {"lat": 38.90447966666667, "is_disabled": 0, "type": "electric_scooter", "lon": -77.04846, "bike_id": "051e43f271b3e709ab0c8e0ccaee8486", "fusion_lat": 0.0, "name": "051e43f271b3e709ab0c8e0ccaee8486", "is_reserved": 0, "rental_uris": {"android": "https://dc.lft.to/lastmile_qr_scan", "ios": "https://dc.lft.to/lastmile_qr_scan"}, "fusion_lon": 0.0}, {"lat": 38.96928, "is_disabled": 0, "type": "electric_bike", "lon": -77.02621416666666, "bike_id": "a2e798d31597c4735745b0f6d7f24df7", "fusion_lat": 0.0, "name": "a2e798d31597c4735745b0f6d7f24df7", "is_reserved": 0, "rental_uris": {"android": "https://dc.lft.to/lastmile_qr_scan", "ios": "https://dc.lft.to/lastmile_qr_scan"}, "fusion_lon": 0.0}, {"lat": 38.9031375, "is_disabled": 0, "type": "electric_scooter", "lon": -76.98992766666667, "bike_id": "c2dd5e548a3b7af1b1ac9099bb12660d", "fusion_lat": 0.0, "name": "c2dd5e548a3b7af1b1ac9099bb12660d", "is_reserved": 0, "rental_uris": {"android": "https://dc.lft.to/lastmile_qr_scan", "ios": "https://dc.lft.to/lastmile_qr_scan"}, "fusion_lon": 0.0}, {"lat": 38.92086366666667, "is_disabled": 0, "type": "electric_scooter", "lon": -77.04203916666667, "bike_id": "3a010741eea9213c00062184ada595d7", "fusion_lat": 0.0, "name": "3a010741eea9213c00062184ada595d7", "is_reserved": 0, "rental_uris": {"android": "https://dc.lft.to/lastmile_qr_scan", "ios": "https://dc.lft.to/lastmile_qr_scan"}, "fusion_lon": 0.0}, {"lat": 38.89843066666667, "is_disabled": 0, "type": "electric_scooter", "lon": -76.9817645, "bike_id": "34fcb1d5baa8fa0c11cf6b3fbc2dd4eb", "fusion_lat": 0.0, "name": "34fcb1d5baa8fa0c11cf6b3fbc2dd4eb", "is_reserved": 0, "rental_uris": {"android": "https://dc.lft.to/lastmile_qr_scan", "ios": "https://dc.lft.to/lastmile_qr_scan"}, "fusion_lon": 0.0}, {"lat": 38.92176933333333, "is_disabled": 0, "type": "electric_scooter", "lon": -77.04702116666667, "bike_id": "b4f1c050daa69d75590c7ea7218c4275", "fusion_lat": 0.0, "name": "b4f1c050daa69d75590c7ea7218c4275", "is_reserved": 0, "rental_uris": {"android": "https://dc.lft.to/lastmile_qr_scan", "ios": "https://dc.lft.to/lastmile_qr_scan"}, "fusion_lon": 0.0}, {"lat": 38.92604133333333, "is_disabled": 0, "type": "electric_scooter", "lon": -77.05688933333333, "bike_id": "bdcd91a89ce039cda95d1754397ad4c2", "fusion_lat": 0.0, "name": "bdcd91a89ce039cda95d1754397ad4c2", "is_reserved": 0, "rental_uris": {"android": "https://dc.lft.to/lastmile_qr_scan", "ios": "https://dc.lft.to/lastmile_qr_scan"}, "fusion_lon": 0.0}, {"lat": 38.90772466666667, "is_disabled": 0, "type": "electric_scooter", "lon": -77.038603, "bike_id": "5fb0324d0b46dd0e74ab3e3d6b563d00", "fusion_lat": 0.0, "name": "5fb0324d0b46dd0e74ab3e3d6b563d00", "is_reserved": 0, "rental_uris": {"android": "https://dc.lft.to/lastmile_qr_scan", "ios": "https://dc.lft.to/lastmile_qr_scan"}, "fusion_lon": 0.0}, {"lat": 38.95404033333333, "is_disabled": 0, "type": "electric_scooter", "lon": -77.027456, "bike_id": "7001754275f1fabae007928f83931ed9", "fusion_lat": 0.0, "name": "7001754275f1fabae007928f83931ed9", "is_reserved": 0, "rental_uris": {"android": "https://dc.lft.to/lastmile_qr_scan", "ios": "https://dc.lft.to/lastmile_qr_scan"}, "fusion_lon": 0.0}, {"lat": 38.937323, "is_disabled": 0, "type": "electric_scooter", "lon": -77.03469066666666, "bike_id": "e973a4a0fe4106839d81500505a8e6e7", "fusion_lat": 0.0, "name": "e973a4a0fe4106839d81500505a8e6e7", "is_reserved": 0, "rental_uris": {"android": "https://dc.lft.to/lastmile_qr_scan", "ios": "https://dc.lft.to/lastmile_qr_scan"}, "fusion_lon": 0.0}, {"lat": 38.922476833333334, "is_disabled": 0, "type": "electric_scooter", "lon": -77.03084433333333, "bike_id": "a3193682682f30f671393e788942547f", "fusion_lat": 0.0, "name": "a3193682682f30f671393e788942547f", "is_reserved": 0, "rental_uris": {"android": "https://dc.lft.to/lastmile_qr_scan", "ios": "https://dc.lft.to/lastmile_qr_scan"}, "fusion_lon": 0.0}, {"lat": 38.9273405, "is_disabled": 0, "type": "electric_scooter", "lon": -77.02594233333333, "bike_id": "b8dcf943a8ffc59f942c5a9982f3058b", "fusion_lat": 0.0, "name": "b8dcf943a8ffc59f942c5a9982f3058b", "is_reserved": 0, "rental_uris": {"android": "https://dc.lft.to/lastmile_qr_scan", "ios": "https://dc.lft.to/lastmile_qr_scan"}, "fusion_lon": 0.0}, {"lat": 38.932358666666666, "is_disabled": 0, "type": "electric_bike", "lon": -76.97432233333333, "bike_id": "3b52af9cb55cd45a4de2bed29bba3b20", "fusion_lat": 0.0, "name": "3b52af9cb55cd45a4de2bed29bba3b20", "is_reserved": 0, "rental_uris": {"android": "https://dc.lft.to/lastmile_qr_scan", "ios": "https://dc.lft.to/lastmile_qr_scan"}, "fusion_lon": 0.0}, {"lat": 38.86508233333333, "is_disabled": 0, "type": "electric_scooter", "lon": -76.99004966666666, "bike_id": "da8ff1c7a1c26e279bc4f8f1b69786e1", "fusion_lat": 0.0, "name": "da8ff1c7a1c26e279bc4f8f1b69786e1", "is_reserved": 0, "rental_uris": {"android": "https://dc.lft.to/lastmile_qr_scan", "ios": "https://dc.lft.to/lastmile_qr_scan"}, "fusion_lon": 0.0}, {"lat": 38.962274, "is_disabled": 0, "type": "electric_bike", "lon": -77.02622, "bike_id": "2e602938525ccf0af1ef49c3ef6b36b5", "fusion_lat": 0.0, "name": "2e602938525ccf0af1ef49c3ef6b36b5", "is_reserved": 0, "rental_uris": {"android": "https://dc.lft.to/lastmile_qr_scan", "ios": "https://dc.lft.to/lastmile_qr_scan"}, "fusion_lon": 0.0}, {"lat": 38.9132725, "is_disabled": 0, "type": "electric_scooter", "lon": -77.03187566666666, "bike_id": "37ee52934d16fe4d55e205c9372cd9a3", "fusion_lat": 0.0, "name": "37ee52934d16fe4d55e205c9372cd9a3", "is_reserved": 0, "rental_uris": {"android": "https://dc.lft.to/lastmile_qr_scan", "ios": "https://dc.lft.to/lastmile_qr_scan"}, "fusion_lon": 0.0}, {"lat": 38.929614, "is_disabled": 0, "type": "electric_scooter", "lon": -77.027929, "bike_id": "b325ed91f40ae3dea852a531edb02afa", "fusion_lat": 0.0, "name": "b325ed91f40ae3dea852a531edb02afa", "is_reserved": 0, "rental_uris": {"android": "https://dc.lft.to/lastmile_qr_scan", "ios": "https://dc.lft.to/lastmile_qr_scan"}, "fusion_lon": 0.0}, {"lat": 38.91693683333333, "is_disabled": 0, "type": "electric_scooter", "lon": -77.03228, "bike_id": "9b46d0e1d288908ff15d4ec63b6a43ce", "fusion_lat": 0.0, "name": "9b46d0e1d288908ff15d4ec63b6a43ce", "is_reserved": 0, "rental_uris": {"android": "https://dc.lft.to/lastmile_qr_scan", "ios": "https://dc.lft.to/lastmile_qr_scan"}, "fusion_lon": 0.0}, {"lat": 38.9162295, "is_disabled": 0, "type": "electric_scooter", "lon": -77.03740883333333, "bike_id": "61be617dedea45f41d1ab6f87105a66d", "fusion_lat": 0.0, "name": "61be617dedea45f41d1ab6f87105a66d", "is_reserved": 0, "rental_uris": {"android": "https://dc.lft.to/lastmile_qr_scan", "ios": "https://dc.lft.to/lastmile_qr_scan"}, "fusion_lon": 0.0}, {"lat": 38.896710666666664, "is_disabled": 0, "type": "electric_scooter", "lon": -77.005125, "bike_id": "b6c4ae5f7dc7f5bacd93ea1c7c2364d8", "fusion_lat": 0.0, "name": "b6c4ae5f7dc7f5bacd93ea1c7c2364d8", "is_reserved": 0, "rental_uris": {"android": "https://dc.lft.to/lastmile_qr_scan", "ios": "https://dc.lft.to/lastmile_qr_scan"}, "fusion_lon": 0.0}, {"lat": 38.920901666666666, "is_disabled": 0, "type": "electric_scooter", "lon": -77.0256705, "bike_id": "566463a583bf52ed2dfddcc3cd694673", "fusion_lat": 0.0, "name": "566463a583bf52ed2dfddcc3cd694673", "is_reserved": 0, "rental_uris": {"android": "https://dc.lft.to/lastmile_qr_scan", "ios": "https://dc.lft.to/lastmile_qr_scan"}, "fusion_lon": 0.0}, {"lat": 38.876402666666664, "is_disabled": 0, "type": "electric_scooter", "lon": -77.00561583333334, "bike_id": "5156cdba5ddedee1453b242dbaeed9c4", "fusion_lat": 0.0, "name": "5156cdba5ddedee1453b242dbaeed9c4", "is_reserved": 0, "rental_uris": {"android": "https://dc.lft.to/lastmile_qr_scan", "ios": "https://dc.lft.to/lastmile_qr_scan"}, "fusion_lon": 0.0}, {"lat": 38.9482275, "is_disabled": 0, "type": "electric_scooter", "lon": -76.99900433333333, "bike_id": "4daf4bde37014c569941f2cc31c7bf81", "fusion_lat": 0.0, "name": "4daf4bde37014c569941f2cc31c7bf81", "is_reserved": 0, "rental_uris": {"android": "https://dc.lft.to/lastmile_qr_scan", "ios": "https://dc.lft.to/lastmile_qr_scan"}, "fusion_lon": 0.0}, {"lat": 38.8785625, "is_disabled": 0, "type": "electric_bike", "lon": -77.0176635, "bike_id": "9dacf707db16d6fefe406e85e2ff4887", "fusion_lat": 0.0, "name": "9dacf707db16d6fefe406e85e2ff4887", "is_reserved": 0, "rental_uris": {"android": "https://dc.lft.to/lastmile_qr_scan", "ios": "https://dc.lft.to/lastmile_qr_scan"}, "fusion_lon": 0.0}, {"lat": 38.8973635, "is_disabled": 0, "type": "electric_scooter", "lon": -76.94720133333334, "bike_id": "871b90d7cb600e96dd91c80989f0ea51", "fusion_lat": 0.0, "name": "871b90d7cb600e96dd91c80989f0ea51", "is_reserved": 0, "rental_uris": {"android": "https://dc.lft.to/lastmile_qr_scan", "ios": "https://dc.lft.to/lastmile_qr_scan"}, "fusion_lon": 0.0}, {"lat": 38.91197416666667, "is_disabled": 0, "type": "electric_scooter", "lon": -77.00441566666667, "bike_id": "6fa338eb7dcbba3a7ebe621e0a822c00", "fusion_lat": 0.0, "name": "6fa338eb7dcbba3a7ebe621e0a822c00", "is_reserved": 0, "rental_uris": {"android": "https://dc.lft.to/lastmile_qr_scan", "ios": "https://dc.lft.to/lastmile_qr_scan"}, "fusion_lon": 0.0}, {"lat": 38.907956666666664, "is_disabled": 0, "type": "electric_scooter", "lon": -76.99693583333334, "bike_id": "83e64eb2222bfa7fb96f0592c03c4bb8", "fusion_lat": 0.0, "name": "83e64eb2222bfa7fb96f0592c03c4bb8", "is_reserved": 0, "rental_uris": {"android": "https://dc.lft.to/lastmile_qr_scan", "ios": "https://dc.lft.to/lastmile_qr_scan"}, "fusion_lon": 0.0}, {"lat": 38.937009, "is_disabled": 0, "type": "electric_bike", "lon": -77.0298255, "bike_id": "d2f0815f278eb4ffe8bdaa6e5a7c693c", "fusion_lat": 0.0, "name": "d2f0815f278eb4ffe8bdaa6e5a7c693c", "is_reserved": 0, "rental_uris": {"android": "https://dc.lft.to/lastmile_qr_scan", "ios": "https://dc.lft.to/lastmile_qr_scan"}, "fusion_lon": 0.0}, {"lat": 38.915358833333336, "is_disabled": 0, "type": "electric_scooter", "lon": -77.03831883333334, "bike_id": "f89d542545e2f38ba4d396914f873d8c", "fusion_lat": 0.0, "name": "f89d542545e2f38ba4d396914f873d8c", "is_reserved": 0, "rental_uris": {"android": "https://dc.lft.to/lastmile_qr_scan", "ios": "https://dc.lft.to/lastmile_qr_scan"}, "fusion_lon": 0.0}, {"lat": 38.894736, "is_disabled": 0, "type": "electric_scooter", "lon": -77.01103033333334, "bike_id": "5a3e52a287d4e7bba12c9c0c786ca4f7", "fusion_lat": 0.0, "name": "5a3e52a287d4e7bba12c9c0c786ca4f7", "is_reserved": 0, "rental_uris": {"android": "https://dc.lft.to/lastmile_qr_scan", "ios": "https://dc.lft.to/lastmile_qr_scan"}, "fusion_lon": 0.0}, {"lat": 38.923879666666664, "is_disabled": 0, "type": "electric_scooter", "lon": -77.0365775, "bike_id": "66a44d0165ff470f33d5801e551348d0", "fusion_lat": 0.0, "name": "66a44d0165ff470f33d5801e551348d0", "is_reserved": 0, "rental_uris": {"android": "https://dc.lft.to/lastmile_qr_scan", "ios": "https://dc.lft.to/lastmile_qr_scan"}, "fusion_lon": 0.0}, {"lat": 38.9175165, "is_disabled": 0, "type": "electric_scooter", "lon": -77.03659666666667, "bike_id": "af97dd6416de0f00ff90080235a37b0f", "fusion_lat": 0.0, "name": "af97dd6416de0f00ff90080235a37b0f", "is_reserved": 0, "rental_uris": {"android": "https://dc.lft.to/lastmile_qr_scan", "ios": "https://dc.lft.to/lastmile_qr_scan"}, "fusion_lon": 0.0}, {"lat": 38.918656666666664, "is_disabled": 0, "type": "electric_scooter", "lon": -77.0402545, "bike_id": "a053827efb21c3b3b4798f9bdf167695", "fusion_lat": 0.0, "name": "a053827efb21c3b3b4798f9bdf167695", "is_reserved": 0, "rental_uris": {"android": "https://dc.lft.to/lastmile_qr_scan", "ios": "https://dc.lft.to/lastmile_qr_scan"}, "fusion_lon": 0.0}, {"lat": 38.9199275, "is_disabled": 0, "type": "electric_scooter", "lon": -77.039659, "bike_id": "729b3511d6039873aa8fe744744caf70", "fusion_lat": 0.0, "name": "729b3511d6039873aa8fe744744caf70", "is_reserved": 0, "rental_uris": {"android": "https://dc.lft.to/lastmile_qr_scan", "ios": "https://dc.lft.to/lastmile_qr_scan"}, "fusion_lon": 0.0}, {"lat": 38.91827933333333, "is_disabled": 0, "type": "electric_scooter", "lon": -77.03942716666667, "bike_id": "0c33015c0ca2faeb8b675ad0e7cc73a2", "fusion_lat": 0.0, "name": "0c33015c0ca2faeb8b675ad0e7cc73a2", "is_reserved": 0, "rental_uris": {"android": "https://dc.lft.to/lastmile_qr_scan", "ios": "https://dc.lft.to/lastmile_qr_scan"}, "fusion_lon": 0.0}, {"lat": 38.90870566666667, "is_disabled": 0, "type": "electric_scooter", "lon": -77.006013, "bike_id": "35a797240241ff6b4ca003831ee66c77", "fusion_lat": 0.0, "name": "35a797240241ff6b4ca003831ee66c77", "is_reserved": 0, "rental_uris": {"android": "https://dc.lft.to/lastmile_qr_scan", "ios": "https://dc.lft.to/lastmile_qr_scan"}, "fusion_lon": 0.0}, {"lat": 38.932303166666664, "is_disabled": 0, "type": "electric_scooter", "lon": -76.99604283333333, "bike_id": "8585573b457664a803a0dc1fab907dab", "fusion_lat": 0.0, "name": "8585573b457664a803a0dc1fab907dab", "is_reserved": 0, "rental_uris": {"android": "https://dc.lft.to/lastmile_qr_scan", "ios": "https://dc.lft.to/lastmile_qr_scan"}, "fusion_lon": 0.0}, {"lat": 38.92732516666667, "is_disabled": 0, "type": "electric_scooter", "lon": -77.02242733333334, "bike_id": "4a03aaca6a8a5fc5c0b223efb71424f5", "fusion_lat": 0.0, "name": "4a03aaca6a8a5fc5c0b223efb71424f5", "is_reserved": 0, "rental_uris": {"android": "https://dc.lft.to/lastmile_qr_scan", "ios": "https://dc.lft.to/lastmile_qr_scan"}, "fusion_lon": 0.0}, {"lat": 38.9026455, "is_disabled": 0, "type": "electric_scooter", "lon": -77.03932216666666, "bike_id": "5a4a05586d8a47935e4d9dfe0ae340ef", "fusion_lat": 0.0, "name": "5a4a05586d8a47935e4d9dfe0ae340ef", "is_reserved": 0, "rental_uris": {"android": "https://dc.lft.to/lastmile_qr_scan", "ios": "https://dc.lft.to/lastmile_qr_scan"}, "fusion_lon": 0.0}, {"lat": 38.912579, "is_disabled": 0, "type": "electric_scooter", "lon": -77.0386185, "bike_id": "941fffa062bff8ce74060e0b4696e842", "fusion_lat": 0.0, "name": "941fffa062bff8ce74060e0b4696e842", "is_reserved": 0, "rental_uris": {"android": "https://dc.lft.to/lastmile_qr_scan", "ios": "https://dc.lft.to/lastmile_qr_scan"}, "fusion_lon": 0.0}, {"lat": 38.93522, "is_disabled": 0, "type": "electric_scooter", "lon": -77.03707116666666, "bike_id": "05e781af13111836cfab0cfa740c5939", "fusion_lat": 0.0, "name": "05e781af13111836cfab0cfa740c5939", "is_reserved": 0, "rental_uris": {"android": "https://dc.lft.to/lastmile_qr_scan", "ios": "https://dc.lft.to/lastmile_qr_scan"}, "fusion_lon": 0.0}, {"lat": 38.910569833333334, "is_disabled": 0, "type": "electric_scooter", "lon": -77.05243683333333, "bike_id": "a90388c78b8ff226e60f978fdbfb4264", "fusion_lat": 0.0, "name": "a90388c78b8ff226e60f978fdbfb4264", "is_reserved": 0, "rental_uris": {"android": "https://dc.lft.to/lastmile_qr_scan", "ios": "https://dc.lft.to/lastmile_qr_scan"}, "fusion_lon": 0.0}, {"lat": 38.9204795, "is_disabled": 0, "type": "electric_scooter", "lon": -77.028756, "bike_id": "33daab24d7f5a0b1cf7b597b32e1ffe5", "fusion_lat": 0.0, "name": "33daab24d7f5a0b1cf7b597b32e1ffe5", "is_reserved": 0, "rental_uris": {"android": "https://dc.lft.to/lastmile_qr_scan", "ios": "https://dc.lft.to/lastmile_qr_scan"}, "fusion_lon": 0.0}, {"lat": 38.8860225, "is_disabled": 0, "type": "electric_scooter", "lon": -77.02186133333333, "bike_id": "9ba1fe54ac340bdf92b00543c7558fd7", "fusion_lat": 0.0, "name": "9ba1fe54ac340bdf92b00543c7558fd7", "is_reserved": 0, "rental_uris": {"android": "https://dc.lft.to/lastmile_qr_scan", "ios": "https://dc.lft.to/lastmile_qr_scan"}, "fusion_lon": 0.0}, {"lat": 38.91121233333333, "is_disabled": 0, "type": "electric_scooter", "lon": -77.03017666666666, "bike_id": "87ebbd22a82a1036ea478fcd3cb5d899", "fusion_lat": 0.0, "name": "87ebbd22a82a1036ea478fcd3cb5d899", "is_reserved": 0, "rental_uris": {"android": "https://dc.lft.to/lastmile_qr_scan", "ios": "https://dc.lft.to/lastmile_qr_scan"}, "fusion_lon": 0.0}, {"lat": 38.92218483333333, "is_disabled": 0, "type": "electric_scooter", "lon": -77.04243266666667, "bike_id": "bd90673b37ed33b35c8891aab1c7fd1b", "fusion_lat": 0.0, "name": "bd90673b37ed33b35c8891aab1c7fd1b", "is_reserved": 0, "rental_uris": {"android": "https://dc.lft.to/lastmile_qr_scan", "ios": "https://dc.lft.to/lastmile_qr_scan"}, "fusion_lon": 0.0}, {"lat": 38.93063333333333, "is_disabled": 0, "type": "electric_scooter", "lon": -77.02816916666667, "bike_id": "05d8d4670462b57a1bc6c359b059f72e", "fusion_lat": 0.0, "name": "05d8d4670462b57a1bc6c359b059f72e", "is_reserved": 0, "rental_uris": {"android": "https://dc.lft.to/lastmile_qr_scan", "ios": "https://dc.lft.to/lastmile_qr_scan"}, "fusion_lon": 0.0}, {"lat": 38.9276265, "is_disabled": 0, "type": "electric_scooter", "lon": -77.02778533333333, "bike_id": "187a05d2e49bef57fd325b80dcf966f3", "fusion_lat": 0.0, "name": "187a05d2e49bef57fd325b80dcf966f3", "is_reserved": 0, "rental_uris": {"android": "https://dc.lft.to/lastmile_qr_scan", "ios": "https://dc.lft.to/lastmile_qr_scan"}, "fusion_lon": 0.0}, {"lat": 38.90121633333333, "is_disabled": 0, "type": "electric_scooter", "lon": -76.98721566666667, "bike_id": "26e4f8d410aba538233b59ce250de23f", "fusion_lat": 0.0, "name": "26e4f8d410aba538233b59ce250de23f", "is_reserved": 0, "rental_uris": {"android": "https://dc.lft.to/lastmile_qr_scan", "ios": "https://dc.lft.to/lastmile_qr_scan"}, "fusion_lon": 0.0}, {"lat": 38.922973166666665, "is_disabled": 0, "type": "electric_scooter", "lon": -77.0426745, "bike_id": "35802cfe920fe0d167c69c6f535309ea", "fusion_lat": 0.0, "name": "35802cfe920fe0d167c69c6f535309ea", "is_reserved": 0, "rental_uris": {"android": "https://dc.lft.to/lastmile_qr_scan", "ios": "https://dc.lft.to/lastmile_qr_scan"}, "fusion_lon": 0.0}, {"lat": 38.90146416666666, "is_disabled": 0, "type": "electric_scooter", "lon": -77.00069316666666, "bike_id": "6b7df97e0c74433417a722f1685dbf8f", "fusion_lat": 0.0, "name": "6b7df97e0c74433417a722f1685dbf8f", "is_reserved": 0, "rental_uris": {"android": "https://dc.lft.to/lastmile_qr_scan", "ios": "https://dc.lft.to/lastmile_qr_scan"}, "fusion_lon": 0.0}, {"lat": 38.927467, "is_disabled": 0, "type": "electric_scooter", "lon": -77.0242365, "bike_id": "4f3bd9decfed22c54badf379b576a4d0", "fusion_lat": 0.0, "name": "4f3bd9decfed22c54badf379b576a4d0", "is_reserved": 0, "rental_uris": {"android": "https://dc.lft.to/lastmile_qr_scan", "ios": "https://dc.lft.to/lastmile_qr_scan"}, "fusion_lon": 0.0}, {"lat": 38.927432833333334, "is_disabled": 0, "type": "electric_bike", "lon": -77.0342505, "bike_id": "a5d83e57563c5ffba5e651021b350a62", "fusion_lat": 0.0, "name": "a5d83e57563c5ffba5e651021b350a62", "is_reserved": 0, "rental_uris": {"android": "https://dc.lft.to/lastmile_qr_scan", "ios": "https://dc.lft.to/lastmile_qr_scan"}, "fusion_lon": 0.0}, {"lat": 38.95731116666666, "is_disabled": 0, "type": "electric_scooter", "lon": -77.02401966666666, "bike_id": "e5d50c2449f60764e4695359b4bfa647", "fusion_lat": 0.0, "name": "e5d50c2449f60764e4695359b4bfa647", "is_reserved": 0, "rental_uris": {"android": "https://dc.lft.to/lastmile_qr_scan", "ios": "https://dc.lft.to/lastmile_qr_scan"}, "fusion_lon": 0.0}, {"lat": 38.88180533333333, "is_disabled": 0, "type": "electric_scooter", "lon": -77.03572566666666, "bike_id": "c2c3315656afb1cfe9d3ce0a0c7b5f42", "fusion_lat": 0.0, "name": "c2c3315656afb1cfe9d3ce0a0c7b5f42", "is_reserved": 0, "rental_uris": {"android": "https://dc.lft.to/lastmile_qr_scan", "ios": "https://dc.lft.to/lastmile_qr_scan"}, "fusion_lon": 0.0}, {"lat": 38.92352416666667, "is_disabled": 0, "type": "electric_scooter", "lon": -77.04148866666667, "bike_id": "f78368749dc35945ced6f02e81d51a44", "fusion_lat": 0.0, "name": "f78368749dc35945ced6f02e81d51a44", "is_reserved": 0, "rental_uris": {"android": "https://dc.lft.to/lastmile_qr_scan", "ios": "https://dc.lft.to/lastmile_qr_scan"}, "fusion_lon": 0.0}, {"lat": 38.9463455, "is_disabled": 0, "type": "electric_scooter", "lon": -77.0252105, "bike_id": "fcdc7929a395b9fa48462cc4f8839fd5", "fusion_lat": 0.0, "name": "fcdc7929a395b9fa48462cc4f8839fd5", "is_reserved": 0, "rental_uris": {"android": "https://dc.lft.to/lastmile_qr_scan", "ios": "https://dc.lft.to/lastmile_qr_scan"}, "fusion_lon": 0.0}, {"lat": 38.8974685, "is_disabled": 0, "type": "electric_scooter", "lon": -77.04672266666667, "bike_id": "1f2e377021250a3a286500feee0cb87e", "fusion_lat": 0.0, "name": "1f2e377021250a3a286500feee0cb87e", "is_reserved": 0, "rental_uris": {"android": "https://dc.lft.to/lastmile_qr_scan", "ios": "https://dc.lft.to/lastmile_qr_scan"}, "fusion_lon": 0.0}, {"lat": 38.865576833333336, "is_disabled": 0, "type": "electric_scooter", "lon": -76.989499, "bike_id": "6afe0532218b21f4ff28c5090ae0b950", "fusion_lat": 0.0, "name": "6afe0532218b21f4ff28c5090ae0b950", "is_reserved": 0, "rental_uris": {"android": "https://dc.lft.to/lastmile_qr_scan", "ios": "https://dc.lft.to/lastmile_qr_scan"}, "fusion_lon": 0.0}, {"lat": 38.95560966666667, "is_disabled": 0, "type": "electric_scooter", "lon": -77.022285, "bike_id": "91b311398478e6fd0c50cb2c8fc2fbf4", "fusion_lat": 0.0, "name": "91b311398478e6fd0c50cb2c8fc2fbf4", "is_reserved": 0, "rental_uris": {"android": "https://dc.lft.to/lastmile_qr_scan", "ios": "https://dc.lft.to/lastmile_qr_scan"}, "fusion_lon": 0.0}, {"lat": 38.90916433333334, "is_disabled": 0, "type": "electric_scooter", "lon": -77.0364745, "bike_id": "bb9175f6d4c5ccc99b82743543a1a04b", "fusion_lat": 0.0, "name": "bb9175f6d4c5ccc99b82743543a1a04b", "is_reserved": 0, "rental_uris": {"android": "https://dc.lft.to/lastmile_qr_scan", "ios": "https://dc.lft.to/lastmile_qr_scan"}, "fusion_lon": 0.0}, {"lat": 38.90183833333333, "is_disabled": 0, "type": "electric_scooter", "lon": -77.0249615, "bike_id": "0db9eb367b5d94e4a1ea90d938a16441", "fusion_lat": 0.0, "name": "0db9eb367b5d94e4a1ea90d938a16441", "is_reserved": 0, "rental_uris": {"android": "https://dc.lft.to/lastmile_qr_scan", "ios": "https://dc.lft.to/lastmile_qr_scan"}, "fusion_lon": 0.0}, {"lat": 38.90808666666667, "is_disabled": 0, "type": "electric_scooter", "lon": -76.98278033333334, "bike_id": "e84b0147ebdeb15ec930508f53bbfb25", "fusion_lat": 0.0, "name": "e84b0147ebdeb15ec930508f53bbfb25", "is_reserved": 0, "rental_uris": {"android": "https://dc.lft.to/lastmile_qr_scan", "ios": "https://dc.lft.to/lastmile_qr_scan"}, "fusion_lon": 0.0}, {"lat": 38.9338675, "is_disabled": 0, "type": "electric_scooter", "lon": -76.99515816666667, "bike_id": "2f26559629ba2c9e3e34fff3e0ee5b72", "fusion_lat": 0.0, "name": "2f26559629ba2c9e3e34fff3e0ee5b72", "is_reserved": 0, "rental_uris": {"android": "https://dc.lft.to/lastmile_qr_scan", "ios": "https://dc.lft.to/lastmile_qr_scan"}, "fusion_lon": 0.0}, {"lat": 38.93114766666667, "is_disabled": 0, "type": "electric_scooter", "lon": -77.030179, "bike_id": "d628f35915fdeb3539714bc861f7377f", "fusion_lat": 0.0, "name": "d628f35915fdeb3539714bc861f7377f", "is_reserved": 0, "rental_uris": {"android": "https://dc.lft.to/lastmile_qr_scan", "ios": "https://dc.lft.to/lastmile_qr_scan"},