{"data": {"bikes": [{"rental_uris": {"android": "https://dc.lft.to/lastmile_qr_scan", "ios": "https://dc.lft.to/lastmile_qr_scan"}, "is_reserved": 0, "is_disabled": 0, "name": "5a3e65c7651371eb6d8d59819d837762", "bike_id": "5a3e65c7651371eb6d8d59819d837762", "fusion_lat": 0.0, "lon": -77.0198305, "type": "electric_scooter", "fusion_lon": 0.0, "lat": 38.887211}, {"rental_uris": {"android": "https://dc.lft.to/lastmile_qr_scan", "ios": "https://dc.lft.to/lastmile_qr_scan"}, "is_reserved": 0, "is_disabled": 0, "name": "15e880719f1769a08e3e024ab75807d7", "bike_id": "15e880719f1769a08e3e024ab75807d7", "fusion_lat": 0.0, "lon": -77.03180083333334, "type": "electric_scooter", "fusion_lon": 0.0, "lat": 38.90210066666667}, {"rental_uris": {"android": "https://dc.lft.to/lastmile_qr_scan", "ios": "https://dc.lft.to/lastmile_qr_scan"}, "is_reserved": 0, "is_disabled": 0, "name": "ba45bc29532a79ffe2731db867ca9128", "bike_id": "ba45bc29532a79ffe2731db867ca9128", "fusion_lat": 0.0, "lon": -77.06298983333333, "type": "electric_scooter", "fusion_lon": 0.0, "lat": 38.903974}, {"rental_uris": {"android": "https://dc.lft.to/lastmile_qr_scan", "ios": "https://dc.lft.to/lastmile_qr_scan"}, "is_reserved": 0, "is_disabled": 0, "name": "75239fd8a25dfc2d5ac7930129c69b80", "bike_id": "75239fd8a25dfc2d5ac7930129c69b80", "fusion_lat": 0.0, "lon": -77.04464433333334, "type": "electric_scooter", "fusion_lon": 0.0, "lat": 38.92466116666667}, {"rental_uris": {"android": "https://dc.lft.to/lastmile_qr_scan", "ios": "https://dc.lft.to/lastmile_qr_scan"}, "is_reserved": 0, "is_disabled": 0, "name": "e34a3d18397afa557da53c555df148c9", "bike_id": "e34a3d18397afa557da53c555df148c9", "fusion_lat": 0.0, "lon": -77.0219585, "type": "electric_scooter", "fusion_lon": 0.0, "lat": 38.91129083333333}, {"rental_uris": {"android": "https://dc.lft.to/lastmile_qr_scan", "ios": "https://dc.lft.to/lastmile_qr_scan"}, "is_reserved": 0, "is_disabled": 0, "name": "0fc55d0a3e29fca6b8814d18821e513a", "bike_id": "0fc55d0a3e29fca6b8814d18821e513a", "fusion_lat": 0.0, "lon": -77.025941, "type": "electric_scooter", "fusion_lon": 0.0, "lat": 38.92090433333333}, {"rental_uris": {"android": "https://dc.lft.to/lastmile_qr_scan", "ios": "https://dc.lft.to/lastmile_qr_scan"}, "is_reserved": 0, "is_disabled": 0, "name": "24d164604372df0e37bc86c7549b5730", "bike_id": "24d164604372df0e37bc86c7549b5730", "fusion_lat": 0.0, "lon": -77.04265733333334, "type": "electric_scooter", "fusion_lon": 0.0, "lat": 38.92230983333334}, {"rental_uris": {"android": "https://dc.lft.to/lastmile_qr_scan", "ios": "https://dc.lft.to/lastmile_qr_scan"}, "is_reserved": 0, "is_disabled": 0, "name": "8f9c5e08ebed0988a4676991e252aed8", "bike_id": "8f9c5e08ebed0988a4676991e252aed8", "fusion_lat": 0.0, "lon": -77.02829666666666, "type": "electric_scooter", "fusion_lon": 0.0, "lat": 38.9175195}, {"rental_uris": {"android": "https://dc.lft.to/lastmile_qr_scan", "ios": "https://dc.lft.to/lastmile_qr_scan"}, "is_reserved": 0, "is_disabled": 0, "name": "72dbd3792cb7a85fe6d72a27dee4e163", "bike_id": "72dbd3792cb7a85fe6d72a27dee4e163", "fusion_lat": 0.0, "lon": -77.01539316666667, "type": "electric_scooter", "fusion_lon": 0.0, "lat": 38.89165066666666}, {"rental_uris": {"android": "https://dc.lft.to/lastmile_qr_scan", "ios": "https://dc.lft.to/lastmile_qr_scan"}, "is_reserved": 0, "is_disabled": 0, "name": "55c517df393369229cfeb9e9261bbc09", "bike_id": "55c517df393369229cfeb9e9261bbc09", "fusion_lat": 0.0, "lon": -77.0297265, "type": "electric_scooter", "fusion_lon": 0.0, "lat": 38.942945}, {"rental_uris": {"android": "https://dc.lft.to/lastmile_qr_scan", "ios": "https://dc.lft.to/lastmile_qr_scan"}, "is_reserved": 0, "is_disabled": 0, "name": "cc12e8b679f8395193780e61af7f314a", "bike_id": "cc12e8b679f8395193780e61af7f314a", "fusion_lat": 0.0, "lon": -77.01205233333333, "type": "electric_bike", "fusion_lon": 0.0, "lat": 38.95074283333334}, {"rental_uris": {"android": "https://dc.lft.to/lastmile_qr_scan", "ios": "https://dc.lft.to/lastmile_qr_scan"}, "is_reserved": 0, "is_disabled": 0, "name": "3e281de6154ee306b9650a8176cd0535", "bike_id": "3e281de6154ee306b9650a8176cd0535", "fusion_lat": 0.0, "lon": -77.02018783333334, "type": "electric_scooter", "fusion_lon": 0.0, "lat": 38.91564016666667}, {"rental_uris": {"android": "https://dc.lft.to/lastmile_qr_scan", "ios": "https://dc.lft.to/lastmile_qr_scan"}, "is_reserved": 0, "is_disabled": 0, "name": "52f20cdcd652f3167052b21fb6518af2", "bike_id": "52f20cdcd652f3167052b21fb6518af2", "fusion_lat": 0.0, "lon": -77.01791816666666, "type": "electric_scooter", "fusion_lon": 0.0, "lat": 38.919904333333335}, {"rental_uris": {"android": "https://dc.lft.to/lastmile_qr_scan", "ios": "https://dc.lft.to/lastmile_qr_scan"}, "is_reserved": 0, "is_disabled": 0, "name": "ee7c968c259b70234b75d67863d654f8", "bike_id": "ee7c968c259b70234b75d67863d654f8", "fusion_lat": 0.0, "lon": -77.01103266666667, "type": "electric_scooter", "fusion_lon": 0.0, "lat": 38.895455}, {"rental_uris": {"android": "https://dc.lft.to/lastmile_qr_scan", "ios": "https://dc.lft.to/lastmile_qr_scan"}, "is_reserved": 0, "is_disabled": 0, "name": "e8d9921db9c4172eed2f9eb646cbbf6b", "bike_id": "e8d9921db9c4172eed2f9eb646cbbf6b", "fusion_lat": 0.0, "lon": -77.02371216666667, "type": "electric_scooter", "fusion_lon": 0.0, "lat": 38.89219816666667}, {"rental_uris": {"android": "https://dc.lft.to/lastmile_qr_scan", "ios": "https://dc.lft.to/lastmile_qr_scan"}, "is_reserved": 0, "is_disabled": 0, "name": "cb19d2f45754a70393c5e3838e99b245", "bike_id": "cb19d2f45754a70393c5e3838e99b245", "fusion_lat": 0.0, "lon": -77.0354075, "type": "electric_scooter", "fusion_lon": 0.0, "lat": 38.924183}, {"rental_uris": {"android": "https://dc.lft.to/lastmile_qr_scan", "ios": "https://dc.lft.to/lastmile_qr_scan"}, "is_reserved": 0, "is_disabled": 0, "name": "55d74a80750ca28b739360e7d0488833", "bike_id": "55d74a80750ca28b739360e7d0488833", "fusion_lat": 0.0, "lon": -77.02100483333334, "type": "electric_scooter", "fusion_lon": 0.0, "lat": 38.92360433333333}, {"rental_uris": {"android": "https://dc.lft.to/lastmile_qr_scan", "ios": "https://dc.lft.to/lastmile_qr_scan"}, "is_reserved": 0, "is_disabled": 0, "name": "29456423802a16a40e0d7242fc460f1b", "bike_id": "29456423802a16a40e0d7242fc460f1b", "fusion_lat": 0.0, "lon": -77.0248385, "type": "electric_scooter", "fusion_lon": 0.0, "lat": 38.91920966666667}, {"rental_uris": {"android": "https://dc.lft.to/lastmile_qr_scan", "ios": "https://dc.lft.to/lastmile_qr_scan"}, "is_reserved": 0, "is_disabled": 0, "name": "0835173d295adbbdc43ba0c59d1b806d", "bike_id": "0835173d295adbbdc43ba0c59d1b806d", "fusion_lat": 0.0, "lon": -76.9556185, "type": "electric_bike", "fusion_lon": 0.0, "lat": 38.9850195}, {"rental_uris": {"android": "https://dc.lft.to/lastmile_qr_scan", "ios": "https://dc.lft.to/lastmile_qr_scan"}, "is_reserved": 0, "is_disabled": 0, "name": "ce14bea0ad0dda3466bb89a79a26bdf9", "bike_id": "ce14bea0ad0dda3466bb89a79a26bdf9", "fusion_lat": 0.0, "lon": -77.039692, "type": "electric_scooter", "fusion_lon": 0.0, "lat": 38.902581166666664}, {"rental_uris": {"android": "https://dc.lft.to/lastmile_qr_scan", "ios": "https://dc.lft.to/lastmile_qr_scan"}, "is_reserved": 0, "is_disabled": 0, "name": "04ed9e1765cf563d2aa0860ecc41b261", "bike_id": "04ed9e1765cf563d2aa0860ecc41b261", "fusion_lat": 0.0, "lon": -77.01482216666666, "type": "electric_scooter", "fusion_lon": 0.0, "lat": 38.914143833333334}, {"rental_uris": {"android": "https://dc.lft.to/lastmile_qr_scan", "ios": "https://dc.lft.to/lastmile_qr_scan"}, "is_reserved": 0, "is_disabled": 0, "name": "dd15df11f019836e84617043b4613452", "bike_id": "dd15df11f019836e84617043b4613452", "fusion_lat": 0.0, "lon": -77.01905116666667, "type": "electric_scooter", "fusion_lon": 0.0, "lat": 38.917289833333335}, {"rental_uris": {"android": "https://dc.lft.to/lastmile_qr_scan", "ios": "https://dc.lft.to/lastmile_qr_scan"}, "is_reserved": 0, "is_disabled": 0, "name": "a83398ee8e868073f87448534c5ae817", "bike_id": "a83398ee8e868073f87448534c5ae817", "fusion_lat": 0.0, "lon": -77.0477615, "type": "electric_scooter", "fusion_lon": 0.0, "lat": 38.90084733333333}, {"rental_uris": {"android": "https://dc.lft.to/lastmile_qr_scan", "ios": "https://dc.lft.to/lastmile_qr_scan"}, "is_reserved": 0, "is_disabled": 0, "name": "deccbc4866100e2673b884f3de5b8795", "bike_id": "deccbc4866100e2673b884f3de5b8795", "fusion_lat": 0.0, "lon": -77.0076665, "type": "electric_scooter", "fusion_lon": 0.0, "lat": 38.926722}, {"rental_uris": {"android": "https://dc.lft.to/lastmile_qr_scan", "ios": "https://dc.lft.to/lastmile_qr_scan"}, "is_reserved": 0, "is_disabled": 0, "name": "a84ffa133d346a078666c89f7f5fc65c", "bike_id": "a84ffa133d346a078666c89f7f5fc65c", "fusion_lat": 0.0, "lon": -77.03662416666667, "type": "electric_scooter", "fusion_lon": 0.0, "lat": 38.936012}, {"rental_uris": {"android": "https://dc.lft.to/lastmile_qr_scan", "ios": "https://dc.lft.to/lastmile_qr_scan"}, "is_reserved": 0, "is_disabled": 0, "name": "b6a258fc4abad847fad755475efb1b04", "bike_id": "b6a258fc4abad847fad755475efb1b04", "fusion_lat": 0.0, "lon": -77.07324283333334, "type": "electric_scooter", "fusion_lon": 0.0, "lat": 38.926029666666665}, {"rental_uris": {"android": "https://dc.lft.to/lastmile_qr_scan", "ios": "https://dc.lft.to/lastmile_qr_scan"}, "is_reserved": 0, "is_disabled": 0, "name": "766b6fa09fb0e2174e919faaf190e2c7", "bike_id": "766b6fa09fb0e2174e919faaf190e2c7", "fusion_lat": 0.0, "lon": -77.01554916666667, "type": "electric_scooter", "fusion_lon": 0.0, "lat": 38.8831605}, {"rental_uris": {"android": "https://dc.lft.to/lastmile_qr_scan", "ios": "https://dc.lft.to/lastmile_qr_scan"}, "is_reserved": 0, "is_disabled": 0, "name": "33e8e2e43abdb1f03ce77bc91b917949", "bike_id": "33e8e2e43abdb1f03ce77bc91b917949", "fusion_lat": 0.0, "lon": -76.9861155, "type": "electric_scooter", "fusion_lon": 0.0, "lat": 38.9073095}, {"rental_uris": {"android": "https://dc.lft.to/lastmile_qr_scan", "ios": "https://dc.lft.to/lastmile_qr_scan"}, "is_reserved": 0, "is_disabled": 0, "name": "9209e36cad7b1edc1e37b336f637d288", "bike_id": "9209e36cad7b1edc1e37b336f637d288", "fusion_lat": 0.0, "lon": -77.0130355, "type": "electric_scooter", "fusion_lon": 0.0, "lat": 38.89736466666667}, {"rental_uris": {"android": "https://dc.lft.to/lastmile_qr_scan", "ios": "https://dc.lft.to/lastmile_qr_scan"}, "is_reserved": 0, "is_disabled": 0, "name": "eb554ca8f0b4c36ea77c6386d998d178", "bike_id": "eb554ca8f0b4c36ea77c6386d998d178", "fusion_lat": 0.0, "lon": -77.03524166666666, "type": "electric_scooter", "fusion_lon": 0.0, "lat": 38.935852}, {"rental_uris": {"android": "https://dc.lft.to/lastmile_qr_scan", "ios": "https://dc.lft.to/lastmile_qr_scan"}, "is_reserved": 0, "is_disabled": 0, "name": "2e0f22473095ab84108907528d1936e7", "bike_id": "2e0f22473095ab84108907528d1936e7", "fusion_lat": 0.0, "lon": -77.03483616666666, "type": "electric_scooter", "fusion_lon": 0.0, "lat": 38.921470666666664}, {"rental_uris": {"android": "https://dc.lft.to/lastmile_qr_scan", "ios": "https://dc.lft.to/lastmile_qr_scan"}, "is_reserved": 0, "is_disabled": 0, "name": "45bc546ddc1228edaca1b6b75a33c522", "bike_id": "45bc546ddc1228edaca1b6b75a33c522", "fusion_lat": 0.0, "lon": -77.02474116666667, "type": "electric_scooter", "fusion_lon": 0.0, "lat": 38.897339}, {"rental_uris": {"android": "https://dc.lft.to/lastmile_qr_scan", "ios": "https://dc.lft.to/lastmile_qr_scan"}, "is_reserved": 0, "is_disabled": 0, "name": "6aba59e6b6dd48255c63f0708c84dc06", "bike_id": "6aba59e6b6dd48255c63f0708c84dc06", "fusion_lat": 0.0, "lon": -77.05043316666666, "type": "electric_scooter", "fusion_lon": 0.0, "lat": 38.923595}, {"rental_uris": {"android": "https://dc.lft.to/lastmile_qr_scan", "ios": "https://dc.lft.to/lastmile_qr_scan"}, "is_reserved": 0, "is_disabled": 0, "name": "3e652001e1a508c62925cbe6cb6e3828", "bike_id": "3e652001e1a508c62925cbe6cb6e3828", "fusion_lat": 0.0, "lon": -76.95060916666667, "type": "electric_bike", "fusion_lon": 0.0, "lat": 39.085075833333335}, {"rental_uris": {"android": "https://dc.lft.to/lastmile_qr_scan", "ios": "https://dc.lft.to/lastmile_qr_scan"}, "is_reserved": 0, "is_disabled": 0, "name": "118537db1d8f61457565c0236f670604", "bike_id": "118537db1d8f61457565c0236f670604", "fusion_lat": 0.0, "lon": -77.0149675, "type": "electric_scooter", "fusion_lon": 0.0, "lat": 38.90615}, {"rental_uris": {"android": "https://dc.lft.to/lastmile_qr_scan", "ios": "https://dc.lft.to/lastmile_qr_scan"}, "is_reserved": 0, "is_disabled": 0, "name": "e675b90b60833b6601899e8604668e97", "bike_id": "e675b90b60833b6601899e8604668e97", "fusion_lat": 0.0, "lon": -77.034783, "type": "electric_scooter", "fusion_lon": 0.0, "lat": 38.92486316666667}, {"rental_uris": {"android": "https://dc.lft.to/lastmile_qr_scan", "ios": "https://dc.lft.to/lastmile_qr_scan"}, "is_reserved": 0, "is_disabled": 0, "name": "ab42a7149c60980146761588b7a25595", "bike_id": "ab42a7149c60980146761588b7a25595", "fusion_lat": 0.0, "lon": -77.03342283333333, "type": "electric_scooter", "fusion_lon": 0.0, "lat": 38.93512116666667}, {"rental_uris": {"android": "https://dc.lft.to/lastmile_qr_scan", "ios": "https://dc.lft.to/lastmile_qr_scan"}, "is_reserved": 0, "is_disabled": 0, "name": "dcdf1f2692592c0161d1fd2e072432bd", "bike_id": "dcdf1f2692592c0161d1fd2e072432bd", "fusion_lat": 0.0, "lon": -77.096062, "type": "electric_bike", "fusion_lon": 0.0, "lat": 38.878897}, {"rental_uris": {"android": "https://dc.lft.to/lastmile_qr_scan", "ios": "https://dc.lft.to/lastmile_qr_scan"}, "is_reserved": 0, "is_disabled": 0, "name": "2959bc1e81bfb27d4f3a31974eb8de14", "bike_id": "2959bc1e81bfb27d4f3a31974eb8de14", "fusion_lat": 0.0, "lon": -77.02569416666667, "type": "electric_scooter", "fusion_lon": 0.0, "lat": 38.887479166666665}, {"rental_uris": {"android": "https://dc.lft.to/lastmile_qr_scan", "ios": "https://dc.lft.to/lastmile_qr_scan"}, "is_reserved": 0, "is_disabled": 0, "name": "ee91730d405020bf5c52943ea87f91d1", "bike_id": "ee91730d405020bf5c52943ea87f91d1", "fusion_lat": 0.0, "lon": -76.94036966666667, "type": "electric_bike", "fusion_lon": 0.0, "lat": 38.90821433333333}, {"rental_uris": {"android": "https://dc.lft.to/lastmile_qr_scan", "ios": "https://dc.lft.to/lastmile_qr_scan"}, "is_reserved": 0, "is_disabled": 0, "name": "12b63fc9ac66fc71a40e866c576d93ee", "bike_id": "12b63fc9ac66fc71a40e866c576d93ee", "fusion_lat": 0.0, "lon": -77.033797, "type": "electric_scooter", "fusion_lon": 0.0, "lat": 38.89956333333333}, {"rental_uris": {"android": "https://dc.lft.to/lastmile_qr_scan", "ios": "https://dc.lft.to/lastmile_qr_scan"}, "is_reserved": 0, "is_disabled": 0, "name": "4a3b5aa4c240e85a71b68ebcc5b0859c", "bike_id": "4a3b5aa4c240e85a71b68ebcc5b0859c", "fusion_lat": 0.0, "lon": -77.019629, "type": "electric_scooter", "fusion_lon": 0.0, "lat": 38.923283166666664}, {"rental_uris": {"android": "https://dc.lft.to/lastmile_qr_scan", "ios": "https://dc.lft.to/lastmile_qr_scan"}, "is_reserved": 0, "is_disabled": 0, "name": "2eafc6fd71cf2fc60b818aada26eb7ff", "bike_id": "2eafc6fd71cf2fc60b818aada26eb7ff", "fusion_lat": 0.0, "lon": -77.00606066666667, "type": "electric_scooter", "fusion_lon": 0.0, "lat": 38.90565616666667}, {"rental_uris": {"android": "https://dc.lft.to/lastmile_qr_scan", "ios": "https://dc.lft.to/lastmile_qr_scan"}, "is_reserved": 0, "is_disabled": 0, "name": "d3bc4af7dd0c8149fb8b87516dd8b3cc", "bike_id": "d3bc4af7dd0c8149fb8b87516dd8b3cc", "fusion_lat": 0.0, "lon": -77.02550983333333, "type": "electric_scooter", "fusion_lon": 0.0, "lat": 38.8921715}, {"rental_uris": {"android": "https://dc.lft.to/lastmile_qr_scan", "ios": "https://dc.lft.to/lastmile_qr_scan"}, "is_reserved": 0, "is_disabled": 0, "name": "6b311e0c0cded9e72e4a583db2aa6b5a", "bike_id": "6b311e0c0cded9e72e4a583db2aa6b5a", "fusion_lat": 0.0, "lon": -76.98371533333334, "type": "electric_bike", "fusion_lon": 0.0, "lat": 38.91494183333333}, {"rental_uris": {"android": "https://dc.lft.to/lastmile_qr_scan", "ios": "https://dc.lft.to/lastmile_qr_scan"}, "is_reserved": 0, "is_disabled": 0, "name": "ad48d1809defbf637a9ba724c9b9ac62", "bike_id": "ad48d1809defbf637a9ba724c9b9ac62", "fusion_lat": 0.0, "lon": -76.972249, "type": "electric_bike", "fusion_lon": 0.0, "lat": 38.9002895}, {"rental_uris": {"android": "https://dc.lft.to/lastmile_qr_scan", "ios": "https://dc.lft.to/lastmile_qr_scan"}, "is_reserved": 0, "is_disabled": 0, "name": "b8ea8ff009a650cdb68b66b6fffcb295", "bike_id": "b8ea8ff009a650cdb68b66b6fffcb295", "fusion_lat": 0.0, "lon": -77.0170045, "type": "electric_scooter", "fusion_lon": 0.0, "lat": 38.9046485}, {"rental_uris": {"android": "https://dc.lft.to/lastmile_qr_scan", "ios": "https://dc.lft.to/lastmile_qr_scan"}, "is_reserved": 0, "is_disabled": 0, "name": "f4a48aa2d7254ad7fbe4f4b42b392dbc", "bike_id": "f4a48aa2d7254ad7fbe4f4b42b392dbc", "fusion_lat": 0.0, "lon": -77.02335766666667, "type": "electric_scooter", "fusion_lon": 0.0, "lat": 38.917098}, {"rental_uris": {"android": "https://dc.lft.to/lastmile_qr_scan", "ios": "https://dc.lft.to/lastmile_qr_scan"}, "is_reserved": 0, "is_disabled": 0, "name": "5d0ac43273b05d6314b1142b9780edb6", "bike_id": "5d0ac43273b05d6314b1142b9780edb6", "fusion_lat": 0.0, "lon": -77.04059133333334, "type": "electric_bike", "fusion_lon": 0.0, "lat": 38.91765433333333}, {"rental_uris": {"android": "https://dc.lft.to/lastmile_qr_scan", "ios": "https://dc.lft.to/lastmile_qr_scan"}, "is_reserved": 0, "is_disabled": 0, "name": "463818b34671894f9c4d6ee0674d23d1", "bike_id": "463818b34671894f9c4d6ee0674d23d1", "fusion_lat": 0.0, "lon": -76.99026583333334, "type": "electric_bike", "fusion_lon": 0.0, "lat": 38.83579016666667}, {"rental_uris": {"android": "https://dc.lft.to/lastmile_qr_scan", "ios": "https://dc.lft.to/lastmile_qr_scan"}, "is_reserved": 0, "is_disabled": 0, "name": "04b778b50606babb1a4d47c1212327fa", "bike_id": "04b778b50606babb1a4d47c1212327fa", "fusion_lat": 0.0, "lon": -77.03462366666666, "type": "electric_scooter", "fusion_lon": 0.0, "lat": 38.913798}, {"rental_uris": {"android": "https://dc.lft.to/lastmile_qr_scan", "ios": "https://dc.lft.to/lastmile_qr_scan"}, "is_reserved": 0, "is_disabled": 0, "name": "70aa7a65a6e91464da70d9d34b3ae311", "bike_id": "70aa7a65a6e91464da70d9d34b3ae311", "fusion_lat": 0.0, "lon": -77.02139933333333, "type": "electric_bike", "fusion_lon": 0.0, "lat": 38.9481095}, {"rental_uris": {"android": "https://dc.lft.to/lastmile_qr_scan", "ios": "https://dc.lft.to/lastmile_qr_scan"}, "is_reserved": 0, "is_disabled": 0, "name": "4649cd475d01af13b7812dd4d2ff6a6e", "bike_id": "4649cd475d01af13b7812dd4d2ff6a6e", "fusion_lat": 0.0, "lon": -77.04729283333333, "type": "electric_scooter", "fusion_lon": 0.0, "lat": 38.89558666666667}, {"rental_uris": {"android": "https://dc.lft.to/lastmile_qr_scan", "ios": "https://dc.lft.to/lastmile_qr_scan"}, "is_reserved": 0, "is_disabled": 0, "name": "b1754b5f723821a47b6820b3a477ed5c", "bike_id": "b1754b5f723821a47b6820b3a477ed5c", "fusion_lat": 0.0, "lon": -76.99634383333333, "type": "electric_scooter", "fusion_lon": 0.0, "lat": 38.90530966666667}, {"rental_uris": {"android": "https://dc.lft.to/lastmile_qr_scan", "ios": "https://dc.lft.to/lastmile_qr_scan"}, "is_reserved": 0, "is_disabled": 0, "name": "f204d464b25bdfaad226ee3e69ac7241", "bike_id": "f204d464b25bdfaad226ee3e69ac7241", "fusion_lat": 0.0, "lon": -77.02312266666667, "type": "electric_scooter", "fusion_lon": 0.0, "lat": 38.94007716666667}, {"rental_uris": {"android": "https://dc.lft.to/lastmile_qr_scan", "ios": "https://dc.lft.to/lastmile_qr_scan"}, "is_reserved": 0, "is_disabled": 0, "name": "bad21c5a17af186aed7f1c677f2b7832", "bike_id": "bad21c5a17af186aed7f1c677f2b7832", "fusion_lat": 0.0, "lon": -77.0231755, "type": "electric_scooter", "fusion_lon": 0.0, "lat": 38.9184105}, {"rental_uris": {"android": "https://dc.lft.to/lastmile_qr_scan", "ios": "https://dc.lft.to/lastmile_qr_scan"}, "is_reserved": 0, "is_disabled": 0, "name": "99b9ab86355c42b805bb49991a134c4e", "bike_id": "99b9ab86355c42b805bb49991a134c4e", "fusion_lat": 0.0, "lon": -77.0502525, "type": "electric_scooter", "fusion_lon": 0.0, "lat": 38.90538516666667}, {"rental_uris": {"android": "https://dc.lft.to/lastmile_qr_scan", "ios": "https://dc.lft.to/lastmile_qr_scan"}, "is_reserved": 0, "is_disabled": 0, "name": "3621be1a1caa33d39ad480e0b252af9c", "bike_id": "3621be1a1caa33d39ad480e0b252af9c", "fusion_lat": 0.0, "lon": -77.03394983333334, "type": "electric_scooter", "fusion_lon": 0.0, "lat": 38.919315833333336}, {"rental_uris": {"android": "https://dc.lft.to/lastmile_qr_scan", "ios": "https://dc.lft.to/lastmile_qr_scan"}, "is_reserved": 0, "is_disabled": 0, "name": "4554952d9492073aeaee31f96b1cbfc3", "bike_id": "4554952d9492073aeaee31f96b1cbfc3", "fusion_lat": 0.0, "lon": -77.0384205, "type": "electric_scooter", "fusion_lon": 0.0, "lat": 38.909469666666666}, {"rental_uris": {"android": "https://dc.lft.to/lastmile_qr_scan", "ios": "https://dc.lft.to/lastmile_qr_scan"}, "is_reserved": 0, "is_disabled": 0, "name": "537a5986dd5685c809b813f6fbe1342c", "bike_id": "537a5986dd5685c809b813f6fbe1342c", "fusion_lat": 0.0, "lon": -77.03060233333333, "type": "electric_scooter", "fusion_lon": 0.0, "lat": 38.92379716666667}, {"rental_uris": {"android": "https://dc.lft.to/lastmile_qr_scan", "ios": "https://dc.lft.to/lastmile_qr_scan"}, "is_reserved": 0, "is_disabled": 0, "name": "ebd81638a11df397cf3402402f4263c5", "bike_id": "ebd81638a11df397cf3402402f4263c5", "fusion_lat": 0.0, "lon": -76.93189416666667, "type": "electric_scooter", "fusion_lon": 0.0, "lat": 38.898556166666665}, {"rental_uris": {"android": "https://dc.lft.to/lastmile_qr_scan", "ios": "https://dc.lft.to/lastmile_qr_scan"}, "is_reserved": 0, "is_disabled": 0, "name": "e483d5861e2a8dc944cf427ace2d4ebf", "bike_id": "e483d5861e2a8dc944cf427ace2d4ebf", "fusion_lat": 0.0, "lon": -77.06282183333333, "type": "electric_scooter", "fusion_lon": 0.0, "lat": 38.96501966666666}, {"rental_uris": {"android": "https://dc.lft.to/lastmile_qr_scan", "ios": "https://dc.lft.to/lastmile_qr_scan"}, "is_reserved": 0, "is_disabled": 0, "name": "4634f76f0ecdd130d863dcaa93b5bf28", "bike_id": "4634f76f0ecdd130d863dcaa93b5bf28", "fusion_lat": 0.0, "lon": -77.0118875, "type": "electric_scooter", "fusion_lon": 0.0, "lat": 38.90009533333333}, {"rental_uris": {"android": "https://dc.lft.to/lastmile_qr_scan", "ios": "https://dc.lft.to/lastmile_qr_scan"}, "is_reserved": 0, "is_disabled": 0, "name": "3350567a5dd5128e7511ce895996540b", "bike_id": "3350567a5dd5128e7511ce895996540b", "fusion_lat": 0.0, "lon": -77.06354433333334, "type": "electric_scooter", "fusion_lon": 0.0, "lat": 38.944376166666665}, {"rental_uris": {"android": "https://dc.lft.to/lastmile_qr_scan", "ios": "https://dc.lft.to/lastmile_qr_scan"}, "is_reserved": 0, "is_disabled": 0, "name": "a998325405bbbdc48407872a00e8d1d5", "bike_id": "a998325405bbbdc48407872a00e8d1d5", "fusion_lat": 0.0, "lon": -77.06889683333333, "type": "electric_scooter", "fusion_lon": 0.0, "lat": 38.905250833333334}, {"rental_uris": {"android": "https://dc.lft.to/lastmile_qr_scan", "ios": "https://dc.lft.to/lastmile_qr_scan"}, "is_reserved": 0, "is_disabled": 0, "name": "cd578dfd2bb0b6f23c0cec8e16a16c4e", "bike_id": "cd578dfd2bb0b6f23c0cec8e16a16c4e", "fusion_lat": 0.0, "lon": -77.05763816666666, "type": "electric_scooter", "fusion_lon": 0.0, "lat": 38.92446533333333}, {"rental_uris": {"android": "https://dc.lft.to/lastmile_qr_scan", "ios": "https://dc.lft.to/lastmile_qr_scan"}, "is_reserved": 0, "is_disabled": 0, "name": "49b547a1c355a7a4b477a120304504f3", "bike_id": "49b547a1c355a7a4b477a120304504f3", "fusion_lat": 0.0, "lon": -77.04956983333334, "type": "electric_scooter", "fusion_lon": 0.0, "lat": 38.90088766666667}, {"rental_uris": {"android": "https://dc.lft.to/lastmile_qr_scan", "ios": "https://dc.lft.to/lastmile_qr_scan"}, "is_reserved": 0, "is_disabled": 0, "name": "0edfec130a22bdb21584193def7f7779", "bike_id": "0edfec130a22bdb21584193def7f7779", "fusion_lat": 0.0, "lon": -76.94450983333333, "type": "electric_scooter", "fusion_lon": 0.0, "lat": 38.89064466666667}, {"rental_uris": {"android": "https://dc.lft.to/lastmile_qr_scan", "ios": "https://dc.lft.to/lastmile_qr_scan"}, "is_reserved": 0, "is_disabled": 0, "name": "d5a2467eae95c48f605a03b821c87211", "bike_id": "d5a2467eae95c48f605a03b821c87211", "fusion_lat": 0.0, "lon": -77.04498966666667, "type": "electric_scooter", "fusion_lon": 0.0, "lat": 38.905710166666665}, {"rental_uris": {"android": "https://dc.lft.to/lastmile_qr_scan", "ios": "https://dc.lft.to/lastmile_qr_scan"}, "is_reserved": 0, "is_disabled": 0, "name": "5c5758249de3d6c22985268beed19371", "bike_id": "5c5758249de3d6c22985268beed19371", "fusion_lat": 0.0, "lon": -77.02631016666666, "type": "electric_scooter", "fusion_lon": 0.0, "lat": 38.9303075}, {"rental_uris": {"android": "https://dc.lft.to/lastmile_qr_scan", "ios": "https://dc.lft.to/lastmile_qr_scan"}, "is_reserved": 0, "is_disabled": 0, "name": "51b9f2b0d03a89e4a2e0429536e06377", "bike_id": "51b9f2b0d03a89e4a2e0429536e06377", "fusion_lat": 0.0, "lon": -77.03768666666667, "type": "electric_scooter", "fusion_lon": 0.0, "lat": 38.929167166666666}, {"rental_uris": {"android": "https://dc.lft.to/lastmile_qr_scan", "ios": "https://dc.lft.to/lastmile_qr_scan"}, "is_reserved": 0, "is_disabled": 0, "name": "f96fff09c0b514bfc209b1ee17b7c205", "bike_id": "f96fff09c0b514bfc209b1ee17b7c205", "fusion_lat": 0.0, "lon": -77.03470116666666, "type": "electric_scooter", "fusion_lon": 0.0, "lat": 38.9169615}, {"rental_uris": {"android": "https://dc.lft.to/lastmile_qr_scan", "ios": "https://dc.lft.to/lastmile_qr_scan"}, "is_reserved": 0, "is_disabled": 0, "name": "76ad9ba2cd35f32172f6ff9366959a30", "bike_id": "76ad9ba2cd35f32172f6ff9366959a30", "fusion_lat": 0.0, "lon": -77.06813966666667, "type": "electric_scooter", "fusion_lon": 0.0, "lat": 38.91662133333333}, {"rental_uris": {"android": "https://dc.lft.to/lastmile_qr_scan", "ios": "https://dc.lft.to/lastmile_qr_scan"}, "is_reserved": 0, "is_disabled": 0, "name": "27418ebb24c19f1c9c000b84de82a7f7", "bike_id": "27418ebb24c19f1c9c000b84de82a7f7", "fusion_lat": 0.0, "lon": -77.04175383333333, "type": "electric_scooter", "fusion_lon": 0.0, "lat": 38.917314}, {"rental_uris": {"android": "https://dc.lft.to/lastmile_qr_scan", "ios": "https://dc.lft.to/lastmile_qr_scan"}, "is_reserved": 0, "is_disabled": 0, "name": "6d15d6958af0ac66339f6cd70d10d0d0", "bike_id": "6d15d6958af0ac66339f6cd70d10d0d0", "fusion_lat": 0.0, "lon": -77.05216516666667, "type": "electric_scooter", "fusion_lon": 0.0, "lat": 38.90249883333333}, {"rental_uris": {"android": "https://dc.lft.to/lastmile_qr_scan", "ios": "https://dc.lft.to/lastmile_qr_scan"}, "is_reserved": 0, "is_disabled": 0, "name": "8ced006267a2d54c1349848aa91f701d", "bike_id": "8ced006267a2d54c1349848aa91f701d", "fusion_lat": 0.0, "lon": -77.0657195, "type": "electric_bike", "fusion_lon": 0.0, "lat": 38.932629166666665}, {"rental_uris": {"android": "https://dc.lft.to/lastmile_qr_scan", "ios": "https://dc.lft.to/lastmile_qr_scan"}, "is_reserved": 0, "is_disabled": 0, "name": "667006d367950a8bf996bcaa5fde03c6", "bike_id": "667006d367950a8bf996bcaa5fde03c6", "fusion_lat": 0.0, "lon": -77.02697116666667, "type": "electric_scooter", "fusion_lon": 0.0, "lat": 38.91675433333333}, {"rental_uris": {"android": "https://dc.lft.to/lastmile_qr_scan", "ios": "https://dc.lft.to/lastmile_qr_scan"}, "is_reserved": 0, "is_disabled": 0, "name": "9610ccf38d68f5ebe98ae02120a9c8dd", "bike_id": "9610ccf38d68f5ebe98ae02120a9c8dd", "fusion_lat": 0.0, "lon": -77.04567516666667, "type": "electric_scooter", "fusion_lon": 0.0, "lat": 38.91382266666667}, {"rental_uris": {"android": "https://dc.lft.to/lastmile_qr_scan", "ios": "https://dc.lft.to/lastmile_qr_scan"}, "is_reserved": 0, "is_disabled": 0, "name": "53cf8a56fe36c75b0c26c43b0b8516a9", "bike_id": "53cf8a56fe36c75b0c26c43b0b8516a9", "fusion_lat": 0.0, "lon": -77.01540433333334, "type": "electric_scooter", "fusion_lon": 0.0, "lat": 38.892395}, {"rental_uris": {"android": "https://dc.lft.to/lastmile_qr_scan", "ios": "https://dc.lft.to/lastmile_qr_scan"}, "is_reserved": 0, "is_disabled": 0, "name": "4389d4ebcb706a2e59ce6655a48f3cfb", "bike_id": "4389d4ebcb706a2e59ce6655a48f3cfb", "fusion_lat": 0.0, "lon": -77.0225415, "type": "electric_scooter", "fusion_lon": 0.0, "lat": 38.928246666666666}, {"rental_uris": {"android": "https://dc.lft.to/lastmile_qr_scan", "ios": "https://dc.lft.to/lastmile_qr_scan"}, "is_reserved": 0, "is_disabled": 0, "name": "2e478cfcb7f43350db406f28c8251cb8", "bike_id": "2e478cfcb7f43350db406f28c8251cb8", "fusion_lat": 0.0, "lon": -76.99851033333333, "type": "electric_scooter", "fusion_lon": 0.0, "lat": 38.896263833333336}, {"rental_uris": {"android": "https://dc.lft.to/lastmile_qr_scan", "ios": "https://dc.lft.to/lastmile_qr_scan"}, "is_reserved": 0, "is_disabled": 0, "name": "874e0b739300ba0f1f3bd65b26bc38c5", "bike_id": "874e0b739300ba0f1f3bd65b26bc38c5", "fusion_lat": 0.0, "lon": -77.01989666666667, "type": "electric_scooter", "fusion_lon": 0.0, "lat": 38.87607766666667}, {"rental_uris": {"android": "https://dc.lft.to/lastmile_qr_scan", "ios": "https://dc.lft.to/lastmile_qr_scan"}, "is_reserved": 0, "is_disabled": 0, "name": "0801de7308ed1c5a84b26e8bb7fcd67f", "bike_id": "0801de7308ed1c5a84b26e8bb7fcd67f", "fusion_lat": 0.0, "lon": -77.0337785, "type": "electric_scooter", "fusion_lon": 0.0, "lat": 38.902649333333336}, {"rental_uris": {"android": "https://dc.lft.to/lastmile_qr_scan", "ios": "https://dc.lft.to/lastmile_qr_scan"}, "is_reserved": 0, "is_disabled": 0, "name": "61a584c0f876ec059389690eb8b62451", "bike_id": "61a584c0f876ec059389690eb8b62451", "fusion_lat": 0.0, "lon": -77.0395515, "type": "electric_scooter", "fusion_lon": 0.0, "lat": 38.91564866666667}, {"rental_uris": {"android": "https://dc.lft.to/lastmile_qr_scan", "ios": "https://dc.lft.to/lastmile_qr_scan"}, "is_reserved": 0, "is_disabled": 0, "name": "ffd1fc27dfd042ce6c31b08033d8cf92", "bike_id": "ffd1fc27dfd042ce6c31b08033d8cf92", "fusion_lat": 0.0, "lon": -77.00954483333334, "type": "electric_bike", "fusion_lon": 0.0, "lat": 38.921342833333334}, {"rental_uris": {"android": "https://dc.lft.to/lastmile_qr_scan", "ios": "https://dc.lft.to/lastmile_qr_scan"}, "is_reserved": 0, "is_disabled": 0, "name": "6edbfa32df5c29bb74b68280c35c9c8e", "bike_id": "6edbfa32df5c29bb74b68280c35c9c8e", "fusion_lat": 0.0, "lon": -76.93805516666667, "type": "electric_bike", "fusion_lon": 0.0, "lat": 38.979735833333336}, {"rental_uris": {"android": "https://dc.lft.to/lastmile_qr_scan", "ios": "https://dc.lft.to/lastmile_qr_scan"}, "is_reserved": 0, "is_disabled": 0, "name": "a335ae3a7e41bab73277f2c2f32f726f", "bike_id": "a335ae3a7e41bab73277f2c2f32f726f", "fusion_lat": 0.0, "lon": -77.02657933333333, "type": "electric_bike", "fusion_lon": 0.0, "lat": 38.988092333333334}, {"rental_uris": {"android": "https://dc.lft.to/lastmile_qr_scan", "ios": "https://dc.lft.to/lastmile_qr_scan"}, "is_reserved": 0, "is_disabled": 0, "name": "2db2445a1fa1863d47e57e848c2c5608", "bike_id": "2db2445a1fa1863d47e57e848c2c5608", "fusion_lat": 0.0, "lon": -77.0330025, "type": "electric_scooter", "fusion_lon": 0.0, "lat": 38.927534}, {"rental_uris": {"android": "https://dc.lft.to/lastmile_qr_scan", "ios": "https://dc.lft.to/lastmile_qr_scan"}, "is_reserved": 0, "is_disabled": 0, "name": "8103de725c0608c6d4bc0e15e4f9df46", "bike_id": "8103de725c0608c6d4bc0e15e4f9df46", "fusion_lat": 0.0, "lon": -77.04378766666666, "type": "electric_scooter", "fusion_lon": 0.0, "lat": 38.92052316666667}, {"rental_uris": {"android": "https://dc.lft.to/lastmile_qr_scan", "ios": "https://dc.lft.to/lastmile_qr_scan"}, "is_reserved": 0, "is_disabled": 0, "name": "3a7dba55b67b4ab589da775af22a877f", "bike_id": "3a7dba55b67b4ab589da775af22a877f", "fusion_lat": 0.0, "lon": -77.04152166666667, "type": "electric_scooter", "fusion_lon": 0.0, "lat": 38.92330316666666}, {"rental_uris": {"android": "https://dc.lft.to/lastmile_qr_scan", "ios": "https://dc.lft.to/lastmile_qr_scan"}, "is_reserved": 0, "is_disabled": 0, "name": "13a654eb363b8face78a67b465f9a91e", "bike_id": "13a654eb363b8face78a67b465f9a91e", "fusion_lat": 0.0, "lon": -77.002895, "type": "electric_scooter", "fusion_lon": 0.0, "lat": 38.89199466666667}, {"rental_uris": {"android": "https://dc.lft.to/lastmile_qr_scan", "ios": "https://dc.lft.to/lastmile_qr_scan"}, "is_reserved": 0, "is_disabled": 0, "name": "a60ad92b71db5518177fa2e02237c7a5", "bike_id": "a60ad92b71db5518177fa2e02237c7a5", "fusion_lat": 0.0, "lon": -77.02961183333333, "type": "electric_scooter", "fusion_lon": 0.0, "lat": 38.927235833333334}, {"rental_uris": {"android": "https://dc.lft.to/lastmile_qr_scan", "ios": "https://dc.lft.to/lastmile_qr_scan"}, "is_reserved": 0, "is_disabled": 0, "name": "358b7bd3ab270f5c2c86c08900aacf22", "bike_id": "358b7bd3ab270f5c2c86c08900aacf22", "fusion_lat": 0.0, "lon": -77.03728616666666, "type": "electric_scooter", "fusion_lon": 0.0, "lat": 38.9127615}, {"rental_uris": {"android": "https://dc.lft.to/lastmile_qr_scan", "ios": "https://dc.lft.to/lastmile_qr_scan"}, "is_reserved": 0, "is_disabled": 0, "name": "cac19c87bf4c893448f73a1720dc18e1", "bike_id": "cac19c87bf4c893448f73a1720dc18e1", "fusion_lat": 0.0, "lon": -77.04257266666667, "type": "electric_scooter", "fusion_lon": 0.0, "lat": 38.91194316666667}, {"rental_uris": {"android": "https://dc.lft.to/lastmile_qr_scan", "ios": "https://dc.lft.to/lastmile_qr_scan"}, "is_reserved": 0, "is_disabled": 0, "name": "ed9da18efbb26e8eb74309310ddfc493", "bike_id": "ed9da18efbb26e8eb74309310ddfc493", "fusion_lat": 0.0, "lon": -77.02361516666667, "type": "electric_scooter", "fusion_lon": 0.0, "lat": 38.935243}, {"rental_uris": {"android": "https://dc.lft.to/lastmile_qr_scan", "ios": "https://dc.lft.to/lastmile_qr_scan"}, "is_reserved": 0, "is_disabled": 0, "name": "22ae87d703dd9a0d332064712ae2bb5a", "bike_id": "22ae87d703dd9a0d332064712ae2bb5a", "fusion_lat": 0.0, "lon": -77.02199333333333, "type": "electric_scooter", "fusion_lon": 0.0, "lat": 38.91481783333333}, {"rental_uris": {"android": "https://dc.lft.to/lastmile_qr_scan", "ios": "https://dc.lft.to/lastmile_qr_scan"}, "is_reserved": 0, "is_disabled": 0, "name": "ec86a6830812bc0b762dc92e36ec7ec4", "bike_id": "ec86a6830812bc0b762dc92e36ec7ec4", "fusion_lat": 0.0, "lon": -77.0319425, "type": "electric_scooter", "fusion_lon": 0.0, "lat": 38.9075105}, {"rental_uris": {"android": "https://dc.lft.to/lastmile_qr_scan", "ios": "https://dc.lft.to/lastmile_qr_scan"}, "is_reserved": 0, "is_disabled": 0, "name": "db9a2ba904e318b118d4e3bed489b6d9", "bike_id": "db9a2ba904e318b118d4e3bed489b6d9", "fusion_lat": 0.0, "lon": -77.02587466666667, "type": "electric_scooter", "fusion_lon": 0.0, "lat": 38.9187995}, {"rental_uris": {"android": "https://dc.lft.to/lastmile_qr_scan", "ios": "https://dc.lft.to/lastmile_qr_scan"}, "is_reserved": 0, "is_disabled": 0, "name": "5b97126055cc487e904a015a5f0373b9", "bike_id": "5b97126055cc487e904a015a5f0373b9", "fusion_lat": 0.0, "lon": -77.019525, "type": "electric_scooter", "fusion_lon": 0.0, "lat": 38.9232935}, {"rental_uris": {"android": "https://dc.lft.to/lastmile_qr_scan", "ios": "https://dc.lft.to/lastmile_qr_scan"}, "is_reserved": 0, "is_disabled": 0, "name": "5177c0806fc31e015ea9e6533148cfb3", "bike_id": "5177c0806fc31e015ea9e6533148cfb3", "fusion_lat": 0.0, "lon": -77.02508866666666, "type": "electric_scooter", "fusion_lon": 0.0, "lat": 38.93547733333333}, {"rental_uris": {"android": "https://dc.lft.to/lastmile_qr_scan", "ios": "https://dc.lft.to/lastmile_qr_scan"}, "is_reserved": 0, "is_disabled": 0, "name": "ca1511ab03c420a45c9695a3548b5d4d", "bike_id": "ca1511ab03c420a45c9695a3548b5d4d", "fusion_lat": 0.0, "lon": -77.0965955, "type": "electric_bike", "fusion_lon": 0.0, "lat": 38.95216766666667}, {"rental_uris": {"android": "https://dc.lft.to/lastmile_qr_scan", "ios": "https://dc.lft.to/lastmile_qr_scan"}, "is_reserved": 0, "is_disabled": 0, "name": "51fb63129213cc3cad30ee8f7720cd59", "bike_id": "51fb63129213cc3cad30ee8f7720cd59", "fusion_lat": 0.0, "lon": -77.03517116666667, "type": "electric_scooter", "fusion_lon": 0.0, "lat": 38.932859666666666}, {"rental_uris": {"android": "https://dc.lft.to/lastmile_qr_scan", "ios": "https://dc.lft.to/lastmile_qr_scan"}, "is_reserved": 0, "is_disabled": 0, "name": "5a1c1489ff7d9cca4f5bb4abb7002a3c", "bike_id": "5a1c1489ff7d9cca4f5bb4abb7002a3c", "fusion_lat": 0.0, "lon": -77.03365116666667, "type": "electric_scooter", "fusion_lon": 0.0, "lat": 38.90271366666666}, {"rental_uris": {"android": "https://dc.lft.to/lastmile_qr_scan", "ios": "https://dc.lft.to/lastmile_qr_scan"}, "is_reserved": 0, "is_disabled": 0, "name": "b0ac4508c71b6800aceadae8f4c8ec04", "bike_id": "b0ac4508c71b6800aceadae8f4c8ec04", "fusion_lat": 0.0, "lon": -77.031991, "type": "electric_scooter", "fusion_lon": 0.0, "lat": 38.919286666666665}, {"rental_uris": {"android": "https://dc.lft.to/lastmile_qr_scan", "ios": "https://dc.lft.to/lastmile_qr_scan"}, "is_reserved": 0, "is_disabled": 0, "name": "b02eb15798292178ebe7f77623ff1db5", "bike_id": "b02eb15798292178ebe7f77623ff1db5", "fusion_lat": 0.0, "lon": -77.02594466666666, "type": "electric_scooter", "fusion_lon": 0.0, "lat": 38.92038633333333}, {"rental_uris": {"android": "https://dc.lft.to/lastmile_qr_scan", "ios": "https://dc.lft.to/lastmile_qr_scan"}, "is_reserved": 0, "is_disabled": 0, "name": "fb83264947810605fdff43a591cf55f9", "bike_id": "fb83264947810605fdff43a591cf55f9", "fusion_lat": 0.0, "lon": -77.02854383333333, "type": "electric_scooter", "fusion_lon": 0.0, "lat": 38.935311666666664}, {"rental_uris": {"android": "https://dc.lft.to/lastmile_qr_scan", "ios": "https://dc.lft.to/lastmile_qr_scan"}, "is_reserved": 0, "is_disabled": 0, "name": "c7e364b284658f47e649788187479d30", "bike_id": "c7e364b284658f47e649788187479d30", "fusion_lat": 0.0, "lon": -77.05127866666666, "type": "electric_scooter", "fusion_lon": 0.0, "lat": 38.90643983333333}, {"rental_uris": {"android": "https://dc.lft.to/lastmile_qr_scan", "ios": "https://dc.lft.to/lastmile_qr_scan"}, "is_reserved": 0, "is_disabled": 0, "name": "040018e3248020a2fbb956b6f4009557", "bike_id": "040018e3248020a2fbb956b6f4009557", "fusion_lat": 0.0, "lon": -77.00601316666666, "type": "electric_scooter", "fusion_lon": 0.0, "lat": 38.87545983333333}, {"rental_uris": {"android": "https://dc.lft.to/lastmile_qr_scan", "ios": "https://dc.lft.to/lastmile_qr_scan"}, "is_reserved": 0, "is_disabled": 0, "name": "e4c92a39e53bb3634b35807dc2657190", "bike_id": "e4c92a39e53bb3634b35807dc2657190", "fusion_lat": 0.0, "lon": -77.02326033333334, "type": "electric_scooter", "fusion_lon": 0.0, "lat": 38.916913}, {"rental_uris": {"android": "https://dc.lft.to/lastmile_qr_scan", "ios": "https://dc.lft.to/lastmile_qr_scan"}, "is_reserved": 0, "is_disabled": 0, "name": "bfbdb81be9de5b251f5c0eb425b7f0b2", "bike_id": "bfbdb81be9de5b251f5c0eb425b7f0b2", "fusion_lat": 0.0, "lon": -77.03193616666667, "type": "electric_scooter", "fusion_lon": 0.0, "lat": 38.91592083333333}, {"rental_uris": {"android": "https://dc.lft.to/lastmile_qr_scan", "ios": "https://dc.lft.to/lastmile_qr_scan"}, "is_reserved": 0, "is_disabled": 0, "name": "37a261d836e6fb0f7f22d35865f72e51", "bike_id": "37a261d836e6fb0f7f22d35865f72e51", "fusion_lat": 0.0, "lon": -77.03306166666667, "type": "electric_scooter", "fusion_lon": 0.0, "lat": 38.900098166666666}, {"rental_uris": {"android": "https://dc.lft.to/lastmile_qr_scan", "ios": "https://dc.lft.to/lastmile_qr_scan"}, "is_reserved": 0, "is_disabled": 0, "name": "4b646c153d1726aac17abb6721eaca45", "bike_id": "4b646c153d1726aac17abb6721eaca45", "fusion_lat": 0.0, "lon": -77.02138483333333, "type": "electric_scooter", "fusion_lon": 0.0, "lat": 38.90482566666667}, {"rental_uris": {"android": "https://dc.lft.to/lastmile_qr_scan", "ios": "https://dc.lft.to/lastmile_qr_scan"}, "is_reserved": 0, "is_disabled": 0, "name": "cbc427dbe638f80cce5829db95695bf7", "bike_id": "cbc427dbe638f80cce5829db95695bf7", "fusion_lat": 0.0, "lon": -77.04351933333334, "type": "electric_scooter", "fusion_lon": 0.0, "lat": 38.91307533333333}, {"rental_uris": {"android": "https://dc.lft.to/lastmile_qr_scan", "ios": "https://dc.lft.to/lastmile_qr_scan"}, "is_reserved": 0, "is_disabled": 0, "name": "33261c76ad013c99df872f208019a5b4", "bike_id": "33261c76ad013c99df872f208019a5b4", "fusion_lat": 0.0, "lon": -77.026617, "type": "electric_scooter", "fusion_lon": 0.0, "lat": 38.92174116666666}, {"rental_uris": {"android": "https://dc.lft.to/lastmile_qr_scan", "ios": "https://dc.lft.to/lastmile_qr_scan"}, "is_reserved": 0, "is_disabled": 0, "name": "2b2469059732019a96dadb367125a893", "bike_id": "2b2469059732019a96dadb367125a893", "fusion_lat": 0.0, "lon": -77.02076866666667, "type": "electric_scooter", "fusion_lon": 0.0, "lat": 38.927200666666664}, {"rental_uris": {"android": "https://dc.lft.to/lastmile_qr_scan", "ios": "https://dc.lft.to/lastmile_qr_scan"}, "is_reserved": 0, "is_disabled": 0, "name": "c62f07c514ffc5d44b3c767100401ecc", "bike_id": "c62f07c514ffc5d44b3c767100401ecc", "fusion_lat": 0.0, "lon": -77.02698666666667, "type": "electric_scooter", "fusion_lon": 0.0, "lat": 38.949779}, {"rental_uris": {"android": "https://dc.lft.to/lastmile_qr_scan", "ios": "https://dc.lft.to/lastmile_qr_scan"}, "is_reserved": 0, "is_disabled": 0, "name": "202dc28c70d83f5bed20e400a639d3c0", "bike_id": "202dc28c70d83f5bed20e400a639d3c0", "fusion_lat": 0.0, "lon": -76.98500616666666, "type": "electric_scooter", "fusion_lon": 0.0, "lat": 38.860607333333334}, {"rental_uris": {"android": "https://dc.lft.to/lastmile_qr_scan", "ios": "https://dc.lft.to/lastmile_qr_scan"}, "is_reserved": 0, "is_disabled": 0, "name": "e7855de95deb058d7c87ff34ec51fc5f", "bike_id": "e7855de95deb058d7c87ff34ec51fc5f", "fusion_lat": 0.0, "lon": -77.03273166666666, "type": "electric_scooter", "fusion_lon": 0.0, "lat": 38.9341805}, {"rental_uris": {"android": "https://dc.lft.to/lastmile_qr_scan", "ios": "https://dc.lft.to/lastmile_qr_scan"}, "is_reserved": 0, "is_disabled": 0, "name": "c89cb35d49dcd8d4c163cbda8da995b3", "bike_id": "c89cb35d49dcd8d4c163cbda8da995b3", "fusion_lat": 0.0, "lon": -77.034616, "type": "electric_scooter", "fusion_lon": 0.0, "lat": 38.91575983333333}, {"rental_uris": {"android": "https://dc.lft.to/lastmile_qr_scan", "ios": "https://dc.lft.to/lastmile_qr_scan"}, "is_reserved": 0, "is_disabled": 0, "name": "1109aa9316bfc83d8b05165a8fa88f6a", "bike_id": "1109aa9316bfc83d8b05165a8fa88f6a", "fusion_lat": 0.0, "lon": -77.01206733333333, "type": "electric_scooter", "fusion_lon": 0.0, "lat": 38.92119983333333}, {"rental_uris": {"android": "https://dc.lft.to/lastmile_qr_scan", "ios": "https://dc.lft.to/lastmile_qr_scan"}, "is_reserved": 0, "is_disabled": 0, "name": "4c9bfe4d51ab7bbe2bca86e506775cbe", "bike_id": "4c9bfe4d51ab7bbe2bca86e506775cbe", "fusion_lat": 0.0, "lon": -77.04141366666667, "type": "electric_scooter", "fusion_lon": 0.0, "lat": 38.902714}, {"rental_uris": {"android": "https://dc.lft.to/lastmile_qr_scan", "ios": "https://dc.lft.to/lastmile_qr_scan"}, "is_reserved": 0, "is_disabled": 0, "name": "b014926a2b7af32ca73a3e9833045306", "bike_id": "b014926a2b7af32ca73a3e9833045306", "fusion_lat": 0.0, "lon": -77.07857766666666, "type": "electric_scooter", "fusion_lon": 0.0, "lat": 38.924671333333336}, {"rental_uris": {"android": "https://dc.lft.to/lastmile_qr_scan", "ios": "https://dc.lft.to/lastmile_qr_scan"}, "is_reserved": 0, "is_disabled": 0, "name": "421acb47a47cd48b2a3ebe378d7403dc", "bike_id": "421acb47a47cd48b2a3ebe378d7403dc", "fusion_lat": 0.0, "lon": -77.00056183333334, "type": "electric_scooter", "fusion_lon": 0.0, "lat": 38.878783}, {"rental_uris": {"android": "https://dc.lft.to/lastmile_qr_scan", "ios": "https://dc.lft.to/lastmile_qr_scan"}, "is_reserved": 0, "is_disabled": 0, "name": "c1a13c8e5189a7036ff9f1036f87f58d", "bike_id": "c1a13c8e5189a7036ff9f1036f87f58d", "fusion_lat": 0.0, "lon": -77.01983266666667, "type": "electric_scooter", "fusion_lon": 0.0, "lat": 38.885858999999996}, {"rental_uris": {"android": "https://dc.lft.to/lastmile_qr_scan", "ios": "https://dc.lft.to/lastmile_qr_scan"}, "is_reserved": 0, "is_disabled": 0, "name": "98449c998c0157b266cfac5e4bcb324d", "bike_id": "98449c998c0157b266cfac5e4bcb324d", "fusion_lat": 0.0, "lon": -77.0119405, "type": "electric_scooter", "fusion_lon": 0.0, "lat": 38.900128}, {"rental_uris": {"android": "https://dc.lft.to/lastmile_qr_scan", "ios": "https://dc.lft.to/lastmile_qr_scan"}, "is_reserved": 0, "is_disabled": 0, "name": "4a673148656a5fe7bad2cb3c6cdbc586", "bike_id": "4a673148656a5fe7bad2cb3c6cdbc586", "fusion_lat": 0.0, "lon": -76.944644, "type": "electric_scooter", "fusion_lon": 0.0, "lat": 38.890248166666666}, {"rental_uris": {"android": "https://dc.lft.to/lastmile_qr_scan", "ios": "https://dc.lft.to/lastmile_qr_scan"}, "is_reserved": 0, "is_disabled": 0, "name": "4002831442336653ea9d50d25a04db41", "bike_id": "4002831442336653ea9d50d25a04db41", "fusion_lat": 0.0, "lon": -77.02431916666667, "type": "electric_scooter", "fusion_lon": 0.0, "lat": 38.92044833333333}, {"rental_uris": {"android": "https://dc.lft.to/lastmile_qr_scan", "ios": "https://dc.lft.to/lastmile_qr_scan"}, "is_reserved": 0, "is_disabled": 0, "name": "86e1197a9ee1fe07aeda6fcb63d2ed32", "bike_id": "86e1197a9ee1fe07aeda6fcb63d2ed32", "fusion_lat": 0.0, "lon": -77.03293133333334, "type": "electric_scooter", "fusion_lon": 0.0, "lat": 38.95616533333333}, {"rental_uris": {"android": "https://dc.lft.to/lastmile_qr_scan", "ios": "https://dc.lft.to/lastmile_qr_scan"}, "is_reserved": 0, "is_disabled": 0, "name": "7604169979beeeb5cd8038a5d8095582", "bike_id": "7604169979beeeb5cd8038a5d8095582", "fusion_lat": 0.0, "lon": -77.044329, "type": "electric_scooter", "fusion_lon": 0.0, "lat": 38.912647}, {"rental_uris": {"android": "https://dc.lft.to/lastmile_qr_scan", "ios": "https://dc.lft.to/lastmile_qr_scan"}, "is_reserved": 0, "is_disabled": 0, "name": "a041cafbafef45073afd484736723f60", "bike_id": "a041cafbafef45073afd484736723f60", "fusion_lat": 0.0, "lon": -77.0297885, "type": "electric_scooter", "fusion_lon": 0.0, "lat": 38.9240295}, {"rental_uris": {"android": "https://dc.lft.to/lastmile_qr_scan", "ios": "https://dc.lft.to/lastmile_qr_scan"}, "is_reserved": 0, "is_disabled": 0, "name": "5b5e18c926de719b49377d23e7609f2e", "bike_id": "5b5e18c926de719b49377d23e7609f2e", "fusion_lat": 0.0, "lon": -77.05342366666666, "type": "electric_scooter", "fusion_lon": 0.0, "lat": 38.903754}, {"rental_uris": {"android": "https://dc.lft.to/lastmile_qr_scan", "ios": "https://dc.lft.to/lastmile_qr_scan"}, "is_reserved": 0, "is_disabled": 0, "name": "e563871f44b718250c7afe67130f6487", "bike_id": "e563871f44b718250c7afe67130f6487", "fusion_lat": 0.0, "lon": -77.0348965, "type": "electric_scooter", "fusion_lon": 0.0, "lat": 38.93574816666667}, {"rental_uris": {"android": "https://dc.lft.to/lastmile_qr_scan", "ios": "https://dc.lft.to/lastmile_qr_scan"}, "is_reserved": 0, "is_disabled": 0, "name": "508ef9a3db488873512b9d84205eec46", "bike_id": "508ef9a3db488873512b9d84205eec46", "fusion_lat": 0.0, "lon": -77.0340965, "type": "electric_scooter", "fusion_lon": 0.0, "lat": 38.914046166666665}, {"rental_uris": {"android": "https://dc.lft.to/lastmile_qr_scan", "ios": "https://dc.lft.to/lastmile_qr_scan"}, "is_reserved": 0, "is_disabled": 0, "name": "2cab66342b7f7f980bf658ea0bb52222", "bike_id": "2cab66342b7f7f980bf658ea0bb52222", "fusion_lat": 0.0, "lon": -77.02691133333333, "type": "electric_scooter", "fusion_lon": 0.0, "lat": 38.9308205}, {"rental_uris": {"android": "https://dc.lft.to/lastmile_qr_scan", "ios": "https://dc.lft.to/lastmile_qr_scan"}, "is_reserved": 0, "is_disabled": 0, "name": "a83d3e027e7bafab4abe648e0889eea2", "bike_id": "a83d3e027e7bafab4abe648e0889eea2", "fusion_lat": 0.0, "lon": -77.03856683333333, "type": "electric_scooter", "fusion_lon": 0.0, "lat": 38.917134833333336}, {"rental_uris": {"android": "https://dc.lft.to/lastmile_qr_scan", "ios": "https://dc.lft.to/lastmile_qr_scan"}, "is_reserved": 0, "is_disabled": 0, "name": "6021e73465af04b83d854a3307e7e73e", "bike_id": "6021e73465af04b83d854a3307e7e73e", "fusion_lat": 0.0, "lon": -77.05152733333334, "type": "electric_scooter", "fusion_lon": 0.0, "lat": 38.923747666666664}, {"rental_uris": {"android": "https://dc.lft.to/lastmile_qr_scan", "ios": "https://dc.lft.to/lastmile_qr_scan"}, "is_reserved": 0, "is_disabled": 0, "name": "9810656da144db4eee55d18917ffc0e0", "bike_id": "9810656da144db4eee55d18917ffc0e0", "fusion_lat": 0.0, "lon": -77.02324866666666, "type": "electric_scooter", "fusion_lon": 0.0, "lat": 38.894752833333335}, {"rental_uris": {"android": "https://dc.lft.to/lastmile_qr_scan", "ios": "https://dc.lft.to/lastmile_qr_scan"}, "is_reserved": 0, "is_disabled": 0, "name": "71cdc0354ca84f34863679d8bb5adcb0", "bike_id": "71cdc0354ca84f34863679d8bb5adcb0", "fusion_lat": 0.0, "lon": -77.0038665, "type": "electric_bike", "fusion_lon": 0.0, "lat": 38.83430466666667}, {"rental_uris": {"android": "https://dc.lft.to/lastmile_qr_scan", "ios": "https://dc.lft.to/lastmile_qr_scan"}, "is_reserved": 0, "is_disabled": 0, "name": "3e1b933c8988782c51b1743d80f20107", "bike_id": "3e1b933c8988782c51b1743d80f20107", "fusion_lat": 0.0, "lon": -77.0320235, "type": "electric_bike", "fusion_lon": 0.0, "lat": 38.911545833333335}, {"rental_uris": {"android": "https://dc.lft.to/lastmile_qr_scan", "ios": "https://dc.lft.to/lastmile_qr_scan"}, "is_reserved": 0, "is_disabled": 0, "name": "5cbbfced531d51032c84b0c8994375ad", "bike_id": "5cbbfced531d51032c84b0c8994375ad", "fusion_lat": 0.0, "lon": -77.02831083333334, "type": "electric_scooter", "fusion_lon": 0.0, "lat": 38.93173216666667}, {"rental_uris": {"android": "https://dc.lft.to/lastmile_qr_scan", "ios": "https://dc.lft.to/lastmile_qr_scan"}, "is_reserved": 0, "is_disabled": 0, "name": "6627eccdd7c7da48d90c6906133b2f7d", "bike_id": "6627eccdd7c7da48d90c6906133b2f7d", "fusion_lat": 0.0, "lon": -77.05151683333334, "type": "electric_scooter", "fusion_lon": 0.0, "lat": 38.923749}, {"rental_uris": {"android": "https://dc.lft.to/lastmile_qr_scan", "ios": "https://dc.lft.to/lastmile_qr_scan"}, "is_reserved": 0, "is_disabled": 0, "name": "bdc1f55d750d429ad699735530341276", "bike_id": "bdc1f55d750d429ad699735530341276", "fusion_lat": 0.0, "lon": -77.023096, "type": "electric_scooter", "fusion_lon": 0.0, "lat": 38.912886666666665}, {"rental_uris": {"android": "https://dc.lft.to/lastmile_qr_scan", "ios": "https://dc.lft.to/lastmile_qr_scan"}, "is_reserved": 0, "is_disabled": 0, "name": "8a872084fee87c8d298e0408d7e43945", "bike_id": "8a872084fee87c8d298e0408d7e43945", "fusion_lat": 0.0, "lon": -77.0200565, "type": "electric_bike", "fusion_lon": 0.0, "lat": 39.02623033333333}, {"rental_uris": {"android": "https://dc.lft.to/lastmile_qr_scan", "ios": "https://dc.lft.to/lastmile_qr_scan"}, "is_reserved": 0, "is_disabled": 0, "name": "691e1cbe8079698df7fc163fbae490e1", "bike_id": "691e1cbe8079698df7fc163fbae490e1", "fusion_lat": 0.0, "lon": -77.029721, "type": "electric_scooter", "fusion_lon": 0.0, "lat": 38.92262683333333}, {"rental_uris": {"android": "https://dc.lft.to/lastmile_qr_scan", "ios": "https://dc.lft.to/lastmile_qr_scan"}, "is_reserved": 0, "is_disabled": 0, "name": "20fdad6ad5a0e6cbdb565a0514820571", "bike_id": "20fdad6ad5a0e6cbdb565a0514820571", "fusion_lat": 0.0, "lon": -77.1128405, "type": "electric_bike", "fusion_lon": 0.0, "lat": 38.8310225}, {"rental_uris": {"android": "https://dc.lft.to/lastmile_qr_scan", "ios": "https://dc.lft.to/lastmile_qr_scan"}, "is_reserved": 0, "is_disabled": 0, "name": "c626729993a6562dd72cac2f084383e4", "bike_id": "c626729993a6562dd72cac2f084383e4", "fusion_lat": 0.0, "lon": -77.03200916666667, "type": "electric_scooter", "fusion_lon": 0.0, "lat": 38.917812}, {"rental_uris": {"android": "https://dc.lft.to/lastmile_qr_scan", "ios": "https://dc.lft.to/lastmile_qr_scan"}, "is_reserved": 0, "is_disabled": 0, "name": "6c3ad0de2f71728106d8470bee42fca3", "bike_id": "6c3ad0de2f71728106d8470bee42fca3", "fusion_lat": 0.0, "lon": -77.061758, "type": "electric_scooter", "fusion_lon": 0.0, "lat": 38.9412945}, {"rental_uris": {"android": "https://dc.lft.to/lastmile_qr_scan", "ios": "https://dc.lft.to/lastmile_qr_scan"}, "is_reserved": 0, "is_disabled": 0, "name": "4c40fd729eb43a3ff9bfe27f042d1fb7", "bike_id": "4c40fd729eb43a3ff9bfe27f042d1fb7", "fusion_lat": 0.0, "lon": -77.04092133333333, "type": "electric_scooter", "fusion_lon": 0.0, "lat": 38.910498}, {"rental_uris": {"android": "https://dc.lft.to/lastmile_qr_scan", "ios": "https://dc.lft.to/lastmile_qr_scan"}, "is_reserved": 0, "is_disabled": 0, "name": "19c557eecd9cf2f7a95a76225cd0849d", "bike_id": "19c557eecd9cf2f7a95a76225cd0849d", "fusion_lat": 0.0, "lon": -77.065918, "type": "electric_scooter", "fusion_lon": 0.0, "lat": 38.90407916666667}, {"rental_uris": {"android": "https://dc.lft.to/lastmile_qr_scan", "ios": "https://dc.lft.to/lastmile_qr_scan"}, "is_reserved": 0, "is_disabled": 0, "name": "3432e9bc8411b9eb11bb6a5450de4592", "bike_id": "3432e9bc8411b9eb11bb6a5450de4592", "fusion_lat": 0.0, "lon": -77.044593, "type": "electric_scooter", "fusion_lon": 0.0, "lat": 38.90311666666667}, {"rental_uris": {"android": "https://dc.lft.to/lastmile_qr_scan", "ios": "https://dc.lft.to/lastmile_qr_scan"}, "is_reserved": 0, "is_disabled": 0, "name": "a94a557bd39c2c830bc4c9d1f1363023", "bike_id": "a94a557bd39c2c830bc4c9d1f1363023", "fusion_lat": 0.0, "lon": -77.01066683333333, "type": "electric_scooter", "fusion_lon": 0.0, "lat": 38.91821133333333}, {"rental_uris": {"android": "https://dc.lft.to/lastmile_qr_scan", "ios": "https://dc.lft.to/lastmile_qr_scan"}, "is_reserved": 0, "is_disabled": 0, "name": "d9f3b0d3211ce9f968d823dd67144e20", "bike_id": "d9f3b0d3211ce9f968d823dd67144e20", "fusion_lat": 0.0, "lon": -77.05314383333334, "type": "electric_scooter", "fusion_lon": 0.0, "lat": 38.90427783333333}, {"rental_uris": {"android": "https://dc.lft.to/lastmile_qr_scan", "ios": "https://dc.lft.to/lastmile_qr_scan"}, "is_reserved": 0, "is_disabled": 0, "name": "cd7a2d9dbbace1cdc740b0b13c3bc76e", "bike_id": "cd7a2d9dbbace1cdc740b0b13c3bc76e", "fusion_lat": 0.0, "lon": -77.03857866666667, "type": "electric_scooter", "fusion_lon": 0.0, "lat": 38.9171135}, {"rental_uris": {"android": "https://dc.lft.to/lastmile_qr_scan", "ios": "https://dc.lft.to/lastmile_qr_scan"}, "is_reserved": 0, "is_disabled": 0, "name": "3c3b461e4d5263f68f76993d8aa09573", "bike_id": "3c3b461e4d5263f68f76993d8aa09573", "fusion_lat": 0.0, "lon": -77.04922966666666, "type": "electric_scooter", "fusion_lon": 0.0, "lat": 38.8955015}, {"rental_uris": {"android": "https://dc.lft.to/lastmile_qr_scan", "ios": "https://dc.lft.to/lastmile_qr_scan"}, "is_reserved": 0, "is_disabled": 0, "name": "7677472366713321790328280ed6333c", "bike_id": "7677472366713321790328280ed6333c", "fusion_lat": 0.0, "lon": -76.9983515, "type": "electric_bike", "fusion_lon": 0.0, "lat": 38.899962333333335}, {"rental_uris": {"android": "https://dc.lft.to/lastmile_qr_scan", "ios": "https://dc.lft.to/lastmile_qr_scan"}, "is_reserved": 0, "is_disabled": 0, "name": "17ca592095dee4922a7a9b696b0caa66", "bike_id": "17ca592095dee4922a7a9b696b0caa66", "fusion_lat": 0.0, "lon": -77.01273083333334, "type": "electric_scooter", "fusion_lon": 0.0, "lat": 38.909505}, {"rental_uris": {"android": "https://dc.lft.to/lastmile_qr_scan", "ios": "https://dc.lft.to/lastmile_qr_scan"}, "is_reserved": 0, "is_disabled": 0, "name": "0586799f5954ac8990dffbde3410f37f", "bike_id": "0586799f5954ac8990dffbde3410f37f", "fusion_lat": 0.0, "lon": -76.9833525, "type": "electric_scooter", "fusion_lon": 0.0, "lat": 38.9009395}, {"rental_uris": {"android": "https://dc.lft.to/lastmile_qr_scan", "ios": "https://dc.lft.to/lastmile_qr_scan"}, "is_reserved": 0, "is_disabled": 0, "name": "8ca98341a2ca9e3b4858c94fe3a5279a", "bike_id": "8ca98341a2ca9e3b4858c94fe3a5279a", "fusion_lat": 0.0, "lon": -77.03198083333334, "type": "electric_scooter", "fusion_lon": 0.0, "lat": 38.91630466666667}, {"rental_uris": {"android": "https://dc.lft.to/lastmile_qr_scan", "ios": "https://dc.lft.to/lastmile_qr_scan"}, "is_reserved": 0, "is_disabled": 0, "name": "c969e401b5b52127bed26316b4cd7ef8", "bike_id": "c969e401b5b52127bed26316b4cd7ef8", "fusion_lat": 0.0, "lon": -77.026254, "type": "electric_bike", "fusion_lon": 0.0, "lat": 38.962143}, {"rental_uris": {"android": "https://dc.lft.to/lastmile_qr_scan", "ios": "https://dc.lft.to/lastmile_qr_scan"}, "is_reserved": 0, "is_disabled": 0, "name": "d2a80e3b8592279315597215a5e53097", "bike_id": "d2a80e3b8592279315597215a5e53097", "fusion_lat": 0.0, "lon": -77.02489133333333, "type": "electric_scooter", "fusion_lon": 0.0, "lat": 38.92073583333333}, {"rental_uris": {"android": "https://dc.lft.to/lastmile_qr_scan", "ios": "https://dc.lft.to/lastmile_qr_scan"}, "is_reserved": 0, "is_disabled": 0, "name": "472d34183997143c0777a0cd0f2feff9", "bike_id": "472d34183997143c0777a0cd0f2feff9", "fusion_lat": 0.0, "lon": -77.002154, "type": "electric_scooter", "fusion_lon": 0.0, "lat": 38.9028215}, {"rental_uris": {"android": "https://dc.lft.to/lastmile_qr_scan", "ios": "https://dc.lft.to/lastmile_qr_scan"}, "is_reserved": 0, "is_disabled": 0, "name": "44f29148d72fbd2e98ed946cea99c4fd", "bike_id": "44f29148d72fbd2e98ed946cea99c4fd", "fusion_lat": 0.0, "lon": -77.015179, "type": "electric_scooter", "fusion_lon": 0.0, "lat": 38.872236666666666}, {"rental_uris": {"android": "https://dc.lft.to/lastmile_qr_scan", "ios": "https://dc.lft.to/lastmile_qr_scan"}, "is_reserved": 0, "is_disabled": 0, "name": "4d1f4716fbe670bef1905b2519ca41b1", "bike_id": "4d1f4716fbe670bef1905b2519ca41b1", "fusion_lat": 0.0, "lon": -77.01708983333333, "type": "electric_scooter", "fusion_lon": 0.0, "lat": 38.87292983333333}, {"rental_uris": {"android": "https://dc.lft.to/lastmile_qr_scan", "ios": "https://dc.lft.to/lastmile_qr_scan"}, "is_reserved": 0, "is_disabled": 0, "name": "ef9c62142a6d52703f86723c4776a450", "bike_id": "ef9c62142a6d52703f86723c4776a450", "fusion_lat": 0.0, "lon": -77.02487216666667, "type": "electric_scooter", "fusion_lon": 0.0, "lat": 38.94182966666666}, {"rental_uris": {"android": "https://dc.lft.to/lastmile_qr_scan", "ios": "https://dc.lft.to/lastmile_qr_scan"}, "is_reserved": 0, "is_disabled": 0, "name": "e1ec8d00ecf16b84d5d1f80e7c5111bf", "bike_id": "e1ec8d00ecf16b84d5d1f80e7c5111bf", "fusion_lat": 0.0, "lon": -76.92506616666667, "type": "electric_scooter", "fusion_lon": 0.0, "lat": 38.88599166666667}, {"rental_uris": {"android": "https://dc.lft.to/lastmile_qr_scan", "ios": "https://dc.lft.to/lastmile_qr_scan"}, "is_reserved": 0, "is_disabled": 0, "name": "5f54a5d6abefb2c0169ec28ad603da45", "bike_id": "5f54a5d6abefb2c0169ec28ad603da45", "fusion_lat": 0.0, "lon": -77.01759933333334, "type": "electric_scooter", "fusion_lon": 0.0, "lat": 38.87681366666666}, {"rental_uris": {"android": "https://dc.lft.to/lastmile_qr_scan", "ios": "https://dc.lft.to/lastmile_qr_scan"}, "is_reserved": 0, "is_disabled": 0, "name": "f8c074aa5fe69c4d476c6c299eb84190", "bike_id": "f8c074aa5fe69c4d476c6c299eb84190", "fusion_lat": 0.0, "lon": -77.03629616666667, "type": "electric_scooter", "fusion_lon": 0.0, "lat": 38.903676}, {"rental_uris": {"android": "https://dc.lft.to/lastmile_qr_scan", "ios": "https://dc.lft.to/lastmile_qr_scan"}, "is_reserved": 0, "is_disabled": 0, "name": "cd2104d7619d45d0b1492c953d4f5dbc", "bike_id": "cd2104d7619d45d0b1492c953d4f5dbc", "fusion_lat": 0.0, "lon": -77.0330255, "type": "electric_scooter", "fusion_lon": 0.0, "lat": 38.927501}, {"rental_uris": {"android": "https://dc.lft.to/lastmile_qr_scan", "ios": "https://dc.lft.to/lastmile_qr_scan"}, "is_reserved": 0, "is_disabled": 0, "name": "75dd739ced5a421af4e7ec54b91f0fbd", "bike_id": "75dd739ced5a421af4e7ec54b91f0fbd", "fusion_lat": 0.0, "lon": -77.04146566666667, "type": "electric_scooter", "fusion_lon": 0.0, "lat": 38.91605833333333}, {"rental_uris": {"android": "https://dc.lft.to/lastmile_qr_scan", "ios": "https://dc.lft.to/lastmile_qr_scan"}, "is_reserved": 0, "is_disabled": 0, "name": "fdc97d1cca9cc51f83765688f4e69a0c", "bike_id": "fdc97d1cca9cc51f83765688f4e69a0c", "fusion_lat": 0.0, "lon": -77.04678616666666, "type": "electric_scooter", "fusion_lon": 0.0, "lat": 38.89833183333333}, {"rental_uris": {"android": "https://dc.lft.to/lastmile_qr_scan", "ios": "https://dc.lft.to/lastmile_qr_scan"}, "is_reserved": 0, "is_disabled": 0, "name": "be2418db6b40689aee4069b475d56f02", "bike_id": "be2418db6b40689aee4069b475d56f02", "fusion_lat": 0.0, "lon": -76.92636016666667, "type": "electric_scooter", "fusion_lon": 0.0, "lat": 38.88377716666667}, {"rental_uris": {"android": "https://dc.lft.to/lastmile_qr_scan", "ios": "https://dc.lft.to/lastmile_qr_scan"}, "is_reserved": 0, "is_disabled": 0, "name": "60bb548df6c342108e0195b7929dce51", "bike_id": "60bb548df6c342108e0195b7929dce51", "fusion_lat": 0.0, "lon": -77.03228466666667, "type": "electric_scooter", "fusion_lon": 0.0, "lat": 38.90959266666667}, {"rental_uris": {"android": "https://dc.lft.to/lastmile_qr_scan", "ios": "https://dc.lft.to/lastmile_qr_scan"}, "is_reserved": 0, "is_disabled": 0, "name": "f52d962686a2d7481c18752e7cc8ae77", "bike_id": "f52d962686a2d7481c18752e7cc8ae77", "fusion_lat": 0.0, "lon": -77.030034, "type": "electric_bike", "fusion_lon": 0.0, "lat": 38.90019933333333}, {"rental_uris": {"android": "https://dc.lft.to/lastmile_qr_scan", "ios": "https://dc.lft.to/lastmile_qr_scan"}, "is_reserved": 0, "is_disabled": 0, "name": "0db903a7740a088bcbdaa7aeda7c8e1f", "bike_id": "0db903a7740a088bcbdaa7aeda7c8e1f", "fusion_lat": 0.0, "lon": -77.02726916666667, "type": "electric_scooter", "fusion_lon": 0.0, "lat": 38.91821083333333}, {"rental_uris": {"android": "https://dc.lft.to/lastmile_qr_scan", "ios": "https://dc.lft.to/lastmile_qr_scan"}, "is_reserved": 0, "is_disabled": 0, "name": "8630c9306e09d2564c6045795bd7c27b", "bike_id": "8630c9306e09d2564c6045795bd7c27b", "fusion_lat": 0.0, "lon": -77.0332175, "type": "electric_scooter", "fusion_lon": 0.0, "lat": 38.90002116666667}, {"rental_uris": {"android": "https://dc.lft.to/lastmile_qr_scan", "ios": "https://dc.lft.to/lastmile_qr_scan"}, "is_reserved": 0, "is_disabled": 0, "name": "447e0950774eded684e6eaebf42c1c14", "bike_id": "447e0950774eded684e6eaebf42c1c14", "fusion_lat": 0.0, "lon": -77.05199333333333, "type": "electric_scooter", "fusion_lon": 0.0, "lat": 38.903092666666666}, {"rental_uris": {"android": "https://dc.lft.to/lastmile_qr_scan", "ios": "https://dc.lft.to/lastmile_qr_scan"}, "is_reserved": 0, "is_disabled": 0, "name": "24ecfbd1f4b5ceb11fecd7a69b53bfc6", "bike_id": "24ecfbd1f4b5ceb11fecd7a69b53bfc6", "fusion_lat": 0.0, "lon": -77.02488433333333, "type": "electric_scooter", "fusion_lon": 0.0, "lat": 38.94182983333334}, {"rental_uris": {"android": "https://dc.lft.to/lastmile_qr_scan", "ios": "https://dc.lft.to/lastmile_qr_scan"}, "is_reserved": 0, "is_disabled": 0, "name": "a1e75d91932974c2acc1799b790afbba", "bike_id": "a1e75d91932974c2acc1799b790afbba", "fusion_lat": 0.0, "lon": -77.04498866666667, "type": "electric_scooter", "fusion_lon": 0.0, "lat": 38.892247166666664}, {"rental_uris": {"android": "https://dc.lft.to/lastmile_qr_scan", "ios": "https://dc.lft.to/lastmile_qr_scan"}, "is_reserved": 0, "is_disabled": 0, "name": "31962ab5e49d678e3c1bbb6ffceeb30a", "bike_id": "31962ab5e49d678e3c1bbb6ffceeb30a", "fusion_lat": 0.0, "lon": -77.02097783333333, "type": "electric_scooter", "fusion_lon": 0.0, "lat": 38.932682166666666}, {"rental_uris": {"android": "https://dc.lft.to/lastmile_qr_scan", "ios": "https://dc.lft.to/lastmile_qr_scan"}, "is_reserved": 0, "is_disabled": 0, "name": "6e3eeb06da434d80e4bc7092499a6866", "bike_id": "6e3eeb06da434d80e4bc7092499a6866", "fusion_lat": 0.0, "lon": -77.03345283333333, "type": "electric_scooter", "fusion_lon": 0.0, "lat": 38.89916233333334}, {"rental_uris": {"android": "https://dc.lft.to/lastmile_qr_scan", "ios": "https://dc.lft.to/lastmile_qr_scan"}, "is_reserved": 0, "is_disabled": 0, "name": "06f9152f6a3ca611a2b03a57eb0c991e", "bike_id": "06f9152f6a3ca611a2b03a57eb0c991e", "fusion_lat": 0.0, "lon": -77.03177033333333, "type": "electric_scooter", "fusion_lon": 0.0, "lat": 38.914125}, {"rental_uris": {"android": "https://dc.lft.to/lastmile_qr_scan", "ios": "https://dc.lft.to/lastmile_qr_scan"}, "is_reserved": 0, "is_disabled": 0, "name": "18ca9d76bed6b30529f0274d73e7f78d", "bike_id": "18ca9d76bed6b30529f0274d73e7f78d", "fusion_lat": 0.0, "lon": -77.04229416666666, "type": "electric_scooter", "fusion_lon": 0.0, "lat": 38.911101333333335}, {"rental_uris": {"android": "https://dc.lft.to/lastmile_qr_scan", "ios": "https://dc.lft.to/lastmile_qr_scan"}, "is_reserved": 0, "is_disabled": 0, "name": "9d046d9a71e74ef74ee704d1a8a1d921", "bike_id": "9d046d9a71e74ef74ee704d1a8a1d921", "fusion_lat": 0.0, "lon": -76.98016483333333, "type": "electric_bike", "fusion_lon": 0.0, "lat": 38.853144666666665}, {"rental_uris": {"android": "https://dc.lft.to/lastmile_qr_scan", "ios": "https://dc.lft.to/lastmile_qr_scan"}, "is_reserved": 0, "is_disabled": 0, "name": "d6160dec91e4d5d86adb821d0373bfc6", "bike_id": "d6160dec91e4d5d86adb821d0373bfc6", "fusion_lat": 0.0, "lon": -77.038676, "type": "electric_scooter", "fusion_lon": 0.0, "lat": 38.912663}, {"rental_uris": {"android": "https://dc.lft.to/lastmile_qr_scan", "ios": "https://dc.lft.to/lastmile_qr_scan"}, "is_reserved": 0, "is_disabled": 0, "name": "ff2c71e66b113273ddf0eaef09ccbb64", "bike_id": "ff2c71e66b113273ddf0eaef09ccbb64", "fusion_lat": 0.0, "lon": -77.04035833333333, "type": "electric_scooter", "fusion_lon": 0.0, "lat": 38.91288016666667}, {"rental_uris": {"android": "https://dc.lft.to/lastmile_qr_scan", "ios": "https://dc.lft.to/lastmile_qr_scan"}, "is_reserved": 0, "is_disabled": 0, "name": "0be41418925ae447a4e5cf3ee5837def", "bike_id": "0be41418925ae447a4e5cf3ee5837def", "fusion_lat": 0.0, "lon": -77.02274833333334, "type": "electric_scooter", "fusion_lon": 0.0, "lat": 38.899769166666665}, {"rental_uris": {"android": "https://dc.lft.to/lastmile_qr_scan", "ios": "https://dc.lft.to/lastmile_qr_scan"}, "is_reserved": 0, "is_disabled": 0, "name": "824412c3ddb6ab24474fa9d108e26035", "bike_id": "824412c3ddb6ab24474fa9d108e26035", "fusion_lat": 0.0, "lon": -77.038361, "type": "electric_scooter", "fusion_lon": 0.0, "lat": 38.9110565}, {"rental_uris": {"android": "https://dc.lft.to/lastmile_qr_scan", "ios": "https://dc.lft.to/lastmile_qr_scan"}, "is_reserved": 0, "is_disabled": 0, "name": "522c8401e8977ba0226ec789ab0c0758", "bike_id": "522c8401e8977ba0226ec789ab0c0758", "fusion_lat": 0.0, "lon": -77.005979, "type": "electric_scooter", "fusion_lon": 0.0, "lat": 38.90568016666667}, {"rental_uris": {"android": "https://dc.lft.to/lastmile_qr_scan", "ios": "https://dc.lft.to/lastmile_qr_scan"}, "is_reserved": 0, "is_disabled": 0, "name": "db040def093c6f1d946b4a445285f247", "bike_id": "db040def093c6f1d946b4a445285f247", "fusion_lat": 0.0, "lon": -76.98244783333334, "type": "electric_bike", "fusion_lon": 0.0, "lat": 38.952442}, {"rental_uris": {"android": "https://dc.lft.to/lastmile_qr_scan", "ios": "https://dc.lft.to/lastmile_qr_scan"}, "is_reserved": 0, "is_disabled": 0, "name": "0754457b3a89fe1d9f2a1c436011d77a", "bike_id": "0754457b3a89fe1d9f2a1c436011d77a", "fusion_lat": 0.0, "lon": -77.0344575, "type": "electric_scooter", "fusion_lon": 0.0, "lat": 38.90740066666667}, {"rental_uris": {"android": "https://dc.lft.to/lastmile_qr_scan", "ios": "https://dc.lft.to/lastmile_qr_scan"}, "is_reserved": 0, "is_disabled": 0, "name": "42940ce33fe05c23510b459d0b1155ef", "bike_id": "42940ce33fe05c23510b459d0b1155ef", "fusion_lat": 0.0, "lon": -77.024353, "type": "electric_bike", "fusion_lon": 0.0, "lat": 38.937076833333336}, {"rental_uris": {"android": "https://dc.lft.to/lastmile_qr_scan", "ios": "https://dc.lft.to/lastmile_qr_scan"}, "is_reserved": 0, "is_disabled": 0, "name": "ea890795338080d26cff3cb59d5f8868", "bike_id": "ea890795338080d26cff3cb59d5f8868", "fusion_lat": 0.0, "lon": -76.9822735, "type": "electric_scooter", "fusion_lon": 0.0, "lat": 38.86895783333333}, {"rental_uris": {"android": "https://dc.lft.to/lastmile_qr_scan", "ios": "https://dc.lft.to/lastmile_qr_scan"}, "is_reserved": 0, "is_disabled": 0, "name": "a3b9801a1f3d058a4db3c6fccfd7cb2f", "bike_id": "a3b9801a1f3d058a4db3c6fccfd7cb2f", "fusion_lat": 0.0, "lon": -76.98990633333334, "type": "electric_scooter", "fusion_lon": 0.0, "lat": 38.864334}, {"rental_uris": {"android": "https://dc.lft.to/lastmile_qr_scan", "ios": "https://dc.lft.to/lastmile_qr_scan"}, "is_reserved": 0, "is_disabled": 0, "name": "a80d853b19fceb6d03e43018fae0837e", "bike_id": "a80d853b19fceb6d03e43018fae0837e", "fusion_lat": 0.0, "lon": -76.99511933333334, "type": "electric_scooter", "fusion_lon": 0.0, "lat": 38.88790483333333}, {"rental_uris": {"android": "https://dc.lft.to/lastmile_qr_scan", "ios": "https://dc.lft.to/lastmile_qr_scan"}, "is_reserved": 0, "is_disabled": 0, "name": "e840d049109574b4ba914796ab37d47e", "bike_id": "e840d049109574b4ba914796ab37d47e", "fusion_lat": 0.0, "lon": -77.0385745, "type": "electric_scooter", "fusion_lon": 0.0, "lat": 38.91709383333333}, {"rental_uris": {"android": "https://dc.lft.to/lastmile_qr_scan", "ios": "https://dc.lft.to/lastmile_qr_scan"}, "is_reserved": 0, "is_disabled": 0, "name": "bb7d916cd9663ca884f9be6116eff3fa", "bike_id": "bb7d916cd9663ca884f9be6116eff3fa", "fusion_lat": 0.0, "lon": -77.0569135, "type": "electric_scooter", "fusion_lon": 0.0, "lat": 38.90607766666667}, {"rental_uris": {"android": "https://dc.lft.to/lastmile_qr_scan", "ios": "https://dc.lft.to/lastmile_qr_scan"}, "is_reserved": 0, "is_disabled": 0, "name": "c4cf9ab934a937ca264155f90f29f427", "bike_id": "c4cf9ab934a937ca264155f90f29f427", "fusion_lat": 0.0, "lon": -76.965269, "type": "electric_scooter", "fusion_lon": 0.0, "lat": 38.87629583333333}, {"rental_uris": {"android": "https://dc.lft.to/lastmile_qr_scan", "ios": "https://dc.lft.to/lastmile_qr_scan"}, "is_reserved": 0, "is_disabled": 0, "name": "e0d04b9f369b165e95ad597cb098467c", "bike_id": "e0d04b9f369b165e95ad597cb098467c", "fusion_lat": 0.0, "lon": -77.04865733333334, "type": "electric_scooter", "fusion_lon": 0.0, "lat": 38.899409}, {"rental_uris": {"android": "https://dc.lft.to/lastmile_qr_scan", "ios": "https://dc.lft.to/lastmile_qr_scan"}, "is_reserved": 0, "is_disabled": 0, "name": "df381ab54b25374a1404d659e36acce1", "bike_id": "df381ab54b25374a1404d659e36acce1", "fusion_lat": 0.0, "lon": -77.03407016666667, "type": "electric_scooter", "fusion_lon": 0.0, "lat": 38.930916333333336}, {"rental_uris": {"android": "https://dc.lft.to/lastmile_qr_scan", "ios": "https://dc.lft.to/lastmile_qr_scan"}, "is_reserved": 0, "is_disabled": 0, "name": "7bc62b891e217579e92da82b4ba992e2", "bike_id": "7bc62b891e217579e92da82b4ba992e2", "fusion_lat": 0.0, "lon": -77.029552, "type": "electric_scooter", "fusion_lon": 0.0, "lat": 38.90503016666667}, {"rental_uris": {"android": "https://dc.lft.to/lastmile_qr_scan", "ios": "https://dc.lft.to/lastmile_qr_scan"}, "is_reserved": 0, "is_disabled": 0, "name": "9ebe135b05f87bae82f62f71e61bd415", "bike_id": "9ebe135b05f87bae82f62f71e61bd415", "fusion_lat": 0.0, "lon": -76.92921866666667, "type": "electric_scooter", "fusion_lon": 0.0, "lat": 38.892064166666664}, {"rental_uris": {"android": "https://dc.lft.to/lastmile_qr_scan", "ios": "https://dc.lft.to/lastmile_qr_scan"}, "is_reserved": 0, "is_disabled": 0, "name": "c183b5391717179000aa59c07b493eed", "bike_id": "c183b5391717179000aa59c07b493eed", "fusion_lat": 0.0, "lon": -77.05156133333334, "type": "electric_scooter", "fusion_lon": 0.0, "lat": 38.906288}, {"rental_uris": {"android": "https://dc.lft.to/lastmile_qr_scan", "ios": "https://dc.lft.to/lastmile_qr_scan"}, "is_reserved": 0, "is_disabled": 0, "name": "d04f8730cefc542858d03adbbe14d3d5", "bike_id": "d04f8730cefc542858d03adbbe14d3d5", "fusion_lat": 0.0, "lon": -77.00896183333333, "type": "electric_scooter", "fusion_lon": 0.0, "lat": 38.909705}, {"rental_uris": {"android": "https://dc.lft.to/lastmile_qr_scan", "ios": "https://dc.lft.to/lastmile_qr_scan"}, "is_reserved": 0, "is_disabled": 0, "name": "c23e38e8b985656b6b5cca338d412037", "bike_id": "c23e38e8b985656b6b5cca338d412037", "fusion_lat": 0.0, "lon": -77.02273283333334, "type": "electric_scooter", "fusion_lon": 0.0, "lat": 38.89980033333333}, {"rental_uris": {"android": "https://dc.lft.to/lastmile_qr_scan", "ios": "https://dc.lft.to/lastmile_qr_scan"}, "is_reserved": 0, "is_disabled": 0, "name": "2cda072a399210dc02f0085a441f3aa4", "bike_id": "2cda072a399210dc02f0085a441f3aa4", "fusion_lat": 0.0, "lon": -77.03432816666667, "type": "electric_scooter", "fusion_lon": 0.0, "lat": 38.917981833333336}, {"rental_uris": {"android": "https://dc.lft.to/lastmile_qr_scan", "ios": "https://dc.lft.to/lastmile_qr_scan"}, "is_reserved": 0, "is_disabled": 0, "name": "8ef9e15b7a892dfed3991788ab60d807", "bike_id": "8ef9e15b7a892dfed3991788ab60d807", "fusion_lat": 0.0, "lon": -76.96092266666666, "type": "electric_scooter", "fusion_lon": 0.0, "lat": 38.918533833333335}, {"rental_uris": {"android": "https://dc.lft.to/lastmile_qr_scan", "ios": "https://dc.lft.to/lastmile_qr_scan"}, "is_reserved": 0, "is_disabled": 0, "name": "9b7120e17db421b514e9bcfcf4c9416a", "bike_id": "9b7120e17db421b514e9bcfcf4c9416a", "fusion_lat": 0.0, "lon": -77.02268683333334, "type": "electric_scooter", "fusion_lon": 0.0, "lat": 38.9176765}, {"rental_uris": {"android": "https://dc.lft.to/lastmile_qr_scan", "ios": "https://dc.lft.to/lastmile_qr_scan"}, "is_reserved": 0, "is_disabled": 0, "name": "0ce71a4ed54a289ae89fae0bad78692f", "bike_id": "0ce71a4ed54a289ae89fae0bad78692f", "fusion_lat": 0.0, "lon": -77.04409916666667, "type": "electric_scooter", "fusion_lon": 0.0, "lat": 38.89594183333333}, {"rental_uris": {"android": "https://dc.lft.to/lastmile_qr_scan", "ios": "https://dc.lft.to/lastmile_qr_scan"}, "is_reserved": 0, "is_disabled": 0, "name": "269a300a13ef5ef22a4240adf4ed67e0", "bike_id": "269a300a13ef5ef22a4240adf4ed67e0", "fusion_lat": 0.0, "lon": -77.09455683333333, "type": "electric_bike", "fusion_lon": 0.0, "lat": 38.80755333333333}, {"rental_uris": {"android": "https://dc.lft.to/lastmile_qr_scan", "ios": "https://dc.lft.to/lastmile_qr_scan"}, "is_reserved": 0, "is_disabled": 0, "name": "3bd6df4590903cd87d5401700ca8fefc", "bike_id": "3bd6df4590903cd87d5401700ca8fefc", "fusion_lat": 0.0, "lon": -77.04866033333333, "type": "electric_scooter", "fusion_lon": 0.0, "lat": 38.919723}, {"rental_uris": {"android": "https://dc.lft.to/lastmile_qr_scan", "ios": "https://dc.lft.to/lastmile_qr_scan"}, "is_reserved": 0, "is_disabled": 0, "name": "8dfab6c20ecadc41e0073d10ddd0d0ed", "bike_id": "8dfab6c20ecadc41e0073d10ddd0d0ed", "fusion_lat": 0.0, "lon": -77.02152, "type": "electric_scooter", "fusion_lon": 0.0, "lat": 38.927489666666666}, {"rental_uris": {"android": "https://dc.lft.to/lastmile_qr_scan", "ios": "https://dc.lft.to/lastmile_qr_scan"}, "is_reserved": 0, "is_disabled": 0, "name": "2b8f72b0cc34054a96d5b8fdc425f2ce", "bike_id": "2b8f72b0cc34054a96d5b8fdc425f2ce", "fusion_lat": 0.0, "lon": -77.0763725, "type": "electric_scooter", "fusion_lon": 0.0, "lat": 38.92518716666667}, {"rental_uris": {"android": "https://dc.lft.to/lastmile_qr_scan", "ios": "https://dc.lft.to/lastmile_qr_scan"}, "is_reserved": 0, "is_disabled": 0, "name": "b359e0cfcf94ac34311fa252a767233d", "bike_id": "b359e0cfcf94ac34311fa252a767233d", "fusion_lat": 0.0, "lon": -77.02878216666667, "type": "electric_bike", "fusion_lon": 0.0, "lat": 38.921324}, {"rental_uris": {"android": "https://dc.lft.to/lastmile_qr_scan", "ios": "https://dc.lft.to/lastmile_qr_scan"}, "is_reserved": 0, "is_disabled": 0, "name": "9d22f7f405826f768131757511ce1739", "bike_id": "9d22f7f405826f768131757511ce1739", "fusion_lat": 0.0, "lon": -76.996464, "type": "electric_bike", "fusion_lon": 0.0, "lat": 38.96784483333333}, {"rental_uris": {"android": "https://dc.lft.to/lastmile_qr_scan", "ios": "https://dc.lft.to/lastmile_qr_scan"}, "is_reserved": 0, "is_disabled": 0, "name": "111b3158eb0b6b4a734ce76f9cf0012c", "bike_id": "111b3158eb0b6b4a734ce76f9cf0012c", "fusion_lat": 0.0, "lon": -76.93178333333333, "type": "electric_scooter", "fusion_lon": 0.0, "lat": 38.898810833333336}, {"rental_uris": {"android": "https://dc.lft.to/lastmile_qr_scan", "ios": "https://dc.lft.to/lastmile_qr_scan"}, "is_reserved": 0, "is_disabled": 0, "name": "7f652e7908fb7dc4be38d559e39506a8", "bike_id": "7f652e7908fb7dc4be38d559e39506a8", "fusion_lat": 0.0, "lon": -77.03930416666667, "type": "electric_scooter", "fusion_lon": 0.0, "lat": 38.92489033333333}, {"rental_uris": {"android": "https://dc.lft.to/lastmile_qr_scan", "ios": "https://dc.lft.to/lastmile_qr_scan"}, "is_reserved": 0, "is_disabled": 0, "name": "2e692f7aa697d92221b02082852a0842", "bike_id": "2e692f7aa697d92221b02082852a0842", "fusion_lat": 0.0, "lon": -76.973364, "type": "electric_scooter", "fusion_lon": 0.0, "lat": 38.865103500000004}, {"rental_uris": {"android": "https://dc.lft.to/lastmile_qr_scan", "ios": "https://dc.lft.to/lastmile_qr_scan"}, "is_reserved": 0, "is_disabled": 0, "name": "03a534bc649e28b9d730f8b3343518c3", "bike_id": "03a534bc649e28b9d730f8b3343518c3", "fusion_lat": 0.0, "lon": -76.990634, "type": "electric_bike", "fusion_lon": 0.0, "lat": 38.89812883333333}, {"rental_uris": {"android": "https://dc.lft.to/lastmile_qr_scan", "ios": "https://dc.lft.to/lastmile_qr_scan"}, "is_reserved": 0, "is_disabled": 0, "name": "c219fa6022f71e7e362a2612b283ed55", "bike_id": "c219fa6022f71e7e362a2612b283ed55", "fusion_lat": 0.0, "lon": -77.02493, "type": "electric_scooter", "fusion_lon": 0.0, "lat": 38.94186833333333}, {"rental_uris": {"android": "https://dc.lft.to/lastmile_qr_scan", "ios": "https://dc.lft.to/lastmile_qr_scan"}, "is_reserved": 0, "is_disabled": 0, "name": "55c3cd630346555e7087fe36627d8f23", "bike_id": "55c3cd630346555e7087fe36627d8f23", "fusion_lat": 0.0, "lon": -77.049452, "type": "electric_scooter", "fusion_lon": 0.0, "lat": 38.90531033333333}, {"rental_uris": {"android": "https://dc.lft.to/lastmile_qr_scan", "ios": "https://dc.lft.to/lastmile_qr_scan"}, "is_reserved": 0, "is_disabled": 0, "name": "8627a33ee7379cf56594eeb3084bfa43", "bike_id": "8627a33ee7379cf56594eeb3084bfa43", "fusion_lat": 0.0, "lon": -77.04494633333333, "type": "electric_scooter", "fusion_lon": 0.0, "lat": 38.899364}, {"rental_uris": {"android": "https://dc.lft.to/lastmile_qr_scan", "ios": "https://dc.lft.to/lastmile_qr_scan"}, "is_reserved": 0, "is_disabled": 0, "name": "c00a763b27596a7e2fb4672e1bedcc48", "bike_id": "c00a763b27596a7e2fb4672e1bedcc48", "fusion_lat": 0.0, "lon": -77.0092015, "type": "electric_scooter", "fusion_lon": 0.0, "lat": 38.9061915}, {"rental_uris": {"android": "https://dc.lft.to/lastmile_qr_scan", "ios": "https://dc.lft.to/lastmile_qr_scan"}, "is_reserved": 0, "is_disabled": 0, "name": "25c6eba20790c2fa94178fc8c7765f9d", "bike_id": "25c6eba20790c2fa94178fc8c7765f9d", "fusion_lat": 0.0, "lon": -77.03660266666667, "type": "electric_scooter", "fusion_lon": 0.0, "lat": 38.92309183333333}, {"rental_uris": {"android": "https://dc.lft.to/lastmile_qr_scan", "ios": "https://dc.lft.to/lastmile_qr_scan"}, "is_reserved": 0, "is_disabled": 0, "name": "7c7e3fa234d32d3e11fc5f7d82f07311", "bike_id": "7c7e3fa234d32d3e11fc5f7d82f07311", "fusion_lat": 0.0, "lon": -77.0517325, "type": "electric_scooter", "fusion_lon": 0.0, "lat": 38.9030075}, {"rental_uris": {"android": "https://dc.lft.to/lastmile_qr_scan", "ios": "https://dc.lft.to/lastmile_qr_scan"}, "is_reserved": 0, "is_disabled": 0, "name": "df41db76666084b88fb5536331244103", "bike_id": "df41db76666084b88fb5536331244103", "fusion_lat": 0.0, "lon": -76.99068566666666, "type": "electric_bike", "fusion_lon": 0.0, "lat": 38.942574}, {"rental_uris": {"android": "https://dc.lft.to/lastmile_qr_scan", "ios": "https://dc.lft.to/lastmile_qr_scan"}, "is_reserved": 0, "is_disabled": 0, "name": "547dd5e1fd471b1939a15b1df001ebf0", "bike_id": "547dd5e1fd471b1939a15b1df001ebf0", "fusion_lat": 0.0, "lon": -77.05286716666667, "type": "electric_scooter", "fusion_lon": 0.0, "lat": 38.910217833333334}, {"rental_uris": {"android": "https://dc.lft.to/lastmile_qr_scan", "ios": "https://dc.lft.to/lastmile_qr_scan"}, "is_reserved": 0, "is_disabled": 0, "name": "455bc8e3d369a7308fd5582780fcd5be", "bike_id": "455bc8e3d369a7308fd5582780fcd5be", "fusion_lat": 0.0, "lon": -77.04825166666667, "type": "electric_scooter", "fusion_lon": 0.0, "lat": 38.910455666666664}, {"rental_uris": {"android": "https://dc.lft.to/lastmile_qr_scan", "ios": "https://dc.lft.to/lastmile_qr_scan"}, "is_reserved": 0, "is_disabled": 0, "name": "d01c234bf93724d3b809fdff11642817", "bike_id": "d01c234bf93724d3b809fdff11642817", "fusion_lat": 0.0, "lon": -77.02486916666666, "type": "electric_scooter", "fusion_lon": 0.0, "lat": 38.9206015}, {"rental_uris": {"android": "https://dc.lft.to/lastmile_qr_scan", "ios": "https://dc.lft.to/lastmile_qr_scan"}, "is_reserved": 0, "is_disabled": 0, "name": "2cbbc4ef318f6a8aca8b9f84860bee3e", "bike_id": "2cbbc4ef318f6a8aca8b9f84860bee3e", "fusion_lat": 0.0, "lon": -76.97306666666667, "type": "electric_scooter", "fusion_lon": 0.0, "lat": 38.9198925}, {"rental_uris": {"android": "https://dc.lft.to/lastmile_qr_scan", "ios": "https://dc.lft.to/lastmile_qr_scan"}, "is_reserved": 0, "is_disabled": 0, "name": "af3ff692037cdfaaad2e51b7a1c9d9f8", "bike_id": "af3ff692037cdfaaad2e51b7a1c9d9f8", "fusion_lat": 0.0, "lon": -77.02795, "type": "electric_scooter", "fusion_lon": 0.0, "lat": 38.9073155}, {"rental_uris": {"android": "https://dc.lft.to/lastmile_qr_scan", "ios": "https://dc.lft.to/lastmile_qr_scan"}, "is_reserved": 0, "is_disabled": 0, "name": "c2c07c5a5ed30a76c7422d4fe1816ea6", "bike_id": "c2c07c5a5ed30a76c7422d4fe1816ea6", "fusion_lat": 0.0, "lon": -77.01756016666667, "type": "electric_scooter", "fusion_lon": 0.0, "lat": 38.87686716666666}, {"rental_uris": {"android": "https://dc.lft.to/lastmile_qr_scan", "ios": "https://dc.lft.to/lastmile_qr_scan"}, "is_reserved": 0, "is_disabled": 0, "name": "3a67f623ca83a90d532499ecfad514e9", "bike_id": "3a67f623ca83a90d532499ecfad514e9", "fusion_lat": 0.0, "lon": -77.00361133333334, "type": "electric_scooter", "fusion_lon": 0.0, "lat": 38.91555283333334}, {"rental_uris": {"android": "https://dc.lft.to/lastmile_qr_scan", "ios": "https://dc.lft.to/lastmile_qr_scan"}, "is_reserved": 0, "is_disabled": 0, "name": "3eef65e927fb347f31c770e647e60ec6", "bike_id": "3eef65e927fb347f31c770e647e60ec6", "fusion_lat": 0.0, "lon": -77.0396745, "type": "electric_scooter", "fusion_lon": 0.0, "lat": 38.90143066666667}, {"rental_uris": {"android": "https://dc.lft.to/lastmile_qr_scan", "ios": "https://dc.lft.to/lastmile_qr_scan"}, "is_reserved": 0, "is_disabled": 0, "name": "8c9ebc7b97a6a9f1481c379f42806874", "bike_id": "8c9ebc7b97a6a9f1481c379f42806874", "fusion_lat": 0.0, "lon": -77.04312666666667, "type": "electric_bike", "fusion_lon": 0.0, "lat": 39.034212833333335}, {"rental_uris": {"android": "https://dc.lft.to/lastmile_qr_scan", "ios": "https://dc.lft.to/lastmile_qr_scan"}, "is_reserved": 0, "is_disabled": 0, "name": "f864ff2a86ef2aee5559c4d994399063", "bike_id": "f864ff2a86ef2aee5559c4d994399063", "fusion_lat": 0.0, "lon": -77.0062205, "type": "electric_scooter", "fusion_lon": 0.0, "lat": 38.87176616666667}, {"rental_uris": {"android": "https://dc.lft.to/lastmile_qr_scan", "ios": "https://dc.lft.to/lastmile_qr_scan"}, "is_reserved": 0, "is_disabled": 0, "name": "7599ff49bb8511e95059948d46ea85cd", "bike_id": "7599ff49bb8511e95059948d46ea85cd", "fusion_lat": 0.0, "lon": -77.07455116666667, "type": "electric_scooter", "fusion_lon": 0.0, "lat": 38.93779833333333}, {"rental_uris": {"android": "https://dc.lft.to/lastmile_qr_scan", "ios": "https://dc.lft.to/lastmile_qr_scan"}, "is_reserved": 0, "is_disabled": 0, "name": "1d0b69dc6147cf0315aaea5fac3f0d0a", "bike_id": "1d0b69dc6147cf0315aaea5fac3f0d0a", "fusion_lat": 0.0, "lon": -77.02445216666666, "type": "electric_scooter", "fusion_lon": 0.0, "lat": 38.93819583333333}, {"rental_uris": {"android": "https://dc.lft.to/lastmile_qr_scan", "ios": "https://dc.lft.to/lastmile_qr_scan"}, "is_reserved": 0, "is_disabled": 0, "name": "3bfb4cb9d68392e3d51db53985512b60", "bike_id": "3bfb4cb9d68392e3d51db53985512b60", "fusion_lat": 0.0, "lon": -77.01964516666666, "type": "electric_scooter", "fusion_lon": 0.0, "lat": 38.9232305}, {"rental_uris": {"android": "https://dc.lft.to/lastmile_qr_scan", "ios": "https://dc.lft.to/lastmile_qr_scan"}, "is_reserved": 0, "is_disabled": 0, "name": "d90e62151f0a495c8cb64f1b125c5229", "bike_id": "d90e62151f0a495c8cb64f1b125c5229", "fusion_lat": 0.0, "lon": -76.9883455, "type": "electric_scooter", "fusion_lon": 0.0, "lat": 38.9003975}, {"rental_uris": {"android": "https://dc.lft.to/lastmile_qr_scan", "ios": "https://dc.lft.to/lastmile_qr_scan"}, "is_reserved": 0, "is_disabled": 0, "name": "6e038e1ae2d8177f7486472a7a0a80b7", "bike_id": "6e038e1ae2d8177f7486472a7a0a80b7", "fusion_lat": 0.0, "lon": -77.0433205, "type": "electric_scooter", "fusion_lon": 0.0, "lat": 38.92320933333333}, {"rental_uris": {"android": "https://dc.lft.to/lastmile_qr_scan", "ios": "https://dc.lft.to/lastmile_qr_scan"}, "is_reserved": 0, "is_disabled": 0, "name": "002bb024d362be5771cabb40160e3511", "bike_id": "002bb024d362be5771cabb40160e3511", "fusion_lat": 0.0, "lon": -77.02822783333333, "type": "electric_scooter", "fusion_lon": 0.0, "lat": 38.91047666666667}, {"rental_uris": {"android": "https://dc.lft.to/lastmile_qr_scan", "ios": "https://dc.lft.to/lastmile_qr_scan"}, "is_reserved": 0, "is_disabled": 0, "name": "0cbf3a203b1c05dbf4c918b67766761c", "bike_id": "0cbf3a203b1c05dbf4c918b67766761c", "fusion_lat": 0.0, "lon": -77.01860333333333, "type": "electric_scooter", "fusion_lon": 0.0, "lat": 38.92920316666667}, {"rental_uris": {"android": "https://dc.lft.to/lastmile_qr_scan", "ios": "https://dc.lft.to/lastmile_qr_scan"}, "is_reserved": 0, "is_disabled": 0, "name": "31dc03c78acde0305614bf244a530c34", "bike_id": "31dc03c78acde0305614bf244a530c34", "fusion_lat": 0.0, "lon": -77.013594, "type": "electric_scooter", "fusion_lon": 0.0, "lat": 38.91818983333334}, {"rental_uris": {"android": "https://dc.lft.to/lastmile_qr_scan", "ios": "https://dc.lft.to/lastmile_qr_scan"}, "is_reserved": 0, "is_disabled": 0, "name": "197a744935acf45872493829ec82db1d", "bike_id": "197a744935acf45872493829ec82db1d", "fusion_lat": 0.0, "lon": -77.00211833333333, "type": "electric_scooter", "fusion_lon": 0.0, "lat": 38.91460216666667}, {"rental_uris": {"android": "https://dc.lft.to/lastmile_qr_scan", "ios": "https://dc.lft.to/lastmile_qr_scan"}, "is_reserved": 0, "is_disabled": 0, "name": "af4b2cdbdc67e6a6e16a5bf27bbb811c", "bike_id": "af4b2cdbdc67e6a6e16a5bf27bbb811c", "fusion_lat": 0.0, "lon": -76.99275533333333, "type": "electric_bike", "fusion_lon": 0.0, "lat": 38.97258266666667}, {"rental_uris": {"android": "https://dc.lft.to/lastmile_qr_scan", "ios": "https://dc.lft.to/lastmile_qr_scan"}, "is_reserved": 0, "is_disabled": 0, "name": "df3e5898d8d05c4d209010504020e865", "bike_id": "df3e5898d8d05c4d209010504020e865", "fusion_lat": 0.0, "lon": -77.04160266666666, "type": "electric_scooter", "fusion_lon": 0.0, "lat": 38.9171595}, {"rental_uris": {"android": "https://dc.lft.to/lastmile_qr_scan", "ios": "https://dc.lft.to/lastmile_qr_scan"}, "is_reserved": 0, "is_disabled": 0, "name": "87b7cbf51189287e478ed35d099d9c7a", "bike_id": "87b7cbf51189287e478ed35d099d9c7a", "fusion_lat": 0.0, "lon": -77.0288155, "type": "electric_scooter", "fusion_lon": 0.0, "lat": 38.913504333333336}, {"rental_uris": {"android": "https://dc.lft.to/lastmile_qr_scan", "ios": "https://dc.lft.to/lastmile_qr_scan"}, "is_reserved": 0, "is_disabled": 0, "name": "2f5162c58e71760e880d262d65e45e7a", "bike_id": "2f5162c58e71760e880d262d65e45e7a", "fusion_lat": 0.0, "lon": -77.00344416666667, "type": "electric_scooter", "fusion_lon": 0.0, "lat": 38.903643}, {"rental_uris": {"android": "https://dc.lft.to/lastmile_qr_scan", "ios": "https://dc.lft.to/lastmile_qr_scan"}, "is_reserved": 0, "is_disabled": 0, "name": "3caa77ce82f7939b961ad13356c27c32", "bike_id": "3caa77ce82f7939b961ad13356c27c32", "fusion_lat": 0.0, "lon": -77.03437516666666, "type": "electric_scooter", "fusion_lon": 0.0, "lat": 38.907390166666666}, {"rental_uris": {"android": "https://dc.lft.to/lastmile_qr_scan", "ios": "https://dc.lft.to/lastmile_qr_scan"}, "is_reserved": 0, "is_disabled": 0, "name": "0f822168f62eb75cadb8419e19017c30", "bike_id": "0f822168f62eb75cadb8419e19017c30", "fusion_lat": 0.0, "lon": -76.9969235, "type": "electric_bike", "fusion_lon": 0.0, "lat": 38.83864166666667}, {"rental_uris": {"android": "https://dc.lft.to/lastmile_qr_scan", "ios": "https://dc.lft.to/lastmile_qr_scan"}, "is_reserved": 0, "is_disabled": 0, "name": "03ee4d3468ede9acdd3ff188d75e9c1b", "bike_id": "03ee4d3468ede9acdd3ff188d75e9c1b", "fusion_lat": 0.0, "lon": -77.0248995, "type": "electric_scooter", "fusion_lon": 0.0, "lat": 38.919280666666666}, {"rental_uris": {"android": "https://dc.lft.to/lastmile_qr_scan", "ios": "https://dc.lft.to/lastmile_qr_scan"}, "is_reserved": 0, "is_disabled": 0, "name": "1036ce07f187408dda1c0bc9853e0fa1", "bike_id": "1036ce07f187408dda1c0bc9853e0fa1", "fusion_lat": 0.0, "lon": -77.0504955, "type": "electric_scooter", "fusion_lon": 0.0, "lat": 38.90310733333333}, {"rental_uris": {"android": "https://dc.lft.to/lastmile_qr_scan", "ios": "https://dc.lft.to/lastmile_qr_scan"}, "is_reserved": 0, "is_disabled": 0, "name": "ba0aad2e06cb86472536e869ebb1805c", "bike_id": "ba0aad2e06cb86472536e869ebb1805c", "fusion_lat": 0.0, "lon": -77.00729416666667, "type": "electric_scooter", "fusion_lon": 0.0, "lat": 38.911863833333335}, {"rental_uris": {"android": "https://dc.lft.to/lastmile_qr_scan", "ios": "https://dc.lft.to/lastmile_qr_scan"}, "is_reserved": 0, "is_disabled": 0, "name": "64b9c5b9c77de728bd10054c2ce2487b", "bike_id": "64b9c5b9c77de728bd10054c2ce2487b", "fusion_lat": 0.0, "lon": -77.03502466666667, "type": "electric_scooter", "fusion_lon": 0.0, "lat": 38.918731666666666}, {"rental_uris": {"android": "https://dc.lft.to/lastmile_qr_scan", "ios": "https://dc.lft.to/lastmile_qr_scan"}, "is_reserved": 0, "is_disabled": 0, "name": "20a9bb7333f1e6f13fc4dc33a07a90c4", "bike_id": "20a9bb7333f1e6f13fc4dc33a07a90c4", "fusion_lat": 0.0, "lon": -77.03808616666667, "type": "electric_scooter", "fusion_lon": 0.0, "lat": 38.92072366666667}, {"rental_uris": {"android": "https://dc.lft.to/lastmile_qr_scan", "ios": "https://dc.lft.to/lastmile_qr_scan"}, "is_reserved": 0, "is_disabled": 0, "name": "79065199cf3564084050f1b5280923d2", "bike_id": "79065199cf3564084050f1b5280923d2", "fusion_lat": 0.0, "lon": -77.02487266666667, "type": "electric_scooter", "fusion_lon": 0.0, "lat": 38.914156}, {"rental_uris": {"android": "https://dc.lft.to/lastmile_qr_scan", "ios": "https://dc.lft.to/lastmile_qr_scan"}, "is_reserved": 0, "is_disabled": 0, "name": "c691cd97f7280ff0050a73ba6135f303", "bike_id": "c691cd97f7280ff0050a73ba6135f303", "fusion_lat": 0.0, "lon": -77.012248, "type": "electric_scooter", "fusion_lon": 0.0, "lat": 38.9152245}, {"rental_uris": {"android": "https://dc.lft.to/lastmile_qr_scan", "ios": "https://dc.lft.to/lastmile_qr_scan"}, "is_reserved": 0, "is_disabled": 0, "name": "83300077f5678009d0210f52362ac7be", "bike_id": "83300077f5678009d0210f52362ac7be", "fusion_lat": 0.0, "lon": -77.031687, "type": "electric_scooter", "fusion_lon": 0.0, "lat": 38.9156345}, {"rental_uris": {"android": "https://dc.lft.to/lastmile_qr_scan", "ios": "https://dc.lft.to/lastmile_qr_scan"}, "is_reserved": 0, "is_disabled": 0, "name": "c417ea80a5f68dbe4618196d4da29803", "bike_id": "c417ea80a5f68dbe4618196d4da29803", "fusion_lat": 0.0, "lon": -76.99872166666667, "type": "electric_scooter", "fusion_lon": 0.0, "lat": 38.90028733333333}, {"rental_uris": {"android": "https://dc.lft.to/lastmile_qr_scan", "ios": "https://dc.lft.to/lastmile_qr_scan"}, "is_reserved": 0, "is_disabled": 0, "name": "35c77096544aef03e114ade0eaf87176", "bike_id": "35c77096544aef03e114ade0eaf87176", "fusion_lat": 0.0, "lon": -77.003459, "type": "electric_scooter", "fusion_lon": 0.0, "lat": 38.89268583333333}, {"rental_uris": {"android": "https://dc.lft.to/lastmile_qr_scan", "ios": "https://dc.lft.to/lastmile_qr_scan"}, "is_reserved": 0, "is_disabled": 0, "name": "6a94fbacd541a200c0244a1571870f6b", "bike_id": "6a94fbacd541a200c0244a1571870f6b", "fusion_lat": 0.0, "lon": -77.03663283333333, "type": "electric_scooter", "fusion_lon": 0.0, "lat": 38.92120966666667}, {"rental_uris": {"android": "https://dc.lft.to/lastmile_qr_scan", "ios": "https://dc.lft.to/lastmile_qr_scan"}, "is_reserved": 0, "is_disabled": 0, "name": "b9b7657f68ce4c65a7d122966ac7dcf2", "bike_id": "b9b7657f68ce4c65a7d122966ac7dcf2", "fusion_lat": 0.0, "lon": -77.019915, "type": "electric_scooter", "fusion_lon": 0.0, "lat": 38.9149465}, {"rental_uris": {"android": "https://dc.lft.to/lastmile_qr_scan", "ios": "https://dc.lft.to/lastmile_qr_scan"}, "is_reserved": 0, "is_disabled": 0, "name": "0ff18ba06cbcdde18add73156329ac29", "bike_id": "0ff18ba06cbcdde18add73156329ac29", "fusion_lat": 0.0, "lon": -76.98952066666666, "type": "electric_bike", "fusion_lon": 0.0, "lat": 38.83403466666667}, {"rental_uris": {"android": "https://dc.lft.to/lastmile_qr_scan", "ios": "https://dc.lft.to/lastmile_qr_scan"}, "is_reserved": 0, "is_disabled": 0, "name": "49efe2badc1c1ba8de25811e26f6e3e2", "bike_id": "49efe2badc1c1ba8de25811e26f6e3e2", "fusion_lat": 0.0, "lon": -76.97717316666666, "type": "electric_scooter", "fusion_lon": 0.0, "lat": 38.88822533333333}, {"rental_uris": {"android": "https://dc.lft.to/lastmile_qr_scan", "ios": "https://dc.lft.to/lastmile_qr_scan"}, "is_reserved": 0, "is_disabled": 0, "name": "7cb82ee14965bd987c9297fc5e4f05bc", "bike_id": "7cb82ee14965bd987c9297fc5e4f05bc", "fusion_lat": 0.0, "lon": -77.0511885, "type": "electric_scooter", "fusion_lon": 0.0, "lat": 38.923464333333335}, {"rental_uris": {"android": "https://dc.lft.to/lastmile_qr_scan", "ios": "https://dc.lft.to/lastmile_qr_scan"}, "is_reserved": 0, "is_disabled": 0, "name": "f3c0f7b958c0ccd59b05a3a3ece89dec", "bike_id": "f3c0f7b958c0ccd59b05a3a3ece89dec", "fusion_lat": 0.0, "lon": -77.0259395, "type": "electric_scooter", "fusion_lon": 0.0, "lat": 38.91702383333333}, {"rental_uris": {"android": "https://dc.lft.to/lastmile_qr_scan", "ios": "https://dc.lft.to/lastmile_qr_scan"}, "is_reserved": 0, "is_disabled": 0, "name": "e52472a6c9644a92d2f382b8d0f3102a", "bike_id": "e52472a6c9644a92d2f382b8d0f3102a", "fusion_lat": 0.0, "lon": -76.92366483333333, "type": "electric_scooter", "fusion_lon": 0.0, "lat": 38.89246716666667}, {"rental_uris": {"android": "https://dc.lft.to/lastmile_qr_scan", "ios": "https://dc.lft.to/lastmile_qr_scan"}, "is_reserved": 0, "is_disabled": 0, "name": "5778cdd9192c61c400a83d5d28c95fbb", "bike_id": "5778cdd9192c61c400a83d5d28c95fbb", "fusion_lat": 0.0, "lon": -77.02257183333333, "type": "electric_scooter", "fusion_lon": 0.0, "lat": 38.916423}, {"rental_uris": {"android": "https://dc.lft.to/lastmile_qr_scan", "ios": "https://dc.lft.to/lastmile_qr_scan"}, "is_reserved": 0, "is_disabled": 0, "name": "49f037cdddacf20802f5b7b0b5131ead", "bike_id": "49f037cdddacf20802f5b7b0b5131ead", "fusion_lat": 0.0, "lon": -77.0545665, "type": "electric_scooter", "fusion_lon": 0.0, "lat": 38.92900916666667}, {"rental_uris": {"android": "https://dc.lft.to/lastmile_qr_scan", "ios": "https://dc.lft.to/lastmile_qr_scan"}, "is_reserved": 0, "is_disabled": 0, "name": "fa74b1f062f155bac8809b881ac7d492", "bike_id": "fa74b1f062f155bac8809b881ac7d492", "fusion_lat": 0.0, "lon": -76.98791483333333, "type": "electric_scooter", "fusion_lon": 0.0, "lat": 38.9002445}, {"rental_uris": {"android": "https://dc.lft.to/lastmile_qr_scan", "ios": "https://dc.lft.to/lastmile_qr_scan"}, "is_reserved": 0, "is_disabled": 0, "name": "4963c0059ca59fec44aab1a46353326d", "bike_id": "4963c0059ca59fec44aab1a46353326d", "fusion_lat": 0.0, "lon": -77.00884133333334, "type": "electric_scooter", "fusion_lon": 0.0, "lat": 38.876592}, {"rental_uris": {"android": "https://dc.lft.to/lastmile_qr_scan", "ios": "https://dc.lft.to/lastmile_qr_scan"}, "is_reserved": 0, "is_disabled": 0, "name": "7b85f56f1963f70bc60f464dc38d2167", "bike_id": "7b85f56f1963f70bc60f464dc38d2167", "fusion_lat": 0.0, "lon": -77.02136316666666, "type": "electric_scooter", "fusion_lon": 0.0, "lat": 38.928103166666666}, {"rental_uris": {"android": "https://dc.lft.to/lastmile_qr_scan", "ios": "https://dc.lft.to/lastmile_qr_scan"}, "is_reserved": 0, "is_disabled": 0, "name": "995fa93d3e18b84400bafefd8e7757a9", "bike_id": "995fa93d3e18b84400bafefd8e7757a9", "fusion_lat": 0.0, "lon": -77.02975383333333, "type": "electric_scooter", "fusion_lon": 0.0, "lat": 38.89630916666667}, {"rental_uris": {"android": "https://dc.lft.to/lastmile_qr_scan", "ios": "https://dc.lft.to/lastmile_qr_scan"}, "is_reserved": 0, "is_disabled": 0, "name": "25f79c9662f50ea070f753c4c13ff39b", "bike_id": "25f79c9662f50ea070f753c4c13ff39b", "fusion_lat": 0.0, "lon": -77.03196516666667, "type": "electric_scooter", "fusion_lon": 0.0, "lat": 38.91785383333333}, {"rental_uris": {"android": "https://dc.lft.to/lastmile_qr_scan", "ios": "https://dc.lft.to/lastmile_qr_scan"}, "is_reserved": 0, "is_disabled": 0, "name": "f97e8a497a001ed5800e27138cf23802", "bike_id": "f97e8a497a001ed5800e27138cf23802", "fusion_lat": 0.0, "lon": -77.03784366666666, "type": "electric_scooter", "fusion_lon": 0.0, "lat": 38.93322}, {"rental_uris": {"android": "https://dc.lft.to/lastmile_qr_scan", "ios": "https://dc.lft.to/lastmile_qr_scan"}, "is_reserved": 0, "is_disabled": 0, "name": "efc29bd6a03e4e5c06d2deaba0093567", "bike_id": "efc29bd6a03e4e5c06d2deaba0093567", "fusion_lat": 0.0, "lon": -77.03190816666667, "type": "electric_scooter", "fusion_lon": 0.0, "lat": 38.91646716666666}, {"rental_uris": {"android": "https://dc.lft.to/lastmile_qr_scan", "ios": "https://dc.lft.to/lastmile_qr_scan"}, "is_reserved": 0, "is_disabled": 0, "name": "bd727ab20b2d8b115d933b6eb37dc0b3", "bike_id": "bd727ab20b2d8b115d933b6eb37dc0b3", "fusion_lat": 0.0, "lon": -77.03300516666667, "type": "electric_scooter", "fusion_lon": 0.0, "lat": 38.926632833333336}, {"rental_uris": {"android": "https://dc.lft.to/lastmile_qr_scan", "ios": "https://dc.lft.to/lastmile_qr_scan"}, "is_reserved": 0, "is_disabled": 0, "name": "7b925be63ae0f0afd4ff5d1c239aa696", "bike_id": "7b925be63ae0f0afd4ff5d1c239aa696", "fusion_lat": 0.0, "lon": -77.04056433333334, "type": "electric_scooter", "fusion_lon": 0.0, "lat": 38.90958966666667}, {"rental_uris": {"android": "https://dc.lft.to/lastmile_qr_scan", "ios": "https://dc.lft.to/lastmile_qr_scan"}, "is_reserved": 0, "is_disabled": 0, "name": "fd14b10117b991a5f42dc46e1ab31d8a", "bike_id": "fd14b10117b991a5f42dc46e1ab31d8a", "fusion_lat": 0.0, "lon": -77.0433605, "type": "electric_scooter", "fusion_lon": 0.0, "lat": 38.923219833333334}, {"rental_uris": {"android": "https://dc.lft.to/lastmile_qr_scan", "ios": "https://dc.lft.to/lastmile_qr_scan"}, "is_reserved": 0, "is_disabled": 0, "name": "6f028fd2ccdfc0a2405297c02559a17a", "bike_id": "6f028fd2ccdfc0a2405297c02559a17a", "fusion_lat": 0.0, "lon": -77.02949783333334, "type": "electric_scooter", "fusion_lon": 0.0, "lat": 38.904994333333335}, {"rental_uris": {"android": "https://dc.lft.to/lastmile_qr_scan", "ios": "https://dc.lft.to/lastmile_qr_scan"}, "is_reserved": 0, "is_disabled": 0, "name": "46af3e5ce976704e101c6b1fffe90a7a", "bike_id": "46af3e5ce976704e101c6b1fffe90a7a", "fusion_lat": 0.0, "lon": -77.02151833333333, "type": "electric_scooter", "fusion_lon": 0.0, "lat": 38.924624}, {"rental_uris": {"android": "https://dc.lft.to/lastmile_qr_scan", "ios": "https://dc.lft.to/lastmile_qr_scan"}, "is_reserved": 0, "is_disabled": 0, "name": "6a6f45c3020c34efa98684afb13e9697", "bike_id": "6a6f45c3020c34efa98684afb13e9697", "fusion_lat": 0.0, "lon": -76.98336766666667, "type": "electric_scooter", "fusion_lon": 0.0, "lat": 38.8954655}, {"rental_uris": {"android": "https://dc.lft.to/lastmile_qr_scan", "ios": "https://dc.lft.to/lastmile_qr_scan"},