{"data": {"bikes": [{"is_disabled": 0, "fusion_lon": 0.0, "fusion_lat": 0.0, "lat": 38.918082, "type": "electric_scooter", "lon": -77.02448633333333, "bike_id": "03a057a01546b88abe3fd34a397ed353", "rental_uris": {"android": "https://dc.lft.to/lastmile_qr_scan", "ios": "https://dc.lft.to/lastmile_qr_scan"}, "name": "03a057a01546b88abe3fd34a397ed353", "is_reserved": 0}, {"is_disabled": 0, "fusion_lon": 0.0, "fusion_lat": 0.0, "lat": 39.0038055, "type": "electric_bike", "lon": -77.01289383333334, "bike_id": "ddc0776009efb5e2120aca40cad42b89", "rental_uris": {"android": "https://dc.lft.to/lastmile_qr_scan", "ios": "https://dc.lft.to/lastmile_qr_scan"}, "name": "ddc0776009efb5e2120aca40cad42b89", "is_reserved": 0}, {"is_disabled": 0, "fusion_lon": 0.0, "fusion_lat": 0.0, "lat": 38.91805033333333, "type": "electric_scooter", "lon": -77.03179966666667, "bike_id": "07f66f7e3946cbd5189ced27e1777fff", "rental_uris": {"android": "https://dc.lft.to/lastmile_qr_scan", "ios": "https://dc.lft.to/lastmile_qr_scan"}, "name": "07f66f7e3946cbd5189ced27e1777fff", "is_reserved": 0}, {"is_disabled": 0, "fusion_lon": 0.0, "fusion_lat": 0.0, "lat": 38.9009215, "type": "electric_scooter", "lon": -77.01804633333333, "bike_id": "26b13b7a056689a85271e99a8dba7d54", "rental_uris": {"android": "https://dc.lft.to/lastmile_qr_scan", "ios": "https://dc.lft.to/lastmile_qr_scan"}, "name": "26b13b7a056689a85271e99a8dba7d54", "is_reserved": 0}, {"is_disabled": 0, "fusion_lon": 0.0, "fusion_lat": 0.0, "lat": 38.934533333333334, "type": "electric_scooter", "lon": -77.02741733333333, "bike_id": "72a28ca9701d5631253dca84ecc36a3c", "rental_uris": {"android": "https://dc.lft.to/lastmile_qr_scan", "ios": "https://dc.lft.to/lastmile_qr_scan"}, "name": "72a28ca9701d5631253dca84ecc36a3c", "is_reserved": 0}, {"is_disabled": 0, "fusion_lon": 0.0, "fusion_lat": 0.0, "lat": 38.91703166666667, "type": "electric_scooter", "lon": -77.02617983333333, "bike_id": "c342dbfd36e634da44eedd1cba962772", "rental_uris": {"android": "https://dc.lft.to/lastmile_qr_scan", "ios": "https://dc.lft.to/lastmile_qr_scan"}, "name": "c342dbfd36e634da44eedd1cba962772", "is_reserved": 0}, {"is_disabled": 0, "fusion_lon": 0.0, "fusion_lat": 0.0, "lat": 38.965565166666664, "type": "electric_bike", "lon": -77.02303933333333, "bike_id": "59107872c7e5d2c8c2412212a2bc4888", "rental_uris": {"android": "https://dc.lft.to/lastmile_qr_scan", "ios": "https://dc.lft.to/lastmile_qr_scan"}, "name": "59107872c7e5d2c8c2412212a2bc4888", "is_reserved": 0}, {"is_disabled": 0, "fusion_lon": 0.0, "fusion_lat": 0.0, "lat": 38.892230833333336, "type": "electric_scooter", "lon": -77.02629483333334, "bike_id": "e52c3058df5cfec348a07793d30d1627", "rental_uris": {"android": "https://dc.lft.to/lastmile_qr_scan", "ios": "https://dc.lft.to/lastmile_qr_scan"}, "name": "e52c3058df5cfec348a07793d30d1627", "is_reserved": 0}, {"is_disabled": 0, "fusion_lon": 0.0, "fusion_lat": 0.0, "lat": 38.9071475, "type": "electric_scooter", "lon": -77.027164, "bike_id": "610d75f6f2e3931844f4fce8398fc289", "rental_uris": {"android": "https://dc.lft.to/lastmile_qr_scan", "ios": "https://dc.lft.to/lastmile_qr_scan"}, "name": "610d75f6f2e3931844f4fce8398fc289", "is_reserved": 0}, {"is_disabled": 0, "fusion_lon": 0.0, "fusion_lat": 0.0, "lat": 38.9071605, "type": "electric_scooter", "lon": -77.02395983333334, "bike_id": "c06026b2ed11feb7f2ce3080fd8c145e", "rental_uris": {"android": "https://dc.lft.to/lastmile_qr_scan", "ios": "https://dc.lft.to/lastmile_qr_scan"}, "name": "c06026b2ed11feb7f2ce3080fd8c145e", "is_reserved": 0}, {"is_disabled": 0, "fusion_lon": 0.0, "fusion_lat": 0.0, "lat": 38.92435916666667, "type": "electric_scooter", "lon": -77.04248766666667, "bike_id": "e3b8b3f1862ed665df15584e9e0c7f7a", "rental_uris": {"android": "https://dc.lft.to/lastmile_qr_scan", "ios": "https://dc.lft.to/lastmile_qr_scan"}, "name": "e3b8b3f1862ed665df15584e9e0c7f7a", "is_reserved": 0}, {"is_disabled": 0, "fusion_lon": 0.0, "fusion_lat": 0.0, "lat": 38.9055925, "type": "electric_scooter", "lon": -77.0247645, "bike_id": "b6045b32c1ee9ad49a5a4a3c5098a191", "rental_uris": {"android": "https://dc.lft.to/lastmile_qr_scan", "ios": "https://dc.lft.to/lastmile_qr_scan"}, "name": "b6045b32c1ee9ad49a5a4a3c5098a191", "is_reserved": 0}, {"is_disabled": 0, "fusion_lon": 0.0, "fusion_lat": 0.0, "lat": 38.928443333333334, "type": "electric_scooter", "lon": -77.05628466666667, "bike_id": "27b1e23adf47a7f15144ee810c71f98d", "rental_uris": {"android": "https://dc.lft.to/lastmile_qr_scan", "ios": "https://dc.lft.to/lastmile_qr_scan"}, "name": "27b1e23adf47a7f15144ee810c71f98d", "is_reserved": 0}, {"is_disabled": 0, "fusion_lon": 0.0, "fusion_lat": 0.0, "lat": 38.908575166666665, "type": "electric_scooter", "lon": -77.04271516666667, "bike_id": "7659017e9bdf59c2910f5b598d242a3f", "rental_uris": {"android": "https://dc.lft.to/lastmile_qr_scan", "ios": "https://dc.lft.to/lastmile_qr_scan"}, "name": "7659017e9bdf59c2910f5b598d242a3f", "is_reserved": 0}, {"is_disabled": 0, "fusion_lon": 0.0, "fusion_lat": 0.0, "lat": 38.91797016666666, "type": "electric_scooter", "lon": -77.03447116666666, "bike_id": "86673ea455a4025048b0cbf0f3acceec", "rental_uris": {"android": "https://dc.lft.to/lastmile_qr_scan", "ios": "https://dc.lft.to/lastmile_qr_scan"}, "name": "86673ea455a4025048b0cbf0f3acceec", "is_reserved": 0}, {"is_disabled": 0, "fusion_lon": 0.0, "fusion_lat": 0.0, "lat": 38.91858083333333, "type": "electric_bike", "lon": -76.96094283333333, "bike_id": "1aecdd63b17f1604a2c366dfbef9c612", "rental_uris": {"android": "https://dc.lft.to/lastmile_qr_scan", "ios": "https://dc.lft.to/lastmile_qr_scan"}, "name": "1aecdd63b17f1604a2c366dfbef9c612", "is_reserved": 0}, {"is_disabled": 0, "fusion_lon": 0.0, "fusion_lat": 0.0, "lat": 38.9296085, "type": "electric_scooter", "lon": -77.02347333333333, "bike_id": "b999cbdccd85ef62b1c2d5cca5909033", "rental_uris": {"android": "https://dc.lft.to/lastmile_qr_scan", "ios": "https://dc.lft.to/lastmile_qr_scan"}, "name": "b999cbdccd85ef62b1c2d5cca5909033", "is_reserved": 0}, {"is_disabled": 0, "fusion_lon": 0.0, "fusion_lat": 0.0, "lat": 38.9150015, "type": "electric_scooter", "lon": -76.98367533333334, "bike_id": "32420e91c0baf5a0a96399f5d660ee38", "rental_uris": {"android": "https://dc.lft.to/lastmile_qr_scan", "ios": "https://dc.lft.to/lastmile_qr_scan"}, "name": "32420e91c0baf5a0a96399f5d660ee38", "is_reserved": 0}, {"is_disabled": 0, "fusion_lon": 0.0, "fusion_lat": 0.0, "lat": 38.927499166666664, "type": "electric_scooter", "lon": -77.02534566666667, "bike_id": "2eea1e72c00c965988b35809be56b7e8", "rental_uris": {"android": "https://dc.lft.to/lastmile_qr_scan", "ios": "https://dc.lft.to/lastmile_qr_scan"}, "name": "2eea1e72c00c965988b35809be56b7e8", "is_reserved": 0}, {"is_disabled": 0, "fusion_lon": 0.0, "fusion_lat": 0.0, "lat": 38.874893, "type": "electric_bike", "lon": -77.00085066666666, "bike_id": "b11b71881422c3da9b7bdcb35490a705", "rental_uris": {"android": "https://dc.lft.to/lastmile_qr_scan", "ios": "https://dc.lft.to/lastmile_qr_scan"}, "name": "b11b71881422c3da9b7bdcb35490a705", "is_reserved": 0}, {"is_disabled": 0, "fusion_lon": 0.0, "fusion_lat": 0.0, "lat": 38.917015666666664, "type": "electric_scooter", "lon": -77.0430285, "bike_id": "982a3e7d6bd71efd7057e1b2dc1cd88b", "rental_uris": {"android": "https://dc.lft.to/lastmile_qr_scan", "ios": "https://dc.lft.to/lastmile_qr_scan"}, "name": "982a3e7d6bd71efd7057e1b2dc1cd88b", "is_reserved": 0}, {"is_disabled": 0, "fusion_lon": 0.0, "fusion_lat": 0.0, "lat": 38.879838, "type": "electric_scooter", "lon": -77.0242095, "bike_id": "73511e5d61dba080ee857df51ddc440c", "rental_uris": {"android": "https://dc.lft.to/lastmile_qr_scan", "ios": "https://dc.lft.to/lastmile_qr_scan"}, "name": "73511e5d61dba080ee857df51ddc440c", "is_reserved": 0}, {"is_disabled": 0, "fusion_lon": 0.0, "fusion_lat": 0.0, "lat": 38.898998, "type": "electric_scooter", "lon": -77.03972033333334, "bike_id": "ecbad70328ec16a23181e3864885c594", "rental_uris": {"android": "https://dc.lft.to/lastmile_qr_scan", "ios": "https://dc.lft.to/lastmile_qr_scan"}, "name": "ecbad70328ec16a23181e3864885c594", "is_reserved": 0}, {"is_disabled": 0, "fusion_lon": 0.0, "fusion_lat": 0.0, "lat": 38.908539833333336, "type": "electric_scooter", "lon": -77.07159233333333, "bike_id": "c4a2e9234d43d094fb4f17e3c359263d", "rental_uris": {"android": "https://dc.lft.to/lastmile_qr_scan", "ios": "https://dc.lft.to/lastmile_qr_scan"}, "name": "c4a2e9234d43d094fb4f17e3c359263d", "is_reserved": 0}, {"is_disabled": 0, "fusion_lon": 0.0, "fusion_lat": 0.0, "lat": 38.91799266666666, "type": "electric_scooter", "lon": -77.0403095, "bike_id": "6cd19884107e74d2b15548cef7c7af61", "rental_uris": {"android": "https://dc.lft.to/lastmile_qr_scan", "ios": "https://dc.lft.to/lastmile_qr_scan"}, "name": "6cd19884107e74d2b15548cef7c7af61", "is_reserved": 0}, {"is_disabled": 0, "fusion_lon": 0.0, "fusion_lat": 0.0, "lat": 38.9767815, "type": "electric_bike", "lon": -76.9716965, "bike_id": "01e69d6c3cc070f8eab49dfcf6819df5", "rental_uris": {"android": "https://dc.lft.to/lastmile_qr_scan", "ios": "https://dc.lft.to/lastmile_qr_scan"}, "name": "01e69d6c3cc070f8eab49dfcf6819df5", "is_reserved": 0}, {"is_disabled": 0, "fusion_lon": 0.0, "fusion_lat": 0.0, "lat": 38.8923335, "type": "electric_bike", "lon": -76.952226, "bike_id": "d361570dc2d0d4b783a7971960775da2", "rental_uris": {"android": "https://dc.lft.to/lastmile_qr_scan", "ios": "https://dc.lft.to/lastmile_qr_scan"}, "name": "d361570dc2d0d4b783a7971960775da2", "is_reserved": 0}, {"is_disabled": 0, "fusion_lon": 0.0, "fusion_lat": 0.0, "lat": 38.925909833333336, "type": "electric_bike", "lon": -76.88912416666666, "bike_id": "101d07a13870fcd5ed18e002661814e5", "rental_uris": {"android": "https://dc.lft.to/lastmile_qr_scan", "ios": "https://dc.lft.to/lastmile_qr_scan"}, "name": "101d07a13870fcd5ed18e002661814e5", "is_reserved": 0}, {"is_disabled": 0, "fusion_lon": 0.0, "fusion_lat": 0.0, "lat": 38.954155, "type": "electric_scooter", "lon": -77.02847833333334, "bike_id": "386e5cc64210673f3a6b84f8f6477b73", "rental_uris": {"android": "https://dc.lft.to/lastmile_qr_scan", "ios": "https://dc.lft.to/lastmile_qr_scan"}, "name": "386e5cc64210673f3a6b84f8f6477b73", "is_reserved": 0}, {"is_disabled": 0, "fusion_lon": 0.0, "fusion_lat": 0.0, "lat": 38.89727466666667, "type": "electric_scooter", "lon": -77.025096, "bike_id": "49d7f02c84bd00bc3151f9492f840789", "rental_uris": {"android": "https://dc.lft.to/lastmile_qr_scan", "ios": "https://dc.lft.to/lastmile_qr_scan"}, "name": "49d7f02c84bd00bc3151f9492f840789", "is_reserved": 0}, {"is_disabled": 0, "fusion_lon": 0.0, "fusion_lat": 0.0, "lat": 38.89372383333333, "type": "electric_scooter", "lon": -76.978199, "bike_id": "6246c17d1f57f898acab3f3bea28f4fd", "rental_uris": {"android": "https://dc.lft.to/lastmile_qr_scan", "ios": "https://dc.lft.to/lastmile_qr_scan"}, "name": "6246c17d1f57f898acab3f3bea28f4fd", "is_reserved": 0}, {"is_disabled": 0, "fusion_lon": 0.0, "fusion_lat": 0.0, "lat": 38.89311933333333, "type": "electric_scooter", "lon": -77.02207516666667, "bike_id": "e6be2dac6c057d58e3117ed089b636f1", "rental_uris": {"android": "https://dc.lft.to/lastmile_qr_scan", "ios": "https://dc.lft.to/lastmile_qr_scan"}, "name": "e6be2dac6c057d58e3117ed089b636f1", "is_reserved": 0}, {"is_disabled": 0, "fusion_lon": 0.0, "fusion_lat": 0.0, "lat": 38.90002716666667, "type": "electric_scooter", "lon": -77.03221983333333, "bike_id": "68ce8b90dcf53a54fd4055319d073aa1", "rental_uris": {"android": "https://dc.lft.to/lastmile_qr_scan", "ios": "https://dc.lft.to/lastmile_qr_scan"}, "name": "68ce8b90dcf53a54fd4055319d073aa1", "is_reserved": 0}, {"is_disabled": 0, "fusion_lon": 0.0, "fusion_lat": 0.0, "lat": 38.9589395, "type": "electric_bike", "lon": -76.92489133333333, "bike_id": "40cbb7ac3acfc30fc9807d7b80cd9e79", "rental_uris": {"android": "https://dc.lft.to/lastmile_qr_scan", "ios": "https://dc.lft.to/lastmile_qr_scan"}, "name": "40cbb7ac3acfc30fc9807d7b80cd9e79", "is_reserved": 0}, {"is_disabled": 0, "fusion_lon": 0.0, "fusion_lat": 0.0, "lat": 38.90529133333333, "type": "electric_scooter", "lon": -77.051427, "bike_id": "55788effae7978fc93a5b0cfeea3aa27", "rental_uris": {"android": "https://dc.lft.to/lastmile_qr_scan", "ios": "https://dc.lft.to/lastmile_qr_scan"}, "name": "55788effae7978fc93a5b0cfeea3aa27", "is_reserved": 0}, {"is_disabled": 0, "fusion_lon": 0.0, "fusion_lat": 0.0, "lat": 38.885337666666665, "type": "electric_scooter", "lon": -76.9980485, "bike_id": "5b994af5fb94031a46abd261caa62906", "rental_uris": {"android": "https://dc.lft.to/lastmile_qr_scan", "ios": "https://dc.lft.to/lastmile_qr_scan"}, "name": "5b994af5fb94031a46abd261caa62906", "is_reserved": 0}, {"is_disabled": 0, "fusion_lon": 0.0, "fusion_lat": 0.0, "lat": 38.9169375, "type": "electric_scooter", "lon": -77.02602433333334, "bike_id": "417a8b24fcdc29ec3b26a3c6187780a7", "rental_uris": {"android": "https://dc.lft.to/lastmile_qr_scan", "ios": "https://dc.lft.to/lastmile_qr_scan"}, "name": "417a8b24fcdc29ec3b26a3c6187780a7", "is_reserved": 0}, {"is_disabled": 0, "fusion_lon": 0.0, "fusion_lat": 0.0, "lat": 38.916582, "type": "electric_scooter", "lon": -77.046553, "bike_id": "d3803b80c88407df0db5fb89d3b3427f", "rental_uris": {"android": "https://dc.lft.to/lastmile_qr_scan", "ios": "https://dc.lft.to/lastmile_qr_scan"}, "name": "d3803b80c88407df0db5fb89d3b3427f", "is_reserved": 0}, {"is_disabled": 0, "fusion_lon": 0.0, "fusion_lat": 0.0, "lat": 38.858711666666665, "type": "electric_scooter", "lon": -76.99025883333333, "bike_id": "90021617a1bfc7c7183fa77940e9ac63", "rental_uris": {"android": "https://dc.lft.to/lastmile_qr_scan", "ios": "https://dc.lft.to/lastmile_qr_scan"}, "name": "90021617a1bfc7c7183fa77940e9ac63", "is_reserved": 0}, {"is_disabled": 0, "fusion_lon": 0.0, "fusion_lat": 0.0, "lat": 38.909618333333334, "type": "electric_scooter", "lon": -77.03429466666667, "bike_id": "d58db064dc52e1e38a9b5051878fe0cf", "rental_uris": {"android": "https://dc.lft.to/lastmile_qr_scan", "ios": "https://dc.lft.to/lastmile_qr_scan"}, "name": "d58db064dc52e1e38a9b5051878fe0cf", "is_reserved": 0}, {"is_disabled": 0, "fusion_lon": 0.0, "fusion_lat": 0.0, "lat": 38.960271, "type": "electric_bike", "lon": -76.92732533333333, "bike_id": "2914aea495c335d5fe7f4e5a998e722f", "rental_uris": {"android": "https://dc.lft.to/lastmile_qr_scan", "ios": "https://dc.lft.to/lastmile_qr_scan"}, "name": "2914aea495c335d5fe7f4e5a998e722f", "is_reserved": 0}, {"is_disabled": 0, "fusion_lon": 0.0, "fusion_lat": 0.0, "lat": 38.90713083333333, "type": "electric_scooter", "lon": -77.034357, "bike_id": "576dea2270c1079546819563e61b739b", "rental_uris": {"android": "https://dc.lft.to/lastmile_qr_scan", "ios": "https://dc.lft.to/lastmile_qr_scan"}, "name": "576dea2270c1079546819563e61b739b", "is_reserved": 0}, {"is_disabled": 0, "fusion_lon": 0.0, "fusion_lat": 0.0, "lat": 38.90768816666667, "type": "electric_scooter", "lon": -77.03187416666667, "bike_id": "d082edfbd4c362851dff8016253d5276", "rental_uris": {"android": "https://dc.lft.to/lastmile_qr_scan", "ios": "https://dc.lft.to/lastmile_qr_scan"}, "name": "d082edfbd4c362851dff8016253d5276", "is_reserved": 0}, {"is_disabled": 0, "fusion_lon": 0.0, "fusion_lat": 0.0, "lat": 38.907007166666666, "type": "electric_scooter", "lon": -77.06305633333334, "bike_id": "998c53682fe7f895d11d87de42df5613", "rental_uris": {"android": "https://dc.lft.to/lastmile_qr_scan", "ios": "https://dc.lft.to/lastmile_qr_scan"}, "name": "998c53682fe7f895d11d87de42df5613", "is_reserved": 0}, {"is_disabled": 0, "fusion_lon": 0.0, "fusion_lat": 0.0, "lat": 38.87756483333333, "type": "electric_bike", "lon": -76.9799715, "bike_id": "7f212f42e5898d7cf57ddb8a79c27be5", "rental_uris": {"android": "https://dc.lft.to/lastmile_qr_scan", "ios": "https://dc.lft.to/lastmile_qr_scan"}, "name": "7f212f42e5898d7cf57ddb8a79c27be5", "is_reserved": 0}, {"is_disabled": 0, "fusion_lon": 0.0, "fusion_lat": 0.0, "lat": 38.92575733333334, "type": "electric_scooter", "lon": -77.080574, "bike_id": "73cb8264d9f521bcb6050e6a5e278bf0", "rental_uris": {"android": "https://dc.lft.to/lastmile_qr_scan", "ios": "https://dc.lft.to/lastmile_qr_scan"}, "name": "73cb8264d9f521bcb6050e6a5e278bf0", "is_reserved": 0}, {"is_disabled": 0, "fusion_lon": 0.0, "fusion_lat": 0.0, "lat": 38.93967983333334, "type": "electric_bike", "lon": -77.36096833333333, "bike_id": "1f815739ba8458930eded3ccc58d247a", "rental_uris": {"android": "https://dc.lft.to/lastmile_qr_scan", "ios": "https://dc.lft.to/lastmile_qr_scan"}, "name": "1f815739ba8458930eded3ccc58d247a", "is_reserved": 0}, {"is_disabled": 0, "fusion_lon": 0.0, "fusion_lat": 0.0, "lat": 38.924641666666666, "type": "electric_scooter", "lon": -77.07865516666666, "bike_id": "adac3f73102d6ec83ad6dac4393b7b0e", "rental_uris": {"android": "https://dc.lft.to/lastmile_qr_scan", "ios": "https://dc.lft.to/lastmile_qr_scan"}, "name": "adac3f73102d6ec83ad6dac4393b7b0e", "is_reserved": 0}, {"is_disabled": 0, "fusion_lon": 0.0, "fusion_lat": 0.0, "lat": 38.92284633333333, "type": "electric_scooter", "lon": -77.04463566666666, "bike_id": "49c38cf05f32da5ddaf4317fefb5da5a", "rental_uris": {"android": "https://dc.lft.to/lastmile_qr_scan", "ios": "https://dc.lft.to/lastmile_qr_scan"}, "name": "49c38cf05f32da5ddaf4317fefb5da5a", "is_reserved": 0}, {"is_disabled": 0, "fusion_lon": 0.0, "fusion_lat": 0.0, "lat": 38.90287033333333, "type": "electric_scooter", "lon": -77.04887216666667, "bike_id": "36336aead682c76cda60bf8809dbb6ae", "rental_uris": {"android": "https://dc.lft.to/lastmile_qr_scan", "ios": "https://dc.lft.to/lastmile_qr_scan"}, "name": "36336aead682c76cda60bf8809dbb6ae", "is_reserved": 0}, {"is_disabled": 0, "fusion_lon": 0.0, "fusion_lat": 0.0, "lat": 38.90578133333333, "type": "electric_scooter", "lon": -77.0559995, "bike_id": "266110cf56eb383357a06d348d1e9c96", "rental_uris": {"android": "https://dc.lft.to/lastmile_qr_scan", "ios": "https://dc.lft.to/lastmile_qr_scan"}, "name": "266110cf56eb383357a06d348d1e9c96", "is_reserved": 0}, {"is_disabled": 0, "fusion_lon": 0.0, "fusion_lat": 0.0, "lat": 38.914625666666666, "type": "electric_scooter", "lon": -76.984455, "bike_id": "8570ed47e2990b8246ca14160113d426", "rental_uris": {"android": "https://dc.lft.to/lastmile_qr_scan", "ios": "https://dc.lft.to/lastmile_qr_scan"}, "name": "8570ed47e2990b8246ca14160113d426", "is_reserved": 0}, {"is_disabled": 0, "fusion_lon": 0.0, "fusion_lat": 0.0, "lat": 38.895460666666665, "type": "electric_scooter", "lon": -77.0485075, "bike_id": "039045c4bac4c792a7f81232558d2c66", "rental_uris": {"android": "https://dc.lft.to/lastmile_qr_scan", "ios": "https://dc.lft.to/lastmile_qr_scan"}, "name": "039045c4bac4c792a7f81232558d2c66", "is_reserved": 0}, {"is_disabled": 0, "fusion_lon": 0.0, "fusion_lat": 0.0, "lat": 38.9407015, "type": "electric_scooter", "lon": -77.0287665, "bike_id": "d0589c9afbf50035afc2c70449958026", "rental_uris": {"android": "https://dc.lft.to/lastmile_qr_scan", "ios": "https://dc.lft.to/lastmile_qr_scan"}, "name": "d0589c9afbf50035afc2c70449958026", "is_reserved": 0}, {"is_disabled": 0, "fusion_lon": 0.0, "fusion_lat": 0.0, "lat": 38.90735816666667, "type": "electric_scooter", "lon": -77.02963283333334, "bike_id": "d424763b7df372b7a160aa3e43e27452", "rental_uris": {"android": "https://dc.lft.to/lastmile_qr_scan", "ios": "https://dc.lft.to/lastmile_qr_scan"}, "name": "d424763b7df372b7a160aa3e43e27452", "is_reserved": 0}, {"is_disabled": 0, "fusion_lon": 0.0, "fusion_lat": 0.0, "lat": 38.92116566666667, "type": "electric_scooter", "lon": -77.017699, "bike_id": "bad00b99d6034fe4dc984ff0bfdda438", "rental_uris": {"android": "https://dc.lft.to/lastmile_qr_scan", "ios": "https://dc.lft.to/lastmile_qr_scan"}, "name": "bad00b99d6034fe4dc984ff0bfdda438", "is_reserved": 0}, {"is_disabled": 0, "fusion_lon": 0.0, "fusion_lat": 0.0, "lat": 38.888810166666666, "type": "electric_scooter", "lon": -77.028619, "bike_id": "c95999dc1a16f5b22fa3f77ef5642293", "rental_uris": {"android": "https://dc.lft.to/lastmile_qr_scan", "ios": "https://dc.lft.to/lastmile_qr_scan"}, "name": "c95999dc1a16f5b22fa3f77ef5642293", "is_reserved": 0}, {"is_disabled": 0, "fusion_lon": 0.0, "fusion_lat": 0.0, "lat": 38.969189, "type": "electric_bike", "lon": -77.02615316666666, "bike_id": "8b8b2456cc468bd9c0375b45e049aebf", "rental_uris": {"android": "https://dc.lft.to/lastmile_qr_scan", "ios": "https://dc.lft.to/lastmile_qr_scan"}, "name": "8b8b2456cc468bd9c0375b45e049aebf", "is_reserved": 0}, {"is_disabled": 0, "fusion_lon": 0.0, "fusion_lat": 0.0, "lat": 38.91650933333333, "type": "electric_scooter", "lon": -77.03447316666667, "bike_id": "3218396db34d8bcd8b9af6a7f8415eab", "rental_uris": {"android": "https://dc.lft.to/lastmile_qr_scan", "ios": "https://dc.lft.to/lastmile_qr_scan"}, "name": "3218396db34d8bcd8b9af6a7f8415eab", "is_reserved": 0}, {"is_disabled": 0, "fusion_lon": 0.0, "fusion_lat": 0.0, "lat": 38.905556, "type": "electric_scooter", "lon": -77.020032, "bike_id": "5ffff64772632c45727aea9afcaada54", "rental_uris": {"android": "https://dc.lft.to/lastmile_qr_scan", "ios": "https://dc.lft.to/lastmile_qr_scan"}, "name": "5ffff64772632c45727aea9afcaada54", "is_reserved": 0}, {"is_disabled": 0, "fusion_lon": 0.0, "fusion_lat": 0.0, "lat": 38.9128845, "type": "electric_scooter", "lon": -76.98699466666666, "bike_id": "eb7ef8772543ee1aafee73e901beab70", "rental_uris": {"android": "https://dc.lft.to/lastmile_qr_scan", "ios": "https://dc.lft.to/lastmile_qr_scan"}, "name": "eb7ef8772543ee1aafee73e901beab70", "is_reserved": 0}, {"is_disabled": 0, "fusion_lon": 0.0, "fusion_lat": 0.0, "lat": 38.887553, "type": "electric_scooter", "lon": -76.99621816666667, "bike_id": "b623ad1883e4eda3e46d81407cab5e36", "rental_uris": {"android": "https://dc.lft.to/lastmile_qr_scan", "ios": "https://dc.lft.to/lastmile_qr_scan"}, "name": "b623ad1883e4eda3e46d81407cab5e36", "is_reserved": 0}, {"is_disabled": 0, "fusion_lon": 0.0, "fusion_lat": 0.0, "lat": 38.89912066666667, "type": "electric_scooter", "lon": -76.93392583333333, "bike_id": "48e84f8a415c05349eb9a86119dab933", "rental_uris": {"android": "https://dc.lft.to/lastmile_qr_scan", "ios": "https://dc.lft.to/lastmile_qr_scan"}, "name": "48e84f8a415c05349eb9a86119dab933", "is_reserved": 0}, {"is_disabled": 0, "fusion_lon": 0.0, "fusion_lat": 0.0, "lat": 38.905389, "type": "electric_scooter", "lon": -77.05699783333333, "bike_id": "22354d2ceee3c6c7c899e97610e5a660", "rental_uris": {"android": "https://dc.lft.to/lastmile_qr_scan", "ios": "https://dc.lft.to/lastmile_qr_scan"}, "name": "22354d2ceee3c6c7c899e97610e5a660", "is_reserved": 0}, {"is_disabled": 0, "fusion_lon": 0.0, "fusion_lat": 0.0, "lat": 38.916817333333334, "type": "electric_scooter", "lon": -77.02986233333333, "bike_id": "671b0fadc63a643d5685c1fc52a4071b", "rental_uris": {"android": "https://dc.lft.to/lastmile_qr_scan", "ios": "https://dc.lft.to/lastmile_qr_scan"}, "name": "671b0fadc63a643d5685c1fc52a4071b", "is_reserved": 0}, {"is_disabled": 0, "fusion_lon": 0.0, "fusion_lat": 0.0, "lat": 38.91192233333334, "type": "electric_scooter", "lon": -77.03927216666666, "bike_id": "18d429657be092152fc4b33ffbc39e5f", "rental_uris": {"android": "https://dc.lft.to/lastmile_qr_scan", "ios": "https://dc.lft.to/lastmile_qr_scan"}, "name": "18d429657be092152fc4b33ffbc39e5f", "is_reserved": 0}, {"is_disabled": 0, "fusion_lon": 0.0, "fusion_lat": 0.0, "lat": 38.876801666666665, "type": "electric_scooter", "lon": -77.01786316666667, "bike_id": "de34ce2c06789539722a61bf50c0d898", "rental_uris": {"android": "https://dc.lft.to/lastmile_qr_scan", "ios": "https://dc.lft.to/lastmile_qr_scan"}, "name": "de34ce2c06789539722a61bf50c0d898", "is_reserved": 0}, {"is_disabled": 0, "fusion_lon": 0.0, "fusion_lat": 0.0, "lat": 38.891998, "type": "electric_scooter", "lon": -76.98813566666666, "bike_id": "3ab9b7fb0f90b1c04b2f5146ea28b5d6", "rental_uris": {"android": "https://dc.lft.to/lastmile_qr_scan", "ios": "https://dc.lft.to/lastmile_qr_scan"}, "name": "3ab9b7fb0f90b1c04b2f5146ea28b5d6", "is_reserved": 0}, {"is_disabled": 0, "fusion_lon": 0.0, "fusion_lat": 0.0, "lat": 38.92412983333333, "type": "electric_scooter", "lon": -77.056347, "bike_id": "4eeb6f621fc35c1cc86a60bad4e312ad", "rental_uris": {"android": "https://dc.lft.to/lastmile_qr_scan", "ios": "https://dc.lft.to/lastmile_qr_scan"}, "name": "4eeb6f621fc35c1cc86a60bad4e312ad", "is_reserved": 0}, {"is_disabled": 0, "fusion_lon": 0.0, "fusion_lat": 0.0, "lat": 38.918523666666665, "type": "electric_scooter", "lon": -77.02953966666666, "bike_id": "c0ad01d04f659964c4a1eb4023f134a0", "rental_uris": {"android": "https://dc.lft.to/lastmile_qr_scan", "ios": "https://dc.lft.to/lastmile_qr_scan"}, "name": "c0ad01d04f659964c4a1eb4023f134a0", "is_reserved": 0}, {"is_disabled": 0, "fusion_lon": 0.0, "fusion_lat": 0.0, "lat": 38.914710166666666, "type": "electric_scooter", "lon": -77.044113, "bike_id": "33167149c8e653abf500953b56f43abb", "rental_uris": {"android": "https://dc.lft.to/lastmile_qr_scan", "ios": "https://dc.lft.to/lastmile_qr_scan"}, "name": "33167149c8e653abf500953b56f43abb", "is_reserved": 0}, {"is_disabled": 0, "fusion_lon": 0.0, "fusion_lat": 0.0, "lat": 38.98663783333333, "type": "electric_scooter", "lon": -77.02649733333334, "bike_id": "05137fbfedbc4daf5d715f1a115c16ac", "rental_uris": {"android": "https://dc.lft.to/lastmile_qr_scan", "ios": "https://dc.lft.to/lastmile_qr_scan"}, "name": "05137fbfedbc4daf5d715f1a115c16ac", "is_reserved": 0}, {"is_disabled": 0, "fusion_lon": 0.0, "fusion_lat": 0.0, "lat": 38.92137066666667, "type": "electric_scooter", "lon": -77.009216, "bike_id": "b40e99a723992a42cd7b9e017338c30f", "rental_uris": {"android": "https://dc.lft.to/lastmile_qr_scan", "ios": "https://dc.lft.to/lastmile_qr_scan"}, "name": "b40e99a723992a42cd7b9e017338c30f", "is_reserved": 0}, {"is_disabled": 0, "fusion_lon": 0.0, "fusion_lat": 0.0, "lat": 38.864652166666666, "type": "electric_scooter", "lon": -76.99611866666666, "bike_id": "7624d4b60dc279cca818423dd2c78c3e", "rental_uris": {"android": "https://dc.lft.to/lastmile_qr_scan", "ios": "https://dc.lft.to/lastmile_qr_scan"}, "name": "7624d4b60dc279cca818423dd2c78c3e", "is_reserved": 0}, {"is_disabled": 0, "fusion_lon": 0.0, "fusion_lat": 0.0, "lat": 38.92922083333333, "type": "electric_scooter", "lon": -77.02148233333334, "bike_id": "81cb930c9eadcc76ac5258cc3a6555a5", "rental_uris": {"android": "https://dc.lft.to/lastmile_qr_scan", "ios": "https://dc.lft.to/lastmile_qr_scan"}, "name": "81cb930c9eadcc76ac5258cc3a6555a5", "is_reserved": 0}, {"is_disabled": 0, "fusion_lon": 0.0, "fusion_lat": 0.0, "lat": 38.880031, "type": "electric_scooter", "lon": -77.024252, "bike_id": "c2dd032e02c607d5d9a4e30c5edd0bdd", "rental_uris": {"android": "https://dc.lft.to/lastmile_qr_scan", "ios": "https://dc.lft.to/lastmile_qr_scan"}, "name": "c2dd032e02c607d5d9a4e30c5edd0bdd", "is_reserved": 0}, {"is_disabled": 0, "fusion_lon": 0.0, "fusion_lat": 0.0, "lat": 38.87484416666667, "type": "electric_scooter", "lon": -76.998015, "bike_id": "3b0c7620f642fa9de3414acc4fb04dcb", "rental_uris": {"android": "https://dc.lft.to/lastmile_qr_scan", "ios": "https://dc.lft.to/lastmile_qr_scan"}, "name": "3b0c7620f642fa9de3414acc4fb04dcb", "is_reserved": 0}, {"is_disabled": 0, "fusion_lon": 0.0, "fusion_lat": 0.0, "lat": 38.90737016666667, "type": "electric_scooter", "lon": -77.02416783333334, "bike_id": "cc855c1ec2b4d2f00e423955cacc6217", "rental_uris": {"android": "https://dc.lft.to/lastmile_qr_scan", "ios": "https://dc.lft.to/lastmile_qr_scan"}, "name": "cc855c1ec2b4d2f00e423955cacc6217", "is_reserved": 0}, {"is_disabled": 0, "fusion_lon": 0.0, "fusion_lat": 0.0, "lat": 38.919209333333335, "type": "electric_scooter", "lon": -77.04486733333333, "bike_id": "10cd7b48777a83f1dc902ecb39a94d44", "rental_uris": {"android": "https://dc.lft.to/lastmile_qr_scan", "ios": "https://dc.lft.to/lastmile_qr_scan"}, "name": "10cd7b48777a83f1dc902ecb39a94d44", "is_reserved": 0}, {"is_disabled": 0, "fusion_lon": 0.0, "fusion_lat": 0.0, "lat": 38.93073233333333, "type": "electric_scooter", "lon": -77.03803866666667, "bike_id": "87123a8d1c34b7e5aedebe7d0ec30b51", "rental_uris": {"android": "https://dc.lft.to/lastmile_qr_scan", "ios": "https://dc.lft.to/lastmile_qr_scan"}, "name": "87123a8d1c34b7e5aedebe7d0ec30b51", "is_reserved": 0}, {"is_disabled": 0, "fusion_lon": 0.0, "fusion_lat": 0.0, "lat": 38.931009833333334, "type": "electric_scooter", "lon": -77.0245655, "bike_id": "28bae8e7d0ada1cb556a8e0bcf7e30e9", "rental_uris": {"android": "https://dc.lft.to/lastmile_qr_scan", "ios": "https://dc.lft.to/lastmile_qr_scan"}, "name": "28bae8e7d0ada1cb556a8e0bcf7e30e9", "is_reserved": 0}, {"is_disabled": 0, "fusion_lon": 0.0, "fusion_lat": 0.0, "lat": 38.902556833333335, "type": "electric_scooter", "lon": -77.000179, "bike_id": "aab887b5b1af6a320104b2f7366ff282", "rental_uris": {"android": "https://dc.lft.to/lastmile_qr_scan", "ios": "https://dc.lft.to/lastmile_qr_scan"}, "name": "aab887b5b1af6a320104b2f7366ff282", "is_reserved": 0}, {"is_disabled": 0, "fusion_lon": 0.0, "fusion_lat": 0.0, "lat": 38.945781333333336, "type": "electric_bike", "lon": -76.9877795, "bike_id": "85284fff51d6d998ca2dd3dd09d26881", "rental_uris": {"android": "https://dc.lft.to/lastmile_qr_scan", "ios": "https://dc.lft.to/lastmile_qr_scan"}, "name": "85284fff51d6d998ca2dd3dd09d26881", "is_reserved": 0}, {"is_disabled": 0, "fusion_lon": 0.0, "fusion_lat": 0.0, "lat": 38.9105395, "type": "electric_scooter", "lon": -77.05449633333333, "bike_id": "94683fda0fe50b96b08ae797fc8b90a7", "rental_uris": {"android": "https://dc.lft.to/lastmile_qr_scan", "ios": "https://dc.lft.to/lastmile_qr_scan"}, "name": "94683fda0fe50b96b08ae797fc8b90a7", "is_reserved": 0}, {"is_disabled": 0, "fusion_lon": 0.0, "fusion_lat": 0.0, "lat": 38.936416666666666, "type": "electric_bike", "lon": -76.95458416666666, "bike_id": "27907f91bc86c1198c88d8d655dbad9a", "rental_uris": {"android": "https://dc.lft.to/lastmile_qr_scan", "ios": "https://dc.lft.to/lastmile_qr_scan"}, "name": "27907f91bc86c1198c88d8d655dbad9a", "is_reserved": 0}, {"is_disabled": 0, "fusion_lon": 0.0, "fusion_lat": 0.0, "lat": 38.90479533333333, "type": "electric_scooter", "lon": -77.03566016666667, "bike_id": "1d32cea5bed8f60b961a40354d480820", "rental_uris": {"android": "https://dc.lft.to/lastmile_qr_scan", "ios": "https://dc.lft.to/lastmile_qr_scan"}, "name": "1d32cea5bed8f60b961a40354d480820", "is_reserved": 0}, {"is_disabled": 0, "fusion_lon": 0.0, "fusion_lat": 0.0, "lat": 38.911798, "type": "electric_scooter", "lon": -77.04151583333334, "bike_id": "d9ee40c0b338629d72e8623c70c2c56a", "rental_uris": {"android": "https://dc.lft.to/lastmile_qr_scan", "ios": "https://dc.lft.to/lastmile_qr_scan"}, "name": "d9ee40c0b338629d72e8623c70c2c56a", "is_reserved": 0}, {"is_disabled": 0, "fusion_lon": 0.0, "fusion_lat": 0.0, "lat": 38.905784833333335, "type": "electric_scooter", "lon": -77.02203633333333, "bike_id": "28875e2e325435c6b98c8b49bf48175e", "rental_uris": {"android": "https://dc.lft.to/lastmile_qr_scan", "ios": "https://dc.lft.to/lastmile_qr_scan"}, "name": "28875e2e325435c6b98c8b49bf48175e", "is_reserved": 0}, {"is_disabled": 0, "fusion_lon": 0.0, "fusion_lat": 0.0, "lat": 38.890024333333336, "type": "electric_scooter", "lon": -77.04901016666666, "bike_id": "62fc60fb7d77c9e5438f8a3ec4458d0c", "rental_uris": {"android": "https://dc.lft.to/lastmile_qr_scan", "ios": "https://dc.lft.to/lastmile_qr_scan"}, "name": "62fc60fb7d77c9e5438f8a3ec4458d0c", "is_reserved": 0}, {"is_disabled": 0, "fusion_lon": 0.0, "fusion_lat": 0.0, "lat": 38.930670166666665, "type": "electric_scooter", "lon": -77.03193583333334, "bike_id": "f0b0fa8fded5fb72d018bcfb9b6e2119", "rental_uris": {"android": "https://dc.lft.to/lastmile_qr_scan", "ios": "https://dc.lft.to/lastmile_qr_scan"}, "name": "f0b0fa8fded5fb72d018bcfb9b6e2119", "is_reserved": 0}, {"is_disabled": 0, "fusion_lon": 0.0, "fusion_lat": 0.0, "lat": 38.9096745, "type": "electric_scooter", "lon": -77.03368783333333, "bike_id": "1ed9b975f22f9263a211d77b8ef77624", "rental_uris": {"android": "https://dc.lft.to/lastmile_qr_scan", "ios": "https://dc.lft.to/lastmile_qr_scan"}, "name": "1ed9b975f22f9263a211d77b8ef77624", "is_reserved": 0}, {"is_disabled": 0, "fusion_lon": 0.0, "fusion_lat": 0.0, "lat": 38.921557166666666, "type": "electric_scooter", "lon": -77.03360533333333, "bike_id": "e6510974f584222dfaf4cb3e0acc4dbb", "rental_uris": {"android": "https://dc.lft.to/lastmile_qr_scan", "ios": "https://dc.lft.to/lastmile_qr_scan"}, "name": "e6510974f584222dfaf4cb3e0acc4dbb", "is_reserved": 0}, {"is_disabled": 0, "fusion_lon": 0.0, "fusion_lat": 0.0, "lat": 38.90142066666667, "type": "electric_scooter", "lon": -77.02649616666666, "bike_id": "6540dda9c8bda595ba651479349d0ccf", "rental_uris": {"android": "https://dc.lft.to/lastmile_qr_scan", "ios": "https://dc.lft.to/lastmile_qr_scan"}, "name": "6540dda9c8bda595ba651479349d0ccf", "is_reserved": 0}, {"is_disabled": 0, "fusion_lon": 0.0, "fusion_lat": 0.0, "lat": 38.823911, "type": "electric_scooter", "lon": -77.00685183333333, "bike_id": "50331c648883f459d539c0207951aa56", "rental_uris": {"android": "https://dc.lft.to/lastmile_qr_scan", "ios": "https://dc.lft.to/lastmile_qr_scan"}, "name": "50331c648883f459d539c0207951aa56", "is_reserved": 0}, {"is_disabled": 0, "fusion_lon": 0.0, "fusion_lat": 0.0, "lat": 38.89695716666667, "type": "electric_scooter", "lon": -77.03040633333333, "bike_id": "6a69b24588da915f866dbde73b16cb1e", "rental_uris": {"android": "https://dc.lft.to/lastmile_qr_scan", "ios": "https://dc.lft.to/lastmile_qr_scan"}, "name": "6a69b24588da915f866dbde73b16cb1e", "is_reserved": 0}, {"is_disabled": 0, "fusion_lon": 0.0, "fusion_lat": 0.0, "lat": 38.87921866666667, "type": "electric_scooter", "lon": -76.99167866666667, "bike_id": "9f48a7982e8f1521b7b5637793999ba2", "rental_uris": {"android": "https://dc.lft.to/lastmile_qr_scan", "ios": "https://dc.lft.to/lastmile_qr_scan"}, "name": "9f48a7982e8f1521b7b5637793999ba2", "is_reserved": 0}, {"is_disabled": 0, "fusion_lon": 0.0, "fusion_lat": 0.0, "lat": 38.96282433333333, "type": "electric_bike", "lon": -77.02872366666666, "bike_id": "ceb4b4f20bd1d58df449f3ba5aad29b4", "rental_uris": {"android": "https://dc.lft.to/lastmile_qr_scan", "ios": "https://dc.lft.to/lastmile_qr_scan"}, "name": "ceb4b4f20bd1d58df449f3ba5aad29b4", "is_reserved": 0}, {"is_disabled": 0, "fusion_lon": 0.0, "fusion_lat": 0.0, "lat": 38.90795966666667, "type": "electric_scooter", "lon": -77.0498765, "bike_id": "5cd806baf2c05a69d26f2a2ecfdd61e4", "rental_uris": {"android": "https://dc.lft.to/lastmile_qr_scan", "ios": "https://dc.lft.to/lastmile_qr_scan"}, "name": "5cd806baf2c05a69d26f2a2ecfdd61e4", "is_reserved": 0}, {"is_disabled": 0, "fusion_lon": 0.0, "fusion_lat": 0.0, "lat": 38.897449, "type": "electric_scooter", "lon": -77.02852183333333, "bike_id": "cf675f15be7aff16b8b35a6b8412ce0f", "rental_uris": {"android": "https://dc.lft.to/lastmile_qr_scan", "ios": "https://dc.lft.to/lastmile_qr_scan"}, "name": "cf675f15be7aff16b8b35a6b8412ce0f", "is_reserved": 0}, {"is_disabled": 0, "fusion_lon": 0.0, "fusion_lat": 0.0, "lat": 39.099483, "type": "electric_bike", "lon": -77.18792233333333, "bike_id": "15ea898c9e56008ebc68557670127e53", "rental_uris": {"android": "https://dc.lft.to/lastmile_qr_scan", "ios": "https://dc.lft.to/lastmile_qr_scan"}, "name": "15ea898c9e56008ebc68557670127e53", "is_reserved": 0}, {"is_disabled": 0, "fusion_lon": 0.0, "fusion_lat": 0.0, "lat": 38.921601, "type": "electric_scooter", "lon": -77.03383433333333, "bike_id": "040e3f4cdcf71f3c1d04ac6abc001d22", "rental_uris": {"android": "https://dc.lft.to/lastmile_qr_scan", "ios": "https://dc.lft.to/lastmile_qr_scan"}, "name": "040e3f4cdcf71f3c1d04ac6abc001d22", "is_reserved": 0}, {"is_disabled": 0, "fusion_lon": 0.0, "fusion_lat": 0.0, "lat": 38.8946465, "type": "electric_scooter", "lon": -76.99489583333333, "bike_id": "5837f2489b34f9469c996653f075711b", "rental_uris": {"android": "https://dc.lft.to/lastmile_qr_scan", "ios": "https://dc.lft.to/lastmile_qr_scan"}, "name": "5837f2489b34f9469c996653f075711b", "is_reserved": 0}, {"is_disabled": 0, "fusion_lon": 0.0, "fusion_lat": 0.0, "lat": 38.9351645, "type": "electric_bike", "lon": -76.94956916666666, "bike_id": "92bbe906d8ee2b64ca018d9fa8dbbb07", "rental_uris": {"android": "https://dc.lft.to/lastmile_qr_scan", "ios": "https://dc.lft.to/lastmile_qr_scan"}, "name": "92bbe906d8ee2b64ca018d9fa8dbbb07", "is_reserved": 0}, {"is_disabled": 0, "fusion_lon": 0.0, "fusion_lat": 0.0, "lat": 38.907123, "type": "electric_scooter", "lon": -77.0298165, "bike_id": "3a1324815d3b0b929fee696595eac62e", "rental_uris": {"android": "https://dc.lft.to/lastmile_qr_scan", "ios": "https://dc.lft.to/lastmile_qr_scan"}, "name": "3a1324815d3b0b929fee696595eac62e", "is_reserved": 0}, {"is_disabled": 0, "fusion_lon": 0.0, "fusion_lat": 0.0, "lat": 38.886314666666664, "type": "electric_scooter", "lon": -76.9985555, "bike_id": "e1bf468a58f275ad70b9cdf71a96bb9b", "rental_uris": {"android": "https://dc.lft.to/lastmile_qr_scan", "ios": "https://dc.lft.to/lastmile_qr_scan"}, "name": "e1bf468a58f275ad70b9cdf71a96bb9b", "is_reserved": 0}, {"is_disabled": 0, "fusion_lon": 0.0, "fusion_lat": 0.0, "lat": 38.838144166666666, "type": "electric_scooter", "lon": -77.00433766666667, "bike_id": "05e4ac47fabab69dbbeb30bde49ee356", "rental_uris": {"android": "https://dc.lft.to/lastmile_qr_scan", "ios": "https://dc.lft.to/lastmile_qr_scan"}, "name": "05e4ac47fabab69dbbeb30bde49ee356", "is_reserved": 0}, {"is_disabled": 0, "fusion_lon": 0.0, "fusion_lat": 0.0, "lat": 38.89515733333333, "type": "electric_scooter", "lon": -77.01099366666666, "bike_id": "d3e417fa0893c049883ad61f2267bfb9", "rental_uris": {"android": "https://dc.lft.to/lastmile_qr_scan", "ios": "https://dc.lft.to/lastmile_qr_scan"}, "name": "d3e417fa0893c049883ad61f2267bfb9", "is_reserved": 0}, {"is_disabled": 0, "fusion_lon": 0.0, "fusion_lat": 0.0, "lat": 38.84290333333333, "type": "electric_scooter", "lon": -76.99950216666667, "bike_id": "5fef74c8fa44f659bd3a4f1d491cc9b3", "rental_uris": {"android": "https://dc.lft.to/lastmile_qr_scan", "ios": "https://dc.lft.to/lastmile_qr_scan"}, "name": "5fef74c8fa44f659bd3a4f1d491cc9b3", "is_reserved": 0}, {"is_disabled": 0, "fusion_lon": 0.0, "fusion_lat": 0.0, "lat": 38.87339566666667, "type": "electric_bike", "lon": -77.01858416666667, "bike_id": "9cfecb334a4e45e544995d348a445d74", "rental_uris": {"android": "https://dc.lft.to/lastmile_qr_scan", "ios": "https://dc.lft.to/lastmile_qr_scan"}, "name": "9cfecb334a4e45e544995d348a445d74", "is_reserved": 0}, {"is_disabled": 0, "fusion_lon": 0.0, "fusion_lat": 0.0, "lat": 38.898462, "type": "electric_scooter", "lon": -76.94635866666667, "bike_id": "bf68a5fa227c0ead6b888dfae32e6c39", "rental_uris": {"android": "https://dc.lft.to/lastmile_qr_scan", "ios": "https://dc.lft.to/lastmile_qr_scan"}, "name": "bf68a5fa227c0ead6b888dfae32e6c39", "is_reserved": 0}, {"is_disabled": 0, "fusion_lon": 0.0, "fusion_lat": 0.0, "lat": 38.907832166666665, "type": "electric_scooter", "lon": -77.04107733333333, "bike_id": "436169891bc6af504ad439eb5b2ead80", "rental_uris": {"android": "https://dc.lft.to/lastmile_qr_scan", "ios": "https://dc.lft.to/lastmile_qr_scan"}, "name": "436169891bc6af504ad439eb5b2ead80", "is_reserved": 0}, {"is_disabled": 0, "fusion_lon": 0.0, "fusion_lat": 0.0, "lat": 38.91255616666667, "type": "electric_scooter", "lon": -77.00934066666667, "bike_id": "8fd50407ee27c96e12c3e2336bdd7289", "rental_uris": {"android": "https://dc.lft.to/lastmile_qr_scan", "ios": "https://dc.lft.to/lastmile_qr_scan"}, "name": "8fd50407ee27c96e12c3e2336bdd7289", "is_reserved": 0}, {"is_disabled": 0, "fusion_lon": 0.0, "fusion_lat": 0.0, "lat": 38.95091583333333, "type": "electric_bike", "lon": -76.965642, "bike_id": "5318c4a21dc646428c134daf19846b2e", "rental_uris": {"android": "https://dc.lft.to/lastmile_qr_scan", "ios": "https://dc.lft.to/lastmile_qr_scan"}, "name": "5318c4a21dc646428c134daf19846b2e", "is_reserved": 0}, {"is_disabled": 0, "fusion_lon": 0.0, "fusion_lat": 0.0, "lat": 38.911197333333334, "type": "electric_scooter", "lon": -77.042083, "bike_id": "af0f52670116b7a0537e79ec91bebf23", "rental_uris": {"android": "https://dc.lft.to/lastmile_qr_scan", "ios": "https://dc.lft.to/lastmile_qr_scan"}, "name": "af0f52670116b7a0537e79ec91bebf23", "is_reserved": 0}, {"is_disabled": 0, "fusion_lon": 0.0, "fusion_lat": 0.0, "lat": 38.903106333333334, "type": "electric_scooter", "lon": -76.98246916666666, "bike_id": "61eaf51e06ac78f1df04a3b3860e6967", "rental_uris": {"android": "https://dc.lft.to/lastmile_qr_scan", "ios": "https://dc.lft.to/lastmile_qr_scan"}, "name": "61eaf51e06ac78f1df04a3b3860e6967", "is_reserved": 0}, {"is_disabled": 0, "fusion_lon": 0.0, "fusion_lat": 0.0, "lat": 38.917018166666665, "type": "electric_scooter", "lon": -77.02992333333333, "bike_id": "b2e66ac89bcaee4c03cc4f0a3c054c67", "rental_uris": {"android": "https://dc.lft.to/lastmile_qr_scan", "ios": "https://dc.lft.to/lastmile_qr_scan"}, "name": "b2e66ac89bcaee4c03cc4f0a3c054c67", "is_reserved": 0}, {"is_disabled": 0, "fusion_lon": 0.0, "fusion_lat": 0.0, "lat": 39.00788083333333, "type": "electric_bike", "lon": -76.995769, "bike_id": "b5ee233cab0031a91771ba5fc7d65ffb", "rental_uris": {"android": "https://dc.lft.to/lastmile_qr_scan", "ios": "https://dc.lft.to/lastmile_qr_scan"}, "name": "b5ee233cab0031a91771ba5fc7d65ffb", "is_reserved": 0}, {"is_disabled": 0, "fusion_lon": 0.0, "fusion_lat": 0.0, "lat": 38.904392666666666, "type": "electric_scooter", "lon": -77.022482, "bike_id": "6a112b84c95c841e0040e89045e69528", "rental_uris": {"android": "https://dc.lft.to/lastmile_qr_scan", "ios": "https://dc.lft.to/lastmile_qr_scan"}, "name": "6a112b84c95c841e0040e89045e69528", "is_reserved": 0}, {"is_disabled": 0, "fusion_lon": 0.0, "fusion_lat": 0.0, "lat": 38.834360333333336, "type": "electric_bike", "lon": -77.10357633333334, "bike_id": "2dfe56877cd206300d6122bba06995b3", "rental_uris": {"android": "https://dc.lft.to/lastmile_qr_scan", "ios": "https://dc.lft.to/lastmile_qr_scan"}, "name": "2dfe56877cd206300d6122bba06995b3", "is_reserved": 0}, {"is_disabled": 0, "fusion_lon": 0.0, "fusion_lat": 0.0, "lat": 38.900688333333335, "type": "electric_scooter", "lon": -77.0491685, "bike_id": "b158e2ce00d747ffe14650de06ee7676", "rental_uris": {"android": "https://dc.lft.to/lastmile_qr_scan", "ios": "https://dc.lft.to/lastmile_qr_scan"}, "name": "b158e2ce00d747ffe14650de06ee7676", "is_reserved": 0}, {"is_disabled": 0, "fusion_lon": 0.0, "fusion_lat": 0.0, "lat": 38.90638633333333, "type": "electric_scooter", "lon": -77.0455325, "bike_id": "8fbbf66feb1bb49f06083974ca28ad8a", "rental_uris": {"android": "https://dc.lft.to/lastmile_qr_scan", "ios": "https://dc.lft.to/lastmile_qr_scan"}, "name": "8fbbf66feb1bb49f06083974ca28ad8a", "is_reserved": 0}, {"is_disabled": 0, "fusion_lon": 0.0, "fusion_lat": 0.0, "lat": 38.905156166666664, "type": "electric_scooter", "lon": -76.9825265, "bike_id": "014d4a0527bfde0684e1eaa7a92bc804", "rental_uris": {"android": "https://dc.lft.to/lastmile_qr_scan", "ios": "https://dc.lft.to/lastmile_qr_scan"}, "name": "014d4a0527bfde0684e1eaa7a92bc804", "is_reserved": 0}, {"is_disabled": 0, "fusion_lon": 0.0, "fusion_lat": 0.0, "lat": 38.911169666666666, "type": "electric_scooter", "lon": -77.04461166666667, "bike_id": "218d93a55db06c1d539a7cba79c4f2f2", "rental_uris": {"android": "https://dc.lft.to/lastmile_qr_scan", "ios": "https://dc.lft.to/lastmile_qr_scan"}, "name": "218d93a55db06c1d539a7cba79c4f2f2", "is_reserved": 0}, {"is_disabled": 0, "fusion_lon": 0.0, "fusion_lat": 0.0, "lat": 38.939648, "type": "electric_scooter", "lon": -77.03268116666666, "bike_id": "8cfebe2e8cf321c391df5ddce6eaf0a9", "rental_uris": {"android": "https://dc.lft.to/lastmile_qr_scan", "ios": "https://dc.lft.to/lastmile_qr_scan"}, "name": "8cfebe2e8cf321c391df5ddce6eaf0a9", "is_reserved": 0}, {"is_disabled": 0, "fusion_lon": 0.0, "fusion_lat": 0.0, "lat": 38.91693266666667, "type": "electric_scooter", "lon": -77.02599783333334, "bike_id": "4d56b8afd32969b0f0cda0e8ae7dbbbe", "rental_uris": {"android": "https://dc.lft.to/lastmile_qr_scan", "ios": "https://dc.lft.to/lastmile_qr_scan"}, "name": "4d56b8afd32969b0f0cda0e8ae7dbbbe", "is_reserved": 0}, {"is_disabled": 0, "fusion_lon": 0.0, "fusion_lat": 0.0, "lat": 38.89646916666667, "type": "electric_scooter", "lon": -77.00925983333333, "bike_id": "d6f086046eeac6151860eca476e4ab87", "rental_uris": {"android": "https://dc.lft.to/lastmile_qr_scan", "ios": "https://dc.lft.to/lastmile_qr_scan"}, "name": "d6f086046eeac6151860eca476e4ab87", "is_reserved": 0}, {"is_disabled": 0, "fusion_lon": 0.0, "fusion_lat": 0.0, "lat": 38.8689095, "type": "electric_scooter", "lon": -76.9831725, "bike_id": "97e18fa3636f7cc386a1185521599ac6", "rental_uris": {"android": "https://dc.lft.to/lastmile_qr_scan", "ios": "https://dc.lft.to/lastmile_qr_scan"}, "name": "97e18fa3636f7cc386a1185521599ac6", "is_reserved": 0}, {"is_disabled": 0, "fusion_lon": 0.0, "fusion_lat": 0.0, "lat": 38.914624833333335, "type": "electric_scooter", "lon": -77.0280125, "bike_id": "3bf42478f7f1331340568b69d453566f", "rental_uris": {"android": "https://dc.lft.to/lastmile_qr_scan", "ios": "https://dc.lft.to/lastmile_qr_scan"}, "name": "3bf42478f7f1331340568b69d453566f", "is_reserved": 0}, {"is_disabled": 0, "fusion_lon": 0.0, "fusion_lat": 0.0, "lat": 38.88008133333334, "type": "electric_bike", "lon": -76.9159355, "bike_id": "df32325d3753850bf65a61b6ab361a40", "rental_uris": {"android": "https://dc.lft.to/lastmile_qr_scan", "ios": "https://dc.lft.to/lastmile_qr_scan"}, "name": "df32325d3753850bf65a61b6ab361a40", "is_reserved": 0}, {"is_disabled": 0, "fusion_lon": 0.0, "fusion_lat": 0.0, "lat": 38.99456683333333, "type": "electric_bike", "lon": -76.90817916666667, "bike_id": "1940eaf2949a7aedbc9aa58e7454b4fb", "rental_uris": {"android": "https://dc.lft.to/lastmile_qr_scan", "ios": "https://dc.lft.to/lastmile_qr_scan"}, "name": "1940eaf2949a7aedbc9aa58e7454b4fb", "is_reserved": 0}, {"is_disabled": 0, "fusion_lon": 0.0, "fusion_lat": 0.0, "lat": 38.919261666666664, "type": "electric_scooter", "lon": -77.0313035, "bike_id": "a9a09568877f0c354d5d62c0b5f654cb", "rental_uris": {"android": "https://dc.lft.to/lastmile_qr_scan", "ios": "https://dc.lft.to/lastmile_qr_scan"}, "name": "a9a09568877f0c354d5d62c0b5f654cb", "is_reserved": 0}, {"is_disabled": 0, "fusion_lon": 0.0, "fusion_lat": 0.0, "lat": 38.903302, "type": "electric_scooter", "lon": -77.02889933333333, "bike_id": "690006faa68120e64239f9e2beeb4f20", "rental_uris": {"android": "https://dc.lft.to/lastmile_qr_scan", "ios": "https://dc.lft.to/lastmile_qr_scan"}, "name": "690006faa68120e64239f9e2beeb4f20", "is_reserved": 0}, {"is_disabled": 0, "fusion_lon": 0.0, "fusion_lat": 0.0, "lat": 38.8598825, "type": "electric_bike", "lon": -76.97054816666666, "bike_id": "69a6fc45ebae0bdb112ece7ce55d63a3", "rental_uris": {"android": "https://dc.lft.to/lastmile_qr_scan", "ios": "https://dc.lft.to/lastmile_qr_scan"}, "name": "69a6fc45ebae0bdb112ece7ce55d63a3", "is_reserved": 0}, {"is_disabled": 0, "fusion_lon": 0.0, "fusion_lat": 0.0, "lat": 38.9370695, "type": "electric_scooter", "lon": -77.06105033333333, "bike_id": "c83a42f725cf2a22d64c61f7b847c437", "rental_uris": {"android": "https://dc.lft.to/lastmile_qr_scan", "ios": "https://dc.lft.to/lastmile_qr_scan"}, "name": "c83a42f725cf2a22d64c61f7b847c437", "is_reserved": 0}, {"is_disabled": 0, "fusion_lon": 0.0, "fusion_lat": 0.0, "lat": 38.9050215, "type": "electric_scooter", "lon": -76.99527966666666, "bike_id": "d581e52a16fe6462bc4f78b6ed0d9060", "rental_uris": {"android": "https://dc.lft.to/lastmile_qr_scan", "ios": "https://dc.lft.to/lastmile_qr_scan"}, "name": "d581e52a16fe6462bc4f78b6ed0d9060", "is_reserved": 0}, {"is_disabled": 0, "fusion_lon": 0.0, "fusion_lat": 0.0, "lat": 38.918555, "type": "electric_bike", "lon": -76.960879, "bike_id": "69b48c7201aa3bac43700c86c0878f6b", "rental_uris": {"android": "https://dc.lft.to/lastmile_qr_scan", "ios": "https://dc.lft.to/lastmile_qr_scan"}, "name": "69b48c7201aa3bac43700c86c0878f6b", "is_reserved": 0}, {"is_disabled": 0, "fusion_lon": 0.0, "fusion_lat": 0.0, "lat": 38.9155965, "type": "electric_scooter", "lon": -77.03843366666666, "bike_id": "bfeb1b6c3eee7b386e142ac0aab0cf04", "rental_uris": {"android": "https://dc.lft.to/lastmile_qr_scan", "ios": "https://dc.lft.to/lastmile_qr_scan"}, "name": "bfeb1b6c3eee7b386e142ac0aab0cf04", "is_reserved": 0}, {"is_disabled": 0, "fusion_lon": 0.0, "fusion_lat": 0.0, "lat": 38.93827366666667, "type": "electric_scooter", "lon": -77.02796433333333, "bike_id": "a008b72729f7e07ee8789d06787999a6", "rental_uris": {"android": "https://dc.lft.to/lastmile_qr_scan", "ios": "https://dc.lft.to/lastmile_qr_scan"}, "name": "a008b72729f7e07ee8789d06787999a6", "is_reserved": 0}, {"is_disabled": 0, "fusion_lon": 0.0, "fusion_lat": 0.0, "lat": 38.9291255, "type": "electric_scooter", "lon": -77.02267516666667, "bike_id": "bf75d94a8921fe539b168a173c4a912b", "rental_uris": {"android": "https://dc.lft.to/lastmile_qr_scan", "ios": "https://dc.lft.to/lastmile_qr_scan"}, "name": "bf75d94a8921fe539b168a173c4a912b", "is_reserved": 0}, {"is_disabled": 0, "fusion_lon": 0.0, "fusion_lat": 0.0, "lat": 38.9035855, "type": "electric_scooter", "lon": -77.00731733333333, "bike_id": "5c2c3e7da5ef130560fc54868030ed02", "rental_uris": {"android": "https://dc.lft.to/lastmile_qr_scan", "ios": "https://dc.lft.to/lastmile_qr_scan"}, "name": "5c2c3e7da5ef130560fc54868030ed02", "is_reserved": 0}, {"is_disabled": 0, "fusion_lon": 0.0, "fusion_lat": 0.0, "lat": 38.916049666666666, "type": "electric_scooter", "lon": -77.0233685, "bike_id": "65f7e62cb6cda574daeefd39eaa1220e", "rental_uris": {"android": "https://dc.lft.to/lastmile_qr_scan", "ios": "https://dc.lft.to/lastmile_qr_scan"}, "name": "65f7e62cb6cda574daeefd39eaa1220e", "is_reserved": 0}, {"is_disabled": 0, "fusion_lon": 0.0, "fusion_lat": 0.0, "lat": 38.907490333333335, "type": "electric_scooter", "lon": -77.03852283333333, "bike_id": "2a449e356df055316405d04587ce5134", "rental_uris": {"android": "https://dc.lft.to/lastmile_qr_scan", "ios": "https://dc.lft.to/lastmile_qr_scan"}, "name": "2a449e356df055316405d04587ce5134", "is_reserved": 0}, {"is_disabled": 0, "fusion_lon": 0.0, "fusion_lat": 0.0, "lat": 38.880065, "type": "electric_scooter", "lon": -77.02424166666667, "bike_id": "52a1f2abd7b1c10176a79beed839ad63", "rental_uris": {"android": "https://dc.lft.to/lastmile_qr_scan", "ios": "https://dc.lft.to/lastmile_qr_scan"}, "name": "52a1f2abd7b1c10176a79beed839ad63", "is_reserved": 0}, {"is_disabled": 0, "fusion_lon": 0.0, "fusion_lat": 0.0, "lat": 38.916270833333336, "type": "electric_scooter", "lon": -77.04630383333334, "bike_id": "045207210a75f642f4e18d9ac6ca8e36", "rental_uris": {"android": "https://dc.lft.to/lastmile_qr_scan", "ios": "https://dc.lft.to/lastmile_qr_scan"}, "name": "045207210a75f642f4e18d9ac6ca8e36", "is_reserved": 0}, {"is_disabled": 0, "fusion_lon": 0.0, "fusion_lat": 0.0, "lat": 38.91808283333334, "type": "electric_scooter", "lon": -77.02449716666666, "bike_id": "21d027b630ed3dd388a7f05cdd827cb0", "rental_uris": {"android": "https://dc.lft.to/lastmile_qr_scan", "ios": "https://dc.lft.to/lastmile_qr_scan"}, "name": "21d027b630ed3dd388a7f05cdd827cb0", "is_reserved": 0}, {"is_disabled": 0, "fusion_lon": 0.0, "fusion_lat": 0.0, "lat": 38.920371833333334, "type": "electric_scooter", "lon": -77.02589266666666, "bike_id": "173e2bb95d184c0b0b43e9ae6f4a886c", "rental_uris": {"android": "https://dc.lft.to/lastmile_qr_scan", "ios": "https://dc.lft.to/lastmile_qr_scan"}, "name": "173e2bb95d184c0b0b43e9ae6f4a886c", "is_reserved": 0}, {"is_disabled": 0, "fusion_lon": 0.0, "fusion_lat": 0.0, "lat": 38.9181305, "type": "electric_scooter", "lon": -77.02692583333334, "bike_id": "6b239384e3ad2dc39e7c19c7ed265191", "rental_uris": {"android": "https://dc.lft.to/lastmile_qr_scan", "ios": "https://dc.lft.to/lastmile_qr_scan"}, "name": "6b239384e3ad2dc39e7c19c7ed265191", "is_reserved": 0}, {"is_disabled": 0, "fusion_lon": 0.0, "fusion_lat": 0.0, "lat": 38.9562935, "type": "electric_scooter", "lon": -77.0246055, "bike_id": "e46511859990518102e684fe30a0f52a", "rental_uris": {"android": "https://dc.lft.to/lastmile_qr_scan", "ios": "https://dc.lft.to/lastmile_qr_scan"}, "name": "e46511859990518102e684fe30a0f52a", "is_reserved": 0}, {"is_disabled": 0, "fusion_lon": 0.0, "fusion_lat": 0.0, "lat": 38.92054133333333, "type": "electric_scooter", "lon": -77.04192533333334, "bike_id": "1efd2ba1ae8760c8ecfef6fdfe6c1fef", "rental_uris": {"android": "https://dc.lft.to/lastmile_qr_scan", "ios": "https://dc.lft.to/lastmile_qr_scan"}, "name": "1efd2ba1ae8760c8ecfef6fdfe6c1fef", "is_reserved": 0}, {"is_disabled": 0, "fusion_lon": 0.0, "fusion_lat": 0.0, "lat": 38.90640366666667, "type": "electric_scooter", "lon": -76.985671, "bike_id": "cdf05f0cb7ea4b4f16850059e94fae87", "rental_uris": {"android": "https://dc.lft.to/lastmile_qr_scan", "ios": "https://dc.lft.to/lastmile_qr_scan"}, "name": "cdf05f0cb7ea4b4f16850059e94fae87", "is_reserved": 0}, {"is_disabled": 0, "fusion_lon": 0.0, "fusion_lat": 0.0, "lat": 38.90404733333333, "type": "electric_scooter", "lon": -77.04888916666667, "bike_id": "9dd81ad7ea5d3bd22e76d1a0c01fcfd5", "rental_uris": {"android": "https://dc.lft.to/lastmile_qr_scan", "ios": "https://dc.lft.to/lastmile_qr_scan"}, "name": "9dd81ad7ea5d3bd22e76d1a0c01fcfd5", "is_reserved": 0}, {"is_disabled": 0, "fusion_lon": 0.0, "fusion_lat": 0.0, "lat": 39.02687233333333, "type": "electric_bike", "lon": -77.12598983333334, "bike_id": "dcfab5e20d831c353e9327c5bf649749", "rental_uris": {"android": "https://dc.lft.to/lastmile_qr_scan", "ios": "https://dc.lft.to/lastmile_qr_scan"}, "name": "dcfab5e20d831c353e9327c5bf649749", "is_reserved": 0}, {"is_disabled": 0, "fusion_lon": 0.0, "fusion_lat": 0.0, "lat": 38.90138683333333, "type": "electric_scooter", "lon": -76.98966916666667, "bike_id": "4d8c97602edcfe3715b34599dd6b261c", "rental_uris": {"android": "https://dc.lft.to/lastmile_qr_scan", "ios": "https://dc.lft.to/lastmile_qr_scan"}, "name": "4d8c97602edcfe3715b34599dd6b261c", "is_reserved": 0}, {"is_disabled": 0, "fusion_lon": 0.0, "fusion_lat": 0.0, "lat": 38.913851666666666, "type": "electric_scooter", "lon": -77.0460625, "bike_id": "2e9209d97c3ca64806add8a7f997f476", "rental_uris": {"android": "https://dc.lft.to/lastmile_qr_scan", "ios": "https://dc.lft.to/lastmile_qr_scan"}, "name": "2e9209d97c3ca64806add8a7f997f476", "is_reserved": 0}, {"is_disabled": 0, "fusion_lon": 0.0, "fusion_lat": 0.0, "lat": 38.89847366666667, "type": "electric_scooter", "lon": -77.03349933333334, "bike_id": "1117d50aa1783c2fb360d8d706a759eb", "rental_uris": {"android": "https://dc.lft.to/lastmile_qr_scan", "ios": "https://dc.lft.to/lastmile_qr_scan"}, "name": "1117d50aa1783c2fb360d8d706a759eb", "is_reserved": 0}, {"is_disabled": 0, "fusion_lon": 0.0, "fusion_lat": 0.0, "lat": 38.921484, "type": "electric_scooter", "lon": -77.0351175, "bike_id": "553c479ea6be61a14ae2f98a853baf78", "rental_uris": {"android": "https://dc.lft.to/lastmile_qr_scan", "ios": "https://dc.lft.to/lastmile_qr_scan"}, "name": "553c479ea6be61a14ae2f98a853baf78", "is_reserved": 0}, {"is_disabled": 0, "fusion_lon": 0.0, "fusion_lat": 0.0, "lat": 38.923170166666665, "type": "electric_scooter", "lon": -77.04009683333334, "bike_id": "bf1df2222a1279e8d45686e70f5681c9", "rental_uris": {"android": "https://dc.lft.to/lastmile_qr_scan", "ios": "https://dc.lft.to/lastmile_qr_scan"}, "name": "bf1df2222a1279e8d45686e70f5681c9", "is_reserved": 0}, {"is_disabled": 0, "fusion_lon": 0.0, "fusion_lat": 0.0, "lat": 38.92162233333333, "type": "electric_scooter", "lon": -77.0339235, "bike_id": "cd8145768aed03093ee6360eab8d6892", "rental_uris": {"android": "https://dc.lft.to/lastmile_qr_scan", "ios": "https://dc.lft.to/lastmile_qr_scan"}, "name": "cd8145768aed03093ee6360eab8d6892", "is_reserved": 0}, {"is_disabled": 0, "fusion_lon": 0.0, "fusion_lat": 0.0, "lat": 38.90024833333333, "type": "electric_scooter", "lon": -77.05223083333334, "bike_id": "e55e851bc6821c14a26bfa732e46c795", "rental_uris": {"android": "https://dc.lft.to/lastmile_qr_scan", "ios": "https://dc.lft.to/lastmile_qr_scan"}, "name": "e55e851bc6821c14a26bfa732e46c795", "is_reserved": 0}, {"is_disabled": 0, "fusion_lon": 0.0, "fusion_lat": 0.0, "lat": 38.89236116666667, "type": "electric_scooter", "lon": -77.04676516666666, "bike_id": "778fe96e901d506101bd2ee2d56a62fa", "rental_uris": {"android": "https://dc.lft.to/lastmile_qr_scan", "ios": "https://dc.lft.to/lastmile_qr_scan"}, "name": "778fe96e901d506101bd2ee2d56a62fa", "is_reserved": 0}, {"is_disabled": 0, "fusion_lon": 0.0, "fusion_lat": 0.0, "lat": 38.935487, "type": "electric_scooter", "lon": -77.03408366666666, "bike_id": "fd719f6a25e65627a39add84e017c512", "rental_uris": {"android": "https://dc.lft.to/lastmile_qr_scan", "ios": "https://dc.lft.to/lastmile_qr_scan"}, "name": "fd719f6a25e65627a39add84e017c512", "is_reserved": 0}, {"is_disabled": 0, "fusion_lon": 0.0, "fusion_lat": 0.0, "lat": 38.90472033333333, "type": "electric_scooter", "lon": -76.9920945, "bike_id": "1f2dfd4a55a96d6af8e805533e7268d7", "rental_uris": {"android": "https://dc.lft.to/lastmile_qr_scan", "ios": "https://dc.lft.to/lastmile_qr_scan"}, "name": "1f2dfd4a55a96d6af8e805533e7268d7", "is_reserved": 0}, {"is_disabled": 0, "fusion_lon": 0.0, "fusion_lat": 0.0, "lat": 38.922597333333336, "type": "electric_scooter", "lon": -77.0713575, "bike_id": "aff71ae784a74ef2a565d4f4aa9654ef", "rental_uris": {"android": "https://dc.lft.to/lastmile_qr_scan", "ios": "https://dc.lft.to/lastmile_qr_scan"}, "name": "aff71ae784a74ef2a565d4f4aa9654ef", "is_reserved": 0}, {"is_disabled": 0, "fusion_lon": 0.0, "fusion_lat": 0.0, "lat": 38.911490666666666, "type": "electric_scooter", "lon": -76.9850365, "bike_id": "1bd78ae471aa5c0813e5e5681d560eca", "rental_uris": {"android": "https://dc.lft.to/lastmile_qr_scan", "ios": "https://dc.lft.to/lastmile_qr_scan"}, "name": "1bd78ae471aa5c0813e5e5681d560eca", "is_reserved": 0}, {"is_disabled": 0, "fusion_lon": 0.0, "fusion_lat": 0.0, "lat": 38.89481333333333, "type": "electric_scooter", "lon": -77.022936, "bike_id": "76994e2a57f09c3ab1604029b9fc49c9", "rental_uris": {"android": "https://dc.lft.to/lastmile_qr_scan", "ios": "https://dc.lft.to/lastmile_qr_scan"}, "name": "76994e2a57f09c3ab1604029b9fc49c9", "is_reserved": 0}, {"is_disabled": 0, "fusion_lon": 0.0, "fusion_lat": 0.0, "lat": 38.897454833333335, "type": "electric_scooter", "lon": -77.04681066666667, "bike_id": "0c87b8d22efab3a5ed8c15d3b6217058", "rental_uris": {"android": "https://dc.lft.to/lastmile_qr_scan", "ios": "https://dc.lft.to/lastmile_qr_scan"}, "name": "0c87b8d22efab3a5ed8c15d3b6217058", "is_reserved": 0}, {"is_disabled": 0, "fusion_lon": 0.0, "fusion_lat": 0.0, "lat": 38.907287333333336, "type": "electric_scooter", "lon": -77.03835966666666, "bike_id": "86698549671399d62ecda064d2f60ce6", "rental_uris": {"android": "https://dc.lft.to/lastmile_qr_scan", "ios": "https://dc.lft.to/lastmile_qr_scan"}, "name": "86698549671399d62ecda064d2f60ce6", "is_reserved": 0}, {"is_disabled": 0, "fusion_lon": 0.0, "fusion_lat": 0.0, "lat": 38.9241305, "type": "electric_scooter", "lon": -77.04163, "bike_id": "b6ac9463719f97c374ed26ad1b92f117", "rental_uris": {"android": "https://dc.lft.to/lastmile_qr_scan", "ios": "https://dc.lft.to/lastmile_qr_scan"}, "name": "b6ac9463719f97c374ed26ad1b92f117", "is_reserved": 0}, {"is_disabled": 0, "fusion_lon": 0.0, "fusion_lat": 0.0, "lat": 38.90361716666666, "type": "electric_scooter", "lon": -77.050118, "bike_id": "6de5a28e20444d50d2e8c2e7802e1ac8", "rental_uris": {"android": "https://dc.lft.to/lastmile_qr_scan", "ios": "https://dc.lft.to/lastmile_qr_scan"}, "name": "6de5a28e20444d50d2e8c2e7802e1ac8", "is_reserved": 0}, {"is_disabled": 0, "fusion_lon": 0.0, "fusion_lat": 0.0, "lat": 38.93766016666667, "type": "electric_scooter", "lon": -77.03083466666666, "bike_id": "f6b26c789a298df9346197e73ffe16cd", "rental_uris": {"android": "https://dc.lft.to/lastmile_qr_scan", "ios": "https://dc.lft.to/lastmile_qr_scan"}, "name": "f6b26c789a298df9346197e73ffe16cd", "is_reserved": 0}, {"is_disabled": 0, "fusion_lon": 0.0, "fusion_lat": 0.0, "lat": 38.93008366666667, "type": "electric_scooter", "lon": -77.07846016666667, "bike_id": "c70548e23d79953a0730a8667731019b", "rental_uris": {"android": "https://dc.lft.to/lastmile_qr_scan", "ios": "https://dc.lft.to/lastmile_qr_scan"}, "name": "c70548e23d79953a0730a8667731019b", "is_reserved": 0}, {"is_disabled": 0, "fusion_lon": 0.0, "fusion_lat": 0.0, "lat": 38.92827883333333, "type": "electric_scooter", "lon": -77.05438483333333, "bike_id": "b012e3900b4dc6a5a3b9a691c114ffe2", "rental_uris": {"android": "https://dc.lft.to/lastmile_qr_scan", "ios": "https://dc.lft.to/lastmile_qr_scan"}, "name": "b012e3900b4dc6a5a3b9a691c114ffe2", "is_reserved": 0}, {"is_disabled": 0, "fusion_lon": 0.0, "fusion_lat": 0.0, "lat": 38.905726, "type": "electric_scooter", "lon": -77.005979, "bike_id": "561fdb01c18de58506a3944d95f12d29", "rental_uris": {"android": "https://dc.lft.to/lastmile_qr_scan", "ios": "https://dc.lft.to/lastmile_qr_scan"}, "name": "561fdb01c18de58506a3944d95f12d29", "is_reserved": 0}, {"is_disabled": 0, "fusion_lon": 0.0, "fusion_lat": 0.0, "lat": 38.85838233333333, "type": "electric_bike", "lon": -76.99284033333333, "bike_id": "38f7feae543148cad519c5a67da08f03", "rental_uris": {"android": "https://dc.lft.to/lastmile_qr_scan", "ios": "https://dc.lft.to/lastmile_qr_scan"}, "name": "38f7feae543148cad519c5a67da08f03", "is_reserved": 0}, {"is_disabled": 0, "fusion_lon": 0.0, "fusion_lat": 0.0, "lat": 38.91170833333334, "type": "electric_scooter", "lon": -77.00459283333333, "bike_id": "445ccac3b7c01af48436a35594063dfc", "rental_uris": {"android": "https://dc.lft.to/lastmile_qr_scan", "ios": "https://dc.lft.to/lastmile_qr_scan"}, "name": "445ccac3b7c01af48436a35594063dfc", "is_reserved": 0}, {"is_disabled": 0, "fusion_lon": 0.0, "fusion_lat": 0.0, "lat": 38.879823, "type": "electric_bike", "lon": -76.916023, "bike_id": "c7fd4bf9f82b25805304d9c355c4a3be", "rental_uris": {"android": "https://dc.lft.to/lastmile_qr_scan", "ios": "https://dc.lft.to/lastmile_qr_scan"}, "name": "c7fd4bf9f82b25805304d9c355c4a3be", "is_reserved": 0}, {"is_disabled": 0, "fusion_lon": 0.0, "fusion_lat": 0.0, "lat": 38.897362333333334, "type": "electric_scooter", "lon": -77.04812833333334, "bike_id": "cbcd2716cae7e399f881e1c58760f1df", "rental_uris": {"android": "https://dc.lft.to/lastmile_qr_scan", "ios": "https://dc.lft.to/lastmile_qr_scan"}, "name": "cbcd2716cae7e399f881e1c58760f1df", "is_reserved": 0}, {"is_disabled": 0, "fusion_lon": 0.0, "fusion_lat": 0.0, "lat": 38.966510666666665, "type": "electric_bike", "lon": -76.93024966666667, "bike_id": "acba8534171ba2063e4ee4ad011f6f02", "rental_uris": {"android": "https://dc.lft.to/lastmile_qr_scan", "ios": "https://dc.lft.to/lastmile_qr_scan"}, "name": "acba8534171ba2063e4ee4ad011f6f02", "is_reserved": 0}, {"is_disabled": 0, "fusion_lon": 0.0, "fusion_lat": 0.0, "lat": 38.916145, "type": "electric_scooter", "lon": -77.046015, "bike_id": "9f6939a607cb81ea75b6555c52c99f44", "rental_uris": {"android": "https://dc.lft.to/lastmile_qr_scan", "ios": "https://dc.lft.to/lastmile_qr_scan"}, "name": "9f6939a607cb81ea75b6555c52c99f44", "is_reserved": 0}, {"is_disabled": 0, "fusion_lon": 0.0, "fusion_lat": 0.0, "lat": 38.9027095, "type": "electric_scooter", "lon": -77.0344695, "bike_id": "5f07e3659705e62f902b3173123db550", "rental_uris": {"android": "https://dc.lft.to/lastmile_qr_scan", "ios": "https://dc.lft.to/lastmile_qr_scan"}, "name": "5f07e3659705e62f902b3173123db550", "is_reserved": 0}, {"is_disabled": 0, "fusion_lon": 0.0, "fusion_lat": 0.0, "lat": 38.89355666666667, "type": "electric_scooter", "lon": -77.022259, "bike_id": "74fc050817847c7437e2d5eb2401cd4a", "rental_uris": {"android": "https://dc.lft.to/lastmile_qr_scan", "ios": "https://dc.lft.to/lastmile_qr_scan"}, "name": "74fc050817847c7437e2d5eb2401cd4a", "is_reserved": 0}, {"is_disabled": 0, "fusion_lon": 0.0, "fusion_lat": 0.0, "lat": 38.91484916666667, "type": "electric_scooter", "lon": -77.03247333333333, "bike_id": "0a5d3181b3183049f4165438ae18a3b6", "rental_uris": {"android": "https://dc.lft.to/lastmile_qr_scan", "ios": "https://dc.lft.to/lastmile_qr_scan"}, "name": "0a5d3181b3183049f4165438ae18a3b6", "is_reserved": 0}, {"is_disabled": 0, "fusion_lon": 0.0, "fusion_lat": 0.0, "lat": 38.880718333333334, "type": "electric_scooter", "lon": -77.01666883333333, "bike_id": "6ed6cca16595f45a05f625c0356f1039", "rental_uris": {"android": "https://dc.lft.to/lastmile_qr_scan", "ios": "https://dc.lft.to/lastmile_qr_scan"}, "name": "6ed6cca16595f45a05f625c0356f1039", "is_reserved": 0}, {"is_disabled": 0, "fusion_lon": 0.0, "fusion_lat": 0.0, "lat": 38.953798, "type": "electric_scooter", "lon": -77.02559783333334, "bike_id": "7647706eed4d68b7f2f27f9ca19c4b91", "rental_uris": {"android": "https://dc.lft.to/lastmile_qr_scan", "ios": "https://dc.lft.to/lastmile_qr_scan"}, "name": "7647706eed4d68b7f2f27f9ca19c4b91", "is_reserved": 0}, {"is_disabled": 0, "fusion_lon": 0.0, "fusion_lat": 0.0, "lat": 38.92248166666667, "type": "electric_scooter", "lon": -77.03083366666667, "bike_id": "7acb8fef7a28c1032bd169374e5a8e1e", "rental_uris": {"android": "https://dc.lft.to/lastmile_qr_scan", "ios": "https://dc.lft.to/lastmile_qr_scan"}, "name": "7acb8fef7a28c1032bd169374e5a8e1e", "is_reserved": 0}, {"is_disabled": 0, "fusion_lon": 0.0, "fusion_lat": 0.0, "lat": 38.916291333333334, "type": "electric_bike", "lon": -77.013607, "bike_id": "3d93d80d9fdaf78e0ace0f0b4731d5ff", "rental_uris": {"android": "https://dc.lft.to/lastmile_qr_scan", "ios": "https://dc.lft.to/lastmile_qr_scan"}, "name": "3d93d80d9fdaf78e0ace0f0b4731d5ff", "is_reserved": 0}, {"is_disabled": 0, "fusion_lon": 0.0, "fusion_lat": 0.0, "lat": 38.90379733333333, "type": "electric_scooter", "lon": -77.03192666666666, "bike_id": "1534494738c8d6509e7c254548812560", "rental_uris": {"android": "https://dc.lft.to/lastmile_qr_scan", "ios": "https://dc.lft.to/lastmile_qr_scan"}, "name": "1534494738c8d6509e7c254548812560", "is_reserved": 0}, {"is_disabled": 0, "fusion_lon": 0.0, "fusion_lat": 0.0, "lat": 38.96504816666667, "type": "electric_scooter", "lon": -77.0248205, "bike_id": "5762604f3bf987c1fb58b8899aa33fc2", "rental_uris": {"android": "https://dc.lft.to/lastmile_qr_scan", "ios": "https://dc.lft.to/lastmile_qr_scan"}, "name": "5762604f3bf987c1fb58b8899aa33fc2", "is_reserved": 0}, {"is_disabled": 0, "fusion_lon": 0.0, "fusion_lat": 0.0, "lat": 38.892245, "type": "electric_scooter", "lon": -77.03339183333334, "bike_id": "10c11253c0a11434e5dc8054e5381158", "rental_uris": {"android": "https://dc.lft.to/lastmile_qr_scan", "ios": "https://dc.lft.to/lastmile_qr_scan"}, "name": "10c11253c0a11434e5dc8054e5381158", "is_reserved": 0}, {"is_disabled": 0, "fusion_lon": 0.0, "fusion_lat": 0.0, "lat": 38.954002333333335, "type": "electric_scooter", "lon": -77.0275955, "bike_id": "b1e935f79d1fd114701bdcd1d4fac85f", "rental_uris": {"android": "https://dc.lft.to/lastmile_qr_scan", "ios": "https://dc.lft.to/lastmile_qr_scan"}, "name": "b1e935f79d1fd114701bdcd1d4fac85f", "is_reserved": 0}, {"is_disabled": 0, "fusion_lon": 0.0, "fusion_lat": 0.0, "lat": 38.920014, "type": "electric_scooter", "lon": -77.03225316666666, "bike_id": "a58c0c8f6403296c4477639e230c482e", "rental_uris": {"android": "https://dc.lft.to/lastmile_qr_scan", "ios": "https://dc.lft.to/lastmile_qr_scan"}, "name": "a58c0c8f6403296c4477639e230c482e", "is_reserved": 0}, {"is_disabled": 0, "fusion_lon": 0.0, "fusion_lat": 0.0, "lat": 38.893690666666664, "type": "electric_scooter", "lon": -77.02267116666667, "bike_id": "68974d5bb5ca03fbb982dd39ce1a8a0e", "rental_uris": {"android": "https://dc.lft.to/lastmile_qr_scan", "ios": "https://dc.lft.to/lastmile_qr_scan"}, "name": "68974d5bb5ca03fbb982dd39ce1a8a0e", "is_reserved": 0}, {"is_disabled": 0, "fusion_lon": 0.0, "fusion_lat": 0.0, "lat": 38.907152333333336, "type": "electric_scooter", "lon": -77.0306895, "bike_id": "2692e0f79b8df66e8c9ffbb2f13f72a1", "rental_uris": {"android": "https://dc.lft.to/lastmile_qr_scan", "ios": "https://dc.lft.to/lastmile_qr_scan"}, "name": "2692e0f79b8df66e8c9ffbb2f13f72a1", "is_reserved": 0}, {"is_disabled": 0, "fusion_lon": 0.0, "fusion_lat": 0.0, "lat": 38.827192, "type": "electric_bike", "lon": -77.008636, "bike_id": "b002b8340b205f658b54d92e4c375980", "rental_uris": {"android": "https://dc.lft.to/lastmile_qr_scan", "ios": "https://dc.lft.to/lastmile_qr_scan"}, "name": "b002b8340b205f658b54d92e4c375980", "is_reserved": 0}, {"is_disabled": 0, "fusion_lon": 0.0, "fusion_lat": 0.0, "lat": 38.896435, "type": "electric_scooter", "lon": -77.04333516666667, "bike_id": "4e59977a8cd52766dac5d729ee28eff1", "rental_uris": {"android": "https://dc.lft.to/lastmile_qr_scan", "ios": "https://dc.lft.to/lastmile_qr_scan"}, "name": "4e59977a8cd52766dac5d729ee28eff1", "is_reserved": 0}, {"is_disabled": 0, "fusion_lon": 0.0, "fusion_lat": 0.0, "lat": 38.89844433333333, "type": "electric_scooter", "lon": -77.03352983333333, "bike_id": "b83ecee0fcf190a1527d357ba8f5ea6a", "rental_uris": {"android": "https://dc.lft.to/lastmile_qr_scan", "ios": "https://dc.lft.to/lastmile_qr_scan"}, "name": "b83ecee0fcf190a1527d357ba8f5ea6a", "is_reserved": 0}, {"is_disabled": 0, "fusion_lon": 0.0, "fusion_lat": 0.0, "lat": 38.88864, "type": "electric_scooter", "lon": -76.9773905, "bike_id": "b5556ac96d7793e7ee4abd33e8f38f71", "rental_uris": {"android": "https://dc.lft.to/lastmile_qr_scan", "ios": "https://dc.lft.to/lastmile_qr_scan"}, "name": "b5556ac96d7793e7ee4abd33e8f38f71", "is_reserved": 0}, {"is_disabled": 0, "fusion_lon": 0.0, "fusion_lat": 0.0, "lat": 38.91083016666666, "type": "electric_scooter", "lon": -77.04443566666667, "bike_id": "632b017219dc56876499a09d3cdee80f", "rental_uris": {"android": "https://dc.lft.to/lastmile_qr_scan", "ios": "https://dc.lft.to/lastmile_qr_scan"}, "name": "632b017219dc56876499a09d3cdee80f", "is_reserved": 0}, {"is_disabled": 0, "fusion_lon": 0.0, "fusion_lat": 0.0, "lat": 38.935112833333335, "type": "electric_scooter", "lon": -77.023825, "bike_id": "ffe8bbfc9cba1abc2b665e89fc5a24fa", "rental_uris": {"android": "https://dc.lft.to/lastmile_qr_scan", "ios": "https://dc.lft.to/lastmile_qr_scan"}, "name": "ffe8bbfc9cba1abc2b665e89fc5a24fa", "is_reserved": 0}, {"is_disabled": 0, "fusion_lon": 0.0, "fusion_lat": 0.0, "lat": 38.920838, "type": "electric_bike", "lon": -77.00342633333334, "bike_id": "c6f49c0ebe56e00f4799f6fe14e60c45", "rental_uris": {"android": "https://dc.lft.to/lastmile_qr_scan", "ios": "https://dc.lft.to/lastmile_qr_scan"}, "name": "c6f49c0ebe56e00f4799f6fe14e60c45", "is_reserved": 0}, {"is_disabled": 0, "fusion_lon": 0.0, "fusion_lat": 0.0, "lat": 38.915433666666665, "type": "electric_scooter", "lon": -77.041779, "bike_id": "09392a508cdfc91b733dc67036788550", "rental_uris": {"android": "https://dc.lft.to/lastmile_qr_scan", "ios": "https://dc.lft.to/lastmile_qr_scan"}, "name": "09392a508cdfc91b733dc67036788550", "is_reserved": 0}, {"is_disabled": 0, "fusion_lon": 0.0, "fusion_lat": 0.0, "lat": 38.91195333333334, "type": "electric_scooter", "lon": -77.01211683333334, "bike_id": "7c6f3d4923169e030c654b8269b41e64", "rental_uris": {"android": "https://dc.lft.to/lastmile_qr_scan", "ios": "https://dc.lft.to/lastmile_qr_scan"}, "name": "7c6f3d4923169e030c654b8269b41e64", "is_reserved": 0}, {"is_disabled": 0, "fusion_lon": 0.0, "fusion_lat": 0.0, "lat": 38.89477883333333, "type": "electric_scooter", "lon": -77.02215183333334, "bike_id": "3835fb467b07d65784ee182fee8cfef6", "rental_uris": {"android": "https://dc.lft.to/lastmile_qr_scan", "ios": "https://dc.lft.to/lastmile_qr_scan"}, "name": "3835fb467b07d65784ee182fee8cfef6", "is_reserved": 0}, {"is_disabled": 0, "fusion_lon": 0.0, "fusion_lat": 0.0, "lat": 38.9062295, "type": "electric_scooter", "lon": -77.02823166666667, "bike_id": "da4b8240480c14593b6aeef526e5e26d", "rental_uris": {"android": "https://dc.lft.to/lastmile_qr_scan", "ios": "https://dc.lft.to/lastmile_qr_scan"}, "name": "da4b8240480c14593b6aeef526e5e26d", "is_reserved": 0}, {"is_disabled": 0, "fusion_lon": 0.0, "fusion_lat": 0.0, "lat": 38.892252166666665, "type": "electric_scooter", "lon": -77.02227233333333, "bike_id": "1195159e009a9e5d245d1f8aa89d2544", "rental_uris": {"android": "https://dc.lft.to/lastmile_qr_scan", "ios": "https://dc.lft.to/lastmile_qr_scan"}, "name": "1195159e009a9e5d245d1f8aa89d2544", "is_reserved": 0}, {"is_disabled": 0, "fusion_lon": 0.0, "fusion_lat": 0.0, "lat": 38.9370145, "type": "electric_scooter", "lon": -77.056016, "bike_id": "036ea686e81b2b709b77484e173342cd", "rental_uris": {"android": "https://dc.lft.to/lastmile_qr_scan", "ios": "https://dc.lft.to/lastmile_qr_scan"}, "name": "036ea686e81b2b709b77484e173342cd", "is_reserved": 0}, {"is_disabled": 0, "fusion_lon": 0.0, "fusion_lat": 0.0, "lat": 38.85649383333333, "type": "electric_bike", "lon": -77.08531516666666, "bike_id": "90fc8e078dafc5f4f96bde4f0ee40f03", "rental_uris": {"android": "https://dc.lft.to/lastmile_qr_scan", "ios": "https://dc.lft.to/lastmile_qr_scan"}, "name": "90fc8e078dafc5f4f96bde4f0ee40f03", "is_reserved": 0}, {"is_disabled": 0, "fusion_lon": 0.0, "fusion_lat": 0.0, "lat": 38.849358333333335, "type": "electric_bike", "lon": -77.1001365, "bike_id": "32b8c6b9591a19d7b708a9a3f15b9cf8", "rental_uris": {"android": "https://dc.lft.to/lastmile_qr_scan", "ios": "https://dc.lft.to/lastmile_qr_scan"}, "name": "32b8c6b9591a19d7b708a9a3f15b9cf8", "is_reserved": 0}, {"is_disabled": 0, "fusion_lon": 0.0, "fusion_lat": 0.0, "lat": 38.903809333333335, "type": "electric_scooter", "lon": -77.05368583333333, "bike_id": "156b100a6d74ea4575414dfe37a41491", "rental_uris": {"android": "https://dc.lft.to/lastmile_qr_scan", "ios": "https://dc.lft.to/lastmile_qr_scan"}, "name": "156b100a6d74ea4575414dfe37a41491", "is_reserved": 0}, {"is_disabled": 0, "fusion_lon": 0.0, "fusion_lat": 0.0, "lat": 38.91312166666667, "type": "electric_scooter", "lon": -77.014357, "bike_id": "538232c44d3576c525a2b2c56f52c4b9", "rental_uris": {"android": "https://dc.lft.to/lastmile_qr_scan", "ios": "https://dc.lft.to/lastmile_qr_scan"}, "name": "538232c44d3576c525a2b2c56f52c4b9", "is_reserved": 0}, {"is_disabled": 0, "fusion_lon": 0.0, "fusion_lat": 0.0, "lat": 38.88608166666667, "type": "electric_scooter", "lon": -77.0058295, "bike_id": "cef532f1d1c95c3e39693b4af3596118", "rental_uris": {"android": "https://dc.lft.to/lastmile_qr_scan", "ios": "https://dc.lft.to/lastmile_qr_scan"}, "name": "cef532f1d1c95c3e39693b4af3596118", "is_reserved": 0}, {"is_disabled": 0, "fusion_lon": 0.0, "fusion_lat": 0.0, "lat": 38.87056033333333, "type": "electric_scooter", "lon": -76.98087416666667, "bike_id": "c358328606649a9b027e29084305965e", "rental_uris": {"android": "https://dc.lft.to/lastmile_qr_scan", "ios": "https://dc.lft.to/lastmile_qr_scan"}, "name": "c358328606649a9b027e29084305965e", "is_reserved": 0}, {"is_disabled": 0, "fusion_lon": 0.0, "fusion_lat": 0.0, "lat": 38.956354, "type": "electric_scooter", "lon": -77.09102716666666, "bike_id": "eeec82f7f048757f61e47ee1c1b8f412", "rental_uris": {"android": "https://dc.lft.to/lastmile_qr_scan", "ios": "https://dc.lft.to/lastmile_qr_scan"}, "name": "eeec82f7f048757f61e47ee1c1b8f412", "is_reserved": 0}, {"is_disabled": 0, "fusion_lon": 0.0, "fusion_lat": 0.0, "lat": 38.918068, "type": "electric_scooter", "lon": -77.04034283333333, "bike_id": "98cbbc81ece542dacaf90b69f195b23d", "rental_uris": {"android": "https://dc.lft.to/lastmile_qr_scan", "ios": "https://dc.lft.to/lastmile_qr_scan"}, "name": "98cbbc81ece542dacaf90b69f195b23d", "is_reserved": 0}, {"is_disabled": 0, "fusion_lon": 0.0, "fusion_lat": 0.0, "lat": 38.886906833333335, "type": "electric_scooter", "lon": -76.98801366666666, "bike_id": "0f863547d1c207769f4eb54bbb81edee", "rental_uris": {"android": "https://dc.lft.to/lastmile_qr_scan", "ios": "https://dc.lft.to/lastmile_qr_scan"}, "name": "0f863547d1c207769f4eb54bbb81edee", "is_reserved": 0}, {"is_disabled": 0, "fusion_lon": 0.0, "fusion_lat": 0.0, "lat": 38.91702883333333, "type": "electric_scooter", "lon": -77.01173516666667, "bike_id": "4f607514364c886184daf02569488e42", "rental_uris": {"android": "https://dc.lft.to/lastmile_qr_scan", "ios": "https://dc.lft.to/lastmile_qr_scan"}, "name": "4f607514364c886184daf02569488e42", "is_reserved": 0}, {"is_disabled": 0, "fusion_lon": 0.0, "fusion_lat": 0.0, "lat": 38.907297, "type": "electric_scooter", "lon": -77.00106133333334, "bike_id": "3b20a3ec0203e321829589fd0b6a52e6", "rental_uris": {"android": "https://dc.lft.to/lastmile_qr_scan", "ios": "https://dc.lft.to/lastmile_qr_scan"}, "name": "3b20a3ec0203e321829589fd0b6a52e6", "is_reserved": 0}, {"is_disabled": 0, "fusion_lon": 0.0, "fusion_lat": 0.0, "lat": 38.91700316666667, "type": "electric_scooter", "lon": -77.0262195, "bike_id": "81cd2f360dfdd6c046ea02eae8c83d0f", "rental_uris": {"android": "https://dc.lft.to/lastmile_qr_scan", "ios": "https://dc.lft.to/lastmile_qr_scan"}, "name": "81cd2f360dfdd6c046ea02eae8c83d0f", "is_reserved": 0}, {"is_disabled": 0, "fusion_lon": 0.0, "fusion_lat": 0.0, "lat": 38.897417, "type": "electric_scooter", "lon": -77.04652533333334, "bike_id": "899b1a67d611edaf77f48158c9c86271", "rental_uris": {"android": "https://dc.lft.to/lastmile_qr_scan", "ios": "https://dc.lft.to/lastmile_qr_scan"}, "name": "899b1a67d611edaf77f48158c9c86271", "is_reserved": 0}, {"is_disabled": 0, "fusion_lon": 0.0, "fusion_lat": 0.0, "lat": 38.87195916666667, "type": "electric_scooter", "lon": -76.978272, "bike_id": "541c3a3b457817f85cdcf92bb1949a6d", "rental_uris": {"android": "https://dc.lft.to/lastmile_qr_scan", "ios": "https://dc.lft.to/lastmile_qr_scan"}, "name": "541c3a3b457817f85cdcf92bb1949a6d", "is_reserved": 0}, {"is_disabled": 0, "fusion_lon": 0.0, "fusion_lat": 0.0, "lat": 38.91592383333333, "type": "electric_scooter", "lon": -77.043344, "bike_id": "076bb9ce86aee835e4abed399d415d38", "rental_uris": {"android": "https://dc.lft.to/lastmile_qr_scan", "ios": "https://dc.lft.to/lastmile_qr_scan"}, "name": "076bb9ce86aee835e4abed399d415d38", "is_reserved": 0}, {"is_disabled": 0, "fusion_lon": 0.0, "fusion_lat": 0.0, "lat": 38.90589883333333, "type": "electric_scooter", "lon": -77.0691725, "bike_id": "acd86c886889ec46750c46d2071b3a57", "rental_uris": {"android": "https://dc.lft.to/lastmile_qr_scan", "ios": "https://dc.lft.to/lastmile_qr_scan"}, "name": "acd86c886889ec46750c46d2071b3a57", "is_reserved": 0}, {"is_disabled": 0, "fusion_lon": 0.0, "fusion_lat": 0.0, "lat": 38.96121816666667, "type": "electric_scooter", "lon": -77.0281645, "bike_id": "3c3d3d6cee27c53ff4a0e06d14fb4f4c", "rental_uris": {"android": "https://dc.lft.to/lastmile_qr_scan", "ios": "https://dc.lft.to/lastmile_qr_scan"}, "name": "3c3d3d6cee27c53ff4a0e06d14fb4f4c", "is_reserved": 0}, {"is_disabled": 0, "fusion_lon": 0.0, "fusion_lat": 0.0, "lat": 38.88921883333333, "type": "electric_scooter", "lon": -76.980065, "bike_id": "5d55ce34f1888d7004b1aa2ad8211865", "rental_uris": {"android": "https://dc.lft.to/lastmile_qr_scan", "ios": "https://dc.lft.to/lastmile_qr_scan"}, "name": "5d55ce34f1888d7004b1aa2ad8211865", "is_reserved": 0}, {"is_disabled": 0, "fusion_lon": 0.0, "fusion_lat": 0.0, "lat": 38.924365333333334, "type": "electric_bike", "lon": -76.9076395, "bike_id": "ca6091d9c37bc791f819d42fc4bd1139", "rental_uris": {"android": "https://dc.lft.to/lastmile_qr_scan", "ios": "https://dc.lft.to/lastmile_qr_scan"}, "name": "ca6091d9c37bc791f819d42fc4bd1139", "is_reserved": 0}, {"is_disabled": 0, "fusion_lon": 0.0, "fusion_lat": 0.0, "lat": 38.913062, "type": "electric_scooter", "lon": -77.03211266666666, "bike_id": "a706aef22c33783bf2309b0ab5a726ba", "rental_uris": {"android": "https://dc.lft.to/lastmile_qr_scan", "ios": "https://dc.lft.to/lastmile_qr_scan"}, "name": "a706aef22c33783bf2309b0ab5a726ba", "is_reserved": 0}, {"is_disabled": 0, "fusion_lon": 0.0, "fusion_lat": 0.0, "lat": 38.905335666666666, "type": "electric_scooter", "lon": -77.05015083333333, "bike_id": "4d244903ce5249fdfbfd35ad5219acbc", "rental_uris": {"android": "https://dc.lft.to/lastmile_qr_scan", "ios": "https://dc.lft.to/lastmile_qr_scan"}, "name": "4d244903ce5249fdfbfd35ad5219acbc", "is_reserved": 0}, {"is_disabled": 0, "fusion_lon": 0.0, "fusion_lat": 0.0, "lat": 38.90826216666667, "type": "electric_scooter", "lon": -77.00142233333334, "bike_id": "98f1fb4bd04e3babcd7ca7dfe175216a", "rental_uris": {"android": "https://dc.lft.to/lastmile_qr_scan", "ios": "https://dc.lft.to/lastmile_qr_scan"}, "name": "98f1fb4bd04e3babcd7ca7dfe175216a", "is_reserved": 0}, {"is_disabled": 0, "fusion_lon": 0.0, "fusion_lat": 0.0, "lat": 38.89997666666667, "type": "electric_scooter", "lon": -77.03391216666667, "bike_id": "023f5acb8d0d7bf465d36f0a02b32846", "rental_uris": {"android": "https://dc.lft.to/lastmile_qr_scan", "ios": "https://dc.lft.to/lastmile_qr_scan"}, "name": "023f5acb8d0d7bf465d36f0a02b32846", "is_reserved": 0}, {"is_disabled": 0, "fusion_lon": 0.0, "fusion_lat": 0.0, "lat": 38.908746666666666, "type": "electric_scooter", "lon": -77.00371583333333, "bike_id": "db4b67a691889d362a1d18b1e975c63c", "rental_uris": {"android": "https://dc.lft.to/lastmile_qr_scan", "ios": "https://dc.lft.to/lastmile_qr_scan"}, "name": "db4b67a691889d362a1d18b1e975c63c", "is_reserved": 0}, {"is_disabled": 0, "fusion_lon": 0.0, "fusion_lat": 0.0, "lat": 38.92485, "type": "electric_scooter", "lon": -77.02717466666667, "bike_id": "bc10882b513de69b832ef5e2f78d94ba", "rental_uris": {"android": "https://dc.lft.to/lastmile_qr_scan", "ios": "https://dc.lft.to/lastmile_qr_scan"}, "name": "bc10882b513de69b832ef5e2f78d94ba", "is_reserved": 0}, {"is_disabled": 0, "fusion_lon": 0.0, "fusion_lat": 0.0, "lat": 38.91991, "type": "electric_scooter", "lon": -77.03291666666667, "bike_id": "484adb230ecb8ede007f8484c36899df", "rental_uris": {"android": "https://dc.lft.to/lastmile_qr_scan", "ios": "https://dc.lft.to/lastmile_qr_scan"}, "name": "484adb230ecb8ede007f8484c36899df", "is_reserved": 0}, {"is_disabled": 0, "fusion_lon": 0.0, "fusion_lat": 0.0, "lat": 38.905780666666665, "type": "electric_scooter", "lon": -77.02203783333333, "bike_id": "9c27140ffa9c9b1e8ec3f3cc6bdec637", "rental_uris": {"android": "https://dc.lft.to/lastmile_qr_scan", "ios": "https://dc.lft.to/lastmile_qr_scan"}, "name": "9c27140ffa9c9b1e8ec3f3cc6bdec637", "is_reserved": 0}, {"is_disabled": 0, "fusion_lon": 0.0, "fusion_lat": 0.0, "lat": 38.918190833333334, "type": "electric_scooter", "lon": -77.04181166666666, "bike_id": "47740de4e33a279a4136ef72b5c61dbd", "rental_uris": {"android": "https://dc.lft.to/lastmile_qr_scan", "ios": "https://dc.lft.to/lastmile_qr_scan"}, "name": "47740de4e33a279a4136ef72b5c61dbd", "is_reserved": 0}, {"is_disabled": 0, "fusion_lon": 0.0, "fusion_lat": 0.0, "lat": 38.887269, "type": "electric_scooter", "lon": -77.017437, "bike_id": "31a4bf4990393ccd0ffd7137297fc160", "rental_uris": {"android": "https://dc.lft.to/lastmile_qr_scan", "ios": "https://dc.lft.to/lastmile_qr_scan"}, "name": "31a4bf4990393ccd0ffd7137297fc160", "is_reserved": 0}, {"is_disabled": 0, "fusion_lon": 0.0, "fusion_lat": 0.0, "lat": 39.0002085, "type": "electric_bike", "lon": -76.87287983333333, "bike_id": "1d914a520bfd83908702a7b0f3d505bd", "rental_uris": {"android": "https://dc.lft.to/lastmile_qr_scan", "ios": "https://dc.lft.to/lastmile_qr_scan"}, "name": "1d914a520bfd83908702a7b0f3d505bd", "is_reserved": 0}, {"is_disabled": 0, "fusion_lon": 0.0, "fusion_lat": 0.0, "lat": 38.90591533333333, "type": "electric_scooter", "lon": -77.07315233333334, "bike_id": "8e17f9c89ef38733b52c7d842107a543", "rental_uris": {"android": "https://dc.lft.to/lastmile_qr_scan", "ios": "https://dc.lft.to/lastmile_qr_scan"}, "name": "8e17f9c89ef38733b52c7d842107a543", "is_reserved": 0}, {"is_disabled": 0, "fusion_lon": 0.0, "fusion_lat": 0.0, "lat": 38.82873166666667, "type": "electric_bike", "lon": -77.1122415, "bike_id": "622fa62b548b8e66224b94125daf3b16", "rental_uris": {"android": "https://dc.lft.to/lastmile_qr_scan", "ios": "https://dc.lft.to/lastmile_qr_scan"}, "name": "622fa62b548b8e66224b94125daf3b16", "is_reserved": 0}, {"is_disabled": 0, "fusion_lon": 0.0, "fusion_lat": 0.0, "lat": 38.87798, "type": "electric_scooter", "lon": -77.01371716666667, "bike_id": "a3d8b9e600caa302c7bfbcd91b12f24a", "rental_uris": {"android": "https://dc.lft.to/lastmile_qr_scan", "ios": "https://dc.lft.to/lastmile_qr_scan"}, "name": "a3d8b9e600caa302c7bfbcd91b12f24a", "is_reserved": 0}, {"is_disabled": 0, "fusion_lon": 0.0, "fusion_lat": 0.0, "lat": 38.9298995, "type": "electric_scooter", "lon": -77.036373, "bike_id": "19fd4c7b646b5800ceef782c5f96c2bf", "rental_uris": {"android": "https://dc.lft.to/lastmile_qr_scan", "ios": "https://dc.lft.to/lastmile_qr_scan"}, "name": "19fd4c7b646b5800ceef782c5f96c2bf", "is_reserved": 0}, {"is_disabled": 0, "fusion_lon": 0.0, "fusion_lat": 0.0, "lat": 38.933392166666664, "type": "electric_scooter", "lon": -77.04136883333334, "bike_id": "eee3c0c9bbaf0712f1d037d33ee2ab94", "rental_uris": {"android": "https://dc.lft.to/lastmile_qr_scan", "ios": "https://dc.lft.to/lastmile_qr_scan"}, "name": "eee3c0c9bbaf0712f1d037d33ee2ab94", "is_reserved": 0}, {"is_disabled": 0, "fusion_lon": 0.0, "fusion_lat": 0.0, "lat": 38.92869783333333, "type": "electric_scooter", "lon": -76.9902795, "bike_id": "05efd359c4516f09702a3c8c6b0a34d3", "rental_uris": {"android": "https://dc.lft.to/lastmile_qr_scan", "ios": "https://dc.lft.to/lastmile_qr_scan"}, "name": "05efd359c4516f09702a3c8c6b0a34d3", "is_reserved": 0}, {"is_disabled": 0, "fusion_lon": 0.0, "fusion_lat": 0.0, "lat": 38.92830883333333, "type": "electric_scooter", "lon": -77.02263916666666, "bike_id": "2951ab87d6afcf930e35a1ba0fbc0ccf", "rental_uris": {"android": "https://dc.lft.to/lastmile_qr_scan", "ios": "https://dc.lft.to/lastmile_qr_scan"}, "name": "2951ab87d6afcf930e35a1ba0fbc0ccf", "is_reserved": 0}, {"is_disabled": 0, "fusion_lon": 0.0, "fusion_lat": 0.0, "lat": 38.934108333333334, "type": "electric_scooter", "lon": -77.02451933333333, "bike_id": "d911421f2ab33c64ae0efa36af2e8e07", "rental_uris": {"android": "https://dc.lft.to/lastmile_qr_scan", "ios": "https://dc.lft.to/lastmile_qr_scan"}, "name": "d911421f2ab33c64ae0efa36af2e8e07", "is_reserved": 0}, {"is_disabled": 0, "fusion_lon": 0.0, "fusion_lat": 0.0, "lat": 38.9273665, "type": "electric_bike", "lon": -76.99370283333333, "bike_id": "d07f5664201d7d226da3105afd6a8d28", "rental_uris": {"android": "https://dc.lft.to/lastmile_qr_scan", "ios": "https://dc.lft.to/lastmile_qr_scan"}, "name": "d07f5664201d7d226da3105afd6a8d28", "is_reserved": 0}, {"is_disabled": 0, "fusion_lon": 0.0, "fusion_lat": 0.0, "lat": 38.89360816666667, "type": "electric_scooter", "lon": -76.93986683333333, "bike_id": "edfc19de8cca10f7567df9c139706343", "rental_uris": {"android": "https://dc.lft.to/lastmile_qr_scan", "ios": "https://dc.lft.to/lastmile_qr_scan"}, "name": "edfc19de8cca10f7567df9c139706343", "is_reserved": 0}, {"is_disabled": 0, "fusion_lon": 0.0, "fusion_lat": 0.0, "lat": 38.984755166666666, "type": "electric_scooter", "lon": -77.026513, "bike_id": "c97d8cee5db1f875930f2fd44f9c0922", "rental_uris": {"android": "https://dc.lft.to/lastmile_qr_scan", "ios": "https://dc.lft.to/lastmile_qr_scan"}, "name": "c97d8cee5db1f875930f2fd44f9c0922", "is_reserved": 0}, {"is_disabled": 0, "fusion_lon": 0.0, "fusion_lat": 0.0, "lat": 38.90970166666666, "type": "electric_scooter", "lon": -77.0387025, "bike_id": "102f5b5c4b819ed20059984480ae342f", "rental_uris": {"android": "https://dc.lft.to/lastmile_qr_scan", "ios": "https://dc.lft.to/lastmile_qr_scan"}, "name": "102f5b5c4b819ed20059984480ae342f", "is_reserved": 0}, {"is_disabled": 0, "fusion_lon": 0.0, "fusion_lat": 0.0, "lat": 38.867217833333335, "type": "electric_scooter", "lon": -76.97918616666666, "bike_id": "d7b83c6cbf1b48d6b674769d08601f75", "rental_uris": {"android": "https://dc.lft.to/lastmile_qr_scan", "ios": "https://dc.lft.to/lastmile_qr_scan"}, "name": "d7b83c6cbf1b48d6b674769d08601f75", "is_reserved": 0}, {"is_disabled": 0, "fusion_lon": 0.0, "fusion_lat": 0.0, "lat": 38.8996165, "type": "electric_scooter", "lon": -77.01610566666666, "bike_id": "21c89285b1e3fa1e6082d084aa9f23fe", "rental_uris": {"android": "https://dc.lft.to/lastmile_qr_scan", "ios": "https://dc.lft.to/lastmile_qr_scan"}, "name": "21c89285b1e3fa1e6082d084aa9f23fe", "is_reserved": 0}, {"is_disabled": 0, "fusion_lon": 0.0, "fusion_lat": 0.0, "lat": 38.895583, "type": "electric_scooter", "lon": -76.94874516666667, "bike_id": "3b8269c6c7c287703125591bd135aad0", "rental_uris": {"android": "https://dc.lft.to/lastmile_qr_scan", "ios": "https://dc.lft.to/lastmile_qr_scan"}, "name": "3b8269c6c7c287703125591bd135aad0", "is_reserved": 0}, {"is_disabled": 0, "fusion_lon": 0.0, "fusion_lat": 0.0, "lat": 38.86522083333333, "type": "electric_scooter", "lon": -76.98970233333333, "bike_id": "f88b3f364a3348cec73c743d0e5ef0f7", "rental_uris": {"android": "https://dc.lft.to/lastmile_qr_scan", "ios": "https://dc.lft.to/lastmile_qr_scan"}, "name": "f88b3f364a3348cec73c743d0e5ef0f7", "is_reserved": 0}, {"is_disabled": 0, "fusion_lon": 0.0, "fusion_lat": 0.0, "lat": 38.901816833333335, "type": "electric_scooter", "lon": -77.05014616666666, "bike_id": "725ccd1ea12270ebbc0ef5be9b115c08", "rental_uris": {"android": "https://dc.lft.to/lastmile_qr_scan", "ios": "https://dc.lft.to/lastmile_qr_scan"}, "name": "725ccd1ea12270ebbc0ef5be9b115c08", "is_reserved": 0}, {"is_disabled": 0, "fusion_lon": 0.0, "fusion_lat": 0.0, "lat": 38.893319, "type": "electric_scooter", "lon": -77.0213335, "bike_id": "fc84593cb19db5aed9c86c32c2725810", "rental_uris": {"android": "https://dc.lft.to/lastmile_qr_scan", "ios": "https://dc.lft.to/lastmile_qr_scan"}, "name": "fc84593cb19db5aed9c86c32c2725810", "is_reserved": 0}, {"is_disabled": 0, "fusion_lon": 0.0, "fusion_lat": 0.0, "lat": 38.93141716666667, "type": "electric_scooter", "lon": -77.041323, "bike_id": "e8a9365e334e37188003954f112f3e6e", "rental_uris": {"android": "https://dc.lft.to/lastmile_qr_scan", "ios": "https://dc.lft.to/lastmile_qr_scan"}, "name": "e8a9365e334e37188003954f112f3e6e", "is_reserved": 0}, {"is_disabled": 0, "fusion_lon": 0.0, "fusion_lat": 0.0, "lat": 39.0230085, "type": "electric_bike", "lon": -77.02108233333334, "bike_id": "968ce8b209a48a409e2a1d9784e4ef12", "rental_uris": {"android": "https://dc.lft.to/lastmile_qr_scan", "ios": "https://dc.lft.to/lastmile_qr_scan"}, "name": "968ce8b209a48a409e2a1d9784e4ef12", "is_reserved": 0}, {"is_disabled": 0, "fusion_lon": 0.0, "fusion_lat": 0.0, "lat": 38.90363033333333, "type": "electric_scooter", "lon": -77.0398035, "bike_id": "ed5cf214880f3ac6e3a9355fcc9796dd", "rental_uris": {"android": "https://dc.lft.to/lastmile_qr_scan", "ios": "https://dc.lft.to/lastmile_qr_scan"}, "name": "ed5cf214880f3ac6e3a9355fcc9796dd", "is_reserved": 0}, {"is_disabled": 0, "fusion_lon": 0.0, "fusion_lat": 0.0, "lat": 38.90869466666667, "type": "electric_scooter", "lon": -77.03014266666666, "bike_id": "475ff69ac4c0f7c0871019d0bc999bc0", "rental_uris": {"android": "https://dc.lft.to/lastmile_qr_scan", "ios": "https://dc.lft.to/lastmile_qr_scan"}, "name": "475ff69ac4c0f7c0871019d0bc999bc0", "is_reserved": 0}, {"is_disabled": 0, "fusion_lon": 0.0, "fusion_lat": 0.0, "lat": 38.898482, "type": "electric_scooter", "lon": -76.94500333333333, "bike_id": "ebcedf61d685db480ffe330903c16201", "rental_uris": {"android": "https://dc.lft.to/lastmile_qr_scan", "ios": "https://dc.lft.to/lastmile_qr_scan"}, "name": "ebcedf61d685db480ffe330903c16201", "is_reserved": 0}, {"is_disabled": 0, "fusion_lon": 0.0, "fusion_lat": 0.0, "lat": 38.888773, "type": "electric_bike", "lon": -77.02859533333333, "bike_id": "45672149676f3c36711c87e087446637", "rental_uris": {"android": "https://dc.lft.to/lastmile_qr_scan", "ios": "https://dc.lft.to/lastmile_qr_scan"}, "name": "45672149676f3c36711c87e087446637", "is_reserved": 0}, {"is_disabled": 0, "fusion_lon": 0.0, "fusion_lat": 0.0, "lat": 38.912523166666666, "type": "electric_scooter", "lon": -77.03679666666666, "bike_id": "8d26e54a17f15b3ecb68987c30c0ad37", "rental_uris": {"android": "https://dc.lft.to/lastmile_qr_scan", "ios": "https://dc.lft.to/lastmile_qr_scan"}, "name": "8d26e54a17f15b3ecb68987c30c0ad37", "is_reserved": 0}, {"is_disabled": 0, "fusion_lon": 0.0, "fusion_lat": 0.0, "lat": 38.941913166666666, "type": "electric_scooter", "lon": -77.04263316666666, "bike_id": "14b284cd3d8e4594cefc7f40946e135c", "rental_uris": {"android": "https://dc.lft.to/lastmile_qr_scan", "ios": "https://dc.lft.to/lastmile_qr_scan"}, "name": "14b284cd3d8e4594cefc7f40946e135c", "is_reserved": 0}, {"is_disabled": 0, "fusion_lon": 0.0, "fusion_lat": 0.0, "lat": 38.9076, "type": "electric_scooter", "lon": -77.06314233333333, "bike_id": "c7fe4e01e127e486a6c42b26d16ee097", "rental_uris": {"android": "https://dc.lft.to/lastmile_qr_scan", "ios": "https://dc.lft.to/lastmile_qr_scan"}, "name": "c7fe4e01e127e486a6c42b26d16ee097", "is_reserved": 0}, {"is_disabled": 0, "fusion_lon": 0.0, "fusion_lat": 0.0, "lat": 38.909226, "type": "electric_bike", "lon": -77.06120933333334, "bike_id": "050f2bbecfff370892317bf4482d5216", "rental_uris": {"android": "https://dc.lft.to/lastmile_qr_scan", "ios": "https://dc.lft.to/lastmile_qr_scan"}, "name": "050f2bbecfff370892317bf4482d5216", "is_reserved": 0}, {"is_disabled": 0, "fusion_lon": 0.0, "fusion_lat": 0.0, "lat": 38.85213483333333, "type": "electric_bike", "lon": -77.1012745, "bike_id": "120fa0d5a619dbdeff4dc320b916cc52", "rental_uris": {"android": "https://dc.lft.to/lastmile_qr_scan", "ios": "https://dc.lft.to/lastmile_qr_scan"}, "name": "120fa0d5a619dbdeff4dc320b916cc52", "is_reserved": 0}, {"is_disabled": 0, "fusion_lon": 0.0, "fusion_lat": 0.0, "lat": 38.93284333333333, "type": "electric_scooter", "lon": -76.97425483333333, "bike_id": "e4fe00465cd2124690b23ec2ba8d65cb", "rental_uris": {"android": "https://dc.lft.to/lastmile_qr_scan", "ios": "https://dc.lft.to/lastmile_qr_scan"}, "name": "e4fe00465cd2124690b23ec2ba8d65cb", "is_reserved": 0}, {"is_disabled": 0, "fusion_lon": 0.0, "fusion_lat": 0.0, "lat": 38.876815, "type": "electric_scooter", "lon": -77.01785666666666, "bike_id": "163357f49c586b7f025faaded220d373", "rental_uris": {"android": "https://dc.lft.to/lastmile_qr_scan", "ios": "https://dc.lft.to/lastmile_qr_scan"}, "name": "163357f49c586b7f025faaded220d373", "is_reserved": 0}, {"is_disabled": 0, "fusion_lon": 0.0, "fusion_lat": 0.0, "lat": 38.90521716666667, "type": "electric_scooter", "lon": -77.049948, "bike_id": "a1f938d6a76650daad5e38ce63ca5698", "rental_uris": {"android": "https://dc.lft.to/lastmile_qr_scan", "ios": "https://dc.lft.to/lastmile_qr_scan"}, "name": "a1f938d6a76650daad5e38ce63ca5698", "is_reserved": 0}, {"is_disabled": 0, "fusion_lon": 0.0, "fusion_lat": 0.0, "lat": 38.92756416666667, "type": "electric_scooter", "lon": -77.00595233333334, "bike_id": "513875f2542438172100e26c8ec161c9", "rental_uris": {"android": "https://dc.lft.to/lastmile_qr_scan", "ios": "https://dc.lft.to/lastmile_qr_scan"}, "name": "513875f2542438172100e26c8ec161c9", "is_reserved": 0}, {"is_disabled": 0, "fusion_lon": 0.0, "fusion_lat": 0.0, "lat": 38.9199955, "type": "electric_scooter", "lon": -77.0322575, "bike_id": "6b3f32d45f530db6028f42b010f6b53e", "rental_uris": {"android": "https://dc.lft.to/lastmile_qr_scan", "ios": "https://dc.lft.to/lastmile_qr_scan"}, "name": "6b3f32d45f530db6028f42b010f6b53e", "is_reserved": 0}, {"is_disabled": 0, "fusion_lon": 0.0, "fusion_lat": 0.0, "lat": 38.90510833333333, "type": "electric_bike", "lon": -76.98129816666666, "bike_id": "bf9b044331ad64c28d01b593b270930f", "rental_uris": {"android": "https://dc.lft.to/lastmile_qr_scan", "ios": "https://dc.lft.to/lastmile_qr_scan"}, "name": "bf9b044331ad64c28d01b593b270930f", "is_reserved": 0}, {"is_disabled": 0, "fusion_lon": 0.0, "fusion_lat": 0.0, "lat": 38.90261366666667, "type": "electric_scooter", "lon": -77.0021305, "bike_id": "40437f6b9161fa5c3e86e867d4ed265b", "rental_uris": {"android": "https://dc.lft.to/lastmile_qr_scan", "ios": "https://dc.lft.to/lastmile_qr_scan"}, "name": "40437f6b9161fa5c3e86e867d4ed265b", "is_reserved": 0}, {"is_disabled": 0, "fusion_lon": 0.0, "fusion_lat": 0.0, "lat": 38.98503866666667, "type": "electric_bike", "lon": -76.98216916666667, "bike_id": "090f38741898ae2dcf90abeb777e4252", "rental_uris": {"android": "https://dc.lft.to/lastmile_qr_scan", "ios": "https://dc.lft.to/lastmile_qr_scan"}, "name": "090f38741898ae2dcf90abeb777e4252", "is_reserved": 0}, {"is_disabled": 0, "fusion_lon": 0.0, "fusion_lat": 0.0, "lat": 38.90515, "type": "electric_scooter", "lon": -77.02518416666666, "bike_id": "7f13950b610ac1f6c8a1ff9d62300293", "rental_uris": {"android": "https://dc.lft.to/lastmile_qr_scan", "ios": "https://dc.lft.to/lastmile_qr_scan"}, "name": "7f13950b610ac1f6c8a1ff9d62300293", "is_reserved": 0}, {"is_disabled": 0, "fusion_lon": 0.0, "fusion_lat": 0.0, "lat": 38.918117333333335, "type": "electric_scooter", "lon": -77.032249, "bike_id": "69d1e36b634fabae3b2737ee10fdcfc8", "rental_uris": {"android": "https://dc.lft.to/lastmile_qr_scan", "ios": "https://dc.lft.to/lastmile_qr_scan"}, "name": "69d1e36b634fabae3b2737ee10fdcfc8", "is_reserved": 0}, {"is_disabled": 0, "fusion_lon": 0.0, "fusion_lat": 0.0, "lat": 38.91559133333333, "type": "electric_scooter", "lon": -77.0102475, "bike_id": "c89f6af0bd314147d680acef2ed337a1", "rental_uris": {"android": "https://dc.lft.to/lastmile_qr_scan", "ios": "https://dc.lft.to/lastmile_qr_scan"}, "name": "c89f6af0bd314147d680acef2ed337a1", "is_reserved": 0}, {"is_disabled": 0, "fusion_lon": 0.0, "fusion_lat": 0.0, "lat": 38.90922883333333, "type": "electric_scooter", "lon": -77.02307883333333, "bike_id": "243c9153289d7a5e4847d790f98602c3", "rental_uris": {"android": "https://dc.lft.to/lastmile_qr_scan", "ios": "https://dc.lft.to/lastmile_qr_scan"}, "name": "243c9153289d7a5e4847d790f98602c3", "is_reserved": 0}, {"is_disabled": 0, "fusion_lon": 0.0, "fusion_lat": 0.0, "lat": 38.917053, "type": "electric_scooter", "lon": -77.00116116666666, "bike_id": "83b51ba76d3272266794b5cb20e0704e", "rental_uris": {"android": "https://dc.lft.to/lastmile_qr_scan", "ios": "https://dc.lft.to/lastmile_qr_scan"}, "name": "83b51ba76d3272266794b5cb20e0704e", "is_reserved": 0}, {"is_disabled": 0, "fusion_lon": 0.0, "fusion_lat": 0.0, "lat": 38.91795233333333, "type": "electric_scooter", "lon": -77.023995, "bike_id": "4c0940c8d1fa3faac14f44cbd2189265", "rental_uris": {"android": "https://dc.lft.to/lastmile_qr_scan", "ios": "https://dc.lft.to/lastmile_qr_scan"}, "name": "4c0940c8d1fa3faac14f44cbd2189265", "is_reserved": 0}, {"is_disabled": 0, "fusion_lon": 0.0, "fusion_lat": 0.0, "lat": 38.90374666666666, "type": "electric_scooter", "lon": -77.03202866666666, "bike_id": "8384d8ebe68f3f15ddf9cd2d1510ce52", "rental_uris": {"android": "https://dc.lft.to/lastmile_qr_scan", "ios": "https://dc.lft.to/lastmile_qr_scan"}, "name": "8384d8ebe68f3f15ddf9cd2d1510ce52", "is_reserved": 0}, {"is_disabled": 0, "fusion_lon": 0.0, "fusion_lat": 0.0, "lat": 38.93535766666667, "type": "electric_scooter", "lon": -77.02070966666666, "bike_id": "be185c98c1a827cb5f0953db0b153213", "rental_uris": {"android": "https://dc.lft.to/lastmile_qr_scan", "ios": "https://dc.lft.to/lastmile_qr_scan"}, "name": "be185c98c1a827cb5f0953db0b153213", "is_reserved": 0}, {"is_disabled": 0, "fusion_lon": 0.0, "fusion_lat": 0.0, "lat": 38.924572833333336, "type": "electric_scooter", "lon": -76.99901916666667, "bike_id": "3b732ee2dfe20f36d64ffcf870e6d961", "rental_uris": {"android": "https://dc.lft.to/lastmile_qr_scan", "ios": "https://dc.lft.to/lastmile_qr_scan"}, "name": "3b732ee2dfe20f36d64ffcf870e6d961", "is_reserved": 0},