{"data": {"bikes": [{"type": "electric_bike", "name": "8feb26aff021a8ee6edaf363ba6a6f58", "rental_uris": {"ios": "https://dc.lft.to/lastmile_qr_scan", "android": "https://dc.lft.to/lastmile_qr_scan"}, "fusion_lon": 0.0, "lat": 38.984587833333336, "is_disabled": 0, "bike_id": "8feb26aff021a8ee6edaf363ba6a6f58", "fusion_lat": 0.0, "is_reserved": 0, "lon": -76.97058166666666}, {"type": "electric_scooter", "name": "a9888a09e7f40c6cd0ed7a4a1efe5f70", "rental_uris": {"ios": "https://dc.lft.to/lastmile_qr_scan", "android": "https://dc.lft.to/lastmile_qr_scan"}, "fusion_lon": 0.0, "lat": 38.938633, "is_disabled": 0, "bike_id": "a9888a09e7f40c6cd0ed7a4a1efe5f70", "fusion_lat": 0.0, "is_reserved": 0, "lon": -77.02628133333333}, {"type": "electric_scooter", "name": "e5054d3392db427d21fc6c5d6ba96a83", "rental_uris": {"ios": "https://dc.lft.to/lastmile_qr_scan", "android": "https://dc.lft.to/lastmile_qr_scan"}, "fusion_lon": 0.0, "lat": 38.91840083333334, "is_disabled": 0, "bike_id": "e5054d3392db427d21fc6c5d6ba96a83", "fusion_lat": 0.0, "is_reserved": 0, "lon": -77.02320766666666}, {"type": "electric_bike", "name": "1e777d78f4075ac30c4a5885a9165889", "rental_uris": {"ios": "https://dc.lft.to/lastmile_qr_scan", "android": "https://dc.lft.to/lastmile_qr_scan"}, "fusion_lon": 0.0, "lat": 38.882614833333335, "is_disabled": 0, "bike_id": "1e777d78f4075ac30c4a5885a9165889", "fusion_lat": 0.0, "is_reserved": 0, "lon": -76.91038266666666}, {"type": "electric_scooter", "name": "bf3dc0a7262d99a46fafad2c6b32ee42", "rental_uris": {"ios": "https://dc.lft.to/lastmile_qr_scan", "android": "https://dc.lft.to/lastmile_qr_scan"}, "fusion_lon": 0.0, "lat": 38.93992133333333, "is_disabled": 0, "bike_id": "bf3dc0a7262d99a46fafad2c6b32ee42", "fusion_lat": 0.0, "is_reserved": 0, "lon": -77.03264116666666}, {"type": "electric_scooter", "name": "fbb2bd5b5761616924c0ea7faf0a3c5d", "rental_uris": {"ios": "https://dc.lft.to/lastmile_qr_scan", "android": "https://dc.lft.to/lastmile_qr_scan"}, "fusion_lon": 0.0, "lat": 38.88764333333334, "is_disabled": 0, "bike_id": "fbb2bd5b5761616924c0ea7faf0a3c5d", "fusion_lat": 0.0, "is_reserved": 0, "lon": -76.97749516666667}, {"type": "electric_scooter", "name": "3b192315e955779ca141d0c56975cd48", "rental_uris": {"ios": "https://dc.lft.to/lastmile_qr_scan", "android": "https://dc.lft.to/lastmile_qr_scan"}, "fusion_lon": 0.0, "lat": 38.910535833333334, "is_disabled": 0, "bike_id": "3b192315e955779ca141d0c56975cd48", "fusion_lat": 0.0, "is_reserved": 0, "lon": -76.985179}, {"type": "electric_scooter", "name": "784958a1175e2148466b7fb4f23a53d7", "rental_uris": {"ios": "https://dc.lft.to/lastmile_qr_scan", "android": "https://dc.lft.to/lastmile_qr_scan"}, "fusion_lon": 0.0, "lat": 38.90424083333333, "is_disabled": 0, "bike_id": "784958a1175e2148466b7fb4f23a53d7", "fusion_lat": 0.0, "is_reserved": 0, "lon": -77.04360033333333}, {"type": "electric_scooter", "name": "eb8882e167c50f5686cc729e9dec76bf", "rental_uris": {"ios": "https://dc.lft.to/lastmile_qr_scan", "android": "https://dc.lft.to/lastmile_qr_scan"}, "fusion_lon": 0.0, "lat": 38.906403, "is_disabled": 0, "bike_id": "eb8882e167c50f5686cc729e9dec76bf", "fusion_lat": 0.0, "is_reserved": 0, "lon": -77.04134016666667}, {"type": "electric_scooter", "name": "baef54777299e5ab198ed939837ba0d3", "rental_uris": {"ios": "https://dc.lft.to/lastmile_qr_scan", "android": "https://dc.lft.to/lastmile_qr_scan"}, "fusion_lon": 0.0, "lat": 38.8913565, "is_disabled": 0, "bike_id": "baef54777299e5ab198ed939837ba0d3", "fusion_lat": 0.0, "is_reserved": 0, "lon": -76.9909155}, {"type": "electric_bike", "name": "8cf539f5d0674482f43b82b79cef133e", "rental_uris": {"ios": "https://dc.lft.to/lastmile_qr_scan", "android": "https://dc.lft.to/lastmile_qr_scan"}, "fusion_lon": 0.0, "lat": 38.853143333333335, "is_disabled": 0, "bike_id": "8cf539f5d0674482f43b82b79cef133e", "fusion_lat": 0.0, "is_reserved": 0, "lon": -76.98008783333333}, {"type": "electric_scooter", "name": "d5fe7c5397b94d17664aeb9eb9bc587a", "rental_uris": {"ios": "https://dc.lft.to/lastmile_qr_scan", "android": "https://dc.lft.to/lastmile_qr_scan"}, "fusion_lon": 0.0, "lat": 38.918332166666666, "is_disabled": 0, "bike_id": "d5fe7c5397b94d17664aeb9eb9bc587a", "fusion_lat": 0.0, "is_reserved": 0, "lon": -77.022897}, {"type": "electric_scooter", "name": "28a62a4e5f0ee988d12097a42e0820d3", "rental_uris": {"ios": "https://dc.lft.to/lastmile_qr_scan", "android": "https://dc.lft.to/lastmile_qr_scan"}, "fusion_lon": 0.0, "lat": 38.915616166666666, "is_disabled": 0, "bike_id": "28a62a4e5f0ee988d12097a42e0820d3", "fusion_lat": 0.0, "is_reserved": 0, "lon": -77.02127116666666}, {"type": "electric_bike", "name": "a722f1476aff908a291a0786ac2bde66", "rental_uris": {"ios": "https://dc.lft.to/lastmile_qr_scan", "android": "https://dc.lft.to/lastmile_qr_scan"}, "fusion_lon": 0.0, "lat": 38.95483316666667, "is_disabled": 0, "bike_id": "a722f1476aff908a291a0786ac2bde66", "fusion_lat": 0.0, "is_reserved": 0, "lon": -77.0266255}, {"type": "electric_scooter", "name": "32e1ec50233343a5b6803959b9c6bc5e", "rental_uris": {"ios": "https://dc.lft.to/lastmile_qr_scan", "android": "https://dc.lft.to/lastmile_qr_scan"}, "fusion_lon": 0.0, "lat": 38.92379566666666, "is_disabled": 0, "bike_id": "32e1ec50233343a5b6803959b9c6bc5e", "fusion_lat": 0.0, "is_reserved": 0, "lon": -77.01981516666666}, {"type": "electric_scooter", "name": "8b96642511db4f04fc775da3b1f17af2", "rental_uris": {"ios": "https://dc.lft.to/lastmile_qr_scan", "android": "https://dc.lft.to/lastmile_qr_scan"}, "fusion_lon": 0.0, "lat": 38.907281, "is_disabled": 0, "bike_id": "8b96642511db4f04fc775da3b1f17af2", "fusion_lat": 0.0, "is_reserved": 0, "lon": -76.99775683333333}, {"type": "electric_scooter", "name": "d07427656f5a08f5696ec01c23c97d01", "rental_uris": {"ios": "https://dc.lft.to/lastmile_qr_scan", "android": "https://dc.lft.to/lastmile_qr_scan"}, "fusion_lon": 0.0, "lat": 38.89739933333333, "is_disabled": 0, "bike_id": "d07427656f5a08f5696ec01c23c97d01", "fusion_lat": 0.0, "is_reserved": 0, "lon": -77.0323765}, {"type": "electric_bike", "name": "922f4e76c66c11fb0a67487e0f71a97e", "rental_uris": {"ios": "https://dc.lft.to/lastmile_qr_scan", "android": "https://dc.lft.to/lastmile_qr_scan"}, "fusion_lon": 0.0, "lat": 38.83935066666667, "is_disabled": 0, "bike_id": "922f4e76c66c11fb0a67487e0f71a97e", "fusion_lat": 0.0, "is_reserved": 0, "lon": -77.07903866666666}, {"type": "electric_scooter", "name": "cbd912acc63b974030c644052b69dfa9", "rental_uris": {"ios": "https://dc.lft.to/lastmile_qr_scan", "android": "https://dc.lft.to/lastmile_qr_scan"}, "fusion_lon": 0.0, "lat": 38.917089, "is_disabled": 0, "bike_id": "cbd912acc63b974030c644052b69dfa9", "fusion_lat": 0.0, "is_reserved": 0, "lon": -77.02178416666666}, {"type": "electric_scooter", "name": "741a4947181803cb1f93ca85c62755d9", "rental_uris": {"ios": "https://dc.lft.to/lastmile_qr_scan", "android": "https://dc.lft.to/lastmile_qr_scan"}, "fusion_lon": 0.0, "lat": 38.926015666666665, "is_disabled": 0, "bike_id": "741a4947181803cb1f93ca85c62755d9", "fusion_lat": 0.0, "is_reserved": 0, "lon": -77.02387883333333}, {"type": "electric_scooter", "name": "bd5dff46440c30b662dfd2d97116adf2", "rental_uris": {"ios": "https://dc.lft.to/lastmile_qr_scan", "android": "https://dc.lft.to/lastmile_qr_scan"}, "fusion_lon": 0.0, "lat": 38.937006833333335, "is_disabled": 0, "bike_id": "bd5dff46440c30b662dfd2d97116adf2", "fusion_lat": 0.0, "is_reserved": 0, "lon": -77.05596883333334}, {"type": "electric_scooter", "name": "04826bac07dad7c5a8fb9679ee43e173", "rental_uris": {"ios": "https://dc.lft.to/lastmile_qr_scan", "android": "https://dc.lft.to/lastmile_qr_scan"}, "fusion_lon": 0.0, "lat": 38.909708, "is_disabled": 0, "bike_id": "04826bac07dad7c5a8fb9679ee43e173", "fusion_lat": 0.0, "is_reserved": 0, "lon": -77.03312716666667}, {"type": "electric_scooter", "name": "79baf9ad5af7208725450e832aea16e8", "rental_uris": {"ios": "https://dc.lft.to/lastmile_qr_scan", "android": "https://dc.lft.to/lastmile_qr_scan"}, "fusion_lon": 0.0, "lat": 38.917603166666666, "is_disabled": 0, "bike_id": "79baf9ad5af7208725450e832aea16e8", "fusion_lat": 0.0, "is_reserved": 0, "lon": -77.01223616666667}, {"type": "electric_bike", "name": "5f705d57b0b7decf02ba1cbc2058f33f", "rental_uris": {"ios": "https://dc.lft.to/lastmile_qr_scan", "android": "https://dc.lft.to/lastmile_qr_scan"}, "fusion_lon": 0.0, "lat": 38.97882233333333, "is_disabled": 0, "bike_id": "5f705d57b0b7decf02ba1cbc2058f33f", "fusion_lat": 0.0, "is_reserved": 0, "lon": -77.0603205}, {"type": "electric_scooter", "name": "d14f993a36dfbe5ba7aa2be70ab8cd7a", "rental_uris": {"ios": "https://dc.lft.to/lastmile_qr_scan", "android": "https://dc.lft.to/lastmile_qr_scan"}, "fusion_lon": 0.0, "lat": 38.917052, "is_disabled": 0, "bike_id": "d14f993a36dfbe5ba7aa2be70ab8cd7a", "fusion_lat": 0.0, "is_reserved": 0, "lon": -77.03875916666667}, {"type": "electric_scooter", "name": "e2a14fb412391d1a6fed47996469fa2b", "rental_uris": {"ios": "https://dc.lft.to/lastmile_qr_scan", "android": "https://dc.lft.to/lastmile_qr_scan"}, "fusion_lon": 0.0, "lat": 38.89221366666666, "is_disabled": 0, "bike_id": "e2a14fb412391d1a6fed47996469fa2b", "fusion_lat": 0.0, "is_reserved": 0, "lon": -77.04770983333333}, {"type": "electric_scooter", "name": "6d8a58a7ecb62efc3502f57f2b46e9b9", "rental_uris": {"ios": "https://dc.lft.to/lastmile_qr_scan", "android": "https://dc.lft.to/lastmile_qr_scan"}, "fusion_lon": 0.0, "lat": 38.8860755, "is_disabled": 0, "bike_id": "6d8a58a7ecb62efc3502f57f2b46e9b9", "fusion_lat": 0.0, "is_reserved": 0, "lon": -77.032049}, {"type": "electric_scooter", "name": "dac987c129179e90af65fbdeb92e3e23", "rental_uris": {"ios": "https://dc.lft.to/lastmile_qr_scan", "android": "https://dc.lft.to/lastmile_qr_scan"}, "fusion_lon": 0.0, "lat": 38.91492733333333, "is_disabled": 0, "bike_id": "dac987c129179e90af65fbdeb92e3e23", "fusion_lat": 0.0, "is_reserved": 0, "lon": -77.03725483333334}, {"type": "electric_scooter", "name": "50734f4d000f7fe36a302f6d999e7a70", "rental_uris": {"ios": "https://dc.lft.to/lastmile_qr_scan", "android": "https://dc.lft.to/lastmile_qr_scan"}, "fusion_lon": 0.0, "lat": 38.887323333333335, "is_disabled": 0, "bike_id": "50734f4d000f7fe36a302f6d999e7a70", "fusion_lat": 0.0, "is_reserved": 0, "lon": -77.02583966666667}, {"type": "electric_scooter", "name": "e7000ff16464ff659f27604ec65ec09f", "rental_uris": {"ios": "https://dc.lft.to/lastmile_qr_scan", "android": "https://dc.lft.to/lastmile_qr_scan"}, "fusion_lon": 0.0, "lat": 38.892229, "is_disabled": 0, "bike_id": "e7000ff16464ff659f27604ec65ec09f", "fusion_lat": 0.0, "is_reserved": 0, "lon": -77.04196383333333}, {"type": "electric_bike", "name": "550e77ff86c52bbfa8c5bc28676c5da6", "rental_uris": {"ios": "https://dc.lft.to/lastmile_qr_scan", "android": "https://dc.lft.to/lastmile_qr_scan"}, "fusion_lon": 0.0, "lat": 38.85768816666667, "is_disabled": 0, "bike_id": "550e77ff86c52bbfa8c5bc28676c5da6", "fusion_lat": 0.0, "is_reserved": 0, "lon": -76.9877145}, {"type": "electric_scooter", "name": "8b883671a0606ee66f295dc392e85677", "rental_uris": {"ios": "https://dc.lft.to/lastmile_qr_scan", "android": "https://dc.lft.to/lastmile_qr_scan"}, "fusion_lon": 0.0, "lat": 38.92658483333334, "is_disabled": 0, "bike_id": "8b883671a0606ee66f295dc392e85677", "fusion_lat": 0.0, "is_reserved": 0, "lon": -77.023027}, {"type": "electric_scooter", "name": "3039287c316a2e2729ffce8f78fb4203", "rental_uris": {"ios": "https://dc.lft.to/lastmile_qr_scan", "android": "https://dc.lft.to/lastmile_qr_scan"}, "fusion_lon": 0.0, "lat": 38.910477, "is_disabled": 0, "bike_id": "3039287c316a2e2729ffce8f78fb4203", "fusion_lat": 0.0, "is_reserved": 0, "lon": -77.01024433333333}, {"type": "electric_scooter", "name": "c2683cd65c815a7a01bbccc6dd1c2362", "rental_uris": {"ios": "https://dc.lft.to/lastmile_qr_scan", "android": "https://dc.lft.to/lastmile_qr_scan"}, "fusion_lon": 0.0, "lat": 38.92477016666667, "is_disabled": 0, "bike_id": "c2683cd65c815a7a01bbccc6dd1c2362", "fusion_lat": 0.0, "is_reserved": 0, "lon": -77.0220785}, {"type": "electric_scooter", "name": "fd4428870f826a650fa7b03b1e553a1b", "rental_uris": {"ios": "https://dc.lft.to/lastmile_qr_scan", "android": "https://dc.lft.to/lastmile_qr_scan"}, "fusion_lon": 0.0, "lat": 38.912357, "is_disabled": 0, "bike_id": "fd4428870f826a650fa7b03b1e553a1b", "fusion_lat": 0.0, "is_reserved": 0, "lon": -77.0487705}, {"type": "electric_scooter", "name": "9e15d8e2637d678e827140f1a8a81276", "rental_uris": {"ios": "https://dc.lft.to/lastmile_qr_scan", "android": "https://dc.lft.to/lastmile_qr_scan"}, "fusion_lon": 0.0, "lat": 38.930817166666664, "is_disabled": 0, "bike_id": "9e15d8e2637d678e827140f1a8a81276", "fusion_lat": 0.0, "is_reserved": 0, "lon": -77.0280915}, {"type": "electric_scooter", "name": "848ec4b54193c1866a7e486fc64c8505", "rental_uris": {"ios": "https://dc.lft.to/lastmile_qr_scan", "android": "https://dc.lft.to/lastmile_qr_scan"}, "fusion_lon": 0.0, "lat": 38.910711166666665, "is_disabled": 0, "bike_id": "848ec4b54193c1866a7e486fc64c8505", "fusion_lat": 0.0, "is_reserved": 0, "lon": -77.00390866666666}, {"type": "electric_scooter", "name": "ab6ff40adaa334a561f2996b48a86ead", "rental_uris": {"ios": "https://dc.lft.to/lastmile_qr_scan", "android": "https://dc.lft.to/lastmile_qr_scan"}, "fusion_lon": 0.0, "lat": 38.92121266666667, "is_disabled": 0, "bike_id": "ab6ff40adaa334a561f2996b48a86ead", "fusion_lat": 0.0, "is_reserved": 0, "lon": -77.01206433333333}, {"type": "electric_scooter", "name": "1e79be1533e7399ec3f08efaea29d97a", "rental_uris": {"ios": "https://dc.lft.to/lastmile_qr_scan", "android": "https://dc.lft.to/lastmile_qr_scan"}, "fusion_lon": 0.0, "lat": 38.90571216666667, "is_disabled": 0, "bike_id": "1e79be1533e7399ec3f08efaea29d97a", "fusion_lat": 0.0, "is_reserved": 0, "lon": -77.02414883333333}, {"type": "electric_bike", "name": "69352891e5753743a23ed2e2509fef7a", "rental_uris": {"ios": "https://dc.lft.to/lastmile_qr_scan", "android": "https://dc.lft.to/lastmile_qr_scan"}, "fusion_lon": 0.0, "lat": 38.957569666666664, "is_disabled": 0, "bike_id": "69352891e5753743a23ed2e2509fef7a", "fusion_lat": 0.0, "is_reserved": 0, "lon": -77.02055766666666}, {"type": "electric_scooter", "name": "0b5f3e5e43fc01d9a07fa25a93342189", "rental_uris": {"ios": "https://dc.lft.to/lastmile_qr_scan", "android": "https://dc.lft.to/lastmile_qr_scan"}, "fusion_lon": 0.0, "lat": 38.91055216666667, "is_disabled": 0, "bike_id": "0b5f3e5e43fc01d9a07fa25a93342189", "fusion_lat": 0.0, "is_reserved": 0, "lon": -77.02191816666667}, {"type": "electric_scooter", "name": "79b82b79606d6322fb17740d94b0e497", "rental_uris": {"ios": "https://dc.lft.to/lastmile_qr_scan", "android": "https://dc.lft.to/lastmile_qr_scan"}, "fusion_lon": 0.0, "lat": 38.91706416666667, "is_disabled": 0, "bike_id": "79b82b79606d6322fb17740d94b0e497", "fusion_lat": 0.0, "is_reserved": 0, "lon": -77.041735}, {"type": "electric_scooter", "name": "b5acfebc29c2f51058da27b68b360892", "rental_uris": {"ios": "https://dc.lft.to/lastmile_qr_scan", "android": "https://dc.lft.to/lastmile_qr_scan"}, "fusion_lon": 0.0, "lat": 38.92949633333333, "is_disabled": 0, "bike_id": "b5acfebc29c2f51058da27b68b360892", "fusion_lat": 0.0, "is_reserved": 0, "lon": -77.018901}, {"type": "electric_scooter", "name": "50bdca471b0648b5278464930ae49916", "rental_uris": {"ios": "https://dc.lft.to/lastmile_qr_scan", "android": "https://dc.lft.to/lastmile_qr_scan"}, "fusion_lon": 0.0, "lat": 38.916964, "is_disabled": 0, "bike_id": "50bdca471b0648b5278464930ae49916", "fusion_lat": 0.0, "is_reserved": 0, "lon": -77.04108233333334}, {"type": "electric_scooter", "name": "bfcb78621e07c85311f8178137f74381", "rental_uris": {"ios": "https://dc.lft.to/lastmile_qr_scan", "android": "https://dc.lft.to/lastmile_qr_scan"}, "fusion_lon": 0.0, "lat": 38.90521016666667, "is_disabled": 0, "bike_id": "bfcb78621e07c85311f8178137f74381", "fusion_lat": 0.0, "is_reserved": 0, "lon": -77.04351383333334}, {"type": "electric_scooter", "name": "325723bffaf59a415e1949540467cd97", "rental_uris": {"ios": "https://dc.lft.to/lastmile_qr_scan", "android": "https://dc.lft.to/lastmile_qr_scan"}, "fusion_lon": 0.0, "lat": 38.9002795, "is_disabled": 0, "bike_id": "325723bffaf59a415e1949540467cd97", "fusion_lat": 0.0, "is_reserved": 0, "lon": -77.04032366666667}, {"type": "electric_scooter", "name": "daafb85fa4071aa07763383208b055c3", "rental_uris": {"ios": "https://dc.lft.to/lastmile_qr_scan", "android": "https://dc.lft.to/lastmile_qr_scan"}, "fusion_lon": 0.0, "lat": 38.90032983333333, "is_disabled": 0, "bike_id": "daafb85fa4071aa07763383208b055c3", "fusion_lat": 0.0, "is_reserved": 0, "lon": -76.98726033333334}, {"type": "electric_bike", "name": "f1a4ef7c5bbbfca9e69d6dfb19533a89", "rental_uris": {"ios": "https://dc.lft.to/lastmile_qr_scan", "android": "https://dc.lft.to/lastmile_qr_scan"}, "fusion_lon": 0.0, "lat": 39.014174, "is_disabled": 0, "bike_id": "f1a4ef7c5bbbfca9e69d6dfb19533a89", "fusion_lat": 0.0, "is_reserved": 0, "lon": -77.044961}, {"type": "electric_scooter", "name": "b785673cb90762b9146fca905c6c7326", "rental_uris": {"ios": "https://dc.lft.to/lastmile_qr_scan", "android": "https://dc.lft.to/lastmile_qr_scan"}, "fusion_lon": 0.0, "lat": 38.9091205, "is_disabled": 0, "bike_id": "b785673cb90762b9146fca905c6c7326", "fusion_lat": 0.0, "is_reserved": 0, "lon": -76.9863485}, {"type": "electric_scooter", "name": "6b3e239db9fc287c322ac8e7d192d8d7", "rental_uris": {"ios": "https://dc.lft.to/lastmile_qr_scan", "android": "https://dc.lft.to/lastmile_qr_scan"}, "fusion_lon": 0.0, "lat": 38.8952575, "is_disabled": 0, "bike_id": "6b3e239db9fc287c322ac8e7d192d8d7", "fusion_lat": 0.0, "is_reserved": 0, "lon": -77.002181}, {"type": "electric_scooter", "name": "3d2b9dd10f55b94d6180c7429f621fe2", "rental_uris": {"ios": "https://dc.lft.to/lastmile_qr_scan", "android": "https://dc.lft.to/lastmile_qr_scan"}, "fusion_lon": 0.0, "lat": 38.9204265, "is_disabled": 0, "bike_id": "3d2b9dd10f55b94d6180c7429f621fe2", "fusion_lat": 0.0, "is_reserved": 0, "lon": -77.0179175}, {"type": "electric_bike", "name": "97a7fc6fcc23066d867d22c49edc6953", "rental_uris": {"ios": "https://dc.lft.to/lastmile_qr_scan", "android": "https://dc.lft.to/lastmile_qr_scan"}, "fusion_lon": 0.0, "lat": 38.857890166666664, "is_disabled": 0, "bike_id": "97a7fc6fcc23066d867d22c49edc6953", "fusion_lat": 0.0, "is_reserved": 0, "lon": -77.09961133333333}, {"type": "electric_scooter", "name": "17d1249d9c7bd65c225c878f176a4308", "rental_uris": {"ios": "https://dc.lft.to/lastmile_qr_scan", "android": "https://dc.lft.to/lastmile_qr_scan"}, "fusion_lon": 0.0, "lat": 38.88501683333333, "is_disabled": 0, "bike_id": "17d1249d9c7bd65c225c878f176a4308", "fusion_lat": 0.0, "is_reserved": 0, "lon": -76.99754516666667}, {"type": "electric_bike", "name": "48a131090e618de9d103a939dcc73e0d", "rental_uris": {"ios": "https://dc.lft.to/lastmile_qr_scan", "android": "https://dc.lft.to/lastmile_qr_scan"}, "fusion_lon": 0.0, "lat": 38.898144, "is_disabled": 0, "bike_id": "48a131090e618de9d103a939dcc73e0d", "fusion_lat": 0.0, "is_reserved": 0, "lon": -76.9907725}, {"type": "electric_bike", "name": "19aaf6939987c32177262484301add94", "rental_uris": {"ios": "https://dc.lft.to/lastmile_qr_scan", "android": "https://dc.lft.to/lastmile_qr_scan"}, "fusion_lon": 0.0, "lat": 38.930466, "is_disabled": 0, "bike_id": "19aaf6939987c32177262484301add94", "fusion_lat": 0.0, "is_reserved": 0, "lon": -76.958373}, {"type": "electric_bike", "name": "24b1e95b6a4cf110492ebba9b8dbb283", "rental_uris": {"ios": "https://dc.lft.to/lastmile_qr_scan", "android": "https://dc.lft.to/lastmile_qr_scan"}, "fusion_lon": 0.0, "lat": 38.816089833333336, "is_disabled": 0, "bike_id": "24b1e95b6a4cf110492ebba9b8dbb283", "fusion_lat": 0.0, "is_reserved": 0, "lon": -76.99658633333334}, {"type": "electric_scooter", "name": "baf315d7a8c254fc8643a22904d1f457", "rental_uris": {"ios": "https://dc.lft.to/lastmile_qr_scan", "android": "https://dc.lft.to/lastmile_qr_scan"}, "fusion_lon": 0.0, "lat": 38.91773033333333, "is_disabled": 0, "bike_id": "baf315d7a8c254fc8643a22904d1f457", "fusion_lat": 0.0, "is_reserved": 0, "lon": -77.01925766666666}, {"type": "electric_scooter", "name": "083bc293c21aeb8fb08bbd7ba62c36fe", "rental_uris": {"ios": "https://dc.lft.to/lastmile_qr_scan", "android": "https://dc.lft.to/lastmile_qr_scan"}, "fusion_lon": 0.0, "lat": 38.8967065, "is_disabled": 0, "bike_id": "083bc293c21aeb8fb08bbd7ba62c36fe", "fusion_lat": 0.0, "is_reserved": 0, "lon": -77.04665466666667}, {"type": "electric_scooter", "name": "4f512259d09dda905f70f060611d248a", "rental_uris": {"ios": "https://dc.lft.to/lastmile_qr_scan", "android": "https://dc.lft.to/lastmile_qr_scan"}, "fusion_lon": 0.0, "lat": 38.88317633333333, "is_disabled": 0, "bike_id": "4f512259d09dda905f70f060611d248a", "fusion_lat": 0.0, "is_reserved": 0, "lon": -77.0176695}, {"type": "electric_scooter", "name": "02c5081967c6e8f0d9cec1ff232e7192", "rental_uris": {"ios": "https://dc.lft.to/lastmile_qr_scan", "android": "https://dc.lft.to/lastmile_qr_scan"}, "fusion_lon": 0.0, "lat": 38.93675183333333, "is_disabled": 0, "bike_id": "02c5081967c6e8f0d9cec1ff232e7192", "fusion_lat": 0.0, "is_reserved": 0, "lon": -77.035928}, {"type": "electric_scooter", "name": "32c398a80643ccd09345209ed7183e48", "rental_uris": {"ios": "https://dc.lft.to/lastmile_qr_scan", "android": "https://dc.lft.to/lastmile_qr_scan"}, "fusion_lon": 0.0, "lat": 38.92338683333333, "is_disabled": 0, "bike_id": "32c398a80643ccd09345209ed7183e48", "fusion_lat": 0.0, "is_reserved": 0, "lon": -77.00044766666667}, {"type": "electric_scooter", "name": "62e37577d378a37c339a3469b0db2588", "rental_uris": {"ios": "https://dc.lft.to/lastmile_qr_scan", "android": "https://dc.lft.to/lastmile_qr_scan"}, "fusion_lon": 0.0, "lat": 38.902369, "is_disabled": 0, "bike_id": "62e37577d378a37c339a3469b0db2588", "fusion_lat": 0.0, "is_reserved": 0, "lon": -77.04590183333333}, {"type": "electric_scooter", "name": "c2f523348aea066d1bb8b181834005de", "rental_uris": {"ios": "https://dc.lft.to/lastmile_qr_scan", "android": "https://dc.lft.to/lastmile_qr_scan"}, "fusion_lon": 0.0, "lat": 38.9204235, "is_disabled": 0, "bike_id": "c2f523348aea066d1bb8b181834005de", "fusion_lat": 0.0, "is_reserved": 0, "lon": -77.01678133333333}, {"type": "electric_scooter", "name": "6b70550e81f66a4d621706a40b83c39f", "rental_uris": {"ios": "https://dc.lft.to/lastmile_qr_scan", "android": "https://dc.lft.to/lastmile_qr_scan"}, "fusion_lon": 0.0, "lat": 38.9163915, "is_disabled": 0, "bike_id": "6b70550e81f66a4d621706a40b83c39f", "fusion_lat": 0.0, "is_reserved": 0, "lon": -77.04790283333334}, {"type": "electric_scooter", "name": "66c494ac70e7836498694121e235c1f4", "rental_uris": {"ios": "https://dc.lft.to/lastmile_qr_scan", "android": "https://dc.lft.to/lastmile_qr_scan"}, "fusion_lon": 0.0, "lat": 38.887442, "is_disabled": 0, "bike_id": "66c494ac70e7836498694121e235c1f4", "fusion_lat": 0.0, "is_reserved": 0, "lon": -77.01726416666666}, {"type": "electric_bike", "name": "a078006a27bca242c09bf0156dc1aad8", "rental_uris": {"ios": "https://dc.lft.to/lastmile_qr_scan", "android": "https://dc.lft.to/lastmile_qr_scan"}, "fusion_lon": 0.0, "lat": 38.961275, "is_disabled": 0, "bike_id": "a078006a27bca242c09bf0156dc1aad8", "fusion_lat": 0.0, "is_reserved": 0, "lon": -77.03278083333333}, {"type": "electric_scooter", "name": "a8d7a51d4f7de6fa094f421611d492c8", "rental_uris": {"ios": "https://dc.lft.to/lastmile_qr_scan", "android": "https://dc.lft.to/lastmile_qr_scan"}, "fusion_lon": 0.0, "lat": 38.92115483333333, "is_disabled": 0, "bike_id": "a8d7a51d4f7de6fa094f421611d492c8", "fusion_lat": 0.0, "is_reserved": 0, "lon": -77.04384466666667}, {"type": "electric_scooter", "name": "bf319e1ff864ae69dfb2d552cff577c1", "rental_uris": {"ios": "https://dc.lft.to/lastmile_qr_scan", "android": "https://dc.lft.to/lastmile_qr_scan"}, "fusion_lon": 0.0, "lat": 38.884625666666665, "is_disabled": 0, "bike_id": "bf319e1ff864ae69dfb2d552cff577c1", "fusion_lat": 0.0, "is_reserved": 0, "lon": -76.94984866666667}, {"type": "electric_scooter", "name": "eed2c854fd358e1907474327d6e20920", "rental_uris": {"ios": "https://dc.lft.to/lastmile_qr_scan", "android": "https://dc.lft.to/lastmile_qr_scan"}, "fusion_lon": 0.0, "lat": 38.9275055, "is_disabled": 0, "bike_id": "eed2c854fd358e1907474327d6e20920", "fusion_lat": 0.0, "is_reserved": 0, "lon": -77.02133816666667}, {"type": "electric_bike", "name": "c902fd2babbe0d1a716c2393c32582e8", "rental_uris": {"ios": "https://dc.lft.to/lastmile_qr_scan", "android": "https://dc.lft.to/lastmile_qr_scan"}, "fusion_lon": 0.0, "lat": 38.9030615, "is_disabled": 0, "bike_id": "c902fd2babbe0d1a716c2393c32582e8", "fusion_lat": 0.0, "is_reserved": 0, "lon": -76.97653133333333}, {"type": "electric_scooter", "name": "9aa5b2c6e584ff2d14da1a9f5c0734a4", "rental_uris": {"ios": "https://dc.lft.to/lastmile_qr_scan", "android": "https://dc.lft.to/lastmile_qr_scan"}, "fusion_lon": 0.0, "lat": 38.91564316666667, "is_disabled": 0, "bike_id": "9aa5b2c6e584ff2d14da1a9f5c0734a4", "fusion_lat": 0.0, "is_reserved": 0, "lon": -77.03223033333333}, {"type": "electric_scooter", "name": "52d435185c59af204bd7bc95ef40813f", "rental_uris": {"ios": "https://dc.lft.to/lastmile_qr_scan", "android": "https://dc.lft.to/lastmile_qr_scan"}, "fusion_lon": 0.0, "lat": 38.89556966666667, "is_disabled": 0, "bike_id": "52d435185c59af204bd7bc95ef40813f", "fusion_lat": 0.0, "is_reserved": 0, "lon": -77.03959966666666}, {"type": "electric_scooter", "name": "9785ba5eebfb162b04a547cd91a4fa79", "rental_uris": {"ios": "https://dc.lft.to/lastmile_qr_scan", "android": "https://dc.lft.to/lastmile_qr_scan"}, "fusion_lon": 0.0, "lat": 38.975112833333334, "is_disabled": 0, "bike_id": "9785ba5eebfb162b04a547cd91a4fa79", "fusion_lat": 0.0, "is_reserved": 0, "lon": -77.016657}, {"type": "electric_scooter", "name": "ca86596f096a367b247c9a5480ff42e2", "rental_uris": {"ios": "https://dc.lft.to/lastmile_qr_scan", "android": "https://dc.lft.to/lastmile_qr_scan"}, "fusion_lon": 0.0, "lat": 38.9095305, "is_disabled": 0, "bike_id": "ca86596f096a367b247c9a5480ff42e2", "fusion_lat": 0.0, "is_reserved": 0, "lon": -76.99886416666666}, {"type": "electric_scooter", "name": "13abeb422e33f077e902d8acd664aa67", "rental_uris": {"ios": "https://dc.lft.to/lastmile_qr_scan", "android": "https://dc.lft.to/lastmile_qr_scan"}, "fusion_lon": 0.0, "lat": 38.94275316666667, "is_disabled": 0, "bike_id": "13abeb422e33f077e902d8acd664aa67", "fusion_lat": 0.0, "is_reserved": 0, "lon": -77.0126665}, {"type": "electric_scooter", "name": "2ebcc3b50cb7f28c0a264ec08c901950", "rental_uris": {"ios": "https://dc.lft.to/lastmile_qr_scan", "android": "https://dc.lft.to/lastmile_qr_scan"}, "fusion_lon": 0.0, "lat": 38.918491333333336, "is_disabled": 0, "bike_id": "2ebcc3b50cb7f28c0a264ec08c901950", "fusion_lat": 0.0, "is_reserved": 0, "lon": -77.044974}, {"type": "electric_bike", "name": "490372a990ba54e4a13999d27c28023f", "rental_uris": {"ios": "https://dc.lft.to/lastmile_qr_scan", "android": "https://dc.lft.to/lastmile_qr_scan"}, "fusion_lon": 0.0, "lat": 38.83365716666667, "is_disabled": 0, "bike_id": "490372a990ba54e4a13999d27c28023f", "fusion_lat": 0.0, "is_reserved": 0, "lon": -77.00304233333334}, {"type": "electric_scooter", "name": "e905a34416e8a5b32b6913a724e7f4c5", "rental_uris": {"ios": "https://dc.lft.to/lastmile_qr_scan", "android": "https://dc.lft.to/lastmile_qr_scan"}, "fusion_lon": 0.0, "lat": 38.89424133333333, "is_disabled": 0, "bike_id": "e905a34416e8a5b32b6913a724e7f4c5", "fusion_lat": 0.0, "is_reserved": 0, "lon": -77.00099516666667}, {"type": "electric_scooter", "name": "6c4bdf90bee88db113e38f4519c98f06", "rental_uris": {"ios": "https://dc.lft.to/lastmile_qr_scan", "android": "https://dc.lft.to/lastmile_qr_scan"}, "fusion_lon": 0.0, "lat": 38.92532083333333, "is_disabled": 0, "bike_id": "6c4bdf90bee88db113e38f4519c98f06", "fusion_lat": 0.0, "is_reserved": 0, "lon": -77.03524516666667}, {"type": "electric_scooter", "name": "5de8dbd6de7c72ac10cd0f49d2d2d365", "rental_uris": {"ios": "https://dc.lft.to/lastmile_qr_scan", "android": "https://dc.lft.to/lastmile_qr_scan"}, "fusion_lon": 0.0, "lat": 38.895389, "is_disabled": 0, "bike_id": "5de8dbd6de7c72ac10cd0f49d2d2d365", "fusion_lat": 0.0, "is_reserved": 0, "lon": -77.02812733333333}, {"type": "electric_scooter", "name": "5582a907bba0fa89180a2247b8a1031c", "rental_uris": {"ios": "https://dc.lft.to/lastmile_qr_scan", "android": "https://dc.lft.to/lastmile_qr_scan"}, "fusion_lon": 0.0, "lat": 38.90958583333333, "is_disabled": 0, "bike_id": "5582a907bba0fa89180a2247b8a1031c", "fusion_lat": 0.0, "is_reserved": 0, "lon": -77.02277666666667}, {"type": "electric_scooter", "name": "6513300e037739a0308fe8db60c86444", "rental_uris": {"ios": "https://dc.lft.to/lastmile_qr_scan", "android": "https://dc.lft.to/lastmile_qr_scan"}, "fusion_lon": 0.0, "lat": 38.9232035, "is_disabled": 0, "bike_id": "6513300e037739a0308fe8db60c86444", "fusion_lat": 0.0, "is_reserved": 0, "lon": -77.02971216666667}, {"type": "electric_scooter", "name": "19e73bfe3bafabbc5e7b73b99be28449", "rental_uris": {"ios": "https://dc.lft.to/lastmile_qr_scan", "android": "https://dc.lft.to/lastmile_qr_scan"}, "fusion_lon": 0.0, "lat": 38.90516683333333, "is_disabled": 0, "bike_id": "19e73bfe3bafabbc5e7b73b99be28449", "fusion_lat": 0.0, "is_reserved": 0, "lon": -77.06775916666666}, {"type": "electric_scooter", "name": "f60a9df67132358df9f19946c5051e81", "rental_uris": {"ios": "https://dc.lft.to/lastmile_qr_scan", "android": "https://dc.lft.to/lastmile_qr_scan"}, "fusion_lon": 0.0, "lat": 38.89725083333333, "is_disabled": 0, "bike_id": "f60a9df67132358df9f19946c5051e81", "fusion_lat": 0.0, "is_reserved": 0, "lon": -77.05522333333333}, {"type": "electric_scooter", "name": "6f67fc7ffaa36ab0ec9fc5a7d960ace4", "rental_uris": {"ios": "https://dc.lft.to/lastmile_qr_scan", "android": "https://dc.lft.to/lastmile_qr_scan"}, "fusion_lon": 0.0, "lat": 38.938953166666664, "is_disabled": 0, "bike_id": "6f67fc7ffaa36ab0ec9fc5a7d960ace4", "fusion_lat": 0.0, "is_reserved": 0, "lon": -77.033398}, {"type": "electric_scooter", "name": "105176fa60489eb2dc1f22f2108921f8", "rental_uris": {"ios": "https://dc.lft.to/lastmile_qr_scan", "android": "https://dc.lft.to/lastmile_qr_scan"}, "fusion_lon": 0.0, "lat": 38.88502033333333, "is_disabled": 0, "bike_id": "105176fa60489eb2dc1f22f2108921f8", "fusion_lat": 0.0, "is_reserved": 0, "lon": -77.00698866666667}, {"type": "electric_scooter", "name": "b186f215e7d2628d31701d2ff1bf3b3f", "rental_uris": {"ios": "https://dc.lft.to/lastmile_qr_scan", "android": "https://dc.lft.to/lastmile_qr_scan"}, "fusion_lon": 0.0, "lat": 38.865557, "is_disabled": 0, "bike_id": "b186f215e7d2628d31701d2ff1bf3b3f", "fusion_lat": 0.0, "is_reserved": 0, "lon": -76.98352116666666}, {"type": "electric_scooter", "name": "34d530b616d07723b0d49532910787c1", "rental_uris": {"ios": "https://dc.lft.to/lastmile_qr_scan", "android": "https://dc.lft.to/lastmile_qr_scan"}, "fusion_lon": 0.0, "lat": 38.92562733333333, "is_disabled": 0, "bike_id": "34d530b616d07723b0d49532910787c1", "fusion_lat": 0.0, "is_reserved": 0, "lon": -77.02714783333333}, {"type": "electric_scooter", "name": "d74ef64e79f6571dd9d774e36a9bcf1b", "rental_uris": {"ios": "https://dc.lft.to/lastmile_qr_scan", "android": "https://dc.lft.to/lastmile_qr_scan"}, "fusion_lon": 0.0, "lat": 38.905707666666665, "is_disabled": 0, "bike_id": "d74ef64e79f6571dd9d774e36a9bcf1b", "fusion_lat": 0.0, "is_reserved": 0, "lon": -77.0241525}, {"type": "electric_scooter", "name": "d23e600c0459ef1de760dadaa0272fb8", "rental_uris": {"ios": "https://dc.lft.to/lastmile_qr_scan", "android": "https://dc.lft.to/lastmile_qr_scan"}, "fusion_lon": 0.0, "lat": 38.9227035, "is_disabled": 0, "bike_id": "d23e600c0459ef1de760dadaa0272fb8", "fusion_lat": 0.0, "is_reserved": 0, "lon": -77.02963866666667}, {"type": "electric_scooter", "name": "e31479efc9b431be072b0bbb95b65491", "rental_uris": {"ios": "https://dc.lft.to/lastmile_qr_scan", "android": "https://dc.lft.to/lastmile_qr_scan"}, "fusion_lon": 0.0, "lat": 38.898759166666665, "is_disabled": 0, "bike_id": "e31479efc9b431be072b0bbb95b65491", "fusion_lat": 0.0, "is_reserved": 0, "lon": -76.93185266666667}, {"type": "electric_scooter", "name": "2abc39d84fa92e07e488c5b7c04f984a", "rental_uris": {"ios": "https://dc.lft.to/lastmile_qr_scan", "android": "https://dc.lft.to/lastmile_qr_scan"}, "fusion_lon": 0.0, "lat": 38.924868000000004, "is_disabled": 0, "bike_id": "2abc39d84fa92e07e488c5b7c04f984a", "fusion_lat": 0.0, "is_reserved": 0, "lon": -77.02661533333334}, {"type": "electric_scooter", "name": "d3826443567fdc3d1efe5a5a2898879b", "rental_uris": {"ios": "https://dc.lft.to/lastmile_qr_scan", "android": "https://dc.lft.to/lastmile_qr_scan"}, "fusion_lon": 0.0, "lat": 38.9003535, "is_disabled": 0, "bike_id": "d3826443567fdc3d1efe5a5a2898879b", "fusion_lat": 0.0, "is_reserved": 0, "lon": -77.001072}, {"type": "electric_scooter", "name": "e33f2ef1ce8a71c1f7a7fead34699a96", "rental_uris": {"ios": "https://dc.lft.to/lastmile_qr_scan", "android": "https://dc.lft.to/lastmile_qr_scan"}, "fusion_lon": 0.0, "lat": 38.93223066666667, "is_disabled": 0, "bike_id": "e33f2ef1ce8a71c1f7a7fead34699a96", "fusion_lat": 0.0, "is_reserved": 0, "lon": -77.02682883333334}, {"type": "electric_scooter", "name": "9b45309336661181487b3e17f12aee31", "rental_uris": {"ios": "https://dc.lft.to/lastmile_qr_scan", "android": "https://dc.lft.to/lastmile_qr_scan"}, "fusion_lon": 0.0, "lat": 38.91272566666667, "is_disabled": 0, "bike_id": "9b45309336661181487b3e17f12aee31", "fusion_lat": 0.0, "is_reserved": 0, "lon": -77.02214533333333}, {"type": "electric_bike", "name": "1d92a6bad0c9de09cc7f2ecc8357c695", "rental_uris": {"ios": "https://dc.lft.to/lastmile_qr_scan", "android": "https://dc.lft.to/lastmile_qr_scan"}, "fusion_lon": 0.0, "lat": 38.9266835, "is_disabled": 0, "bike_id": "1d92a6bad0c9de09cc7f2ecc8357c695", "fusion_lat": 0.0, "is_reserved": 0, "lon": -77.0985265}, {"type": "electric_scooter", "name": "21b5d96ed38408d04bc65a26f62e3adb", "rental_uris": {"ios": "https://dc.lft.to/lastmile_qr_scan", "android": "https://dc.lft.to/lastmile_qr_scan"}, "fusion_lon": 0.0, "lat": 38.925496833333334, "is_disabled": 0, "bike_id": "21b5d96ed38408d04bc65a26f62e3adb", "fusion_lat": 0.0, "is_reserved": 0, "lon": -77.00075733333334}, {"type": "electric_bike", "name": "30c81526fa22f6117367a9eb584ceaa5", "rental_uris": {"ios": "https://dc.lft.to/lastmile_qr_scan", "android": "https://dc.lft.to/lastmile_qr_scan"}, "fusion_lon": 0.0, "lat": 38.957456666666666, "is_disabled": 0, "bike_id": "30c81526fa22f6117367a9eb584ceaa5", "fusion_lat": 0.0, "is_reserved": 0, "lon": -76.9725585}, {"type": "electric_bike", "name": "5a57a8e8f7898805584d1ea736b43879", "rental_uris": {"ios": "https://dc.lft.to/lastmile_qr_scan", "android": "https://dc.lft.to/lastmile_qr_scan"}, "fusion_lon": 0.0, "lat": 38.95739183333333, "is_disabled": 0, "bike_id": "5a57a8e8f7898805584d1ea736b43879", "fusion_lat": 0.0, "is_reserved": 0, "lon": -76.97254533333333}, {"type": "electric_scooter", "name": "0779266f3ba1a25fa00d29938a1d8b1e", "rental_uris": {"ios": "https://dc.lft.to/lastmile_qr_scan", "android": "https://dc.lft.to/lastmile_qr_scan"}, "fusion_lon": 0.0, "lat": 38.91436866666667, "is_disabled": 0, "bike_id": "0779266f3ba1a25fa00d29938a1d8b1e", "fusion_lat": 0.0, "is_reserved": 0, "lon": -77.012238}, {"type": "electric_scooter", "name": "24938832a04797a207bb11d4e86d0dc4", "rental_uris": {"ios": "https://dc.lft.to/lastmile_qr_scan", "android": "https://dc.lft.to/lastmile_qr_scan"}, "fusion_lon": 0.0, "lat": 38.938329333333336, "is_disabled": 0, "bike_id": "24938832a04797a207bb11d4e86d0dc4", "fusion_lat": 0.0, "is_reserved": 0, "lon": -77.08545366666667}, {"type": "electric_scooter", "name": "1103d3fa9aa9df61afb20b1b131e5b09", "rental_uris": {"ios": "https://dc.lft.to/lastmile_qr_scan", "android": "https://dc.lft.to/lastmile_qr_scan"}, "fusion_lon": 0.0, "lat": 38.9169615, "is_disabled": 0, "bike_id": "1103d3fa9aa9df61afb20b1b131e5b09", "fusion_lat": 0.0, "is_reserved": 0, "lon": -77.007395}, {"type": "electric_scooter", "name": "512b03188e4f56d376e0804cc80eef92", "rental_uris": {"ios": "https://dc.lft.to/lastmile_qr_scan", "android": "https://dc.lft.to/lastmile_qr_scan"}, "fusion_lon": 0.0, "lat": 38.89438533333333, "is_disabled": 0, "bike_id": "512b03188e4f56d376e0804cc80eef92", "fusion_lat": 0.0, "is_reserved": 0, "lon": -77.026362}, {"type": "electric_scooter", "name": "a0f4f0a27fa6d0b057151e6c74b5e8d0", "rental_uris": {"ios": "https://dc.lft.to/lastmile_qr_scan", "android": "https://dc.lft.to/lastmile_qr_scan"}, "fusion_lon": 0.0, "lat": 38.89746433333333, "is_disabled": 0, "bike_id": "a0f4f0a27fa6d0b057151e6c74b5e8d0", "fusion_lat": 0.0, "is_reserved": 0, "lon": -77.0201395}, {"type": "electric_scooter", "name": "78f63b9713fa4eb4db2f4a777647a07f", "rental_uris": {"ios": "https://dc.lft.to/lastmile_qr_scan", "android": "https://dc.lft.to/lastmile_qr_scan"}, "fusion_lon": 0.0, "lat": 38.9066795, "is_disabled": 0, "bike_id": "78f63b9713fa4eb4db2f4a777647a07f", "fusion_lat": 0.0, "is_reserved": 0, "lon": -77.0259315}, {"type": "electric_scooter", "name": "1c171908c7334d64458d29bb6b606593", "rental_uris": {"ios": "https://dc.lft.to/lastmile_qr_scan", "android": "https://dc.lft.to/lastmile_qr_scan"}, "fusion_lon": 0.0, "lat": 38.9067675, "is_disabled": 0, "bike_id": "1c171908c7334d64458d29bb6b606593", "fusion_lat": 0.0, "is_reserved": 0, "lon": -77.06138733333333}, {"type": "electric_scooter", "name": "1cce0b9b8b585e69b84c20ab14c60e7c", "rental_uris": {"ios": "https://dc.lft.to/lastmile_qr_scan", "android": "https://dc.lft.to/lastmile_qr_scan"}, "fusion_lon": 0.0, "lat": 38.908085, "is_disabled": 0, "bike_id": "1cce0b9b8b585e69b84c20ab14c60e7c", "fusion_lat": 0.0, "is_reserved": 0, "lon": -76.99999666666666}, {"type": "electric_scooter", "name": "4d1549d32bc3ad636273dd6a36ebd11a", "rental_uris": {"ios": "https://dc.lft.to/lastmile_qr_scan", "android": "https://dc.lft.to/lastmile_qr_scan"}, "fusion_lon": 0.0, "lat": 38.8960895, "is_disabled": 0, "bike_id": "4d1549d32bc3ad636273dd6a36ebd11a", "fusion_lat": 0.0, "is_reserved": 0, "lon": -76.99283466666667}, {"type": "electric_scooter", "name": "eb7563ef7fadd6e193e46f7ebd2d5d49", "rental_uris": {"ios": "https://dc.lft.to/lastmile_qr_scan", "android": "https://dc.lft.to/lastmile_qr_scan"}, "fusion_lon": 0.0, "lat": 38.90448666666666, "is_disabled": 0, "bike_id": "eb7563ef7fadd6e193e46f7ebd2d5d49", "fusion_lat": 0.0, "is_reserved": 0, "lon": -76.97420416666667}, {"type": "electric_scooter", "name": "90f33259042327cc7105e6625d126cc2", "rental_uris": {"ios": "https://dc.lft.to/lastmile_qr_scan", "android": "https://dc.lft.to/lastmile_qr_scan"}, "fusion_lon": 0.0, "lat": 38.87843433333333, "is_disabled": 0, "bike_id": "90f33259042327cc7105e6625d126cc2", "fusion_lat": 0.0, "is_reserved": 0, "lon": -76.98411516666667}, {"type": "electric_scooter", "name": "9ecf3f5233ade092a28d04020575ec1f", "rental_uris": {"ios": "https://dc.lft.to/lastmile_qr_scan", "android": "https://dc.lft.to/lastmile_qr_scan"}, "fusion_lon": 0.0, "lat": 38.92494833333333, "is_disabled": 0, "bike_id": "9ecf3f5233ade092a28d04020575ec1f", "fusion_lat": 0.0, "is_reserved": 0, "lon": -77.05112866666667}, {"type": "electric_scooter", "name": "88b9da80cd92ef8e80848c70547db226", "rental_uris": {"ios": "https://dc.lft.to/lastmile_qr_scan", "android": "https://dc.lft.to/lastmile_qr_scan"}, "fusion_lon": 0.0, "lat": 38.932596333333336, "is_disabled": 0, "bike_id": "88b9da80cd92ef8e80848c70547db226", "fusion_lat": 0.0, "is_reserved": 0, "lon": -77.03106233333334}, {"type": "electric_scooter", "name": "eb0c2d55f8d5bedea6b1ac8f1444512a", "rental_uris": {"ios": "https://dc.lft.to/lastmile_qr_scan", "android": "https://dc.lft.to/lastmile_qr_scan"}, "fusion_lon": 0.0, "lat": 38.90361633333333, "is_disabled": 0, "bike_id": "eb0c2d55f8d5bedea6b1ac8f1444512a", "fusion_lat": 0.0, "is_reserved": 0, "lon": -77.0254425}, {"type": "electric_scooter", "name": "2a3a792dd971c9ed9c607030cb3c1b8c", "rental_uris": {"ios": "https://dc.lft.to/lastmile_qr_scan", "android": "https://dc.lft.to/lastmile_qr_scan"}, "fusion_lon": 0.0, "lat": 38.90836766666666, "is_disabled": 0, "bike_id": "2a3a792dd971c9ed9c607030cb3c1b8c", "fusion_lat": 0.0, "is_reserved": 0, "lon": -76.99984266666667}, {"type": "electric_scooter", "name": "fdfec53a920b8881fbeccae527a2a765", "rental_uris": {"ios": "https://dc.lft.to/lastmile_qr_scan", "android": "https://dc.lft.to/lastmile_qr_scan"}, "fusion_lon": 0.0, "lat": 38.908358, "is_disabled": 0, "bike_id": "fdfec53a920b8881fbeccae527a2a765", "fusion_lat": 0.0, "is_reserved": 0, "lon": -76.991885}, {"type": "electric_scooter", "name": "006826eca09ac00a7593b41b064d6f4a", "rental_uris": {"ios": "https://dc.lft.to/lastmile_qr_scan", "android": "https://dc.lft.to/lastmile_qr_scan"}, "fusion_lon": 0.0, "lat": 38.91815066666667, "is_disabled": 0, "bike_id": "006826eca09ac00a7593b41b064d6f4a", "fusion_lat": 0.0, "is_reserved": 0, "lon": -77.01345666666667}, {"type": "electric_scooter", "name": "f2af68a31d7a168c0ed9107eb0c74ce4", "rental_uris": {"ios": "https://dc.lft.to/lastmile_qr_scan", "android": "https://dc.lft.to/lastmile_qr_scan"}, "fusion_lon": 0.0, "lat": 38.878885333333336, "is_disabled": 0, "bike_id": "f2af68a31d7a168c0ed9107eb0c74ce4", "fusion_lat": 0.0, "is_reserved": 0, "lon": -77.00130833333333}, {"type": "electric_scooter", "name": "d0259222bed157f5ec31848b5c829998", "rental_uris": {"ios": "https://dc.lft.to/lastmile_qr_scan", "android": "https://dc.lft.to/lastmile_qr_scan"}, "fusion_lon": 0.0, "lat": 38.905235166666664, "is_disabled": 0, "bike_id": "d0259222bed157f5ec31848b5c829998", "fusion_lat": 0.0, "is_reserved": 0, "lon": -77.06784}, {"type": "electric_scooter", "name": "1495211da16dc9351c4248949a599da3", "rental_uris": {"ios": "https://dc.lft.to/lastmile_qr_scan", "android": "https://dc.lft.to/lastmile_qr_scan"}, "fusion_lon": 0.0, "lat": 38.89999483333333, "is_disabled": 0, "bike_id": "1495211da16dc9351c4248949a599da3", "fusion_lat": 0.0, "is_reserved": 0, "lon": -77.010262}, {"type": "electric_scooter", "name": "622474c665827d4443efbd6c21ee2af4", "rental_uris": {"ios": "https://dc.lft.to/lastmile_qr_scan", "android": "https://dc.lft.to/lastmile_qr_scan"}, "fusion_lon": 0.0, "lat": 38.91228433333333, "is_disabled": 0, "bike_id": "622474c665827d4443efbd6c21ee2af4", "fusion_lat": 0.0, "is_reserved": 0, "lon": -77.076953}, {"type": "electric_scooter", "name": "4793d2557288313479307e978b4a0e70", "rental_uris": {"ios": "https://dc.lft.to/lastmile_qr_scan", "android": "https://dc.lft.to/lastmile_qr_scan"}, "fusion_lon": 0.0, "lat": 38.942012166666665, "is_disabled": 0, "bike_id": "4793d2557288313479307e978b4a0e70", "fusion_lat": 0.0, "is_reserved": 0, "lon": -77.025932}, {"type": "electric_scooter", "name": "b331d8966c9530acc69c1eb0ec35f818", "rental_uris": {"ios": "https://dc.lft.to/lastmile_qr_scan", "android": "https://dc.lft.to/lastmile_qr_scan"}, "fusion_lon": 0.0, "lat": 38.913025833333336, "is_disabled": 0, "bike_id": "b331d8966c9530acc69c1eb0ec35f818", "fusion_lat": 0.0, "is_reserved": 0, "lon": -77.045573}, {"type": "electric_scooter", "name": "1b9acd7db3fcc7d9a1cacd3a2ba7db25", "rental_uris": {"ios": "https://dc.lft.to/lastmile_qr_scan", "android": "https://dc.lft.to/lastmile_qr_scan"}, "fusion_lon": 0.0, "lat": 38.89978883333333, "is_disabled": 0, "bike_id": "1b9acd7db3fcc7d9a1cacd3a2ba7db25", "fusion_lat": 0.0, "is_reserved": 0, "lon": -77.00928333333333}, {"type": "electric_scooter", "name": "dac17e2bb3c773fda2f2c74cdbdfba24", "rental_uris": {"ios": "https://dc.lft.to/lastmile_qr_scan", "android": "https://dc.lft.to/lastmile_qr_scan"}, "fusion_lon": 0.0, "lat": 38.90960533333333, "is_disabled": 0, "bike_id": "dac17e2bb3c773fda2f2c74cdbdfba24", "fusion_lat": 0.0, "is_reserved": 0, "lon": -77.02279583333333}, {"type": "electric_scooter", "name": "1d6f32a1d08ff036efa0bfcc87934149", "rental_uris": {"ios": "https://dc.lft.to/lastmile_qr_scan", "android": "https://dc.lft.to/lastmile_qr_scan"}, "fusion_lon": 0.0, "lat": 38.921643, "is_disabled": 0, "bike_id": "1d6f32a1d08ff036efa0bfcc87934149", "fusion_lat": 0.0, "is_reserved": 0, "lon": -77.03312416666667}, {"type": "electric_scooter", "name": "b7637e63682080b3f0a34c6559ee8a1b", "rental_uris": {"ios": "https://dc.lft.to/lastmile_qr_scan", "android": "https://dc.lft.to/lastmile_qr_scan"}, "fusion_lon": 0.0, "lat": 38.866833666666665, "is_disabled": 0, "bike_id": "b7637e63682080b3f0a34c6559ee8a1b", "fusion_lat": 0.0, "is_reserved": 0, "lon": -76.98562866666667}, {"type": "electric_scooter", "name": "93628204fdb4a7a5dd0e7da5df0de10a", "rental_uris": {"ios": "https://dc.lft.to/lastmile_qr_scan", "android": "https://dc.lft.to/lastmile_qr_scan"}, "fusion_lon": 0.0, "lat": 38.931959166666665, "is_disabled": 0, "bike_id": "93628204fdb4a7a5dd0e7da5df0de10a", "fusion_lat": 0.0, "is_reserved": 0, "lon": -77.0235005}, {"type": "electric_scooter", "name": "f904900f980bf81126ac90c78e4792c1", "rental_uris": {"ios": "https://dc.lft.to/lastmile_qr_scan", "android": "https://dc.lft.to/lastmile_qr_scan"}, "fusion_lon": 0.0, "lat": 38.890597, "is_disabled": 0, "bike_id": "f904900f980bf81126ac90c78e4792c1", "fusion_lat": 0.0, "is_reserved": 0, "lon": -76.94447816666667}, {"type": "electric_bike", "name": "0828d2de8a893f674c0999d13d6eaaa7", "rental_uris": {"ios": "https://dc.lft.to/lastmile_qr_scan", "android": "https://dc.lft.to/lastmile_qr_scan"}, "fusion_lon": 0.0, "lat": 38.89353, "is_disabled": 0, "bike_id": "0828d2de8a893f674c0999d13d6eaaa7", "fusion_lat": 0.0, "is_reserved": 0, "lon": -77.18743316666666}, {"type": "electric_scooter", "name": "ca4f9fa7ea3a1c39f3a8a7058d6216ff", "rental_uris": {"ios": "https://dc.lft.to/lastmile_qr_scan", "android": "https://dc.lft.to/lastmile_qr_scan"}, "fusion_lon": 0.0, "lat": 38.911240166666666, "is_disabled": 0, "bike_id": "ca4f9fa7ea3a1c39f3a8a7058d6216ff", "fusion_lat": 0.0, "is_reserved": 0, "lon": -77.04151866666666}, {"type": "electric_scooter", "name": "529867da538defeb34ae928031857dfc", "rental_uris": {"ios": "https://dc.lft.to/lastmile_qr_scan", "android": "https://dc.lft.to/lastmile_qr_scan"}, "fusion_lon": 0.0, "lat": 38.916878833333335, "is_disabled": 0, "bike_id": "529867da538defeb34ae928031857dfc", "fusion_lat": 0.0, "is_reserved": 0, "lon": -77.03773883333334}, {"type": "electric_scooter", "name": "7f308b58f90b04041d84ad2241fb67e0", "rental_uris": {"ios": "https://dc.lft.to/lastmile_qr_scan", "android": "https://dc.lft.to/lastmile_qr_scan"}, "fusion_lon": 0.0, "lat": 38.9247715, "is_disabled": 0, "bike_id": "7f308b58f90b04041d84ad2241fb67e0", "fusion_lat": 0.0, "is_reserved": 0, "lon": -77.03552533333334}, {"type": "electric_scooter", "name": "fcd0cdf744972dc14987cb7f1e1f2796", "rental_uris": {"ios": "https://dc.lft.to/lastmile_qr_scan", "android": "https://dc.lft.to/lastmile_qr_scan"}, "fusion_lon": 0.0, "lat": 38.920881333333334, "is_disabled": 0, "bike_id": "fcd0cdf744972dc14987cb7f1e1f2796", "fusion_lat": 0.0, "is_reserved": 0, "lon": -77.02252516666667}, {"type": "electric_scooter", "name": "1effc056f851b695e50cd97f9e8e6180", "rental_uris": {"ios": "https://dc.lft.to/lastmile_qr_scan", "android": "https://dc.lft.to/lastmile_qr_scan"}, "fusion_lon": 0.0, "lat": 38.911085, "is_disabled": 0, "bike_id": "1effc056f851b695e50cd97f9e8e6180", "fusion_lat": 0.0, "is_reserved": 0, "lon": -77.04231116666666}, {"type": "electric_scooter", "name": "2a636c5733b2e175c06a2fe7ca2d9bdd", "rental_uris": {"ios": "https://dc.lft.to/lastmile_qr_scan", "android": "https://dc.lft.to/lastmile_qr_scan"}, "fusion_lon": 0.0, "lat": 38.908802, "is_disabled": 0, "bike_id": "2a636c5733b2e175c06a2fe7ca2d9bdd", "fusion_lat": 0.0, "is_reserved": 0, "lon": -77.02005583333333}, {"type": "electric_scooter", "name": "eca3ebe82d65f484ae6e7b72251522bc", "rental_uris": {"ios": "https://dc.lft.to/lastmile_qr_scan", "android": "https://dc.lft.to/lastmile_qr_scan"}, "fusion_lon": 0.0, "lat": 38.91456383333333, "is_disabled": 0, "bike_id": "eca3ebe82d65f484ae6e7b72251522bc", "fusion_lat": 0.0, "is_reserved": 0, "lon": -77.021865}, {"type": "electric_scooter", "name": "9804e62922f91903f868bb02ff897053", "rental_uris": {"ios": "https://dc.lft.to/lastmile_qr_scan", "android": "https://dc.lft.to/lastmile_qr_scan"}, "fusion_lon": 0.0, "lat": 38.905925, "is_disabled": 0, "bike_id": "9804e62922f91903f868bb02ff897053", "fusion_lat": 0.0, "is_reserved": 0, "lon": -77.047132}, {"type": "electric_scooter", "name": "bb1730caf20bbd7a990ec286253250d5", "rental_uris": {"ios": "https://dc.lft.to/lastmile_qr_scan", "android": "https://dc.lft.to/lastmile_qr_scan"}, "fusion_lon": 0.0, "lat": 38.876043333333335, "is_disabled": 0, "bike_id": "bb1730caf20bbd7a990ec286253250d5", "fusion_lat": 0.0, "is_reserved": 0, "lon": -77.00935833333334}, {"type": "electric_scooter", "name": "d627f8ba3af2311eab74635a199bf464", "rental_uris": {"ios": "https://dc.lft.to/lastmile_qr_scan", "android": "https://dc.lft.to/lastmile_qr_scan"}, "fusion_lon": 0.0, "lat": 38.907301, "is_disabled": 0, "bike_id": "d627f8ba3af2311eab74635a199bf464", "fusion_lat": 0.0, "is_reserved": 0, "lon": -77.02367333333333}, {"type": "electric_scooter", "name": "053b87d9b62ee89e2734964a79a41e1a", "rental_uris": {"ios": "https://dc.lft.to/lastmile_qr_scan", "android": "https://dc.lft.to/lastmile_qr_scan"}, "fusion_lon": 0.0, "lat": 38.924256666666665, "is_disabled": 0, "bike_id": "053b87d9b62ee89e2734964a79a41e1a", "fusion_lat": 0.0, "is_reserved": 0, "lon": -77.0518255}, {"type": "electric_bike", "name": "819bfb6e4ad59ba518d2d99950e4e951", "rental_uris": {"ios": "https://dc.lft.to/lastmile_qr_scan", "android": "https://dc.lft.to/lastmile_qr_scan"}, "fusion_lon": 0.0, "lat": 38.819391833333334, "is_disabled": 0, "bike_id": "819bfb6e4ad59ba518d2d99950e4e951", "fusion_lat": 0.0, "is_reserved": 0, "lon": -77.00206333333334}, {"type": "electric_scooter", "name": "e8e5cc921c1a16d5bce92e2c077fddbd", "rental_uris": {"ios": "https://dc.lft.to/lastmile_qr_scan", "android": "https://dc.lft.to/lastmile_qr_scan"}, "fusion_lon": 0.0, "lat": 38.923357333333335, "is_disabled": 0, "bike_id": "e8e5cc921c1a16d5bce92e2c077fddbd", "fusion_lat": 0.0, "is_reserved": 0, "lon": -77.05348716666667}, {"type": "electric_scooter", "name": "5b7f65ae754b0961249256d1c282f678", "rental_uris": {"ios": "https://dc.lft.to/lastmile_qr_scan", "android": "https://dc.lft.to/lastmile_qr_scan"}, "fusion_lon": 0.0, "lat": 38.86509816666667, "is_disabled": 0, "bike_id": "5b7f65ae754b0961249256d1c282f678", "fusion_lat": 0.0, "is_reserved": 0, "lon": -76.99005183333334}, {"type": "electric_bike", "name": "f1012c9876148f104b2fa2c69bfb4c3e", "rental_uris": {"ios": "https://dc.lft.to/lastmile_qr_scan", "android": "https://dc.lft.to/lastmile_qr_scan"}, "fusion_lon": 0.0, "lat": 38.91133716666667, "is_disabled": 0, "bike_id": "f1012c9876148f104b2fa2c69bfb4c3e", "fusion_lat": 0.0, "is_reserved": 0, "lon": -77.06578966666666}, {"type": "electric_scooter", "name": "a61e3b6cf25012a157fe7a02b2953d26", "rental_uris": {"ios": "https://dc.lft.to/lastmile_qr_scan", "android": "https://dc.lft.to/lastmile_qr_scan"}, "fusion_lon": 0.0, "lat": 38.883673, "is_disabled": 0, "bike_id": "a61e3b6cf25012a157fe7a02b2953d26", "fusion_lat": 0.0, "is_reserved": 0, "lon": -76.994881}, {"type": "electric_scooter", "name": "5ec298cfd00f59f38e0a35a2273f1754", "rental_uris": {"ios": "https://dc.lft.to/lastmile_qr_scan", "android": "https://dc.lft.to/lastmile_qr_scan"}, "fusion_lon": 0.0, "lat": 38.981203, "is_disabled": 0, "bike_id": "5ec298cfd00f59f38e0a35a2273f1754", "fusion_lat": 0.0, "is_reserved": 0, "lon": -77.02724083333334}, {"type": "electric_scooter", "name": "6b557ea206709c99a472e879d56b3599", "rental_uris": {"ios": "https://dc.lft.to/lastmile_qr_scan", "android": "https://dc.lft.to/lastmile_qr_scan"}, "fusion_lon": 0.0, "lat": 38.9240995, "is_disabled": 0, "bike_id": "6b557ea206709c99a472e879d56b3599", "fusion_lat": 0.0, "is_reserved": 0, "lon": -77.040304}, {"type": "electric_scooter", "name": "cb033b02817631ae2f41f11945ac02db", "rental_uris": {"ios": "https://dc.lft.to/lastmile_qr_scan", "android": "https://dc.lft.to/lastmile_qr_scan"}, "fusion_lon": 0.0, "lat": 38.894869666666665, "is_disabled": 0, "bike_id": "cb033b02817631ae2f41f11945ac02db", "fusion_lat": 0.0, "is_reserved": 0, "lon": -77.00976666666666}, {"type": "electric_bike", "name": "adf4880841ca46f5ad2d1228040b24cb", "rental_uris": {"ios": "https://dc.lft.to/lastmile_qr_scan", "android": "https://dc.lft.to/lastmile_qr_scan"}, "fusion_lon": 0.0, "lat": 38.891831, "is_disabled": 0, "bike_id": "adf4880841ca46f5ad2d1228040b24cb", "fusion_lat": 0.0, "is_reserved": 0, "lon": -76.93894583333334}, {"type": "electric_scooter", "name": "6601081ccf2615e83c5eb04d2970b12f", "rental_uris": {"ios": "https://dc.lft.to/lastmile_qr_scan", "android": "https://dc.lft.to/lastmile_qr_scan"}, "fusion_lon": 0.0, "lat": 38.91740166666666, "is_disabled": 0, "bike_id": "6601081ccf2615e83c5eb04d2970b12f", "fusion_lat": 0.0, "is_reserved": 0, "lon": -77.04602783333333}, {"type": "electric_scooter", "name": "65e2347289dc9a9f09838e38728415f4", "rental_uris": {"ios": "https://dc.lft.to/lastmile_qr_scan", "android": "https://dc.lft.to/lastmile_qr_scan"}, "fusion_lon": 0.0, "lat": 38.894308333333335, "is_disabled": 0, "bike_id": "65e2347289dc9a9f09838e38728415f4", "fusion_lat": 0.0, "is_reserved": 0, "lon": -77.00107183333333}, {"type": "electric_scooter", "name": "b38d59aee6f78debb0563bda5fa5d073", "rental_uris": {"ios": "https://dc.lft.to/lastmile_qr_scan", "android": "https://dc.lft.to/lastmile_qr_scan"}, "fusion_lon": 0.0, "lat": 38.894653166666664, "is_disabled": 0, "bike_id": "b38d59aee6f78debb0563bda5fa5d073", "fusion_lat": 0.0, "is_reserved": 0, "lon": -77.00183866666667}, {"type": "electric_scooter", "name": "052d79bf44cc8bddec6c7f34634e77df", "rental_uris": {"ios": "https://dc.lft.to/lastmile_qr_scan", "android": "https://dc.lft.to/lastmile_qr_scan"}, "fusion_lon": 0.0, "lat": 38.92645816666667, "is_disabled": 0, "bike_id": "052d79bf44cc8bddec6c7f34634e77df", "fusion_lat": 0.0, "is_reserved": 0, "lon": -77.0347635}, {"type": "electric_scooter", "name": "8e5ed726b8fd2dc5449df403e730d239", "rental_uris": {"ios": "https://dc.lft.to/lastmile_qr_scan", "android": "https://dc.lft.to/lastmile_qr_scan"}, "fusion_lon": 0.0, "lat": 38.923640666666664, "is_disabled": 0, "bike_id": "8e5ed726b8fd2dc5449df403e730d239", "fusion_lat": 0.0, "is_reserved": 0, "lon": -77.05052616666667}, {"type": "electric_scooter", "name": "49ad0e6d3e29ff53fc93a96c463734ba", "rental_uris": {"ios": "https://dc.lft.to/lastmile_qr_scan", "android": "https://dc.lft.to/lastmile_qr_scan"}, "fusion_lon": 0.0, "lat": 38.9277315, "is_disabled": 0, "bike_id": "49ad0e6d3e29ff53fc93a96c463734ba", "fusion_lat": 0.0, "is_reserved": 0, "lon": -77.02711333333333}, {"type": "electric_scooter", "name": "c476aae80918343ce03ccd1f0071fa88", "rental_uris": {"ios": "https://dc.lft.to/lastmile_qr_scan", "android": "https://dc.lft.to/lastmile_qr_scan"}, "fusion_lon": 0.0, "lat": 38.885271833333334, "is_disabled": 0, "bike_id": "c476aae80918343ce03ccd1f0071fa88", "fusion_lat": 0.0, "is_reserved": 0, "lon": -77.01531916666667}, {"type": "electric_scooter", "name": "1f405f5b2c2761f3556015a535d86d8b", "rental_uris": {"ios": "https://dc.lft.to/lastmile_qr_scan", "android": "https://dc.lft.to/lastmile_qr_scan"}, "fusion_lon": 0.0, "lat": 38.91006, "is_disabled": 0, "bike_id": "1f405f5b2c2761f3556015a535d86d8b", "fusion_lat": 0.0, "is_reserved": 0, "lon": -76.99407366666667}, {"type": "electric_scooter", "name": "ada830cc92997afff59b282b86823281", "rental_uris": {"ios": "https://dc.lft.to/lastmile_qr_scan", "android": "https://dc.lft.to/lastmile_qr_scan"}, "fusion_lon": 0.0, "lat": 38.908119666666664, "is_disabled": 0, "bike_id": "ada830cc92997afff59b282b86823281", "fusion_lat": 0.0, "is_reserved": 0, "lon": -77.03450266666667}, {"type": "electric_scooter", "name": "0f27ab78c441b533b011d922058b8b10", "rental_uris": {"ios": "https://dc.lft.to/lastmile_qr_scan", "android": "https://dc.lft.to/lastmile_qr_scan"}, "fusion_lon": 0.0, "lat": 38.887201833333336, "is_disabled": 0, "bike_id": "0f27ab78c441b533b011d922058b8b10", "fusion_lat": 0.0, "is_reserved": 0, "lon": -76.996898}, {"type": "electric_scooter", "name": "11afb7614798eac82dc622a937150c72", "rental_uris": {"ios": "https://dc.lft.to/lastmile_qr_scan", "android": "https://dc.lft.to/lastmile_qr_scan"}, "fusion_lon": 0.0, "lat": 38.87391366666667, "is_disabled": 0, "bike_id": "11afb7614798eac82dc622a937150c72", "fusion_lat": 0.0, "is_reserved": 0, "lon": -77.00025466666666}, {"type": "electric_scooter", "name": "6a52f52722d2f83c48d33a72525a1c08", "rental_uris": {"ios": "https://dc.lft.to/lastmile_qr_scan", "android": "https://dc.lft.to/lastmile_qr_scan"}, "fusion_lon": 0.0, "lat": 38.92753483333333, "is_disabled": 0, "bike_id": "6a52f52722d2f83c48d33a72525a1c08", "fusion_lat": 0.0, "is_reserved": 0, "lon": -77.0211345}, {"type": "electric_scooter", "name": "1dcf4973670fea89a704c14afb35cd4c", "rental_uris": {"ios": "https://dc.lft.to/lastmile_qr_scan", "android": "https://dc.lft.to/lastmile_qr_scan"}, "fusion_lon": 0.0, "lat": 38.920805, "is_disabled": 0, "bike_id": "1dcf4973670fea89a704c14afb35cd4c", "fusion_lat": 0.0, "is_reserved": 0, "lon": -77.01393133333333}, {"type": "electric_bike", "name": "079483d843e8fd80a347058b8ad112d4", "rental_uris": {"ios": "https://dc.lft.to/lastmile_qr_scan", "android": "https://dc.lft.to/lastmile_qr_scan"}, "fusion_lon": 0.0, "lat": 38.949188, "is_disabled": 0, "bike_id": "079483d843e8fd80a347058b8ad112d4", "fusion_lat": 0.0, "is_reserved": 0, "lon": -77.00793866666666}, {"type": "electric_scooter", "name": "560003afd41f905dadf51c49ccb33873", "rental_uris": {"ios": "https://dc.lft.to/lastmile_qr_scan", "android": "https://dc.lft.to/lastmile_qr_scan"}, "fusion_lon": 0.0, "lat": 38.8767165, "is_disabled": 0, "bike_id": "560003afd41f905dadf51c49ccb33873", "fusion_lat": 0.0, "is_reserved": 0, "lon": -77.00895516666667}, {"type": "electric_scooter", "name": "754f047c581ff6850b9053e55cfab283", "rental_uris": {"ios": "https://dc.lft.to/lastmile_qr_scan", "android": "https://dc.lft.to/lastmile_qr_scan"}, "fusion_lon": 0.0, "lat": 38.902322166666664, "is_disabled": 0, "bike_id": "754f047c581ff6850b9053e55cfab283", "fusion_lat": 0.0, "is_reserved": 0, "lon": -77.059363}, {"type": "electric_scooter", "name": "aa1c31852a1344371621e2ba81df6032", "rental_uris": {"ios": "https://dc.lft.to/lastmile_qr_scan", "android": "https://dc.lft.to/lastmile_qr_scan"}, "fusion_lon": 0.0, "lat": 38.900694666666666, "is_disabled": 0, "bike_id": "aa1c31852a1344371621e2ba81df6032", "fusion_lat": 0.0, "is_reserved": 0, "lon": -77.04535516666667}, {"type": "electric_scooter", "name": "46e55ca0cd29dbfabe41938ff6d9cc82", "rental_uris": {"ios": "https://dc.lft.to/lastmile_qr_scan", "android": "https://dc.lft.to/lastmile_qr_scan"}, "fusion_lon": 0.0, "lat": 38.892140166666664, "is_disabled": 0, "bike_id": "46e55ca0cd29dbfabe41938ff6d9cc82", "fusion_lat": 0.0, "is_reserved": 0, "lon": -76.99568966666666}, {"type": "electric_scooter", "name": "ce33c39384cc545fe9f62611931cba12", "rental_uris": {"ios": "https://dc.lft.to/lastmile_qr_scan", "android": "https://dc.lft.to/lastmile_qr_scan"}, "fusion_lon": 0.0, "lat": 38.923005333333336, "is_disabled": 0, "bike_id": "ce33c39384cc545fe9f62611931cba12", "fusion_lat": 0.0, "is_reserved": 0, "lon": -77.04172866666667}, {"type": "electric_bike", "name": "a306bd548bf06969b83e24999dff4fb0", "rental_uris": {"ios": "https://dc.lft.to/lastmile_qr_scan", "android": "https://dc.lft.to/lastmile_qr_scan"}, "fusion_lon": 0.0, "lat": 38.956866833333336, "is_disabled": 0, "bike_id": "a306bd548bf06969b83e24999dff4fb0", "fusion_lat": 0.0, "is_reserved": 0, "lon": -77.02229033333333}, {"type": "electric_bike", "name": "2b2a8064dd8adfec012ad5a8a07af9e5", "rental_uris": {"ios": "https://dc.lft.to/lastmile_qr_scan", "android": "https://dc.lft.to/lastmile_qr_scan"}, "fusion_lon": 0.0, "lat": 38.9221705, "is_disabled": 0, "bike_id": "2b2a8064dd8adfec012ad5a8a07af9e5", "fusion_lat": 0.0, "is_reserved": 0, "lon": -77.20139466666667}, {"type": "electric_scooter", "name": "a5e60f75ff53f67559fffa369fabd775", "rental_uris": {"ios": "https://dc.lft.to/lastmile_qr_scan", "android": "https://dc.lft.to/lastmile_qr_scan"}, "fusion_lon": 0.0, "lat": 38.9240935, "is_disabled": 0, "bike_id": "a5e60f75ff53f67559fffa369fabd775", "fusion_lat": 0.0, "is_reserved": 0, "lon": -77.02559433333333}, {"type": "electric_scooter", "name": "eb9a6d4c44665b95d15203888b64fd0e", "rental_uris": {"ios": "https://dc.lft.to/lastmile_qr_scan", "android": "https://dc.lft.to/lastmile_qr_scan"}, "fusion_lon": 0.0, "lat": 38.88437283333333, "is_disabled": 0, "bike_id": "eb9a6d4c44665b95d15203888b64fd0e", "fusion_lat": 0.0, "is_reserved": 0, "lon": -77.0249155}, {"type": "electric_scooter", "name": "93401c6a11bb98a7410346fb5f29d051", "rental_uris": {"ios": "https://dc.lft.to/lastmile_qr_scan", "android": "https://dc.lft.to/lastmile_qr_scan"}, "fusion_lon": 0.0, "lat": 38.9154845, "is_disabled": 0, "bike_id": "93401c6a11bb98a7410346fb5f29d051", "fusion_lat": 0.0, "is_reserved": 0, "lon": -77.03846616666667}, {"type": "electric_scooter", "name": "1ef7c7563228a47a2c81d3704b42a0c5", "rental_uris": {"ios": "https://dc.lft.to/lastmile_qr_scan", "android": "https://dc.lft.to/lastmile_qr_scan"}, "fusion_lon": 0.0, "lat": 38.90029666666667, "is_disabled": 0, "bike_id": "1ef7c7563228a47a2c81d3704b42a0c5", "fusion_lat": 0.0, "is_reserved": 0, "lon": -76.987026}, {"type": "electric_scooter", "name": "e1811376a1ce7c213ca3b019590bd8b1", "rental_uris": {"ios": "https://dc.lft.to/lastmile_qr_scan", "android": "https://dc.lft.to/lastmile_qr_scan"}, "fusion_lon": 0.0, "lat": 38.921007833333334, "is_disabled": 0, "bike_id": "e1811376a1ce7c213ca3b019590bd8b1", "fusion_lat": 0.0, "is_reserved": 0, "lon": -77.043967}, {"type": "electric_scooter", "name": "a11a6dadc76cdfb62daa771a849a60f6", "rental_uris": {"ios": "https://dc.lft.to/lastmile_qr_scan", "android": "https://dc.lft.to/lastmile_qr_scan"}, "fusion_lon": 0.0, "lat": 38.928315, "is_disabled": 0, "bike_id": "a11a6dadc76cdfb62daa771a849a60f6", "fusion_lat": 0.0, "is_reserved": 0, "lon": -77.0140995}, {"type": "electric_scooter", "name": "943f44a3147d6ac3835ee7ac4e66a0cf", "rental_uris": {"ios": "https://dc.lft.to/lastmile_qr_scan", "android": "https://dc.lft.to/lastmile_qr_scan"}, "fusion_lon": 0.0, "lat": 38.92830633333333, "is_disabled": 0, "bike_id": "943f44a3147d6ac3835ee7ac4e66a0cf", "fusion_lat": 0.0, "is_reserved": 0, "lon": -77.05437566666667}, {"type": "electric_scooter", "name": "3777f6a992a92eb9dc0f0e7fc11fd110", "rental_uris": {"ios": "https://dc.lft.to/lastmile_qr_scan", "android": "https://dc.lft.to/lastmile_qr_scan"}, "fusion_lon": 0.0, "lat": 38.9060135, "is_disabled": 0, "bike_id": "3777f6a992a92eb9dc0f0e7fc11fd110", "fusion_lat": 0.0, "is_reserved": 0, "lon": -77.02600566666666}, {"type": "electric_scooter", "name": "dacfb3fafb13748e4e1ce91f2a7ccf82", "rental_uris": {"ios": "https://dc.lft.to/lastmile_qr_scan", "android": "https://dc.lft.to/lastmile_qr_scan"}, "fusion_lon": 0.0, "lat": 38.942043, "is_disabled": 0, "bike_id": "dacfb3fafb13748e4e1ce91f2a7ccf82", "fusion_lat": 0.0, "is_reserved": 0, "lon": -77.02591866666667}, {"type": "electric_scooter", "name": "b261048cb35f1cda83f393dcf8fc4cd0", "rental_uris": {"ios": "https://dc.lft.to/lastmile_qr_scan", "android": "https://dc.lft.to/lastmile_qr_scan"}, "fusion_lon": 0.0, "lat": 38.960380666666666, "is_disabled": 0, "bike_id": "b261048cb35f1cda83f393dcf8fc4cd0", "fusion_lat": 0.0, "is_reserved": 0, "lon": -77.07189066666666}, {"type": "electric_scooter", "name": "387107dc0df85223022dcaa406755acd", "rental_uris": {"ios": "https://dc.lft.to/lastmile_qr_scan", "android": "https://dc.lft.to/lastmile_qr_scan"}, "fusion_lon": 0.0, "lat": 38.91398783333333, "is_disabled": 0, "bike_id": "387107dc0df85223022dcaa406755acd", "fusion_lat": 0.0, "is_reserved": 0, "lon": -77.041718}, {"type": "electric_scooter", "name": "03baacdceba9ae0a43996ef61f5077e2", "rental_uris": {"ios": "https://dc.lft.to/lastmile_qr_scan", "android": "https://dc.lft.to/lastmile_qr_scan"}, "fusion_lon": 0.0, "lat": 38.934107833333336, "is_disabled": 0, "bike_id": "03baacdceba9ae0a43996ef61f5077e2", "fusion_lat": 0.0, "is_reserved": 0, "lon": -77.0203815}, {"type": "electric_scooter", "name": "4764ce9cd7a845f7ee1bfabbd54e19ad", "rental_uris": {"ios": "https://dc.lft.to/lastmile_qr_scan", "android": "https://dc.lft.to/lastmile_qr_scan"}, "fusion_lon": 0.0, "lat": 38.880149833333334, "is_disabled": 0, "bike_id": "4764ce9cd7a845f7ee1bfabbd54e19ad", "fusion_lat": 0.0, "is_reserved": 0, "lon": -77.02535166666667}, {"type": "electric_scooter", "name": "9d6958dadb5cd68f3948531d01562c56", "rental_uris": {"ios": "https://dc.lft.to/lastmile_qr_scan", "android": "https://dc.lft.to/lastmile_qr_scan"}, "fusion_lon": 0.0, "lat": 38.92260183333333, "is_disabled": 0, "bike_id": "9d6958dadb5cd68f3948531d01562c56", "fusion_lat": 0.0, "is_reserved": 0, "lon": -77.0091475}, {"type": "electric_scooter", "name": "36aced7479a03b6b88290b13cac6f19a", "rental_uris": {"ios": "https://dc.lft.to/lastmile_qr_scan", "android": "https://dc.lft.to/lastmile_qr_scan"}, "fusion_lon": 0.0, "lat": 38.922003, "is_disabled": 0, "bike_id": "36aced7479a03b6b88290b13cac6f19a", "fusion_lat": 0.0, "is_reserved": 0, "lon": -76.99700116666666}, {"type": "electric_bike", "name": "ad46166637106766ab57906d5c5414fc", "rental_uris": {"ios": "https://dc.lft.to/lastmile_qr_scan", "android": "https://dc.lft.to/lastmile_qr_scan"}, "fusion_lon": 0.0, "lat": 38.83155083333333, "is_disabled": 0, "bike_id": "ad46166637106766ab57906d5c5414fc", "fusion_lat": 0.0, "is_reserved": 0, "lon": -76.9954885}, {"type": "electric_bike", "name": "a8a4571c9e96a3b139ce1493c5f3f7fa", "rental_uris": {"ios": "https://dc.lft.to/lastmile_qr_scan", "android": "https://dc.lft.to/lastmile_qr_scan"}, "fusion_lon": 0.0, "lat": 38.90031033333333, "is_disabled": 0, "bike_id": "a8a4571c9e96a3b139ce1493c5f3f7fa", "fusion_lat": 0.0, "is_reserved": 0, "lon": -76.9722695}, {"type": "electric_scooter", "name": "66c53bb82214a7be425719fe3abd9aaf", "rental_uris": {"ios": "https://dc.lft.to/lastmile_qr_scan", "android": "https://dc.lft.to/lastmile_qr_scan"}, "fusion_lon": 0.0, "lat": 38.877298, "is_disabled": 0, "bike_id": "66c53bb82214a7be425719fe3abd9aaf", "fusion_lat": 0.0, "is_reserved": 0, "lon": -77.00426133333333}, {"type": "electric_scooter", "name": "f88dd51c527383555270360d9fec6273", "rental_uris": {"ios": "https://dc.lft.to/lastmile_qr_scan", "android": "https://dc.lft.to/lastmile_qr_scan"}, "fusion_lon": 0.0, "lat": 38.91719583333333, "is_disabled": 0, "bike_id": "f88dd51c527383555270360d9fec6273", "fusion_lat": 0.0, "is_reserved": 0, "lon": -77.02973983333334}, {"type": "electric_scooter", "name": "add29be0d93de6114c9947c0cb7cc0cc", "rental_uris": {"ios": "https://dc.lft.to/lastmile_qr_scan", "android": "https://dc.lft.to/lastmile_qr_scan"}, "fusion_lon": 0.0, "lat": 38.915296, "is_disabled": 0, "bike_id": "add29be0d93de6114c9947c0cb7cc0cc", "fusion_lat": 0.0, "is_reserved": 0, "lon": -77.0122295}, {"type": "electric_scooter", "name": "b4bf21510c0e003542f853a937558d9a", "rental_uris": {"ios": "https://dc.lft.to/lastmile_qr_scan", "android": "https://dc.lft.to/lastmile_qr_scan"}, "fusion_lon": 0.0, "lat": 38.863902333333336, "is_disabled": 0, "bike_id": "b4bf21510c0e003542f853a937558d9a", "fusion_lat": 0.0, "is_reserved": 0, "lon": -76.99040066666667}, {"type": "electric_scooter", "name": "ed62e060792c5eea187b315a271bb345", "rental_uris": {"ios": "https://dc.lft.to/lastmile_qr_scan", "android": "https://dc.lft.to/lastmile_qr_scan"}, "fusion_lon": 0.0, "lat": 38.902519166666664, "is_disabled": 0, "bike_id": "ed62e060792c5eea187b315a271bb345", "fusion_lat": 0.0, "is_reserved": 0, "lon": -77.024759}, {"type": "electric_scooter", "name": "2a5f91bf415a60268afa517d300724a5", "rental_uris": {"ios": "https://dc.lft.to/lastmile_qr_scan", "android": "https://dc.lft.to/lastmile_qr_scan"}, "fusion_lon": 0.0, "lat": 38.90950333333333, "is_disabled": 0, "bike_id": "2a5f91bf415a60268afa517d300724a5", "fusion_lat": 0.0, "is_reserved": 0, "lon": -77.064415}, {"type": "electric_scooter", "name": "ea7edaf8a3a1f4e3d4c12fe2c291216f", "rental_uris": {"ios": "https://dc.lft.to/lastmile_qr_scan", "android": "https://dc.lft.to/lastmile_qr_scan"}, "fusion_lon": 0.0, "lat": 38.912581333333335, "is_disabled": 0, "bike_id": "ea7edaf8a3a1f4e3d4c12fe2c291216f", "fusion_lat": 0.0, "is_reserved": 0, "lon": -77.04735566666666}, {"type": "electric_scooter", "name": "9f62660c7d7f82bd569708928e72747d", "rental_uris": {"ios": "https://dc.lft.to/lastmile_qr_scan", "android": "https://dc.lft.to/lastmile_qr_scan"}, "fusion_lon": 0.0, "lat": 38.8972855, "is_disabled": 0, "bike_id": "9f62660c7d7f82bd569708928e72747d", "fusion_lat": 0.0, "is_reserved": 0, "lon": -76.9470195}, {"type": "electric_scooter", "name": "3a2f29462690c8e4428c6ee76d944efb", "rental_uris": {"ios": "https://dc.lft.to/lastmile_qr_scan", "android": "https://dc.lft.to/lastmile_qr_scan"}, "fusion_lon": 0.0, "lat": 38.92876, "is_disabled": 0, "bike_id": "3a2f29462690c8e4428c6ee76d944efb", "fusion_lat": 0.0, "is_reserved": 0, "lon": -77.03501416666667}, {"type": "electric_bike", "name": "05576f807715e50d5d810a752665ecb1", "rental_uris": {"ios": "https://dc.lft.to/lastmile_qr_scan", "android": "https://dc.lft.to/lastmile_qr_scan"}, "fusion_lon": 0.0, "lat": 38.88402633333333, "is_disabled": 0, "bike_id": "05576f807715e50d5d810a752665ecb1", "fusion_lat": 0.0, "is_reserved": 0, "lon": -76.9605405}, {"type": "electric_scooter", "name": "374236167ea1f1499e8a073fb01e4863", "rental_uris": {"ios": "https://dc.lft.to/lastmile_qr_scan", "android": "https://dc.lft.to/lastmile_qr_scan"}, "fusion_lon": 0.0, "lat": 38.90682866666667, "is_disabled": 0, "bike_id": "374236167ea1f1499e8a073fb01e4863", "fusion_lat": 0.0, "is_reserved": 0, "lon": -77.037928}, {"type": "electric_scooter", "name": "420843395e10698df1f55a1d20450238", "rental_uris": {"ios": "https://dc.lft.to/lastmile_qr_scan", "android": "https://dc.lft.to/lastmile_qr_scan"}, "fusion_lon": 0.0, "lat": 38.8571855, "is_disabled": 0, "bike_id": "420843395e10698df1f55a1d20450238", "fusion_lat": 0.0, "is_reserved": 0, "lon": -76.98101716666666}, {"type": "electric_scooter", "name": "1607f36aa662d5aa4a8dd60061234942", "rental_uris": {"ios": "https://dc.lft.to/lastmile_qr_scan", "android": "https://dc.lft.to/lastmile_qr_scan"}, "fusion_lon": 0.0, "lat": 38.89632816666666, "is_disabled": 0, "bike_id": "1607f36aa662d5aa4a8dd60061234942", "fusion_lat": 0.0, "is_reserved": 0, "lon": -77.02148816666667}, {"type": "electric_scooter", "name": "f36caf234862b2e86825e8d5b471323e", "rental_uris": {"ios": "https://dc.lft.to/lastmile_qr_scan", "android": "https://dc.lft.to/lastmile_qr_scan"}, "fusion_lon": 0.0, "lat": 38.8960465, "is_disabled": 0, "bike_id": "f36caf234862b2e86825e8d5b471323e", "fusion_lat": 0.0, "is_reserved": 0, "lon": -77.00934633333334}, {"type": "electric_scooter", "name": "371fb9086d6498feaa54c959adc847cc", "rental_uris": {"ios": "https://dc.lft.to/lastmile_qr_scan", "android": "https://dc.lft.to/lastmile_qr_scan"}, "fusion_lon": 0.0, "lat": 38.8983205, "is_disabled": 0, "bike_id": "371fb9086d6498feaa54c959adc847cc", "fusion_lat": 0.0, "is_reserved": 0, "lon": -77.03265216666667}, {"type": "electric_scooter", "name": "903efc3b2a135e2c06c5ee58877c31f9", "rental_uris": {"ios": "https://dc.lft.to/lastmile_qr_scan", "android": "https://dc.lft.to/lastmile_qr_scan"}, "fusion_lon": 0.0, "lat": 38.93235283333333, "is_disabled": 0, "bike_id": "903efc3b2a135e2c06c5ee58877c31f9", "fusion_lat": 0.0, "is_reserved": 0, "lon": -76.9953875}, {"type": "electric_scooter", "name": "0396875d235849329c79f8efb1acc967", "rental_uris": {"ios": "https://dc.lft.to/lastmile_qr_scan", "android": "https://dc.lft.to/lastmile_qr_scan"}, "fusion_lon": 0.0, "lat": 38.919306, "is_disabled": 0, "bike_id": "0396875d235849329c79f8efb1acc967", "fusion_lat": 0.0, "is_reserved": 0, "lon": -77.04492816666666}, {"type": "electric_bike", "name": "e60bb59db6c281daf65def1eaf175d19", "rental_uris": {"ios": "https://dc.lft.to/lastmile_qr_scan", "android": "https://dc.lft.to/lastmile_qr_scan"}, "fusion_lon": 0.0, "lat": 38.95963783333333, "is_disabled": 0, "bike_id": "e60bb59db6c281daf65def1eaf175d19", "fusion_lat": 0.0, "is_reserved": 0, "lon": -76.9816265}, {"type": "electric_scooter", "name": "3e4166ad573de7c70cc34d93c28fa458", "rental_uris": {"ios": "https://dc.lft.to/lastmile_qr_scan", "android": "https://dc.lft.to/lastmile_qr_scan"}, "fusion_lon": 0.0, "lat": 38.920297166666664, "is_disabled": 0, "bike_id": "3e4166ad573de7c70cc34d93c28fa458", "fusion_lat": 0.0, "is_reserved": 0, "lon": -77.02192033333333}, {"type": "electric_scooter", "name": "795973546d1002d7e68151fbc016dce7", "rental_uris": {"ios": "https://dc.lft.to/lastmile_qr_scan", "android": "https://dc.lft.to/lastmile_qr_scan"}, "fusion_lon": 0.0, "lat": 38.9119485, "is_disabled": 0, "bike_id": "795973546d1002d7e68151fbc016dce7", "fusion_lat": 0.0, "is_reserved": 0, "lon": -77.032521}, {"type": "electric_scooter", "name": "8c8767603f8f9a8dc0af802f55f5845b", "rental_uris": {"ios": "https://dc.lft.to/lastmile_qr_scan", "android": "https://dc.lft.to/lastmile_qr_scan"}, "fusion_lon": 0.0, "lat": 38.924834833333335, "is_disabled": 0, "bike_id": "8c8767603f8f9a8dc0af802f55f5845b", "fusion_lat": 0.0, "is_reserved": 0, "lon": -77.02751}, {"type": "electric_bike", "name": "a216b5ece901bf7c193771869b4fbf00", "rental_uris": {"ios": "https://dc.lft.to/lastmile_qr_scan", "android": "https://dc.lft.to/lastmile_qr_scan"}, "fusion_lon": 0.0, "lat": 38.95756633333333, "is_disabled": 0, "bike_id": "a216b5ece901bf7c193771869b4fbf00", "fusion_lat": 0.0, "is_reserved": 0, "lon": -76.980952}, {"type": "electric_scooter", "name": "1e8abaa38ee5ae6cf14f5d5298dc420e", "rental_uris": {"ios": "https://dc.lft.to/lastmile_qr_scan", "android": "https://dc.lft.to/lastmile_qr_scan"}, "fusion_lon": 0.0, "lat": 38.892238666666664, "is_disabled": 0, "bike_id": "1e8abaa38ee5ae6cf14f5d5298dc420e", "fusion_lat": 0.0, "is_reserved": 0, "lon": -77.04866866666667}, {"type": "electric_scooter", "name": "2f20fd4a83fe9678728038a1cd8ef0e5", "rental_uris": {"ios": "https://dc.lft.to/lastmile_qr_scan", "android": "https://dc.lft.to/lastmile_qr_scan"}, "fusion_lon": 0.0, "lat": 38.919015, "is_disabled": 0, "bike_id": "2f20fd4a83fe9678728038a1cd8ef0e5", "fusion_lat": 0.0, "is_reserved": 0, "lon": -77.0275845}, {"type": "electric_scooter", "name": "cbdff6f003cd7bf01704b03846764207", "rental_uris": {"ios": "https://dc.lft.to/lastmile_qr_scan", "android": "https://dc.lft.to/lastmile_qr_scan"}, "fusion_lon": 0.0, "lat": 38.900313, "is_disabled": 0, "bike_id": "cbdff6f003cd7bf01704b03846764207", "fusion_lat": 0.0, "is_reserved": 0, "lon": -77.0582475}, {"type": "electric_scooter", "name": "7768e04dbc3efbcbf20a5e75a32665c6", "rental_uris": {"ios": "https://dc.lft.to/lastmile_qr_scan", "android": "https://dc.lft.to/lastmile_qr_scan"}, "fusion_lon": 0.0, "lat": 38.90398733333333, "is_disabled": 0, "bike_id": "7768e04dbc3efbcbf20a5e75a32665c6", "fusion_lat": 0.0, "is_reserved": 0, "lon": -77.04880916666667}, {"type": "electric_scooter", "name": "3ef8379ea4a2c9bb059f1fc57e59dce3", "rental_uris": {"ios": "https://dc.lft.to/lastmile_qr_scan", "android": "https://dc.lft.to/lastmile_qr_scan"}, "fusion_lon": 0.0, "lat": 38.945126, "is_disabled": 0, "bike_id": "3ef8379ea4a2c9bb059f1fc57e59dce3", "fusion_lat": 0.0, "is_reserved": 0, "lon": -77.0335945}, {"type": "electric_scooter", "name": "b27d756532f8fabaff3f383451694533", "rental_uris": {"ios": "https://dc.lft.to/lastmile_qr_scan", "android": "https://dc.lft.to/lastmile_qr_scan"}, "fusion_lon": 0.0, "lat": 38.93872983333333, "is_disabled": 0, "bike_id": "b27d756532f8fabaff3f383451694533", "fusion_lat": 0.0, "is_reserved": 0, "lon": -77.02454933333334}, {"type": "electric_scooter", "name": "a14542120213dfc777d14c306bad1a8e", "rental_uris": {"ios": "https://dc.lft.to/lastmile_qr_scan", "android": "https://dc.lft.to/lastmile_qr_scan"}, "fusion_lon": 0.0, "lat": 38.9022855, "is_disabled": 0, "bike_id": "a14542120213dfc777d14c306bad1a8e", "fusion_lat": 0.0, "is_reserved": 0, "lon": -77.04059416666666}, {"type": "electric_bike", "name": "a8f76e5ddc0066dffaf56029c75c05db", "rental_uris": {"ios": "https://dc.lft.to/lastmile_qr_scan", "android": "https://dc.lft.to/lastmile_qr_scan"}, "fusion_lon": 0.0, "lat": 38.794701333333336, "is_disabled": 0, "bike_id": "a8f76e5ddc0066dffaf56029c75c05db", "fusion_lat": 0.0, "is_reserved": 0, "lon": -76.9924775}, {"type": "electric_scooter", "name": "541ed582ebc656022f80b0d0288d65b9", "rental_uris": {"ios": "https://dc.lft.to/lastmile_qr_scan", "android": "https://dc.lft.to/lastmile_qr_scan"}, "fusion_lon": 0.0, "lat": 38.916327833333334, "is_disabled": 0, "bike_id": "541ed582ebc656022f80b0d0288d65b9", "fusion_lat": 0.0, "is_reserved": 0, "lon": -77.04121233333333}, {"type": "electric_scooter", "name": "966ece0d1df2dded1ae9c6529822447e", "rental_uris": {"ios": "https://dc.lft.to/lastmile_qr_scan", "android": "https://dc.lft.to/lastmile_qr_scan"}, "fusion_lon": 0.0, "lat": 38.906432, "is_disabled": 0, "bike_id": "966ece0d1df2dded1ae9c6529822447e", "fusion_lat": 0.0, "is_reserved": 0, "lon": -77.05321933333333}, {"type": "electric_scooter", "name": "484224b1dac9d1fba5c6f4b5937c0185", "rental_uris": {"ios": "https://dc.lft.to/lastmile_qr_scan", "android": "https://dc.lft.to/lastmile_qr_scan"}, "fusion_lon": 0.0, "lat": 38.899883833333334, "is_disabled": 0, "bike_id": "484224b1dac9d1fba5c6f4b5937c0185", "fusion_lat": 0.0, "is_reserved": 0, "lon": -77.029462}, {"type": "electric_scooter", "name": "f5590ed28d5ba89794a441c0158f7ab9", "rental_uris": {"ios": "https://dc.lft.to/lastmile_qr_scan", "android": "https://dc.lft.to/lastmile_qr_scan"}, "fusion_lon": 0.0, "lat": 38.8668135, "is_disabled": 0, "bike_id": "f5590ed28d5ba89794a441c0158f7ab9", "fusion_lat": 0.0, "is_reserved": 0, "lon": -76.98503833333334}, {"type": "electric_scooter", "name": "169521ec2668d75e9eecd965b57b433a", "rental_uris": {"ios": "https://dc.lft.to/lastmile_qr_scan", "android": "https://dc.lft.to/lastmile_qr_scan"}, "fusion_lon": 0.0, "lat": 38.936758, "is_disabled": 0, "bike_id": "169521ec2668d75e9eecd965b57b433a", "fusion_lat": 0.0, "is_reserved": 0, "lon": -77.035919}, {"type": "electric_scooter", "name": "bd2a84a5f93d94ae7f10303bed288e28", "rental_uris": {"ios": "https://dc.lft.to/lastmile_qr_scan", "android": "https://dc.lft.to/lastmile_qr_scan"}, "fusion_lon": 0.0, "lat": 38.928292166666665, "is_disabled": 0, "bike_id": "bd2a84a5f93d94ae7f10303bed288e28", "fusion_lat": 0.0, "is_reserved": 0, "lon": -77.05976166666666}, {"type": "electric_scooter", "name": "ad9917e78916295359c13c6fdb13ceb1", "rental_uris": {"ios": "https://dc.lft.to/lastmile_qr_scan", "android": "https://dc.lft.to/lastmile_qr_scan"}, "fusion_lon": 0.0, "lat": 38.822197833333334, "is_disabled": 0, "bike_id": "ad9917e78916295359c13c6fdb13ceb1", "fusion_lat": 0.0, "is_reserved": 0, "lon": -77.00183316666667}, {"type": "electric_bike", "name": "12cdcfdc67d5778a70d9bdc3b449e6e1", "rental_uris": {"ios": "https://dc.lft.to/lastmile_qr_scan", "android": "https://dc.lft.to/lastmile_qr_scan"}, "fusion_lon": 0.0, "lat": 38.994171, "is_disabled": 0, "bike_id": "12cdcfdc67d5778a70d9bdc3b449e6e1", "fusion_lat": 0.0, "is_reserved": 0, "lon": -77.07698966666666}, {"type": "electric_scooter", "name": "36a2d7b63c50f7ff2a4cb4d49adf8cb9", "rental_uris": {"ios": "https://dc.lft.to/lastmile_qr_scan", "android": "https://dc.lft.to/lastmile_qr_scan"}, "fusion_lon": 0.0, "lat": 38.923761666666664, "is_disabled": 0, "bike_id": "36a2d7b63c50f7ff2a4cb4d49adf8cb9", "fusion_lat": 0.0, "is_reserved": 0, "lon": -77.0313555}, {"type": "electric_scooter", "name": "6d53294484420f38716b0d0bff50e2b5", "rental_uris": {"ios": "https://dc.lft.to/lastmile_qr_scan", "android": "https://dc.lft.to/lastmile_qr_scan"}, "fusion_lon": 0.0, "lat": 38.919093, "is_disabled": 0, "bike_id": "6d53294484420f38716b0d0bff50e2b5", "fusion_lat": 0.0, "is_reserved": 0, "lon": -77.03179316666667}, {"type": "electric_scooter", "name": "b626d267fef2c0f187e985ae342cc585", "rental_uris": {"ios": "https://dc.lft.to/lastmile_qr_scan", "android": "https://dc.lft.to/lastmile_qr_scan"}, "fusion_lon": 0.0, "lat": 38.924336833333335, "is_disabled": 0, "bike_id": "b626d267fef2c0f187e985ae342cc585", "fusion_lat": 0.0, "is_reserved": 0, "lon": -77.02248366666667}, {"type": "electric_scooter", "name": "e17ed660c7fb45aee9d47c45cadaeb55", "rental_uris": {"ios": "https://dc.lft.to/lastmile_qr_scan", "android": "https://dc.lft.to/lastmile_qr_scan"}, "fusion_lon": 0.0, "lat": 38.899888, "is_disabled": 0, "bike_id": "e17ed660c7fb45aee9d47c45cadaeb55", "fusion_lat": 0.0, "is_reserved": 0, "lon": -76.9843645}, {"type": "electric_bike", "name": "cb931af665bce583f5a9d8768ecd415d", "rental_uris": {"ios": "https://dc.lft.to/lastmile_qr_scan", "android": "https://dc.lft.to/lastmile_qr_scan"}, "fusion_lon": 0.0, "lat": 39.03607266666667, "is_disabled": 0, "bike_id": "cb931af665bce583f5a9d8768ecd415d", "fusion_lat": 0.0, "is_reserved": 0, "lon": -77.05545633333334}, {"type": "electric_scooter", "name": "c18c2ba5ff5e23a6458df599ddd96a3b", "rental_uris": {"ios": "https://dc.lft.to/lastmile_qr_scan", "android": "https://dc.lft.to/lastmile_qr_scan"}, "fusion_lon": 0.0, "lat": 38.91622133333333, "is_disabled": 0, "bike_id": "c18c2ba5ff5e23a6458df599ddd96a3b", "fusion_lat": 0.0, "is_reserved": 0, "lon": -77.03172783333333}, {"type": "electric_scooter", "name": "df29be63152b2f1dad78512ed3a1a2ea", "rental_uris": {"ios": "https://dc.lft.to/lastmile_qr_scan", "android": "https://dc.lft.to/lastmile_qr_scan"}, "fusion_lon": 0.0, "lat": 38.8967115, "is_disabled": 0, "bike_id": "df29be63152b2f1dad78512ed3a1a2ea", "fusion_lat": 0.0, "is_reserved": 0, "lon": -77.02978416666667}, {"type": "electric_scooter", "name": "73169e92ff773f94b20bdcb462b8b38e", "rental_uris": {"ios": "https://dc.lft.to/lastmile_qr_scan", "android": "https://dc.lft.to/lastmile_qr_scan"}, "fusion_lon": 0.0, "lat": 38.924413, "is_disabled": 0, "bike_id": "73169e92ff773f94b20bdcb462b8b38e", "fusion_lat": 0.0, "is_reserved": 0, "lon": -77.03377366666666}, {"type": "electric_scooter", "name": "4a32b7be177cf05957826070f752b067", "rental_uris": {"ios": "https://dc.lft.to/lastmile_qr_scan", "android": "https://dc.lft.to/lastmile_qr_scan"}, "fusion_lon": 0.0, "lat": 38.92965516666667, "is_disabled": 0, "bike_id": "4a32b7be177cf05957826070f752b067", "fusion_lat": 0.0, "is_reserved": 0, "lon": -77.03192}, {"type": "electric_bike", "name": "7831b6d0ed530975108e88836f7377d4", "rental_uris": {"ios": "https://dc.lft.to/lastmile_qr_scan", "android": "https://dc.lft.to/lastmile_qr_scan"}, "fusion_lon": 0.0, "lat": 38.951663, "is_disabled": 0, "bike_id": "7831b6d0ed530975108e88836f7377d4", "fusion_lat": 0.0, "is_reserved": 0, "lon": -77.03168816666667}, {"type": "electric_scooter", "name": "be1ccbf39c943baeb424d8f94bae416d", "rental_uris": {"ios": "https://dc.lft.to/lastmile_qr_scan", "android": "https://dc.lft.to/lastmile_qr_scan"}, "fusion_lon": 0.0, "lat": 38.9230285, "is_disabled": 0, "bike_id": "be1ccbf39c943baeb424d8f94bae416d", "fusion_lat": 0.0, "is_reserved": 0, "lon": -77.0417685}, {"type": "electric_scooter", "name": "dfaba7373bfa587938302828571d7764", "rental_uris": {"ios": "https://dc.lft.to/lastmile_qr_scan", "android": "https://dc.lft.to/lastmile_qr_scan"}, "fusion_lon": 0.0, "lat": 38.866822166666665, "is_disabled": 0, "bike_id": "dfaba7373bfa587938302828571d7764", "fusion_lat": 0.0, "is_reserved": 0, "lon": -76.98567}, {"type": "electric_scooter", "name": "c98eb4430d88e9efa8dc66c7414f68ee", "rental_uris": {"ios": "https://dc.lft.to/lastmile_qr_scan", "android": "https://dc.lft.to/lastmile_qr_scan"}, "fusion_lon": 0.0, "lat": 38.920616833333334, "is_disabled": 0, "bike_id": "c98eb4430d88e9efa8dc66c7414f68ee", "fusion_lat": 0.0, "is_reserved": 0, "lon": -76.981909}, {"type": "electric_scooter", "name": "abd95a7f1bdcbe7aa08a2386efae7654", "rental_uris": {"ios": "https://dc.lft.to/lastmile_qr_scan", "android": "https://dc.lft.to/lastmile_qr_scan"}, "fusion_lon": 0.0, "lat": 38.87707916666667, "is_disabled": 0, "bike_id": "abd95a7f1bdcbe7aa08a2386efae7654", "fusion_lat": 0.0, "is_reserved": 0, "lon": -77.00432516666666}, {"type": "electric_scooter", "name": "7745e194bd686068c067eac9ccadb4df", "rental_uris": {"ios": "https://dc.lft.to/lastmile_qr_scan", "android": "https://dc.lft.to/lastmile_qr_scan"}, "fusion_lon": 0.0, "lat": 38.90856766666667, "is_disabled": 0, "bike_id": "7745e194bd686068c067eac9ccadb4df", "fusion_lat": 0.0, "is_reserved": 0, "lon": -76.99795766666666}, {"type": "electric_scooter", "name": "dd6649491f18fe92fe88b3dc3a793fd9", "rental_uris": {"ios": "https://dc.lft.to/lastmile_qr_scan", "android": "https://dc.lft.to/lastmile_qr_scan"}, "fusion_lon": 0.0, "lat": 38.90128216666667, "is_disabled": 0, "bike_id": "dd6649491f18fe92fe88b3dc3a793fd9", "fusion_lat": 0.0, "is_reserved": 0, "lon": -77.017876}, {"type": "electric_bike", "name": "ee92e3102cb130f0f165587f0f36048b", "rental_uris": {"ios": "https://dc.lft.to/lastmile_qr_scan", "android": "https://dc.lft.to/lastmile_qr_scan"}, "fusion_lon": 0.0, "lat": 38.961948166666666, "is_disabled": 0, "bike_id": "ee92e3102cb130f0f165587f0f36048b", "fusion_lat": 0.0, "is_reserved": 0, "lon": -77.00082716666667}, {"type": "electric_scooter", "name": "d689f6554d35f50584b8f96dbdf8dee0", "rental_uris": {"ios": "https://dc.lft.to/lastmile_qr_scan", "android": "https://dc.lft.to/lastmile_qr_scan"}, "fusion_lon": 0.0, "lat": 38.893247, "is_disabled": 0, "bike_id": "d689f6554d35f50584b8f96dbdf8dee0", "fusion_lat": 0.0, "is_reserved": 0, "lon": -77.02228933333333}, {"type": "electric_scooter", "name": "e543956e01a9c44be225eb9321f639dc", "rental_uris": {"ios": "https://dc.lft.to/lastmile_qr_scan", "android": "https://dc.lft.to/lastmile_qr_scan"}, "fusion_lon": 0.0, "lat": 38.9341645, "is_disabled": 0, "bike_id": "e543956e01a9c44be225eb9321f639dc", "fusion_lat": 0.0, "is_reserved": 0, "lon": -77.02441066666667}, {"type": "electric_scooter", "name": "4fab39a6121314d5934d50ab0c398f62", "rental_uris": {"ios": "https://dc.lft.to/lastmile_qr_scan", "android": "https://dc.lft.to/lastmile_qr_scan"}, "fusion_lon": 0.0, "lat": 38.9236375, "is_disabled": 0, "bike_id": "4fab39a6121314d5934d50ab0c398f62", "fusion_lat": 0.0, "is_reserved": 0, "lon": -77.050317}, {"type": "electric_bike", "name": "64513088fa4dab04cffae656afa96bcf", "rental_uris": {"ios": "https://dc.lft.to/lastmile_qr_scan", "android": "https://dc.lft.to/lastmile_qr_scan"}, "fusion_lon": 0.0, "lat": 38.9909335, "is_disabled": 0, "bike_id": "64513088fa4dab04cffae656afa96bcf", "fusion_lat": 0.0, "is_reserved": 0, "lon": -76.993764}, {"type": "electric_bike", "name": "e3f87857232331f9c16d45ab481757b0", "rental_uris": {"ios": "https://dc.lft.to/lastmile_qr_scan", "android": "https://dc.lft.to/lastmile_qr_scan"}, "fusion_lon": 0.0, "lat": 38.89897933333334, "is_disabled": 0, "bike_id": "e3f87857232331f9c16d45ab481757b0", "fusion_lat": 0.0, "is_reserved": 0, "lon": -77.0962375}, {"type": "electric_scooter", "name": "8d1f12592dd39c9df9a13e4d8fbbf921", "rental_uris": {"ios": "https://dc.lft.to/lastmile_qr_scan", "android": "https://dc.lft.to/lastmile_qr_scan"}, "fusion_lon": 0.0, "lat": 38.92475266666667, "is_disabled": 0, "bike_id": "8d1f12592dd39c9df9a13e4d8fbbf921", "fusion_lat": 0.0, "is_reserved": 0, "lon": -76.99043416666666}, {"type": "electric_scooter", "name": "cd0546ac3a9daf6b0023110ec513e5f6", "rental_uris": {"ios": "https://dc.lft.to/lastmile_qr_scan", "android": "https://dc.lft.to/lastmile_qr_scan"}, "fusion_lon": 0.0, "lat": 38.923026166666666, "is_disabled": 0, "bike_id": "cd0546ac3a9daf6b0023110ec513e5f6", "fusion_lat": 0.0, "is_reserved": 0, "lon": -77.0244665}, {"type": "electric_scooter", "name": "e73618cc86c641a3f64b58e5bdcc3944", "rental_uris": {"ios": "https://dc.lft.to/lastmile_qr_scan", "android": "https://dc.lft.to/lastmile_qr_scan"}, "fusion_lon": 0.0, "lat": 38.89973466666667, "is_disabled": 0, "bike_id": "e73618cc86c641a3f64b58e5bdcc3944", "fusion_lat": 0.0, "is_reserved": 0, "lon": -76.99492783333334}, {"type": "electric_bike", "name": "591270b6436b3fb601d37975eea2dcc5", "rental_uris": {"ios": "https://dc.lft.to/lastmile_qr_scan", "android": "https://dc.lft.to/lastmile_qr_scan"}, "fusion_lon": 0.0, "lat": 38.909643, "is_disabled": 0, "bike_id": "591270b6436b3fb601d37975eea2dcc5", "fusion_lat": 0.0, "is_reserved": 0, "lon": -77.0881735}, {"type": "electric_scooter", "name": "3baf5be209b2309199d5744f07bfa61f", "rental_uris": {"ios": "https://dc.lft.to/lastmile_qr_scan", "android": "https://dc.lft.to/lastmile_qr_scan"}, "fusion_lon": 0.0, "lat": 38.91092283333333, "is_disabled": 0, "bike_id": "3baf5be209b2309199d5744f07bfa61f", "fusion_lat": 0.0, "is_reserved": 0, "lon": -77.03840966666667}, {"type": "electric_scooter", "name": "eaee1135bed9d2900b8b12e46f9e7b0e", "rental_uris": {"ios": "https://dc.lft.to/lastmile_qr_scan", "android": "https://dc.lft.to/lastmile_qr_scan"}, "fusion_lon": 0.0, "lat": 38.920427333333336, "is_disabled": 0, "bike_id": "eaee1135bed9d2900b8b12e46f9e7b0e", "fusion_lat": 0.0, "is_reserved": 0, "lon": -77.01677883333333}, {"type": "electric_scooter", "name": "15580be45d002d521554bcc6fda2ed37", "rental_uris": {"ios": "https://dc.lft.to/lastmile_qr_scan", "android": "https://dc.lft.to/lastmile_qr_scan"}, "fusion_lon": 0.0, "lat": 38.909673833333336, "is_disabled": 0, "bike_id": "15580be45d002d521554bcc6fda2ed37", "fusion_lat": 0.0, "is_reserved": 0, "lon": -77.04052616666667}, {"type": "electric_scooter", "name": "38853831ab576349cecb61fb3ce01ade", "rental_uris": {"ios": "https://dc.lft.to/lastmile_qr_scan", "android": "https://dc.lft.to/lastmile_qr_scan"}, "fusion_lon": 0.0, "lat": 38.90782733333333, "is_disabled": 0, "bike_id": "38853831ab576349cecb61fb3ce01ade", "fusion_lat": 0.0, "is_reserved": 0, "lon": -77.03190933333333}, {"type": "electric_scooter", "name": "0b338ab2511948daa58f4cc7def8e1a7", "rental_uris": {"ios": "https://dc.lft.to/lastmile_qr_scan", "android": "https://dc.lft.to/lastmile_qr_scan"}, "fusion_lon": 0.0, "lat": 38.9171365, "is_disabled": 0, "bike_id": "0b338ab2511948daa58f4cc7def8e1a7", "fusion_lat": 0.0, "is_reserved": 0, "lon": -77.04154266666667}, {"type": "electric_scooter", "name": "d181320e4a8998edc428d2d499e89a28", "rental_uris": {"ios": "https://dc.lft.to/lastmile_qr_scan", "android": "https://dc.lft.to/lastmile_qr_scan"}, "fusion_lon": 0.0, "lat": 38.9055705, "is_disabled": 0, "bike_id": "d181320e4a8998edc428d2d499e89a28", "fusion_lat": 0.0, "is_reserved": 0, "lon": -77.005682}, {"type": "electric_scooter", "name": "b7ea1eedadc0b196573cf3b1640ed7a3", "rental_uris": {"ios": "https://dc.lft.to/lastmile_qr_scan", "android": "https://dc.lft.to/lastmile_qr_scan"}, "fusion_lon": 0.0, "lat": 38.904867, "is_disabled": 0, "bike_id": "b7ea1eedadc0b196573cf3b1640ed7a3", "fusion_lat": 0.0, "is_reserved": 0, "lon": -77.05380066666666}, {"type": "electric_scooter", "name": "18b6768461178659d78a6be9dd304485", "rental_uris": {"ios": "https://dc.lft.to/lastmile_qr_scan", "android": "https://dc.lft.to/lastmile_qr_scan"}, "fusion_lon": 0.0, "lat": 38.902701666666665, "is_disabled": 0, "bike_id": "18b6768461178659d78a6be9dd304485", "fusion_lat": 0.0, "is_reserved": 0, "lon": -77.03040516666667}, {"type": "electric_bike", "name": "5cdfabe1403ac441ef992457766c37eb", "rental_uris": {"ios": "https://dc.lft.to/lastmile_qr_scan", "android": "https://dc.lft.to/lastmile_qr_scan"}, "fusion_lon": 0.0, "lat": 38.95629983333333, "is_disabled": 0, "bike_id": "5cdfabe1403ac441ef992457766c37eb", "fusion_lat": 0.0, "is_reserved": 0, "lon": -76.93871}, {"type": "electric_bike", "name": "d921a1a7f7c85b32e1de57b8db811327", "rental_uris": {"ios": "https://dc.lft.to/lastmile_qr_scan", "android": "https://dc.lft.to/lastmile_qr_scan"}, "fusion_lon": 0.0, "lat": 38.937713, "is_disabled": 0, "bike_id": "d921a1a7f7c85b32e1de57b8db811327", "fusion_lat": 0.0, "is_reserved": 0, "lon": -77.01914583333334}, {"type": "electric_scooter", "name": "0234bf619a019940ff48c3e1ea25bc51", "rental_uris": {"ios": "https://dc.lft.to/lastmile_qr_scan", "android": "https://dc.lft.to/lastmile_qr_scan"}, "fusion_lon": 0.0, "lat": 38.9189165, "is_disabled": 0, "bike_id": "0234bf619a019940ff48c3e1ea25bc51", "fusion_lat": 0.0, "is_reserved": 0, "lon": -77.003445}, {"type": "electric_scooter", "name": "0da7174f007fb72ba6982c3fbde3570d", "rental_uris": {"ios": "https://dc.lft.to/lastmile_qr_scan", "android": "https://dc.lft.to/lastmile_qr_scan"}, "fusion_lon": 0.0, "lat": 38.92368666666667, "is_disabled": 0, "bike_id": "0da7174f007fb72ba6982c3fbde3570d", "fusion_lat": 0.0, "is_reserved": 0, "lon": -77.02125766666667}, {"type": "electric_bike", "name": "b5786ccead0d4f82979f344b89be6265", "rental_uris": {"ios": "https://dc.lft.to/lastmile_qr_scan", "android": "https://dc.lft.to/lastmile_qr_scan"}, "fusion_lon": 0.0, "lat": 38.8780265, "is_disabled": 0, "bike_id": "b5786ccead0d4f82979f344b89be6265", "fusion_lat": 0.0, "is_reserved": 0, "lon": -77.00748216666666}, {"type": "electric_scooter", "name": "0d2ce5a5a278536e71e062b882e3e9a0", "rental_uris": {"ios": "https://dc.lft.to/lastmile_qr_scan", "android": "https://dc.lft.to/lastmile_qr_scan"}, "fusion_lon": 0.0, "lat": 38.897296833333336, "is_disabled": 0, "bike_id": "0d2ce5a5a278536e71e062b882e3e9a0", "fusion_lat": 0.0, "is_reserved": 0, "lon": -77.0099095}, {"type": "electric_scooter", "name": "2305495469f60224059011fedeb8061b", "rental_uris": {"ios": "https://dc.lft.to/lastmile_qr_scan", "android": "https://dc.lft.to/lastmile_qr_scan"}, "fusion_lon": 0.0, "lat": 38.9328595, "is_disabled": 0, "bike_id": "2305495469f60224059011fedeb8061b", "fusion_lat": 0.0, "is_reserved": 0, "lon": -77.02546933333333}, {"type": "electric_scooter", "name": "2eeca46e8afe66649fcf256bf276478c", "rental_uris": {"ios": "https://dc.lft.to/lastmile_qr_scan", "android": "https://dc.lft.to/lastmile_qr_scan"}, "fusion_lon": 0.0, "lat": 38.936655333333334, "is_disabled": 0, "bike_id": "2eeca46e8afe66649fcf256bf276478c", "fusion_lat": 0.0, "is_reserved": 0, "lon": -77.03633283333333}, {"type": "electric_scooter", "name": "db4991a316d5e3ba9a5f18bb16e27285", "rental_uris": {"ios": "https://dc.lft.to/lastmile_qr_scan", "android": "https://dc.lft.to/lastmile_qr_scan"}, "fusion_lon": 0.0, "lat": 38.935340333333336, "is_disabled": 0, "bike_id": "db4991a316d5e3ba9a5f18bb16e27285", "fusion_lat": 0.0, "is_reserved": 0, "lon": -77.02356433333334}, {"type": "electric_scooter", "name": "214657b0f86ac2acf74893cb7a56f242", "rental_uris": {"ios": "https://dc.lft.to/lastmile_qr_scan", "android": "https://dc.lft.to/lastmile_qr_scan"}, "fusion_lon": 0.0, "lat": 38.9236735, "is_disabled": 0, "bike_id": "214657b0f86ac2acf74893cb7a56f242", "fusion_lat": 0.0, "is_reserved": 0, "lon": -77.01952916666667}, {"type": "electric_scooter", "name": "ae44333fa74c745ab62c2c11febc264e", "rental_uris": {"ios": "https://dc.lft.to/lastmile_qr_scan", "android": "https://dc.lft.to/lastmile_qr_scan"}, "fusion_lon": 0.0, "lat": 38.879587, "is_disabled": 0, "bike_id": "ae44333fa74c745ab62c2c11febc264e", "fusion_lat": 0.0, "is_reserved": 0, "lon": -77.02375733333334}, {"type": "electric_scooter", "name": "ac31c6ea10ac52c95783fba1a5c6302d", "rental_uris": {"ios": "https://dc.lft.to/lastmile_qr_scan", "android": "https://dc.lft.to/lastmile_qr_scan"}, "fusion_lon": 0.0, "lat": 38.925856833333334, "is_disabled": 0, "bike_id": "ac31c6ea10ac52c95783fba1a5c6302d", "fusion_lat": 0.0, "is_reserved": 0, "lon": -77.037809}, {"type": "electric_scooter", "name": "226f3851a36f1eb95e2a6500c82c96dc", "rental_uris": {"ios": "https://dc.lft.to/lastmile_qr_scan", "android": "https://dc.lft.to/lastmile_qr_scan"}, "fusion_lon": 0.0, "lat": 38.897264666666665, "is_disabled": 0, "bike_id": "226f3851a36f1eb95e2a6500c82c96dc", "fusion_lat": 0.0, "is_reserved": 0, "lon": -77.05524733333333}, {"type": "electric_scooter", "name": "11fc92409de678facef4b60fd21fcd34", "rental_uris": {"ios": "https://dc.lft.to/lastmile_qr_scan", "android": "https://dc.lft.to/lastmile_qr_scan"}, "fusion_lon": 0.0, "lat": 38.929520833333335, "is_disabled": 0, "bike_id": "11fc92409de678facef4b60fd21fcd34", "fusion_lat": 0.0, "is_reserved": 0, "lon": -77.0183985}, {"type": "electric_scooter", "name": "0c8447b5f209536d029fc9f2dd8ae479", "rental_uris": {"ios": "https://dc.lft.to/lastmile_qr_scan", "android": "https://dc.lft.to/lastmile_qr_scan"}, "fusion_lon": 0.0, "lat": 38.884900333333334, "is_disabled": 0, "bike_id": "0c8447b5f209536d029fc9f2dd8ae479", "fusion_lat": 0.0, "is_reserved": 0, "lon": -77.00711633333333}, {"type": "electric_scooter", "name": "7e9e4bee7d8e81ddc3a85e86efa20561", "rental_uris": {"ios": "https://dc.lft.to/lastmile_qr_scan", "android": "https://dc.lft.to/lastmile_qr_scan"}, "fusion_lon": 0.0, "lat": 38.91089933333333, "is_disabled": 0, "bike_id": "7e9e4bee7d8e81ddc3a85e86efa20561", "fusion_lat": 0.0, "is_reserved": 0, "lon": -77.0383675}, {"type": "electric_scooter", "name": "9ccdc4fb9c48c697b257463353c9c00b", "rental_uris": {"ios": "https://dc.lft.to/lastmile_qr_scan", "android": "https://dc.lft.to/lastmile_qr_scan"}, "fusion_lon": 0.0, "lat": 38.912569500000004, "is_disabled": 0, "bike_id": "9ccdc4fb9c48c697b257463353c9c00b", "fusion_lat": 0.0, "is_reserved": 0, "lon": -77.03832283333334}, {"type": "electric_bike", "name": "0b841b68fe908da0cd4403720dc0659a", "rental_uris": {"ios": "https://dc.lft.to/lastmile_qr_scan", "android": "https://dc.lft.to/lastmile_qr_scan"}, "fusion_lon": 0.0, "lat": 38.94754616666667, "is_disabled": 0, "bike_id": "0b841b68fe908da0cd4403720dc0659a", "fusion_lat": 0.0, "is_reserved": 0, "lon": -77.02373283333333}, {"type": "electric_scooter", "name": "9e8d161301ede6b7247f30f42028cc61", "rental_uris": {"ios": "https://dc.lft.to/lastmile_qr_scan", "android": "https://dc.lft.to/lastmile_qr_scan"}, "fusion_lon": 0.0, "lat": 38.92351166666667, "is_disabled": 0, "bike_id": "9e8d161301ede6b7247f30f42028cc61", "fusion_lat": 0.0, "is_reserved": 0, "lon": -77.035166}, {"type": "electric_scooter", "name": "e98af1b5bd86621bc856a612dd4390d2", "rental_uris": {"ios": "https://dc.lft.to/lastmile_qr_scan", "android": "https://dc.lft.to/lastmile_qr_scan"}, "fusion_lon": 0.0, "lat": 38.909761833333334, "is_disabled": 0, "bike_id": "e98af1b5bd86621bc856a612dd4390d2", "fusion_lat": 0.0, "is_reserved": 0, "lon": -77.04868866666666}, {"type": "electric_scooter", "name": "9259d716556e9c97d4081abeeba31285", "rental_uris": {"ios": "https://dc.lft.to/lastmile_qr_scan", "android": "https://dc.lft.to/lastmile_qr_scan"}, "fusion_lon": 0.0, "lat": 38.9135125, "is_disabled": 0, "bike_id": "9259d716556e9c97d4081abeeba31285", "fusion_lat": 0.0, "is_reserved": 0, "lon": -77.0318675}, {"type": "electric_scooter", "name": "5ee9acdfcce3e9f38636cf2f775cf5fb", "rental_uris": {"ios": "https://dc.lft.to/lastmile_qr_scan", "android": "https://dc.lft.to/lastmile_qr_scan"}, "fusion_lon": 0.0, "lat": 38.9284665, "is_disabled": 0, "bike_id": "5ee9acdfcce3e9f38636cf2f775cf5fb", "fusion_lat": 0.0, "is_reserved": 0, "lon": -77.03299016666666}, {"type": "electric_scooter", "name": "effab5f76cef79ee08013eb8972183d7", "rental_uris": {"ios": "https://dc.lft.to/lastmile_qr_scan", "android": "https://dc.lft.to/lastmile_qr_scan"}, "fusion_lon": 0.0, "lat": 38.9037765, "is_disabled": 0, "bike_id": "effab5f76cef79ee08013eb8972183d7", "fusion_lat": 0.0, "is_reserved": 0, "lon": -77.016393}, {"type": "electric_scooter", "name": "a916abd9d55cef048e3a6a84767a182e", "rental_uris": {"ios": "https://dc.lft.to/lastmile_qr_scan", "android": "https://dc.lft.to/lastmile_qr_scan"},