{"data": {"bikes": [{"rental_uris": {"android": "https://dc.lft.to/lastmile_qr_scan", "ios": "https://dc.lft.to/lastmile_qr_scan"}, "lon": -77.03499266666667, "name": "b215ad989386b7aec4fadac3df21d2af", "lat": 38.92861883333333, "is_reserved": 0, "fusion_lat": 0.0, "bike_id": "b215ad989386b7aec4fadac3df21d2af", "type": "electric_scooter", "is_disabled": 0, "fusion_lon": 0.0}, {"rental_uris": {"android": "https://dc.lft.to/lastmile_qr_scan", "ios": "https://dc.lft.to/lastmile_qr_scan"}, "lon": -77.0119495, "name": "572e9b16a910fa972dbd4f8a18ab2af3", "lat": 38.915671, "is_reserved": 0, "fusion_lat": 0.0, "bike_id": "572e9b16a910fa972dbd4f8a18ab2af3", "type": "electric_scooter", "is_disabled": 0, "fusion_lon": 0.0}, {"rental_uris": {"android": "https://dc.lft.to/lastmile_qr_scan", "ios": "https://dc.lft.to/lastmile_qr_scan"}, "lon": -76.98373816666667, "name": "b34f057134f78486ec5a4a11c3de10c2", "lat": 38.8603005, "is_reserved": 0, "fusion_lat": 0.0, "bike_id": "b34f057134f78486ec5a4a11c3de10c2", "type": "electric_scooter", "is_disabled": 0, "fusion_lon": 0.0}, {"rental_uris": {"android": "https://dc.lft.to/lastmile_qr_scan", "ios": "https://dc.lft.to/lastmile_qr_scan"}, "lon": -76.94700516666667, "name": "152610d36215a640b0579dcd59ee9d85", "lat": 38.897287166666665, "is_reserved": 0, "fusion_lat": 0.0, "bike_id": "152610d36215a640b0579dcd59ee9d85", "type": "electric_scooter", "is_disabled": 0, "fusion_lon": 0.0}, {"rental_uris": {"android": "https://dc.lft.to/lastmile_qr_scan", "ios": "https://dc.lft.to/lastmile_qr_scan"}, "lon": -77.02960266666666, "name": "0a709758f02fd95376d6462062806de5", "lat": 38.898382166666664, "is_reserved": 0, "fusion_lat": 0.0, "bike_id": "0a709758f02fd95376d6462062806de5", "type": "electric_scooter", "is_disabled": 0, "fusion_lon": 0.0}, {"rental_uris": {"android": "https://dc.lft.to/lastmile_qr_scan", "ios": "https://dc.lft.to/lastmile_qr_scan"}, "lon": -77.02173933333333, "name": "58fda325b034d46e8a16666ab85e6df6", "lat": 38.89905916666667, "is_reserved": 0, "fusion_lat": 0.0, "bike_id": "58fda325b034d46e8a16666ab85e6df6", "type": "electric_scooter", "is_disabled": 0, "fusion_lon": 0.0}, {"rental_uris": {"android": "https://dc.lft.to/lastmile_qr_scan", "ios": "https://dc.lft.to/lastmile_qr_scan"}, "lon": -77.03666283333334, "name": "82e6f1688ae92c80e71dace7d9159af5", "lat": 38.92242533333334, "is_reserved": 0, "fusion_lat": 0.0, "bike_id": "82e6f1688ae92c80e71dace7d9159af5", "type": "electric_scooter", "is_disabled": 0, "fusion_lon": 0.0}, {"rental_uris": {"android": "https://dc.lft.to/lastmile_qr_scan", "ios": "https://dc.lft.to/lastmile_qr_scan"}, "lon": -77.11759, "name": "99bfd236a7f55955ca0784a52d7aa3ef", "lat": 39.0510085, "is_reserved": 0, "fusion_lat": 0.0, "bike_id": "99bfd236a7f55955ca0784a52d7aa3ef", "type": "electric_bike", "is_disabled": 0, "fusion_lon": 0.0}, {"rental_uris": {"android": "https://dc.lft.to/lastmile_qr_scan", "ios": "https://dc.lft.to/lastmile_qr_scan"}, "lon": -77.04491383333334, "name": "741684235761081a83fe35c062849d8e", "lat": 38.8974835, "is_reserved": 0, "fusion_lat": 0.0, "bike_id": "741684235761081a83fe35c062849d8e", "type": "electric_scooter", "is_disabled": 0, "fusion_lon": 0.0}, {"rental_uris": {"android": "https://dc.lft.to/lastmile_qr_scan", "ios": "https://dc.lft.to/lastmile_qr_scan"}, "lon": -76.990401, "name": "41f8aa142c9074d85f1f98f2a817b83f", "lat": 38.8638875, "is_reserved": 0, "fusion_lat": 0.0, "bike_id": "41f8aa142c9074d85f1f98f2a817b83f", "type": "electric_scooter", "is_disabled": 0, "fusion_lon": 0.0}, {"rental_uris": {"android": "https://dc.lft.to/lastmile_qr_scan", "ios": "https://dc.lft.to/lastmile_qr_scan"}, "lon": -76.99228466666666, "name": "8f9aa5c92050454c11536deadccc41aa", "lat": 38.907856, "is_reserved": 0, "fusion_lat": 0.0, "bike_id": "8f9aa5c92050454c11536deadccc41aa", "type": "electric_scooter", "is_disabled": 0, "fusion_lon": 0.0}, {"rental_uris": {"android": "https://dc.lft.to/lastmile_qr_scan", "ios": "https://dc.lft.to/lastmile_qr_scan"}, "lon": -76.96051716666666, "name": "ef7fa2618f8617594154c19482fb7c4c", "lat": 38.88399616666667, "is_reserved": 0, "fusion_lat": 0.0, "bike_id": "ef7fa2618f8617594154c19482fb7c4c", "type": "electric_bike", "is_disabled": 0, "fusion_lon": 0.0}, {"rental_uris": {"android": "https://dc.lft.to/lastmile_qr_scan", "ios": "https://dc.lft.to/lastmile_qr_scan"}, "lon": -77.02797316666667, "name": "ed867709e95b69edd8fafd2f3badccdf", "lat": 38.90353066666667, "is_reserved": 0, "fusion_lat": 0.0, "bike_id": "ed867709e95b69edd8fafd2f3badccdf", "type": "electric_scooter", "is_disabled": 0, "fusion_lon": 0.0}, {"rental_uris": {"android": "https://dc.lft.to/lastmile_qr_scan", "ios": "https://dc.lft.to/lastmile_qr_scan"}, "lon": -77.038475, "name": "e72d6f3a81eaa7f0e8b0e85ab255a7e3", "lat": 38.902504, "is_reserved": 0, "fusion_lat": 0.0, "bike_id": "e72d6f3a81eaa7f0e8b0e85ab255a7e3", "type": "electric_scooter", "is_disabled": 0, "fusion_lon": 0.0}, {"rental_uris": {"android": "https://dc.lft.to/lastmile_qr_scan", "ios": "https://dc.lft.to/lastmile_qr_scan"}, "lon": -77.0451155, "name": "37c2555dd6e29bc2ebeea6709c977223", "lat": 38.89602416666666, "is_reserved": 0, "fusion_lat": 0.0, "bike_id": "37c2555dd6e29bc2ebeea6709c977223", "type": "electric_scooter", "is_disabled": 0, "fusion_lon": 0.0}, {"rental_uris": {"android": "https://dc.lft.to/lastmile_qr_scan", "ios": "https://dc.lft.to/lastmile_qr_scan"}, "lon": -77.125261, "name": "6331bcd6ef62a263ef3436a2a7001876", "lat": 39.0563365, "is_reserved": 0, "fusion_lat": 0.0, "bike_id": "6331bcd6ef62a263ef3436a2a7001876", "type": "electric_bike", "is_disabled": 0, "fusion_lon": 0.0}, {"rental_uris": {"android": "https://dc.lft.to/lastmile_qr_scan", "ios": "https://dc.lft.to/lastmile_qr_scan"}, "lon": -77.04378233333334, "name": "be4d0dc0d08d0fb29b6947fb8cb54195", "lat": 38.8922265, "is_reserved": 0, "fusion_lat": 0.0, "bike_id": "be4d0dc0d08d0fb29b6947fb8cb54195", "type": "electric_scooter", "is_disabled": 0, "fusion_lon": 0.0}, {"rental_uris": {"android": "https://dc.lft.to/lastmile_qr_scan", "ios": "https://dc.lft.to/lastmile_qr_scan"}, "lon": -77.0262125, "name": "8c00e161dd55119f4064c3cb085372a9", "lat": 38.933366666666664, "is_reserved": 0, "fusion_lat": 0.0, "bike_id": "8c00e161dd55119f4064c3cb085372a9", "type": "electric_scooter", "is_disabled": 0, "fusion_lon": 0.0}, {"rental_uris": {"android": "https://dc.lft.to/lastmile_qr_scan", "ios": "https://dc.lft.to/lastmile_qr_scan"}, "lon": -77.02858316666666, "name": "d487596b722641c291bba6570bce9210", "lat": 38.9358745, "is_reserved": 0, "fusion_lat": 0.0, "bike_id": "d487596b722641c291bba6570bce9210", "type": "electric_scooter", "is_disabled": 0, "fusion_lon": 0.0}, {"rental_uris": {"android": "https://dc.lft.to/lastmile_qr_scan", "ios": "https://dc.lft.to/lastmile_qr_scan"}, "lon": -77.02224816666667, "name": "00a19c3fb6d2c959039fc74768bfc89a", "lat": 38.912536833333334, "is_reserved": 0, "fusion_lat": 0.0, "bike_id": "00a19c3fb6d2c959039fc74768bfc89a", "type": "electric_scooter", "is_disabled": 0, "fusion_lon": 0.0}, {"rental_uris": {"android": "https://dc.lft.to/lastmile_qr_scan", "ios": "https://dc.lft.to/lastmile_qr_scan"}, "lon": -77.02832083333334, "name": "8635e058e1f184dc92777256525f3625", "lat": 38.89887066666667, "is_reserved": 0, "fusion_lat": 0.0, "bike_id": "8635e058e1f184dc92777256525f3625", "type": "electric_scooter", "is_disabled": 0, "fusion_lon": 0.0}, {"rental_uris": {"android": "https://dc.lft.to/lastmile_qr_scan", "ios": "https://dc.lft.to/lastmile_qr_scan"}, "lon": -76.94637583333333, "name": "0a544c730970c7f2c5e8fe542c65f99c", "lat": 38.89858983333333, "is_reserved": 0, "fusion_lat": 0.0, "bike_id": "0a544c730970c7f2c5e8fe542c65f99c", "type": "electric_scooter", "is_disabled": 0, "fusion_lon": 0.0}, {"rental_uris": {"android": "https://dc.lft.to/lastmile_qr_scan", "ios": "https://dc.lft.to/lastmile_qr_scan"}, "lon": -77.04469433333334, "name": "53120e3aa7612d6dfc0f4241bfef6aa4", "lat": 38.918771, "is_reserved": 0, "fusion_lat": 0.0, "bike_id": "53120e3aa7612d6dfc0f4241bfef6aa4", "type": "electric_scooter", "is_disabled": 0, "fusion_lon": 0.0}, {"rental_uris": {"android": "https://dc.lft.to/lastmile_qr_scan", "ios": "https://dc.lft.to/lastmile_qr_scan"}, "lon": -77.00564283333334, "name": "e537e8ff1fceb6da519b2a1819a7ebbf", "lat": 38.905625, "is_reserved": 0, "fusion_lat": 0.0, "bike_id": "e537e8ff1fceb6da519b2a1819a7ebbf", "type": "electric_scooter", "is_disabled": 0, "fusion_lon": 0.0}, {"rental_uris": {"android": "https://dc.lft.to/lastmile_qr_scan", "ios": "https://dc.lft.to/lastmile_qr_scan"}, "lon": -76.97168433333333, "name": "e01efffac861fa2250d2c68fa8e8bc00", "lat": 38.86136316666666, "is_reserved": 0, "fusion_lat": 0.0, "bike_id": "e01efffac861fa2250d2c68fa8e8bc00", "type": "electric_scooter", "is_disabled": 0, "fusion_lon": 0.0}, {"rental_uris": {"android": "https://dc.lft.to/lastmile_qr_scan", "ios": "https://dc.lft.to/lastmile_qr_scan"}, "lon": -77.03204583333333, "name": "462480996f20e7dfcfff2b72cc7a7adf", "lat": 38.921539833333334, "is_reserved": 0, "fusion_lat": 0.0, "bike_id": "462480996f20e7dfcfff2b72cc7a7adf", "type": "electric_scooter", "is_disabled": 0, "fusion_lon": 0.0}, {"rental_uris": {"android": "https://dc.lft.to/lastmile_qr_scan", "ios": "https://dc.lft.to/lastmile_qr_scan"}, "lon": -77.0298345, "name": "0c866da98aac94aa4b6d933b7eacb8ca", "lat": 38.931086, "is_reserved": 0, "fusion_lat": 0.0, "bike_id": "0c866da98aac94aa4b6d933b7eacb8ca", "type": "electric_scooter", "is_disabled": 0, "fusion_lon": 0.0}, {"rental_uris": {"android": "https://dc.lft.to/lastmile_qr_scan", "ios": "https://dc.lft.to/lastmile_qr_scan"}, "lon": -77.00227333333333, "name": "3570c48dae6808526533984a64cbc883", "lat": 38.925089666666665, "is_reserved": 0, "fusion_lat": 0.0, "bike_id": "3570c48dae6808526533984a64cbc883", "type": "electric_scooter", "is_disabled": 0, "fusion_lon": 0.0}, {"rental_uris": {"android": "https://dc.lft.to/lastmile_qr_scan", "ios": "https://dc.lft.to/lastmile_qr_scan"}, "lon": -77.04198016666666, "name": "15ee8577bc05bf90ec19b4537d0cc6d8", "lat": 38.92085433333333, "is_reserved": 0, "fusion_lat": 0.0, "bike_id": "15ee8577bc05bf90ec19b4537d0cc6d8", "type": "electric_scooter", "is_disabled": 0, "fusion_lon": 0.0}, {"rental_uris": {"android": "https://dc.lft.to/lastmile_qr_scan", "ios": "https://dc.lft.to/lastmile_qr_scan"}, "lon": -77.04085683333334, "name": "a6eab3a35e639475905f3e2af903e017", "lat": 38.93276766666666, "is_reserved": 0, "fusion_lat": 0.0, "bike_id": "a6eab3a35e639475905f3e2af903e017", "type": "electric_scooter", "is_disabled": 0, "fusion_lon": 0.0}, {"rental_uris": {"android": "https://dc.lft.to/lastmile_qr_scan", "ios": "https://dc.lft.to/lastmile_qr_scan"}, "lon": -76.99678816666666, "name": "99dee0fb6d068e727ac8504f3c31a65a", "lat": 38.85656683333333, "is_reserved": 0, "fusion_lat": 0.0, "bike_id": "99dee0fb6d068e727ac8504f3c31a65a", "type": "electric_scooter", "is_disabled": 0, "fusion_lon": 0.0}, {"rental_uris": {"android": "https://dc.lft.to/lastmile_qr_scan", "ios": "https://dc.lft.to/lastmile_qr_scan"}, "lon": -77.02103433333333, "name": "1cad34b80dbe2e637e1cfd45406e4f91", "lat": 38.894956666666666, "is_reserved": 0, "fusion_lat": 0.0, "bike_id": "1cad34b80dbe2e637e1cfd45406e4f91", "type": "electric_scooter", "is_disabled": 0, "fusion_lon": 0.0}, {"rental_uris": {"android": "https://dc.lft.to/lastmile_qr_scan", "ios": "https://dc.lft.to/lastmile_qr_scan"}, "lon": -77.01227183333333, "name": "cdf342f0cfb31acc772dcba21c5fd33a", "lat": 38.914088166666666, "is_reserved": 0, "fusion_lat": 0.0, "bike_id": "cdf342f0cfb31acc772dcba21c5fd33a", "type": "electric_scooter", "is_disabled": 0, "fusion_lon": 0.0}, {"rental_uris": {"android": "https://dc.lft.to/lastmile_qr_scan", "ios": "https://dc.lft.to/lastmile_qr_scan"}, "lon": -77.012126, "name": "f9c20b0abaf82fd0f085da17a6999d80", "lat": 38.918216666666666, "is_reserved": 0, "fusion_lat": 0.0, "bike_id": "f9c20b0abaf82fd0f085da17a6999d80", "type": "electric_scooter", "is_disabled": 0, "fusion_lon": 0.0}, {"rental_uris": {"android": "https://dc.lft.to/lastmile_qr_scan", "ios": "https://dc.lft.to/lastmile_qr_scan"}, "lon": -77.03210566666667, "name": "78423eb9aea546380b5f97bdcd41edce", "lat": 38.91689783333333, "is_reserved": 0, "fusion_lat": 0.0, "bike_id": "78423eb9aea546380b5f97bdcd41edce", "type": "electric_scooter", "is_disabled": 0, "fusion_lon": 0.0}, {"rental_uris": {"android": "https://dc.lft.to/lastmile_qr_scan", "ios": "https://dc.lft.to/lastmile_qr_scan"}, "lon": -77.03927033333333, "name": "0c48d596bc76995dd023b0a9202f2719", "lat": 38.916302, "is_reserved": 0, "fusion_lat": 0.0, "bike_id": "0c48d596bc76995dd023b0a9202f2719", "type": "electric_scooter", "is_disabled": 0, "fusion_lon": 0.0}, {"rental_uris": {"android": "https://dc.lft.to/lastmile_qr_scan", "ios": "https://dc.lft.to/lastmile_qr_scan"}, "lon": -76.92047466666666, "name": "24c40cf6443385034d5627a8e6e106ae", "lat": 38.897362, "is_reserved": 0, "fusion_lat": 0.0, "bike_id": "24c40cf6443385034d5627a8e6e106ae", "type": "electric_bike", "is_disabled": 0, "fusion_lon": 0.0}, {"rental_uris": {"android": "https://dc.lft.to/lastmile_qr_scan", "ios": "https://dc.lft.to/lastmile_qr_scan"}, "lon": -77.005649, "name": "35b175a5f4f3a14fecff0ce3e46f3605", "lat": 38.874702, "is_reserved": 0, "fusion_lat": 0.0, "bike_id": "35b175a5f4f3a14fecff0ce3e46f3605", "type": "electric_scooter", "is_disabled": 0, "fusion_lon": 0.0}, {"rental_uris": {"android": "https://dc.lft.to/lastmile_qr_scan", "ios": "https://dc.lft.to/lastmile_qr_scan"}, "lon": -76.93024566666666, "name": "71b88fe077fb70b9d24cd14af64ee098", "lat": 38.90169366666667, "is_reserved": 0, "fusion_lat": 0.0, "bike_id": "71b88fe077fb70b9d24cd14af64ee098", "type": "electric_scooter", "is_disabled": 0, "fusion_lon": 0.0}, {"rental_uris": {"android": "https://dc.lft.to/lastmile_qr_scan", "ios": "https://dc.lft.to/lastmile_qr_scan"}, "lon": -77.02351066666667, "name": "0bf91429e2f445d4f59badb2735286db", "lat": 38.93530366666667, "is_reserved": 0, "fusion_lat": 0.0, "bike_id": "0bf91429e2f445d4f59badb2735286db", "type": "electric_scooter", "is_disabled": 0, "fusion_lon": 0.0}, {"rental_uris": {"android": "https://dc.lft.to/lastmile_qr_scan", "ios": "https://dc.lft.to/lastmile_qr_scan"}, "lon": -77.0199855, "name": "371bf29740040c6de06881ac2ec1d708", "lat": 38.966267333333334, "is_reserved": 0, "fusion_lat": 0.0, "bike_id": "371bf29740040c6de06881ac2ec1d708", "type": "electric_scooter", "is_disabled": 0, "fusion_lon": 0.0}, {"rental_uris": {"android": "https://dc.lft.to/lastmile_qr_scan", "ios": "https://dc.lft.to/lastmile_qr_scan"}, "lon": -77.02191183333333, "name": "d257421e4b8f236acb6e007e1c441d79", "lat": 38.90979033333333, "is_reserved": 0, "fusion_lat": 0.0, "bike_id": "d257421e4b8f236acb6e007e1c441d79", "type": "electric_scooter", "is_disabled": 0, "fusion_lon": 0.0}, {"rental_uris": {"android": "https://dc.lft.to/lastmile_qr_scan", "ios": "https://dc.lft.to/lastmile_qr_scan"}, "lon": -77.07254133333333, "name": "f5342b0dd2e0d48a5f8ae20f0cfc6e8d", "lat": 38.9349145, "is_reserved": 0, "fusion_lat": 0.0, "bike_id": "f5342b0dd2e0d48a5f8ae20f0cfc6e8d", "type": "electric_scooter", "is_disabled": 0, "fusion_lon": 0.0}, {"rental_uris": {"android": "https://dc.lft.to/lastmile_qr_scan", "ios": "https://dc.lft.to/lastmile_qr_scan"}, "lon": -77.04011033333333, "name": "b5ea9674a1acd4b46cc332e671f93ef2", "lat": 38.9216945, "is_reserved": 0, "fusion_lat": 0.0, "bike_id": "b5ea9674a1acd4b46cc332e671f93ef2", "type": "electric_scooter", "is_disabled": 0, "fusion_lon": 0.0}, {"rental_uris": {"android": "https://dc.lft.to/lastmile_qr_scan", "ios": "https://dc.lft.to/lastmile_qr_scan"}, "lon": -77.00749366666666, "name": "d1df75d33ddd08d0f0892dbe14d18dee", "lat": 38.898559666666664, "is_reserved": 0, "fusion_lat": 0.0, "bike_id": "d1df75d33ddd08d0f0892dbe14d18dee", "type": "electric_scooter", "is_disabled": 0, "fusion_lon": 0.0}, {"rental_uris": {"android": "https://dc.lft.to/lastmile_qr_scan", "ios": "https://dc.lft.to/lastmile_qr_scan"}, "lon": -76.986792, "name": "763af55972c4c0d3ebb33830811255da", "lat": 38.893591, "is_reserved": 0, "fusion_lat": 0.0, "bike_id": "763af55972c4c0d3ebb33830811255da", "type": "electric_scooter", "is_disabled": 0, "fusion_lon": 0.0}, {"rental_uris": {"android": "https://dc.lft.to/lastmile_qr_scan", "ios": "https://dc.lft.to/lastmile_qr_scan"}, "lon": -76.98824366666666, "name": "b404ec7549c7266caecdb0796e45a1a4", "lat": 38.890768666666666, "is_reserved": 0, "fusion_lat": 0.0, "bike_id": "b404ec7549c7266caecdb0796e45a1a4", "type": "electric_scooter", "is_disabled": 0, "fusion_lon": 0.0}, {"rental_uris": {"android": "https://dc.lft.to/lastmile_qr_scan", "ios": "https://dc.lft.to/lastmile_qr_scan"}, "lon": -76.98417766666667, "name": "7c2842119d41f5ddc2591b77284fe39a", "lat": 38.908227833333335, "is_reserved": 0, "fusion_lat": 0.0, "bike_id": "7c2842119d41f5ddc2591b77284fe39a", "type": "electric_scooter", "is_disabled": 0, "fusion_lon": 0.0}, {"rental_uris": {"android": "https://dc.lft.to/lastmile_qr_scan", "ios": "https://dc.lft.to/lastmile_qr_scan"}, "lon": -77.0378915, "name": "41bb1994ac80d5a1b9a8cefe02d80ee4", "lat": 38.92699866666667, "is_reserved": 0, "fusion_lat": 0.0, "bike_id": "41bb1994ac80d5a1b9a8cefe02d80ee4", "type": "electric_scooter", "is_disabled": 0, "fusion_lon": 0.0}, {"rental_uris": {"android": "https://dc.lft.to/lastmile_qr_scan", "ios": "https://dc.lft.to/lastmile_qr_scan"}, "lon": -76.98229583333334, "name": "69bdd5973d79ed9063e8f205ab57b1ae", "lat": 38.864685, "is_reserved": 0, "fusion_lat": 0.0, "bike_id": "69bdd5973d79ed9063e8f205ab57b1ae", "type": "electric_scooter", "is_disabled": 0, "fusion_lon": 0.0}, {"rental_uris": {"android": "https://dc.lft.to/lastmile_qr_scan", "ios": "https://dc.lft.to/lastmile_qr_scan"}, "lon": -77.025716, "name": "5799ba95de362177f226f9835a0d07cd", "lat": 38.9204155, "is_reserved": 0, "fusion_lat": 0.0, "bike_id": "5799ba95de362177f226f9835a0d07cd", "type": "electric_scooter", "is_disabled": 0, "fusion_lon": 0.0}, {"rental_uris": {"android": "https://dc.lft.to/lastmile_qr_scan", "ios": "https://dc.lft.to/lastmile_qr_scan"}, "lon": -76.9974235, "name": "65da24a7c3cb471a73613d5632f1a95a", "lat": 38.8615665, "is_reserved": 0, "fusion_lat": 0.0, "bike_id": "65da24a7c3cb471a73613d5632f1a95a", "type": "electric_scooter", "is_disabled": 0, "fusion_lon": 0.0}, {"rental_uris": {"android": "https://dc.lft.to/lastmile_qr_scan", "ios": "https://dc.lft.to/lastmile_qr_scan"}, "lon": -76.94148366666667, "name": "b05038446c9142b1068e0ac974fb4655", "lat": 38.90180083333333, "is_reserved": 0, "fusion_lat": 0.0, "bike_id": "b05038446c9142b1068e0ac974fb4655", "type": "electric_scooter", "is_disabled": 0, "fusion_lon": 0.0}, {"rental_uris": {"android": "https://dc.lft.to/lastmile_qr_scan", "ios": "https://dc.lft.to/lastmile_qr_scan"}, "lon": -77.0094375, "name": "753436456eb608676bf156d9039ee788", "lat": 38.921276, "is_reserved": 0, "fusion_lat": 0.0, "bike_id": "753436456eb608676bf156d9039ee788", "type": "electric_bike", "is_disabled": 0, "fusion_lon": 0.0}, {"rental_uris": {"android": "https://dc.lft.to/lastmile_qr_scan", "ios": "https://dc.lft.to/lastmile_qr_scan"}, "lon": -77.0364705, "name": "6697a5b67ffb489b57909ec6efb2c29e", "lat": 38.901227166666665, "is_reserved": 0, "fusion_lat": 0.0, "bike_id": "6697a5b67ffb489b57909ec6efb2c29e", "type": "electric_scooter", "is_disabled": 0, "fusion_lon": 0.0}, {"rental_uris": {"android": "https://dc.lft.to/lastmile_qr_scan", "ios": "https://dc.lft.to/lastmile_qr_scan"}, "lon": -77.00216533333334, "name": "8256fead8dc6884bc5f4c2bfa453616e", "lat": 38.89481333333333, "is_reserved": 0, "fusion_lat": 0.0, "bike_id": "8256fead8dc6884bc5f4c2bfa453616e", "type": "electric_scooter", "is_disabled": 0, "fusion_lon": 0.0}, {"rental_uris": {"android": "https://dc.lft.to/lastmile_qr_scan", "ios": "https://dc.lft.to/lastmile_qr_scan"}, "lon": -77.024846, "name": "2679def78ff61fba8e579e40389c21a3", "lat": 38.94183133333333, "is_reserved": 0, "fusion_lat": 0.0, "bike_id": "2679def78ff61fba8e579e40389c21a3", "type": "electric_scooter", "is_disabled": 0, "fusion_lon": 0.0}, {"rental_uris": {"android": "https://dc.lft.to/lastmile_qr_scan", "ios": "https://dc.lft.to/lastmile_qr_scan"}, "lon": -77.03761233333333, "name": "77bd4482f8297dd3678c69d5086ad6a6", "lat": 38.91620416666667, "is_reserved": 0, "fusion_lat": 0.0, "bike_id": "77bd4482f8297dd3678c69d5086ad6a6", "type": "electric_scooter", "is_disabled": 0, "fusion_lon": 0.0}, {"rental_uris": {"android": "https://dc.lft.to/lastmile_qr_scan", "ios": "https://dc.lft.to/lastmile_qr_scan"}, "lon": -77.05029583333334, "name": "571e89b184d74f23ef5f3aa3e86e1449", "lat": 38.92368033333333, "is_reserved": 0, "fusion_lat": 0.0, "bike_id": "571e89b184d74f23ef5f3aa3e86e1449", "type": "electric_scooter", "is_disabled": 0, "fusion_lon": 0.0}, {"rental_uris": {"android": "https://dc.lft.to/lastmile_qr_scan", "ios": "https://dc.lft.to/lastmile_qr_scan"}, "lon": -77.02720133333334, "name": "d6b14bcba15dd929db3d054633af26fb", "lat": 38.92573016666667, "is_reserved": 0, "fusion_lat": 0.0, "bike_id": "d6b14bcba15dd929db3d054633af26fb", "type": "electric_scooter", "is_disabled": 0, "fusion_lon": 0.0}, {"rental_uris": {"android": "https://dc.lft.to/lastmile_qr_scan", "ios": "https://dc.lft.to/lastmile_qr_scan"}, "lon": -77.02060333333333, "name": "45b2a39e8428b494c71f839d4febadb1", "lat": 38.92367766666667, "is_reserved": 0, "fusion_lat": 0.0, "bike_id": "45b2a39e8428b494c71f839d4febadb1", "type": "electric_scooter", "is_disabled": 0, "fusion_lon": 0.0}, {"rental_uris": {"android": "https://dc.lft.to/lastmile_qr_scan", "ios": "https://dc.lft.to/lastmile_qr_scan"}, "lon": -76.9996985, "name": "ce73ffe6017f2a6fa4148ef12acd3264", "lat": 38.908493666666665, "is_reserved": 0, "fusion_lat": 0.0, "bike_id": "ce73ffe6017f2a6fa4148ef12acd3264", "type": "electric_scooter", "is_disabled": 0, "fusion_lon": 0.0}, {"rental_uris": {"android": "https://dc.lft.to/lastmile_qr_scan", "ios": "https://dc.lft.to/lastmile_qr_scan"}, "lon": -77.011139, "name": "6e3820952d936d27d9fbdbb3a14f4b2b", "lat": 38.90728033333333, "is_reserved": 0, "fusion_lat": 0.0, "bike_id": "6e3820952d936d27d9fbdbb3a14f4b2b", "type": "electric_scooter", "is_disabled": 0, "fusion_lon": 0.0}, {"rental_uris": {"android": "https://dc.lft.to/lastmile_qr_scan", "ios": "https://dc.lft.to/lastmile_qr_scan"}, "lon": -77.0445745, "name": "eec2fb761bc4c71ebc9fcb74b66736cb", "lat": 38.902751, "is_reserved": 0, "fusion_lat": 0.0, "bike_id": "eec2fb761bc4c71ebc9fcb74b66736cb", "type": "electric_scooter", "is_disabled": 0, "fusion_lon": 0.0}, {"rental_uris": {"android": "https://dc.lft.to/lastmile_qr_scan", "ios": "https://dc.lft.to/lastmile_qr_scan"}, "lon": -77.0315545, "name": "e59e0c0c38bab1e1e1a352b316fcc90b", "lat": 38.895366833333334, "is_reserved": 0, "fusion_lat": 0.0, "bike_id": "e59e0c0c38bab1e1e1a352b316fcc90b", "type": "electric_scooter", "is_disabled": 0, "fusion_lon": 0.0}, {"rental_uris": {"android": "https://dc.lft.to/lastmile_qr_scan", "ios": "https://dc.lft.to/lastmile_qr_scan"}, "lon": -76.966779, "name": "625b41883c89512a708549b3932b0d9e", "lat": 38.855978666666665, "is_reserved": 0, "fusion_lat": 0.0, "bike_id": "625b41883c89512a708549b3932b0d9e", "type": "electric_scooter", "is_disabled": 0, "fusion_lon": 0.0}, {"rental_uris": {"android": "https://dc.lft.to/lastmile_qr_scan", "ios": "https://dc.lft.to/lastmile_qr_scan"}, "lon": -77.01763, "name": "9c621b5b3836e0f50110fea5a51351d4", "lat": 38.9026545, "is_reserved": 0, "fusion_lat": 0.0, "bike_id": "9c621b5b3836e0f50110fea5a51351d4", "type": "electric_scooter", "is_disabled": 0, "fusion_lon": 0.0}, {"rental_uris": {"android": "https://dc.lft.to/lastmile_qr_scan", "ios": "https://dc.lft.to/lastmile_qr_scan"}, "lon": -76.97854833333334, "name": "8cc6aaca3ec8f8c6f78df52c6e59d04f", "lat": 38.8447255, "is_reserved": 0, "fusion_lat": 0.0, "bike_id": "8cc6aaca3ec8f8c6f78df52c6e59d04f", "type": "electric_bike", "is_disabled": 0, "fusion_lon": 0.0}, {"rental_uris": {"android": "https://dc.lft.to/lastmile_qr_scan", "ios": "https://dc.lft.to/lastmile_qr_scan"}, "lon": -77.02289433333333, "name": "1d9f0ecf796ec7e69c2f33a07ff4c139", "lat": 38.89703016666667, "is_reserved": 0, "fusion_lat": 0.0, "bike_id": "1d9f0ecf796ec7e69c2f33a07ff4c139", "type": "electric_scooter", "is_disabled": 0, "fusion_lon": 0.0}, {"rental_uris": {"android": "https://dc.lft.to/lastmile_qr_scan", "ios": "https://dc.lft.to/lastmile_qr_scan"}, "lon": -77.03275616666667, "name": "761fc33a7c9ebb099bf04ef9fc64b7f5", "lat": 38.93681083333333, "is_reserved": 0, "fusion_lat": 0.0, "bike_id": "761fc33a7c9ebb099bf04ef9fc64b7f5", "type": "electric_scooter", "is_disabled": 0, "fusion_lon": 0.0}, {"rental_uris": {"android": "https://dc.lft.to/lastmile_qr_scan", "ios": "https://dc.lft.to/lastmile_qr_scan"}, "lon": -76.94894783333334, "name": "36da771380c6701e2c089d01251d11bb", "lat": 38.895402, "is_reserved": 0, "fusion_lat": 0.0, "bike_id": "36da771380c6701e2c089d01251d11bb", "type": "electric_scooter", "is_disabled": 0, "fusion_lon": 0.0}, {"rental_uris": {"android": "https://dc.lft.to/lastmile_qr_scan", "ios": "https://dc.lft.to/lastmile_qr_scan"}, "lon": -77.02154133333333, "name": "bd5c77091ec046f8b66261d0651fda3c", "lat": 38.92597516666667, "is_reserved": 0, "fusion_lat": 0.0, "bike_id": "bd5c77091ec046f8b66261d0651fda3c", "type": "electric_scooter", "is_disabled": 0, "fusion_lon": 0.0}, {"rental_uris": {"android": "https://dc.lft.to/lastmile_qr_scan", "ios": "https://dc.lft.to/lastmile_qr_scan"}, "lon": -77.03222533333333, "name": "02d9c0dbcd8b8c6a2cd1f8df6cfcedf4", "lat": 38.892452666666664, "is_reserved": 0, "fusion_lat": 0.0, "bike_id": "02d9c0dbcd8b8c6a2cd1f8df6cfcedf4", "type": "electric_scooter", "is_disabled": 0, "fusion_lon": 0.0}, {"rental_uris": {"android": "https://dc.lft.to/lastmile_qr_scan", "ios": "https://dc.lft.to/lastmile_qr_scan"}, "lon": -77.0468835, "name": "4cad29126d87a3207bf0bb74244dc4e3", "lat": 38.92093233333333, "is_reserved": 0, "fusion_lat": 0.0, "bike_id": "4cad29126d87a3207bf0bb74244dc4e3", "type": "electric_scooter", "is_disabled": 0, "fusion_lon": 0.0}, {"rental_uris": {"android": "https://dc.lft.to/lastmile_qr_scan", "ios": "https://dc.lft.to/lastmile_qr_scan"}, "lon": -76.94858666666667, "name": "e313436f18fb103767bbbbc4b3eac9be", "lat": 38.88300183333333, "is_reserved": 0, "fusion_lat": 0.0, "bike_id": "e313436f18fb103767bbbbc4b3eac9be", "type": "electric_scooter", "is_disabled": 0, "fusion_lon": 0.0}, {"rental_uris": {"android": "https://dc.lft.to/lastmile_qr_scan", "ios": "https://dc.lft.to/lastmile_qr_scan"}, "lon": -76.94785183333333, "name": "29533ef35166e5b76d2ae7376409f4d7", "lat": 38.8961465, "is_reserved": 0, "fusion_lat": 0.0, "bike_id": "29533ef35166e5b76d2ae7376409f4d7", "type": "electric_scooter", "is_disabled": 0, "fusion_lon": 0.0}, {"rental_uris": {"android": "https://dc.lft.to/lastmile_qr_scan", "ios": "https://dc.lft.to/lastmile_qr_scan"}, "lon": -77.0416085, "name": "d89b085ca936b37d624de935c621a6cb", "lat": 38.89231616666667, "is_reserved": 0, "fusion_lat": 0.0, "bike_id": "d89b085ca936b37d624de935c621a6cb", "type": "electric_scooter", "is_disabled": 0, "fusion_lon": 0.0}, {"rental_uris": {"android": "https://dc.lft.to/lastmile_qr_scan", "ios": "https://dc.lft.to/lastmile_qr_scan"}, "lon": -76.95158983333333, "name": "944eb124b6d3c8df85f2ad77946e1b97", "lat": 38.88520166666667, "is_reserved": 0, "fusion_lat": 0.0, "bike_id": "944eb124b6d3c8df85f2ad77946e1b97", "type": "electric_bike", "is_disabled": 0, "fusion_lon": 0.0}, {"rental_uris": {"android": "https://dc.lft.to/lastmile_qr_scan", "ios": "https://dc.lft.to/lastmile_qr_scan"}, "lon": -76.9900135, "name": "1975e82afea1f481a11182804e3ac9f1", "lat": 38.865027833333336, "is_reserved": 0, "fusion_lat": 0.0, "bike_id": "1975e82afea1f481a11182804e3ac9f1", "type": "electric_scooter", "is_disabled": 0, "fusion_lon": 0.0}, {"rental_uris": {"android": "https://dc.lft.to/lastmile_qr_scan", "ios": "https://dc.lft.to/lastmile_qr_scan"}, "lon": -77.021881, "name": "a38c8bc2c28d7f608fa66eeb1132a5b4", "lat": 38.91568216666667, "is_reserved": 0, "fusion_lat": 0.0, "bike_id": "a38c8bc2c28d7f608fa66eeb1132a5b4", "type": "electric_scooter", "is_disabled": 0, "fusion_lon": 0.0}, {"rental_uris": {"android": "https://dc.lft.to/lastmile_qr_scan", "ios": "https://dc.lft.to/lastmile_qr_scan"}, "lon": -76.9882285, "name": "4d432061f578b4c96accefae224a3e03", "lat": 38.90029883333333, "is_reserved": 0, "fusion_lat": 0.0, "bike_id": "4d432061f578b4c96accefae224a3e03", "type": "electric_scooter", "is_disabled": 0, "fusion_lon": 0.0}, {"rental_uris": {"android": "https://dc.lft.to/lastmile_qr_scan", "ios": "https://dc.lft.to/lastmile_qr_scan"}, "lon": -77.0320495, "name": "741f24f323eede0dcd3b81a3c3e04db4", "lat": 38.90351016666666, "is_reserved": 0, "fusion_lat": 0.0, "bike_id": "741f24f323eede0dcd3b81a3c3e04db4", "type": "electric_scooter", "is_disabled": 0, "fusion_lon": 0.0}, {"rental_uris": {"android": "https://dc.lft.to/lastmile_qr_scan", "ios": "https://dc.lft.to/lastmile_qr_scan"}, "lon": -77.0326425, "name": "fa12210aa36173fc43c15dfcf14ee381", "lat": 38.932537333333336, "is_reserved": 0, "fusion_lat": 0.0, "bike_id": "fa12210aa36173fc43c15dfcf14ee381", "type": "electric_scooter", "is_disabled": 0, "fusion_lon": 0.0}, {"rental_uris": {"android": "https://dc.lft.to/lastmile_qr_scan", "ios": "https://dc.lft.to/lastmile_qr_scan"}, "lon": -77.05105116666667, "name": "59108f1768a95d3f1f835917b22f7026", "lat": 38.924940166666666, "is_reserved": 0, "fusion_lat": 0.0, "bike_id": "59108f1768a95d3f1f835917b22f7026", "type": "electric_scooter", "is_disabled": 0, "fusion_lon": 0.0}, {"rental_uris": {"android": "https://dc.lft.to/lastmile_qr_scan", "ios": "https://dc.lft.to/lastmile_qr_scan"}, "lon": -77.060983, "name": "2e84288ffa288b0bff35e66a91f7d46e", "lat": 38.911879166666665, "is_reserved": 0, "fusion_lat": 0.0, "bike_id": "2e84288ffa288b0bff35e66a91f7d46e", "type": "electric_scooter", "is_disabled": 0, "fusion_lon": 0.0}, {"rental_uris": {"android": "https://dc.lft.to/lastmile_qr_scan", "ios": "https://dc.lft.to/lastmile_qr_scan"}, "lon": -77.011722, "name": "6eb123ba54568f3c8661eb323fc50aa7", "lat": 38.91573233333333, "is_reserved": 0, "fusion_lat": 0.0, "bike_id": "6eb123ba54568f3c8661eb323fc50aa7", "type": "electric_scooter", "is_disabled": 0, "fusion_lon": 0.0}, {"rental_uris": {"android": "https://dc.lft.to/lastmile_qr_scan", "ios": "https://dc.lft.to/lastmile_qr_scan"}, "lon": -76.98839866666667, "name": "f056c61361cf98255287a331d22c5ee7", "lat": 38.8925915, "is_reserved": 0, "fusion_lat": 0.0, "bike_id": "f056c61361cf98255287a331d22c5ee7", "type": "electric_scooter", "is_disabled": 0, "fusion_lon": 0.0}, {"rental_uris": {"android": "https://dc.lft.to/lastmile_qr_scan", "ios": "https://dc.lft.to/lastmile_qr_scan"}, "lon": -77.0323165, "name": "1a2147765c6597146a3be39a5d370b42", "lat": 38.9227705, "is_reserved": 0, "fusion_lat": 0.0, "bike_id": "1a2147765c6597146a3be39a5d370b42", "type": "electric_scooter", "is_disabled": 0, "fusion_lon": 0.0}, {"rental_uris": {"android": "https://dc.lft.to/lastmile_qr_scan", "ios": "https://dc.lft.to/lastmile_qr_scan"}, "lon": -76.99951583333333, "name": "9d8fd62117acff77c9f9c5203c2964b8", "lat": 38.87411616666667, "is_reserved": 0, "fusion_lat": 0.0, "bike_id": "9d8fd62117acff77c9f9c5203c2964b8", "type": "electric_scooter", "is_disabled": 0, "fusion_lon": 0.0}, {"rental_uris": {"android": "https://dc.lft.to/lastmile_qr_scan", "ios": "https://dc.lft.to/lastmile_qr_scan"}, "lon": -77.00762266666666, "name": "d6217b4038c8474a3b21bd710f5a3ba8", "lat": 38.907095166666664, "is_reserved": 0, "fusion_lat": 0.0, "bike_id": "d6217b4038c8474a3b21bd710f5a3ba8", "type": "electric_scooter", "is_disabled": 0, "fusion_lon": 0.0}, {"rental_uris": {"android": "https://dc.lft.to/lastmile_qr_scan", "ios": "https://dc.lft.to/lastmile_qr_scan"}, "lon": -77.04495783333333, "name": "1e15d0f64db27f30a698c278c0a115a4", "lat": 38.90770833333333, "is_reserved": 0, "fusion_lat": 0.0, "bike_id": "1e15d0f64db27f30a698c278c0a115a4", "type": "electric_scooter", "is_disabled": 0, "fusion_lon": 0.0}, {"rental_uris": {"android": "https://dc.lft.to/lastmile_qr_scan", "ios": "https://dc.lft.to/lastmile_qr_scan"}, "lon": -77.0013295, "name": "db80848ee6f9a7175a3bf05355ae6f46", "lat": 38.87882966666667, "is_reserved": 0, "fusion_lat": 0.0, "bike_id": "db80848ee6f9a7175a3bf05355ae6f46", "type": "electric_scooter", "is_disabled": 0, "fusion_lon": 0.0}, {"rental_uris": {"android": "https://dc.lft.to/lastmile_qr_scan", "ios": "https://dc.lft.to/lastmile_qr_scan"}, "lon": -76.93341166666667, "name": "638e25f9c79f343d5f9cdca1f73cdf80", "lat": 38.908638833333335, "is_reserved": 0, "fusion_lat": 0.0, "bike_id": "638e25f9c79f343d5f9cdca1f73cdf80", "type": "electric_scooter", "is_disabled": 0, "fusion_lon": 0.0}, {"rental_uris": {"android": "https://dc.lft.to/lastmile_qr_scan", "ios": "https://dc.lft.to/lastmile_qr_scan"}, "lon": -77.08594883333333, "name": "2c1b407a57f67f85dc004df725e4a794", "lat": 38.90870483333333, "is_reserved": 0, "fusion_lat": 0.0, "bike_id": "2c1b407a57f67f85dc004df725e4a794", "type": "electric_scooter", "is_disabled": 0, "fusion_lon": 0.0}, {"rental_uris": {"android": "https://dc.lft.to/lastmile_qr_scan", "ios": "https://dc.lft.to/lastmile_qr_scan"}, "lon": -77.02383566666667, "name": "cc122173126af20dda1ee041a472d780", "lat": 38.8922605, "is_reserved": 0, "fusion_lat": 0.0, "bike_id": "cc122173126af20dda1ee041a472d780", "type": "electric_scooter", "is_disabled": 0, "fusion_lon": 0.0}, {"rental_uris": {"android": "https://dc.lft.to/lastmile_qr_scan", "ios": "https://dc.lft.to/lastmile_qr_scan"}, "lon": -77.0209795, "name": "3dd1c16939d9d22597a49fad4822819d", "lat": 38.910046333333334, "is_reserved": 0, "fusion_lat": 0.0, "bike_id": "3dd1c16939d9d22597a49fad4822819d", "type": "electric_scooter", "is_disabled": 0, "fusion_lon": 0.0}, {"rental_uris": {"android": "https://dc.lft.to/lastmile_qr_scan", "ios": "https://dc.lft.to/lastmile_qr_scan"}, "lon": -77.03175983333334, "name": "0bf5a5dd3bd18eb81517de2fc0b6ad05", "lat": 38.9305625, "is_reserved": 0, "fusion_lat": 0.0, "bike_id": "0bf5a5dd3bd18eb81517de2fc0b6ad05", "type": "electric_scooter", "is_disabled": 0, "fusion_lon": 0.0}, {"rental_uris": {"android": "https://dc.lft.to/lastmile_qr_scan", "ios": "https://dc.lft.to/lastmile_qr_scan"}, "lon": -77.05402066666667, "name": "88a2e2fe4328d33994e438f247ee8ce4", "lat": 38.90123916666667, "is_reserved": 0, "fusion_lat": 0.0, "bike_id": "88a2e2fe4328d33994e438f247ee8ce4", "type": "electric_scooter", "is_disabled": 0, "fusion_lon": 0.0}, {"rental_uris": {"android": "https://dc.lft.to/lastmile_qr_scan", "ios": "https://dc.lft.to/lastmile_qr_scan"}, "lon": -76.998943, "name": "b16d1561e457f08455a41d7990f4c3d0", "lat": 38.942711333333335, "is_reserved": 0, "fusion_lat": 0.0, "bike_id": "b16d1561e457f08455a41d7990f4c3d0", "type": "electric_bike", "is_disabled": 0, "fusion_lon": 0.0}, {"rental_uris": {"android": "https://dc.lft.to/lastmile_qr_scan", "ios": "https://dc.lft.to/lastmile_qr_scan"}, "lon": -76.99635733333334, "name": "da086f3bf4122850f12b0aae2e551e95", "lat": 38.90531633333333, "is_reserved": 0, "fusion_lat": 0.0, "bike_id": "da086f3bf4122850f12b0aae2e551e95", "type": "electric_scooter", "is_disabled": 0, "fusion_lon": 0.0}, {"rental_uris": {"android": "https://dc.lft.to/lastmile_qr_scan", "ios": "https://dc.lft.to/lastmile_qr_scan"}, "lon": -77.0460475, "name": "325a75d77ddd54767c0ae6d40c147bdb", "lat": 38.902406666666664, "is_reserved": 0, "fusion_lat": 0.0, "bike_id": "325a75d77ddd54767c0ae6d40c147bdb", "type": "electric_scooter", "is_disabled": 0, "fusion_lon": 0.0}, {"rental_uris": {"android": "https://dc.lft.to/lastmile_qr_scan", "ios": "https://dc.lft.to/lastmile_qr_scan"}, "lon": -77.03499716666667, "name": "e30b087528f1c037956314ab2dc142bd", "lat": 38.921507166666665, "is_reserved": 0, "fusion_lat": 0.0, "bike_id": "e30b087528f1c037956314ab2dc142bd", "type": "electric_scooter", "is_disabled": 0, "fusion_lon": 0.0}, {"rental_uris": {"android": "https://dc.lft.to/lastmile_qr_scan", "ios": "https://dc.lft.to/lastmile_qr_scan"}, "lon": -77.0221175, "name": "e6097759764a8365f0b35ce9112603e4", "lat": 38.910162666666665, "is_reserved": 0, "fusion_lat": 0.0, "bike_id": "e6097759764a8365f0b35ce9112603e4", "type": "electric_scooter", "is_disabled": 0, "fusion_lon": 0.0}, {"rental_uris": {"android": "https://dc.lft.to/lastmile_qr_scan", "ios": "https://dc.lft.to/lastmile_qr_scan"}, "lon": -77.029906, "name": "7ad770183ab326dfcf11cf15f8087db8", "lat": 38.90731133333333, "is_reserved": 0, "fusion_lat": 0.0, "bike_id": "7ad770183ab326dfcf11cf15f8087db8", "type": "electric_scooter", "is_disabled": 0, "fusion_lon": 0.0}, {"rental_uris": {"android": "https://dc.lft.to/lastmile_qr_scan", "ios": "https://dc.lft.to/lastmile_qr_scan"}, "lon": -77.0250525, "name": "df7e69c4e4d2cb450c9eedee74d954d0", "lat": 38.920836333333334, "is_reserved": 0, "fusion_lat": 0.0, "bike_id": "df7e69c4e4d2cb450c9eedee74d954d0", "type": "electric_scooter", "is_disabled": 0, "fusion_lon": 0.0}, {"rental_uris": {"android": "https://dc.lft.to/lastmile_qr_scan", "ios": "https://dc.lft.to/lastmile_qr_scan"}, "lon": -77.03566716666667, "name": "b8bfe4ea4d695a747d5223b2ebb14739", "lat": 38.901404166666666, "is_reserved": 0, "fusion_lat": 0.0, "bike_id": "b8bfe4ea4d695a747d5223b2ebb14739", "type": "electric_scooter", "is_disabled": 0, "fusion_lon": 0.0}, {"rental_uris": {"android": "https://dc.lft.to/lastmile_qr_scan", "ios": "https://dc.lft.to/lastmile_qr_scan"}, "lon": -77.03448866666666, "name": "3dab879709a5f7f44512ad209372e460", "lat": 38.9057485, "is_reserved": 0, "fusion_lat": 0.0, "bike_id": "3dab879709a5f7f44512ad209372e460", "type": "electric_scooter", "is_disabled": 0, "fusion_lon": 0.0}, {"rental_uris": {"android": "https://dc.lft.to/lastmile_qr_scan", "ios": "https://dc.lft.to/lastmile_qr_scan"}, "lon": -77.02736383333334, "name": "577114c49c1c281820b3beac64d76986", "lat": 38.9276645, "is_reserved": 0, "fusion_lat": 0.0, "bike_id": "577114c49c1c281820b3beac64d76986", "type": "electric_scooter", "is_disabled": 0, "fusion_lon": 0.0}, {"rental_uris": {"android": "https://dc.lft.to/lastmile_qr_scan", "ios": "https://dc.lft.to/lastmile_qr_scan"}, "lon": -76.93339033333334, "name": "7fe9d2b75dbcf93ead18024b357131be", "lat": 38.9086855, "is_reserved": 0, "fusion_lat": 0.0, "bike_id": "7fe9d2b75dbcf93ead18024b357131be", "type": "electric_scooter", "is_disabled": 0, "fusion_lon": 0.0}, {"rental_uris": {"android": "https://dc.lft.to/lastmile_qr_scan", "ios": "https://dc.lft.to/lastmile_qr_scan"}, "lon": -77.023003, "name": "33c8663179f1b968215f925cfb612f69", "lat": 38.89573933333333, "is_reserved": 0, "fusion_lat": 0.0, "bike_id": "33c8663179f1b968215f925cfb612f69", "type": "electric_scooter", "is_disabled": 0, "fusion_lon": 0.0}, {"rental_uris": {"android": "https://dc.lft.to/lastmile_qr_scan", "ios": "https://dc.lft.to/lastmile_qr_scan"}, "lon": -77.01474, "name": "8ae7bbede4af245dd94210246036f3bf", "lat": 38.918513833333336, "is_reserved": 0, "fusion_lat": 0.0, "bike_id": "8ae7bbede4af245dd94210246036f3bf", "type": "electric_scooter", "is_disabled": 0, "fusion_lon": 0.0}, {"rental_uris": {"android": "https://dc.lft.to/lastmile_qr_scan", "ios": "https://dc.lft.to/lastmile_qr_scan"}, "lon": -77.01214166666666, "name": "3e0a47ad319bd1974e864b888fcb68d7", "lat": 38.918231166666665, "is_reserved": 0, "fusion_lat": 0.0, "bike_id": "3e0a47ad319bd1974e864b888fcb68d7", "type": "electric_scooter", "is_disabled": 0, "fusion_lon": 0.0}, {"rental_uris": {"android": "https://dc.lft.to/lastmile_qr_scan", "ios": "https://dc.lft.to/lastmile_qr_scan"}, "lon": -77.04337566666666, "name": "f338e38ee05d883754c0d6bab0b80ec8", "lat": 38.9132045, "is_reserved": 0, "fusion_lat": 0.0, "bike_id": "f338e38ee05d883754c0d6bab0b80ec8", "type": "electric_scooter", "is_disabled": 0, "fusion_lon": 0.0}, {"rental_uris": {"android": "https://dc.lft.to/lastmile_qr_scan", "ios": "https://dc.lft.to/lastmile_qr_scan"}, "lon": -77.02214466666666, "name": "2cd6d2501ad6f8fd4f66fcda7096fb63", "lat": 38.895788833333334, "is_reserved": 0, "fusion_lat": 0.0, "bike_id": "2cd6d2501ad6f8fd4f66fcda7096fb63", "type": "electric_scooter", "is_disabled": 0, "fusion_lon": 0.0}, {"rental_uris": {"android": "https://dc.lft.to/lastmile_qr_scan", "ios": "https://dc.lft.to/lastmile_qr_scan"}, "lon": -77.04687416666667, "name": "ce0de332fbf1833798e3228ffec8e056", "lat": 38.892235, "is_reserved": 0, "fusion_lat": 0.0, "bike_id": "ce0de332fbf1833798e3228ffec8e056", "type": "electric_scooter", "is_disabled": 0, "fusion_lon": 0.0}, {"rental_uris": {"android": "https://dc.lft.to/lastmile_qr_scan", "ios": "https://dc.lft.to/lastmile_qr_scan"}, "lon": -77.02363816666667, "name": "1469f181e108cd48ab2236b83d091863", "lat": 38.932685666666664, "is_reserved": 0, "fusion_lat": 0.0, "bike_id": "1469f181e108cd48ab2236b83d091863", "type": "electric_scooter", "is_disabled": 0, "fusion_lon": 0.0}, {"rental_uris": {"android": "https://dc.lft.to/lastmile_qr_scan", "ios": "https://dc.lft.to/lastmile_qr_scan"}, "lon": -77.0002565, "name": "1f952761add571eaf9692f9fbe6dc13a", "lat": 38.905726, "is_reserved": 0, "fusion_lat": 0.0, "bike_id": "1f952761add571eaf9692f9fbe6dc13a", "type": "electric_scooter", "is_disabled": 0, "fusion_lon": 0.0}, {"rental_uris": {"android": "https://dc.lft.to/lastmile_qr_scan", "ios": "https://dc.lft.to/lastmile_qr_scan"}, "lon": -77.03362583333333, "name": "373b3d56cd3998845a56e65b4837c150", "lat": 38.912610666666666, "is_reserved": 0, "fusion_lat": 0.0, "bike_id": "373b3d56cd3998845a56e65b4837c150", "type": "electric_scooter", "is_disabled": 0, "fusion_lon": 0.0}, {"rental_uris": {"android": "https://dc.lft.to/lastmile_qr_scan", "ios": "https://dc.lft.to/lastmile_qr_scan"}, "lon": -76.97335366666667, "name": "cc1df28b97c554c40b6f060cd521988f", "lat": 38.90410116666666, "is_reserved": 0, "fusion_lat": 0.0, "bike_id": "cc1df28b97c554c40b6f060cd521988f", "type": "electric_scooter", "is_disabled": 0, "fusion_lon": 0.0}, {"rental_uris": {"android": "https://dc.lft.to/lastmile_qr_scan", "ios": "https://dc.lft.to/lastmile_qr_scan"}, "lon": -77.06118116666667, "name": "140208fb748ae4c99102ddebff473b3f", "lat": 38.904728, "is_reserved": 0, "fusion_lat": 0.0, "bike_id": "140208fb748ae4c99102ddebff473b3f", "type": "electric_scooter", "is_disabled": 0, "fusion_lon": 0.0}, {"rental_uris": {"android": "https://dc.lft.to/lastmile_qr_scan", "ios": "https://dc.lft.to/lastmile_qr_scan"}, "lon": -77.059205, "name": "f0265bb1bd788dec16b7809c2b9f50fd", "lat": 38.90443483333333, "is_reserved": 0, "fusion_lat": 0.0, "bike_id": "f0265bb1bd788dec16b7809c2b9f50fd", "type": "electric_scooter", "is_disabled": 0, "fusion_lon": 0.0}, {"rental_uris": {"android": "https://dc.lft.to/lastmile_qr_scan", "ios": "https://dc.lft.to/lastmile_qr_scan"}, "lon": -77.0386255, "name": "f95971735986dee089b456d5ca45d30d", "lat": 38.90784683333333, "is_reserved": 0, "fusion_lat": 0.0, "bike_id": "f95971735986dee089b456d5ca45d30d", "type": "electric_scooter", "is_disabled": 0, "fusion_lon": 0.0}, {"rental_uris": {"android": "https://dc.lft.to/lastmile_qr_scan", "ios": "https://dc.lft.to/lastmile_qr_scan"}, "lon": -76.99491033333334, "name": "dfa8b17c8e6c26e247fb10f5b2281c2a", "lat": 38.901067166666664, "is_reserved": 0, "fusion_lat": 0.0, "bike_id": "dfa8b17c8e6c26e247fb10f5b2281c2a", "type": "electric_scooter", "is_disabled": 0, "fusion_lon": 0.0}, {"rental_uris": {"android": "https://dc.lft.to/lastmile_qr_scan", "ios": "https://dc.lft.to/lastmile_qr_scan"}, "lon": -76.9737275, "name": "9cdb8f08e9b9a6540786493550737600", "lat": 38.8574205, "is_reserved": 0, "fusion_lat": 0.0, "bike_id": "9cdb8f08e9b9a6540786493550737600", "type": "electric_scooter", "is_disabled": 0, "fusion_lon": 0.0}, {"rental_uris": {"android": "https://dc.lft.to/lastmile_qr_scan", "ios": "https://dc.lft.to/lastmile_qr_scan"}, "lon": -77.04343733333333, "name": "4ceedecda63f6ff87e3a333f7829cae7", "lat": 38.9054895, "is_reserved": 0, "fusion_lat": 0.0, "bike_id": "4ceedecda63f6ff87e3a333f7829cae7", "type": "electric_scooter", "is_disabled": 0, "fusion_lon": 0.0}, {"rental_uris": {"android": "https://dc.lft.to/lastmile_qr_scan", "ios": "https://dc.lft.to/lastmile_qr_scan"}, "lon": -77.05426083333333, "name": "032537c52570e67437f35ff2fcb8668b", "lat": 38.9284135, "is_reserved": 0, "fusion_lat": 0.0, "bike_id": "032537c52570e67437f35ff2fcb8668b", "type": "electric_scooter", "is_disabled": 0, "fusion_lon": 0.0}, {"rental_uris": {"android": "https://dc.lft.to/lastmile_qr_scan", "ios": "https://dc.lft.to/lastmile_qr_scan"}, "lon": -77.03421516666667, "name": "4826d22737f2544f379aee554f493de9", "lat": 38.9332375, "is_reserved": 0, "fusion_lat": 0.0, "bike_id": "4826d22737f2544f379aee554f493de9", "type": "electric_scooter", "is_disabled": 0, "fusion_lon": 0.0}, {"rental_uris": {"android": "https://dc.lft.to/lastmile_qr_scan", "ios": "https://dc.lft.to/lastmile_qr_scan"}, "lon": -77.04840433333334, "name": "4aac1149fdd73443a9dde77a29ffdda9", "lat": 38.916238166666666, "is_reserved": 0, "fusion_lat": 0.0, "bike_id": "4aac1149fdd73443a9dde77a29ffdda9", "type": "electric_scooter", "is_disabled": 0, "fusion_lon": 0.0}, {"rental_uris": {"android": "https://dc.lft.to/lastmile_qr_scan", "ios": "https://dc.lft.to/lastmile_qr_scan"}, "lon": -77.12739283333333, "name": "e09c6aee56a8083570f37340bf6eb2f5", "lat": 38.895657166666666, "is_reserved": 0, "fusion_lat": 0.0, "bike_id": "e09c6aee56a8083570f37340bf6eb2f5", "type": "electric_bike", "is_disabled": 0, "fusion_lon": 0.0}, {"rental_uris": {"android": "https://dc.lft.to/lastmile_qr_scan", "ios": "https://dc.lft.to/lastmile_qr_scan"}, "lon": -77.02956416666666, "name": "83434a5c41788632ad75fa2411ead6b3", "lat": 38.904964166666666, "is_reserved": 0, "fusion_lat": 0.0, "bike_id": "83434a5c41788632ad75fa2411ead6b3", "type": "electric_scooter", "is_disabled": 0, "fusion_lon": 0.0}, {"rental_uris": {"android": "https://dc.lft.to/lastmile_qr_scan", "ios": "https://dc.lft.to/lastmile_qr_scan"}, "lon": -77.04533666666667, "name": "acd9867b1a94896774ecf1189fd07afb", "lat": 38.93460133333333, "is_reserved": 0, "fusion_lat": 0.0, "bike_id": "acd9867b1a94896774ecf1189fd07afb", "type": "electric_scooter", "is_disabled": 0, "fusion_lon": 0.0}, {"rental_uris": {"android": "https://dc.lft.to/lastmile_qr_scan", "ios": "https://dc.lft.to/lastmile_qr_scan"}, "lon": -77.03177983333333, "name": "3d0e55ace73fb86644c06eb8840c9ac2", "lat": 38.907312, "is_reserved": 0, "fusion_lat": 0.0, "bike_id": "3d0e55ace73fb86644c06eb8840c9ac2", "type": "electric_scooter", "is_disabled": 0, "fusion_lon": 0.0}, {"rental_uris": {"android": "https://dc.lft.to/lastmile_qr_scan", "ios": "https://dc.lft.to/lastmile_qr_scan"}, "lon": -76.98092566666666, "name": "b7112af614aaf28c7c2e7f41a3f05e08", "lat": 38.95356433333333, "is_reserved": 0, "fusion_lat": 0.0, "bike_id": "b7112af614aaf28c7c2e7f41a3f05e08", "type": "electric_bike", "is_disabled": 0, "fusion_lon": 0.0}, {"rental_uris": {"android": "https://dc.lft.to/lastmile_qr_scan", "ios": "https://dc.lft.to/lastmile_qr_scan"}, "lon": -77.01848116666666, "name": "abb616185f7dee8754c9e6c3e905f7a8", "lat": 38.915327, "is_reserved": 0, "fusion_lat": 0.0, "bike_id": "abb616185f7dee8754c9e6c3e905f7a8", "type": "electric_scooter", "is_disabled": 0, "fusion_lon": 0.0}, {"rental_uris": {"android": "https://dc.lft.to/lastmile_qr_scan", "ios": "https://dc.lft.to/lastmile_qr_scan"}, "lon": -77.03882133333333, "name": "8a5e17511fa91744a5bcc70ff9e95467", "lat": 38.91846433333333, "is_reserved": 0, "fusion_lat": 0.0, "bike_id": "8a5e17511fa91744a5bcc70ff9e95467", "type": "electric_scooter", "is_disabled": 0, "fusion_lon": 0.0}, {"rental_uris": {"android": "https://dc.lft.to/lastmile_qr_scan", "ios": "https://dc.lft.to/lastmile_qr_scan"}, "lon": -76.99844933333333, "name": "10ab24840743d68c361fb091e669a80c", "lat": 38.9001795, "is_reserved": 0, "fusion_lat": 0.0, "bike_id": "10ab24840743d68c361fb091e669a80c", "type": "electric_scooter", "is_disabled": 0, "fusion_lon": 0.0}, {"rental_uris": {"android": "https://dc.lft.to/lastmile_qr_scan", "ios": "https://dc.lft.to/lastmile_qr_scan"}, "lon": -77.03637066666667, "name": "c9986010b1f0f87c0ac8cc9f66bbbbd1", "lat": 38.928153, "is_reserved": 0, "fusion_lat": 0.0, "bike_id": "c9986010b1f0f87c0ac8cc9f66bbbbd1", "type": "electric_scooter", "is_disabled": 0, "fusion_lon": 0.0}, {"rental_uris": {"android": "https://dc.lft.to/lastmile_qr_scan", "ios": "https://dc.lft.to/lastmile_qr_scan"}, "lon": -77.00595166666666, "name": "c9a0e606e5cd469e028274cafceec23b", "lat": 38.9078, "is_reserved": 0, "fusion_lat": 0.0, "bike_id": "c9a0e606e5cd469e028274cafceec23b", "type": "electric_scooter", "is_disabled": 0, "fusion_lon": 0.0}, {"rental_uris": {"android": "https://dc.lft.to/lastmile_qr_scan", "ios": "https://dc.lft.to/lastmile_qr_scan"}, "lon": -77.02556833333334, "name": "82559989099524958644c597c3387c60", "lat": 38.90366216666666, "is_reserved": 0, "fusion_lat": 0.0, "bike_id": "82559989099524958644c597c3387c60", "type": "electric_scooter", "is_disabled": 0, "fusion_lon": 0.0}, {"rental_uris": {"android": "https://dc.lft.to/lastmile_qr_scan", "ios": "https://dc.lft.to/lastmile_qr_scan"}, "lon": -77.0388435, "name": "a14f27ec854e1964d54412141bc8a016", "lat": 38.901302333333334, "is_reserved": 0, "fusion_lat": 0.0, "bike_id": "a14f27ec854e1964d54412141bc8a016", "type": "electric_scooter", "is_disabled": 0, "fusion_lon": 0.0}, {"rental_uris": {"android": "https://dc.lft.to/lastmile_qr_scan", "ios": "https://dc.lft.to/lastmile_qr_scan"}, "lon": -76.93926916666666, "name": "324e90485ad1b647aaf2c3d6aff59b29", "lat": 38.8933005, "is_reserved": 0, "fusion_lat": 0.0, "bike_id": "324e90485ad1b647aaf2c3d6aff59b29", "type": "electric_scooter", "is_disabled": 0, "fusion_lon": 0.0}, {"rental_uris": {"android": "https://dc.lft.to/lastmile_qr_scan", "ios": "https://dc.lft.to/lastmile_qr_scan"}, "lon": -77.041596, "name": "2ba0919392291a5069b5659e8ef87fc0", "lat": 38.9159975, "is_reserved": 0, "fusion_lat": 0.0, "bike_id": "2ba0919392291a5069b5659e8ef87fc0", "type": "electric_bike", "is_disabled": 0, "fusion_lon": 0.0}, {"rental_uris": {"android": "https://dc.lft.to/lastmile_qr_scan", "ios": "https://dc.lft.to/lastmile_qr_scan"}, "lon": -77.03863583333333, "name": "54cf4ba84d49519b672d7c28c2c96048", "lat": 38.917069, "is_reserved": 0, "fusion_lat": 0.0, "bike_id": "54cf4ba84d49519b672d7c28c2c96048", "type": "electric_scooter", "is_disabled": 0, "fusion_lon": 0.0}, {"rental_uris": {"android": "https://dc.lft.to/lastmile_qr_scan", "ios": "https://dc.lft.to/lastmile_qr_scan"}, "lon": -77.027309, "name": "3eca2af9d913a9abce2095f627f76f49", "lat": 38.952020833333336, "is_reserved": 0, "fusion_lat": 0.0, "bike_id": "3eca2af9d913a9abce2095f627f76f49", "type": "electric_scooter", "is_disabled": 0, "fusion_lon": 0.0}, {"rental_uris": {"android": "https://dc.lft.to/lastmile_qr_scan", "ios": "https://dc.lft.to/lastmile_qr_scan"}, "lon": -77.03998166666666, "name": "bce06222ee0ccc84e0e2c17385fe0ccb", "lat": 38.91761283333334, "is_reserved": 0, "fusion_lat": 0.0, "bike_id": "bce06222ee0ccc84e0e2c17385fe0ccb", "type": "electric_scooter", "is_disabled": 0, "fusion_lon": 0.0}, {"rental_uris": {"android": "https://dc.lft.to/lastmile_qr_scan", "ios": "https://dc.lft.to/lastmile_qr_scan"}, "lon": -77.01767033333333, "name": "c194b9cec9be7b4b668512fa5f5a2637", "lat": 38.872218333333336, "is_reserved": 0, "fusion_lat": 0.0, "bike_id": "c194b9cec9be7b4b668512fa5f5a2637", "type": "electric_scooter", "is_disabled": 0, "fusion_lon": 0.0}, {"rental_uris": {"android": "https://dc.lft.to/lastmile_qr_scan", "ios": "https://dc.lft.to/lastmile_qr_scan"}, "lon": -76.95759466666667, "name": "a4bf47366fba215423afd24813e25dd9", "lat": 38.884321, "is_reserved": 0, "fusion_lat": 0.0, "bike_id": "a4bf47366fba215423afd24813e25dd9", "type": "electric_scooter", "is_disabled": 0, "fusion_lon": 0.0}, {"rental_uris": {"android": "https://dc.lft.to/lastmile_qr_scan", "ios": "https://dc.lft.to/lastmile_qr_scan"}, "lon": -77.024134, "name": "56673f7ef92844211cbff309a2be34a6", "lat": 38.89227016666667, "is_reserved": 0, "fusion_lat": 0.0, "bike_id": "56673f7ef92844211cbff309a2be34a6", "type": "electric_scooter", "is_disabled": 0, "fusion_lon": 0.0}, {"rental_uris": {"android": "https://dc.lft.to/lastmile_qr_scan", "ios": "https://dc.lft.to/lastmile_qr_scan"}, "lon": -77.025621, "name": "f009193a728e919d070e33d960ce5fc3", "lat": 38.927788166666666, "is_reserved": 0, "fusion_lat": 0.0, "bike_id": "f009193a728e919d070e33d960ce5fc3", "type": "electric_scooter", "is_disabled": 0, "fusion_lon": 0.0}, {"rental_uris": {"android": "https://dc.lft.to/lastmile_qr_scan", "ios": "https://dc.lft.to/lastmile_qr_scan"}, "lon": -77.05490383333333, "name": "875105a2796de473dbd53ba852d771c3", "lat": 38.901609, "is_reserved": 0, "fusion_lat": 0.0, "bike_id": "875105a2796de473dbd53ba852d771c3", "type": "electric_scooter", "is_disabled": 0, "fusion_lon": 0.0}, {"rental_uris": {"android": "https://dc.lft.to/lastmile_qr_scan", "ios": "https://dc.lft.to/lastmile_qr_scan"}, "lon": -77.028538, "name": "2fcc63697e461d0d041dcf3f696f4633", "lat": 38.916953, "is_reserved": 0, "fusion_lat": 0.0, "bike_id": "2fcc63697e461d0d041dcf3f696f4633", "type": "electric_scooter", "is_disabled": 0, "fusion_lon": 0.0}, {"rental_uris": {"android": "https://dc.lft.to/lastmile_qr_scan", "ios": "https://dc.lft.to/lastmile_qr_scan"}, "lon": -77.02112866666667, "name": "649352a23bea325538b1de5b37fcce5c", "lat": 38.927524166666664, "is_reserved": 0, "fusion_lat": 0.0, "bike_id": "649352a23bea325538b1de5b37fcce5c", "type": "electric_scooter", "is_disabled": 0, "fusion_lon": 0.0}, {"rental_uris": {"android": "https://dc.lft.to/lastmile_qr_scan", "ios": "https://dc.lft.to/lastmile_qr_scan"}, "lon": -77.03450983333333, "name": "0ca245b136532b3d119d524c02899d4b", "lat": 38.902945, "is_reserved": 0, "fusion_lat": 0.0, "bike_id": "0ca245b136532b3d119d524c02899d4b", "type": "electric_scooter", "is_disabled": 0, "fusion_lon": 0.0}, {"rental_uris": {"android": "https://dc.lft.to/lastmile_qr_scan", "ios": "https://dc.lft.to/lastmile_qr_scan"}, "lon": -77.07189116666666, "name": "ccf08ab91c6a6aae1ef4732bc4b71c94", "lat": 38.90910866666667, "is_reserved": 0, "fusion_lat": 0.0, "bike_id": "ccf08ab91c6a6aae1ef4732bc4b71c94", "type": "electric_scooter", "is_disabled": 0, "fusion_lon": 0.0}, {"rental_uris": {"android": "https://dc.lft.to/lastmile_qr_scan", "ios": "https://dc.lft.to/lastmile_qr_scan"}, "lon": -77.03224633333333, "name": "80eadac76ff6b4468bdf39d174a10a23", "lat": 38.9171415, "is_reserved": 0, "fusion_lat": 0.0, "bike_id": "80eadac76ff6b4468bdf39d174a10a23", "type": "electric_scooter", "is_disabled": 0, "fusion_lon": 0.0}, {"rental_uris": {"android": "https://dc.lft.to/lastmile_qr_scan", "ios": "https://dc.lft.to/lastmile_qr_scan"}, "lon": -77.03167983333333, "name": "c2d6e62999976b2aac460b9900dec9de", "lat": 38.9010885, "is_reserved": 0, "fusion_lat": 0.0, "bike_id": "c2d6e62999976b2aac460b9900dec9de", "type": "electric_scooter", "is_disabled": 0, "fusion_lon": 0.0}, {"rental_uris": {"android": "https://dc.lft.to/lastmile_qr_scan", "ios": "https://dc.lft.to/lastmile_qr_scan"}, "lon": -76.94245666666667, "name": "b1193c5a821ed278537ae8695b8bc46c", "lat": 38.89305916666667, "is_reserved": 0, "fusion_lat": 0.0, "bike_id": "b1193c5a821ed278537ae8695b8bc46c", "type": "electric_scooter", "is_disabled": 0, "fusion_lon": 0.0}, {"rental_uris": {"android": "https://dc.lft.to/lastmile_qr_scan", "ios": "https://dc.lft.to/lastmile_qr_scan"}, "lon": -77.04517866666667, "name": "b805d7a7c750388433cbf6642399a666", "lat": 38.92313583333333, "is_reserved": 0, "fusion_lat": 0.0, "bike_id": "b805d7a7c750388433cbf6642399a666", "type": "electric_scooter", "is_disabled": 0, "fusion_lon": 0.0}, {"rental_uris": {"android": "https://dc.lft.to/lastmile_qr_scan", "ios": "https://dc.lft.to/lastmile_qr_scan"}, "lon": -77.00485533333334, "name": "bb7221735ace49d58a6a7e3462a1d0ce", "lat": 38.874646, "is_reserved": 0, "fusion_lat": 0.0, "bike_id": "bb7221735ace49d58a6a7e3462a1d0ce", "type": "electric_scooter", "is_disabled": 0, "fusion_lon": 0.0}, {"rental_uris": {"android": "https://dc.lft.to/lastmile_qr_scan", "ios": "https://dc.lft.to/lastmile_qr_scan"}, "lon": -77.03957816666667, "name": "9c93b65ebf246b1fb0ec6c2ec9d86a92", "lat": 38.8924185, "is_reserved": 0, "fusion_lat": 0.0, "bike_id": "9c93b65ebf246b1fb0ec6c2ec9d86a92", "type": "electric_scooter", "is_disabled": 0, "fusion_lon": 0.0}, {"rental_uris": {"android": "https://dc.lft.to/lastmile_qr_scan", "ios": "https://dc.lft.to/lastmile_qr_scan"}, "lon": -77.036608, "name": "dbe502d39c760bf1bd7e5f6ac6d97446", "lat": 38.923817, "is_reserved": 0, "fusion_lat": 0.0, "bike_id": "dbe502d39c760bf1bd7e5f6ac6d97446", "type": "electric_scooter", "is_disabled": 0, "fusion_lon": 0.0}, {"rental_uris": {"android": "https://dc.lft.to/lastmile_qr_scan", "ios": "https://dc.lft.to/lastmile_qr_scan"}, "lon": -77.03466416666667, "name": "cd6df803bd77d086f502df8340a3a38a", "lat": 38.92062983333334, "is_reserved": 0, "fusion_lat": 0.0, "bike_id": "cd6df803bd77d086f502df8340a3a38a", "type": "electric_scooter", "is_disabled": 0, "fusion_lon": 0.0}, {"rental_uris": {"android": "https://dc.lft.to/lastmile_qr_scan", "ios": "https://dc.lft.to/lastmile_qr_scan"}, "lon": -77.02122616666666, "name": "89976a40c044c448605a2781068deae3", "lat": 38.88739366666667, "is_reserved": 0, "fusion_lat": 0.0, "bike_id": "89976a40c044c448605a2781068deae3", "type": "electric_scooter", "is_disabled": 0, "fusion_lon": 0.0}, {"rental_uris": {"android": "https://dc.lft.to/lastmile_qr_scan", "ios": "https://dc.lft.to/lastmile_qr_scan"}, "lon": -77.0209155, "name": "c639b861c22ddd07b23310c2ee04f9ff", "lat": 38.884898666666665, "is_reserved": 0, "fusion_lat": 0.0, "bike_id": "c639b861c22ddd07b23310c2ee04f9ff", "type": "electric_scooter", "is_disabled": 0, "fusion_lon": 0.0}, {"rental_uris": {"android": "https://dc.lft.to/lastmile_qr_scan", "ios": "https://dc.lft.to/lastmile_qr_scan"}, "lon": -76.954002, "name": "53b0d6f079925c7fbb92ec70b7230d49", "lat": 38.88419833333333, "is_reserved": 0, "fusion_lat": 0.0, "bike_id": "53b0d6f079925c7fbb92ec70b7230d49", "type": "electric_bike", "is_disabled": 0, "fusion_lon": 0.0}, {"rental_uris": {"android": "https://dc.lft.to/lastmile_qr_scan", "ios": "https://dc.lft.to/lastmile_qr_scan"}, "lon": -77.01108733333334, "name": "e42d29f25e5be434a04496e75b4259a6", "lat": 38.907896, "is_reserved": 0, "fusion_lat": 0.0, "bike_id": "e42d29f25e5be434a04496e75b4259a6", "type": "electric_scooter", "is_disabled": 0, "fusion_lon": 0.0}, {"rental_uris": {"android": "https://dc.lft.to/lastmile_qr_scan", "ios": "https://dc.lft.to/lastmile_qr_scan"}, "lon": -77.013395, "name": "9e2723d5e89f0af3d04f28d707d06f68", "lat": 38.92635833333333, "is_reserved": 0, "fusion_lat": 0.0, "bike_id": "9e2723d5e89f0af3d04f28d707d06f68", "type": "electric_scooter", "is_disabled": 0, "fusion_lon": 0.0}, {"rental_uris": {"android": "https://dc.lft.to/lastmile_qr_scan", "ios": "https://dc.lft.to/lastmile_qr_scan"}, "lon": -77.0237715, "name": "a516f78fb1501608395b9bb6a3195609", "lat": 38.952961333333334, "is_reserved": 0, "fusion_lat": 0.0, "bike_id": "a516f78fb1501608395b9bb6a3195609", "type": "electric_bike", "is_disabled": 0, "fusion_lon": 0.0}, {"rental_uris": {"android": "https://dc.lft.to/lastmile_qr_scan", "ios": "https://dc.lft.to/lastmile_qr_scan"}, "lon": -77.0462375, "name": "f6b2393276475f11888afbedcf896fe8", "lat": 38.91446416666667, "is_reserved": 0, "fusion_lat": 0.0, "bike_id": "f6b2393276475f11888afbedcf896fe8", "type": "electric_scooter", "is_disabled": 0, "fusion_lon": 0.0}, {"rental_uris": {"android": "https://dc.lft.to/lastmile_qr_scan", "ios": "https://dc.lft.to/lastmile_qr_scan"}, "lon": -77.0228745, "name": "e54ccd6ef3fad8baead4880cf639a126", "lat": 38.91256533333333, "is_reserved": 0, "fusion_lat": 0.0, "bike_id": "e54ccd6ef3fad8baead4880cf639a126", "type": "electric_scooter", "is_disabled": 0, "fusion_lon": 0.0}, {"rental_uris": {"android": "https://dc.lft.to/lastmile_qr_scan", "ios": "https://dc.lft.to/lastmile_qr_scan"}, "lon": -77.00398383333334, "name": "876d26ab5153c27d4c7646ec9a8d6013", "lat": 38.9055345, "is_reserved": 0, "fusion_lat": 0.0, "bike_id": "876d26ab5153c27d4c7646ec9a8d6013", "type": "electric_scooter", "is_disabled": 0, "fusion_lon": 0.0}, {"rental_uris": {"android": "https://dc.lft.to/lastmile_qr_scan", "ios": "https://dc.lft.to/lastmile_qr_scan"}, "lon": -77.03874516666667, "name": "b32ae1264331ce3fa2fa5f0e9fa916da", "lat": 38.906596666666665, "is_reserved": 0, "fusion_lat": 0.0, "bike_id": "b32ae1264331ce3fa2fa5f0e9fa916da", "type": "electric_scooter", "is_disabled": 0, "fusion_lon": 0.0}, {"rental_uris": {"android": "https://dc.lft.to/lastmile_qr_scan", "ios": "https://dc.lft.to/lastmile_qr_scan"}, "lon": -76.98897983333333, "name": "155d670785b9d8d786d66e2df20de620", "lat": 38.86662466666667, "is_reserved": 0, "fusion_lat": 0.0, "bike_id": "155d670785b9d8d786d66e2df20de620", "type": "electric_scooter", "is_disabled": 0, "fusion_lon": 0.0}, {"rental_uris": {"android": "https://dc.lft.to/lastmile_qr_scan", "ios": "https://dc.lft.to/lastmile_qr_scan"}, "lon": -77.02326233333334, "name": "ae5ae6c60920efe78e4448c122e88497", "lat": 38.90728266666667, "is_reserved": 0, "fusion_lat": 0.0, "bike_id": "ae5ae6c60920efe78e4448c122e88497", "type": "electric_scooter", "is_disabled": 0, "fusion_lon": 0.0}, {"rental_uris": {"android": "https://dc.lft.to/lastmile_qr_scan", "ios": "https://dc.lft.to/lastmile_qr_scan"}, "lon": -77.02793333333334, "name": "c3d1c03c01b8ff7b09e719bca00046b6", "lat": 38.93926166666667, "is_reserved": 0, "fusion_lat": 0.0, "bike_id": "c3d1c03c01b8ff7b09e719bca00046b6", "type": "electric_scooter", "is_disabled": 0, "fusion_lon": 0.0}, {"rental_uris": {"android": "https://dc.lft.to/lastmile_qr_scan", "ios": "https://dc.lft.to/lastmile_qr_scan"}, "lon": -77.01015466666666, "name": "a6b94f83d254b2a9888e1717fef17328", "lat": 38.906337, "is_reserved": 0, "fusion_lat": 0.0, "bike_id": "a6b94f83d254b2a9888e1717fef17328", "type": "electric_scooter", "is_disabled": 0, "fusion_lon": 0.0}, {"rental_uris": {"android": "https://dc.lft.to/lastmile_qr_scan", "ios": "https://dc.lft.to/lastmile_qr_scan"}, "lon": -77.07764716666667, "name": "f535561c70929bfe6d16af1c26dd5986", "lat": 38.92557433333333, "is_reserved": 0, "fusion_lat": 0.0, "bike_id": "f535561c70929bfe6d16af1c26dd5986", "type": "electric_scooter", "is_disabled": 0, "fusion_lon": 0.0}, {"rental_uris": {"android": "https://dc.lft.to/lastmile_qr_scan", "ios": "https://dc.lft.to/lastmile_qr_scan"}, "lon": -77.05678733333333, "name": "e63bacea1d3c935fb50453bc07712253", "lat": 38.931511666666665, "is_reserved": 0, "fusion_lat": 0.0, "bike_id": "e63bacea1d3c935fb50453bc07712253", "type": "electric_scooter", "is_disabled": 0, "fusion_lon": 0.0}, {"rental_uris": {"android": "https://dc.lft.to/lastmile_qr_scan", "ios": "https://dc.lft.to/lastmile_qr_scan"}, "lon": -77.04123433333334, "name": "631f5c921d3a02dba6da31e948ea1ed0", "lat": 38.9106535, "is_reserved": 0, "fusion_lat": 0.0, "bike_id": "631f5c921d3a02dba6da31e948ea1ed0", "type": "electric_scooter", "is_disabled": 0, "fusion_lon": 0.0}, {"rental_uris": {"android": "https://dc.lft.to/lastmile_qr_scan", "ios": "https://dc.lft.to/lastmile_qr_scan"}, "lon": -77.0558445, "name": "c72bbc0b14a4177c12c240228a454b34", "lat": 38.93430716666667, "is_reserved": 0, "fusion_lat": 0.0, "bike_id": "c72bbc0b14a4177c12c240228a454b34", "type": "electric_scooter", "is_disabled": 0, "fusion_lon": 0.0}, {"rental_uris": {"android": "https://dc.lft.to/lastmile_qr_scan", "ios": "https://dc.lft.to/lastmile_qr_scan"}, "lon": -77.10685433333333, "name": "aadf001a41f0e0021e8cda92bfa87586", "lat": 38.86451916666667, "is_reserved": 0, "fusion_lat": 0.0, "bike_id": "aadf001a41f0e0021e8cda92bfa87586", "type": "electric_bike", "is_disabled": 0, "fusion_lon": 0.0}, {"rental_uris": {"android": "https://dc.lft.to/lastmile_qr_scan", "ios": "https://dc.lft.to/lastmile_qr_scan"}, "lon": -76.98659616666667, "name": "558d98f0f3dabcd248e82ca1df83e418", "lat": 38.91068466666667, "is_reserved": 0, "fusion_lat": 0.0, "bike_id": "558d98f0f3dabcd248e82ca1df83e418", "type": "electric_scooter", "is_disabled": 0, "fusion_lon": 0.0}, {"rental_uris": {"android": "https://dc.lft.to/lastmile_qr_scan", "ios": "https://dc.lft.to/lastmile_qr_scan"}, "lon": -77.036573, "name": "ae0b7fd9889d59ac32a5d1c1ada89660", "lat": 38.9213915, "is_reserved": 0, "fusion_lat": 0.0, "bike_id": "ae0b7fd9889d59ac32a5d1c1ada89660", "type": "electric_scooter", "is_disabled": 0, "fusion_lon": 0.0}, {"rental_uris": {"android": "https://dc.lft.to/lastmile_qr_scan", "ios": "https://dc.lft.to/lastmile_qr_scan"}, "lon": -77.038593, "name": "9cbd5016148b65046743defa7bb78f80", "lat": 38.90788633333333, "is_reserved": 0, "fusion_lat": 0.0, "bike_id": "9cbd5016148b65046743defa7bb78f80", "type": "electric_scooter", "is_disabled": 0, "fusion_lon": 0.0}, {"rental_uris": {"android": "https://dc.lft.to/lastmile_qr_scan", "ios": "https://dc.lft.to/lastmile_qr_scan"}, "lon": -77.03851033333333, "name": "7cfac46d10434855bd48f42f054abdf1", "lat": 38.917737833333334, "is_reserved": 0, "fusion_lat": 0.0, "bike_id": "7cfac46d10434855bd48f42f054abdf1", "type": "electric_scooter", "is_disabled": 0, "fusion_lon": 0.0}, {"rental_uris": {"android": "https://dc.lft.to/lastmile_qr_scan", "ios": "https://dc.lft.to/lastmile_qr_scan"}, "lon": -77.04469066666667, "name": "5c54fe018cb26dafd0513d5ea6eca93c", "lat": 38.903589333333336, "is_reserved": 0, "fusion_lat": 0.0, "bike_id": "5c54fe018cb26dafd0513d5ea6eca93c", "type": "electric_scooter", "is_disabled": 0, "fusion_lon": 0.0}, {"rental_uris": {"android": "https://dc.lft.to/lastmile_qr_scan", "ios": "https://dc.lft.to/lastmile_qr_scan"}, "lon": -77.066589, "name": "7ee56cc015386c3959119d84fc6f06ac", "lat": 38.95067, "is_reserved": 0, "fusion_lat": 0.0, "bike_id": "7ee56cc015386c3959119d84fc6f06ac", "type": "electric_bike", "is_disabled": 0, "fusion_lon": 0.0}, {"rental_uris": {"android": "https://dc.lft.to/lastmile_qr_scan", "ios": "https://dc.lft.to/lastmile_qr_scan"}, "lon": -77.11616383333333, "name": "c6b933a856e31f69c51fc8f528da39f2", "lat": 38.85488483333334, "is_reserved": 0, "fusion_lat": 0.0, "bike_id": "c6b933a856e31f69c51fc8f528da39f2", "type": "electric_bike", "is_disabled": 0, "fusion_lon": 0.0}, {"rental_uris": {"android": "https://dc.lft.to/lastmile_qr_scan", "ios": "https://dc.lft.to/lastmile_qr_scan"}, "lon": -77.03711733333333, "name": "4c80512e251ad507e3f98d5ff0b1b096", "lat": 38.92637966666667, "is_reserved": 0, "fusion_lat": 0.0, "bike_id": "4c80512e251ad507e3f98d5ff0b1b096", "type": "electric_scooter", "is_disabled": 0, "fusion_lon": 0.0}, {"rental_uris": {"android": "https://dc.lft.to/lastmile_qr_scan", "ios": "https://dc.lft.to/lastmile_qr_scan"}, "lon": -77.211249, "name": "e2fd00df6cb2ac7305c16b2e9a382101", "lat": 38.874902666666664, "is_reserved": 0, "fusion_lat": 0.0, "bike_id": "e2fd00df6cb2ac7305c16b2e9a382101", "type": "electric_bike", "is_disabled": 0, "fusion_lon": 0.0}, {"rental_uris": {"android": "https://dc.lft.to/lastmile_qr_scan", "ios": "https://dc.lft.to/lastmile_qr_scan"}, "lon": -77.03183016666667, "name": "2e3a5dd937629a4333c857e04c9ae0b6", "lat": 38.91351216666666, "is_reserved": 0, "fusion_lat": 0.0, "bike_id": "2e3a5dd937629a4333c857e04c9ae0b6", "type": "electric_scooter", "is_disabled": 0, "fusion_lon": 0.0}, {"rental_uris": {"android": "https://dc.lft.to/lastmile_qr_scan", "ios": "https://dc.lft.to/lastmile_qr_scan"}, "lon": -77.03351733333334, "name": "4d06a08d7afce27e03c6c7d35f2e8ce1", "lat": 38.8972675, "is_reserved": 0, "fusion_lat": 0.0, "bike_id": "4d06a08d7afce27e03c6c7d35f2e8ce1", "type": "electric_scooter", "is_disabled": 0, "fusion_lon": 0.0}, {"rental_uris": {"android": "https://dc.lft.to/lastmile_qr_scan", "ios": "https://dc.lft.to/lastmile_qr_scan"}, "lon": -77.02589633333334, "name": "9017b7552649527623e3c6e6980e2132", "lat": 38.914136, "is_reserved": 0, "fusion_lat": 0.0, "bike_id": "9017b7552649527623e3c6e6980e2132", "type": "electric_scooter", "is_disabled": 0, "fusion_lon": 0.0}, {"rental_uris": {"android": "https://dc.lft.to/lastmile_qr_scan", "ios": "https://dc.lft.to/lastmile_qr_scan"}, "lon": -76.969124, "name": "9f18c72a0755fa6bb1fbcf85af5a9f6a", "lat": 38.84613383333333, "is_reserved": 0, "fusion_lat": 0.0, "bike_id": "9f18c72a0755fa6bb1fbcf85af5a9f6a", "type": "electric_bike", "is_disabled": 0, "fusion_lon": 0.0}, {"rental_uris": {"android": "https://dc.lft.to/lastmile_qr_scan", "ios": "https://dc.lft.to/lastmile_qr_scan"}, "lon": -76.90733866666666, "name": "d4b1f89e90688955fca81df53a7439ff", "lat": 38.89611983333333, "is_reserved": 0, "fusion_lat": 0.0, "bike_id": "d4b1f89e90688955fca81df53a7439ff", "type": "electric_bike", "is_disabled": 0, "fusion_lon": 0.0}, {"rental_uris": {"android": "https://dc.lft.to/lastmile_qr_scan", "ios": "https://dc.lft.to/lastmile_qr_scan"}, "lon": -77.0228505, "name": "eda3219602fe04edbde8bda776197517", "lat": 38.9177015, "is_reserved": 0, "fusion_lat": 0.0, "bike_id": "eda3219602fe04edbde8bda776197517", "type": "electric_scooter", "is_disabled": 0, "fusion_lon": 0.0}, {"rental_uris": {"android": "https://dc.lft.to/lastmile_qr_scan", "ios": "https://dc.lft.to/lastmile_qr_scan"}, "lon": -77.05754333333333, "name": "fd3af9aefb92bc6b74c7b3131bee4472", "lat": 38.92501566666667, "is_reserved": 0, "fusion_lat": 0.0, "bike_id": "fd3af9aefb92bc6b74c7b3131bee4472", "type": "electric_scooter", "is_disabled": 0, "fusion_lon": 0.0}, {"rental_uris": {"android": "https://dc.lft.to/lastmile_qr_scan", "ios": "https://dc.lft.to/lastmile_qr_scan"}, "lon": -77.00948583333333, "name": "24d32e8e3999405da9d71fec18d63b8a", "lat": 38.9054885, "is_reserved": 0, "fusion_lat": 0.0, "bike_id": "24d32e8e3999405da9d71fec18d63b8a", "type": "electric_scooter", "is_disabled": 0, "fusion_lon": 0.0}, {"rental_uris": {"android": "https://dc.lft.to/lastmile_qr_scan", "ios": "https://dc.lft.to/lastmile_qr_scan"}, "lon": -77.02378683333333, "name": "c2e77def4b24dca775cba2c8f9f0df29", "lat": 38.952450666666664, "is_reserved": 0, "fusion_lat": 0.0, "bike_id": "c2e77def4b24dca775cba2c8f9f0df29", "type": "electric_scooter", "is_disabled": 0, "fusion_lon": 0.0}, {"rental_uris": {"android": "https://dc.lft.to/lastmile_qr_scan", "ios": "https://dc.lft.to/lastmile_qr_scan"}, "lon": -77.034596, "name": "114e91239851a5d911546d959125ab59", "lat": 38.906722, "is_reserved": 0, "fusion_lat": 0.0, "bike_id": "114e91239851a5d911546d959125ab59", "type": "electric_scooter", "is_disabled": 0, "fusion_lon": 0.0}, {"rental_uris": {"android": "https://dc.lft.to/lastmile_qr_scan", "ios": "https://dc.lft.to/lastmile_qr_scan"}, "lon": -76.983171, "name": "4c1d3d90ec51edff71fe1525146e8296", "lat": 38.90440533333334, "is_reserved": 0, "fusion_lat": 0.0, "bike_id": "4c1d3d90ec51edff71fe1525146e8296", "type": "electric_scooter", "is_disabled": 0, "fusion_lon": 0.0}, {"rental_uris": {"android": "https://dc.lft.to/lastmile_qr_scan", "ios": "https://dc.lft.to/lastmile_qr_scan"}, "lon": -77.0347825, "name": "6bb80a17052f958089d4232d065eb653", "lat": 38.916972, "is_reserved": 0, "fusion_lat": 0.0, "bike_id": "6bb80a17052f958089d4232d065eb653", "type": "electric_scooter", "is_disabled": 0, "fusion_lon": 0.0}, {"rental_uris": {"android": "https://dc.lft.to/lastmile_qr_scan", "ios": "https://dc.lft.to/lastmile_qr_scan"}, "lon": -77.07529233333334, "name": "92e48216e233a3a192f9fb1c55eda01b", "lat": 38.939593333333335, "is_reserved": 0, "fusion_lat": 0.0, "bike_id": "92e48216e233a3a192f9fb1c55eda01b", "type": "electric_scooter", "is_disabled": 0, "fusion_lon": 0.0}, {"rental_uris": {"android": "https://dc.lft.to/lastmile_qr_scan", "ios": "https://dc.lft.to/lastmile_qr_scan"}, "lon": -77.02404883333334, "name": "44ed4bfc04784fd947bc49ab69a7b007", "lat": 38.95732133333333, "is_reserved": 0, "fusion_lat": 0.0, "bike_id": "44ed4bfc04784fd947bc49ab69a7b007", "type": "electric_scooter", "is_disabled": 0, "fusion_lon": 0.0}, {"rental_uris": {"android": "https://dc.lft.to/lastmile_qr_scan", "ios": "https://dc.lft.to/lastmile_qr_scan"}, "lon": -77.0182395, "name": "779ca76fe1ea8a012a3aad403ff4acf2", "lat": 38.90812016666667, "is_reserved": 0, "fusion_lat": 0.0, "bike_id": "779ca76fe1ea8a012a3aad403ff4acf2", "type": "electric_bike", "is_disabled": 0, "fusion_lon": 0.0}, {"rental_uris": {"android": "https://dc.lft.to/lastmile_qr_scan", "ios": "https://dc.lft.to/lastmile_qr_scan"}, "lon": -77.00342833333333, "name": "88c273e7e2e25568e3ed3e2187be7d28", "lat": 38.894634833333335, "is_reserved": 0, "fusion_lat": 0.0, "bike_id": "88c273e7e2e25568e3ed3e2187be7d28", "type": "electric_scooter", "is_disabled": 0, "fusion_lon": 0.0}, {"rental_uris": {"android": "https://dc.lft.to/lastmile_qr_scan", "ios": "https://dc.lft.to/lastmile_qr_scan"}, "lon": -77.02481583333334, "name": "99826d40899ddffd4218c5e516e6992e", "lat": 38.904008833333336, "is_reserved": 0, "fusion_lat": 0.0, "bike_id": "99826d40899ddffd4218c5e516e6992e", "type": "electric_scooter", "is_disabled": 0, "fusion_lon": 0.0}, {"rental_uris": {"android": "https://dc.lft.to/lastmile_qr_scan", "ios": "https://dc.lft.to/lastmile_qr_scan"}, "lon": -77.01880466666667, "name": "b22f9c964fbd0531650e08b4effe5350", "lat": 38.905667333333334, "is_reserved": 0, "fusion_lat": 0.0, "bike_id": "b22f9c964fbd0531650e08b4effe5350", "type": "electric_scooter", "is_disabled": 0, "fusion_lon": 0.0}, {"rental_uris": {"android": "https://dc.lft.to/lastmile_qr_scan", "ios": "https://dc.lft.to/lastmile_qr_scan"}, "lon": -77.05074716666667, "name": "8dac13093dd9ad884b9b1706a3494702", "lat": 38.900633, "is_reserved": 0, "fusion_lat": 0.0, "bike_id": "8dac13093dd9ad884b9b1706a3494702", "type": "electric_scooter", "is_disabled": 0, "fusion_lon": 0.0}, {"rental_uris": {"android": "https://dc.lft.to/lastmile_qr_scan", "ios": "https://dc.lft.to/lastmile_qr_scan"}, "lon": -77.0021215, "name": "1e1dd3486f9154e73757b03972835a1c", "lat": 38.89519283333333, "is_reserved": 0, "fusion_lat": 0.0, "bike_id": "1e1dd3486f9154e73757b03972835a1c", "type": "electric_scooter", "is_disabled": 0, "fusion_lon": 0.0}, {"rental_uris": {"android": "https://dc.lft.to/lastmile_qr_scan", "ios": "https://dc.lft.to/lastmile_qr_scan"}, "lon": -77.0326205, "name": "3049c7b43c88eb7c1826d3025addbfd1", "lat": 38.9398315, "is_reserved": 0, "fusion_lat": 0.0, "bike_id": "3049c7b43c88eb7c1826d3025addbfd1", "type": "electric_scooter", "is_disabled": 0, "fusion_lon": 0.0}, {"rental_uris": {"android": "https://dc.lft.to/lastmile_qr_scan", "ios": "https://dc.lft.to/lastmile_qr_scan"}, "lon": -77.02629333333333, "name": "7f81f55d4c24769d3a19598820e93ef7", "lat": 38.88768566666667, "is_reserved": 0, "fusion_lat": 0.0, "bike_id": "7f81f55d4c24769d3a19598820e93ef7", "type": "electric_scooter", "is_disabled": 0, "fusion_lon": 0.0}, {"rental_uris": {"android": "https://dc.lft.to/lastmile_qr_scan", "ios": "https://dc.lft.to/lastmile_qr_scan"}, "lon": -76.99254783333333, "name": "646f2136fb3e9f03cb2a442844aa8ebc", "lat": 38.89435783333333, "is_reserved": 0, "fusion_lat": 0.0, "bike_id": "646f2136fb3e9f03cb2a442844aa8ebc", "type": "electric_scooter", "is_disabled": 0, "fusion_lon": 0.0}, {"rental_uris": {"android": "https://dc.lft.to/lastmile_qr_scan", "ios": "https://dc.lft.to/lastmile_qr_scan"}, "lon": -77.038664, "name": "3fe62c43390525c8fa19ab18b7185814", "lat": 38.917107, "is_reserved": 0, "fusion_lat": 0.0, "bike_id": "3fe62c43390525c8fa19ab18b7185814", "type": "electric_scooter", "is_disabled": 0, "fusion_lon": 0.0}, {"rental_uris": {"android": "https://dc.lft.to/lastmile_qr_scan", "ios": "https://dc.lft.to/lastmile_qr_scan"}, "lon": -76.98544883333334, "name": "1c82fc99146aab4fd55e3d1ac2d2bf59", "lat": 38.89981183333333, "is_reserved": 0, "fusion_lat": 0.0, "bike_id": "1c82fc99146aab4fd55e3d1ac2d2bf59", "type": "electric_scooter", "is_disabled": 0, "fusion_lon": 0.0}, {"rental_uris": {"android": "https://dc.lft.to/lastmile_qr_scan", "ios": "https://dc.lft.to/lastmile_qr_scan"}, "lon": -77.04275233333334, "name": "451c074f8e4d7750888c1aa30e1a8a46", "lat": 38.907404666666665, "is_reserved": 0, "fusion_lat": 0.0, "bike_id": "451c074f8e4d7750888c1aa30e1a8a46", "type": "electric_scooter", "is_disabled": 0, "fusion_lon": 0.0}, {"rental_uris": {"android": "https://dc.lft.to/lastmile_qr_scan", "ios": "https://dc.lft.to/lastmile_qr_scan"}, "lon": -77.0250765, "name": "934b7ed98326b8406cfadf3b519bcb26", "lat": 38.918123, "is_reserved": 0, "fusion_lat": 0.0, "bike_id": "934b7ed98326b8406cfadf3b519bcb26", "type": "electric_scooter", "is_disabled": 0, "fusion_lon": 0.0}, {"rental_uris": {"android": "https://dc.lft.to/lastmile_qr_scan", "ios": "https://dc.lft.to/lastmile_qr_scan"}, "lon": -77.02111683333334, "name": "a300d9c9eaa260b791e659ef3fbf9e9f", "lat": 38.9301265, "is_reserved": 0, "fusion_lat": 0.0, "bike_id": "a300d9c9eaa260b791e659ef3fbf9e9f", "type": "electric_scooter", "is_disabled": 0, "fusion_lon": 0.0}, {"rental_uris": {"android": "https://dc.lft.to/lastmile_qr_scan", "ios": "https://dc.lft.to/lastmile_qr_scan"}, "lon": -77.04011066666666, "name": "c9c9d07d37ed7f2208c82cd11a50d607", "lat": 38.9219535, "is_reserved": 0, "fusion_lat": 0.0, "bike_id": "c9c9d07d37ed7f2208c82cd11a50d607", "type": "electric_scooter", "is_disabled": 0, "fusion_lon": 0.0}, {"rental_uris": {"android": "https://dc.lft.to/lastmile_qr_scan", "ios": "https://dc.lft.to/lastmile_qr_scan"}, "lon": -77.038452, "name": "542adbd4d6df4eaf283863b19822f8fc", "lat": 38.909755833333335, "is_reserved": 0, "fusion_lat": 0.0, "bike_id": "542adbd4d6df4eaf283863b19822f8fc", "type": "electric_scooter", "is_disabled": 0, "fusion_lon": 0.0}, {"rental_uris": {"android": "https://dc.lft.to/lastmile_qr_scan", "ios": "https://dc.lft.to/lastmile_qr_scan"}, "lon": -77.02165783333334, "name": "b5a0b467219ea50b1a0e6f234b47672a", "lat": 38.92500966666667, "is_reserved": 0, "fusion_lat": 0.0, "bike_id": "b5a0b467219ea50b1a0e6f234b47672a", "type": "electric_scooter", "is_disabled": 0, "fusion_lon": 0.0}, {"rental_uris": {"android": "https://dc.lft.to/lastmile_qr_scan", "ios": "https://dc.lft.to/lastmile_qr_scan"}, "lon": -77.03281333333334, "name": "7be9934fce3f02826b4b76d000d2bb66", "lat": 38.9375885, "is_reserved": 0, "fusion_lat": 0.0, "bike_id": "7be9934fce3f02826b4b76d000d2bb66", "type": "electric_scooter", "is_disabled": 0, "fusion_lon": 0.0}, {"rental_uris": {"android": "https://dc.lft.to/lastmile_qr_scan", "ios": "https://dc.lft.to/lastmile_qr_scan"}, "lon": -77.04718133333333, "name": "e6d52079e04f7bca93fa9b49983d284d", "lat": 38.90176066666667, "is_reserved": 0, "fusion_lat": 0.0, "bike_id": "e6d52079e04f7bca93fa9b49983d284d", "type": "electric_scooter", "is_disabled": 0, "fusion_lon": 0.0}, {"rental_uris": {"android": "https://dc.lft.to/lastmile_qr_scan", "ios": "https://dc.lft.to/lastmile_qr_scan"}, "lon": -76.93209866666666, "name": "f54e4205aca63f88c79e2f1cce951bc0", "lat": 38.896707, "is_reserved": 0, "fusion_lat": 0.0, "bike_id": "f54e4205aca63f88c79e2f1cce951bc0", "type": "electric_scooter", "is_disabled": 0, "fusion_lon": 0.0}, {"rental_uris": {"android": "https://dc.lft.to/lastmile_qr_scan", "ios": "https://dc.lft.to/lastmile_qr_scan"}, "lon": -76.9962485, "name": "82d3afe5956151bd9a7ac695c1bf9dcc", "lat": 38.900654833333334, "is_reserved": 0, "fusion_lat": 0.0, "bike_id": "82d3afe5956151bd9a7ac695c1bf9dcc", "type": "electric_scooter", "is_disabled": 0, "fusion_lon": 0.0}, {"rental_uris": {"android": "https://dc.lft.to/lastmile_qr_scan", "ios": "https://dc.lft.to/lastmile_qr_scan"}, "lon": -77.04078983333333, "name": "ef451c04b2af3f231cf7adf8cdcee00d", "lat": 38.896264333333335, "is_reserved": 0, "fusion_lat": 0.0, "bike_id": "ef451c04b2af3f231cf7adf8cdcee00d", "type": "electric_scooter", "is_disabled": 0, "fusion_lon": 0.0}, {"rental_uris": {"android": "https://dc.lft.to/lastmile_qr_scan", "ios": "https://dc.lft.to/lastmile_qr_scan"}, "lon": -77.01296, "name": "9410dc943b4bcfccc567dbef6ac34bc9", "lat": 38.93027766666667, "is_reserved": 0, "fusion_lat": 0.0, "bike_id": "9410dc943b4bcfccc567dbef6ac34bc9", "type": "electric_scooter", "is_disabled": 0, "fusion_lon": 0.0}, {"rental_uris": {"android": "https://dc.lft.to/lastmile_qr_scan", "ios": "https://dc.lft.to/lastmile_qr_scan"}, "lon": -77.00875066666667, "name": "53289501fa0cf3552e3df5256fdc57f9", "lat": 38.876772333333335, "is_reserved": 0, "fusion_lat": 0.0, "bike_id": "53289501fa0cf3552e3df5256fdc57f9", "type": "electric_scooter", "is_disabled": 0, "fusion_lon": 0.0}, {"rental_uris": {"android": "https://dc.lft.to/lastmile_qr_scan", "ios": "https://dc.lft.to/lastmile_qr_scan"}, "lon": -77.01482483333334, "name": "234d214253ef2c7c548f4704c469d207", "lat": 38.91923716666667, "is_reserved": 0, "fusion_lat": 0.0, "bike_id": "234d214253ef2c7c548f4704c469d207", "type": "electric_scooter", "is_disabled": 0, "fusion_lon": 0.0}, {"rental_uris": {"android": "https://dc.lft.to/lastmile_qr_scan", "ios": "https://dc.lft.to/lastmile_qr_scan"}, "lon": -77.03633533333333, "name": "eb1b07123af421cacec2eaa290dfa0eb", "lat": 38.91681283333333, "is_reserved": 0, "fusion_lat": 0.0, "bike_id": "eb1b07123af421cacec2eaa290dfa0eb", "type": "electric_scooter", "is_disabled": 0, "fusion_lon": 0.0}, {"rental_uris": {"android": "https://dc.lft.to/lastmile_qr_scan", "ios": "https://dc.lft.to/lastmile_qr_scan"}, "lon": -77.0235485, "name": "0ad5675e079058fdf630d1a570f68af7", "lat": 38.930031, "is_reserved": 0, "fusion_lat": 0.0, "bike_id": "0ad5675e079058fdf630d1a570f68af7", "type": "electric_scooter", "is_disabled": 0, "fusion_lon": 0.0}, {"rental_uris": {"android": "https://dc.lft.to/lastmile_qr_scan", "ios": "https://dc.lft.to/lastmile_qr_scan"}, "lon": -77.04692883333334, "name": "f58cdae24b0861442d4f01f8ff5bc2bd", "lat": 38.892207166666665, "is_reserved": 0, "fusion_lat": 0.0, "bike_id": "f58cdae24b0861442d4f01f8ff5bc2bd", "type": "electric_scooter", "is_disabled": 0, "fusion_lon": 0.0}, {"rental_uris": {"android": "https://dc.lft.to/lastmile_qr_scan", "ios": "https://dc.lft.to/lastmile_qr_scan"}, "lon": -77.01145266666667, "name": "b0bf3b524427b3a4db6e61c9395d187a", "lat": 38.900171666666665, "is_reserved": 0, "fusion_lat": 0.0, "bike_id": "b0bf3b524427b3a4db6e61c9395d187a", "type": "electric_scooter", "is_disabled": 0, "fusion_lon": 0.0}, {"rental_uris": {"android": "https://dc.lft.to/lastmile_qr_scan", "ios": "https://dc.lft.to/lastmile_qr_scan"}, "lon": -76.99406166666667, "name": "8cbec31a7a4e86de815cdd913de242f7", "lat": 38.91005116666667, "is_reserved": 0, "fusion_lat": 0.0, "bike_id": "8cbec31a7a4e86de815cdd913de242f7", "type": "electric_scooter", "is_disabled": 0, "fusion_lon": 0.0}, {"rental_uris": {"android": "https://dc.lft.to/lastmile_qr_scan", "ios": "https://dc.lft.to/lastmile_qr_scan"}, "lon": -77.000705, "name": "59d75c80dee4bc14119cdd95ab7f7d60", "lat": 38.88677666666667, "is_reserved": 0, "fusion_lat": 0.0, "bike_id": "59d75c80dee4bc14119cdd95ab7f7d60", "type": "electric_scooter", "is_disabled": 0, "fusion_lon": 0.0}, {"rental_uris": {"android": "https://dc.lft.to/lastmile_qr_scan", "ios": "https://dc.lft.to/lastmile_qr_scan"}, "lon": -76.94253216666667, "name": "8af0f7d7187aa1ccd1a2f8edb7a4653d", "lat": 38.89846716666667, "is_reserved": 0, "fusion_lat": 0.0, "bike_id": "8af0f7d7187aa1ccd1a2f8edb7a4653d", "type": "electric_scooter", "is_disabled": 0, "fusion_lon": 0.0}, {"rental_uris": {"android": "https://dc.lft.to/lastmile_qr_scan", "ios": "https://dc.lft.to/lastmile_qr_scan"}, "lon": -77.07235266666666, "name": "702dfdce88c31f864b4ec1f96a11200b", "lat": 38.9319455, "is_reserved": 0, "fusion_lat": 0.0, "bike_id": "702dfdce88c31f864b4ec1f96a11200b", "type": "electric_scooter", "is_disabled": 0, "fusion_lon": 0.0}, {"rental_uris": {"android": "https://dc.lft.to/lastmile_qr_scan", "ios": "https://dc.lft.to/lastmile_qr_scan"}, "lon": -77.04863683333333, "name": "467fa9446a523300419c22cf832a79b2", "lat": 38.9133135, "is_reserved": 0, "fusion_lat": 0.0, "bike_id": "467fa9446a523300419c22cf832a79b2", "type": "electric_scooter", "is_disabled": 0, "fusion_lon": 0.0}, {"rental_uris": {"android": "https://dc.lft.to/lastmile_qr_scan", "ios": "https://dc.lft.to/lastmile_qr_scan"}, "lon": -77.02121033333333, "name": "51e453f0c612e67179ab00e9f1f6a5e5", "lat": 38.922675, "is_reserved": 0, "fusion_lat": 0.0, "bike_id": "51e453f0c612e67179ab00e9f1f6a5e5", "type": "electric_scooter", "is_disabled": 0, "fusion_lon": 0.0}, {"rental_uris": {"android": "https://dc.lft.to/lastmile_qr_scan", "ios": "https://dc.lft.to/lastmile_qr_scan"}, "lon": -77.02791766666667, "name": "d6427b32fd41a7f62b0e0ac9fce9c7f1", "lat": 38.92971583333333, "is_reserved": 0, "fusion_lat": 0.0, "bike_id": "d6427b32fd41a7f62b0e0ac9fce9c7f1", "type": "electric_scooter", "is_disabled": 0, "fusion_lon": 0.0}, {"rental_uris": {"android": "https://dc.lft.to/lastmile_qr_scan", "ios": "https://dc.lft.to/lastmile_qr_scan"}, "lon": -77.0353715, "name": "52910153f96a9aac384280b2401d2cc8", "lat": 38.92339333333334, "is_reserved": 0, "fusion_lat": 0.0, "bike_id": "52910153f96a9aac384280b2401d2cc8", "type": "electric_scooter", "is_disabled": 0, "fusion_lon": 0.0}, {"rental_uris": {"android": "https://dc.lft.to/lastmile_qr_scan", "ios": "https://dc.lft.to/lastmile_qr_scan"}, "lon": -77.06391833333333, "name": "490a9331fe74471e5e2d09e852afd435", "lat": 38.94416183333333, "is_reserved": 0, "fusion_lat": 0.0, "bike_id": "490a9331fe74471e5e2d09e852afd435", "type": "electric_scooter", "is_disabled": 0, "fusion_lon": 0.0}, {"rental_uris": {"android": "https://dc.lft.to/lastmile_qr_scan", "ios": "https://dc.lft.to/lastmile_qr_scan"}, "lon": -77.02689333333333, "name": "77ecb21dff302a286447508044866432", "lat": 38.90666733333333, "is_reserved": 0, "fusion_lat": 0.0, "bike_id": "77ecb21dff302a286447508044866432", "type": "electric_scooter", "is_disabled": 0, "fusion_lon": 0.0}, {"rental_uris": {"android": "https://dc.lft.to/lastmile_qr_scan", "ios": "https://dc.lft.to/lastmile_qr_scan"}, "lon": -77.03799216666667, "name": "2b9cf0202ef952e85134c7c9baff2565", "lat": 38.932343333333336, "is_reserved": 0, "fusion_lat": 0.0, "bike_id": "2b9cf0202ef952e85134c7c9baff2565", "type": "electric_scooter", "is_disabled": 0, "fusion_lon": 0.0}, {"rental_uris": {"android": "https://dc.lft.to/lastmile_qr_scan", "ios": "https://dc.lft.to/lastmile_qr_scan"}, "lon": -77.05426933333334, "name": "ff6c49603f07468b8a9b20477643e3e8", "lat": 38.928415666666666, "is_reserved": 0, "fusion_lat": 0.0, "bike_id": "ff6c49603f07468b8a9b20477643e3e8", "type": "electric_scooter", "is_disabled": 0, "fusion_lon": 0.0}, {"rental_uris": {"android": "https://dc.lft.to/lastmile_qr_scan", "ios": "https://dc.lft.to/lastmile_qr_scan"}, "lon": -77.0067475, "name": "a7af26945f0d5b81bd25762fa219cf66", "lat": 38.94513033333333, "is_reserved": 0, "fusion_lat": 0.0, "bike_id": "a7af26945f0d5b81bd25762fa219cf66", "type": "electric_bike", "is_disabled": 0, "fusion_lon": 0.0}, {"rental_uris": {"android": "https://dc.lft.to/lastmile_qr_scan", "ios": "https://dc.lft.to/lastmile_qr_scan"}, "lon": -77.01211933333333, "name": "c17dd632e679ec203f6642089356a377", "lat": 38.893307666666665, "is_reserved": 0, "fusion_lat": 0.0, "bike_id": "c17dd632e679ec203f6642089356a377", "type": "electric_scooter", "is_disabled": 0, "fusion_lon": 0.0}, {"rental_uris": {"android": "https://dc.lft.to/lastmile_qr_scan", "ios": "https://dc.lft.to/lastmile_qr_scan"}, "lon": -77.00559333333334, "name": "eb6b54650b2793c621dbaf59dafd26a0", "lat": 38.90659383333333, "is_reserved": 0, "fusion_lat": 0.0, "bike_id": "eb6b54650b2793c621dbaf59dafd26a0", "type": "electric_scooter", "is_disabled": 0, "fusion_lon": 0.0}, {"rental_uris": {"android": "https://dc.lft.to/lastmile_qr_scan", "ios": "https://dc.lft.to/lastmile_qr_scan"}, "lon": -76.97669133333333, "name": "356b616ff525aa4f14583bfccbbcc799", "lat": 38.840563833333334, "is_reserved": 0, "fusion_lat": 0.0, "bike_id": "356b616ff525aa4f14583bfccbbcc799", "type": "electric_scooter", "is_disabled": 0, "fusion_lon": 0.0}, {"rental_uris": {"android": "https://dc.lft.to/lastmile_qr_scan", "ios": "https://dc.lft.to/lastmile_qr_scan"}, "lon": -77.01771816666667, "name": "d1f031ec40b1df111c5621b90e0fb6ba", "lat": 38.9027375, "is_reserved": 0, "fusion_lat": 0.0, "bike_id": "d1f031ec40b1df111c5621b90e0fb6ba", "type": "electric_scooter", "is_disabled": 0, "fusion_lon": 0.0}, {"rental_uris": {"android": "https://dc.lft.to/lastmile_qr_scan", "ios": "https://dc.lft.to/lastmile_qr_scan"}, "lon": -77.03966066666666, "name": "7bd05b57c4605731d7860e8aeb4b0f17", "lat": 38.919816833333336, "is_reserved": 0, "fusion_lat": 0.0, "bike_id": "7bd05b57c4605731d7860e8aeb4b0f17", "type": "electric_scooter", "is_disabled": 0, "fusion_lon": 0.0}, {"rental_uris": {"android": "https://dc.lft.to/lastmile_qr_scan", "ios": "https://dc.lft.to/lastmile_qr_scan"}, "lon": -76.93181783333333, "name": "478a6a0a941da7cfb84412cc6d2207a0", "lat": 38.89833016666667, "is_reserved": 0, "fusion_lat": 0.0, "bike_id": "478a6a0a941da7cfb84412cc6d2207a0", "type": "electric_scooter", "is_disabled": 0, "fusion_lon": 0.0}, {"rental_uris": {"android": "https://dc.lft.to/lastmile_qr_scan", "ios": "https://dc.lft.to/lastmile_qr_scan"}, "lon": -77.00533483333334, "name": "4c463739600a6406ec3312ea9ad01861", "lat": 38.846439333333336, "is_reserved": 0, "fusion_lat": 0.0, "bike_id": "4c463739600a6406ec3312ea9ad01861", "type": "electric_scooter", "is_disabled": 0, "fusion_lon": 0.0}, {"rental_uris": {"android": "https://dc.lft.to/lastmile_qr_scan", "ios": "https://dc.lft.to/lastmile_qr_scan"}, "lon": -77.041591, "name": "bc84be5eb53bd917db8ac7578d9b0cf6", "lat": 38.90392966666667, "is_reserved": 0, "fusion_lat": 0.0, "bike_id": "bc84be5eb53bd917db8ac7578d9b0cf6", "type": "electric_scooter", "is_disabled": 0, "fusion_lon": 0.0}, {"rental_uris": {"android": "https://dc.lft.to/lastmile_qr_scan", "ios": "https://dc.lft.to/lastmile_qr_scan"}, "lon": -77.04622083333334, "name": "dfeb31476de832988140c35989b5ec66", "lat": 38.89734033333333, "is_reserved": 0, "fusion_lat": 0.0, "bike_id": "dfeb31476de832988140c35989b5ec66", "type": "electric_scooter", "is_disabled": 0, "fusion_lon": 0.0}, {"rental_uris": {"android": "https://dc.lft.to/lastmile_qr_scan", "ios": "https://dc.lft.to/lastmile_qr_scan"}, "lon": -77.002645, "name": "0a555f04fdad2e11fe615fbd3172d977", "lat": 38.89481266666667, "is_reserved": 0, "fusion_lat": 0.0, "bike_id": "0a555f04fdad2e11fe615fbd3172d977", "type": "electric_scooter", "is_disabled": 0, "fusion_lon": 0.0}, {"rental_uris": {"android": "https://dc.lft.to/lastmile_qr_scan", "ios": "https://dc.lft.to/lastmile_qr_scan"}, "lon": -77.021748, "name": "91166237ee2ff3ef7afc4de84a4df4e6", "lat": 38.914759333333336, "is_reserved": 0, "fusion_lat": 0.0, "bike_id": "91166237ee2ff3ef7afc4de84a4df4e6", "type": "electric_scooter", "is_disabled": 0, "fusion_lon": 0.0}, {"rental_uris": {"android": "https://dc.lft.to/lastmile_qr_scan", "ios": "https://dc.lft.to/lastmile_qr_scan"}, "lon": -77.0218065, "name": "ac0b852a8add0e0408cc39df7f41ddb6", "lat": 38.91996233333333, "is_reserved": 0, "fusion_lat": 0.0, "bike_id": "ac0b852a8add0e0408cc39df7f41ddb6", "type": "electric_scooter", "is_disabled": 0, "fusion_lon": 0.0}, {"rental_uris": {"android": "https://dc.lft.to/lastmile_qr_scan", "ios": "https://dc.lft.to/lastmile_qr_scan"}, "lon": -77.03265233333333, "name": "df4f2a63291be628ee2b8b248c17a5b9", "lat": 38.939819, "is_reserved": 0, "fusion_lat": 0.0, "bike_id": "df4f2a63291be628ee2b8b248c17a5b9", "type": "electric_scooter", "is_disabled": 0, "fusion_lon": 0.0}, {"rental_uris": {"android": "https://dc.lft.to/lastmile_qr_scan", "ios": "https://dc.lft.to/lastmile_qr_scan"}, "lon": -77.02045766666667, "name": "7ef47f46255e64714c744d0550c9734d", "lat": 38.91552466666667, "is_reserved": 0, "fusion_lat": 0.0, "bike_id": "7ef47f46255e64714c744d0550c9734d", "type": "electric_scooter", "is_disabled": 0, "fusion_lon": 0.0}, {"rental_uris": {"android": "https://dc.lft.to/lastmile_qr_scan", "ios": "https://dc.lft.to/lastmile_qr_scan"}, "lon": -77.01415766666666, "name": "3288f3eeb3295a1a0b893bc87fecedd7", "lat": 38.92842566666667, "is_reserved": 0, "fusion_lat": 0.0, "bike_id": "3288f3eeb3295a1a0b893bc87fecedd7", "type": "electric_scooter", "is_disabled": 0, "fusion_lon": 0.0}, {"rental_uris": {"android": "https://dc.lft.to/lastmile_qr_scan", "ios": "https://dc.lft.to/lastmile_qr_scan"}, "lon": -77.016202, "name": "9dace48fad6fb3a251688f21d9fcdcb0", "lat": 38.956408833333334, "is_reserved": 0, "fusion_lat": 0.0, "bike_id": "9dace48fad6fb3a251688f21d9fcdcb0", "type": "electric_scooter", "is_disabled": 0, "fusion_lon": 0.0}, {"rental_uris": {"android": "https://dc.lft.to/lastmile_qr_scan", "ios": "https://dc.lft.to/lastmile_qr_scan"}, "lon": -77.01977533333333, "name": "697110fd95ae7d698cab6e730fd1f660", "lat": 38.9638345, "is_reserved": 0, "fusion_lat": 0.0, "bike_id": "697110fd95ae7d698cab6e730fd1f660", "type": "electric_bike", "is_disabled": 0, "fusion_lon": 0.0}, {"rental_uris": {"android": "https://dc.lft.to/lastmile_qr_scan", "ios": "https://dc.lft.to/lastmile_qr_scan"}, "lon": -76.970556, "name": "0352fe8e7b005573bbca9e006722d03c", "lat": 38.95872683333333, "is_reserved": 0, "fusion_lat": 0.0, "bike_id": "0352fe8e7b005573bbca9e006722d03c", "type": "electric_bike", "is_disabled": 0, "fusion_lon": 0.0}, {"rental_uris": {"android": "https://dc.lft.to/lastmile_qr_scan", "ios": "https://dc.lft.to/lastmile_qr_scan"}, "lon": -77.01376983333333, "name": "dfc2efa2624b1515b7eb10d3bfa6c269", "lat": 38.87899383333333, "is_reserved": 0, "fusion_lat": 0.0, "bike_id": "dfc2efa2624b1515b7eb10d3bfa6c269", "type": "electric_scooter", "is_disabled": 0, "fusion_lon": 0.0}, {"rental_uris": {"android": "https://dc.lft.to/lastmile_qr_scan", "ios": "https://dc.lft.to/lastmile_qr_scan"}, "lon": -77.04005433333333, "name": "26f7d4170eb42f84c575e09225fe0de9", "lat": 38.93424383333333, "is_reserved": 0, "fusion_lat": 0.0, "bike_id": "26f7d4170eb42f84c575e09225fe0de9", "type": "electric_scooter", "is_disabled": 0, "fusion_lon": 0.0}, {"rental_uris": {"android": "https://dc.lft.to/lastmile_qr_scan", "ios": "https://dc.lft.to/lastmile_qr_scan"}, "lon": -77.036542, "name": "3989bef730c539dcb9d78937f4bbbdd3", "lat": 38.9216195, "is_reserved": 0, "fusion_lat": 0.0, "bike_id": "3989bef730c539dcb9d78937f4bbbdd3", "type": "electric_scooter", "is_disabled": 0, "fusion_lon": 0.0}, {"rental_uris": {"android": "https://dc.lft.to/lastmile_qr_scan", "ios": "https://dc.lft.to/lastmile_qr_scan"}, "lon": -77.031678, "name": "20e1b371a8f70c73d20fa537ff5abbe7", "lat": 38.92079733333333, "is_reserved": 0, "fusion_lat": 0.0, "bike_id": "20e1b371a8f70c73d20fa537ff5abbe7", "type": "electric_scooter", "is_disabled": 0, "fusion_lon": 0.0}, {"rental_uris": {"android": "https://dc.lft.to/lastmile_qr_scan", "ios": "https://dc.lft.to/lastmile_qr_scan"}, "lon": -77.04515433333333, "name": "58a0019658057c2e8895c664136b050f", "lat": 38.89604083333333, "is_reserved": 0, "fusion_lat": 0.0, "bike_id": "58a0019658057c2e8895c664136b050f", "type": "electric_scooter", "is_disabled": 0, "fusion_lon": 0.0}, {"rental_uris": {"android": "https://dc.lft.to/lastmile_qr_scan", "ios": "https://dc.lft.to/lastmile_qr_scan"}, "lon": -77.032367, "name": "57b97ce6200ffdcb71df606eacc8884c", "lat": 38.926794, "is_reserved": 0, "fusion_lat": 0.0, "bike_id": "57b97ce6200ffdcb71df606eacc8884c", "type": "electric_scooter", "is_disabled": 0, "fusion_lon": 0.0}, {"rental_uris": {"android": "https://dc.lft.to/lastmile_qr_scan", "ios": "https://dc.lft.to/lastmile_qr_scan"}, "lon": -77.03852016666667, "name": "c7613a346c3226b28f681d8dc67ac9bb", "lat": 38.902519, "is_reserved": 0, "fusion_lat": 0.0, "bike_id": "c7613a346c3226b28f681d8dc67ac9bb", "type": "electric_scooter", "is_disabled": 0, "fusion_lon": 0.0}, {"rental_uris": {"android": "https://dc.lft.to/lastmile_qr_scan", "ios": "https://dc.lft.to/lastmile_qr_scan"}, "lon": -77.022245, "name": "b4a15a6c9be356740b9fc33fa09c2ea1", "lat": 38.912558833333335, "is_reserved": 0, "fusion_lat": 0.0, "bike_id": "b4a15a6c9be356740b9fc33fa09c2ea1", "type": "electric_scooter", "is_disabled": 0, "fusion_lon": 0.0}, {"rental_uris": {"android": "https://dc.lft.to/lastmile_qr_scan", "ios": "https://dc.lft.to/lastmile_qr_scan"}, "lon": -77.04008916666666, "name": "9c0370cfcbdd2494effbd8dc536ad8a6", "lat": 38.90326233333333, "is_reserved": 0, "fusion_lat": 0.0, "bike_id": "9c0370cfcbdd2494effbd8dc536ad8a6", "type": "electric_scooter", "is_disabled": 0, "fusion_lon": 0.0}, {"rental_uris": {"android": "https://dc.lft.to/lastmile_qr_scan", "ios": "https://dc.lft.to/lastmile_qr_scan"}, "lon": -77.04375916666666, "name": "27a0ab6d971ac039e5fd7d4da53988dd", "lat": 38.900305833333334, "is_reserved": 0, "fusion_lat": 0.0, "bike_id": "27a0ab6d971ac039e5fd7d4da53988dd", "type": "electric_scooter", "is_disabled": 0, "fusion_lon": 0.0}, {"rental_uris": {"android": "https://dc.lft.to/lastmile_qr_scan", "ios": "https://dc.lft.to/lastmile_qr_scan"}, "lon": -77.0295215, "name": "1ca476db3a2a08ee16fd076fbc902f5c", "lat": 38.905005833333334, "is_reserved": 0, "fusion_lat": 0.0, "bike_id": "1ca476db3a2a08ee16fd076fbc902f5c", "type": "electric_scooter", "is_disabled": 0, "fusion_lon": 0.0}, {"rental_uris": {"android": "https://dc.lft.to/lastmile_qr_scan", "ios": "https://dc.lft.to/lastmile_qr_scan"}, "lon": -77.01151683333333, "name": "22a698676bffa3596af4879ead9c5ed6", "lat": 38.95684766666667, "is_reserved": 0, "fusion_lat": 0.0, "bike_id": "22a698676bffa3596af4879ead9c5ed6", "type": "electric_scooter", "is_disabled": 0, "fusion_lon": 0.0}, {"rental_uris": {"android": "https://dc.lft.to/lastmile_qr_scan", "ios": "https://dc.lft.to/lastmile_qr_scan"}, "lon": -77.0326645, "name": "684768367aeaaa1cd55183e0bd8b1ca8", "lat": 38.919331666666665, "is_reserved": 0, "fusion_lat": 0.0, "bike_id": "684768367aeaaa1cd55183e0bd8b1ca8", "type": "electric_scooter", "is_disabled": 0, "fusion_lon": 0.0}, {"rental_uris": {"android": "https://dc.lft.to/lastmile_qr_scan", "ios": "https://dc.lft.to/lastmile_qr_scan"}, "lon": -77.00191533333333, "name": "d1dd0d1261cb77dfd7668cdae6cb3ef5", "lat": 38.900367833333334, "is_reserved": 0, "fusion_lat": 0.0, "bike_id": "d1dd0d1261cb77dfd7668cdae6cb3ef5", "type": "electric_scooter", "is_disabled": 0, "fusion_lon": 0.0}, {"rental_uris": {"android": "https://dc.lft.to/lastmile_qr_scan", "ios": "https://dc.lft.to/lastmile_qr_scan"}, "lon": -76.995957, "name": "c9c23aaac41023a448467bd95acd3c88", "lat": 38.856884, "is_reserved": 0, "fusion_lat": 0.0, "bike_id": "c9c23aaac41023a448467bd95acd3c88", "type": "electric_scooter", "is_disabled": 0, "fusion_lon": 0.0}, {"rental_uris": {"android": "https://dc.lft.to/lastmile_qr_scan", "ios": "https://dc.lft.to/lastmile_qr_scan"}, "lon": -76.99499083333333, "name": "26cb28c21097e7b59c5d667e18c90faf", "lat": 38.909827166666666, "is_reserved": 0, "fusion_lat": 0.0, "bike_id": "26cb28c21097e7b59c5d667e18c90faf", "type": "electric_scooter", "is_disabled": 0, "fusion_lon": 0.0}, {"rental_uris": {"android": "https://dc.lft.to/lastmile_qr_scan", "ios": "https://dc.lft.to/lastmile_qr_scan"}, "lon": -76.9808065, "name": "ab28fb2606cb01c967ca1f16f958949e", "lat": 38.922487333333336, "is_reserved": 0, "fusion_lat": 0.0, "bike_id": "ab28fb2606cb01c967ca1f16f958949e", "type": "electric_scooter", "is_disabled": 0, "fusion_lon": 0.0}, {"rental_uris": {"android": "https://dc.lft.to/lastmile_qr_scan", "ios": "https://dc.lft.to/lastmile_qr_scan"}, "lon": -77.05123083333334, "name": "eae297e80a30bbb9e117c0affade4653", "lat": 38.90505616666667, "is_reserved": 0, "fusion_lat": 0.0, "bike_id": "eae297e80a30bbb9e117c0affade4653", "type": "electric_scooter", "is_disabled": 0, "fusion_lon": 0.0}, {"rental_uris": {"android": "https://dc.lft.to/lastmile_qr_scan", "ios": "https://dc.lft.to/lastmile_qr_scan"},