{"data": {"bikes": [{"fusion_lat": 0.0, "lon": -76.97728116666667, "is_reserved": 0, "bike_id": "7a03fccb5c2dc70533a6c810af733616", "fusion_lon": 0.0, "rental_uris": {"android": "https://dc.lft.to/lastmile_qr_scan", "ios": "https://dc.lft.to/lastmile_qr_scan"}, "name": "7a03fccb5c2dc70533a6c810af733616", "type": "electric_scooter", "lat": 38.87242966666667, "is_disabled": 0}, {"fusion_lat": 0.0, "lon": -77.023626, "is_reserved": 0, "bike_id": "49b493dc8a63dedc7e5ffaba7275c519", "fusion_lon": 0.0, "rental_uris": {"android": "https://dc.lft.to/lastmile_qr_scan", "ios": "https://dc.lft.to/lastmile_qr_scan"}, "name": "49b493dc8a63dedc7e5ffaba7275c519", "type": "electric_scooter", "lat": 38.93066566666667, "is_disabled": 0}, {"fusion_lat": 0.0, "lon": -76.990594, "is_reserved": 0, "bike_id": "bc016d0effc24c5c7622cc7a87489b77", "fusion_lon": 0.0, "rental_uris": {"android": "https://dc.lft.to/lastmile_qr_scan", "ios": "https://dc.lft.to/lastmile_qr_scan"}, "name": "bc016d0effc24c5c7622cc7a87489b77", "type": "electric_scooter", "lat": 38.86363216666667, "is_disabled": 0}, {"fusion_lat": 0.0, "lon": -77.0209695, "is_reserved": 0, "bike_id": "12e16bad64f5c4e7b8a2382686d2987e", "fusion_lon": 0.0, "rental_uris": {"android": "https://dc.lft.to/lastmile_qr_scan", "ios": "https://dc.lft.to/lastmile_qr_scan"}, "name": "12e16bad64f5c4e7b8a2382686d2987e", "type": "electric_scooter", "lat": 38.92144966666667, "is_disabled": 0}, {"fusion_lat": 0.0, "lon": -77.01400816666667, "is_reserved": 0, "bike_id": "e15cc688d6e6ca01fd51c8e0f886f5da", "fusion_lon": 0.0, "rental_uris": {"android": "https://dc.lft.to/lastmile_qr_scan", "ios": "https://dc.lft.to/lastmile_qr_scan"}, "name": "e15cc688d6e6ca01fd51c8e0f886f5da", "type": "electric_scooter", "lat": 38.928398, "is_disabled": 0}, {"fusion_lat": 0.0, "lon": -77.04442483333334, "is_reserved": 0, "bike_id": "20efd2106d63c4bcd7a6d44d5efcbd14", "fusion_lon": 0.0, "rental_uris": {"android": "https://dc.lft.to/lastmile_qr_scan", "ios": "https://dc.lft.to/lastmile_qr_scan"}, "name": "20efd2106d63c4bcd7a6d44d5efcbd14", "type": "electric_scooter", "lat": 38.92167883333333, "is_disabled": 0}, {"fusion_lat": 0.0, "lon": -77.04501466666666, "is_reserved": 0, "bike_id": "5b8e45f914612edfe2f51787225dea8b", "fusion_lon": 0.0, "rental_uris": {"android": "https://dc.lft.to/lastmile_qr_scan", "ios": "https://dc.lft.to/lastmile_qr_scan"}, "name": "5b8e45f914612edfe2f51787225dea8b", "type": "electric_scooter", "lat": 38.91112916666667, "is_disabled": 0}, {"fusion_lat": 0.0, "lon": -77.04236216666666, "is_reserved": 0, "bike_id": "0d2fbc69fd7e505cc0f55ea0678900e1", "fusion_lon": 0.0, "rental_uris": {"android": "https://dc.lft.to/lastmile_qr_scan", "ios": "https://dc.lft.to/lastmile_qr_scan"}, "name": "0d2fbc69fd7e505cc0f55ea0678900e1", "type": "electric_scooter", "lat": 38.911164666666664, "is_disabled": 0}, {"fusion_lat": 0.0, "lon": -77.05029633333334, "is_reserved": 0, "bike_id": "e84eabd3327abbb2970624a9b3398faa", "fusion_lon": 0.0, "rental_uris": {"android": "https://dc.lft.to/lastmile_qr_scan", "ios": "https://dc.lft.to/lastmile_qr_scan"}, "name": "e84eabd3327abbb2970624a9b3398faa", "type": "electric_scooter", "lat": 38.9053365, "is_disabled": 0}, {"fusion_lat": 0.0, "lon": -77.0279375, "is_reserved": 0, "bike_id": "e3e9864ede03da3498978d33ba836f92", "fusion_lon": 0.0, "rental_uris": {"android": "https://dc.lft.to/lastmile_qr_scan", "ios": "https://dc.lft.to/lastmile_qr_scan"}, "name": "e3e9864ede03da3498978d33ba836f92", "type": "electric_scooter", "lat": 38.93083433333334, "is_disabled": 0}, {"fusion_lat": 0.0, "lon": -77.03188933333334, "is_reserved": 0, "bike_id": "1e8b362efa046327b737655d8129b4b1", "fusion_lon": 0.0, "rental_uris": {"android": "https://dc.lft.to/lastmile_qr_scan", "ios": "https://dc.lft.to/lastmile_qr_scan"}, "name": "1e8b362efa046327b737655d8129b4b1", "type": "electric_scooter", "lat": 38.917999, "is_disabled": 0}, {"fusion_lat": 0.0, "lon": -77.02384733333334, "is_reserved": 0, "bike_id": "0358a0a80afc0436efe27346cebb4fe9", "fusion_lon": 0.0, "rental_uris": {"android": "https://dc.lft.to/lastmile_qr_scan", "ios": "https://dc.lft.to/lastmile_qr_scan"}, "name": "0358a0a80afc0436efe27346cebb4fe9", "type": "electric_scooter", "lat": 38.91958416666667, "is_disabled": 0}, {"fusion_lat": 0.0, "lon": -76.996945, "is_reserved": 0, "bike_id": "624671c30b1af5a21b056bb8d777c5b7", "fusion_lon": 0.0, "rental_uris": {"android": "https://dc.lft.to/lastmile_qr_scan", "ios": "https://dc.lft.to/lastmile_qr_scan"}, "name": "624671c30b1af5a21b056bb8d777c5b7", "type": "electric_scooter", "lat": 38.90829683333333, "is_disabled": 0}, {"fusion_lat": 0.0, "lon": -76.99185783333333, "is_reserved": 0, "bike_id": "571821cb2f70e156847e074151a63a72", "fusion_lon": 0.0, "rental_uris": {"android": "https://dc.lft.to/lastmile_qr_scan", "ios": "https://dc.lft.to/lastmile_qr_scan"}, "name": "571821cb2f70e156847e074151a63a72", "type": "electric_scooter", "lat": 38.900292666666665, "is_disabled": 0}, {"fusion_lat": 0.0, "lon": -77.02689633333334, "is_reserved": 0, "bike_id": "e6fc92eedc7994eccb8b6660b2a03b93", "fusion_lon": 0.0, "rental_uris": {"android": "https://dc.lft.to/lastmile_qr_scan", "ios": "https://dc.lft.to/lastmile_qr_scan"}, "name": "e6fc92eedc7994eccb8b6660b2a03b93", "type": "electric_scooter", "lat": 38.94889366666666, "is_disabled": 0}, {"fusion_lat": 0.0, "lon": -77.01820066666667, "is_reserved": 0, "bike_id": "7e69ca0d28674475d92df79a1c214cbd", "fusion_lon": 0.0, "rental_uris": {"android": "https://dc.lft.to/lastmile_qr_scan", "ios": "https://dc.lft.to/lastmile_qr_scan"}, "name": "7e69ca0d28674475d92df79a1c214cbd", "type": "electric_scooter", "lat": 38.89337733333333, "is_disabled": 0}, {"fusion_lat": 0.0, "lon": -77.03538833333333, "is_reserved": 0, "bike_id": "c561dcd425a1ca829a6ad0bbc8bbf729", "fusion_lon": 0.0, "rental_uris": {"android": "https://dc.lft.to/lastmile_qr_scan", "ios": "https://dc.lft.to/lastmile_qr_scan"}, "name": "c561dcd425a1ca829a6ad0bbc8bbf729", "type": "electric_scooter", "lat": 38.915527166666664, "is_disabled": 0}, {"fusion_lat": 0.0, "lon": -77.01497666666667, "is_reserved": 0, "bike_id": "1be5a6fb4e19449e2491cede81ffd6c9", "fusion_lon": 0.0, "rental_uris": {"android": "https://dc.lft.to/lastmile_qr_scan", "ios": "https://dc.lft.to/lastmile_qr_scan"}, "name": "1be5a6fb4e19449e2491cede81ffd6c9", "type": "electric_scooter", "lat": 38.926554833333334, "is_disabled": 0}, {"fusion_lat": 0.0, "lon": -77.04347883333334, "is_reserved": 0, "bike_id": "043073b395b8643e89faa2921ab6cf92", "fusion_lon": 0.0, "rental_uris": {"android": "https://dc.lft.to/lastmile_qr_scan", "ios": "https://dc.lft.to/lastmile_qr_scan"}, "name": "043073b395b8643e89faa2921ab6cf92", "type": "electric_scooter", "lat": 38.903114333333335, "is_disabled": 0}, {"fusion_lat": 0.0, "lon": -77.06381516666667, "is_reserved": 0, "bike_id": "f1bbd89e07344782c2764a8cb688ec5a", "fusion_lon": 0.0, "rental_uris": {"android": "https://dc.lft.to/lastmile_qr_scan", "ios": "https://dc.lft.to/lastmile_qr_scan"}, "name": "f1bbd89e07344782c2764a8cb688ec5a", "type": "electric_scooter", "lat": 38.90822566666667, "is_disabled": 0}, {"fusion_lat": 0.0, "lon": -77.054409, "is_reserved": 0, "bike_id": "1b000633bea847b1b0542722f3120e61", "fusion_lon": 0.0, "rental_uris": {"android": "https://dc.lft.to/lastmile_qr_scan", "ios": "https://dc.lft.to/lastmile_qr_scan"}, "name": "1b000633bea847b1b0542722f3120e61", "type": "electric_scooter", "lat": 38.928545666666665, "is_disabled": 0}, {"fusion_lat": 0.0, "lon": -77.00605233333333, "is_reserved": 0, "bike_id": "6f444c489d09a9b804ffc6c7b83d0719", "fusion_lon": 0.0, "rental_uris": {"android": "https://dc.lft.to/lastmile_qr_scan", "ios": "https://dc.lft.to/lastmile_qr_scan"}, "name": "6f444c489d09a9b804ffc6c7b83d0719", "type": "electric_bike", "lat": 38.898088, "is_disabled": 0}, {"fusion_lat": 0.0, "lon": -76.9501735, "is_reserved": 0, "bike_id": "a0b9b145e8794098604d06462d62d722", "fusion_lon": 0.0, "rental_uris": {"android": "https://dc.lft.to/lastmile_qr_scan", "ios": "https://dc.lft.to/lastmile_qr_scan"}, "name": "a0b9b145e8794098604d06462d62d722", "type": "electric_scooter", "lat": 38.8938945, "is_disabled": 0}, {"fusion_lat": 0.0, "lon": -77.085976, "is_reserved": 0, "bike_id": "9a2324ea75de631ccca6d57e553540ef", "fusion_lon": 0.0, "rental_uris": {"android": "https://dc.lft.to/lastmile_qr_scan", "ios": "https://dc.lft.to/lastmile_qr_scan"}, "name": "9a2324ea75de631ccca6d57e553540ef", "type": "electric_scooter", "lat": 38.908674166666664, "is_disabled": 0}, {"fusion_lat": 0.0, "lon": -76.98744866666667, "is_reserved": 0, "bike_id": "91cb89e7a1db74f4bfa47774e586cd5c", "fusion_lon": 0.0, "rental_uris": {"android": "https://dc.lft.to/lastmile_qr_scan", "ios": "https://dc.lft.to/lastmile_qr_scan"}, "name": "91cb89e7a1db74f4bfa47774e586cd5c", "type": "electric_scooter", "lat": 38.84482216666667, "is_disabled": 0}, {"fusion_lat": 0.0, "lon": -76.96467683333333, "is_reserved": 0, "bike_id": "7dda0982d2de9c8c738b135d590dfca5", "fusion_lon": 0.0, "rental_uris": {"android": "https://dc.lft.to/lastmile_qr_scan", "ios": "https://dc.lft.to/lastmile_qr_scan"}, "name": "7dda0982d2de9c8c738b135d590dfca5", "type": "electric_scooter", "lat": 38.934468833333334, "is_disabled": 0}, {"fusion_lat": 0.0, "lon": -77.03260966666667, "is_reserved": 0, "bike_id": "fd5b93022a6f83d23a95846820109441", "fusion_lon": 0.0, "rental_uris": {"android": "https://dc.lft.to/lastmile_qr_scan", "ios": "https://dc.lft.to/lastmile_qr_scan"}, "name": "fd5b93022a6f83d23a95846820109441", "type": "electric_scooter", "lat": 38.927336833333335, "is_disabled": 0}, {"fusion_lat": 0.0, "lon": -76.98539033333333, "is_reserved": 0, "bike_id": "a2a1b29405736771efa83b80dae594a8", "fusion_lon": 0.0, "rental_uris": {"android": "https://dc.lft.to/lastmile_qr_scan", "ios": "https://dc.lft.to/lastmile_qr_scan"}, "name": "a2a1b29405736771efa83b80dae594a8", "type": "electric_scooter", "lat": 38.910244, "is_disabled": 0}, {"fusion_lat": 0.0, "lon": -77.0268085, "is_reserved": 0, "bike_id": "0dfe0a9b15137229549757bc0aa0923f", "fusion_lon": 0.0, "rental_uris": {"android": "https://dc.lft.to/lastmile_qr_scan", "ios": "https://dc.lft.to/lastmile_qr_scan"}, "name": "0dfe0a9b15137229549757bc0aa0923f", "type": "electric_scooter", "lat": 38.927712166666666, "is_disabled": 0}, {"fusion_lat": 0.0, "lon": -77.02684283333333, "is_reserved": 0, "bike_id": "e2661ee3c7fd3510c3c21b72450349a2", "fusion_lon": 0.0, "rental_uris": {"android": "https://dc.lft.to/lastmile_qr_scan", "ios": "https://dc.lft.to/lastmile_qr_scan"}, "name": "e2661ee3c7fd3510c3c21b72450349a2", "type": "electric_scooter", "lat": 38.984886333333336, "is_disabled": 0}, {"fusion_lat": 0.0, "lon": -76.9921235, "is_reserved": 0, "bike_id": "90c7abcaf4ffd59024a9ba116e8f4b36", "fusion_lon": 0.0, "rental_uris": {"android": "https://dc.lft.to/lastmile_qr_scan", "ios": "https://dc.lft.to/lastmile_qr_scan"}, "name": "90c7abcaf4ffd59024a9ba116e8f4b36", "type": "electric_scooter", "lat": 38.89508583333333, "is_disabled": 0}, {"fusion_lat": 0.0, "lon": -77.03772716666667, "is_reserved": 0, "bike_id": "b6b8081f04df7ac19050a202da40def5", "fusion_lon": 0.0, "rental_uris": {"android": "https://dc.lft.to/lastmile_qr_scan", "ios": "https://dc.lft.to/lastmile_qr_scan"}, "name": "b6b8081f04df7ac19050a202da40def5", "type": "electric_scooter", "lat": 38.91686, "is_disabled": 0}, {"fusion_lat": 0.0, "lon": -77.0317365, "is_reserved": 0, "bike_id": "de73c92c8e83a971d131f278351a6103", "fusion_lon": 0.0, "rental_uris": {"android": "https://dc.lft.to/lastmile_qr_scan", "ios": "https://dc.lft.to/lastmile_qr_scan"}, "name": "de73c92c8e83a971d131f278351a6103", "type": "electric_scooter", "lat": 38.884086, "is_disabled": 0}, {"fusion_lat": 0.0, "lon": -77.029466, "is_reserved": 0, "bike_id": "e627f5661683189c762156f4b003e98b", "fusion_lon": 0.0, "rental_uris": {"android": "https://dc.lft.to/lastmile_qr_scan", "ios": "https://dc.lft.to/lastmile_qr_scan"}, "name": "e627f5661683189c762156f4b003e98b", "type": "electric_scooter", "lat": 38.932456333333334, "is_disabled": 0}, {"fusion_lat": 0.0, "lon": -76.99004066666667, "is_reserved": 0, "bike_id": "3cf0ff9fd38b18a2de70628d87c78175", "fusion_lon": 0.0, "rental_uris": {"android": "https://dc.lft.to/lastmile_qr_scan", "ios": "https://dc.lft.to/lastmile_qr_scan"}, "name": "3cf0ff9fd38b18a2de70628d87c78175", "type": "electric_scooter", "lat": 38.903930333333335, "is_disabled": 0}, {"fusion_lat": 0.0, "lon": -77.04297016666666, "is_reserved": 0, "bike_id": "fdcdda57b9ab49eaf3ad9cc1268f7b03", "fusion_lon": 0.0, "rental_uris": {"android": "https://dc.lft.to/lastmile_qr_scan", "ios": "https://dc.lft.to/lastmile_qr_scan"}, "name": "fdcdda57b9ab49eaf3ad9cc1268f7b03", "type": "electric_scooter", "lat": 38.91693133333333, "is_disabled": 0}, {"fusion_lat": 0.0, "lon": -77.02085816666667, "is_reserved": 0, "bike_id": "a062fcffec35790770b61eebfe2d9cc4", "fusion_lon": 0.0, "rental_uris": {"android": "https://dc.lft.to/lastmile_qr_scan", "ios": "https://dc.lft.to/lastmile_qr_scan"}, "name": "a062fcffec35790770b61eebfe2d9cc4", "type": "electric_scooter", "lat": 38.881871833333335, "is_disabled": 0}, {"fusion_lat": 0.0, "lon": -76.9848, "is_reserved": 0, "bike_id": "edccd57490b770679558ab5575120830", "fusion_lon": 0.0, "rental_uris": {"android": "https://dc.lft.to/lastmile_qr_scan", "ios": "https://dc.lft.to/lastmile_qr_scan"}, "name": "edccd57490b770679558ab5575120830", "type": "electric_bike", "lat": 38.92899466666667, "is_disabled": 0}, {"fusion_lat": 0.0, "lon": -77.01221866666667, "is_reserved": 0, "bike_id": "6f2a7e2415e2c7cf3ef33a7944623efb", "fusion_lon": 0.0, "rental_uris": {"android": "https://dc.lft.to/lastmile_qr_scan", "ios": "https://dc.lft.to/lastmile_qr_scan"}, "name": "6f2a7e2415e2c7cf3ef33a7944623efb", "type": "electric_bike", "lat": 38.87192683333333, "is_disabled": 0}, {"fusion_lat": 0.0, "lon": -77.02653733333334, "is_reserved": 0, "bike_id": "adf67c6489d5cff4ecbcb1d9b93a8829", "fusion_lon": 0.0, "rental_uris": {"android": "https://dc.lft.to/lastmile_qr_scan", "ios": "https://dc.lft.to/lastmile_qr_scan"}, "name": "adf67c6489d5cff4ecbcb1d9b93a8829", "type": "electric_scooter", "lat": 38.89220683333333, "is_disabled": 0}, {"fusion_lat": 0.0, "lon": -76.95655283333333, "is_reserved": 0, "bike_id": "92ff142df1f6e909d87580f3099df01d", "fusion_lon": 0.0, "rental_uris": {"android": "https://dc.lft.to/lastmile_qr_scan", "ios": "https://dc.lft.to/lastmile_qr_scan"}, "name": "92ff142df1f6e909d87580f3099df01d", "type": "electric_scooter", "lat": 38.89545666666667, "is_disabled": 0}, {"fusion_lat": 0.0, "lon": -77.03084366666667, "is_reserved": 0, "bike_id": "f0c165974cd9c6705b8565966ad53e90", "fusion_lon": 0.0, "rental_uris": {"android": "https://dc.lft.to/lastmile_qr_scan", "ios": "https://dc.lft.to/lastmile_qr_scan"}, "name": "f0c165974cd9c6705b8565966ad53e90", "type": "electric_scooter", "lat": 38.90578266666667, "is_disabled": 0}, {"fusion_lat": 0.0, "lon": -77.1784075, "is_reserved": 0, "bike_id": "2fce3e524bc359b77115a12223ae93b6", "fusion_lon": 0.0, "rental_uris": {"android": "https://dc.lft.to/lastmile_qr_scan", "ios": "https://dc.lft.to/lastmile_qr_scan"}, "name": "2fce3e524bc359b77115a12223ae93b6", "type": "electric_bike", "lat": 39.088562333333336, "is_disabled": 0}, {"fusion_lat": 0.0, "lon": -77.031888, "is_reserved": 0, "bike_id": "ffe954c3a037df5c515da720e75dc583", "fusion_lon": 0.0, "rental_uris": {"android": "https://dc.lft.to/lastmile_qr_scan", "ios": "https://dc.lft.to/lastmile_qr_scan"}, "name": "ffe954c3a037df5c515da720e75dc583", "type": "electric_scooter", "lat": 38.917818833333335, "is_disabled": 0}, {"fusion_lat": 0.0, "lon": -77.07377383333333, "is_reserved": 0, "bike_id": "7432c36ef0d657ca8150cdc17bfdc136", "fusion_lon": 0.0, "rental_uris": {"android": "https://dc.lft.to/lastmile_qr_scan", "ios": "https://dc.lft.to/lastmile_qr_scan"}, "name": "7432c36ef0d657ca8150cdc17bfdc136", "type": "electric_bike", "lat": 38.96184866666667, "is_disabled": 0}, {"fusion_lat": 0.0, "lon": -77.03869166666667, "is_reserved": 0, "bike_id": "3bf85a8c3da0c0f1bef2207693030f21", "fusion_lon": 0.0, "rental_uris": {"android": "https://dc.lft.to/lastmile_qr_scan", "ios": "https://dc.lft.to/lastmile_qr_scan"}, "name": "3bf85a8c3da0c0f1bef2207693030f21", "type": "electric_scooter", "lat": 38.92150866666667, "is_disabled": 0}, {"fusion_lat": 0.0, "lon": -77.012096, "is_reserved": 0, "bike_id": "915bd6b64640956d3c6a59c22968bf78", "fusion_lon": 0.0, "rental_uris": {"android": "https://dc.lft.to/lastmile_qr_scan", "ios": "https://dc.lft.to/lastmile_qr_scan"}, "name": "915bd6b64640956d3c6a59c22968bf78", "type": "electric_scooter", "lat": 38.918358166666664, "is_disabled": 0}, {"fusion_lat": 0.0, "lon": -76.99776733333333, "is_reserved": 0, "bike_id": "8bb61424c16e48e5eddb248c14abfb8e", "fusion_lon": 0.0, "rental_uris": {"android": "https://dc.lft.to/lastmile_qr_scan", "ios": "https://dc.lft.to/lastmile_qr_scan"}, "name": "8bb61424c16e48e5eddb248c14abfb8e", "type": "electric_scooter", "lat": 38.90025416666667, "is_disabled": 0}, {"fusion_lat": 0.0, "lon": -77.02495083333334, "is_reserved": 0, "bike_id": "faca5371a24b0aa4273e5b77bef64c46", "fusion_lon": 0.0, "rental_uris": {"android": "https://dc.lft.to/lastmile_qr_scan", "ios": "https://dc.lft.to/lastmile_qr_scan"}, "name": "faca5371a24b0aa4273e5b77bef64c46", "type": "electric_scooter", "lat": 38.941826666666664, "is_disabled": 0}, {"fusion_lat": 0.0, "lon": -77.029525, "is_reserved": 0, "bike_id": "c4d6bdee4331c219812e1a2b7c7f76ab", "fusion_lon": 0.0, "rental_uris": {"android": "https://dc.lft.to/lastmile_qr_scan", "ios": "https://dc.lft.to/lastmile_qr_scan"}, "name": "c4d6bdee4331c219812e1a2b7c7f76ab", "type": "electric_scooter", "lat": 38.92854533333333, "is_disabled": 0}, {"fusion_lat": 0.0, "lon": -77.04538433333333, "is_reserved": 0, "bike_id": "8e7d7d48dde1056dd07bab2f83f784af", "fusion_lon": 0.0, "rental_uris": {"android": "https://dc.lft.to/lastmile_qr_scan", "ios": "https://dc.lft.to/lastmile_qr_scan"}, "name": "8e7d7d48dde1056dd07bab2f83f784af", "type": "electric_scooter", "lat": 38.933977, "is_disabled": 0}, {"fusion_lat": 0.0, "lon": -77.03939283333334, "is_reserved": 0, "bike_id": "3532d1d139065e1b4bc9eb2eb487ab70", "fusion_lon": 0.0, "rental_uris": {"android": "https://dc.lft.to/lastmile_qr_scan", "ios": "https://dc.lft.to/lastmile_qr_scan"}, "name": "3532d1d139065e1b4bc9eb2eb487ab70", "type": "electric_scooter", "lat": 38.91755116666667, "is_disabled": 0}, {"fusion_lat": 0.0, "lon": -77.06443366666667, "is_reserved": 0, "bike_id": "ebc81a840a80286fe83c71773d866fdf", "fusion_lon": 0.0, "rental_uris": {"android": "https://dc.lft.to/lastmile_qr_scan", "ios": "https://dc.lft.to/lastmile_qr_scan"}, "name": "ebc81a840a80286fe83c71773d866fdf", "type": "electric_scooter", "lat": 38.9052415, "is_disabled": 0}, {"fusion_lat": 0.0, "lon": -77.03775966666667, "is_reserved": 0, "bike_id": "f98ad5b0446987760ff8f1fe03c75f69", "fusion_lon": 0.0, "rental_uris": {"android": "https://dc.lft.to/lastmile_qr_scan", "ios": "https://dc.lft.to/lastmile_qr_scan"}, "name": "f98ad5b0446987760ff8f1fe03c75f69", "type": "electric_scooter", "lat": 38.92207, "is_disabled": 0}, {"fusion_lat": 0.0, "lon": -77.02667383333333, "is_reserved": 0, "bike_id": "957597d92ee6e24d16e5125230f41497", "fusion_lon": 0.0, "rental_uris": {"android": "https://dc.lft.to/lastmile_qr_scan", "ios": "https://dc.lft.to/lastmile_qr_scan"}, "name": "957597d92ee6e24d16e5125230f41497", "type": "electric_scooter", "lat": 38.931027666666665, "is_disabled": 0}, {"fusion_lat": 0.0, "lon": -76.96242916666667, "is_reserved": 0, "bike_id": "596a54a816e13b6be9a27eeedc0d04d3", "fusion_lon": 0.0, "rental_uris": {"android": "https://dc.lft.to/lastmile_qr_scan", "ios": "https://dc.lft.to/lastmile_qr_scan"}, "name": "596a54a816e13b6be9a27eeedc0d04d3", "type": "electric_scooter", "lat": 38.8776705, "is_disabled": 0}, {"fusion_lat": 0.0, "lon": -77.00401983333333, "is_reserved": 0, "bike_id": "da2e6e2a4aa48b2f92e5afab1efc6c9e", "fusion_lon": 0.0, "rental_uris": {"android": "https://dc.lft.to/lastmile_qr_scan", "ios": "https://dc.lft.to/lastmile_qr_scan"}, "name": "da2e6e2a4aa48b2f92e5afab1efc6c9e", "type": "electric_bike", "lat": 38.98544283333333, "is_disabled": 0}, {"fusion_lat": 0.0, "lon": -77.03637033333334, "is_reserved": 0, "bike_id": "f511d83d2a5f63ddf2313cbbba2246a4", "fusion_lon": 0.0, "rental_uris": {"android": "https://dc.lft.to/lastmile_qr_scan", "ios": "https://dc.lft.to/lastmile_qr_scan"}, "name": "f511d83d2a5f63ddf2313cbbba2246a4", "type": "electric_scooter", "lat": 38.937112166666665, "is_disabled": 0}, {"fusion_lat": 0.0, "lon": -77.04626883333333, "is_reserved": 0, "bike_id": "09e1600d4cdb0e44d46e44d5afff443b", "fusion_lon": 0.0, "rental_uris": {"android": "https://dc.lft.to/lastmile_qr_scan", "ios": "https://dc.lft.to/lastmile_qr_scan"}, "name": "09e1600d4cdb0e44d46e44d5afff443b", "type": "electric_scooter", "lat": 38.923168833333335, "is_disabled": 0}, {"fusion_lat": 0.0, "lon": -77.024446, "is_reserved": 0, "bike_id": "78dd9fe5e36d7f7f5cf8914cdf122167", "fusion_lon": 0.0, "rental_uris": {"android": "https://dc.lft.to/lastmile_qr_scan", "ios": "https://dc.lft.to/lastmile_qr_scan"}, "name": "78dd9fe5e36d7f7f5cf8914cdf122167", "type": "electric_scooter", "lat": 38.897192, "is_disabled": 0}, {"fusion_lat": 0.0, "lon": -77.033206, "is_reserved": 0, "bike_id": "daf1f56afc578c559d8b01d2b68b9630", "fusion_lon": 0.0, "rental_uris": {"android": "https://dc.lft.to/lastmile_qr_scan", "ios": "https://dc.lft.to/lastmile_qr_scan"}, "name": "daf1f56afc578c559d8b01d2b68b9630", "type": "electric_scooter", "lat": 38.900065, "is_disabled": 0}, {"fusion_lat": 0.0, "lon": -77.01502, "is_reserved": 0, "bike_id": "a04e87e662d75eb90875ecbaf1d96dca", "fusion_lon": 0.0, "rental_uris": {"android": "https://dc.lft.to/lastmile_qr_scan", "ios": "https://dc.lft.to/lastmile_qr_scan"}, "name": "a04e87e662d75eb90875ecbaf1d96dca", "type": "electric_scooter", "lat": 38.886522666666664, "is_disabled": 0}, {"fusion_lat": 0.0, "lon": -76.99151583333334, "is_reserved": 0, "bike_id": "5fe8adc6ade5e14075913dfca7d28815", "fusion_lon": 0.0, "rental_uris": {"android": "https://dc.lft.to/lastmile_qr_scan", "ios": "https://dc.lft.to/lastmile_qr_scan"}, "name": "5fe8adc6ade5e14075913dfca7d28815", "type": "electric_scooter", "lat": 38.86323866666667, "is_disabled": 0}, {"fusion_lat": 0.0, "lon": -77.04622766666667, "is_reserved": 0, "bike_id": "e472b23d1a44a392ddfd0f2596149479", "fusion_lon": 0.0, "rental_uris": {"android": "https://dc.lft.to/lastmile_qr_scan", "ios": "https://dc.lft.to/lastmile_qr_scan"}, "name": "e472b23d1a44a392ddfd0f2596149479", "type": "electric_scooter", "lat": 38.916109, "is_disabled": 0}, {"fusion_lat": 0.0, "lon": -77.0329605, "is_reserved": 0, "bike_id": "e7ec19a1838be211ada7cf04a0623311", "fusion_lon": 0.0, "rental_uris": {"android": "https://dc.lft.to/lastmile_qr_scan", "ios": "https://dc.lft.to/lastmile_qr_scan"}, "name": "e7ec19a1838be211ada7cf04a0623311", "type": "electric_scooter", "lat": 38.9204175, "is_disabled": 0}, {"fusion_lat": 0.0, "lon": -77.01984066666667, "is_reserved": 0, "bike_id": "c1ecb2a9f9e858893265b9950618a3fc", "fusion_lon": 0.0, "rental_uris": {"android": "https://dc.lft.to/lastmile_qr_scan", "ios": "https://dc.lft.to/lastmile_qr_scan"}, "name": "c1ecb2a9f9e858893265b9950618a3fc", "type": "electric_scooter", "lat": 38.887195, "is_disabled": 0}, {"fusion_lat": 0.0, "lon": -77.042667, "is_reserved": 0, "bike_id": "065e173ea2bf63afb1c1e83cff490f77", "fusion_lon": 0.0, "rental_uris": {"android": "https://dc.lft.to/lastmile_qr_scan", "ios": "https://dc.lft.to/lastmile_qr_scan"}, "name": "065e173ea2bf63afb1c1e83cff490f77", "type": "electric_scooter", "lat": 38.90869166666667, "is_disabled": 0}, {"fusion_lat": 0.0, "lon": -77.04299966666666, "is_reserved": 0, "bike_id": "44f3b04da3cf538c2568213b7f8c7d4c", "fusion_lon": 0.0, "rental_uris": {"android": "https://dc.lft.to/lastmile_qr_scan", "ios": "https://dc.lft.to/lastmile_qr_scan"}, "name": "44f3b04da3cf538c2568213b7f8c7d4c", "type": "electric_scooter", "lat": 38.91651016666667, "is_disabled": 0}, {"fusion_lat": 0.0, "lon": -77.04456516666667, "is_reserved": 0, "bike_id": "8c0ecedda8e8c0b0aecceee41da9c394", "fusion_lon": 0.0, "rental_uris": {"android": "https://dc.lft.to/lastmile_qr_scan", "ios": "https://dc.lft.to/lastmile_qr_scan"}, "name": "8c0ecedda8e8c0b0aecceee41da9c394", "type": "electric_scooter", "lat": 38.923960666666666, "is_disabled": 0}, {"fusion_lat": 0.0, "lon": -77.02653566666666, "is_reserved": 0, "bike_id": "bced1448565e9db0c498041d674e9c02", "fusion_lon": 0.0, "rental_uris": {"android": "https://dc.lft.to/lastmile_qr_scan", "ios": "https://dc.lft.to/lastmile_qr_scan"}, "name": "bced1448565e9db0c498041d674e9c02", "type": "electric_scooter", "lat": 38.8922, "is_disabled": 0}, {"fusion_lat": 0.0, "lon": -77.03182233333334, "is_reserved": 0, "bike_id": "75cf7f0aa36d78a31cf662a1a7bec19d", "fusion_lon": 0.0, "rental_uris": {"android": "https://dc.lft.to/lastmile_qr_scan", "ios": "https://dc.lft.to/lastmile_qr_scan"}, "name": "75cf7f0aa36d78a31cf662a1a7bec19d", "type": "electric_scooter", "lat": 38.915605166666666, "is_disabled": 0}, {"fusion_lat": 0.0, "lon": -77.02724183333333, "is_reserved": 0, "bike_id": "c1e0a16603bea0ea39d3515b98498089", "fusion_lon": 0.0, "rental_uris": {"android": "https://dc.lft.to/lastmile_qr_scan", "ios": "https://dc.lft.to/lastmile_qr_scan"}, "name": "c1e0a16603bea0ea39d3515b98498089", "type": "electric_scooter", "lat": 38.9110005, "is_disabled": 0}, {"fusion_lat": 0.0, "lon": -77.03072633333333, "is_reserved": 0, "bike_id": "bb42fc4c3e01d2fd407bbc200b415c5a", "fusion_lon": 0.0, "rental_uris": {"android": "https://dc.lft.to/lastmile_qr_scan", "ios": "https://dc.lft.to/lastmile_qr_scan"}, "name": "bb42fc4c3e01d2fd407bbc200b415c5a", "type": "electric_scooter", "lat": 38.90755433333333, "is_disabled": 0}, {"fusion_lat": 0.0, "lon": -77.04998966666666, "is_reserved": 0, "bike_id": "458eb8326e1654cf250948cb04f6ee2a", "fusion_lon": 0.0, "rental_uris": {"android": "https://dc.lft.to/lastmile_qr_scan", "ios": "https://dc.lft.to/lastmile_qr_scan"}, "name": "458eb8326e1654cf250948cb04f6ee2a", "type": "electric_scooter", "lat": 38.892291, "is_disabled": 0}, {"fusion_lat": 0.0, "lon": -77.00740916666666, "is_reserved": 0, "bike_id": "afa009ab48ff2b1e65062c273df9aa00", "fusion_lon": 0.0, "rental_uris": {"android": "https://dc.lft.to/lastmile_qr_scan", "ios": "https://dc.lft.to/lastmile_qr_scan"}, "name": "afa009ab48ff2b1e65062c273df9aa00", "type": "electric_scooter", "lat": 38.9253615, "is_disabled": 0}, {"fusion_lat": 0.0, "lon": -77.05013966666667, "is_reserved": 0, "bike_id": "37f228f26d7fb8f84aea2fe1066000d3", "fusion_lon": 0.0, "rental_uris": {"android": "https://dc.lft.to/lastmile_qr_scan", "ios": "https://dc.lft.to/lastmile_qr_scan"}, "name": "37f228f26d7fb8f84aea2fe1066000d3", "type": "electric_scooter", "lat": 38.90287383333333, "is_disabled": 0}, {"fusion_lat": 0.0, "lon": -77.03642316666667, "is_reserved": 0, "bike_id": "b6ac86ff1ddf83fdaa4ce6a74f937dfd", "fusion_lon": 0.0, "rental_uris": {"android": "https://dc.lft.to/lastmile_qr_scan", "ios": "https://dc.lft.to/lastmile_qr_scan"}, "name": "b6ac86ff1ddf83fdaa4ce6a74f937dfd", "type": "electric_scooter", "lat": 38.9226535, "is_disabled": 0}, {"fusion_lat": 0.0, "lon": -77.02168116666667, "is_reserved": 0, "bike_id": "0b4542ff3effb5deb4f7ee25cf6dbc73", "fusion_lon": 0.0, "rental_uris": {"android": "https://dc.lft.to/lastmile_qr_scan", "ios": "https://dc.lft.to/lastmile_qr_scan"}, "name": "0b4542ff3effb5deb4f7ee25cf6dbc73", "type": "electric_scooter", "lat": 38.91607, "is_disabled": 0}, {"fusion_lat": 0.0, "lon": -76.94965766666667, "is_reserved": 0, "bike_id": "fcff49189cf421309fa30a8ade94b4df", "fusion_lon": 0.0, "rental_uris": {"android": "https://dc.lft.to/lastmile_qr_scan", "ios": "https://dc.lft.to/lastmile_qr_scan"}, "name": "fcff49189cf421309fa30a8ade94b4df", "type": "electric_scooter", "lat": 38.904982833333335, "is_disabled": 0}, {"fusion_lat": 0.0, "lon": -77.03125166666666, "is_reserved": 0, "bike_id": "bb408e30e30e08a9877373875c8a55c9", "fusion_lon": 0.0, "rental_uris": {"android": "https://dc.lft.to/lastmile_qr_scan", "ios": "https://dc.lft.to/lastmile_qr_scan"}, "name": "bb408e30e30e08a9877373875c8a55c9", "type": "electric_scooter", "lat": 38.91491333333333, "is_disabled": 0}, {"fusion_lat": 0.0, "lon": -77.00187233333334, "is_reserved": 0, "bike_id": "91a10ccd93eca5c7d454d6491a2cb424", "fusion_lon": 0.0, "rental_uris": {"android": "https://dc.lft.to/lastmile_qr_scan", "ios": "https://dc.lft.to/lastmile_qr_scan"}, "name": "91a10ccd93eca5c7d454d6491a2cb424", "type": "electric_scooter", "lat": 38.903749166666664, "is_disabled": 0}, {"fusion_lat": 0.0, "lon": -76.9575795, "is_reserved": 0, "bike_id": "7f972d18c62a4aa8ecbb30dffe71dcbb", "fusion_lon": 0.0, "rental_uris": {"android": "https://dc.lft.to/lastmile_qr_scan", "ios": "https://dc.lft.to/lastmile_qr_scan"}, "name": "7f972d18c62a4aa8ecbb30dffe71dcbb", "type": "electric_scooter", "lat": 38.88427133333333, "is_disabled": 0}, {"fusion_lat": 0.0, "lon": -76.95130516666667, "is_reserved": 0, "bike_id": "0889cf974fbcafc22f2a457239e08a10", "fusion_lon": 0.0, "rental_uris": {"android": "https://dc.lft.to/lastmile_qr_scan", "ios": "https://dc.lft.to/lastmile_qr_scan"}, "name": "0889cf974fbcafc22f2a457239e08a10", "type": "electric_scooter", "lat": 38.890268, "is_disabled": 0}, {"fusion_lat": 0.0, "lon": -77.04710566666667, "is_reserved": 0, "bike_id": "fd2afcfec97ab97a0108d7ffd4e8072e", "fusion_lon": 0.0, "rental_uris": {"android": "https://dc.lft.to/lastmile_qr_scan", "ios": "https://dc.lft.to/lastmile_qr_scan"}, "name": "fd2afcfec97ab97a0108d7ffd4e8072e", "type": "electric_scooter", "lat": 38.922261666666664, "is_disabled": 0}, {"fusion_lat": 0.0, "lon": -77.02142616666667, "is_reserved": 0, "bike_id": "88cb6ecc5c8bcb3d2c6c256c6b738663", "fusion_lon": 0.0, "rental_uris": {"android": "https://dc.lft.to/lastmile_qr_scan", "ios": "https://dc.lft.to/lastmile_qr_scan"}, "name": "88cb6ecc5c8bcb3d2c6c256c6b738663", "type": "electric_scooter", "lat": 38.92319583333333, "is_disabled": 0}, {"fusion_lat": 0.0, "lon": -77.03263783333334, "is_reserved": 0, "bike_id": "4feee497b69aebeaed6d2d1a7282ebf1", "fusion_lon": 0.0, "rental_uris": {"android": "https://dc.lft.to/lastmile_qr_scan", "ios": "https://dc.lft.to/lastmile_qr_scan"}, "name": "4feee497b69aebeaed6d2d1a7282ebf1", "type": "electric_scooter", "lat": 38.904532833333334, "is_disabled": 0}, {"fusion_lat": 0.0, "lon": -77.00727216666667, "is_reserved": 0, "bike_id": "f373a05c0a9e3fb1346d21783bc7a443", "fusion_lon": 0.0, "rental_uris": {"android": "https://dc.lft.to/lastmile_qr_scan", "ios": "https://dc.lft.to/lastmile_qr_scan"}, "name": "f373a05c0a9e3fb1346d21783bc7a443", "type": "electric_scooter", "lat": 38.897055333333334, "is_disabled": 0}, {"fusion_lat": 0.0, "lon": -76.98196966666667, "is_reserved": 0, "bike_id": "9aecfdcf31f618cde953b42aa15c0bf9", "fusion_lon": 0.0, "rental_uris": {"android": "https://dc.lft.to/lastmile_qr_scan", "ios": "https://dc.lft.to/lastmile_qr_scan"}, "name": "9aecfdcf31f618cde953b42aa15c0bf9", "type": "electric_scooter", "lat": 38.90280166666667, "is_disabled": 0}, {"fusion_lat": 0.0, "lon": -77.02765633333334, "is_reserved": 0, "bike_id": "3031019838d029967e61c84830cf9c99", "fusion_lon": 0.0, "rental_uris": {"android": "https://dc.lft.to/lastmile_qr_scan", "ios": "https://dc.lft.to/lastmile_qr_scan"}, "name": "3031019838d029967e61c84830cf9c99", "type": "electric_scooter", "lat": 38.9542415, "is_disabled": 0}, {"fusion_lat": 0.0, "lon": -77.1324405, "is_reserved": 0, "bike_id": "9a7422d62cf202f6fa9a3a54fe67c080", "fusion_lon": 0.0, "rental_uris": {"android": "https://dc.lft.to/lastmile_qr_scan", "ios": "https://dc.lft.to/lastmile_qr_scan"}, "name": "9a7422d62cf202f6fa9a3a54fe67c080", "type": "electric_bike", "lat": 38.805691333333336, "is_disabled": 0}, {"fusion_lat": 0.0, "lon": -77.03159133333334, "is_reserved": 0, "bike_id": "16bc749da24dd13ce60149005a58d60a", "fusion_lon": 0.0, "rental_uris": {"android": "https://dc.lft.to/lastmile_qr_scan", "ios": "https://dc.lft.to/lastmile_qr_scan"}, "name": "16bc749da24dd13ce60149005a58d60a", "type": "electric_scooter", "lat": 38.90603933333333, "is_disabled": 0}, {"fusion_lat": 0.0, "lon": -77.0228005, "is_reserved": 0, "bike_id": "0affd00f9db1ed5340e724f76d91bc7c", "fusion_lon": 0.0, "rental_uris": {"android": "https://dc.lft.to/lastmile_qr_scan", "ios": "https://dc.lft.to/lastmile_qr_scan"}, "name": "0affd00f9db1ed5340e724f76d91bc7c", "type": "electric_scooter", "lat": 38.935288666666665, "is_disabled": 0}, {"fusion_lat": 0.0, "lon": -77.05345183333333, "is_reserved": 0, "bike_id": "3e38ede9e7228c6023c59de1f6b6ee17", "fusion_lon": 0.0, "rental_uris": {"android": "https://dc.lft.to/lastmile_qr_scan", "ios": "https://dc.lft.to/lastmile_qr_scan"}, "name": "3e38ede9e7228c6023c59de1f6b6ee17", "type": "electric_scooter", "lat": 38.92354566666667, "is_disabled": 0}, {"fusion_lat": 0.0, "lon": -77.00016183333334, "is_reserved": 0, "bike_id": "3f3f199cc90c240d3d6e9dacab84e866", "fusion_lon": 0.0, "rental_uris": {"android": "https://dc.lft.to/lastmile_qr_scan", "ios": "https://dc.lft.to/lastmile_qr_scan"}, "name": "3f3f199cc90c240d3d6e9dacab84e866", "type": "electric_scooter", "lat": 38.90765116666667, "is_disabled": 0}, {"fusion_lat": 0.0, "lon": -77.04235516666667, "is_reserved": 0, "bike_id": "96c0c5850cc88c2b8f5903353111baac", "fusion_lon": 0.0, "rental_uris": {"android": "https://dc.lft.to/lastmile_qr_scan", "ios": "https://dc.lft.to/lastmile_qr_scan"}, "name": "96c0c5850cc88c2b8f5903353111baac", "type": "electric_scooter", "lat": 38.911159, "is_disabled": 0}, {"fusion_lat": 0.0, "lon": -77.02875816666666, "is_reserved": 0, "bike_id": "d50b55a2e5d7884bbb25e6f0dfce1b7f", "fusion_lon": 0.0, "rental_uris": {"android": "https://dc.lft.to/lastmile_qr_scan", "ios": "https://dc.lft.to/lastmile_qr_scan"}, "name": "d50b55a2e5d7884bbb25e6f0dfce1b7f", "type": "electric_scooter", "lat": 38.95087783333334, "is_disabled": 0}, {"fusion_lat": 0.0, "lon": -77.06300433333334, "is_reserved": 0, "bike_id": "2318f0f3f072ba2a0c6165586dbde7b3", "fusion_lon": 0.0, "rental_uris": {"android": "https://dc.lft.to/lastmile_qr_scan", "ios": "https://dc.lft.to/lastmile_qr_scan"}, "name": "2318f0f3f072ba2a0c6165586dbde7b3", "type": "electric_scooter", "lat": 38.90394516666667, "is_disabled": 0}, {"fusion_lat": 0.0, "lon": -76.9869635, "is_reserved": 0, "bike_id": "73a93e4b75bfa003bbf8433aedc1bb54", "fusion_lon": 0.0, "rental_uris": {"android": "https://dc.lft.to/lastmile_qr_scan", "ios": "https://dc.lft.to/lastmile_qr_scan"}, "name": "73a93e4b75bfa003bbf8433aedc1bb54", "type": "electric_scooter", "lat": 38.862520333333336, "is_disabled": 0}, {"fusion_lat": 0.0, "lon": -77.01156416666667, "is_reserved": 0, "bike_id": "d0eac24c85eb5740eb78dc60f4edb940", "fusion_lon": 0.0, "rental_uris": {"android": "https://dc.lft.to/lastmile_qr_scan", "ios": "https://dc.lft.to/lastmile_qr_scan"}, "name": "d0eac24c85eb5740eb78dc60f4edb940", "type": "electric_scooter", "lat": 38.900289, "is_disabled": 0}, {"fusion_lat": 0.0, "lon": -77.0632795, "is_reserved": 0, "bike_id": "609e3962a94169b957935f0c5f3fc65a", "fusion_lon": 0.0, "rental_uris": {"android": "https://dc.lft.to/lastmile_qr_scan", "ios": "https://dc.lft.to/lastmile_qr_scan"}, "name": "609e3962a94169b957935f0c5f3fc65a", "type": "electric_scooter", "lat": 38.907690833333334, "is_disabled": 0}, {"fusion_lat": 0.0, "lon": -77.07276316666666, "is_reserved": 0, "bike_id": "55f0521a41bae4896af0ab8ea1a08586", "fusion_lon": 0.0, "rental_uris": {"android": "https://dc.lft.to/lastmile_qr_scan", "ios": "https://dc.lft.to/lastmile_qr_scan"}, "name": "55f0521a41bae4896af0ab8ea1a08586", "type": "electric_scooter", "lat": 38.934824, "is_disabled": 0}, {"fusion_lat": 0.0, "lon": -77.0122005, "is_reserved": 0, "bike_id": "cd7fb5fdaf3c6b2322782300856c837c", "fusion_lon": 0.0, "rental_uris": {"android": "https://dc.lft.to/lastmile_qr_scan", "ios": "https://dc.lft.to/lastmile_qr_scan"}, "name": "cd7fb5fdaf3c6b2322782300856c837c", "type": "electric_scooter", "lat": 38.91519733333333, "is_disabled": 0}, {"fusion_lat": 0.0, "lon": -77.02940133333334, "is_reserved": 0, "bike_id": "ebb978f1ab1f07c9bb3f2c94d08509aa", "fusion_lon": 0.0, "rental_uris": {"android": "https://dc.lft.to/lastmile_qr_scan", "ios": "https://dc.lft.to/lastmile_qr_scan"}, "name": "ebb978f1ab1f07c9bb3f2c94d08509aa", "type": "electric_scooter", "lat": 38.932529833333334, "is_disabled": 0}, {"fusion_lat": 0.0, "lon": -77.03856933333333, "is_reserved": 0, "bike_id": "e37269d4cd217a9c105345e2bcdb08ee", "fusion_lon": 0.0, "rental_uris": {"android": "https://dc.lft.to/lastmile_qr_scan", "ios": "https://dc.lft.to/lastmile_qr_scan"}, "name": "e37269d4cd217a9c105345e2bcdb08ee", "type": "electric_scooter", "lat": 38.906605666666664, "is_disabled": 0}, {"fusion_lat": 0.0, "lon": -77.0177455, "is_reserved": 0, "bike_id": "79b3d874ba1b30c56da336db8f69b5c5", "fusion_lon": 0.0, "rental_uris": {"android": "https://dc.lft.to/lastmile_qr_scan", "ios": "https://dc.lft.to/lastmile_qr_scan"}, "name": "79b3d874ba1b30c56da336db8f69b5c5", "type": "electric_scooter", "lat": 38.8770225, "is_disabled": 0}, {"fusion_lat": 0.0, "lon": -77.07255116666667, "is_reserved": 0, "bike_id": "00eb86e1d6fdffed54f5541ec272377f", "fusion_lon": 0.0, "rental_uris": {"android": "https://dc.lft.to/lastmile_qr_scan", "ios": "https://dc.lft.to/lastmile_qr_scan"}, "name": "00eb86e1d6fdffed54f5541ec272377f", "type": "electric_scooter", "lat": 38.95974433333333, "is_disabled": 0}, {"fusion_lat": 0.0, "lon": -77.01819083333334, "is_reserved": 0, "bike_id": "114494a9a1240b5519e97ec8c9159be5", "fusion_lon": 0.0, "rental_uris": {"android": "https://dc.lft.to/lastmile_qr_scan", "ios": "https://dc.lft.to/lastmile_qr_scan"}, "name": "114494a9a1240b5519e97ec8c9159be5", "type": "electric_scooter", "lat": 38.923679, "is_disabled": 0}, {"fusion_lat": 0.0, "lon": -76.98459083333333, "is_reserved": 0, "bike_id": "b278e6c58ed40eb636faab397c1b37ea", "fusion_lon": 0.0, "rental_uris": {"android": "https://dc.lft.to/lastmile_qr_scan", "ios": "https://dc.lft.to/lastmile_qr_scan"}, "name": "b278e6c58ed40eb636faab397c1b37ea", "type": "electric_scooter", "lat": 38.9001935, "is_disabled": 0}, {"fusion_lat": 0.0, "lon": -77.01257016666666, "is_reserved": 0, "bike_id": "4cc597ac83dab7466504b9a621121f52", "fusion_lon": 0.0, "rental_uris": {"android": "https://dc.lft.to/lastmile_qr_scan", "ios": "https://dc.lft.to/lastmile_qr_scan"}, "name": "4cc597ac83dab7466504b9a621121f52", "type": "electric_scooter", "lat": 38.908441833333335, "is_disabled": 0}, {"fusion_lat": 0.0, "lon": -77.02387466666667, "is_reserved": 0, "bike_id": "b411ce80cff7b6c68f8270b002276b58", "fusion_lon": 0.0, "rental_uris": {"android": "https://dc.lft.to/lastmile_qr_scan", "ios": "https://dc.lft.to/lastmile_qr_scan"}, "name": "b411ce80cff7b6c68f8270b002276b58", "type": "electric_scooter", "lat": 38.929128166666665, "is_disabled": 0}, {"fusion_lat": 0.0, "lon": -77.00583183333333, "is_reserved": 0, "bike_id": "35a8668f775a0d62085915daf63ab7a4", "fusion_lon": 0.0, "rental_uris": {"android": "https://dc.lft.to/lastmile_qr_scan", "ios": "https://dc.lft.to/lastmile_qr_scan"}, "name": "35a8668f775a0d62085915daf63ab7a4", "type": "electric_scooter", "lat": 38.875442, "is_disabled": 0}, {"fusion_lat": 0.0, "lon": -77.03827833333334, "is_reserved": 0, "bike_id": "c10b3003db90c34edf4b66624d7bb763", "fusion_lon": 0.0, "rental_uris": {"android": "https://dc.lft.to/lastmile_qr_scan", "ios": "https://dc.lft.to/lastmile_qr_scan"}, "name": "c10b3003db90c34edf4b66624d7bb763", "type": "electric_scooter", "lat": 38.9111735, "is_disabled": 0}, {"fusion_lat": 0.0, "lon": -77.0454485, "is_reserved": 0, "bike_id": "50089bc9aa405fca870dce5e64550251", "fusion_lon": 0.0, "rental_uris": {"android": "https://dc.lft.to/lastmile_qr_scan", "ios": "https://dc.lft.to/lastmile_qr_scan"}, "name": "50089bc9aa405fca870dce5e64550251", "type": "electric_scooter", "lat": 38.90959183333333, "is_disabled": 0}, {"fusion_lat": 0.0, "lon": -77.05142716666667, "is_reserved": 0, "bike_id": "89b7cac3a177b809a0a6ecfa6af00778", "fusion_lon": 0.0, "rental_uris": {"android": "https://dc.lft.to/lastmile_qr_scan", "ios": "https://dc.lft.to/lastmile_qr_scan"}, "name": "89b7cac3a177b809a0a6ecfa6af00778", "type": "electric_scooter", "lat": 38.897601333333334, "is_disabled": 0}, {"fusion_lat": 0.0, "lon": -77.0006565, "is_reserved": 0, "bike_id": "8ed9a05dfeb3ad508260af5d1417e4ab", "fusion_lon": 0.0, "rental_uris": {"android": "https://dc.lft.to/lastmile_qr_scan", "ios": "https://dc.lft.to/lastmile_qr_scan"}, "name": "8ed9a05dfeb3ad508260af5d1417e4ab", "type": "electric_scooter", "lat": 38.90044483333333, "is_disabled": 0}, {"fusion_lat": 0.0, "lon": -77.03176516666667, "is_reserved": 0, "bike_id": "4380d67eb47f8f9b7c08eb21bc957d35", "fusion_lon": 0.0, "rental_uris": {"android": "https://dc.lft.to/lastmile_qr_scan", "ios": "https://dc.lft.to/lastmile_qr_scan"}, "name": "4380d67eb47f8f9b7c08eb21bc957d35", "type": "electric_scooter", "lat": 38.915524833333336, "is_disabled": 0}, {"fusion_lat": 0.0, "lon": -77.044167, "is_reserved": 0, "bike_id": "0545138c407c20f16f9ea4f47e1802f8", "fusion_lon": 0.0, "rental_uris": {"android": "https://dc.lft.to/lastmile_qr_scan", "ios": "https://dc.lft.to/lastmile_qr_scan"}, "name": "0545138c407c20f16f9ea4f47e1802f8", "type": "electric_scooter", "lat": 38.913591, "is_disabled": 0}, {"fusion_lat": 0.0, "lon": -77.00190866666667, "is_reserved": 0, "bike_id": "f497768ed152d42a9e55e52594607408", "fusion_lon": 0.0, "rental_uris": {"android": "https://dc.lft.to/lastmile_qr_scan", "ios": "https://dc.lft.to/lastmile_qr_scan"}, "name": "f497768ed152d42a9e55e52594607408", "type": "electric_scooter", "lat": 38.90377733333333, "is_disabled": 0}, {"fusion_lat": 0.0, "lon": -77.03790266666667, "is_reserved": 0, "bike_id": "93adf35b6e184afe00dc70ef55b69039", "fusion_lon": 0.0, "rental_uris": {"android": "https://dc.lft.to/lastmile_qr_scan", "ios": "https://dc.lft.to/lastmile_qr_scan"}, "name": "93adf35b6e184afe00dc70ef55b69039", "type": "electric_scooter", "lat": 38.925034, "is_disabled": 0}, {"fusion_lat": 0.0, "lon": -77.030451, "is_reserved": 0, "bike_id": "98ef51d89d418e34b8774bc811e7042e", "fusion_lon": 0.0, "rental_uris": {"android": "https://dc.lft.to/lastmile_qr_scan", "ios": "https://dc.lft.to/lastmile_qr_scan"}, "name": "98ef51d89d418e34b8774bc811e7042e", "type": "electric_scooter", "lat": 38.8840765, "is_disabled": 0}, {"fusion_lat": 0.0, "lon": -77.04693816666666, "is_reserved": 0, "bike_id": "67e52e25bb0097425e30d2c25541e8d3", "fusion_lon": 0.0, "rental_uris": {"android": "https://dc.lft.to/lastmile_qr_scan", "ios": "https://dc.lft.to/lastmile_qr_scan"}, "name": "67e52e25bb0097425e30d2c25541e8d3", "type": "electric_scooter", "lat": 38.92158583333333, "is_disabled": 0}, {"fusion_lat": 0.0, "lon": -77.03082866666666, "is_reserved": 0, "bike_id": "a93e8df6973c7bb2b38c45af9547e5cb", "fusion_lon": 0.0, "rental_uris": {"android": "https://dc.lft.to/lastmile_qr_scan", "ios": "https://dc.lft.to/lastmile_qr_scan"}, "name": "a93e8df6973c7bb2b38c45af9547e5cb", "type": "electric_scooter", "lat": 38.9237955, "is_disabled": 0}, {"fusion_lat": 0.0, "lon": -77.0004945, "is_reserved": 0, "bike_id": "2cb596cd8264ffddf8bf247c378ab30f", "fusion_lon": 0.0, "rental_uris": {"android": "https://dc.lft.to/lastmile_qr_scan", "ios": "https://dc.lft.to/lastmile_qr_scan"}, "name": "2cb596cd8264ffddf8bf247c378ab30f", "type": "electric_scooter", "lat": 38.896380666666666, "is_disabled": 0}, {"fusion_lat": 0.0, "lon": -76.995513, "is_reserved": 0, "bike_id": "15e7a78fe6f610b4bf486c9a54bded7b", "fusion_lon": 0.0, "rental_uris": {"android": "https://dc.lft.to/lastmile_qr_scan", "ios": "https://dc.lft.to/lastmile_qr_scan"}, "name": "15e7a78fe6f610b4bf486c9a54bded7b", "type": "electric_scooter", "lat": 38.86259583333333, "is_disabled": 0}, {"fusion_lat": 0.0, "lon": -77.02480916666667, "is_reserved": 0, "bike_id": "a78522bcc3ffe5d81623987a15d4f8e2", "fusion_lon": 0.0, "rental_uris": {"android": "https://dc.lft.to/lastmile_qr_scan", "ios": "https://dc.lft.to/lastmile_qr_scan"}, "name": "a78522bcc3ffe5d81623987a15d4f8e2", "type": "electric_scooter", "lat": 38.89997866666667, "is_disabled": 0}, {"fusion_lat": 0.0, "lon": -77.00862116666667, "is_reserved": 0, "bike_id": "28a09d1bde12e8121c488b090410e237", "fusion_lon": 0.0, "rental_uris": {"android": "https://dc.lft.to/lastmile_qr_scan", "ios": "https://dc.lft.to/lastmile_qr_scan"}, "name": "28a09d1bde12e8121c488b090410e237", "type": "electric_scooter", "lat": 38.912099833333336, "is_disabled": 0}, {"fusion_lat": 0.0, "lon": -77.0086445, "is_reserved": 0, "bike_id": "8a43ec13d77eb91871658f1119550387", "fusion_lon": 0.0, "rental_uris": {"android": "https://dc.lft.to/lastmile_qr_scan", "ios": "https://dc.lft.to/lastmile_qr_scan"}, "name": "8a43ec13d77eb91871658f1119550387", "type": "electric_scooter", "lat": 38.90640333333333, "is_disabled": 0}, {"fusion_lat": 0.0, "lon": -77.08656816666667, "is_reserved": 0, "bike_id": "6ea07b85ac564ca2f047de8b2b7c1582", "fusion_lon": 0.0, "rental_uris": {"android": "https://dc.lft.to/lastmile_qr_scan", "ios": "https://dc.lft.to/lastmile_qr_scan"}, "name": "6ea07b85ac564ca2f047de8b2b7c1582", "type": "electric_bike", "lat": 38.86249933333333, "is_disabled": 0}, {"fusion_lat": 0.0, "lon": -77.0280355, "is_reserved": 0, "bike_id": "567d29f71f7d9a3777fc627b1fcebdfd", "fusion_lon": 0.0, "rental_uris": {"android": "https://dc.lft.to/lastmile_qr_scan", "ios": "https://dc.lft.to/lastmile_qr_scan"}, "name": "567d29f71f7d9a3777fc627b1fcebdfd", "type": "electric_scooter", "lat": 38.8922745, "is_disabled": 0}, {"fusion_lat": 0.0, "lon": -76.9945425, "is_reserved": 0, "bike_id": "0443a965e9e7279233d6619bcd4401a2", "fusion_lon": 0.0, "rental_uris": {"android": "https://dc.lft.to/lastmile_qr_scan", "ios": "https://dc.lft.to/lastmile_qr_scan"}, "name": "0443a965e9e7279233d6619bcd4401a2", "type": "electric_bike", "lat": 38.96616066666667, "is_disabled": 0}, {"fusion_lat": 0.0, "lon": -77.01323983333333, "is_reserved": 0, "bike_id": "098ed14bc609da7f90aeae3a584b536e", "fusion_lon": 0.0, "rental_uris": {"android": "https://dc.lft.to/lastmile_qr_scan", "ios": "https://dc.lft.to/lastmile_qr_scan"}, "name": "098ed14bc609da7f90aeae3a584b536e", "type": "electric_scooter", "lat": 38.871466, "is_disabled": 0}, {"fusion_lat": 0.0, "lon": -77.043069, "is_reserved": 0, "bike_id": "c4e56ccf676b62f376e283ee00fe90ab", "fusion_lon": 0.0, "rental_uris": {"android": "https://dc.lft.to/lastmile_qr_scan", "ios": "https://dc.lft.to/lastmile_qr_scan"}, "name": "c4e56ccf676b62f376e283ee00fe90ab", "type": "electric_scooter", "lat": 38.923253333333335, "is_disabled": 0}, {"fusion_lat": 0.0, "lon": -77.03489416666666, "is_reserved": 0, "bike_id": "6068f3798e21fa7c6c85838223ce01cf", "fusion_lon": 0.0, "rental_uris": {"android": "https://dc.lft.to/lastmile_qr_scan", "ios": "https://dc.lft.to/lastmile_qr_scan"}, "name": "6068f3798e21fa7c6c85838223ce01cf", "type": "electric_scooter", "lat": 38.92531116666667, "is_disabled": 0}, {"fusion_lat": 0.0, "lon": -77.01753016666666, "is_reserved": 0, "bike_id": "b361f26ab79b5ea99481214a2ef358bc", "fusion_lon": 0.0, "rental_uris": {"android": "https://dc.lft.to/lastmile_qr_scan", "ios": "https://dc.lft.to/lastmile_qr_scan"}, "name": "b361f26ab79b5ea99481214a2ef358bc", "type": "electric_scooter", "lat": 38.8833445, "is_disabled": 0}, {"fusion_lat": 0.0, "lon": -77.038485, "is_reserved": 0, "bike_id": "0556b51acbf21a849748afadc528ebe5", "fusion_lon": 0.0, "rental_uris": {"android": "https://dc.lft.to/lastmile_qr_scan", "ios": "https://dc.lft.to/lastmile_qr_scan"}, "name": "0556b51acbf21a849748afadc528ebe5", "type": "electric_scooter", "lat": 38.9078615, "is_disabled": 0}, {"fusion_lat": 0.0, "lon": -77.00376016666667, "is_reserved": 0, "bike_id": "aef6f1dbc4fe8ed96bc907dc197c3855", "fusion_lon": 0.0, "rental_uris": {"android": "https://dc.lft.to/lastmile_qr_scan", "ios": "https://dc.lft.to/lastmile_qr_scan"}, "name": "aef6f1dbc4fe8ed96bc907dc197c3855", "type": "electric_scooter", "lat": 38.8973115, "is_disabled": 0}, {"fusion_lat": 0.0, "lon": -77.038697, "is_reserved": 0, "bike_id": "739d752b68db1a71c0c1e0518b75ee3c", "fusion_lon": 0.0, "rental_uris": {"android": "https://dc.lft.to/lastmile_qr_scan", "ios": "https://dc.lft.to/lastmile_qr_scan"}, "name": "739d752b68db1a71c0c1e0518b75ee3c", "type": "electric_scooter", "lat": 38.90784283333333, "is_disabled": 0}, {"fusion_lat": 0.0, "lon": -77.03547733333333, "is_reserved": 0, "bike_id": "c74bc1252ee670e53df59ab227cb3d40", "fusion_lon": 0.0, "rental_uris": {"android": "https://dc.lft.to/lastmile_qr_scan", "ios": "https://dc.lft.to/lastmile_qr_scan"}, "name": "c74bc1252ee670e53df59ab227cb3d40", "type": "electric_scooter", "lat": 38.917143833333334, "is_disabled": 0}, {"fusion_lat": 0.0, "lon": -76.96774866666667, "is_reserved": 0, "bike_id": "9049684db6f8c1ea514f2247be387c35", "fusion_lon": 0.0, "rental_uris": {"android": "https://dc.lft.to/lastmile_qr_scan", "ios": "https://dc.lft.to/lastmile_qr_scan"}, "name": "9049684db6f8c1ea514f2247be387c35", "type": "electric_scooter", "lat": 38.859227833333335, "is_disabled": 0}, {"fusion_lat": 0.0, "lon": -77.02321183333333, "is_reserved": 0, "bike_id": "e72aa692aaf8236bb68569bcd563cde3", "fusion_lon": 0.0, "rental_uris": {"android": "https://dc.lft.to/lastmile_qr_scan", "ios": "https://dc.lft.to/lastmile_qr_scan"}, "name": "e72aa692aaf8236bb68569bcd563cde3", "type": "electric_scooter", "lat": 38.917764166666664, "is_disabled": 0}, {"fusion_lat": 0.0, "lon": -76.91607683333334, "is_reserved": 0, "bike_id": "58721e597a2a3b87992642873fbd49d4", "fusion_lon": 0.0, "rental_uris": {"android": "https://dc.lft.to/lastmile_qr_scan", "ios": "https://dc.lft.to/lastmile_qr_scan"}, "name": "58721e597a2a3b87992642873fbd49d4", "type": "electric_bike", "lat": 38.8796735, "is_disabled": 0}, {"fusion_lat": 0.0, "lon": -76.995176, "is_reserved": 0, "bike_id": "29c268ab6f1d694c4bc5e342101f2467", "fusion_lon": 0.0, "rental_uris": {"android": "https://dc.lft.to/lastmile_qr_scan", "ios": "https://dc.lft.to/lastmile_qr_scan"}, "name": "29c268ab6f1d694c4bc5e342101f2467", "type": "electric_scooter", "lat": 38.895397833333334, "is_disabled": 0}, {"fusion_lat": 0.0, "lon": -76.98379816666667, "is_reserved": 0, "bike_id": "2973ce040ebf8ed572f914245cb7e5a4", "fusion_lon": 0.0, "rental_uris": {"android": "https://dc.lft.to/lastmile_qr_scan", "ios": "https://dc.lft.to/lastmile_qr_scan"}, "name": "2973ce040ebf8ed572f914245cb7e5a4", "type": "electric_scooter", "lat": 38.86121033333333, "is_disabled": 0}, {"fusion_lat": 0.0, "lon": -77.026448, "is_reserved": 0, "bike_id": "de9d42747c879671b49d463e1bf58841", "fusion_lon": 0.0, "rental_uris": {"android": "https://dc.lft.to/lastmile_qr_scan", "ios": "https://dc.lft.to/lastmile_qr_scan"}, "name": "de9d42747c879671b49d463e1bf58841", "type": "electric_scooter", "lat": 38.98473116666667, "is_disabled": 0}, {"fusion_lat": 0.0, "lon": -77.01896433333333, "is_reserved": 0, "bike_id": "60e0af10e205d910c01e788bc15bf199", "fusion_lon": 0.0, "rental_uris": {"android": "https://dc.lft.to/lastmile_qr_scan", "ios": "https://dc.lft.to/lastmile_qr_scan"}, "name": "60e0af10e205d910c01e788bc15bf199", "type": "electric_scooter", "lat": 38.90450166666667, "is_disabled": 0}, {"fusion_lat": 0.0, "lon": -77.0220775, "is_reserved": 0, "bike_id": "b6bc5d4c34aa5418fab49cdf8e6ea227", "fusion_lon": 0.0, "rental_uris": {"android": "https://dc.lft.to/lastmile_qr_scan", "ios": "https://dc.lft.to/lastmile_qr_scan"}, "name": "b6bc5d4c34aa5418fab49cdf8e6ea227", "type": "electric_scooter", "lat": 38.9021525, "is_disabled": 0}, {"fusion_lat": 0.0, "lon": -77.03244783333334, "is_reserved": 0, "bike_id": "b5b7c5c8063f8259115ef09c3351d2d6", "fusion_lon": 0.0, "rental_uris": {"android": "https://dc.lft.to/lastmile_qr_scan", "ios": "https://dc.lft.to/lastmile_qr_scan"}, "name": "b5b7c5c8063f8259115ef09c3351d2d6", "type": "electric_scooter", "lat": 38.92844233333334, "is_disabled": 0}, {"fusion_lat": 0.0, "lon": -76.99615383333334, "is_reserved": 0, "bike_id": "34040cd0cf8154738e9d4c6884e931ff", "fusion_lon": 0.0, "rental_uris": {"android": "https://dc.lft.to/lastmile_qr_scan", "ios": "https://dc.lft.to/lastmile_qr_scan"}, "name": "34040cd0cf8154738e9d4c6884e931ff", "type": "electric_scooter", "lat": 38.885596166666666, "is_disabled": 0}, {"fusion_lat": 0.0, "lon": -77.01980716666667, "is_reserved": 0, "bike_id": "7f693e7f60f1daa0422d5a77514f7470", "fusion_lon": 0.0, "rental_uris": {"android": "https://dc.lft.to/lastmile_qr_scan", "ios": "https://dc.lft.to/lastmile_qr_scan"}, "name": "7f693e7f60f1daa0422d5a77514f7470", "type": "electric_scooter", "lat": 38.885786333333336, "is_disabled": 0}, {"fusion_lat": 0.0, "lon": -77.04883033333333, "is_reserved": 0, "bike_id": "ca26670615fd82553466e1f99af3ff03", "fusion_lon": 0.0, "rental_uris": {"android": "https://dc.lft.to/lastmile_qr_scan", "ios": "https://dc.lft.to/lastmile_qr_scan"}, "name": "ca26670615fd82553466e1f99af3ff03", "type": "electric_scooter", "lat": 38.901139666666666, "is_disabled": 0}, {"fusion_lat": 0.0, "lon": -76.98594366666667, "is_reserved": 0, "bike_id": "712ed2976a10e8e4f1fe6ef7e3c9996e", "fusion_lon": 0.0, "rental_uris": {"android": "https://dc.lft.to/lastmile_qr_scan", "ios": "https://dc.lft.to/lastmile_qr_scan"}, "name": "712ed2976a10e8e4f1fe6ef7e3c9996e", "type": "electric_scooter", "lat": 38.906402666666665, "is_disabled": 0}, {"fusion_lat": 0.0, "lon": -77.08777383333333, "is_reserved": 0, "bike_id": "008c6418eda728d6222652af357805ab", "fusion_lon": 0.0, "rental_uris": {"android": "https://dc.lft.to/lastmile_qr_scan", "ios": "https://dc.lft.to/lastmile_qr_scan"}, "name": "008c6418eda728d6222652af357805ab", "type": "electric_bike", "lat": 38.8389815, "is_disabled": 0}, {"fusion_lat": 0.0, "lon": -76.97710583333334, "is_reserved": 0, "bike_id": "da0aa251995c3ce29beec5a66f52c913", "fusion_lon": 0.0, "rental_uris": {"android": "https://dc.lft.to/lastmile_qr_scan", "ios": "https://dc.lft.to/lastmile_qr_scan"}, "name": "da0aa251995c3ce29beec5a66f52c913", "type": "electric_scooter", "lat": 38.88775283333333, "is_disabled": 0}, {"fusion_lat": 0.0, "lon": -77.01752966666666, "is_reserved": 0, "bike_id": "5749f94184f086f1dabee6f9ab614f6c", "fusion_lon": 0.0, "rental_uris": {"android": "https://dc.lft.to/lastmile_qr_scan", "ios": "https://dc.lft.to/lastmile_qr_scan"}, "name": "5749f94184f086f1dabee6f9ab614f6c", "type": "electric_scooter", "lat": 38.8945885, "is_disabled": 0}, {"fusion_lat": 0.0, "lon": -77.00796516666666, "is_reserved": 0, "bike_id": "c51b4b5c3da9877aafd1a3e39a8f1829", "fusion_lon": 0.0, "rental_uris": {"android": "https://dc.lft.to/lastmile_qr_scan", "ios": "https://dc.lft.to/lastmile_qr_scan"}, "name": "c51b4b5c3da9877aafd1a3e39a8f1829", "type": "electric_scooter", "lat": 38.89644033333333, "is_disabled": 0}, {"fusion_lat": 0.0, "lon": -76.97871783333333, "is_reserved": 0, "bike_id": "9dc39ff0974af04c09c1ba17706bfca8", "fusion_lon": 0.0, "rental_uris": {"android": "https://dc.lft.to/lastmile_qr_scan", "ios": "https://dc.lft.to/lastmile_qr_scan"}, "name": "9dc39ff0974af04c09c1ba17706bfca8", "type": "electric_scooter", "lat": 38.88300866666667, "is_disabled": 0}, {"fusion_lat": 0.0, "lon": -77.07236833333333, "is_reserved": 0, "bike_id": "d318f0f774eb3d0ba263e2ebd0d38ad6", "fusion_lon": 0.0, "rental_uris": {"android": "https://dc.lft.to/lastmile_qr_scan", "ios": "https://dc.lft.to/lastmile_qr_scan"}, "name": "d318f0f774eb3d0ba263e2ebd0d38ad6", "type": "electric_scooter", "lat": 38.940071, "is_disabled": 0}, {"fusion_lat": 0.0, "lon": -77.00367916666667, "is_reserved": 0, "bike_id": "dbcb6102b874c2c2d3d07c1983d84e65", "fusion_lon": 0.0, "rental_uris": {"android": "https://dc.lft.to/lastmile_qr_scan", "ios": "https://dc.lft.to/lastmile_qr_scan"}, "name": "dbcb6102b874c2c2d3d07c1983d84e65", "type": "electric_scooter", "lat": 38.897310166666664, "is_disabled": 0}, {"fusion_lat": 0.0, "lon": -77.02726516666667, "is_reserved": 0, "bike_id": "dbd1e0ddec712fb182c3a75e74c3dd4d", "fusion_lon": 0.0, "rental_uris": {"android": "https://dc.lft.to/lastmile_qr_scan", "ios": "https://dc.lft.to/lastmile_qr_scan"}, "name": "dbd1e0ddec712fb182c3a75e74c3dd4d", "type": "electric_scooter", "lat": 38.89751866666667, "is_disabled": 0}, {"fusion_lat": 0.0, "lon": -76.99467783333333, "is_reserved": 0, "bike_id": "d46d8932a6d4664dddbbb03935f1becb", "fusion_lon": 0.0, "rental_uris": {"android": "https://dc.lft.to/lastmile_qr_scan", "ios": "https://dc.lft.to/lastmile_qr_scan"}, "name": "d46d8932a6d4664dddbbb03935f1becb", "type": "electric_scooter", "lat": 38.8622405, "is_disabled": 0}, {"fusion_lat": 0.0, "lon": -77.02612183333333, "is_reserved": 0, "bike_id": "539354ca7879128cd1de8e5bfeea4c23", "fusion_lon": 0.0, "rental_uris": {"android": "https://dc.lft.to/lastmile_qr_scan", "ios": "https://dc.lft.to/lastmile_qr_scan"}, "name": "539354ca7879128cd1de8e5bfeea4c23", "type": "electric_scooter", "lat": 38.892419, "is_disabled": 0}, {"fusion_lat": 0.0, "lon": -77.02837566666666, "is_reserved": 0, "bike_id": "813c4f4e92148d37adad8c8bc6f74811", "fusion_lon": 0.0, "rental_uris": {"android": "https://dc.lft.to/lastmile_qr_scan", "ios": "https://dc.lft.to/lastmile_qr_scan"}, "name": "813c4f4e92148d37adad8c8bc6f74811", "type": "electric_scooter", "lat": 38.92851683333333, "is_disabled": 0}, {"fusion_lat": 0.0, "lon": -77.05156916666667, "is_reserved": 0, "bike_id": "b1740ee494f18e472ae15ee380885ca2", "fusion_lon": 0.0, "rental_uris": {"android": "https://dc.lft.to/lastmile_qr_scan", "ios": "https://dc.lft.to/lastmile_qr_scan"}, "name": "b1740ee494f18e472ae15ee380885ca2", "type": "electric_scooter", "lat": 38.90557483333333, "is_disabled": 0}, {"fusion_lat": 0.0, "lon": -77.03399033333334, "is_reserved": 0, "bike_id": "fc77a4ef35f786e8efed8017e92cba9f", "fusion_lon": 0.0, "rental_uris": {"android": "https://dc.lft.to/lastmile_qr_scan", "ios": "https://dc.lft.to/lastmile_qr_scan"}, "name": "fc77a4ef35f786e8efed8017e92cba9f", "type": "electric_scooter", "lat": 38.923435, "is_disabled": 0}, {"fusion_lat": 0.0, "lon": -76.98440433333333, "is_reserved": 0, "bike_id": "8e709069bc8b06fca7382fa07c51e1a3", "fusion_lon": 0.0, "rental_uris": {"android": "https://dc.lft.to/lastmile_qr_scan", "ios": "https://dc.lft.to/lastmile_qr_scan"}, "name": "8e709069bc8b06fca7382fa07c51e1a3", "type": "electric_bike", "lat": 38.85523716666667, "is_disabled": 0}, {"fusion_lat": 0.0, "lon": -77.0121045, "is_reserved": 0, "bike_id": "d4eb10c6e97e7d6ff8989bb982af57de", "fusion_lon": 0.0, "rental_uris": {"android": "https://dc.lft.to/lastmile_qr_scan", "ios": "https://dc.lft.to/lastmile_qr_scan"}, "name": "d4eb10c6e97e7d6ff8989bb982af57de", "type": "electric_scooter", "lat": 38.918356833333334, "is_disabled": 0}, {"fusion_lat": 0.0, "lon": -76.99122216666666, "is_reserved": 0, "bike_id": "495182599c3ab058c3eb91d14d2a3617", "fusion_lon": 0.0, "rental_uris": {"android": "https://dc.lft.to/lastmile_qr_scan", "ios": "https://dc.lft.to/lastmile_qr_scan"}, "name": "495182599c3ab058c3eb91d14d2a3617", "type": "electric_scooter", "lat": 38.862033833333335, "is_disabled": 0}, {"fusion_lat": 0.0, "lon": -77.04300983333333, "is_reserved": 0, "bike_id": "2ae9ce5a85201d8c03b9326bdc2b7c81", "fusion_lon": 0.0, "rental_uris": {"android": "https://dc.lft.to/lastmile_qr_scan", "ios": "https://dc.lft.to/lastmile_qr_scan"}, "name": "2ae9ce5a85201d8c03b9326bdc2b7c81", "type": "electric_scooter", "lat": 38.90425616666667, "is_disabled": 0}, {"fusion_lat": 0.0, "lon": -77.01386433333333, "is_reserved": 0, "bike_id": "73dc512bfc9c135499bcc0281e8ea9df", "fusion_lon": 0.0, "rental_uris": {"android": "https://dc.lft.to/lastmile_qr_scan", "ios": "https://dc.lft.to/lastmile_qr_scan"}, "name": "73dc512bfc9c135499bcc0281e8ea9df", "type": "electric_scooter", "lat": 38.928591833333336, "is_disabled": 0}, {"fusion_lat": 0.0, "lon": -77.03822233333334, "is_reserved": 0, "bike_id": "e0bee85f80601b180e748d3940280256", "fusion_lon": 0.0, "rental_uris": {"android": "https://dc.lft.to/lastmile_qr_scan", "ios": "https://dc.lft.to/lastmile_qr_scan"}, "name": "e0bee85f80601b180e748d3940280256", "type": "electric_scooter", "lat": 38.91690766666667, "is_disabled": 0}, {"fusion_lat": 0.0, "lon": -77.00335416666667, "is_reserved": 0, "bike_id": "438a87f4d80865acfcaed9a056bdaf5c", "fusion_lon": 0.0, "rental_uris": {"android": "https://dc.lft.to/lastmile_qr_scan", "ios": "https://dc.lft.to/lastmile_qr_scan"}, "name": "438a87f4d80865acfcaed9a056bdaf5c", "type": "electric_scooter", "lat": 38.89524383333333, "is_disabled": 0}, {"fusion_lat": 0.0, "lon": -77.026754, "is_reserved": 0, "bike_id": "a0bb6c57c96f954b176daaccea6c486f", "fusion_lon": 0.0, "rental_uris": {"android": "https://dc.lft.to/lastmile_qr_scan", "ios": "https://dc.lft.to/lastmile_qr_scan"}, "name": "a0bb6c57c96f954b176daaccea6c486f", "type": "electric_scooter", "lat": 38.9843025, "is_disabled": 0}, {"fusion_lat": 0.0, "lon": -77.064955, "is_reserved": 0, "bike_id": "29f0ceaed9e29e44a3ec37151a4d38ff", "fusion_lon": 0.0, "rental_uris": {"android": "https://dc.lft.to/lastmile_qr_scan", "ios": "https://dc.lft.to/lastmile_qr_scan"}, "name": "29f0ceaed9e29e44a3ec37151a4d38ff", "type": "electric_scooter", "lat": 38.92908416666667, "is_disabled": 0}, {"fusion_lat": 0.0, "lon": -77.0089155, "is_reserved": 0, "bike_id": "231a6f50d7bf98eab4e52c5f9ebddca8", "fusion_lon": 0.0, "rental_uris": {"android": "https://dc.lft.to/lastmile_qr_scan", "ios": "https://dc.lft.to/lastmile_qr_scan"}, "name": "231a6f50d7bf98eab4e52c5f9ebddca8", "type": "electric_scooter", "lat": 38.91705816666666, "is_disabled": 0}, {"fusion_lat": 0.0, "lon": -76.999348, "is_reserved": 0, "bike_id": "0bb3fe64ad8bc171eb183646289116a2", "fusion_lon": 0.0, "rental_uris": {"android": "https://dc.lft.to/lastmile_qr_scan", "ios": "https://dc.lft.to/lastmile_qr_scan"}, "name": "0bb3fe64ad8bc171eb183646289116a2", "type": "electric_scooter", "lat": 38.896276666666665, "is_disabled": 0}, {"fusion_lat": 0.0, "lon": -77.043156, "is_reserved": 0, "bike_id": "a486d3dfffe71bb66cbde891459497f2", "fusion_lon": 0.0, "rental_uris": {"android": "https://dc.lft.to/lastmile_qr_scan", "ios": "https://dc.lft.to/lastmile_qr_scan"}, "name": "a486d3dfffe71bb66cbde891459497f2", "type": "electric_scooter", "lat": 38.92657633333334, "is_disabled": 0}, {"fusion_lat": 0.0, "lon": -77.0359585, "is_reserved": 0, "bike_id": "b1170af04f990ab5bd7eee5cb0be789e", "fusion_lon": 0.0, "rental_uris": {"android": "https://dc.lft.to/lastmile_qr_scan", "ios": "https://dc.lft.to/lastmile_qr_scan"}, "name": "b1170af04f990ab5bd7eee5cb0be789e", "type": "electric_scooter", "lat": 38.9175565, "is_disabled": 0}, {"fusion_lat": 0.0, "lon": -77.04811816666667, "is_reserved": 0, "bike_id": "a5cf8adeb40d28dafb7c40ce2d5dc01b", "fusion_lon": 0.0, "rental_uris": {"android": "https://dc.lft.to/lastmile_qr_scan", "ios": "https://dc.lft.to/lastmile_qr_scan"}, "name": "a5cf8adeb40d28dafb7c40ce2d5dc01b", "type": "electric_scooter", "lat": 38.920349333333334, "is_disabled": 0}, {"fusion_lat": 0.0, "lon": -76.93733916666666, "is_reserved": 0, "bike_id": "24934fbae9c353947c955baa0483e75e", "fusion_lon": 0.0, "rental_uris": {"android": "https://dc.lft.to/lastmile_qr_scan", "ios": "https://dc.lft.to/lastmile_qr_scan"}, "name": "24934fbae9c353947c955baa0483e75e", "type": "electric_scooter", "lat": 38.89013283333333, "is_disabled": 0}, {"fusion_lat": 0.0, "lon": -77.04728933333334, "is_reserved": 0, "bike_id": "d1faaadd3334cb587a9662296ad579c4", "fusion_lon": 0.0, "rental_uris": {"android": "https://dc.lft.to/lastmile_qr_scan", "ios": "https://dc.lft.to/lastmile_qr_scan"}, "name": "d1faaadd3334cb587a9662296ad579c4", "type": "electric_scooter", "lat": 38.912552833333336, "is_disabled": 0}, {"fusion_lat": 0.0, "lon": -76.98888633333334, "is_reserved": 0, "bike_id": "8d34e6b0ad553af1429d2da1a07582de", "fusion_lon": 0.0, "rental_uris": {"android": "https://dc.lft.to/lastmile_qr_scan", "ios": "https://dc.lft.to/lastmile_qr_scan"}, "name": "8d34e6b0ad553af1429d2da1a07582de", "type": "electric_scooter", "lat": 38.866470166666666, "is_disabled": 0}, {"fusion_lat": 0.0, "lon": -77.01824833333333, "is_reserved": 0, "bike_id": "49a78f7d654934c67783480974ec2fcf", "fusion_lon": 0.0, "rental_uris": {"android": "https://dc.lft.to/lastmile_qr_scan", "ios": "https://dc.lft.to/lastmile_qr_scan"}, "name": "49a78f7d654934c67783480974ec2fcf", "type": "electric_scooter", "lat": 38.901434333333334, "is_disabled": 0}, {"fusion_lat": 0.0, "lon": -77.00167, "is_reserved": 0, "bike_id": "b3486417d23d929fadaeaf9538573816", "fusion_lon": 0.0, "rental_uris": {"android": "https://dc.lft.to/lastmile_qr_scan", "ios": "https://dc.lft.to/lastmile_qr_scan"}, "name": "b3486417d23d929fadaeaf9538573816", "type": "electric_scooter", "lat": 38.90742316666667, "is_disabled": 0}, {"fusion_lat": 0.0, "lon": -77.02380666666667, "is_reserved": 0, "bike_id": "4bda321ab505c1289e82d784f8e6bbd9", "fusion_lon": 0.0, "rental_uris": {"android": "https://dc.lft.to/lastmile_qr_scan", "ios": "https://dc.lft.to/lastmile_qr_scan"}, "name": "4bda321ab505c1289e82d784f8e6bbd9", "type": "electric_scooter", "lat": 38.892088666666666, "is_disabled": 0}, {"fusion_lat": 0.0, "lon": -76.9732985, "is_reserved": 0, "bike_id": "cdbf36b01bffd549d8b4b3a416c4e6a4", "fusion_lon": 0.0, "rental_uris": {"android": "https://dc.lft.to/lastmile_qr_scan", "ios": "https://dc.lft.to/lastmile_qr_scan"}, "name": "cdbf36b01bffd549d8b4b3a416c4e6a4", "type": "electric_scooter", "lat": 38.904081166666664, "is_disabled": 0}, {"fusion_lat": 0.0, "lon": -77.02732883333333, "is_reserved": 0, "bike_id": "12be5d0d140ec638a8b9d0fedfa98acb", "fusion_lon": 0.0, "rental_uris": {"android": "https://dc.lft.to/lastmile_qr_scan", "ios": "https://dc.lft.to/lastmile_qr_scan"}, "name": "12be5d0d140ec638a8b9d0fedfa98acb", "type": "electric_scooter", "lat": 38.950077, "is_disabled": 0}, {"fusion_lat": 0.0, "lon": -77.02387733333333, "is_reserved": 0, "bike_id": "59a7d984141eadba8688c385968807d0", "fusion_lon": 0.0, "rental_uris": {"android": "https://dc.lft.to/lastmile_qr_scan", "ios": "https://dc.lft.to/lastmile_qr_scan"}, "name": "59a7d984141eadba8688c385968807d0", "type": "electric_scooter", "lat": 38.90953016666667, "is_disabled": 0}, {"fusion_lat": 0.0, "lon": -77.0237105, "is_reserved": 0, "bike_id": "8cf9ea39be223730ef12c98c1ce8db1d", "fusion_lon": 0.0, "rental_uris": {"android": "https://dc.lft.to/lastmile_qr_scan", "ios": "https://dc.lft.to/lastmile_qr_scan"}, "name": "8cf9ea39be223730ef12c98c1ce8db1d", "type": "electric_scooter", "lat": 38.91987666666667, "is_disabled": 0}, {"fusion_lat": 0.0, "lon": -77.0252315, "is_reserved": 0, "bike_id": "3a9b207b1db0077fdf0524394d4b1322", "fusion_lon": 0.0, "rental_uris": {"android": "https://dc.lft.to/lastmile_qr_scan", "ios": "https://dc.lft.to/lastmile_qr_scan"}, "name": "3a9b207b1db0077fdf0524394d4b1322", "type": "electric_scooter", "lat": 38.92973466666667, "is_disabled": 0}, {"fusion_lat": 0.0, "lon": -77.0316925, "is_reserved": 0, "bike_id": "d0b63e20791a74ca68c074340e984286", "fusion_lon": 0.0, "rental_uris": {"android": "https://dc.lft.to/lastmile_qr_scan", "ios": "https://dc.lft.to/lastmile_qr_scan"}, "name": "d0b63e20791a74ca68c074340e984286", "type": "electric_scooter", "lat": 38.89963616666667, "is_disabled": 0}, {"fusion_lat": 0.0, "lon": -77.030871, "is_reserved": 0, "bike_id": "e77f11513cc548530c5674a826334880", "fusion_lon": 0.0, "rental_uris": {"android": "https://dc.lft.to/lastmile_qr_scan", "ios": "https://dc.lft.to/lastmile_qr_scan"}, "name": "e77f11513cc548530c5674a826334880", "type": "electric_scooter", "lat": 38.9224395, "is_disabled": 0}, {"fusion_lat": 0.0, "lon": -77.00385483333334, "is_reserved": 0, "bike_id": "e15c842ebb25669d0b31922dd3d32684", "fusion_lon": 0.0, "rental_uris": {"android": "https://dc.lft.to/lastmile_qr_scan", "ios": "https://dc.lft.to/lastmile_qr_scan"}, "name": "e15c842ebb25669d0b31922dd3d32684", "type": "electric_scooter", "lat": 38.92366233333333, "is_disabled": 0}, {"fusion_lat": 0.0, "lon": -77.05596233333333, "is_reserved": 0, "bike_id": "6ab0b70c1f6e917fe43f7fbd539dde62", "fusion_lon": 0.0, "rental_uris": {"android": "https://dc.lft.to/lastmile_qr_scan", "ios": "https://dc.lft.to/lastmile_qr_scan"}, "name": "6ab0b70c1f6e917fe43f7fbd539dde62", "type": "electric_scooter", "lat": 38.90767266666667, "is_disabled": 0}, {"fusion_lat": 0.0, "lon": -77.023766, "is_reserved": 0, "bike_id": "ab332538997f6c93bca5e7b74280a37c", "fusion_lon": 0.0, "rental_uris": {"android": "https://dc.lft.to/lastmile_qr_scan", "ios": "https://dc.lft.to/lastmile_qr_scan"}, "name": "ab332538997f6c93bca5e7b74280a37c", "type": "electric_scooter", "lat": 38.901961666666665, "is_disabled": 0}, {"fusion_lat": 0.0, "lon": -76.99597433333334, "is_reserved": 0, "bike_id": "9fda12dccf58c3e2ae3500fb9a42b003", "fusion_lon": 0.0, "rental_uris": {"android": "https://dc.lft.to/lastmile_qr_scan", "ios": "https://dc.lft.to/lastmile_qr_scan"}, "name": "9fda12dccf58c3e2ae3500fb9a42b003", "type": "electric_scooter", "lat": 38.89223066666667, "is_disabled": 0}, {"fusion_lat": 0.0, "lon": -77.04207516666666, "is_reserved": 0, "bike_id": "151a8dff4c34b8229538c711ef4640a8", "fusion_lon": 0.0, "rental_uris": {"android": "https://dc.lft.to/lastmile_qr_scan", "ios": "https://dc.lft.to/lastmile_qr_scan"}, "name": "151a8dff4c34b8229538c711ef4640a8", "type": "electric_scooter", "lat": 38.90380666666667, "is_disabled": 0}, {"fusion_lat": 0.0, "lon": -77.027704, "is_reserved": 0, "bike_id": "42411913433d96e08bfa03fab05d798f", "fusion_lon": 0.0, "rental_uris": {"android": "https://dc.lft.to/lastmile_qr_scan", "ios": "https://dc.lft.to/lastmile_qr_scan"}, "name": "42411913433d96e08bfa03fab05d798f", "type": "electric_scooter", "lat": 38.954223166666665, "is_disabled": 0}, {"fusion_lat": 0.0, "lon": -77.00551783333333, "is_reserved": 0, "bike_id": "239b367b0f2224c34589722ff6a189b8", "fusion_lon": 0.0, "rental_uris": {"android": "https://dc.lft.to/lastmile_qr_scan", "ios": "https://dc.lft.to/lastmile_qr_scan"}, "name": "239b367b0f2224c34589722ff6a189b8", "type": "electric_scooter", "lat": 38.900374666666664, "is_disabled": 0}, {"fusion_lat": 0.0, "lon": -76.9945685, "is_reserved": 0, "bike_id": "c89db98701f8a568c21826fa92d4eb4c", "fusion_lon": 0.0, "rental_uris": {"android": "https://dc.lft.to/lastmile_qr_scan", "ios": "https://dc.lft.to/lastmile_qr_scan"}, "name": "c89db98701f8a568c21826fa92d4eb4c", "type": "electric_scooter", "lat": 38.862173, "is_disabled": 0}, {"fusion_lat": 0.0, "lon": -77.025684, "is_reserved": 0, "bike_id": "914cd704df32ba69b4f9bce0c9de5d69", "fusion_lon": 0.0, "rental_uris": {"android": "https://dc.lft.to/lastmile_qr_scan", "ios": "https://dc.lft.to/lastmile_qr_scan"}, "name": "914cd704df32ba69b4f9bce0c9de5d69", "type": "electric_scooter", "lat": 38.88070783333333, "is_disabled": 0}, {"fusion_lat": 0.0, "lon": -77.0249175, "is_reserved": 0, "bike_id": "39a366782eeb6d85a78231e5aecd7b0b", "fusion_lon": 0.0, "rental_uris": {"android": "https://dc.lft.to/lastmile_qr_scan", "ios": "https://dc.lft.to/lastmile_qr_scan"}, "name": "39a366782eeb6d85a78231e5aecd7b0b", "type": "electric_scooter", "lat": 38.9386195, "is_disabled": 0}, {"fusion_lat": 0.0, "lon": -77.023684, "is_reserved": 0, "bike_id": "13522b92e42eb8b158d96ab49e9489a5", "fusion_lon": 0.0, "rental_uris": {"android": "https://dc.lft.to/lastmile_qr_scan", "ios": "https://dc.lft.to/lastmile_qr_scan"}, "name": "13522b92e42eb8b158d96ab49e9489a5", "type": "electric_bike", "lat": 38.9475365, "is_disabled": 0}, {"fusion_lat": 0.0, "lon": -76.933468, "is_reserved": 0, "bike_id": "6130e9c4c7ea57555d6764c5819f37c8", "fusion_lon": 0.0, "rental_uris": {"android": "https://dc.lft.to/lastmile_qr_scan", "ios": "https://dc.lft.to/lastmile_qr_scan"}, "name": "6130e9c4c7ea57555d6764c5819f37c8", "type": "electric_scooter", "lat": 38.89919483333333, "is_disabled": 0}, {"fusion_lat": 0.0, "lon": -76.97906916666666, "is_reserved": 0, "bike_id": "79d7e45d7a534f53adf0900c084f2335", "fusion_lon": 0.0, "rental_uris": {"android": "https://dc.lft.to/lastmile_qr_scan", "ios": "https://dc.lft.to/lastmile_qr_scan"}, "name": "79d7e45d7a534f53adf0900c084f2335", "type": "electric_scooter", "lat": 38.86344616666667, "is_disabled": 0}, {"fusion_lat": 0.0, "lon": -77.02000716666667, "is_reserved": 0, "bike_id": "944e34c7359ff04335e3670094cab728", "fusion_lon": 0.0, "rental_uris": {"android": "https://dc.lft.to/lastmile_qr_scan", "ios": "https://dc.lft.to/lastmile_qr_scan"}, "name": "944e34c7359ff04335e3670094cab728", "type": "electric_scooter", "lat": 38.966257166666665, "is_disabled": 0}, {"fusion_lat": 0.0, "lon": -77.01533016666667, "is_reserved": 0, "bike_id": "f18ca0e52bcfdab8ac8d9564bab4c1c4", "fusion_lon": 0.0, "rental_uris": {"android": "https://dc.lft.to/lastmile_qr_scan", "ios": "https://dc.lft.to/lastmile_qr_scan"}, "name": "f18ca0e52bcfdab8ac8d9564bab4c1c4", "type": "electric_scooter", "lat": 38.92641616666667, "is_disabled": 0}, {"fusion_lat": 0.0, "lon": -77.03273816666666, "is_reserved": 0, "bike_id": "25ed591e00397950cb10d4f2832a0676", "fusion_lon": 0.0, "rental_uris": {"android": "https://dc.lft.to/lastmile_qr_scan", "ios": "https://dc.lft.to/lastmile_qr_scan"}, "name": "25ed591e00397950cb10d4f2832a0676", "type": "electric_scooter", "lat": 38.9283535, "is_disabled": 0}, {"fusion_lat": 0.0, "lon": -76.99374566666667, "is_reserved": 0, "bike_id": "9736b61b7b045da75f8e25a2ae91cae0", "fusion_lon": 0.0, "rental_uris": {"android": "https://dc.lft.to/lastmile_qr_scan", "ios": "https://dc.lft.to/lastmile_qr_scan"}, "name": "9736b61b7b045da75f8e25a2ae91cae0", "type": "electric_scooter", "lat": 38.883066666666664, "is_disabled": 0}, {"fusion_lat": 0.0, "lon": -77.03960616666667, "is_reserved": 0, "bike_id": "6a35b2fb17fbf7a3b0422f9c849a11cf", "fusion_lon": 0.0, "rental_uris": {"android": "https://dc.lft.to/lastmile_qr_scan", "ios": "https://dc.lft.to/lastmile_qr_scan"}, "name": "6a35b2fb17fbf7a3b0422f9c849a11cf", "type": "electric_scooter", "lat": 38.892404, "is_disabled": 0}, {"fusion_lat": 0.0, "lon": -77.032186, "is_reserved": 0, "bike_id": "bfe10f7a1141152832e191065d672ac1", "fusion_lon": 0.0, "rental_uris": {"android": "https://dc.lft.to/lastmile_qr_scan", "ios": "https://dc.lft.to/lastmile_qr_scan"}, "name": "bfe10f7a1141152832e191065d672ac1", "type": "electric_scooter", "lat": 38.896826, "is_disabled": 0}, {"fusion_lat": 0.0, "lon": -77.00202366666667, "is_reserved": 0, "bike_id": "28a7334f60feb53c2d11ca46037a212c", "fusion_lon": 0.0, "rental_uris": {"android": "https://dc.lft.to/lastmile_qr_scan", "ios": "https://dc.lft.to/lastmile_qr_scan"}, "name": "28a7334f60feb53c2d11ca46037a212c", "type": "electric_scooter", "lat": 38.902378666666664, "is_disabled": 0}, {"fusion_lat": 0.0, "lon": -77.05422366666667, "is_reserved": 0, "bike_id": "dc61fc78ce9b11e8643140d3ea45bf5b", "fusion_lon": 0.0, "rental_uris": {"android": "https://dc.lft.to/lastmile_qr_scan", "ios": "https://dc.lft.to/lastmile_qr_scan"}, "name": "dc61fc78ce9b11e8643140d3ea45bf5b", "type": "electric_scooter", "lat": 38.923498, "is_disabled": 0}, {"fusion_lat": 0.0, "lon": -77.04256616666666, "is_reserved": 0, "bike_id": "1a6d804c6cf8df847a09cfa93bb62d2a", "fusion_lon": 0.0, "rental_uris": {"android": "https://dc.lft.to/lastmile_qr_scan", "ios": "https://dc.lft.to/lastmile_qr_scan"}, "name": "1a6d804c6cf8df847a09cfa93bb62d2a", "type": "electric_scooter", "lat": 38.906314, "is_disabled": 0}, {"fusion_lat": 0.0, "lon": -77.021006, "is_reserved": 0, "bike_id": "70e70c1a9f428bc01872db6214e96c63", "fusion_lon": 0.0, "rental_uris": {"android": "https://dc.lft.to/lastmile_qr_scan", "ios": "https://dc.lft.to/lastmile_qr_scan"}, "name": "70e70c1a9f428bc01872db6214e96c63", "type": "electric_scooter", "lat": 38.91426283333333, "is_disabled": 0}, {"fusion_lat": 0.0, "lon": -77.010107, "is_reserved": 0, "bike_id": "a03a1ccc990a0deeb6ab3e3dff6fc641", "fusion_lon": 0.0, "rental_uris": {"android": "https://dc.lft.to/lastmile_qr_scan", "ios": "https://dc.lft.to/lastmile_qr_scan"}, "name": "a03a1ccc990a0deeb6ab3e3dff6fc641", "type": "electric_bike", "lat": 38.87964816666667, "is_disabled": 0}, {"fusion_lat": 0.0, "lon": -77.0289545, "is_reserved": 0, "bike_id": "b1a71558a88cec382cda05c4a42a0df8", "fusion_lon": 0.0, "rental_uris": {"android": "https://dc.lft.to/lastmile_qr_scan", "ios": "https://dc.lft.to/lastmile_qr_scan"}, "name": "b1a71558a88cec382cda05c4a42a0df8", "type": "electric_scooter", "lat": 38.903155, "is_disabled": 0}, {"fusion_lat": 0.0, "lon": -77.04666883333333, "is_reserved": 0, "bike_id": "7dd4e3f3ec6330d94e4debf8b590db86", "fusion_lon": 0.0, "rental_uris": {"android": "https://dc.lft.to/lastmile_qr_scan", "ios": "https://dc.lft.to/lastmile_qr_scan"}, "name": "7dd4e3f3ec6330d94e4debf8b590db86", "type": "electric_scooter", "lat": 38.91340683333333, "is_disabled": 0}, {"fusion_lat": 0.0, "lon": -77.01982666666666, "is_reserved": 0, "bike_id": "391e597cf159d078bce5ab7162dd6dac", "fusion_lon": 0.0, "rental_uris": {"android": "https://dc.lft.to/lastmile_qr_scan", "ios": "https://dc.lft.to/lastmile_qr_scan"}, "name": "391e597cf159d078bce5ab7162dd6dac", "type": "electric_scooter", "lat": 38.91431583333333, "is_disabled": 0}, {"fusion_lat": 0.0, "lon": -77.024912, "is_reserved": 0, "bike_id": "5b0b68dba001cab952a590628f4ce711", "fusion_lon": 0.0, "rental_uris": {"android": "https://dc.lft.to/lastmile_qr_scan", "ios": "https://dc.lft.to/lastmile_qr_scan"}, "name": "5b0b68dba001cab952a590628f4ce711", "type": "electric_scooter", "lat": 38.93863533333333, "is_disabled": 0}, {"fusion_lat": 0.0, "lon": -77.04079266666666, "is_reserved": 0, "bike_id": "d8c3d9695acaebc83068e7d3f7414472", "fusion_lon": 0.0, "rental_uris": {"android": "https://dc.lft.to/lastmile_qr_scan", "ios": "https://dc.lft.to/lastmile_qr_scan"}, "name": "d8c3d9695acaebc83068e7d3f7414472", "type": "electric_scooter", "lat": 38.91704983333333, "is_disabled": 0}, {"fusion_lat": 0.0, "lon": -77.02695866666667, "is_reserved": 0, "bike_id": "6c1ed7037cfd4ee661f661ce3b111ce9", "fusion_lon": 0.0, "rental_uris": {"android": "https://dc.lft.to/lastmile_qr_scan", "ios": "https://dc.lft.to/lastmile_qr_scan"}, "name": "6c1ed7037cfd4ee661f661ce3b111ce9", "type": "electric_scooter", "lat": 38.91247083333333, "is_disabled": 0}, {"fusion_lat": 0.0, "lon": -77.03495216666667, "is_reserved": 0, "bike_id": "7880031725a945364db47604a579d1d6", "fusion_lon": 0.0, "rental_uris": {"android": "https://dc.lft.to/lastmile_qr_scan", "ios": "https://dc.lft.to/lastmile_qr_scan"}, "name": "7880031725a945364db47604a579d1d6", "type": "electric_scooter", "lat": 38.93263366666667, "is_disabled": 0}, {"fusion_lat": 0.0, "lon": -77.030681, "is_reserved": 0, "bike_id": "7d0ead2a54a43254061584ec3a7391e7", "fusion_lon": 0.0, "rental_uris": {"android": "https://dc.lft.to/lastmile_qr_scan", "ios": "https://dc.lft.to/lastmile_qr_scan"}, "name": "7d0ead2a54a43254061584ec3a7391e7", "type": "electric_scooter", "lat": 38.923763, "is_disabled": 0}, {"fusion_lat": 0.0, "lon": -77.00742316666667, "is_reserved": 0, "bike_id": "875e6db40df19be96c0b8354e528c677", "fusion_lon": 0.0, "rental_uris": {"android": "https://dc.lft.to/lastmile_qr_scan", "ios": "https://dc.lft.to/lastmile_qr_scan"}, "name": "875e6db40df19be96c0b8354e528c677", "type": "electric_scooter", "lat": 38.903778333333335, "is_disabled": 0}, {"fusion_lat": 0.0, "lon": -77.0190865, "is_reserved": 0, "bike_id": "a908aac6e867590fd726dfed0ec11b6a", "fusion_lon": 0.0, "rental_uris": {"android": "https://dc.lft.to/lastmile_qr_scan", "ios": "https://dc.lft.to/lastmile_qr_scan"}, "name": "a908aac6e867590fd726dfed0ec11b6a", "type": "electric_scooter", "lat": 38.94121966666667, "is_disabled": 0}, {"fusion_lat": 0.0, "lon": -77.02743866666667, "is_reserved": 0, "bike_id": "1ce301b9d22d910504538fc03bce7941", "fusion_lon": 0.0, "rental_uris": {"android": "https://dc.lft.to/lastmile_qr_scan", "ios": "https://dc.lft.to/lastmile_qr_scan"}, "name": "1ce301b9d22d910504538fc03bce7941", "type": "electric_scooter", "lat": 38.924052, "is_disabled": 0}, {"fusion_lat": 0.0, "lon": -77.02850233333334, "is_reserved": 0, "bike_id": "49adece169323da26fa502ee6a148b07", "fusion_lon": 0.0, "rental_uris": {"android": "https://dc.lft.to/lastmile_qr_scan", "ios": "https://dc.lft.to/lastmile_qr_scan"}, "name": "49adece169323da26fa502ee6a148b07", "type": "electric_scooter", "lat": 38.911646833333336, "is_disabled": 0}, {"fusion_lat": 0.0, "lon": -76.9901945, "is_reserved": 0, "bike_id": "5fe34a24cb1501b93a3c18586979f018", "fusion_lon": 0.0, "rental_uris": {"android": "https://dc.lft.to/lastmile_qr_scan", "ios": "https://dc.lft.to/lastmile_qr_scan"}, "name": "5fe34a24cb1501b93a3c18586979f018", "type": "electric_scooter", "lat": 38.88182883333333, "is_disabled": 0}, {"fusion_lat": 0.0, "lon": -77.02777483333334, "is_reserved": 0, "bike_id": "5a08f612eaa781032c0837ec5c91402e", "fusion_lon": 0.0, "rental_uris": {"android": "https://dc.lft.to/lastmile_qr_scan", "ios": "https://dc.lft.to/lastmile_qr_scan"}, "name": "5a08f612eaa781032c0837ec5c91402e", "type": "electric_scooter", "lat": 38.929756833333336, "is_disabled": 0}, {"fusion_lat": 0.0, "lon": -77.00067683333333, "is_reserved": 0, "bike_id": "e152ea82ebc74a4f66bbb052da093305", "fusion_lon": 0.0, "rental_uris": {"android": "https://dc.lft.to/lastmile_qr_scan", "ios": "https://dc.lft.to/lastmile_qr_scan"}, "name": "e152ea82ebc74a4f66bbb052da093305", "type": "electric_scooter", "lat": 38.899858333333334, "is_disabled": 0}, {"fusion_lat": 0.0, "lon": -77.02514433333333, "is_reserved": 0, "bike_id": "367e5f6b52982160d2600a445824ca9f", "fusion_lon": 0.0, "rental_uris": {"android": "https://dc.lft.to/lastmile_qr_scan", "ios": "https://dc.lft.to/lastmile_qr_scan"}, "name": "367e5f6b52982160d2600a445824ca9f", "type": "electric_scooter", "lat": 38.92095483333333, "is_disabled": 0}, {"fusion_lat": 0.0, "lon": -77.03257683333334, "is_reserved": 0, "bike_id": "b77cee209f9c67c2462744cf3baca9d7", "fusion_lon": 0.0, "rental_uris": {"android": "https://dc.lft.to/lastmile_qr_scan", "ios": "https://dc.lft.to/lastmile_qr_scan"}, "name": "b77cee209f9c67c2462744cf3baca9d7", "type": "electric_scooter", "lat": 38.92843333333333, "is_disabled": 0}, {"fusion_lat": 0.0, "lon": -77.04324883333334, "is_reserved": 0, "bike_id": "c7b1e7f1cb0c1cac94e18a58db2bff07", "fusion_lon": 0.0, "rental_uris": {"android": "https://dc.lft.to/lastmile_qr_scan", "ios": "https://dc.lft.to/lastmile_qr_scan"}, "name": "c7b1e7f1cb0c1cac94e18a58db2bff07", "type": "electric_scooter", "lat": 38.892188, "is_disabled": 0}, {"fusion_lat": 0.0, "lon": -77.034831, "is_reserved": 0, "bike_id": "e420f6543701e3223999726387bfdd2b", "fusion_lon": 0.0, "rental_uris": {"android": "https://dc.lft.to/lastmile_qr_scan", "ios": "https://dc.lft.to/lastmile_qr_scan"}, "name": "e420f6543701e3223999726387bfdd2b", "type": "electric_scooter", "lat": 38.9054365, "is_disabled": 0}, {"fusion_lat": 0.0, "lon": -77.006998, "is_reserved": 0, "bike_id": "b0e12bd61796ef65a18319c0bf2b9c58", "fusion_lon": 0.0, "rental_uris": {"android": "https://dc.lft.to/lastmile_qr_scan", "ios": "https://dc.lft.to/lastmile_qr_scan"}, "name": "b0e12bd61796ef65a18319c0bf2b9c58", "type": "electric_scooter", "lat": 38.90538933333333, "is_disabled": 0}, {"fusion_lat": 0.0, "lon": -77.0487775, "is_reserved": 0, "bike_id": "036a423315161d982e53464a01a74521", "fusion_lon": 0.0, "rental_uris": {"android": "https://dc.lft.to/lastmile_qr_scan", "ios": "https://dc.lft.to/lastmile_qr_scan"}, "name": "036a423315161d982e53464a01a74521", "type": "electric_scooter", "lat": 38.9010265, "is_disabled": 0}, {"fusion_lat": 0.0, "lon": -77.03643833333334, "is_reserved": 0, "bike_id": "adf008c7bfa034b9e6dae11967fa9fc2", "fusion_lon": 0.0, "rental_uris": {"android": "https://dc.lft.to/lastmile_qr_scan", "ios": "https://dc.lft.to/lastmile_qr_scan"}, "name": "adf008c7bfa034b9e6dae11967fa9fc2", "type": "electric_scooter", "lat": 38.92107683333333, "is_disabled": 0}, {"fusion_lat": 0.0, "lon": -77.02809583333334, "is_reserved": 0, "bike_id": "6a8f17f5be47a28a7442839de841204f", "fusion_lon": 0.0, "rental_uris": {"android": "https://dc.lft.to/lastmile_qr_scan", "ios": "https://dc.lft.to/lastmile_qr_scan"}, "name": "6a8f17f5be47a28a7442839de841204f", "type": "electric_scooter", "lat": 38.90973283333334, "is_disabled": 0}, {"fusion_lat": 0.0, "lon": -77.03181083333334, "is_reserved": 0, "bike_id": "05379d44c044e50d99bdc896aa8b1817", "fusion_lon": 0.0, "rental_uris": {"android": "https://dc.lft.to/lastmile_qr_scan", "ios": "https://dc.lft.to/lastmile_qr_scan"}, "name": "05379d44c044e50d99bdc896aa8b1817", "type": "electric_scooter", "lat": 38.917787833333335, "is_disabled": 0}, {"fusion_lat": 0.0, "lon": -77.0424755, "is_reserved": 0, "bike_id": "f410bb192875a23bc446a6137de5e2ad", "fusion_lon": 0.0, "rental_uris": {"android": "https://dc.lft.to/lastmile_qr_scan", "ios": "https://dc.lft.to/lastmile_qr_scan"}, "name": "f410bb192875a23bc446a6137de5e2ad", "type": "electric_scooter", "lat": 38.91692416666667, "is_disabled": 0}, {"fusion_lat": 0.0, "lon": -76.98102233333333, "is_reserved": 0, "bike_id": "e37d1f6ab25bbfffb49384002cfb96a2", "fusion_lon": 0.0, "rental_uris": {"android": "https://dc.lft.to/lastmile_qr_scan", "ios": "https://dc.lft.to/lastmile_qr_scan"}, "name": "e37d1f6ab25bbfffb49384002cfb96a2", "type": "electric_scooter", "lat": 38.90391, "is_disabled": 0}, {"fusion_lat": 0.0, "lon": -76.98519816666666, "is_reserved": 0, "bike_id": "fdf6bace46268ec3ca2050d9c2f09e68", "fusion_lon": 0.0, "rental_uris": {"android": "https://dc.lft.to/lastmile_qr_scan", "ios": "https://dc.lft.to/lastmile_qr_scan"}, "name": "fdf6bace46268ec3ca2050d9c2f09e68", "type": "electric_scooter", "lat": 38.8665585, "is_disabled": 0}, {"fusion_lat": 0.0, "lon": -77.04653316666666, "is_reserved": 0, "bike_id": "fa24909b2b7afcde32ad211c12335992", "fusion_lon": 0.0, "rental_uris": {"android": "https://dc.lft.to/lastmile_qr_scan", "ios": "https://dc.lft.to/lastmile_qr_scan"}, "name": "fa24909b2b7afcde32ad211c12335992", "type": "electric_scooter", "lat": 38.903327, "is_disabled": 0}, {"fusion_lat": 0.0, "lon": -77.03446666666666, "is_reserved": 0, "bike_id": "b4cb7e7f2214ca63f65baec03431dd51", "fusion_lon": 0.0, "rental_uris": {"android": "https://dc.lft.to/lastmile_qr_scan", "ios": "https://dc.lft.to/lastmile_qr_scan"}, "name": "b4cb7e7f2214ca63f65baec03431dd51", "type": "electric_scooter", "lat": 38.91011833333334, "is_disabled": 0}, {"fusion_lat": 0.0, "lon": -77.01765216666666, "is_reserved": 0, "bike_id": "b4d97b5325a0c6573448f6c2203b621c", "fusion_lon": 0.0, "rental_uris": {"android": "https://dc.lft.to/lastmile_qr_scan", "ios": "https://dc.lft.to/lastmile_qr_scan"}, "name": "b4d97b5325a0c6573448f6c2203b621c", "type": "electric_scooter", "lat": 38.872136166666664, "is_disabled": 0}, {"fusion_lat": 0.0, "lon": -77.039636, "is_reserved": 0, "bike_id": "351e1a1735a401fa581da6c3edb046bc", "fusion_lon": 0.0, "rental_uris": {"android": "https://dc.lft.to/lastmile_qr_scan", "ios": "https://dc.lft.to/lastmile_qr_scan"}, "name": "351e1a1735a401fa581da6c3edb046bc", "type": "electric_scooter", "lat": 38.911808666666666, "is_disabled": 0}, {"fusion_lat": 0.0, "lon": -77.042549, "is_reserved": 0, "bike_id": "d7712a240a24bf588de5ec76968eff13", "fusion_lon": 0.0, "rental_uris": {"android": "https://dc.lft.to/lastmile_qr_scan", "ios": "https://dc.lft.to/lastmile_qr_scan"}, "name": "d7712a240a24bf588de5ec76968eff13", "type": "electric_scooter", "lat": 38.92244066666667, "is_disabled": 0}, {"fusion_lat": 0.0, "lon": -77.017716, "is_reserved": 0, "bike_id": "ff87e27e59dcb9b98066f4798bed4079", "fusion_lon": 0.0, "rental_uris": {"android": "https://dc.lft.to/lastmile_qr_scan", "ios": "https://dc.lft.to/lastmile_qr_scan"}, "name": "ff87e27e59dcb9b98066f4798bed4079", "type": "electric_scooter", "lat": 38.8769985, "is_disabled": 0}, {"fusion_lat": 0.0, "lon": -77.0115935, "is_reserved": 0, "bike_id": "7de61a60ff4ce679b8cfe14c6f2e8baf", "fusion_lon": 0.0, "rental_uris": {"android": "https://dc.lft.to/lastmile_qr_scan", "ios": "https://dc.lft.to/lastmile_qr_scan"}, "name": "7de61a60ff4ce679b8cfe14c6f2e8baf", "type": "electric_bike", "lat": 38.91147383333333, "is_disabled": 0}, {"fusion_lat": 0.0, "lon": -77.00757133333333, "is_reserved": 0, "bike_id": "3bb9b8f1c317ef56d52d5afc418f64e8", "fusion_lon": 0.0, "rental_uris": {"android": "https://dc.lft.to/lastmile_qr_scan", "ios": "https://dc.lft.to/lastmile_qr_scan"}, "name": "3bb9b8f1c317ef56d52d5afc418f64e8", "type": "electric_scooter", "lat": 38.926712, "is_disabled": 0}, {"fusion_lat": 0.0, "lon": -77.1185265, "is_reserved": 0, "bike_id": "1a06eb6e83496f952cdbb9a70d5fa133", "fusion_lon": 0.0, "rental_uris": {"android": "https://dc.lft.to/lastmile_qr_scan", "ios": "https://dc.lft.to/lastmile_qr_scan"}, "name": "1a06eb6e83496f952cdbb9a70d5fa133", "type": "electric_bike", "lat": 38.877353, "is_disabled": 0}, {"fusion_lat": 0.0, "lon": -77.03166383333334, "is_reserved": 0, "bike_id": "09fc1124164a676494d532721c3753fa", "fusion_lon": 0.0, "rental_uris": {"android": "https://dc.lft.to/lastmile_qr_scan", "ios": "https://dc.lft.to/lastmile_qr_scan"}, "name": "09fc1124164a676494d532721c3753fa", "type": "electric_scooter", "lat": 38.887622666666665, "is_disabled": 0}, {"fusion_lat": 0.0, "lon": -77.01691716666667, "is_reserved": 0, "bike_id": "345daaa63479a3e17916b29a72275889", "fusion_lon": 0.0, "rental_uris": {"android": "https://dc.lft.to/lastmile_qr_scan", "ios": "https://dc.lft.to/lastmile_qr_scan"}, "name": "345daaa63479a3e17916b29a72275889", "type": "electric_scooter", "lat": 38.97490466666667, "is_disabled": 0}, {"fusion_lat": 0.0, "lon": -77.00051016666667, "is_reserved": 0, "bike_id": "b374693cb839a92231d84b792ca4a1ee", "fusion_lon": 0.0, "rental_uris": {"android": "https://dc.lft.to/lastmile_qr_scan", "ios": "https://dc.lft.to/lastmile_qr_scan"}, "name": "b374693cb839a92231d84b792ca4a1ee", "type": "electric_scooter", "lat": 38.9079375, "is_disabled": 0}, {"fusion_lat": 0.0, "lon": -77.02743016666666, "is_reserved": 0, "bike_id": "fc2424c98fa2ab5e8cefc35efa972b37", "fusion_lon": 0.0, "rental_uris": {"android": "https://dc.lft.to/lastmile_qr_scan", "ios": "https://dc.lft.to/lastmile_qr_scan"}, "name": "fc2424c98fa2ab5e8cefc35efa972b37", "type": "electric_scooter", "lat": 38.92377783333333, "is_disabled": 0}, {"fusion_lat": 0.0, "lon": -76.98763816666667, "is_reserved": 0, "bike_id": "7b2c94a8ff1bb71d090750e68be7543d", "fusion_lon": 0.0, "rental_uris": {"android": "https://dc.lft.to/lastmile_qr_scan", "ios": "https://dc.lft.to/lastmile_qr_scan"}, "name": "7b2c94a8ff1bb71d090750e68be7543d", "type": "electric_scooter", "lat": 38.900255666666666, "is_disabled": 0}, {"fusion_lat": 0.0, "lon": -77.03101116666667, "is_reserved": 0, "bike_id": "565cff3accda66fcda2be480b1915223", "fusion_lon": 0.0, "rental_uris": {"android": "https://dc.lft.to/lastmile_qr_scan", "ios": "https://dc.lft.to/lastmile_qr_scan"}, "name": "565cff3accda66fcda2be480b1915223", "type": "electric_scooter", "lat": 38.92384833333333, "is_disabled": 0}, {"fusion_lat": 0.0, "lon": -76.997113, "is_reserved": 0, "bike_id": "b71ec2fafb541f7eb344c6ad20614e3a", "fusion_lon": 0.0, "rental_uris": {"android": "https://dc.lft.to/lastmile_qr_scan", "ios": "https://dc.lft.to/lastmile_qr_scan"}, "name": "b71ec2fafb541f7eb344c6ad20614e3a", "type": "electric_scooter", "lat": 38.84430016666666, "is_disabled": 0}, {"fusion_lat": 0.0, "lon": -77.02192316666667, "is_reserved": 0, "bike_id": "4a3474513a69a882a76f415c889e7571", "fusion_lon": 0.0, "rental_uris": {"android": "https://dc.lft.to/lastmile_qr_scan", "ios": "https://dc.lft.to/lastmile_qr_scan"}, "name": "4a3474513a69a882a76f415c889e7571", "type": "electric_scooter", "lat": 38.92058816666667, "is_disabled": 0}, {"fusion_lat": 0.0, "lon": -77.04824183333334, "is_reserved": 0, "bike_id": "6a0b36ea64c6587a19d92a59172cad88", "fusion_lon": 0.0, "rental_uris": {"android": "https://dc.lft.to/lastmile_qr_scan", "ios": "https://dc.lft.to/lastmile_qr_scan"}, "name": "6a0b36ea64c6587a19d92a59172cad88", "type": "electric_scooter", "lat": 38.910460666666665, "is_disabled": 0}, {"fusion_lat": 0.0, "lon": -76.99810983333333, "is_reserved": 0, "bike_id": "d109f5ffe0ebf6fba6459c15b2296feb", "fusion_lon": 0.0, "rental_uris": {"android": "https://dc.lft.to/lastmile_qr_scan", "ios": "https://dc.lft.to/lastmile_qr_scan"}, "name": "d109f5ffe0ebf6fba6459c15b2296feb", "type": "electric_scooter", "lat": 38.88564083333333, "is_disabled": 0}, {"fusion_lat": 0.0, "lon": -77.02061566666667, "is_reserved": 0, "bike_id": "81cd36b3912fefeb31d8222df0e01615", "fusion_lon": 0.0, "rental_uris": {"android": "https://dc.lft.to/lastmile_qr_scan", "ios": "https://dc.lft.to/lastmile_qr_scan"}, "name": "81cd36b3912fefeb31d8222df0e01615", "type": "electric_bike", "lat": 38.95751833333333, "is_disabled": 0}, {"fusion_lat": 0.0, "lon": -77.00342816666667, "is_reserved": 0, "bike_id": "87ad99b19b0f6583ba9744c72dfc0dc9", "fusion_lon": 0.0, "rental_uris": {"android": "https://dc.lft.to/lastmile_qr_scan", "ios": "https://dc.lft.to/lastmile_qr_scan"}, "name": "87ad99b19b0f6583ba9744c72dfc0dc9", "type": "electric_scooter", "lat": 38.889885, "is_disabled": 0}, {"fusion_lat": 0.0, "lon": -77.04161766666667, "is_reserved": 0, "bike_id": "a4e0af4fa96122dc894d40c276c55285", "fusion_lon": 0.0, "rental_uris": {"android": "https://dc.lft.to/lastmile_qr_scan", "ios": "https://dc.lft.to/lastmile_qr_scan"}, "name": "a4e0af4fa96122dc894d40c276c55285", "type": "electric_scooter", "lat": 38.919788, "is_disabled": 0}, {"fusion_lat": 0.0, "lon": -77.00205483333333, "is_reserved": 0, "bike_id": "b5fde92c964fa23389edc1f2b51dd698", "fusion_lon": 0.0, "rental_uris": {"android": "https://dc.lft.to/lastmile_qr_scan", "ios": "https://dc.lft.to/lastmile_qr_scan"}, "name": "b5fde92c964fa23389edc1f2b51dd698", "type": "electric_scooter", "lat": 38.90056516666667, "is_disabled": 0}, {"fusion_lat": 0.0, "lon": -77.0220315, "is_reserved": 0, "bike_id": "98eed254864fb4ede4a4bc8b893fd6a4", "fusion_lon": 0.0, "rental_uris": {"android": "https://dc.lft.to/lastmile_qr_scan", "ios": "https://dc.lft.to/lastmile_qr_scan"}, "name": "98eed254864fb4ede4a4bc8b893fd6a4", "type": "electric_scooter", "lat": 38.92042083333333, "is_disabled": 0}, {"fusion_lat": 0.0, "lon": -77.07602716666666, "is_reserved": 0, "bike_id": "c1e1e8513825ffcc890f0865e0e2e5be", "fusion_lon": 0.0, "rental_uris": {"android": "https://dc.lft.to/lastmile_qr_scan", "ios": "https://dc.lft.to/lastmile_qr_scan"}, "name": "c1e1e8513825ffcc890f0865e0e2e5be", "type": "electric_scooter", "lat": 38.92053633333333, "is_disabled": 0}, {"fusion_lat": 0.0, "lon": -77.0061035, "is_reserved": 0, "bike_id": "270a2c46695ced63d8be4bd80a685f31", "fusion_lon": 0.0, "rental_uris": {"android": "https://dc.lft.to/lastmile_qr_scan", "ios": "https://dc.lft.to/lastmile_qr_scan"}, "name": "270a2c46695ced63d8be4bd80a685f31", "type": "electric_scooter", "lat": 38.87548133333333, "is_disabled": 0}, {"fusion_lat": 0.0, "lon": -76.99566966666667, "is_reserved": 0, "bike_id": "bf40dcc3521fc9cc40d1ff0b6c63cd49", "fusion_lon": 0.0, "rental_uris": {"android": "https://dc.lft.to/lastmile_qr_scan", "ios": "https://dc.lft.to/lastmile_qr_scan"}, "name": "bf40dcc3521fc9cc40d1ff0b6c63cd49", "type": "electric_scooter", "lat": 38.88421833333334, "is_disabled": 0}, {"fusion_lat": 0.0, "lon": -77.019827, "is_reserved": 0, "bike_id": "e6daee090f79acd38f5399db5783828c", "fusion_lon": 0.0, "rental_uris": {"android": "https://dc.lft.to/lastmile_qr_scan", "ios": "https://dc.lft.to/lastmile_qr_scan"}, "name": "e6daee090f79acd38f5399db5783828c", "type": "electric_scooter", "lat": 38.89557333333333, "is_disabled": 0}, {"fusion_lat": 0.0, "lon": -77.0032515, "is_reserved": 0, "bike_id": "693a61f2b594b3418d17094f316928a1", "fusion_lon": 0.0, "rental_uris": {"android": "https://dc.lft.to/lastmile_qr_scan", "ios": "https://dc.lft.to/lastmile_qr_scan"}, "name": "693a61f2b594b3418d17094f316928a1", "type": "electric_scooter", "lat": 38.90263916666667, "is_disabled": 0}, {"fusion_lat": 0.0, "lon": -77.009281, "is_reserved": 0, "bike_id": "f111b8dd155b36771ef2936a49b19194", "fusion_lon": 0.0, "rental_uris": {"android": "https://dc.lft.to/lastmile_qr_scan", "ios": "https://dc.lft.to/lastmile_qr_scan"}, "name": "f111b8dd155b36771ef2936a49b19194", "type": "electric_scooter", "lat": 38.89603316666667, "is_disabled": 0}, {"fusion_lat": 0.0, "lon": -77.03287466666667, "is_reserved": 0, "bike_id": "7765392148255fa4af9aacc0e0ad6dee", "fusion_lon": 0.0, "rental_uris": {"android": "https://dc.lft.to/lastmile_qr_scan", "ios": "https://dc.lft.to/lastmile_qr_scan"}, "name": "7765392148255fa4af9aacc0e0ad6dee", "type": "electric_scooter", "lat": 38.902611666666665, "is_disabled": 0}, {"fusion_lat": 0.0, "lon": -76.98092383333334, "is_reserved": 0, "bike_id": "43757912f617f6f8180867862adab0ad", "fusion_lon": 0.0, "rental_uris": {"android": "https://dc.lft.to/lastmile_qr_scan", "ios": "https://dc.lft.to/lastmile_qr_scan"}, "name": "43757912f617f6f8180867862adab0ad", "type": "electric_bike", "lat": 38.88133, "is_disabled": 0}, {"fusion_lat": 0.0, "lon": -77.04326616666667, "is_reserved": 0, "bike_id": "41e379bbbcc90710c0e2a83c8af38bf4", "fusion_lon": 0.0, "rental_uris": {"android": "https://dc.lft.to/lastmile_qr_scan", "ios": "https://dc.lft.to/lastmile_qr_scan"}, "name": "41e379bbbcc90710c0e2a83c8af38bf4", "type": "electric_scooter", "lat": 38.90221666666667, "is_disabled": 0}, {"fusion_lat": 0.0, "lon": -77.02292683333333, "is_reserved": 0, "bike_id": "30a82679b56f2bcd3c6cd7f9573d8e15", "fusion_lon": 0.0, "rental_uris": {"android": "https://dc.lft.to/lastmile_qr_scan", "ios": "https://dc.lft.to/lastmile_qr_scan"}, "name": "30a82679b56f2bcd3c6cd7f9573d8e15", "type": "electric_scooter", "lat": 38.917880333333336, "is_disabled": 0}, {"fusion_lat": 0.0, "lon": -77.05416966666667, "is_reserved": 0, "bike_id": "5a55eef371dbf2ede7e325c5981220bd", "fusion_lon": 0.0, "rental_uris": {"android": "https://dc.lft.to/lastmile_qr_scan", "ios": "https://dc.lft.to/lastmile_qr_scan"}, "name": "5a55eef371dbf2ede7e325c5981220bd", "type": "electric_scooter", "lat": 38.902386166666666, "is_disabled": 0}, {"fusion_lat": 0.0, "lon": -76.93366016666667, "is_reserved": 0, "bike_id": "12c844937d2d8b90a14eddc978c4dbc3", "fusion_lon": 0.0, "rental_uris": {"android": "https://dc.lft.to/lastmile_qr_scan", "ios": "https://dc.lft.to/lastmile_qr_scan"}, "name": "12c844937d2d8b90a14eddc978c4dbc3", "type": "electric_scooter", "lat": 38.899168333333336, "is_disabled": 0}, {"fusion_lat": 0.0, "lon": -76.9883525, "is_reserved": 0, "bike_id": "c99e616ebcf088687e7fdce6562ee2c7", "fusion_lon": 0.0, "rental_uris": {"android": "https://dc.lft.to/lastmile_qr_scan", "ios": "https://dc.lft.to/lastmile_qr_scan"}, "name": "c99e616ebcf088687e7fdce6562ee2c7", "type": "electric_scooter", "lat": 38.89244466666667, "is_disabled": 0}, {"fusion_lat": 0.0, "lon": -77.02192766666667, "is_reserved": 0, "bike_id": "062156f07af91b59d419e55c095e9958", "fusion_lon": 0.0, "rental_uris": {"android": "https://dc.lft.to/lastmile_qr_scan", "ios": "https://dc.lft.to/lastmile_qr_scan"}, "name": "062156f07af91b59d419e55c095e9958", "type": "electric_scooter", "lat": 38.92269433333333, "is_disabled": 0}, {"fusion_lat": 0.0, "lon": -76.99585966666666, "is_reserved": 0, "bike_id": "fac3ce0aa4e06141b132431129d8c9ba", "fusion_lon": 0.0, "rental_uris": {"android": "https://dc.lft.to/lastmile_qr_scan", "ios": "https://dc.lft.to/lastmile_qr_scan"}, "name": "fac3ce0aa4e06141b132431129d8c9ba", "type": "electric_scooter", "lat": 38.851790333333334, "is_disabled": 0}, {"fusion_lat": 0.0, "lon": -77.017716, "is_reserved": 0, "bike_id": "08cf5026708d2fe6f4647011f0083202", "fusion_lon": 0.0, "rental_uris": {"android": "https://dc.lft.to/lastmile_qr_scan", "ios": "https://dc.lft.to/lastmile_qr_scan"},